{
"stations":[
{"code":1171443,"name":"安芸矢口","lon":132.495094,"lat":34.463579,"lines":[11714],"next":[1171442,9970909,1171708,9970910,1171710,1171444,1171440,1171709]},
{"code":1171444,"name":"戸坂","lon":132.491246,"lat":34.438193,"lines":[11714],"next":[1161111,9970906,1171445,9970907,9970909,1171440,1171443,9970908]},
{"code":1171445,"name":"矢賀","lon":132.497769,"lat":34.399319,"lines":[11714],"next":[1161112,1161115,1161114,9970906,1161111,1171444,9971002]},
{"code":1161115,"name":"広島","lon":132.475593,"lat":34.397446,"lines":[11714,11611,11716,11717,50025],"next":[9971703,9970906,9971002,1171445,9971001,9971005,9971704,9971705,9970905]},
{"code":9971001,"name":"広島駅","lon":132.475403,"lat":34.396296,"lines":[99710,99711,99713,99714],"next":[9971004,1161115,9971002,9971003,9971005]},
{"code":1161114,"name":"天神川","lon":132.498311,"lat":34.389959,"lines":[11611,11716],"next":[1171445,1161112,9971304,9971306,1161113,9971002]},
{"code":1161130,"name":"新白島","lon":132.461528,"lat":34.408361,"lines":[11611,99709,11717],"next":[9970903,9970904,1161116,9971705]},
{"code":1161116,"name":"横川(広島)","lon":132.450450,"lat":34.410173,"lines":[11611,11717],"next":[9970904,9971502,1161130,9971501,9970905,1171703,9970903]},
{"code":9971501,"name":"横川駅","lon":132.450496,"lat":34.409512,"lines":[99715,99716],"next":[9970903,1161116,9971502]},
{"code":1161117,"name":"西広島","lon":132.427979,"lat":34.397832,"lines":[11611],"next":[9971120,9971121,9970921,9971119,9971117,1171703]},
{"code":9971120,"name":"広電西広島（己斐）","lon":132.428255,"lat":34.397261,"lines":[99711,99712],"next":[9971121,1161117,9971119]},
{"code":1161118,"name":"新井口","lon":132.391924,"lat":34.375601,"lines":[11611],"next":[9970921,9971126,9971124,9971128,9971127,9971125]},
{"code":9971126,"name":"商工センター入口","lon":132.391999,"lat":34.375423,"lines":[99711],"next":[9971125,1161118,9971420,9971127]},
{"code":1161119,"name":"五日市","lon":132.367717,"lat":34.366798,"lines":[11611],"next":[9970921,9971128,9971129,9971130]},
{"code":9971129,"name":"広電五日市","lon":132.367856,"lat":34.366393,"lines":[99711],"next":[1161119,9971138,9971128,9971130]},
{"code":1161120,"name":"廿日市","lon":132.335657,"lat":34.357837,"lines":[11611],"next":[9970919,9971132,9971133,9971134]},
{"code":9971133,"name":"広電廿日市","lon":132.336179,"lat":34.356621,"lines":[99711],"next":[9971134,9971132,9971135,9971130,9971138,1161120,9971131]},
{"code":1161121,"name":"宮内串戸","lon":132.323706,"lat":34.347963,"lines":[11611],"next":[9971812,9971137,1170823,9971135,9971134,1170141,9971136,9971811,9970919,1161125]},
{"code":9971135,"name":"宮内(広島)","lon":132.325226,"lat":34.347472,"lines":[99711],"next":[1161121,9971136,9971138,9971134,9971133]},
{"code":1161122,"name":"阿品","lon":132.314216,"lat":34.323152,"lines":[11611],"next":[9971140,9971137,9971139,9971138]},
{"code":9971139,"name":"広電阿品","lon":132.314830,"lat":34.321933,"lines":[99711],"next":[9971027,9971141,1161122,1171622,9971138,9971140]},
{"code":1161123,"name":"宮島口","lon":132.302689,"lat":34.312081,"lines":[11611],"next":[1161124,9971140,9971141,9971137]},
{"code":9971141,"name":"広電宮島口","lon":132.304256,"lat":34.312170,"lines":[99711],"next":[1161124,9971139,9971140,1161123,1171622]},
{"code":1161124,"name":"前空","lon":132.289815,"lat":34.301368,"lines":[11611],"next":[9971137,9971141,1161123,1161129,1161128,1171622,1161125]},
{"code":1161125,"name":"大野浦","lon":132.265263,"lat":34.283762,"lines":[11611],"next":[1161129,1161127,9971137,9971811,1161126,1161124,1161121]},
{"code":1161126,"name":"玖波","lon":132.227963,"lat":34.255300,"lines":[11611],"next":[9971811,9971808,1161125,1161127,9971803]},
{"code":1161127,"name":"大竹(広島)","lon":132.223479,"lat":34.217565,"lines":[11611],"next":[9971802,1161129,9971803,1161125,1161126,1172402]},
{"code":1161129,"name":"和木","lon":132.227709,"lat":34.204194,"lines":[11611],"next":[1161127,1161125,1161124,1161128,1172402]},
{"code":1161128,"name":"岩国","lon":132.225631,"lat":34.171828,"lines":[11611,11612,11724],"next":[1161205,1161202,1172402,1161129,1161124,1161204,1171622]},
{"code":1171626,"name":"水尻","lon":132.498763,"lat":34.319433,"lines":[11716],"next":[1171627,9971026,1171625,9971027,9971025]},
{"code":1171703,"name":"三滝","lon":132.447397,"lat":34.417278,"lines":[11717],"next":[9971503,9971117,1171704,9970905,9971502,9970921,9970920,1161117,1161116]},
{"code":1171704,"name":"安芸長束","lon":132.456063,"lat":34.428382,"lines":[11717],"next":[9970905,1171703,9970918,9970906,9970920,1171705,9970916]},
{"code":1171705,"name":"下祇園","lon":132.462328,"lat":34.439354,"lines":[11717],"next":[9970907,9970915,9970914,9970906,1171706,9970908,9970916,1171704]},
{"code":1171706,"name":"古市橋","lon":132.468089,"lat":34.450516,"lines":[11717],"next":[1171707,9970909,9970910,1171705,9970908,9970914,9970912,9970913]},
{"code":1171707,"name":"大町(広島)","lon":132.470655,"lat":34.461136,"lines":[11717,99709],"next":[1171706,9970910,1171708,9970912]},
{"code":1171708,"name":"緑井","lon":132.475851,"lat":34.467459,"lines":[11717],"next":[9970912,1171707,9970910,1171709,1171443]},
{"code":1171709,"name":"七軒茶屋","lon":132.481156,"lat":34.472609,"lines":[11717],"next":[9970912,1171708,9970913,1171710,1171715,1171443]},
{"code":1171710,"name":"梅林(広島)","lon":132.494166,"lat":34.480877,"lines":[11717],"next":[1171711,1171715,1171442,1171443,1171709]},
{"code":9970901,"name":"本通","lon":132.457003,"lat":34.393377,"lines":[99709,99710,99712,99715],"next":[9971011,9971009,9971111,9971110,9971008]},
{"code":9970902,"name":"県庁前(広島)","lon":132.458231,"lat":34.396863,"lines":[99709],"next":[9970903,9971111,9971702,9971009,9971110,9971703,9971008]},
{"code":9970903,"name":"城北","lon":132.458914,"lat":34.405407,"lines":[99709],"next":[1161130,9970902,9971502,9971705,9971703,9971501,9971503,9971111,1161116]},
{"code":9970904,"name":"白島(広島高速交通)","lon":132.462674,"lat":34.411045,"lines":[99709],"next":[1161116,1161130,9971705,9970905]},
{"code":9970905,"name":"牛田(広島)","lon":132.464585,"lat":34.417142,"lines":[99709],"next":[1171704,9970906,9971705,1161116,1171703,9970904,1161115]},
{"code":9970906,"name":"不動院前","lon":132.469306,"lat":34.426921,"lines":[99709],"next":[1161115,1171445,9970907,1171444,1171705,9970905,1171704]},
{"code":9970907,"name":"祇園新橋北","lon":132.470750,"lat":34.435148,"lines":[99709],"next":[1171705,9970906,1171444,9970908]},
{"code":9970908,"name":"西原(広島)","lon":132.474780,"lat":34.443270,"lines":[99709],"next":[1171706,1171705,9970909,9970907,1171444]},
{"code":9970909,"name":"中筋","lon":132.477049,"lat":34.451869,"lines":[99709],"next":[1171706,1171443,9970910,1171444,9970908]},
{"code":9970910,"name":"古市(広島)","lon":132.475080,"lat":34.457863,"lines":[99709],"next":[1171707,1171708,1171706,9970909,1171443]},
{"code":9970912,"name":"毘沙門台","lon":132.462827,"lat":34.469417,"lines":[99709],"next":[1171708,1171709,1171707,9970913,1171706]},
{"code":9970913,"name":"安東","lon":132.453067,"lat":34.475169,"lines":[99709],"next":[1171715,1171709,9970912,9970914,1171706]},
{"code":9970914,"name":"上安","lon":132.444662,"lat":34.475735,"lines":[99709],"next":[1171705,1171715,1171706,9970915,9970913]},
{"code":9970915,"name":"高取","lon":132.438102,"lat":34.475132,"lines":[99709],"next":[1171705,9970916,1171715,9970914]},
{"code":9970916,"name":"長楽寺","lon":132.430600,"lat":34.472782,"lines":[99709],"next":[9970918,9970917,9970915,1171705,1171715,1171704]},
{"code":9970917,"name":"伴","lon":132.419667,"lat":34.469996,"lines":[99709],"next":[1171715,5000201,9970916,1170138,1170137,9970918,5000202]},
{"code":9970918,"name":"大原(広島)","lon":132.412354,"lat":34.462852,"lines":[99709],"next":[9970916,1170138,9970920,9970919,1171704,9970917]},
{"code":9970919,"name":"伴中央","lon":132.405038,"lat":34.455514,"lines":[99709],"next":[9971134,9971132,9970918,1170141,1161120,9970921,9970920,1170138,1161121,1170140]},
{"code":9970920,"name":"大塚(広島)","lon":132.402702,"lat":34.441466,"lines":[99709],"next":[9970918,9970921,9970919,1171704,1171703]},
{"code":9970921,"name":"広域公園前","lon":132.400089,"lat":34.435380,"lines":[99709],"next":[9971124,9971132,1161118,1161119,9971122,9970920,1161117,9971123,9971128,9970919,9971131,9971121,9971130,1171703]},
{"code":9971002,"name":"猿猴橋町","lon":132.475977,"lat":34.395047,"lines":[99710,99711,99713,99714],"next":[1161115,9971003,1171445,9971001,9971304,1161114]},
{"code":9971003,"name":"的場町","lon":132.475076,"lat":34.393277,"lines":[99710,99711,99713,99714],"next":[9971004,9971304,9971002,9971001]},
{"code":9971004,"name":"稲荷町(広島)","lon":132.471728,"lat":34.392569,"lines":[99710,99711,99714],"next":[9971005,9971001,9971304,9971003,9971305]},
{"code":9971005,"name":"銀山町","lon":132.467866,"lat":34.393135,"lines":[99710,99711,99714],"next":[9971306,9971006,9971004,9971702,9971305,1161115,9971703,9971001]},
{"code":9971006,"name":"胡町","lon":132.465076,"lat":34.393401,"lines":[99710,99711,99714],"next":[9971005,9971007,9971012,9971702,9971306]},
{"code":9971007,"name":"八丁堀(広島)","lon":132.463403,"lat":34.393897,"lines":[99710,99711,99714,99717],"next":[9971011,9971012,9971006,9971702,9971008]},
{"code":9971008,"name":"立町","lon":132.460871,"lat":34.394569,"lines":[99710,99711,99714],"next":[9971011,9971009,9971702,9970902,9971007,9970901]},
{"code":9971009,"name":"紙屋町東","lon":132.458167,"lat":34.395101,"lines":[99710,99711,99714],"next":[9971110,9970901,9971008,9970902]},
{"code":9971011,"name":"袋町","lon":132.456214,"lat":34.391187,"lines":[99710,99712,99715],"next":[9971007,9970901,9971112,9971012,9971008,9971111]},
{"code":9971012,"name":"中電前","lon":132.455399,"lat":34.388779,"lines":[99710,99712,99715],"next":[9971015,9971007,9971011,9971306,9971415,9971114,9971112,9971006,9971013]},
{"code":9971013,"name":"市役所前(広島)","lon":132.454455,"lat":34.385875,"lines":[99710,99712,99715],"next":[9971415,9971014,9971012,9971015]},
{"code":9971014,"name":"鷹野橋","lon":132.453918,"lat":34.383431,"lines":[99710,99712,99715],"next":[9971417,9971015,9971418,9971415,9971416,9971013]},
{"code":9971015,"name":"日赤病院前","lon":132.455871,"lat":34.380952,"lines":[99710,99712,99715],"next":[9971012,9971014,9971307,9971306,9971419,9971013,9971418,9971016]},
{"code":9971016,"name":"広電本社前","lon":132.458210,"lat":34.377375,"lines":[99710,99712,99715],"next":[9971419,9971308,9971307,9971017,9971015]},
{"code":9971017,"name":"御幸橋","lon":132.459605,"lat":34.375321,"lines":[99710,99712],"next":[9971420,9971019,9971018,9971022,9971419,9971027,9971020,9971021,9971016,9971308]},
{"code":9971018,"name":"皆実町六丁目","lon":132.464454,"lat":34.374169,"lines":[99710,99712,99713],"next":[9971017,9971308,9971019]},
{"code":9971019,"name":"広大附属学校前","lon":132.464583,"lat":34.371654,"lines":[99710,99712,99713],"next":[9971017,9971308,9971020,9971018]},
{"code":9971020,"name":"県病院前","lon":132.464797,"lat":34.368750,"lines":[99710,99712,99713],"next":[1161113,9971021,9971017,9971308,9971019]},
{"code":9971021,"name":"宇品二丁目","lon":132.464519,"lat":34.366164,"lines":[99710,99712,99713],"next":[9971020,9971022,1161113,9971017]},
{"code":9971022,"name":"宇品三丁目","lon":132.464411,"lat":34.364216,"lines":[99710,99712,99713],"next":[9971023,9971017,1161113,9971021,9971026,9971027]},
{"code":9971023,"name":"宇品四丁目","lon":132.463853,"lat":34.359220,"lines":[99710,99712,99713],"next":[9971022,9971026,9971024,1161113]},
{"code":9971024,"name":"宇品五丁目","lon":132.463660,"lat":34.357343,"lines":[99710,99712,99713],"next":[9971026,1161113,1171627,9971025,9971023]},
{"code":9971025,"name":"海岸通","lon":132.463081,"lat":34.354898,"lines":[99710,99712,99713],"next":[9971026,1171627,1171626,9971024]},
{"code":9971026,"name":"元宇品口","lon":132.459412,"lat":34.354048,"lines":[99710,99712,99713],"next":[9971024,9971025,1171626,9971022,9971027,9971023]},
{"code":9971027,"name":"広島港（宇品）","lon":132.455184,"lat":34.352755,"lines":[99710,99712,99713],"next":[1171625,9971139,9971420,9971017,1171622,1171626,9971026,9971128,9971138,9971127,9971022]},
{"code":9971110,"name":"紙屋町西","lon":132.456965,"lat":34.395455,"lines":[99711,99712,99714,99715],"next":[9971009,9970902,9971111,9970901]},
{"code":9971111,"name":"原爆ドーム前","lon":132.453918,"lat":34.396163,"lines":[99711,99712,99714,99715],"next":[9971503,9970902,9971112,9970901,9971110,9971011,9970903]},
{"code":9971112,"name":"本川町","lon":132.450485,"lat":34.396942,"lines":[99711,99712,99714,99715],"next":[9971503,9971011,9971113,9971012,9971111,9971114,9971504]},
{"code":9971113,"name":"十日市町","lon":132.447138,"lat":34.397438,"lines":[99711,99712,99714,99715,99716],"next":[9971112,9971114,9971504,9971115,9971116]},
{"code":9971114,"name":"土橋(広島)","lon":132.446322,"lat":34.394800,"lines":[99711,99712,99714,99716],"next":[9971113,9971012,9971112,9971415,9971115]},
{"code":9971115,"name":"小網町","lon":132.444220,"lat":34.394543,"lines":[99711,99712],"next":[9971415,9971116,9971113,9971114]},
{"code":9971116,"name":"天満町","lon":132.440572,"lat":34.395216,"lines":[99711,99712],"next":[9971115,9971504,9971113,9971118,9971415,9971117]},
{"code":9971117,"name":"観音町(広島)","lon":132.438405,"lat":34.395534,"lines":[99711,99712],"next":[1171703,9971119,9971503,1161117,9971504,9971116,9971118]},
{"code":9971118,"name":"西観音町","lon":132.436860,"lat":34.393976,"lines":[99711,99712],"next":[9971418,9971415,9971116,9971417,9971416,9971119,9971117]},
{"code":9971119,"name":"福島町","lon":132.433898,"lat":34.394985,"lines":[99711,99712],"next":[9971117,9971418,1161117,9971120,9971118,9971121]},
{"code":9971121,"name":"東高須","lon":132.420224,"lat":34.391922,"lines":[99711],"next":[9971120,1161117,9971419,9970921,9971418,9971122,9971119]},
{"code":9971122,"name":"高須(広島)","lon":132.417055,"lat":34.389872,"lines":[99711],"next":[9971419,9971123,9970921,9971420,9971121]},
{"code":9971123,"name":"古江","lon":132.411383,"lat":34.386311,"lines":[99711],"next":[9971124,9971122,9970921,9971420]},
{"code":9971124,"name":"草津(広島)","lon":132.403915,"lat":34.381600,"lines":[99711],"next":[9970921,9971123,9971125,1161118,9971420]},
{"code":9971125,"name":"草津南","lon":132.398479,"lat":34.378092,"lines":[99711],"next":[9971126,9971124,9971420,1161118]},
{"code":9971127,"name":"井口(広島)","lon":132.385805,"lat":34.371751,"lines":[99711],"next":[9971420,9971128,9971126,9971027,1161118]},
{"code":9971128,"name":"修大附属鈴峯前","lon":132.374589,"lat":34.368218,"lines":[99711],"next":[1161119,9970921,9971127,9971027,1161118,9971138,9971129]},
{"code":9971130,"name":"佐伯区役所前","lon":132.361709,"lat":34.365443,"lines":[99711],"next":[1161119,9971131,9971133,9971138,9970921,9971129]},
{"code":9971131,"name":"楽々園","lon":132.351988,"lat":34.364282,"lines":[99711],"next":[9971132,9971130,9970921,9971133]},
{"code":9971132,"name":"山陽女子大前","lon":132.341251,"lat":34.361948,"lines":[99711],"next":[9970921,9970919,9971131,9971133,1161120]},
{"code":9971134,"name":"廿日市市役所前（平良）","lon":132.329722,"lat":34.352816,"lines":[99711],"next":[9970919,9971133,1161121,9971135,1161120]},
{"code":9971136,"name":"ＪＡ広島病院前","lon":132.322404,"lat":34.343959,"lines":[99711],"next":[9971137,9971135,1161121,9971138]},
{"code":9971137,"name":"地御前","lon":132.320049,"lat":34.340942,"lines":[99711],"next":[9971140,9971138,1161124,1161121,9971136,1161122,1161125,1161123]},
{"code":9971138,"name":"阿品東","lon":132.318579,"lat":34.326488,"lines":[99711],"next":[9971137,9971135,9971133,9971130,1161122,9971027,9971139,9971128,9971129,9971136]},
{"code":9971140,"name":"競艇場前(広島)","lon":132.305006,"lat":34.314425,"lines":[99711],"next":[1161122,9971137,9971141,1161123,9971139]},
{"code":9971304,"name":"段原一丁目","lon":132.475033,"lat":34.390833,"lines":[99713],"next":[9971004,1161114,9971003,9971305,9971306,9971002]},
{"code":9971305,"name":"比治山下","lon":132.471492,"lat":34.387858,"lines":[99713],"next":[9971005,9971304,9971306,9971004]},
{"code":9971306,"name":"比治山橋","lon":132.468681,"lat":34.383272,"lines":[99713],"next":[9971005,9971307,9971012,1161114,1161113,9971304,9971015,9971305,9971006]},
{"code":9971307,"name":"南区役所前","lon":132.467072,"lat":34.380297,"lines":[99713],"next":[1161113,9971015,9971306,9971308,9971016]},
{"code":9971308,"name":"皆実町二丁目","lon":132.465849,"lat":34.377375,"lines":[99713],"next":[9971020,9971019,1161113,9971018,9971016,9971307,9971017]},
{"code":9971415,"name":"舟入町","lon":132.444928,"lat":34.389222,"lines":[99714,99716],"next":[9971115,9971012,9971013,9971014,9971118,9971114,9971416,9971116]},
{"code":9971416,"name":"舟入本町","lon":132.442632,"lat":34.385556,"lines":[99714,99716],"next":[9971014,9971417,9971415,9971118]},
{"code":9971417,"name":"舟入幸町","lon":132.441151,"lat":34.383139,"lines":[99714,99716],"next":[9971014,9971418,9971416,9971118]},
{"code":9971418,"name":"舟入川口町","lon":132.439499,"lat":34.380341,"lines":[99714,99716],"next":[9971419,9971417,9971014,9971118,9971119,9971121,9971015]},
{"code":9971419,"name":"舟入南町","lon":132.437224,"lat":34.375099,"lines":[99714,99716],"next":[9971122,9971418,9971017,9971016,9971420,9971121,9971015]},
{"code":9971420,"name":"江波(広島)","lon":132.436044,"lat":34.372496,"lines":[99714,99716],"next":[9971017,9971027,9971419,9971123,9971127,9971126,9971124,9971122,9971125]},
{"code":9971502,"name":"横川一丁目","lon":132.449949,"lat":34.406848,"lines":[99715,99716],"next":[9971503,9970903,1161116,1171703,9971501]},
{"code":9971503,"name":"別院前","lon":132.449241,"lat":34.404245,"lines":[99715,99716],"next":[9971111,9971112,9971504,9971502,1171703,9971117,9970903]},
{"code":9971504,"name":"寺町","lon":132.448125,"lat":34.401129,"lines":[99715,99716],"next":[9971503,9971113,9971116,9971112,9971117]},
{"code":9971702,"name":"女学院前","lon":132.464776,"lat":34.397827,"lines":[99717],"next":[9971005,9970902,9971008,9971007,9971703,9971006]},
{"code":9971703,"name":"縮景園前","lon":132.465334,"lat":34.399881,"lines":[99717],"next":[1161115,9971704,9970903,9970902,9971702,9971705,9971005]},
{"code":9971704,"name":"家庭裁判所前","lon":132.466106,"lat":34.402289,"lines":[99717],"next":[9971703,9971705,1161115]},
{"code":9971705,"name":"白島(広島電鉄)","lon":132.465506,"lat":34.404484,"lines":[99717],"next":[9970903,9970904,9971704,9970905,1161115,9971703,1161130]},
{"code":1161202,"name":"南岩国","lon":132.206013,"lat":34.135246,"lines":[11612],"next":[1161203,1172403,1161128,1161204,1172402]},
{"code":1161203,"name":"藤生","lon":132.198515,"lat":34.112668,"lines":[11612],"next":[1172403,1172405,1161202,1172404,1161204]},
{"code":1161204,"name":"通津","lon":132.204949,"lat":34.068207,"lines":[11612],"next":[1172405,1161209,1161202,1161208,1161203,1161205,1161128]},
{"code":1161205,"name":"由宇","lon":132.213621,"lat":34.043279,"lines":[11612],"next":[9980601,1161128,1171621,1171620,1171622,1161208,1161204,1161206]},
{"code":1172402,"name":"西岩国","lon":132.195786,"lat":34.163020,"lines":[11724],"next":[1172403,1161128,9971802,1161202,1161129,1161127]},
{"code":1172403,"name":"川西(山口)","lon":132.177321,"lat":34.156612,"lines":[11724,99718],"next":[1161203,1172402,1172404,1161202,9971802]},
{"code":1172404,"name":"柱野","lon":132.154599,"lat":34.143874,"lines":[11724],"next":[1172403,9971802,1161203,9971804,9971803,1172405]},
{"code":1172405,"name":"欽明路","lon":132.101813,"lat":34.104400,"lines":[11724],"next":[1161204,1172406,9971804,1161203,9971805,1172404,1161209]},
{"code":1172406,"name":"玖珂","lon":132.081951,"lat":34.097195,"lines":[11724],"next":[1172405,9971805,1172407,1161209]},
{"code":1172407,"name":"周防高森","lon":132.045564,"lat":34.090701,"lines":[11724],"next":[9971807,1161209,9971806,1172406,1161210,1172408,9971805]},
{"code":1172408,"name":"米川","lon":132.014745,"lat":34.074521,"lines":[11724],"next":[1161211,9971807,9971809,1161210,1172407,1172409]},
{"code":9971802,"name":"清流新岩国","lon":132.147640,"lat":34.162639,"lines":[99718],"next":[1161127,1172404,9971803,1172403,1172402]},
{"code":9971803,"name":"守内かさ神","lon":132.135704,"lat":34.170107,"lines":[99718],"next":[9971806,9971802,1161127,1172404,9971808,1161126,9971804]},
{"code":9971804,"name":"南河内","lon":132.103363,"lat":34.165957,"lines":[99718],"next":[1172405,1172404,9971805,9971806,9971803]},
{"code":9971805,"name":"行波","lon":132.087084,"lat":34.163368,"lines":[99718],"next":[9971806,1172406,1172405,9971804,1172407]},
{"code":9971806,"name":"北河内(山口)","lon":132.064519,"lat":34.176011,"lines":[99718],"next":[9971805,9971803,9971807,1172407,9971808,9971804]},
{"code":9971807,"name":"椋野","lon":132.033385,"lat":34.193637,"lines":[99718],"next":[1172408,1172407,9971808,9971806,9971809]},
{"code":9971808,"name":"南桑","lon":132.020852,"lat":34.209610,"lines":[99718],"next":[9971811,9971809,1161126,9971807,9971810,9971806,9971803]}
],
"voronoi":{
"points":[132.460912,34.389616,132.462698,34.396348,132.210296,34.500000,132.250000,34.453068,132.316046,34.375000,132.332369,34.355705,132.430483,34.439412,132.456009,34.419490,132.441774,34.391510,132.443084,34.398607,132.454453,34.362799,132.488706,34.358973,132.460680,34.400967,132.461124,34.399922,132.439124,34.500000,132.443474,34.452678,132.448806,34.365721,132.451455,34.365202,132.419757,34.078523,132.450167,34.125000,132.500000,34.201164,132.474046,34.394916,132.477559,34.396530,132.395191,34.376873,132.395963,34.375000,132.411572,34.337103,132.430065,34.452037,132.433824,34.445130,132.438700,34.406263,132.440601,34.402959,132.461426,34.397873,132.387693,34.185571,132.396209,34.223186,132.375005,34.178487,132.385658,34.173209,132.068077,34.024492,132.070816,34.000000,132.145564,34.027346,132.151545,34.016265,132.325725,34.351615,132.343681,34.336508,132.383841,34.406740,132.490219,34.451333,132.500000,34.449851,132.361562,34.455525,132.375000,34.453291,132.422534,34.445386,132.151492,34.092998,132.174233,34.125000,132.177519,34.129624,132.461842,34.402316,132.461885,34.402315,132.478083,34.411762,132.482780,34.414387,132.460719,34.356748,132.488102,34.350264,132.457183,34.383995,132.461425,34.385215,132.455110,34.394382,132.455881,34.397702,132.427611,34.382386,132.444629,34.375000,132.447950,34.373559,132.272332,34.477458,132.414778,34.085798,132.486714,34.397996,132.445030,34.396645,132.445595,34.392018,132.451137,34.391862,132.453249,34.401170,132.120282,34.134733,132.122998,34.141034,132.487491,34.394028,132.083514,34.245874,132.086689,34.250000,132.108885,34.278847,132.438860,34.125000,132.500000,34.224524,132.455282,34.401398,132.461499,34.388056,132.276471,34.230402,132.280088,34.228119,132.442379,34.400688,132.383210,34.500000,132.371106,34.367735,132.375000,34.353369,132.393813,34.283962,132.459189,34.393156,132.459734,34.395926,132.323818,34.345713,132.343015,34.330292,132.404058,34.250593,132.407592,34.253072,132.450659,34.391486,132.450913,34.391639,132.421808,34.376003,132.424729,34.379194,132.204207,34.189453,132.250000,34.186513,132.375000,34.178488,132.383620,34.407182,132.392594,34.407821,132.440143,34.390324,132.452909,34.365831,132.457395,34.368238,132.462232,34.405104,132.465359,34.408312,132.440269,34.410007,132.444239,34.409409,132.235490,34.500000,132.250000,34.480255,132.327352,34.375000,132.339334,34.358695,132.456184,34.410457,132.456455,34.412114,132.432884,34.386134,132.447669,34.377404,132.469426,34.390323,132.472574,34.390165,132.448038,34.373277,132.448474,34.369262,132.135736,34.036022,132.152323,34.083287,132.469577,34.397625,132.436585,34.387599,132.439860,34.389844,132.055400,34.133276,132.090307,34.195578,132.486365,34.373902,132.488222,34.375000,132.500000,34.381966,132.488743,34.007540,132.500000,34.051959,132.423696,34.395409,132.432506,34.399668,132.043017,34.020112,132.060623,34.024576,132.100496,34.492453,132.103795,34.456697,132.128131,34.144731,132.162007,34.157294,132.461711,34.385232,132.462326,34.386716,132.459164,34.358754,132.469035,34.000000,132.468217,34.324383,132.485049,34.341318,132.350982,34.327769,132.459314,34.458256,132.469215,34.467615,132.434148,34.280087,132.466700,34.322658,132.490162,34.355447,132.500000,34.356623,132.479831,34.391971,132.485842,34.458078,132.464820,34.395607,132.466706,34.395735,132.455987,34.416761,132.432511,34.386061,132.485284,34.414921,132.056891,34.132425,132.081090,34.130547,132.304331,34.297016,132.339499,34.250000,132.375000,34.202540,132.448289,34.384565,132.011453,34.026724,132.000000,34.448833,132.099256,34.497415,132.334381,34.332183,132.436435,34.409080,132.436546,34.409096,132.473580,34.392081,132.473755,34.405559,132.463966,34.432099,132.468559,34.441296,132.481246,34.435001,132.482151,34.428907,132.312212,34.349487,132.008855,34.187293,132.448482,34.368427,132.465970,34.388013,132.422400,34.422820,132.435967,34.409273,132.487933,34.417653,132.490105,34.355572,132.470032,34.455666,132.475220,34.462681,132.462030,34.380691,132.475625,34.375000,132.485904,34.370698,132.075512,34.028087,132.115599,34.035416,132.001260,34.137648,132.023750,34.140309,132.250000,34.097422,132.272403,34.100664,132.459386,34.369811,132.461558,34.372760,132.375000,34.449756,132.424564,34.428476,132.257895,34.358677,132.303382,34.313713,132.486024,34.371970,132.400666,34.409679,132.007900,34.125000,132.457314,34.394422,132.434986,34.404824,132.361723,34.324052,132.362830,34.320849,132.450158,34.388877,132.472206,34.453598,132.473000,34.448339,132.199006,34.402081,132.234453,34.375000,132.248136,34.364546,132.332189,34.429497,132.350618,34.417029,132.454047,34.393205,132.459814,34.391127,132.489580,34.499330,132.491394,34.500000,132.436018,34.396356,132.362086,34.411387,132.369605,34.375000,132.454434,34.401856,132.138664,34.033196,132.140703,34.031885,132.479704,34.371308,132.462030,34.378468,132.010720,34.234488,132.499144,34.275278,132.500000,34.275868,132.447590,34.380856,132.206026,34.500000,132.250000,34.445488,132.306861,34.375000,132.446942,34.454363,132.467842,34.443576,132.485902,34.370552,132.102867,34.330095,132.112107,34.288213,132.486948,34.365061,132.487233,34.363928,132.472881,34.500000,132.490665,34.472015,132.353601,34.415392,132.328876,34.097347,132.375000,34.093037,132.412034,34.089577,132.100226,34.500000,132.462239,34.386900,132.486097,34.375089,132.486674,34.390438,132.402888,34.297949,132.411555,34.329603,132.373589,34.308936,132.375000,34.307194,132.470376,34.397717,132.417843,34.500000,132.441447,34.451306,132.411467,34.335524,132.425515,34.380268,132.287995,34.341601,132.468616,34.490396,132.469491,34.500000,132.454616,34.407278,132.369179,34.404964,132.375000,34.386483,132.378617,34.375000,132.436642,34.446746,132.463123,34.431625,132.466078,34.388022,132.125000,34.274251,132.147393,34.250000,132.151812,34.245215,132.429016,34.384725,132.465894,34.269856,132.500000,34.291100,132.500000,34.275180,132.428110,34.388769,132.447782,34.455046,132.500000,34.472516,132.388600,34.374096,132.500000,34.419678,132.000000,34.169043,132.462543,34.376907,132.466926,34.375000,132.470966,34.373242,132.125000,34.142476,132.449069,34.385777,132.180650,34.131135,132.191466,34.145659,132.485028,34.463313,132.414800,34.358767,132.107483,34.261940,132.000000,34.023275,132.448569,34.395550,132.431010,34.441561,132.462311,34.424269,132.190778,34.199865,132.250000,34.218600,132.484429,34.445323,132.454419,34.362816,132.470776,34.477994,132.470475,34.397480,132.171391,34.203507,132.367283,34.409414,132.000000,34.228386,132.454139,34.404310,132.169979,34.211615,132.500000,34.394752,132.472956,34.395034,132.346092,34.196967,132.125000,34.128424,132.127561,34.125000,132.457778,34.395997,132.099902,34.135246,132.364834,34.365582,132.250000,34.017415,132.375000,34.005528,132.433129,34.000000,132.417508,34.368326,132.484746,34.461915,132.000000,34.137845,132.103196,34.375000,132.021959,34.250000,132.032869,34.265057,132.447835,34.376630,132.171342,34.209733,132.250000,34.233547,132.033613,34.000000,132.449065,34.398900,132.453025,34.401132,132.426193,34.500000,132.433981,34.375000,132.483183,34.377537,132.439173,34.393227,132.375000,34.395712,132.388031,34.375000,132.349732,34.348794,132.447478,34.454860,132.450518,34.500000,132.500000,34.485476,132.058216,34.125000,132.456146,34.416439,132.472391,34.411347,132.456057,34.410231,132.250000,34.069907,132.308790,34.319655,132.317134,34.323857,132.405358,34.411428,132.409889,34.413527,132.470280,34.397889,132.390746,34.375000,132.404324,34.375000,132.500000,34.331995,132.470662,34.399501,132.153304,34.000000,132.450242,34.390857,132.375000,34.276230,132.403596,34.252694,132.456923,34.375000,132.461559,34.382118,132.308777,34.334787,132.130031,34.000000,132.344036,34.375000,132.398896,34.277140,132.315696,34.099977,132.000000,34.051681,132.447896,34.375000,132.099689,34.495534,132.000000,34.253611,132.104393,34.250000,132.461734,34.385107,132.500000,34.012046,132.375000,34.408360,132.250000,34.362306,132.486117,34.375000,132.214616,34.154184,132.480421,34.375000,132.184436,34.416041,132.250000,34.381891,132.263230,34.375000,132.462090,34.375000,132.316722,34.309276,132.371452,34.250000,132.375000,34.246157,132.250000,34.135208,132.269035,34.125000,132.362710,34.375000,132.199123,34.125000,132.250000,34.108104,132.403888,34.250000,132.375000,34.178491,132.109015,34.250000,132.125000,34.035699,132.421247,34.375000,132.475528,34.500000,132.250000,34.363425,132.471635,34.000000,132.500000,34.309726,132.125000,34.428907,132.166134,34.375000,132.250000,34.265092,132.261516,34.250000,132.171690,34.000000,132.083102,34.125000,132.125000,34.470146,132.000000,34.315465,132.032960,34.375000,132.355638,34.375000,132.413298,34.375000,132.400862,34.125000,132.239267,34.500000,132.250000,34.492683,132.367756,34.500000,132.375000,34.492778,132.218426,34.375000,132.250000,34.330969,132.308062,34.250000,132.450673,34.375000],
"groups":[
{"lon":132000,"lat":34000,"size":125,"index":[35,36,135,136,167,135,192,193,206,136,297,167,35,192,136,35,332,135,345,192,370,167,193,397,408,193]},
{"lon":132000,"lat":34125,"size":125,"index":[70,71,73,74,126,127,161,162,180,73,194,195,194,206,180,231,286,180,71,290,309,231,70,315,162,318,325,194,195,73,318,70,231,327,161,345,195,126,127,374,126,161,127,318,396,71,162,408]},
{"lon":132000,"lat":34250,"size":125,"index":[74,75,241,242,242,274,296,75,75,242,241,326,327,328,373,328,374,296,296,396,410,411,328,241]},
{"lon":132000,"lat":34375,"size":125,"index":[137,138,168,169,169,251,326,138,372,137,169,372,138,403,137,409,411,372]},
{"lon":132125,"lat":34000,"size":125,"index":[37,38,47,48,121,122,122,196,227,228,316,47,37,320,228,349,38,359,121,227,366,227,47,122,392,393,397,121,228,37,38,407]},
{"lon":132125,"lat":34125,"size":125,"index":[48,49,97,98,139,140,275,276,290,139,292,293,301,302,307,293,139,311,140,49,301,97,315,316,330,301,276,331,49,292,97,380,140,307,276,311,380,389,292,392,293,380,330,307,311,330]},
{"lon":132125,"lat":34250,"size":125,"index":[215,216,274,275,216,378,216,400,404,405,419,420]},
{"lon":132125,"lat":34375,"size":125,"index":[2,3,109,110,214,215,235,236,382,383,403,404,409,382,382,214,415,416,214,419]},
{"lon":132250,"lat":34000,"size":125,"index":[196,197,248,249,320,321,349,248,369,248,197,369,390,369,393,197]},
{"lon":132250,"lat":34125,"size":125,"index":[80,81,98,99,164,165,302,81,81,314,331,80,387,388,389,390,314,395,406,80,421,314]},
{"lon":132250,"lat":34250,"size":125,"index":[4,5,39,40,84,85,89,90,89,39,111,112,40,147,5,40,163,164,170,90,179,89,202,203,209,210,225,84,237,39,257,258,202,264,319,84,147,210,112,341,179,170,350,351,5,112,319,257,351,361,365,351,367,341,264,350,378,163,90,147,384,179,386,387,203,163,391,319,365,170,203,386,400,202,264,365,405,406,412,209,350,386,341,209,420,421,210,257]},
{"lon":132250,"lat":34375,"size":125,"index":[3,4,44,45,63,44,110,111,44,200,217,218,224,225,236,237,247,224,268,269,224,308,63,217,308,268,268,339,218,247,217,367,308,377,383,384,247,391,218,412,416,63,417,418]},
{"lon":132375,"lat":34000,"size":125,"index":[18,19,64,18,64,76,131,132,18,144,249,250,321,322,131,376,250,64,401,131,414,250]},
{"lon":132375,"lat":34125,"size":125,"index":[19,20,31,32,33,34,76,77,99,33,165,31,34,31,388,32,32,394,395,33,34,414]},
{"lon":132375,"lat":34250,"size":125,"index":[10,11,16,17,24,25,54,55,61,62,85,86,91,92,103,104,119,120,128,129,10,143,145,146,150,151,152,153,55,152,181,16,11,186,190,191,198,199,191,204,92,150,198,229,232,233,240,191,243,244,255,256,104,243,258,86,262,256,270,255,54,145,278,279,232,280,284,262,288,289,25,295,120,181,244,11,17,304,186,152,278,232,229,240,143,186,295,323,92,278,336,181,340,284,151,145,284,355,356,295,146,357,361,362,120,363,86,368,371,62,256,16,204,128,62,119,240,243,103,244,379,128,381,204,368,362,199,385,394,91,17,103,262,25,199,289,304,10,323,398,368,255,104,198,143,54,150,402,362,91,146,55,304,151,413,323,289,229,119,422]},
{"lon":132375,"lat":34375,"size":125,"index":[0,1,6,7,8,9,12,13,14,15,21,22,23,24,26,27,28,29,30,1,41,23,42,43,45,46,50,51,52,53,56,57,58,59,60,61,22,65,66,67,68,69,65,72,78,12,0,79,9,66,82,9,83,26,87,88,93,94,95,96,100,101,102,8,105,106,107,108,113,114,115,116,117,118,13,123,124,125,129,130,133,134,141,142,148,149,21,154,155,42,156,157,158,7,159,115,53,160,125,166,160,65,171,172,173,154,51,174,175,176,177,178,13,30,142,182,183,184,178,185,187,188,189,190,1,156,200,201,205,95,58,207,208,184,211,57,212,213,219,220,221,222,159,223,226,78,230,189,174,52,114,106,234,116,238,239,245,246,79,252,253,254,50,105,259,22,260,26,261,15,263,60,8,67,265,266,219,58,118,173,107,158,108,267,269,270,271,272,220,0,272,175,273,117,207,87,68,219,277,159,281,134,282,148,246,283,185,285,287,288,291,211,294,246,298,93,6,299,300,272,213,303,149,305,125,102,117,306,310,226,305,294,12,50,72,312,313,173,134,208,59,317,299,27,317,88,176,177,113,105,324,155,207,317,116,329,333,334,335,261,96,336,239,176,282,265,118,337,101,205,338,29,339,340,252,156,96,263,208,223,212,155,342,343,82,333,221,344,60,277,346,347,348,113,347,52,28,334,352,353,123,354,353,133,355,23,41,356,313,21,51,358,360,93,363,230,354,259,337,253,291,56,154,254,364,189,69,226,259,306,149,188,273,337,306,313,329,371,160,185,354,358,182,273,183,201,141,375,377,100,201,6,303,42,238,342,254,72,253,379,158,346,375,381,271,261,324,294,166,291,385,287,338,102,281,277,172,107,334,69,353,183,57,141,15,238,310,267,329,56,67,360,175,178,7,300,133,281,172,310,182,157,300,53,352,263,94,79,171,28,398,95,223,338,234,166,399,221,88,30,108,348,115,124,239,213,66,298,188,324,27,271,364,375,252,142,94,68,184,171,101,413,205,352,298,333,265,305,187,212,157,123,124,234,78,59,106,347,177,303,46,299,267,348,211,360,29,82,418,46,342,282,358,174,422,364,148,187,230,287,346,114,100,41,87,220]}
]
}
}