{
"stations":[
{"code":1141551,"name":"高岡","lon":137.015274,"lat":36.740948,"lines":[99425,11417,11418],"next":[1141714,1141552,1141802,9941401,9941404]},
{"code":9941401,"name":"高岡駅","lon":137.014722,"lat":36.742173,"lines":[99414],"next":[9941425,1141714,9941404,9941403,1141551]},
{"code":1141552,"name":"越中大門","lon":137.055904,"lat":36.733818,"lines":[99425],"next":[9941419,1141714,9941414,1141703,1141702,1141551,1141553,9941421,1141803,9941413,1141802]},
{"code":1141553,"name":"小杉(あいの風とやま鉄道線)","lon":137.092767,"lat":36.720947,"lines":[99425],"next":[1141552,9941421,1141554,1141645,1141703,1141641,1141642,9941423,9941424]},
{"code":1141554,"name":"呉羽","lon":137.164874,"lat":36.718845,"lines":[99425],"next":[1141643,9941509,9941513,9941506,9941507,1141553,9941424,9941320,9941508,1141645,9941510]},
{"code":1141555,"name":"富山","lon":137.213091,"lat":36.701384,"lines":[99425,11416,50028,50037],"next":[9941313,9940801,9941501,9941322]},
{"code":9940801,"name":"電鉄富山","lon":137.214163,"lat":36.700757,"lines":[99408,99410],"next":[9941313,9941312,1141555,9941501,9941502]},
{"code":9941313,"name":"電鉄富山駅・エスタ前","lon":137.213316,"lat":36.700236,"lines":[99413],"next":[1141555,9940801,9941314,9941322,9941311,9941312]},
{"code":9941322,"name":"富山駅","lon":137.212880,"lat":36.701610,"lines":[99413],"next":[9941314,9941501,9941320,9941313,1141555]},
{"code":9941501,"name":"富山駅北","lon":137.214003,"lat":36.702490,"lines":[99415],"next":[1141555,9941505,9940801,9941506,9941322,9941502,9941320]},
{"code":1140502,"name":"東富山","lon":137.248953,"lat":36.741589,"lines":[99425,50037],"next":[9941508,9941506,9941507,9940804,9941505,9940805,9941513,9940803,9941509,9941512,9941511,1140503,9941510]},
{"code":1140503,"name":"水橋","lon":137.298404,"lat":36.743454,"lines":[99425,50037],"next":[9941513,9940814,9940806,9940815,9940813,9940805,1140502]},
{"code":1140504,"name":"滑川","lon":137.348666,"lat":36.769318,"lines":[99425,99408,50037],"next":[9940812,9941513,9940817,9940815,9940813]},
{"code":1140505,"name":"東滑川","lon":137.378050,"lat":36.787987,"lines":[99425,50037],"next":[9940820,9940819,9940818,9940821,9940812]},
{"code":1140506,"name":"魚津","lon":137.405693,"lat":36.826420,"lines":[99425,50037],"next":[9940821,9940832,9940823,9940828,9940830,9940822,9940829]},
{"code":9940822,"name":"新魚津","lon":137.405459,"lat":36.826570,"lines":[99408],"next":[9940823,9941513,9940821,9940817,1140506,9940818]},
{"code":1140507,"name":"黒部","lon":137.434393,"lat":36.869322,"lines":[99425,50037],"next":[1140508,9940824,9940826,9940825,9940823]},
{"code":1140508,"name":"生地","lon":137.426534,"lat":36.906031,"lines":[99425,50037],"next":[1140507,1141919,9940826,9940823,9940824,9940825,9940827,9941513,1140509]},
{"code":1140509,"name":"西入善","lon":137.459298,"lat":36.930124,"lines":[99425,50037],"next":[5000244,1140510,9941807,1141919,9940827,9940828,1140508]},
{"code":1140510,"name":"入善","lon":137.499000,"lat":36.941296,"lines":[99425,50037],"next":[1140509,1140512,9940831,5000244,9940832,9940830,9941807,1140511]},
{"code":1141637,"name":"楡原","lon":137.228720,"lat":36.529323,"lines":[11416],"next":[9940910,1141640,9941013,1141638,1141635,1141636]},
{"code":1141638,"name":"笹津","lon":137.211437,"lat":36.562129,"lines":[11416],"next":[1141640,9941011,1141639,9941013,9941012,1141637,9941010]},
{"code":1141639,"name":"東八尾","lon":137.174978,"lat":36.589645,"lines":[11416],"next":[1141640,9941010,9941007,9941006,1141638,1141642,1141641,9941009]},
{"code":1141640,"name":"越中八尾","lon":137.138379,"lat":36.591391,"lines":[11416],"next":[1141709,1141713,1141639,1141638,1141708,1141637,1141707,1141635,1141641,1141706,1141705]},
{"code":1141641,"name":"千里(富山)","lon":137.132396,"lat":36.634678,"lines":[11416],"next":[1141704,1141703,1141642,1141705,1141639,1141553,1141640]},
{"code":1141642,"name":"速星","lon":137.160428,"lat":36.664135,"lines":[11416],"next":[9941006,1141641,1141639,9941301,1141645,1141553]},
{"code":1141645,"name":"婦中鵜坂","lon":137.167625,"lat":36.676084,"lines":[11416],"next":[9941318,9941319,9941301,1141553,1141643,9941304,1141642,1141554]},
{"code":1141643,"name":"西富山","lon":137.177029,"lat":36.699331,"lines":[11416],"next":[1141554,9941319,9941320,1141645]},
{"code":1141714,"name":"新高岡","lon":137.010459,"lat":36.727004,"lines":[11417,50028],"next":[1141552,1141551,9941401,1141702,1141556,9941425]},
{"code":1141702,"name":"二塚","lon":137.006141,"lat":36.714339,"lines":[11417],"next":[1141552,1141714,1141703,1141556]},
{"code":1141802,"name":"越中中川","lon":137.027851,"lat":36.749764,"lines":[11418],"next":[1141803,9941409,1141551,9941407,9941404,1141552,9941406,9941408,9941405]},
{"code":1141803,"name":"能町","lon":137.039885,"lat":36.768259,"lines":[11418],"next":[1141802,9941409,9941411,9941410,9941412,1141552,9941413]},
{"code":1141804,"name":"伏木","lon":137.058530,"lat":36.792306,"lines":[11418],"next":[9941415,1141805,9941416,9941417]},
{"code":1141805,"name":"越中国分","lon":137.050729,"lat":36.805361,"lines":[11418],"next":[9941412,9941417,1141806,9941422,1141804,9941415,9941423]},
{"code":1141806,"name":"雨晴","lon":137.037583,"lat":36.816484,"lines":[11418],"next":[9941424,1141919,1141805,1141807,9941423,1141808,9941412]},
{"code":1141807,"name":"島尾","lon":137.012690,"lat":36.828423,"lines":[11418],"next":[9941402,1141806,9941412,1141556,9941408,9941407,9941406,9941405,1141808]},
{"code":9940802,"name":"稲荷町(富山)","lon":137.231247,"lat":36.696597,"lines":[99408,99410],"next":[9940839,9941003,9941309,9941311,9941504,9941310,9941503]},
{"code":9940839,"name":"新庄田中","lon":137.241417,"lat":36.697972,"lines":[99408],"next":[9941003,9940802,9940803,9941505,9941504]},
{"code":9940803,"name":"東新庄","lon":137.253021,"lat":36.698644,"lines":[99408],"next":[9941008,9941505,9940804,9941003,9940839,1140502,9941004]},
{"code":9940804,"name":"越中荏原","lon":137.266222,"lat":36.698978,"lines":[99408],"next":[9941008,1140502,9940803,9940904,9940805,9941009,9941011,9941010]},
{"code":9940805,"name":"越中三郷","lon":137.290792,"lat":36.703309,"lines":[99408],"next":[9940806,9940903,1140502,9940804,9940902,9940904,1140503]},
{"code":9940806,"name":"越中舟橋","lon":137.306632,"lat":36.705725,"lines":[99408],"next":[9940805,1140503,9940813,9940902,9940807,9940808]},
{"code":9940807,"name":"寺田(富山)","lon":137.319145,"lat":36.698852,"lines":[99408,99409],"next":[9940902,9940806,9940808]},
{"code":9940808,"name":"越中泉","lon":137.327245,"lat":36.699905,"lines":[99408],"next":[9940809,9940902,9940806,9940813,9940807,9940903]},
{"code":9940809,"name":"相ノ木","lon":137.335472,"lat":36.701963,"lines":[99408],"next":[9940811,9940840,9940808,9940903,9940813]},
{"code":9940840,"name":"新相ノ木","lon":137.342278,"lat":36.703128,"lines":[99408],"next":[9940809,9940903,9940811,9940810]},
{"code":9940810,"name":"上市","lon":137.357603,"lat":36.704463,"lines":[99408],"next":[9940907,9940811,9940913,9940812,9940903,9940914,9940820,9940905,9940819,9940906,9940840]},
{"code":9940811,"name":"新宮川","lon":137.351128,"lat":36.717292,"lines":[99408],"next":[9940809,9940810,9940812,9940813,9940840]},
{"code":9940812,"name":"中加積","lon":137.350947,"lat":36.735309,"lines":[99408],"next":[1140504,9940819,9940810,9940811,9940813,9940817,1140505,9940818]},
{"code":9940813,"name":"西加積","lon":137.340139,"lat":36.746405,"lines":[99408],"next":[9940814,9940811,9940815,1140503,9940806,9940809,9940812,1140504,9940808]},
{"code":9940814,"name":"西滑川","lon":137.334617,"lat":36.755579,"lines":[99408],"next":[1140503,9940813,9940815]},
{"code":9940815,"name":"中滑川","lon":137.339963,"lat":36.761992,"lines":[99408],"next":[9941513,9940814,9940813,1140503,1140504]},
{"code":9940817,"name":"浜加積","lon":137.361411,"lat":36.777430,"lines":[99408],"next":[9941513,1140504,9940812,9940822,9940818]},
{"code":9940818,"name":"早月加積","lon":137.372079,"lat":36.784082,"lines":[99408],"next":[9940821,1140505,9940817,9940822,9940812]},
{"code":9940819,"name":"越中中村","lon":137.382688,"lat":36.790673,"lines":[99408],"next":[9940812,9940820,1140505,9940810]},
{"code":9940820,"name":"西魚津","lon":137.394653,"lat":36.803775,"lines":[99408],"next":[1140505,9940838,9940837,9940819,9940810,9940914,9940821]},
{"code":9940821,"name":"電鉄魚津","lon":137.400288,"lat":36.815113,"lines":[99408],"next":[9940837,1140506,9940818,1140505,9940832,9940822,9940820]},
{"code":9940823,"name":"経田","lon":137.416203,"lat":36.848846,"lines":[99408],"next":[9940828,9940824,1140508,9940827,9940822,9941513,1140506,9940826,1140507]},
{"code":9940824,"name":"電鉄石田","lon":137.423194,"lat":36.865928,"lines":[99408],"next":[9940823,1140507,1140508]},
{"code":9940825,"name":"電鉄黒部","lon":137.444125,"lat":36.874091,"lines":[99408],"next":[9940826,1140507,1140508]},
{"code":9940826,"name":"東三日市","lon":137.450908,"lat":36.874677,"lines":[99408],"next":[1140508,9940825,1140507,9940827,9940823]},
{"code":9940827,"name":"荻生","lon":137.459221,"lat":36.875038,"lines":[99408],"next":[9940823,9940826,1140509,1140508,9940828]},
{"code":9940828,"name":"長屋","lon":137.470803,"lat":36.873678,"lines":[99408],"next":[9940823,9940829,9940841,5000244,1140506,1140509,9940827]},
{"code":9940841,"name":"新黒部","lon":137.480177,"lat":36.873163,"lines":[99408],"next":[9940828,5000244,9940829]},
{"code":9940829,"name":"舌山","lon":137.485948,"lat":36.871870,"lines":[99408],"next":[9940830,9940828,5000244,9940841,1140506]},
{"code":9940830,"name":"若栗","lon":137.493175,"lat":36.871151,"lines":[99408],"next":[9940829,1140510,5000244,9940831,9940832,1140506]},
{"code":9940902,"name":"稚子塚","lon":137.317515,"lat":36.686595,"lines":[99409],"next":[9940807,9940903,9940806,9940805,9940808]},
{"code":9940903,"name":"田添","lon":137.317768,"lat":36.679759,"lines":[99409],"next":[9940902,9940904,9940805,9940810,9940905,9940809,9940840,9940808]},
{"code":9940904,"name":"五百石","lon":137.314097,"lat":36.665361,"lines":[99409],"next":[9940903,9940905,9941011,9940804,9940805]},
{"code":9940905,"name":"榎町","lon":137.316519,"lat":36.657559,"lines":[99409],"next":[9941011,9940904,9940906,9941012,9940903,9940810]},
{"code":9940906,"name":"下段","lon":137.317735,"lat":36.647899,"lines":[99409],"next":[9940905,9941012,9940907,9940810]},
{"code":9940907,"name":"釜ヶ淵","lon":137.319288,"lat":36.633317,"lines":[99409],"next":[9940913,9940810,9940908,9940906,9941012,9941013]},
{"code":9940908,"name":"沢中山","lon":137.320972,"lat":36.622207,"lines":[99409],"next":[9941014,9940909,9940911,9941013,9940907,9940913,9940910]},
{"code":9940909,"name":"岩峅寺","lon":137.319922,"lat":36.608214,"lines":[99409,99410],"next":[9940908,9941014,9940910]},
{"code":9940910,"name":"横江","lon":137.335605,"lat":36.582175,"lines":[99409],"next":[9940911,9941014,1141637,9940908,9940909,9941013,1141636]},
{"code":9940911,"name":"千垣","lon":137.373843,"lat":36.573752,"lines":[99409],"next":[9940910,9940913,1141636,9940908,9940912]},
{"code":9940912,"name":"有峰口","lon":137.380218,"lat":36.573066,"lines":[99409],"next":[9940913,9940911,1141636]},
{"code":9940913,"name":"本宮(富山)","lon":137.395716,"lat":36.574919,"lines":[99409],"next":[9940907,1141636,9940911,9940810,1141627,9940908,9940912,9940914]},
{"code":9940914,"name":"立山","lon":137.445234,"lat":36.583253,"lines":[99409],"next":[1140916,9940714,1141627,9941203,9940810,1140915,9940838,9941204,9940820,9940913,1140918]},
{"code":9941003,"name":"不二越","lon":137.232453,"lat":36.687848,"lines":[99410],"next":[9940839,9940802,9941307,9940803,9941004,9941306,9941309,9941321,9941308]},
{"code":9941004,"name":"大泉(富山)","lon":137.228979,"lat":36.677719,"lines":[99410],"next":[9941302,9941305,9941005,9941303,9941007,9941008,9941003,9941304,9941006,9940803,9941306]},
{"code":9941005,"name":"南富山","lon":137.220500,"lat":36.670406,"lines":[99410],"next":[9941302,9941004,9941301,9941006]},
{"code":9941301,"name":"南富山駅前","lon":137.220440,"lat":36.670484,"lines":[99413],"next":[9941303,9941304,1141645,1141642,9941005,9941006,9941302]},
{"code":9941006,"name":"朝菜町","lon":137.224883,"lat":36.660579,"lines":[99410],"next":[1141642,9941007,1141639,9941005,9941301,9941004]},
{"code":9941007,"name":"上堀","lon":137.230127,"lat":36.653380,"lines":[99410],"next":[1141639,9941006,9941004,9941008,9941009]},
{"code":9941008,"name":"小杉(富山地方鉄道)","lon":137.233164,"lat":36.649433,"lines":[99410],"next":[9941009,9940804,9940803,9941004,9941007]},
{"code":9941009,"name":"布市","lon":137.235455,"lat":36.645178,"lines":[99410],"next":[9941008,9941010,9940804,1141639,9941007]},
{"code":9941010,"name":"開発","lon":137.242854,"lat":36.636207,"lines":[99410],"next":[1141639,9941009,1141638,9940804,9941011]},
{"code":9941011,"name":"月岡(富山)","lon":137.263341,"lat":36.626475,"lines":[99410],"next":[9940905,1141638,9940904,9941012,9940804,9941010]},
{"code":9941012,"name":"大庄","lon":137.275618,"lat":36.619565,"lines":[99410],"next":[9940905,9940906,9941011,1141638,9941013,9940907]},
{"code":9941013,"name":"上滝","lon":137.295564,"lat":36.609622,"lines":[99410],"next":[9940908,1141638,1141637,9941014,9941012,9940910,9940907]},
{"code":9941014,"name":"大川寺","lon":137.308721,"lat":36.608322,"lines":[99410],"next":[9940910,9940908,9940909,9941013]},
{"code":9941302,"name":"大町(富山)","lon":137.220483,"lat":36.673066,"lines":[99413],"next":[9941004,9941005,9941303,9941301]},
{"code":9941303,"name":"堀川小泉","lon":137.219281,"lat":36.675647,"lines":[99413],"next":[9941301,9941302,9941304,9941004]},
{"code":9941304,"name":"小泉町(富山)","lon":137.217779,"lat":36.678745,"lines":[99413],"next":[9941318,9941301,9941305,9941303,1141645,9941004]},
{"code":9941305,"name":"西中野","lon":137.216663,"lat":36.680844,"lines":[99413],"next":[9941318,9941304,9942203,9941004,9941306]},
{"code":9941306,"name":"広貫堂前","lon":137.215934,"lat":36.683357,"lines":[99413],"next":[9941305,9941003,9942203,9941307,9941004]},
{"code":9941307,"name":"上本町","lon":137.215762,"lat":36.686282,"lines":[99413],"next":[9942204,9941003,9942203,9941308,9941306]},
{"code":9941308,"name":"西町","lon":137.215676,"lat":36.689001,"lines":[99413,99422],"next":[9942204,9941003,9941321,9941307]},
{"code":9941321,"name":"中町（西町北）","lon":137.215722,"lat":36.690306,"lines":[99413],"next":[9942204,9941309,9941003,9941308]},
{"code":9941309,"name":"荒町","lon":137.215805,"lat":36.691513,"lines":[99413],"next":[9941310,9942202,9940802,9942204,9941321,9941003]},
{"code":9941310,"name":"桜橋(富山)","lon":137.215934,"lat":36.694610,"lines":[99413],"next":[9941314,9941309,9942202,9941315,9940802,9941311]},
{"code":9941311,"name":"電気ビル前","lon":137.216105,"lat":36.697432,"lines":[99413],"next":[9941312,9940802,9941503,9941314,9941313,9941310]},
{"code":9941312,"name":"地鉄ビル前","lon":137.216105,"lat":36.698584,"lines":[99413],"next":[9940801,9941502,9941311,9941503,9941313]},
{"code":9941314,"name":"新富町(富山)","lon":137.211256,"lat":36.698860,"lines":[99413],"next":[9941320,9941310,9941315,9941313,9941322,9941319,9941318,9941311]},
{"code":9941315,"name":"県庁前(富山)","lon":137.209840,"lat":36.695728,"lines":[99413],"next":[9941314,9942202,9941310,9941318,9941316,9941317]},
{"code":9941316,"name":"丸の内(富山)","lon":137.208896,"lat":36.692563,"lines":[99413,99422],"next":[9942202,9942203,9941317,9941315]},
{"code":9941317,"name":"諏訪川原","lon":137.206535,"lat":36.692322,"lines":[99413],"next":[9941316,9941318,9942203,9941315]},
{"code":9941318,"name":"安野屋","lon":137.201772,"lat":36.692838,"lines":[99413],"next":[1141645,9941304,9941317,9941319,9941305,9942203,9941315,9941314]},
{"code":9941319,"name":"富山トヨペット本社前","lon":137.195420,"lat":36.694834,"lines":[99413],"next":[1141643,1141645,9941318,9941314,9941320]},
{"code":9941320,"name":"大学前(富山)","lon":137.191129,"lat":36.698688,"lines":[99413],"next":[9941314,1141643,9941506,9941322,9941501,1141554,9941319]},
{"code":9941425,"name":"末広町(富山)","lon":137.013148,"lat":36.744825,"lines":[99414],"next":[1141556,9941401,9941402,1141714,9941403]},
{"code":9941402,"name":"片原町(富山)","lon":137.012838,"lat":36.746389,"lines":[99414],"next":[1141556,1141807,9941404,9941425,9941405,9941403]},
{"code":9941403,"name":"坂下町","lon":137.014585,"lat":36.747367,"lines":[99414],"next":[9941404,9941402,9941401,9941425]},
{"code":9941404,"name":"急患医療センター前","lon":137.017788,"lat":36.749761,"lines":[99414],"next":[9941403,9941402,9941401,1141802,9941405,1141551]},
{"code":9941405,"name":"広小路(富山)","lon":137.020615,"lat":36.752566,"lines":[99414],"next":[9941406,1141807,9941402,9941404,1141802]},
{"code":9941406,"name":"志貴野中学校前","lon":137.023759,"lat":36.755648,"lines":[99414],"next":[9941405,9941407,1141807,1141802]},
{"code":9941407,"name":"市民病院前(富山)","lon":137.026100,"lat":36.758196,"lines":[99414],"next":[9941406,9941408,1141802,1141807]},
{"code":9941408,"name":"江尻","lon":137.029761,"lat":36.761501,"lines":[99414],"next":[9941412,9941409,9941407,1141807,1141802]},
{"code":9941409,"name":"旭ヶ丘(富山)","lon":137.032469,"lat":36.763965,"lines":[99414],"next":[9941410,9941412,1141802,1141803,9941408,9941411]},
{"code":9941410,"name":"荻布","lon":137.035619,"lat":36.766820,"lines":[99414],"next":[9941409,1141803,9941411]},
{"code":9941411,"name":"新能町","lon":137.037713,"lat":36.770258,"lines":[99414],"next":[9941412,1141803,9941410,9941409]},
{"code":9941412,"name":"米島口","lon":137.038718,"lat":36.773000,"lines":[99414],"next":[1141805,9941408,9941409,9941415,9941411,1141807,9941413,9941414,1141806,1141803]},
{"code":9941413,"name":"能町口","lon":137.049031,"lat":36.773239,"lines":[99414],"next":[9941414,9941412,1141552,1141803]},
{"code":9941414,"name":"新吉久","lon":137.052839,"lat":36.776086,"lines":[99414],"next":[1141552,9941413,9941412,9941415,9941419]},
{"code":9941415,"name":"吉久","lon":137.056369,"lat":36.782018,"lines":[99414],"next":[9941412,9941419,9941416,1141804,1141805,9941414,9941418]},
{"code":9941416,"name":"中伏木","lon":137.061655,"lat":36.788224,"lines":[99414],"next":[9941418,9941415,9941417,1141804]},
{"code":9941417,"name":"六渡寺","lon":137.066443,"lat":36.788935,"lines":[99414],"next":[1141805,9941420,9941416,9941422,9941418,1141804]},
{"code":9941418,"name":"庄川口","lon":137.070729,"lat":36.784433,"lines":[99414],"next":[9941416,9941420,9941417,9941419,9941415]},
{"code":9941419,"name":"西新湊","lon":137.075300,"lat":36.780056,"lines":[99414],"next":[1141552,9941421,9941420,9941415,9941414,9941418]},
{"code":9941420,"name":"新町口","lon":137.084259,"lat":36.778983,"lines":[99414],"next":[9941421,9941419,9941418,9941422,9941417]},
{"code":9941421,"name":"中新湊","lon":137.088617,"lat":36.775148,"lines":[99414],"next":[9941420,9941419,1141553,9941423,1141552,9941422]},
{"code":9941422,"name":"東新湊","lon":137.099368,"lat":36.777825,"lines":[99414],"next":[1141805,9941420,9941417,9941421,9941423]},
{"code":9941423,"name":"海王丸","lon":137.105331,"lat":36.776726,"lines":[99414],"next":[9941424,1141806,9941421,1141805,9941422,1141553]},
{"code":9941424,"name":"越ノ潟","lon":137.111839,"lat":36.774704,"lines":[99414],"next":[1141806,9941423,9941513,1141554,1141919,1141553]},
{"code":9941502,"name":"インテック本社前","lon":137.216685,"lat":36.703556,"lines":[99415],"next":[9941503,9941312,9941505,9941501,9940801,9941504]},
{"code":9941503,"name":"奥田中学校前","lon":137.223637,"lat":36.703522,"lines":[99415],"next":[9941502,9941504,9941312,9941311,9940802]},
{"code":9941504,"name":"下奥井","lon":137.224478,"lat":36.711311,"lines":[99415],"next":[9941505,9941503,9940802,9940839,9941502]},
{"code":9941505,"name":"粟島（大阪屋ショップ前）","lon":137.224796,"lat":36.719391,"lines":[99415],"next":[9941504,9940803,9941501,1140502,9941502,9941506,9940839]},
{"code":9941506,"name":"越中中島","lon":137.224844,"lat":36.722121,"lines":[99415],"next":[1140502,9941320,1141554,9941501,9941505,9941507]},
{"code":9941507,"name":"城川原","lon":137.226082,"lat":36.731103,"lines":[99415],"next":[1140502,1141554,9941508,9941506]},
{"code":9941508,"name":"犬島新町","lon":137.226620,"lat":36.735445,"lines":[99415],"next":[1140502,9941509,9941507,1141554]},
{"code":9941509,"name":"蓮町","lon":137.227463,"lat":36.742663,"lines":[99415],"next":[9941508,9941510,1141554,1140502]},
{"code":9941510,"name":"大広田","lon":137.228643,"lat":36.748602,"lines":[99415],"next":[9941513,9941509,9941511,1141554,1140502]},
{"code":9941511,"name":"東岩瀬","lon":137.230479,"lat":36.751935,"lines":[99415],"next":[9941513,9941512,9941510,1140502]},
{"code":9941512,"name":"競輪場前(富山)","lon":137.233907,"lat":36.757454,"lines":[99415],"next":[9941511,9941513,1140502]},
{"code":9941513,"name":"岩瀬浜","lon":137.234090,"lat":36.761212,"lines":[99415],"next":[9940817,9940815,9941510,1140503,1140504,9941424,1141554,1141919,1140502,9941511,9940822,9940823,9941512,1140508]},
{"code":9942202,"name":"国際会議場前","lon":137.211390,"lat":36.691654,"lines":[99422],"next":[9941316,9941309,9941310,9942204,9941315,9942203]},
{"code":9942203,"name":"大手モール","lon":137.211334,"lat":36.689388,"lines":[99422],"next":[9941316,9941318,9941307,9941305,9941317,9942204,9941306,9942202]},
{"code":9942204,"name":"グランドプラザ前","lon":137.213386,"lat":36.688923,"lines":[99422],"next":[9941307,9942202,9941309,9942203,9941308,9941321]},
{"code":5000244,"name":"黒部宇奈月温泉","lon":137.481177,"lat":36.874107,"lines":[50028],"next":[1140509,1140510,9940830,9940828,9940841,9940829]}
],
"voronoi":{
"points":[137.002566,36.766787,137.015113,36.750000,137.018938,36.744883,137.362787,36.658477,137.375000,36.649869,137.378999,36.647050,137.056343,36.787394,137.063935,36.780927,137.226712,36.671776,137.229509,36.668533,137.174404,36.780999,137.184778,36.875000,137.198186,36.996490,137.320433,36.728497,137.323481,36.725986,137.205108,37.000000,137.250000,36.940345,137.277824,36.903371,137.286491,36.834348,137.353827,36.754354,137.286553,36.825875,137.304160,36.786403,137.011512,36.794047,137.030292,36.794537,137.183989,36.775372,137.223936,36.759823,137.160675,36.948634,137.164149,36.954553,137.142082,36.500000,137.147073,36.507265,137.198718,36.723740,137.199330,36.720058,137.053832,36.668659,137.081300,36.747328,137.033900,36.727756,137.046544,36.750000,137.046861,36.750558,137.237991,36.737775,137.239683,36.731622,137.209580,36.690565,137.210737,36.693737,137.000000,36.776740,137.024470,36.751778,137.238282,36.743600,137.238823,36.745167,137.213703,36.691051,137.214506,36.689696,137.022960,36.777221,137.024447,36.775981,137.040845,36.790620,137.043326,36.785763,137.213648,36.693154,137.223964,36.692724,137.169669,36.627274,137.190949,36.631431,137.409941,36.738268,137.418013,36.733640,137.325212,36.725507,137.335687,36.683632,137.224271,36.690324,137.224464,36.691204,137.273963,36.726920,137.274255,36.727239,137.004229,36.790626,137.296295,36.682387,137.335267,36.683829,137.020748,36.744152,137.022821,36.743560,137.246037,36.718716,137.246774,36.719717,137.259063,36.720882,137.260425,36.667045,137.040283,36.770871,137.211996,36.700573,137.213499,36.701977,137.201599,36.677382,137.202897,36.680979,137.324161,36.691948,137.211351,36.684703,137.214577,36.687605,137.191427,36.743213,137.192988,36.737408,137.203603,36.700434,137.213068,36.696155,137.004544,36.736850,137.037355,36.578390,137.045800,36.600652,137.236025,36.595402,137.248343,36.585466,137.214550,36.671873,137.222162,36.671747,137.000000,36.732934,137.002164,36.737369,137.292853,36.678445,137.335222,36.667642,137.243095,36.724182,137.246164,36.720381,137.278771,36.901402,137.000000,36.574623,137.033736,36.553338,137.224272,36.685315,137.224368,36.684961,137.053862,36.646682,137.056737,36.652159,137.191703,36.630900,137.197190,36.626153,137.286491,36.648873,137.293820,36.637978,137.470378,36.805782,137.481133,36.786791,137.000000,36.526983,137.031742,36.516728,137.193296,36.667074,137.262940,36.569155,137.263309,36.568501,137.223845,36.683316,137.224111,36.684367,137.250000,36.588411,137.270594,36.625000,137.284959,36.650522,137.203441,36.721132,137.477135,36.716437,137.493410,36.710365,137.290779,36.625000,137.295147,36.633763,137.063420,36.792813,137.191374,36.670854,137.201640,36.703524,137.375000,36.646624,137.000000,36.611798,137.213943,36.701611,137.282007,36.892918,137.191915,36.653312,137.192074,36.651811,137.404459,36.741088,137.258840,36.667684,137.301996,36.875000,137.315562,36.862840,137.362843,36.614822,137.372171,36.625000,137.375000,36.628087,137.381531,36.635213,137.248104,36.683020,137.212216,36.715840,137.240878,36.714712,137.386675,36.748793,137.295872,36.723140,137.183041,36.988129,137.382674,37.000000,137.454306,36.902588,137.316349,36.750000,137.319599,36.740291,137.115266,36.679046,137.125000,36.669783,137.234987,36.707232,137.333512,36.875000,137.375000,36.854990,137.412307,36.836996,137.472964,36.827445,137.475577,36.875000,137.475786,36.878816,137.468325,36.902568,137.308363,36.694049,137.335730,36.750000,137.342756,36.754229,137.353498,36.666614,137.213584,36.691163,137.387010,36.642736,137.445670,36.895756,137.453880,36.902138,137.003314,36.737195,137.064988,36.772873,137.067981,36.755939,137.175641,36.778978,137.000000,36.547818,137.031627,36.525450,137.486784,36.908578,137.495466,36.906275,137.336886,36.844412,137.375000,36.786133,137.398631,36.750000,137.037608,36.767965,137.041104,36.757603,137.100156,36.748587,137.125000,36.739773,137.129355,36.738228,137.239943,36.666040,137.250000,36.679409,137.252074,36.675458,137.408689,36.649114,137.412748,36.625000,137.433785,36.500000,137.141754,36.750000,137.320917,36.716905,137.282772,36.886915,137.290355,36.875000,137.367680,36.753512,137.303638,36.625262,137.009312,36.947382,137.020264,36.951576,137.323313,36.856750,137.081120,36.790709,137.086286,36.803535,137.187435,36.753703,137.206071,36.750000,137.461058,37.000000,137.221867,36.698008,137.223612,36.695850,137.220147,36.700632,137.220182,36.707835,137.065103,36.773983,137.284208,36.651806,137.126660,36.692616,137.201125,36.706697,137.211670,36.700470,137.215836,36.701785,137.216665,36.701039,137.011964,36.750000,137.014280,36.745862,137.000000,36.711319,137.049280,36.677437,137.050243,36.635857,137.267947,36.662601,137.276189,36.662273,137.465979,36.811843,137.193292,36.666298,137.201517,36.668948,137.153469,36.523232,137.157901,36.616146,137.223596,36.695562,137.201837,37.000000,137.492657,36.753325,137.500000,36.760283,137.213510,36.700870,137.207685,36.632970,137.250000,36.655754,137.265134,36.663902,137.337550,36.500000,137.482005,36.785085,137.065090,36.755729,137.272460,36.774834,137.099543,36.748725,137.032241,36.755073,137.039100,36.753957,137.183479,36.685855,137.184936,36.717799,137.194337,36.730044,137.482810,36.782611,137.490293,36.764151,137.351933,36.832076,137.361346,36.822177,137.208029,36.689374,137.053716,36.753746,137.000000,36.744292,137.000435,36.743118,137.343128,36.677699,137.353127,36.667211,137.212766,36.694509,137.211243,36.684549,137.128095,36.695010,137.150683,36.696463,137.431341,36.887864,137.375000,36.751694,137.381818,36.750000,137.224029,36.687904,137.106748,36.963363,137.125000,36.969288,137.063724,36.902910,137.457001,36.830261,137.459376,36.826361,137.495083,36.829345,137.382830,36.637266,137.101359,36.838067,137.119440,36.870005,137.122059,36.875000,137.125000,36.880607,137.214562,36.699159,137.212662,36.690489,137.298369,36.570784,137.303726,36.625000,137.303733,36.625070,137.423189,36.886119,137.426558,36.875000,137.433623,36.851688,137.233235,36.706426,137.000000,36.723501,137.036061,36.711207,137.000910,36.789780,137.000000,36.770537,137.000084,36.770431,137.489909,36.875000,137.491364,36.889627,137.224129,36.689356,137.303813,36.625000,137.314393,36.615665,137.209747,36.717105,137.375000,36.833422,137.402159,36.821164,137.330665,36.893825,137.375000,36.890132,137.207484,36.694707,137.266411,36.663173,137.284635,36.550748,137.303899,36.511791,137.349536,36.708440,137.375000,36.721292,137.385611,36.726648,137.040911,36.790636,137.078390,36.767920,137.382244,36.621858,137.396814,36.500000,137.098373,36.875000,137.125000,36.906470,137.194289,36.730909,137.492866,36.750000,137.495339,36.710808,137.500000,36.905899,137.036645,36.500000,137.009398,36.786600,137.044169,36.752309,137.375000,36.798601,137.403146,36.750000,137.375000,36.636079,137.224198,36.676366,137.455058,36.875000,137.328044,36.725209,137.336468,36.716605,137.092214,36.783629,137.098711,36.757535,137.214747,36.604426,137.201135,36.705513,137.094925,36.819000,137.043612,36.784458,137.043906,36.771763,137.223505,36.679608,137.100595,36.750000,137.125000,36.828548,137.139432,36.875000,137.073172,36.753762,137.330386,36.726093,137.375000,36.726541,137.204679,36.697430,137.357859,36.752854,137.213107,36.696198,137.213880,36.698008,137.016143,36.744809,137.241070,36.749180,137.241935,36.750000,137.250000,36.757649,137.250907,36.758510,137.027919,36.754176,137.000000,36.687999,137.250000,36.720023,137.500000,36.839786,137.499996,36.875000,137.500000,36.875037,137.482807,36.871378,137.484506,36.875000,137.500000,36.781450,137.283614,36.875000,137.020356,36.750000,137.022820,36.747516,137.000000,36.971864,137.230048,36.750000,137.202960,36.678231,137.382076,36.625000,137.000000,36.837455,137.036552,36.875000,137.213540,36.697670,137.236922,36.692922,137.193253,36.667025,137.437645,36.875000,137.449565,36.850676,137.202082,36.656300,137.125000,36.611599,137.000000,36.942326,137.283519,36.672712,137.069863,36.807936,137.474750,36.903878,137.273396,36.750000,137.050338,36.875000,137.250000,36.624820,137.250085,36.625000,137.250000,36.676170,137.300952,36.689833,137.354930,36.750000,137.239751,36.750000,137.447463,36.875000,137.000000,36.789606,137.250000,36.561489,137.125000,36.690638,137.023782,36.750000,137.250000,36.583614,137.188845,36.750000,137.314116,36.586975,137.455553,36.832206,137.375000,36.809708,137.440382,36.750000,137.207678,36.614731,137.099423,36.750000,137.369131,36.500000,137.375000,36.554540,137.220128,36.625000,137.250000,36.649638,137.048873,36.625000,137.033727,36.726773,137.000000,36.598264,137.037064,36.577194,137.064858,36.783134,137.490439,36.763238,137.251363,36.666578,137.500000,36.708034,137.198248,36.625000,137.000000,36.952694,137.479388,36.875000,137.167264,36.625000,137.375000,36.820612,137.375000,36.767517,137.385923,36.750000,137.250000,36.666514,137.250000,36.665529,137.356504,36.612505,137.317250,36.500000,137.000000,36.659132,137.230392,36.500000,137.250000,36.503145,137.465087,36.875000,137.000000,36.779826,137.250000,36.758554,137.182888,36.683436,137.077924,36.750000,137.375000,36.875680,137.376662,36.875000],
"groups":[
{"lon":137000,"lat":36500,"size":125,"index":[85,86,98,99,110,111,129,85,174,175,111,317,175,99,175,111,86,374,86,404,406,407,99,407,407,85]},
{"lon":137000,"lat":36625,"size":125,"index":[1,2,32,33,34,35,66,67,84,66,91,92,102,103,152,153,170,84,183,184,217,218,219,220,221,102,241,183,253,254,285,286,103,152,254,92,183,335,2,66,170,345,351,102,286,220,360,361,218,345,92,170,152,390,361,391,399,241,404,221,405,286,220,32,67,34,405,34,361,67,84,405,33,241,423,221,345,2,254,218,32,103,430,33]},
{"lon":137000,"lat":36750,"size":125,"index":[0,1,6,7,22,23,35,36,41,42,47,48,49,50,63,22,47,72,6,125,171,172,181,182,50,171,201,202,210,201,0,217,239,172,242,243,252,239,23,49,272,273,273,274,287,63,288,289,36,252,48,181,307,6,308,201,23,311,318,47,182,319,243,319,327,328,171,210,202,331,332,333,335,336,338,308,350,242,328,273,289,360,319,36,366,367,327,331,377,272,63,318,22,380,332,239,388,287,49,307,125,377,391,42,72,333,50,332,318,243,328,399,408,202,7,210,289,0,42,350,331,272,287,242,308,327,172,338,48,182,427,350,7,408,125,408,333,252,307,377,338,430,181,72]},
{"lon":137000,"lat":36875,"size":125,"index":[198,199,265,266,267,265,274,275,311,312,362,199,367,267,375,198,380,267,199,265,413,198]},
{"lon":137125,"lat":36500,"size":125,"index":[28,29,87,88,88,117,227,228,29,227,329,87,374,228,87,381,29,389,88,392,398,329,398,402,412,398,228,415,227,329,424,425]},
{"lon":137125,"lat":36625,"size":125,"index":[8,9,30,31,37,38,39,40,43,44,45,46,51,52,53,54,59,60,68,69,73,74,75,76,78,79,80,81,82,83,89,90,95,96,100,101,104,105,112,75,115,116,120,96,126,127,74,130,132,133,68,142,143,144,153,53,154,144,166,45,80,37,184,185,9,186,142,187,185,192,127,82,204,43,206,207,208,209,90,8,54,104,112,115,212,132,213,214,215,216,225,226,229,52,233,130,234,235,244,245,245,246,76,251,257,83,258,78,259,260,79,264,52,60,276,216,78,277,284,154,264,292,295,143,39,277,300,251,313,246,89,323,144,68,233,276,330,127,226,334,258,100,216,208,116,101,82,341,54,133,83,343,120,295,344,206,346,347,45,59,69,352,344,276,143,209,295,215,363,44,364,258,244,330,104,186,31,213,166,51,343,368,154,369,370,112,264,100,373,90,277,166,213,330,40,257,44,346,75,364,323,8,101,383,214,368,386,346,30,120,214,73,76,341,390,212,393,80,341,300,373,9,370,225,37,43,126,370,343,229,60,369,292,59,229,207,46,292,132,225,402,403,246,30,251,39,212,259,259,185,105,412,257,51,260,245,209,284,313,95,73,233,334,115,415,53,133,373,81,313,186,419,234,420,334,323,31,74,46,79,226,89,38,95,96,69,364,116,300,40,260,429,81,38,130,215,368,344,105,234,207,284,208,206,369,142,429,126,429,244]},
{"lon":137125,"lat":36750,"size":125,"index":[10,11,24,25,10,173,192,10,203,204,173,24,336,337,347,348,24,363,25,386,203,393,25,428,173,203]},
{"lon":137125,"lat":36875,"size":125,"index":[11,12,15,16,26,27,27,147,12,230,266,147,275,26,312,26,337,27,147,12]},
{"lon":137250,"lat":36500,"size":125,"index":[113,114,117,118,113,123,138,139,237,138,278,279,293,294,302,303,381,382,389,114,114,302,392,113,394,294,400,401,278,394,421,138,303,422,394,421,425,303,294,421,302,278]},
{"lon":137250,"lat":36625,"size":125,"index":[3,4,13,14,57,58,61,62,64,65,70,71,77,65,93,94,106,107,118,119,106,3,123,124,107,128,135,71,139,140,62,146,146,13,150,151,162,77,151,163,165,3,93,64,187,188,193,14,124,197,211,94,65,58,222,223,235,236,255,256,94,165,279,280,280,293,301,222,304,305,223,211,14,57,197,322,188,135,325,326,339,340,107,124,162,193,119,106,352,70,326,304,256,165,376,93,379,62,382,222,383,188,384,162,339,385,193,77,61,376,403,301,410,135,71,236,151,13,64,384,236,301,419,410,325,339,57,325,420,410,304,256,326,255,211,119,146,384,70,61,197,280,58,255,223,376]},
{"lon":137250,"lat":36750,"size":125,"index":[18,19,20,21,136,137,21,150,155,156,163,164,178,179,195,196,200,178,240,20,249,250,196,262,200,296,18,20,250,320,178,249,19,342,348,349,359,18,21,164,240,379,385,342,349,240,250,396,164,19,249,416,137,417,342,196,428,349,137,200]},
{"lon":137250,"lat":36875,"size":125,"index":[16,17,17,97,97,131,131,136,97,155,194,195,131,194,298,299,194,359,17,298,298,431]},
{"lon":137375,"lat":36500,"size":125,"index":[190,191,309,310,365,309,401,309]},
{"lon":137375,"lat":36625,"size":125,"index":[4,5,55,56,121,122,128,5,134,55,140,141,145,134,5,167,180,134,189,190,189,122,263,145,271,167,141,271,305,306,314,315,321,55,322,271,340,306,141,365,122,315,397,121,315,411,56,121,418,145,167,189,306,56]},
{"lon":137375,"lat":36750,"size":125,"index":[108,109,156,157,158,159,179,180,224,108,231,232,109,238,247,248,157,224,262,263,268,269,238,270,282,283,109,290,296,297,297,247,231,314,320,321,324,268,270,353,270,354,356,357,248,358,371,372,387,372,395,268,396,397,269,224,297,157,248,409,158,356,414,356,108,158,409,231,416,409,417,418,283,395,372,395,269,426,238,247,432,283]},
{"lon":137375,"lat":36875,"size":125,"index":[148,149,159,160,149,161,168,169,176,177,205,176,261,168,281,282,281,261,290,291,299,281,177,316,169,324,354,355,357,291,261,371,161,378,168,387,378,160,291,177,160,414,378,176,426,161,431,432,169,149]}
]
}
}