{
"stations":[
{"code":1170222,"name":"長門粟野","lon":130.970175,"lat":34.357431,"lines":[11702],"next":[9970305,1170134,1170123,1170205,1170225,1170223,1170221]},
{"code":1170223,"name":"阿川","lon":130.925942,"lat":34.335721,"lines":[11702],"next":[1170225,1170224,1190920,1170222,1190222,9991120,1111553,9970305,1190220]},
{"code":1170224,"name":"特牛","lon":130.918870,"lat":34.305979,"lines":[11702],"next":[1170226,1170225,1190217,1170223,1190220]},
{"code":1170225,"name":"滝部","lon":130.946497,"lat":34.283782,"lines":[11702],"next":[1172208,1170227,1170221,1170224,1172204,1170220,1170222,1170223,1170226,1170228]},
{"code":1170226,"name":"長門二見","lon":130.914747,"lat":34.251581,"lines":[11702],"next":[1170224,1190217,1170229,1170231,1170227,1170225,1170232]},
{"code":1170227,"name":"宇賀本郷","lon":130.927589,"lat":34.227303,"lines":[11702],"next":[1170225,1170226,1170229,1170228]},
{"code":1170228,"name":"湯玉","lon":130.932681,"lat":34.209249,"lines":[11702],"next":[1172204,1161232,1170229,1170225,1170227]},
{"code":1170229,"name":"小串","lon":130.928326,"lat":34.170186,"lines":[11702],"next":[1170231,1161232,1170226,1170230,1170228,1170227]},
{"code":1170230,"name":"川棚温泉","lon":130.921817,"lat":34.145914,"lines":[11702],"next":[1170231,1161232,1170229]},
{"code":1170231,"name":"黒井村","lon":130.912035,"lat":34.128066,"lines":[11702],"next":[1170232,1170229,1170230,1170226,1161232,1170233]},
{"code":1170232,"name":"梅ケ峠","lon":130.900253,"lat":34.101469,"lines":[11702],"next":[1170231,1191005,1191004,1170233,1190217,1170226]},
{"code":1170233,"name":"吉見","lon":130.903820,"lat":34.069987,"lines":[11702],"next":[1170234,1191001,1170232,1170231,1170235,1191004,1161232]},
{"code":1170234,"name":"福江","lon":130.915673,"lat":34.047140,"lines":[11702],"next":[1170235,1161232,1170233,1161233,1161234]},
{"code":1170235,"name":"安岡","lon":130.916635,"lat":34.024921,"lines":[11702],"next":[1190207,1170234,1191001,1170240,1161234,1170233,1161235]},
{"code":1170240,"name":"梶栗郷台地","lon":130.923766,"lat":34.012716,"lines":[11702],"next":[1161234,1170236,1161235,1170235]},
{"code":1170236,"name":"綾羅木","lon":130.926662,"lat":34.003932,"lines":[11702],"next":[1170240,1161234,1161235]},
{"code":1161233,"name":"長府","lon":130.999508,"lat":34.019264,"lines":[11612],"next":[1161234,1161231,1161232,1170234,1172312,9992804]},
{"code":1161234,"name":"新下関","lon":130.948021,"lat":34.005651,"lines":[11612,50025],"next":[1170240,1170236,1161233,1161235,1170235,1170234,9992804]}
],
"voronoi":{
"points":[130.942494,34.031844,130.945854,34.037316,130.726357,34.065823,130.747084,34.047958,130.809034,34.192115,130.842135,34.197637,130.533837,34.212604,130.557864,34.187110,130.857669,34.197838,130.500000,34.421289,130.750000,34.361844,130.948553,34.314633,130.727497,34.193905,130.750000,34.068502,130.957510,34.092013,130.861775,34.033676,130.565108,34.181433,130.748336,34.041652,130.968775,34.090420,130.968755,34.089177,130.971342,34.074557,130.961267,34.319664,130.963545,34.051110,130.833882,34.182504,130.919579,34.278570,130.750000,34.046274,130.801486,34.016532,130.500000,34.236598,131.000000,34.307212,131.000000,34.181970,130.999329,34.138137,130.977058,34.000000,130.936751,34.012128,130.937727,34.000000,130.750000,34.183937,130.872756,34.500000,130.750000,34.193411,130.975867,34.104686,130.668589,34.000000,130.899966,34.000000,130.820029,34.000000,130.945962,34.252557,130.953599,34.250000,130.994301,34.236374,130.941128,34.250000,130.750000,34.026772,130.752995,34.000000,131.000000,34.235317,130.948295,34.500000,131.000000,34.334241,130.623252,34.000000,130.500000,34.310371,130.750000,34.291423,131.000000,34.138824,130.887992,34.000000,131.000000,34.054803,130.750000,34.036398,130.761533,34.000000],
"groups":[
{"lon":130500,"lat":34000,"size":250,"index":[2,3,6,7,6,12,2,13,7,16,3,17,3,25,27,6,12,34,12,36,16,38,17,45,7,50,16,2,17,56]},
{"lon":130500,"lat":34250,"size":250,"index":[9,10,51,52]},
{"lon":130750,"lat":34000,"size":250,"index":[0,1,4,5,5,8,13,14,15,1,14,18,19,20,22,20,4,23,25,26,19,18,8,29,23,30,22,31,32,33,32,0,34,14,36,4,18,37,39,32,26,40,42,43,5,44,15,19,1,22,45,46,43,47,26,15,8,43,30,53,37,30,54,0,23,37,20,55,56,57]},
{"lon":130750,"lat":34250,"size":250,"index":[10,11,11,21,24,11,21,28,35,21,41,42,44,41,48,49,52,24,24,41]}
]
}
}