{
  "name":"root",
  "root":9940821,
  "station_size":63,
  "node_list":[
    {"code":9940821,"left":9962502,"right":1134211,"id":"aeed3b","name":"電鉄魚津","name_kana":"でんてつうおづ","lat":36.815113,"lng":137.400288,"prefecture":16,"lines":[99408],"attr":"eco","postal_code":"937-0862","address":"魚津市文化町","next":[9940837,1140506,9940818,1140505,9940832,9940822,9940820],"voronoi":{"lat":36.832076,"lng":137.351933,"delta_lat":[0,12335,12339,-35586,-38553,-18461,-912],"delta_lng":[0,-15047,-13573,78845,80651,7484,146]},"impl":true},
    {"code":9962502,"left":9971116,"right":9961106,"id":"b1193d","name":"トレードセンター前","name_kana":"とれーどせんたーまえ","lat":34.63865,"lng":135.412336,"prefecture":27,"lines":[99625],"attr":"cool","postal_code":"559-0034","address":"大阪市住之江区南港北１-１４-７２","next":[3200118,9964906,3500304,9964809,9962101,9962503],"voronoi":{"lat":34.643002,"lng":135.34283,"delta_lat":[0,-5209,-39508,-23629,-1552,67465],"delta_lng":[0,-9183,-12644,188,36906,60546]},"impl":true},
    {"code":9971116,"left":1190507,"right":9980306,"id":"b11c25","name":"天満町","name_kana":"てんまちょう","lat":34.395216,"lng":132.440572,"prefecture":34,"lines":[99711,99712],"attr":"cool","postal_code":"733-0031","address":"広島市西区観音町","next":[9971115,9971504,9971113,9971118,9971415,9971117],"voronoi":{"lat":34.393227,"lng":132.439173,"delta_lat":[0,-2903,1185,7097,2082,2270],"delta_lng":[0,969,1632,1309,-704,-1778]},"impl":true},
    {"code":1190507,"left":9992505,"right":1190210,"id":"e660da","name":"佐賀","name_kana":"さが","lat":33.264212,"lng":130.297608,"prefecture":41,"lines":[11905,11921],"attr":"heat","postal_code":"840-0801","address":"佐賀市駅前中央１丁目","next":[1190506,1190508,3600135,3600136],"voronoi":{"lat":33.145442,"lng":130.30041,"delta_lat":[0,207481,-133591,-6951],"delta_lng":[0,-33490,88673,-4143]},"impl":true},
    {"code":9992505,"left":9991317,"right":1190709,"id":"c84648","name":"朝日通","name_kana":"あさひどおり","lat":31.594374,"lng":130.557286,"prefecture":46,"lines":[99925,99926],"attr":"eco","postal_code":"892-0821","address":"鹿児島市名山町","next":[9992504,9992506,9992508,9992507,9992503],"voronoi":{"lat":31.592828,"lng":130.555688,"delta_lat":[0,3506,1916,-3916,-281],"delta_lng":[0,-5839,-1716,15071,573]},"impl":true},
    {"code":9991317,"left":1090206,"right":1190527,"id":"142ac3","name":"八千代町","name_kana":"やちよまち","lat":32.754979,"lng":129.870436,"prefecture":42,"lines":[99913,99914],"attr":"cool","postal_code":"850-0043","address":"長崎市八千代町","next":[9991318,1190541,9991406,9991316,9991404],"voronoi":{"lat":32.752483,"lng":129.862334,"delta_lat":[0,1299,2415,3027,1918],"delta_lng":[0,9007,4365,2502,335]},"impl":true},
    {"code":1090206,"segment":"segment1"},
    {"code":1190527,"segment":"segment2"},
    {"code":1190709,"left":9992010,"right":1192311,"id":"087e11","name":"日向長井","name_kana":"ひゅうがながい","lat":32.664325,"lng":131.700156,"prefecture":45,"lines":[11907],"attr":"heat","postal_code":"889-0102","address":"延岡市北川町長井","next":[1190660,1190713,1190708,1190710,1190707],"voronoi":{"lat":32.517711,"lng":132.260489,"delta_lat":[0,34599,117700,14852,-47229],"delta_lng":[0,-251068,-389578,158052,299355]},"impl":true},
    {"code":9992010,"segment":"segment3"},
    {"code":1192311,"segment":"segment4"},
    {"code":1190210,"left":1190906,"right":1172410,"id":"004fdb","name":"スペースワールド","name_kana":"すぺーすわーるど","lat":33.871246,"lng":130.806197,"prefecture":40,"lines":[11902],"attr":"cool","postal_code":"805-0057","address":"北九州市八幡東区大字尾倉４００-４","next":[1190606,1190211,1191002,9990811,1190209],"voronoi":{"lat":33.886102,"lng":130.797446,"delta_lat":[0,-129,-66920,29082,4894],"delta_lng":[0,-118,14209,23521,106]},"impl":true},
    {"code":1190906,"left":1190303,"right":1190806,"id":"40c43b","name":"波多江","name_kana":"はたえ","lat":33.563876,"lng":130.226374,"prefecture":40,"lines":[11909],"attr":"heat","postal_code":"819-1103","address":"福岡県糸島市波多江駅北四丁目3-13","next":[9990701,1190910,1190905,1190921,1190904],"voronoi":{"lat":33.721141,"lng":130.178935,"delta_lat":[0,-270142,-27592,58028,204972],"delta_lng":[0,68278,14039,5314,-72784]},"impl":true},
    {"code":1190303,"segment":"segment5"},
    {"code":1190806,"segment":"segment6"},
    {"code":1172410,"left":1190612,"right":1170824,"id":"a317db","name":"勝間","name_kana":"かつま","lat":34.042008,"lng":131.953979,"prefecture":35,"lines":[11724],"attr":"heat","postal_code":"745-0612","address":"周南市呼坂","next":[1172413,1161212,1172411,1172409,1172412],"voronoi":{"lat":34.015997,"lng":131.955491,"delta_lat":[0,3786,101649,-27894,-15698],"delta_lng":[0,28313,-71282,2748,5784]},"impl":true},
    {"code":1190612,"segment":"segment7"},
    {"code":1170824,"segment":"segment8"},
    {"code":9980306,"left":1180124,"right":3200113,"id":"85c958","name":"木太東口","name_kana":"きたひがしぐち","lat":34.319718,"lng":134.07957,"prefecture":37,"lines":[99803],"attr":"heat","postal_code":"760-0080","address":"高松市木太町４００７-７","next":[1180206,9980406,1180205,9980305,9980307],"voronoi":{"lat":34.309583,"lng":134.069431,"delta_lat":[0,16264,-419,-1855,-1291],"delta_lng":[0,9365,16034,2152,740]},"impl":true},
    {"code":1180124,"left":9981711,"right":1180107,"id":"dc4fae","name":"繁藤","name_kana":"しげとう","lat":33.680389,"lng":133.690186,"prefecture":39,"lines":[11801],"attr":"heat","postal_code":"789-0585","address":"香美市土佐山田町繁藤","next":[1180122,1180128,1180132,1180130,1180125,1180123,1180127],"voronoi":{"lat":33.652725,"lng":133.623368,"delta_lat":[0,2374,11501,19178,7966,-16395,-24788],"delta_lng":[0,-7526,-15271,-17225,70743,107109,-136865]},"impl":true},
    {"code":9981711,"left":1180143,"right":9980819,"id":"f85081","name":"一条橋","name_kana":"いちじょうばし","lat":33.574833,"lng":133.613802,"prefecture":39,"lines":[99817],"attr":"eco","postal_code":"780-0000","address":"高知市大津字長崎","next":[9981713,1180130,9981712,9981710,9981716],"voronoi":{"lat":33.578625,"lng":133.615955,"delta_lat":[0,-2547,-11775,-8610,-3945],"delta_lng":[0,-2676,-1617,719,1792]},"impl":true},
    {"code":1180143,"segment":"segment9"},
    {"code":9980819,"segment":"segment10"},
    {"code":1180107,"left":1180418,"right":1180502,"id":"afeea3","name":"讃岐財田","name_kana":"さぬきさいだ","lat":34.117463,"lng":133.814781,"prefecture":37,"lines":[11801],"attr":"cool","postal_code":"769-0401","address":"三豊市財田町財田上","next":[1180106,1180105,1180618,1180620,1180108,1180109,1180111],"voronoi":{"lat":34.080091,"lng":133.738845,"delta_lat":[0,51042,13900,-34651,-12501,-6298,-14058],"delta_lng":[0,11588,8957,101969,13734,-14412,-98852]},"impl":true},
    {"code":1180418,"segment":"segment11"},
    {"code":1180502,"segment":"segment12"},
    {"code":3200113,"left":1171705,"right":3200111,"id":"4787f6","name":"浜寺公園","name_kana":"はまでらこうえん","lat":34.541243,"lng":135.444629,"prefecture":27,"lines":[32001],"attr":"cool","postal_code":"592-8346","address":"堺市西区浜寺公園町２丁１８８","next":[9962930,3200112,1162614,9962929,1162702],"voronoi":{"lat":34.538196,"lng":135.443521,"delta_lat":[0,9272,-242,-6449,-4847],"delta_lng":[0,1104,566,9420,-3289]},"impl":true},
    {"code":1171705,"left":1171608,"right":9970403,"id":"684ff1","name":"下祇園","name_kana":"しもぎおん","lat":34.439354,"lng":132.462328,"prefecture":34,"lines":[11717],"attr":"heat","postal_code":"731-0138","address":"広島市安佐南区祇園３丁目","next":[9970907,9970915,9970914,9970906,1171706,9970908,9970916,1171704],"voronoi":{"lat":34.432099,"lng":132.463966,"delta_lat":[0,9197,2280,10787,-1684,-1373,-4560,-15120],"delta_lng":[0,4594,-717,-20900,-3469,-2027,-4804,26480]},"impl":true},
    {"code":1171608,"segment":"segment13"},
    {"code":9970403,"segment":"segment14"},
    {"code":3200111,"left":3100710,"right":9961922,"id":"903dc0","name":"石津川","name_kana":"いしづがわ","lat":34.559377,"lng":135.453178,"prefecture":27,"lines":[32001],"attr":"cool","postal_code":"592-8334","address":"堺市西区浜寺石津町中３丁１５-１９","next":[9962931,3200112,9962928,3200110,9962507],"voronoi":{"lat":34.565771,"lng":135.455206,"delta_lat":[0,-7376,-2612,21367,4845],"delta_lng":[0,962,-5414,-40176,18104]},"impl":true},
    {"code":3100710,"segment":"segment15"},
    {"code":9961922,"segment":"segment16"},
    {"code":9961106,"left":1162908,"right":3001802,"id":"b2bec1","name":"東野(京都)","original_name":"東野","name_kana":"ひがしの","lat":34.981841,"lng":135.816602,"prefecture":26,"lines":[99611],"attr":"eco","postal_code":"607-8156","address":"京都市山科区東野片下り町","next":[3300703,3300702,9961105,3300704,3300701],"voronoi":{"lat":34.986858,"lng":135.820318,"delta_lat":[0,-7371,-5927,6827,6767],"delta_lng":[0,10031,2720,-32190,6474]},"impl":true},
    {"code":1162908,"left":3400107,"right":9964307,"id":"e3fd3d","name":"川西池田","name_kana":"かわにしいけだ","lat":34.824857,"lng":135.409901,"prefecture":28,"lines":[11629],"attr":"eco","postal_code":"666-0021","address":"川西市栄根２丁目","next":[3400215,3400212,1162907,3400213,3400214],"voronoi":{"lat":34.810819,"lng":135.400928,"delta_lat":[0,-3036,5814,5883,11230],"delta_lng":[0,417,14502,1226,-8995]},"impl":true},
    {"code":3400107,"left":1170310,"right":3500105,"id":"338ed5","name":"武庫之荘","name_kana":"むこのそう","lat":34.751587,"lng":135.393821,"prefecture":28,"lines":[34001],"attr":"eco","postal_code":"661-0035","address":"尼崎市武庫之荘１-１-１","next":[3400106,1160305,3400404,3400405,3400602,1160304,3400604,3400603],"voronoi":{"lat":34.758524,"lng":135.40448,"delta_lat":[0,-10287,-7529,16469,1924,19439,-7141,-2821],"delta_lng":[0,578,-17955,-10644,298,8658,10204,2734]},"impl":true},
    {"code":1170310,"left":9964505,"right":1160815,"id":"35ed22","name":"美袋","name_kana":"みなぎ","lat":34.719797,"lng":133.654388,"prefecture":33,"lines":[11703],"attr":"heat","postal_code":"719-1311","address":"総社市美袋","next":[1170309,1170312,9970506,9970507,1170311,9970505],"voronoi":{"lat":34.778237,"lng":133.679123,"delta_lat":[0,-16944,-66840,-22857,-2710,2474],"delta_lng":[0,-30810,-54052,32140,8076,32396]},"impl":true},
    {"code":9964505,"segment":"segment17"},
    {"code":1160815,"segment":"segment18"},
    {"code":3500105,"left":3100301,"right":3300136,"id":"139c18","name":"姫島","name_kana":"ひめじま","lat":34.704466,"lng":135.45823,"prefecture":27,"lines":[35001],"attr":"heat","postal_code":"555-0025","address":"大阪市西淀川区姫里１-２６-１４","next":[1162507,1160302,3500203,3500104,3500204,3500106],"voronoi":{"lat":34.710201,"lng":135.462284,"delta_lat":[0,-5692,-8444,2236,6512,1757],"delta_lng":[0,4422,-9994,-5099,-1959,1063]},"impl":true},
    {"code":3100301,"segment":"segment19"},
    {"code":3300136,"segment":"segment20"},
    {"code":9964307,"left":1170122,"right":9961204,"id":"2d47c0","name":"播磨横田","name_kana":"はりまよこた","lat":34.91048,"lng":134.825246,"prefecture":28,"lines":[99643],"attr":"cool","postal_code":"675-2335","address":"加西市西横田町字下モ田","next":[9964306,9964305,9964308,1163507,1163506,1163508],"voronoi":{"lat":34.934045,"lng":134.786915,"delta_lat":[0,-30629,-1265,1814,6866,24939],"delta_lng":[0,-6421,-13,61316,11185,-64908]},"impl":true},
    {"code":1170122,"left":1170316,"right":1161639,"id":"9b0b70","name":"静間","name_kana":"しずま","lat":35.195467,"lng":132.468015,"prefecture":32,"lines":[11701],"attr":"eco","postal_code":"694-0031","address":"大田市静間町","next":[1170120,1170123,1170124,1170713,1170714,1170121],"voronoi":{"lat":35.104195,"lng":132.493669,"delta_lat":[0,-3649,37515,121828,-37225,-114912],"delta_lng":[0,-7776,-25878,-12035,31478,19796]},"impl":true},
    {"code":1170316,"segment":"segment21"},
    {"code":1161639,"segment":"segment22"},
    {"code":9961204,"left":3300115,"right":1142203,"id":"933b2c","name":"山ノ内(京都)","original_name":"山ノ内","name_kana":"やまのうち","lat":35.008336,"lng":135.72317,"prefecture":26,"lines":[99612],"attr":"heat","postal_code":"615-0093","address":"京都市右京区山ノ内宮前町","next":[3400304,9961117,9961203,9961213,3400305,1161404,1161405,9961116],"voronoi":{"lat":35.014117,"lng":135.725703,"delta_lat":[0,1225,-1506,-7321,-5095,-2094,6400,2077],"delta_lng":[0,-1613,-2971,-2562,-1191,7061,3255,107]},"impl":true},
    {"code":3300115,"segment":"segment23"},
    {"code":1142203,"segment":"segment24"},
    {"code":3001802,"left":3000137,"right":1150236,"id":"3ca7c5","name":"味鋺","name_kana":"あじま","lat":35.222478,"lng":136.936113,"prefecture":23,"lines":[30018],"attr":"cool","postal_code":"462-0013","address":"名古屋市北区東味鋺２-１２３","next":[1141106,3001801,9951005,1141107,3001803],"voronoi":{"lat":35.22865,"lng":136.93904,"delta_lat":[0,-10790,-7027,8893,8408],"delta_lng":[0,-19690,20235,8953,-3061]},"impl":true},
    {"code":3000137,"left":3300608,"right":1150228,"id":"dfcbba","name":"栄生","name_kana":"さこう","lat":35.183687,"lng":136.873051,"prefecture":23,"lines":[30001,30015],"attr":"heat","postal_code":"451-0000","address":"名古屋市西区藤ノ宮通３丁目","next":[9951306,3000138,9951605,9951604,9951307],"voronoi":{"lat":35.188539,"lng":136.881651,"delta_lat":[0,2397,-6813,-5433,5995],"delta_lng":[0,-1149,-14464,5678,9969]},"impl":true},
    {"code":3300608,"left":3102742,"right":9952908,"id":"d6ce06","name":"錦","name_kana":"にしき","lat":34.997587,"lng":135.885649,"prefecture":25,"lines":[33006],"attr":"heat","postal_code":"520-0817","address":"大津市昭和町２-８","next":[3300607,3300610,3300606,1160117,3300609,1160504],"voronoi":{"lat":35.033444,"lng":135.903567,"delta_lat":[0,-17053,-18282,-12635,3889,47315],"delta_lng":[0,-12115,-8488,-4416,4460,29599]},"impl":true},
    {"code":3102742,"segment":"segment25"},
    {"code":9952908,"segment":"segment26"},
    {"code":1150228,"left":3000515,"right":9951401,"id":"15672e","name":"大高","name_kana":"おおだか","lat":35.069244,"lng":136.940242,"prefecture":23,"lines":[11502],"attr":"cool","postal_code":"459-8001","address":"名古屋市緑区大高町鶴田","next":[1150241,3000808,3000809,3000127,3000128,3000810,3000126],"voronoi":{"lat":35.069066,"lng":136.950326,"delta_lat":[0,9553,-2436,-65,-6194,-16239,12272],"delta_lng":[0,-9603,-15436,-23,-703,4741,21227]},"impl":true},
    {"code":3000515,"segment":"segment27"},
    {"code":9951401,"segment":"segment28"},
    {"code":1150236,"left":9942802,"right":1141710,"id":"c2cdf4","name":"稲沢","name_kana":"いなざわ","lat":35.252994,"lng":136.820942,"prefecture":23,"lines":[11502],"attr":"eco","postal_code":"492-8143","address":"稲沢市駅前１丁目","next":[3000145,3001509,3001507,3001508,3000147,3000146,3000148,3001510,3001511,3000149,1150235],"voronoi":{"lat":35.255075,"lng":136.847131,"delta_lat":[0,9728,3521,13978,4787,-2856,-20462,-17033,-7617,-215,9282],"delta_lng":[0,-566,-688,-6641,-4058,-4299,-18234,-1160,13358,2295,18847]},"impl":true},
    {"code":9942802,"left":9953221,"right":9941915,"id":"68654d","name":"東鯖江","name_kana":"ひがしさばえ","closed":true,"lat":35.947308,"lng":136.188614,"prefecture":18,"lines":[99428],"attr":"unknown","postal_code":"916-0025","address":"福井県鯖江市旭町３丁目１旭町３丁目公園","next":[9942106,9942105,1141520,1141519],"voronoi":{"lat":35.945137,"lng":136.185498,"delta_lat":[0,3528,8119,-9386],"delta_lng":[0,-503,14975,23077]},"impl":true},
    {"code":9953221,"segment":"segment29"},
    {"code":9941915,"segment":"segment30"},
    {"code":1141710,"left":3001813,"right":9941322,"id":"6a0e15","name":"東石黒","name_kana":"ひがしいしぐろ","lat":36.57605,"lng":136.898166,"prefecture":16,"lines":[11417],"attr":"eco","postal_code":"939-1543","address":"南砺市下吉江","next":[1141712,1141709,1141711,1141713,1141548],"voronoi":{"lat":36.612662,"lng":136.847357,"delta_lat":[0,-56931,-5537,558,75724],"delta_lng":[0,50958,19524,8588,-37834]},"impl":true},
    {"code":3001813,"segment":"segment31"},
    {"code":9941322,"segment":"segment32"},
    {"code":1134211,"left":9932102,"right":1011103,"id":"11d5f3","name":"沼田","name_kana":"ぬまた","lat":36.642513,"lng":139.035734,"prefecture":10,"lines":[11342],"attr":"heat","postal_code":"378-0016","address":"沼田市清水町","next":[9931215,1133503,1134210,1134213,1134215,9931211,9931209,1134212],"voronoi":{"lat":36.613307,"lng":138.968338,"delta_lat":[0,-8881,67397,42634,8907,69698,-27985,-28700],"delta_lng":[0,11488,232234,19079,3151,4569,-90507,-52189]},"impl":true},
    {"code":9932102,"left":2400115,"right":2300119,"id":"85a5bf","name":"鉄道博物館","name_kana":"てつどうはくぶつかん","lat":35.920271,"lng":139.617796,"prefecture":11,"lines":[99321],"attr":"cool","postal_code":"330-0852","address":"さいたま市大宮区大成町３-８９","next":[2100402,100403,1132202,1132211,2100403,1131907,9932103],"voronoi":{"lat":35.927721,"lng":139.613699,"delta_lat":[0,-15931,-8871,9263,13673,1243,1300],"delta_lng":[0,-15385,-474,20487,6138,-285,-1063]},"impl":true},
    {"code":2400115,"left":9950208,"right":2100254,"id":"294567","name":"柴崎","name_kana":"しばさき","lat":35.653997,"lng":139.56658,"prefecture":13,"lines":[24001],"attr":"cool","postal_code":"182-0007","address":"調布市菊野台２-６７-１１","next":[2400114,2400116,1131105,2400118,2400117,2500116],"voronoi":{"lat":35.640873,"lng":139.567419,"delta_lat":[0,28798,1508,5865,939,-33028],"delta_lng":[0,-13179,-411,-471,7308,15264]},"impl":true},
    {"code":9950208,"left":9950205,"right":2700130,"id":"b92fab","name":"韮山","name_kana":"にらやま","lat":35.053547,"lng":138.945467,"prefecture":22,"lines":[99502],"attr":"heat","postal_code":"410-2123","address":"伊豆の国市四日町","next":[1150403,1150104,9950209,9950207,1150102],"voronoi":{"lat":35.055794,"lng":139.00619,"delta_lat":[0,-19394,14785,15119,-7232],"delta_lng":[0,-127672,8567,103293,15653]},"impl":true},
    {"code":9950205,"left":9950617,"right":1140214,"id":"638977","name":"大場","name_kana":"だいば","lat":35.092569,"lng":138.939414,"prefecture":22,"lines":[99502],"attr":"cool","postal_code":"411-0803","address":"三島市大場","next":[1150102,9950204,9950206],"voronoi":{"lat":35.079922,"lng":138.902575,"delta_lat":[0,33473,-24530],"delta_lng":[0,46094,12591]},"impl":true},
    {"code":9950617,"segment":"segment33"},
    {"code":1140214,"segment":"segment34"},
    {"code":2700130,"left":2500138,"right":1130319,"id":"088a74","name":"南太田","name_kana":"みなみおおた","lat":35.436923,"lng":139.613408,"prefecture":14,"lines":[27001],"attr":"cool","postal_code":"232-0006","address":"横浜市南区南太田１-２５-１","next":[9931620,2900103,9931619,2700129,2700131,1130807],"voronoi":{"lat":35.44073,"lng":139.60575,"delta_lat":[0,-5033,-3669,8661,5726,-1994],"delta_lng":[0,1191,7804,2461,-1753,-7063]},"impl":true},
    {"code":2500138,"segment":"segment35"},
    {"code":1130319,"segment":"segment36"},
    {"code":2100254,"left":1140123,"right":2200727,"id":"8f2beb","name":"新伊勢崎","name_kana":"しんいせさき","lat":36.318052,"lng":139.201816,"prefecture":10,"lines":[21002],"attr":"heat","postal_code":"372-0042","address":"伊勢崎市中央町","next":[1134109,1132320,1134108,1132321,2100253],"voronoi":{"lat":36.278937,"lng":139.184181,"delta_lat":[0,53,14391,48469,-14800],"delta_lng":[0,-324,-17621,52562,14915]},"impl":true},
    {"code":1140123,"left":1131136,"right":1140126,"id":"817427","name":"北中込","name_kana":"きたなかごみ","lat":36.254923,"lng":138.476661,"prefecture":20,"lines":[11401],"attr":"cool","postal_code":"385-0051","address":"佐久市大字中込","next":[1140124,1140121,100904,1140120,1140122,9940304,1140126],"voronoi":{"lat":36.262015,"lng":138.46226,"delta_lat":[0,12328,-14702,-13383,-1487,5202,7042],"delta_lng":[0,56525,31895,-41588,-13246,-50844,7901]},"impl":true},
    {"code":1131136,"segment":"segment37"},
    {"code":1140126,"segment":"segment38"},
    {"code":2200727,"left":1130329,"right":9930609,"id":"da834e","name":"新狭山","name_kana":"しんさやま","lat":35.873993,"lng":139.433499,"prefecture":11,"lines":[22007],"attr":"cool","postal_code":"350-1331","address":"狭山市新狭山３-１２-１","next":[2200724,2200726,1132208,1132207,2200728,2200725],"voronoi":{"lat":35.848228,"lng":139.469292,"delta_lat":[0,47557,297,-13879,-29484,-5047],"delta_lng":[0,-36019,-6880,-17074,24551,33817]},"impl":true},
    {"code":1130329,"segment":"segment39"},
    {"code":9930609,"segment":"segment40"},
    {"code":2300119,"left":2800204,"right":9932923,"id":"0d99e9","name":"東中山","name_kana":"ひがしなかやま","lat":35.714385,"lng":139.952683,"prefecture":12,"lines":[23001],"attr":"heat","postal_code":"273-0036","address":"船橋市東中山２-２-２２","next":[1130523,2300118,2300120,1130524,1131329,2800422],"voronoi":{"lat":35.708363,"lng":139.947955,"delta_lat":[0,5541,14871,-6519,-13636,-2977],"delta_lng":[0,-63,4582,7427,-6085,-3086]},"impl":true},
    {"code":2800204,"left":2600411,"right":9933205,"id":"626699","name":"後楽園","name_kana":"こうらくえん","lat":35.707898,"lng":139.751864,"prefecture":13,"lines":[28002,28009],"attr":"eco","postal_code":"112-0003","address":"文京区春日１-２-３","next":[2800203,1131317,9930108,2800205,1131316],"voronoi":{"lat":35.710566,"lng":139.743362,"delta_lat":[0,3773,-8170,-109,-2511],"delta_lng":[0,2337,10021,-17,-6011]},"impl":true},
    {"code":2600411,"left":2600207,"right":1130208,"id":"217a98","name":"九品仏","name_kana":"くほんぶつ","lat":35.60538,"lng":139.660992,"prefecture":13,"lines":[26004],"attr":"heat","postal_code":"158-0083","address":"世田谷区奥沢７-２０-１","next":[2600107,2600108,2600304,2600412],"voronoi":{"lat":35.619417,"lng":139.661676,"delta_lat":[0,-17119,-8220,25371],"delta_lng":[0,4115,-11063,5662]},"impl":true},
    {"code":2600207,"segment":"segment41"},
    {"code":1130208,"segment":"segment42"},
    {"code":9933205,"left":9932507,"right":2800413,"id":"25e20b","name":"穴川(千葉)","original_name":"穴川","name_kana":"あながわ","lat":35.639645,"lng":140.111849,"prefecture":12,"lines":[99332],"attr":"cool","postal_code":"263-0024","address":"千葉市稲毛区穴川７９-１","next":[9933206,1131337,9933204],"voronoi":{"lat":35.634305,"lng":140.102717,"delta_lat":[0,24381,-22392],"delta_lng":[0,-3009,18492]},"impl":true},
    {"code":9932507,"segment":"segment43"},
    {"code":2800413,"segment":"segment44"},
    {"code":9932923,"left":2100602,"right":9932311,"id":"ea3e8d","name":"上本郷","name_kana":"かみほんごう","lat":35.789524,"lng":139.916031,"prefecture":12,"lines":[99329],"attr":"heat","postal_code":"271-0064","address":"松戸市上本郷２６４８-１１","next":[9934005,9934004,1132009,1132010,9932922],"voronoi":{"lat":35.796857,"lng":139.918309,"delta_lat":[0,-4772,-15648,-594,554],"delta_lng":[0,-11589,5183,8886,913]},"impl":true},
    {"code":2100602,"left":1133213,"right":2100409,"id":"3ed08f","name":"大師前","name_kana":"だいしまえ","lat":35.778989,"lng":139.781647,"prefecture":13,"lines":[21006],"attr":"heat","postal_code":"123-0841","address":"足立区西新井１-３-１","next":[9934206,2100213,2100214,9934210,9934207,9934208,9934209],"voronoi":{"lat":35.777909,"lng":139.775361,"delta_lat":[0,-6219,-5204,-412,19846,3931,-4664],"delta_lng":[0,2724,5044,573,3790,-6613,-3933]},"impl":true},
    {"code":1133213,"segment":"segment45"},
    {"code":2100409,"segment":"segment46"},
    {"code":9932311,"left":1132722,"right":9932209,"id":"4dc7ba","name":"鹿島灘","name_kana":"かしまなだ","lat":36.075568,"lng":140.596789,"prefecture":8,"lines":[99323],"attr":"cool","postal_code":"311-2201","address":"鹿嶋市大小志崎","next":[1132904,9931504,9932309,9932312,9931503,9932310],"voronoi":{"lat":36.063665,"lng":140.541099,"delta_lat":[0,-37036,-4224,183689,3554,106],"delta_lng":[0,-27731,12379,349973,-92900,-6751]},"impl":true},
    {"code":1132722,"segment":"segment47"},
    {"code":9932209,"segment":"segment48"},
    {"code":1011103,"left":9921813,"right":1110315,"id":"0826e0","name":"手宮","name_kana":"てみや","closed":true,"lat":43.2095,"lng":140.998611,"prefecture":1,"lines":[10111],"postal_code":"047-0041","address":"北海道小樽市手宮１丁目３","open_date":"1880-11-28","closed_date":"1985-11-05","next":[1110219,1011102,1111321,1110303,1110302,1110304,1110218],"voronoi":{"lat":43.202927,"lng":140.997148,"delta_lat":[0,1955,1815,29811,332506,259206,-610536],"delta_lng":[0,23114,4498,28154,166131,-317067,58477]},"impl":false},
    {"code":9921813,"left":1122714,"right":1120258,"id":"667aa2","name":"荒井(宮城)","original_name":"荒井","name_kana":"あらい","lat":38.244861,"lng":140.948611,"prefecture":4,"lines":[99218],"attr":"cool","postal_code":"984-0032","address":"仙台市若林区荒井東","open_date":"2015-12-06","next":[9921703,9921704,1122208,1123141,1122211,1123140,1122210,9921812,9921811,1122209],"voronoi":{"lat":38.257733,"lng":140.960241,"delta_lat":[0,3777,-46162,-6244,-2162,-3020,-22106,-12931,1165,65361],"delta_lng":[0,-11795,-21608,-1498,920,2196,60359,70098,-960,-64129]},"impl":true},
    {"code":1122714,"left":1140402,"right":1122712,"id":"fe9802","name":"滝谷(福島)","original_name":"滝谷","name_kana":"たきや","lat":37.494315,"lng":139.69799,"prefecture":7,"lines":[11227],"attr":"heat","postal_code":"969-7205","address":"河沼郡柳津町大字郷戸字居平丁","next":[1122713,1122717,9921616,1122716,1122705,1122706,1122715],"voronoi":{"lat":37.515312,"lng":139.685506,"delta_lat":[0,-42870,-14353,-106131,-3793,32178,64104],"delta_lng":[0,79278,832,-17390,-14468,-14636,-23520]},"impl":true},
    {"code":1140402,"left":1140315,"right":1140431,"id":"b30418","name":"黒井(新潟)","original_name":"黒井","name_kana":"くろい","lat":37.1837,"lng":138.267518,"prefecture":15,"lines":[11404],"attr":"cool","postal_code":"942-0091","address":"上越市頸城区西福島","next":[1140403,9940210,1140523,1140319,1140320,1140321],"voronoi":{"lat":37.291986,"lng":138.19364,"delta_lat":[0,52994,-196503,-23629,15565,8382],"delta_lng":[0,-12054,139117,161,-41795,-9170]},"impl":true},
    {"code":1140315,"segment":"segment49"},
    {"code":1140431,"segment":"segment50"},
    {"code":1122712,"left":1123108,"right":9921508,"id":"2a2ea7","name":"会津柳津","name_kana":"あいづやないづ","lat":37.538664,"lng":139.723817,"prefecture":7,"lines":[11227],"attr":"heat","postal_code":"969-7201","address":"河沼郡柳津町柳津字下大平","next":[1122711,1122610,1122611,1122713,1122609],"voronoi":{"lat":37.500287,"lng":139.760531,"delta_lat":[0,52508,9551,15659,200],"delta_lng":[0,-84218,6299,34139,9287]},"impl":true},
    {"code":1123108,"segment":"segment51"},
    {"code":9921508,"segment":"segment52"},
    {"code":1120258,"left":9920918,"right":9920306,"id":"69816c","name":"撫牛子","name_kana":"ないじょうし","lat":40.621298,"lng":140.497616,"prefecture":2,"lines":[11202],"attr":"heat","postal_code":"036-8075","address":"弘前市大字撫牛子","next":[1120259,1120441,9920314,9920204,1120442,9920203,1120257],"voronoi":{"lat":40.618433,"lng":140.477751,"delta_lat":[0,20592,773,-2565,-20262,-9327,-2257],"delta_lng":[0,-17951,2428,43877,21800,-14182,-13633]},"impl":true},
    {"code":9920918,"left":9923210,"right":1110135,"id":"e0dbb2","name":"奥阿仁","name_kana":"おくあに","lat":39.911567,"lng":140.48946,"prefecture":5,"lines":[99209],"attr":"heat","postal_code":"018-4733","address":"北秋田市阿仁戸鳥内","open_date":"1989-04-01","next":[9920916,9920920,9920919,9920914,9920917,9920921],"voronoi":{"lat":39.814264,"lng":140.487629,"delta_lat":[0,130243,17741,22957,-126858,-27692],"delta_lng":[0,-22955,2919,13994,38313,-15840]},"impl":true},
    {"code":9923210,"segment":"segment53"},
    {"code":1110135,"segment":"segment54"},
    {"code":9920306,"left":1121010,"right":9910621,"id":"ca1895","name":"義塾高校前","name_kana":"ぎじゅくこうこうまえ","lat":40.555824,"lng":140.527461,"prefecture":2,"lines":[99203],"attr":"heat","postal_code":"036-8124","address":"弘前市石川大字野崎６９-２","next":[1120256,9920303,9920307,9920205,9920305,9920204],"voronoi":{"lat":40.57229,"lng":140.528282,"delta_lat":[0,-31320,-13816,-14212,58939,685],"delta_lng":[0,1767,-4835,-11383,10868,2857]},"impl":true},
    {"code":1121010,"segment":"segment55"},
    {"code":9910621,"segment":"segment56"},
    {"code":1110315,"left":1120602,"right":1111503,"id":"7a3b57","name":"札幌","name_kana":"さっぽろ","lat":43.068612,"lng":141.350768,"prefecture":1,"lines":[11103,11109,11112],"attr":"eco","postal_code":"060-0806","address":"札幌市北区北６条西４丁目","next":[9910306,9910110,9910206,9910205],"voronoi":{"lat":43.069618,"lng":141.359161,"delta_lat":[0,-3395,2896,3742],"delta_lng":[0,-2569,-13843,9837]},"impl":true},
    {"code":1120602,"left":9920513,"right":1111111,"id":"153d3c","name":"長苗代","name_kana":"ながなわしろ","lat":40.52146,"lng":141.465907,"prefecture":2,"lines":[11206],"attr":"eco","postal_code":"039-1103","address":"八戸市大字長苗代","next":[1120102,1120603,100421],"voronoi":{"lat":40.535325,"lng":141.441578,"delta_lat":[0,29371,-97126],"delta_lng":[0,46130,-21988]},"impl":true},
    {"code":9920513,"left":1121302,"right":9911009,"id":"343f15","name":"小鳥谷","name_kana":"こずや","lat":40.171061,"lng":141.307735,"prefecture":3,"lines":[99205,11233],"attr":"heat","postal_code":"028-5221","address":"二戸郡一戸町大字小鳥谷字中屋敷１番地","next":[1120623,9920840,1120625,1120706,9920512,9920510,9920514],"voronoi":{"lat":40.192904,"lng":141.538805,"delta_lat":[0,-92558,-68228,-39606,41803,143232,72456],"delta_lng":[0,3863,-5510,-40333,-98529,-145018,274140]},"impl":true},
    {"code":1121302,"segment":"segment57"},
    {"code":9911009,"segment":"segment58"},
    {"code":1111111,"left":1120708,"right":1011212,"id":"0f9e52","name":"厚賀","name_kana":"あつが","lat":42.430507,"lng":142.215896,"prefecture":1,"lines":[11111],"attr":"eco","postal_code":"059-2243","address":"沙流郡日高町厚賀町","next":[1111110,1111112,1011209,1111109,1011211],"voronoi":{"lat":42.189686,"lng":142.058663,"delta_lat":[0,115018,263196,-6992,-10587],"delta_lng":[0,48779,168900,43742,27458]},"impl":true},
    {"code":1120708,"segment":"segment59"},
    {"code":1011212,"segment":"segment60"},
    {"code":1111503,"left":1111240,"right":1111712,"id":"8c1ae4","name":"新旭川","name_kana":"しんあさひかわ","lat":43.780174,"lng":142.384789,"prefecture":1,"lines":[11115,11116],"attr":"heat","postal_code":"070-0028","address":"旭川市東八条６丁目","next":[1111504,1110348,1111502,1110347,1111604],"voronoi":{"lat":43.779909,"lng":142.366304,"delta_lat":[0,15549,64598,-43183,-54019],"delta_lng":[0,-9611,9798,29591,855]},"impl":true},
    {"code":1111240,"left":1111232,"right":1111307,"id":"faeffe","name":"北竜","name_kana":"ほくりゅう","closed":true,"lat":43.78475,"lng":141.905972,"prefecture":1,"lines":[11112],"postal_code":"078-2223","address":"北海道雨竜郡沼田町字北竜","open_date":"1931-10-10","closed_date":"1972-06-19","next":[1111241,1111305,1111238,1111304,1111239,1111303,1111237],"voronoi":{"lat":43.748314,"lng":141.913911,"delta_lat":[0,9403,37207,1792,-14714,-12686,-26484],"delta_lng":[0,-10726,-22948,40484,13148,1068,-6709]},"impl":false},
    {"code":1111232,"segment":"segment61"},
    {"code":1111307,"segment":"segment62"},
    {"code":1111712,"left":1111630,"right":1010804,"id":"0207dc","name":"清里町","name_kana":"きよさとちょう","lat":43.83871,"lng":144.593948,"prefecture":1,"lines":[11117],"attr":"cool","postal_code":"099-4406","address":"斜里郡清里町水元町","next":[1010606,1010607,1111714,1111711,1111710,1010605,1111708,1111713],"voronoi":{"lat":43.854266,"lng":144.527972,"delta_lat":[0,46591,-135813,-19265,-30829,-37909,-4832,27378],"delta_lng":[0,52070,96979,10626,3912,2790,90,-37276]},"impl":true},
    {"code":1111630,"segment":"segment63"},
    {"code":1010804,"segment":"segment64"}
  ]
}