{
  "name":"segment12",
  "root":1180502,
  "east":137.400288,
  "west":133.690186,
  "south":34.117463,
  "north":34.319718,
  "station_size":155,
  "node_list":[
    {"code":1180502,"left":1180614,"right":3200504,"id":"f0e5b1","name":"撫養","name_kana":"むや","lat":34.173162,"lng":134.600851,"prefecture":36,"lines":[11805],"attr":"eco","postal_code":"772-0003","address":"鳴門市撫養町南浜","next":[1180402,1180503,1180229,1180407,1180501],"voronoi":{"lat":34.198319,"lng":134.586966,"delta_lat":[0,-89890,-9661,-15039,-1386],"delta_lng":[0,19928,19258,36308,16758]},"impl":true},
    {"code":1180614,"left":1180217,"right":9980205,"id":"957bbe","name":"海岸寺","name_kana":"かいがんじ","lat":34.253732,"lng":133.729671,"prefecture":37,"lines":[11806],"attr":"eco","postal_code":"764-0037","address":"仲多度郡多度津町大字西白方","next":[1180617,1161009,1180615,1180101,9971901,1180102,1161010],"voronoi":{"lat":34.378171,"lng":133.636456,"delta_lat":[0,-152018,-8162,29233,127384,8805,-2168],"delta_lng":[0,92633,20644,3411,-80902,-27241,-4178]},"impl":true},
    {"code":1180217,"left":9980220,"right":1180224,"id":"8e6897","name":"三本松(香川)","original_name":"三本松","name_kana":"さんぼんまつ","lat":34.251529,"lng":134.334453,"prefecture":37,"lines":[11802],"attr":"heat","postal_code":"769-2601","address":"東かがわ市三本松","next":[1180218,1180311,1180215,1180216,1080105],"voronoi":{"lat":34.493096,"lng":134.411315,"delta_lat":[0,-188202,-143162,103,5116],"delta_lng":[0,-88656,-12969,10380,10227]},"impl":true},
    {"code":9980220,"left":1180106,"right":9980219,"id":"1d2651","name":"岡田(香川)","original_name":"岡田","name_kana":"おかだ","lat":34.220859,"lng":133.860902,"prefecture":37,"lines":[99802],"attr":"eco","postal_code":"761-2402","address":"丸亀市綾歌町岡田下４７３-３","next":[1180611,9980221,1180103,1180105,1180609,1171006,9980219],"voronoi":{"lat":34.184342,"lng":133.879829,"delta_lat":[0,62484,11898,1030,6534,364,-85464],"delta_lng":[0,-52027,1521,1077,11820,8243,47995]},"impl":true},
    {"code":1180106,"left":9980223,"right":9980222,"id":"bed5e4","name":"黒川(香川)","original_name":"黒川","name_kana":"くろかわ","lat":34.133145,"lng":133.82011,"prefecture":37,"lines":[11801],"attr":"eco","postal_code":"769-0317","address":"香川県仲多度郡まんのう町新目","next":[9980223,1180107,1180618,1180105],"voronoi":{"lat":34.145032,"lng":133.75939,"delta_lat":[0,16196,826,-51673],"delta_lng":[0,7589,54632,39748]},"impl":true},
    {"code":9980223,"left":1180618,"right":1180617,"id":"02c36a","name":"琴電琴平","name_kana":"ことでんことひら","lat":34.190906,"lng":133.819236,"prefecture":37,"lines":[99802],"attr":"eco","postal_code":"766-0000","address":"仲多度郡琴平町３６０-２２","next":[1180103,1180106,9980222,1180618,1180105,1180104],"voronoi":{"lat":34.170859,"lng":133.831595,"delta_lat":[0,-8804,-826,19703,32190,-39547],"delta_lng":[0,-9984,-54632,-1247,41969,22993]},"impl":true},
    {"code":1180618,"left":1180619,"id":"6ce2c8","name":"高瀬(香川)","original_name":"高瀬","name_kana":"たかせ","lat":34.184083,"lng":133.711397,"prefecture":37,"lines":[11806],"attr":"cool","postal_code":"767-0002","address":"三豊市高瀬町新名","next":[1180103,1180106,9980223,1180107,1180619,1180617,1180620],"voronoi":{"lat":34.150446,"lng":133.721358,"delta_lat":[0,43538,2442,-15495,-19703,-16196,-13900],"delta_lng":[0,-35699,70928,9145,1247,-7589,-8957]},"impl":true},
    {"code":1180619,"id":"c3e84d","name":"比地大","name_kana":"ひじだい","lat":34.166805,"lng":133.690325,"prefecture":37,"lines":[11806],"attr":"cool","postal_code":"769-1501","address":"三豊市豊中町比地大","next":[1180617,1180618,1180621,1180620,1180616],"voronoi":{"lat":34.193985,"lng":133.685659,"delta_lat":[0,-43538,13382,33989,-3449],"delta_lng":[0,35699,-70541,-41505,75614]},"impl":true},
    {"code":1180617,"id":"529f6e","name":"みの","name_kana":"みの","lat":34.205633,"lng":133.710655,"prefecture":37,"lines":[11806],"attr":"cool","postal_code":"767-0032","address":"三豊市三野町下高瀬","next":[1180619,1180614,1180616,1180103,1180618,1180615,1180102],"voronoi":{"lat":34.217992,"lng":133.749733,"delta_lat":[0,8162,-3798,-27987,-384,2442,21073],"delta_lng":[0,-20644,-19549,-24615,733,70928,-6540]},"impl":true},
    {"code":9980222,"left":1180105,"right":9980221,"id":"ac7408","name":"榎井","name_kana":"えない","lat":34.194317,"lng":133.829511,"prefecture":37,"lines":[99802],"attr":"eco","postal_code":"766-0004","address":"仲多度郡琴平町榎井４００-３","next":[1180103,1180104,9980221,9980223,1180105],"voronoi":{"lat":34.170859,"lng":133.831595,"delta_lat":[0,2716,48050,2204,-40713],"delta_lng":[0,-901,-12939,1955,34823]},"impl":true},
    {"code":1180105,"left":1180104,"id":"b05022","name":"塩入","name_kana":"しおいり","lat":34.156089,"lng":133.849938,"prefecture":37,"lines":[11801],"attr":"eco","postal_code":"769-0314","address":"香川県仲多度郡まんのう町帆山","next":[1180323,9980219,9980221,1180109,9980220,1180107,9980222,1180321,9980218,1180322,9980216,9980223,1180324,1180106,9980215],"voronoi":{"lat":34.155582,"lng":133.944796,"delta_lat":[0,3141,13167,9299,3154,-1227,-12257,-8804,-51673,-12501,-173,406,33129,10659,1359],"delta_lng":[0,-3590,-21586,-21161,-18629,-25297,-22938,-9984,39748,13734,13895,2153,51301,12926,1305]},"impl":true},
    {"code":1180104,"id":"b59c69","name":"琴平","name_kana":"ことひら","lat":34.192106,"lng":133.8213,"prefecture":37,"lines":[11801],"attr":"cool","postal_code":"766-0004","address":"仲多度郡琴平町榎井","next":[9980222,9980223,1180103],"voronoi":{"lat":34.173575,"lng":133.830693,"delta_lat":[0,39547,8503],"delta_lng":[0,-22993,10054]},"impl":true},
    {"code":9980221,"id":"3bb4a0","name":"羽間","name_kana":"はざま","lat":34.209571,"lng":133.847345,"prefecture":37,"lines":[99802],"attr":"eco","postal_code":"766-0013","address":"仲多度郡まんのう町東高篠２３８６","next":[9980220,1180105,9980222,1180103],"voronoi":{"lat":34.184342,"lng":133.879829,"delta_lat":[0,-1227,40713,22998],"delta_lng":[0,-25297,-34823,8093]},"impl":true},
    {"code":9980219,"left":1180615,"right":9980216,"id":"bdf95a","name":"栗熊","name_kana":"くりくま","lat":34.233905,"lng":133.884133,"prefecture":37,"lines":[99802],"attr":"cool","postal_code":"761-2406","address":"丸亀市綾歌町栗熊東４８０-２","next":[1180105,1180608,9980220,9980218,1180609],"voronoi":{"lat":34.266653,"lng":133.850464,"delta_lat":[0,-85464,-9299,101560,116],"delta_lng":[0,47995,21161,-41276,-7814]},"impl":true},
    {"code":1180615,"left":1180103,"right":1180102,"id":"ef3b94","name":"津島ノ宮","name_kana":"つしまのみや","lat":34.23828,"lng":133.704313,"prefecture":37,"lines":[11806],"attr":"eco","postal_code":"767-0031","address":"三豊市三野町大見","next":[1180614,1180616,1161010,1180617],"voronoi":{"lat":34.222356,"lng":133.70954,"delta_lat":[0,107331,48485,-152018],"delta_lng":[0,-158220,85136,92633]},"impl":true},
    {"code":1180103,"left":1180616,"id":"a43ac1","name":"善通寺","name_kana":"ぜんつうじ","lat":34.230021,"lng":133.789235,"prefecture":37,"lines":[11801],"attr":"cool","postal_code":"765-0013","address":"善通寺市文京町１丁目","next":[1180618,9980222,9980223,1180102,9980220,1180611,9980221,1180617,1180104],"voronoi":{"lat":34.223829,"lng":133.819709,"delta_lat":[0,22998,11898,853,-42078,-21073,-15495,32190,8503],"delta_lng":[0,8093,1521,-14342,-64935,6540,9145,41969,10054]},"impl":true},
    {"code":1180616,"id":"051d81","name":"詫間","name_kana":"たくま","lat":34.221326,"lng":133.692812,"prefecture":37,"lines":[11806],"attr":"eco","postal_code":"769-1102","address":"三豊市詫間町松崎字浜","next":[1180621,1161011,1180615,1180617,1161010,1161012,1180619],"voronoi":{"lat":34.222356,"lng":133.70954,"delta_lat":[0,107331,-5813,-30830,-35676,-59550,-3449],"delta_lng":[0,-158220,-11729,-46479,-39100,155299,75614]},"impl":true},
    {"code":1180102,"id":"988c8b","name":"金蔵寺","name_kana":"こんぞうじ","lat":34.248152,"lng":133.777486,"prefecture":37,"lines":[11801],"attr":"cool","postal_code":"765-0022","address":"善通寺市稲木町","next":[1180612,1180101,1180103,1180614,1180611,1180617],"voronoi":{"lat":34.217992,"lng":133.749733,"delta_lat":[0,29233,19398,0,-7045,-42078],"delta_lng":[0,3411,22113,19718,20006,-64935]},"impl":true},
    {"code":9980216,"left":9980217,"right":9980215,"id":"a3ea2c","name":"綾川","name_kana":"あやがわ","lat":34.249528,"lng":133.931667,"prefecture":37,"lines":[99802],"attr":"cool","postal_code":"761-2304","address":"香川県綾歌郡綾川町萱原744番地3","open_date":"2013-12-15","next":[1180606,9980215,1180105,9980218,9980217],"voronoi":{"lat":34.269748,"lng":133.923912,"delta_lat":[0,2702,-116869,3141,7213],"delta_lng":[0,14601,6282,-3590,-2040]},"impl":true},
    {"code":9980217,"left":9980218,"id":"44912a","name":"滝宮","name_kana":"たきのみや","lat":34.248152,"lng":133.922302,"prefecture":37,"lines":[99802],"attr":"cool","postal_code":"761-2305","address":"綾歌郡綾川町滝宮５１５-３","next":[1180606,9980216,9980218],"voronoi":{"lat":34.270525,"lng":133.90311,"delta_lat":[0,-776,-103813],"delta_lng":[0,20803,15253]},"impl":true},
    {"code":9980218,"id":"29ad1f","name":"羽床","name_kana":"はゆか","lat":34.241078,"lng":133.901782,"prefecture":37,"lines":[99802],"attr":"cool","postal_code":"761-2300","address":"綾歌郡綾川町羽床１１１５-３","next":[1180608,1180606,1180105,9980219,9980216,1180607,9980217],"voronoi":{"lat":34.158722,"lng":133.941205,"delta_lat":[0,13167,101560,1522,-493,-3954,-104589],"delta_lng":[0,-21586,-41276,6625,9153,8988,36056]},"impl":true},
    {"code":9980215,"id":"7c349b","name":"陶","name_kana":"すえ","lat":34.250394,"lng":133.947778,"prefecture":37,"lines":[99802],"attr":"cool","postal_code":"761-2103","address":"綾歌郡綾川町陶５６９２-４","next":[9980214,1180321,1180606,9980216,1180320,1180605,1180105],"voronoi":{"lat":34.155582,"lng":133.944796,"delta_lat":[0,116869,2856,1011,-127967,-34,-5056],"delta_lng":[0,-6282,4908,8425,46342,-82,-41434]},"impl":true},
    {"code":1180224,"left":1180222,"right":1180506,"id":"ebca6d","name":"板東","name_kana":"ばんどう","lat":34.155369,"lng":134.506805,"prefecture":36,"lines":[11802],"attr":"heat","postal_code":"779-0234","address":"鳴門市大麻町板東","next":[1180221,1180225,1180226,1180220,1180506,1180223],"voronoi":{"lat":34.18647,"lng":134.485526,"delta_lat":[0,62674,7097,-72643,-42743,-11507],"delta_lng":[0,25195,4883,5772,-4958,-14670]},"impl":true},
    {"code":1180222,"left":1080103,"right":1180223,"id":"4ce1dd","name":"板野","name_kana":"いたの","lat":34.141971,"lng":134.465512,"prefecture":36,"lines":[11802,10801],"attr":"eco","postal_code":"779-0105","address":"板野郡板野町大寺字平田","next":[1180223,1080102,1180305,1180221],"voronoi":{"lat":34.111522,"lng":134.487362,"delta_lat":[0,-6665,55691,4488],"delta_lng":[0,-25956,-3923,9783]},"impl":true},
    {"code":1080103,"left":1080104,"right":1080102,"id":"b09af5","name":"羅漢","name_kana":"らかん","closed":true,"lat":34.134115,"lng":134.433087,"prefecture":36,"lines":[10801],"attr":"unknown","postal_code":"779-0114","address":"徳島県板野郡板野町羅漢吉田１５−１","next":[1080102,1180306,1080104,1180221],"voronoi":{"lat":34.104991,"lng":134.454437,"delta_lat":[0,-4329,63662,-5858],"delta_lng":[0,-24554,-11661,16809]},"impl":true},
    {"code":1080104,"left":1080105,"id":"775b04","name":"神宅","name_kana":"かんやけ","closed":true,"lat":34.130807,"lng":134.415028,"prefecture":36,"lines":[10801],"attr":"unknown","postal_code":"771-1320","address":"徳島県板野郡上板町神宅北屋敷３２−２","next":[1080105,1180306,1180220,1080103,1180307,1180221,1180219],"voronoi":{"lat":34.172474,"lng":134.371203,"delta_lat":[0,-72372,188,372,63662,8706,1940],"delta_lng":[0,55932,1980,768,-11661,-12419,-16556]},"impl":true},
    {"code":1080105,"id":"4e684d","name":"鍛冶屋原","name_kana":"かじやはら","closed":true,"lat":34.119559,"lng":134.400474,"prefecture":36,"lines":[10801],"attr":"unknown","postal_code":"771-1301","address":"徳島県板野郡上板町鍛冶屋原妙楽寺１−２","next":[1180309,1080104,1180310,1180311,1180308,1180218,1180219,1180307,1180217],"voronoi":{"lat":34.161834,"lng":134.32007,"delta_lat":[0,-30243,-20861,-11494,-2609,3474,72372,302,-5825],"delta_lng":[0,22178,21502,21203,33404,8777,-55932,-19817,-21088]},"impl":true},
    {"code":1080102,"id":"ea3d58","name":"犬伏","name_kana":"いぬぶし","closed":true,"lat":34.141029,"lng":134.452139,"prefecture":36,"lines":[10801],"attr":"unknown","postal_code":"779-0108","address":"徳島県板野郡板野町犬伏大坪４２","next":[1080103,1180305,1180222,1180306,1180221],"voronoi":{"lat":34.158466,"lng":134.435031,"delta_lat":[0,-53475,-646,512,55691],"delta_lng":[0,19406,5858,1112,-3923]},"impl":true},
    {"code":1180223,"left":1180227,"right":1180225,"id":"1d39f5","name":"阿波川端","name_kana":"あわかわばた","lat":34.148827,"lng":134.483769,"prefecture":36,"lines":[11802],"attr":"heat","postal_code":"779-0103","address":"板野郡板野町川端","next":[1180227,1180221,1180222,1180226,1180305,1180304,1180224],"voronoi":{"lat":34.18647,"lng":134.485526,"delta_lat":[0,-21434,-53514,-29,1251,1077,15527],"delta_lng":[0,-18259,20096,2422,4019,692,7252]},"impl":true},
    {"code":1180227,"left":1180226,"id":"517e54","name":"吉成","name_kana":"よしなり","lat":34.118603,"lng":134.530795,"prefecture":36,"lines":[11802],"attr":"cool","postal_code":"771-1153","address":"徳島市応神町吉成字轟","next":[1180223,1180228,1180226,1180504,1180229,1180505,1180304,1180303],"voronoi":{"lat":34.104402,"lng":134.507697,"delta_lat":[0,8341,1077,17473,-13448,-1845,-11704,-6209],"delta_lng":[0,-13893,692,64316,21834,1949,-25020,-30434]},"impl":true},
    {"code":1180226,"id":"af0460","name":"勝瑞","name_kana":"しょうずい","lat":34.128063,"lng":134.528225,"prefecture":36,"lines":[11802],"attr":"cool","postal_code":"771-1271","address":"板野郡藍住町勝瑞","next":[1180506,1180227,1180223,1180224,1180225,1180505],"voronoi":{"lat":34.113821,"lng":134.494496,"delta_lat":[0,15527,11507,-900,-5108,-3553],"delta_lng":[0,7252,14670,25520,12758,4116]},"impl":true},
    {"code":1180225,"id":"6365a0","name":"池谷","name_kana":"いけのたに","lat":34.152783,"lng":134.529097,"prefecture":36,"lines":[11802,11805],"attr":"heat","postal_code":"779-0303","address":"鳴門市大麻町池谷","next":[1180224,1180506,1180226],"voronoi":{"lat":34.140855,"lng":134.516417,"delta_lat":[0,42743,-43643],"delta_lng":[0,4958,20562]},"impl":true},
    {"code":1180506,"left":1180219,"right":1180504,"id":"9c1ef0","name":"阿波大谷","name_kana":"あわおおたに","lat":34.158024,"lng":134.540221,"prefecture":36,"lines":[11805],"attr":"heat","postal_code":"779-0302","address":"鳴門市大麻町大谷","next":[1180226,1180225,1180220,1180505,1180224],"voronoi":{"lat":34.139955,"lng":134.541938,"delta_lat":[0,-5108,137243,-15849,-72643],"delta_lng":[0,12758,-31700,-7392,5772]},"impl":true},
    {"code":1180219,"left":1180221,"right":1180218,"id":"2f220c","name":"引田","name_kana":"ひけた","lat":34.224472,"lng":134.402072,"prefecture":37,"lines":[11802],"attr":"heat","postal_code":"769-2901","address":"東かがわ市引田","next":[1163104,1180218,1080105,1080104,1180220,9963807],"voronoi":{"lat":34.174969,"lng":134.389246,"delta_lat":[0,-2496,302,319895,198,-8962],"delta_lng":[0,-18044,-19817,170967,11603,27121]},"impl":true},
    {"code":1180221,"left":1180220,"id":"415ed9","name":"阿波大宮","name_kana":"あわおおみや","lat":34.178751,"lng":134.448641,"prefecture":36,"lines":[11802],"attr":"eco","postal_code":"779-0101","address":"板野郡板野町大坂","next":[1180224,1180223,1180220,1080102,1080104,1180222,1080103],"voronoi":{"lat":34.160548,"lng":134.457484,"delta_lat":[0,4488,21434,62674,-76114,-8706,-5858],"delta_lng":[0,9783,18259,25195,-104918,12419,16809]},"impl":true},
    {"code":1180220,"id":"862118","name":"讃岐相生","name_kana":"さぬきあいおい","lat":34.211977,"lng":134.424537,"prefecture":37,"lines":[11802],"attr":"heat","postal_code":"769-2903","address":"東かがわ市南野","next":[1180505,1180501,1180504,1180221,1080104,1180506,1180224,9963807,1180219],"voronoi":{"lat":34.174969,"lng":134.389246,"delta_lat":[0,-1940,76114,7097,15849,21179,26339,162435,1864],"delta_lng":[0,16556,104918,4883,7392,7955,7662,29025,-6561]},"impl":true},
    {"code":1180218,"id":"414dd3","name":"讃岐白鳥","name_kana":"さぬきしろとり","lat":34.243642,"lng":134.366203,"prefecture":37,"lines":[11802],"attr":"heat","postal_code":"769-2702","address":"東かがわ市松原","next":[1163105,1180217,1180215,1180219,1080105,1163104],"voronoi":{"lat":34.172775,"lng":134.351386,"delta_lat":[0,-5825,326145,4866,145,-5436],"delta_lng":[0,-21088,81018,1919,4961,104157]},"impl":true},
    {"code":1180504,"left":1180505,"right":1180503,"id":"0e3fdf","name":"教会前","name_kana":"きょうかいまえ","lat":34.167579,"lng":134.577148,"prefecture":36,"lines":[11805],"attr":"heat","postal_code":"772-0004","address":"鳴門市撫養町木津","next":[1180503,1180227,1180505,1180220,1180229,1180501],"voronoi":{"lat":34.112313,"lng":134.595912,"delta_lat":[0,3688,1845,175423,26339,-25243],"delta_lng":[0,-13317,-1949,-49695,7662,9345]},"impl":true},
    {"code":1180505,"id":"19e812","name":"立道","name_kana":"たつみち","lat":34.162024,"lng":134.557539,"prefecture":36,"lines":[11805],"attr":"heat","postal_code":"779-0301","address":"鳴門市大麻町姫田","next":[1180220,1180504,1180227,1180506,1180226],"voronoi":{"lat":34.134847,"lng":134.554695,"delta_lat":[0,137243,21179,-175423,13448],"delta_lng":[0,-31700,7955,49695,-21834]},"impl":true},
    {"code":1180503,"id":"6b1f3c","name":"金比羅前","name_kana":"こんぴらまえ","lat":34.169651,"lng":134.585014,"prefecture":36,"lines":[11805],"attr":"eco","postal_code":"772-0004","address":"鳴門市撫養町木津","next":[1180504,1180229,1180502,1180501],"voronoi":{"lat":34.294364,"lng":134.547957,"delta_lat":[0,-182052,-3884,89890],"delta_lng":[0,47954,10983,-19928]},"impl":true},
    {"code":9980205,"left":1180606,"right":1180215,"id":"b1828f","name":"三条(香川)","original_name":"三条","name_kana":"さんじょう","lat":34.319718,"lng":134.049478,"prefecture":37,"lines":[99802],"attr":"heat","postal_code":"761-8064","address":"高松市上之町２-１２４４-３","next":[1180203,9980204,9980206,9980305],"voronoi":{"lat":34.318065,"lng":134.029275,"delta_lat":[0,7416,-3282,-9795],"delta_lng":[0,13555,18364,1543]},"impl":true},
    {"code":1180606,"left":9980212,"right":1180607,"id":"0d9d0d","name":"讃岐府中","name_kana":"さぬきふちゅう","lat":34.291404,"lng":133.923917,"prefecture":37,"lines":[11806],"attr":"eco","postal_code":"762-0024","address":"坂出市府中町","next":[9980217,9980215,1180605,1180607,9980216,9980218],"voronoi":{"lat":34.269748,"lng":133.923912,"delta_lat":[0,2702,2856,36178,-37006,-3954],"delta_lng":[0,14601,4908,-18532,-30768,8988]},"impl":true},
    {"code":9980212,"left":1180101,"right":9980208,"id":"406047","name":"岡本(香川)","original_name":"岡本","name_kana":"おかもと","lat":34.270261,"lng":133.989265,"prefecture":37,"lines":[99802],"attr":"heat","postal_code":"761-8047","address":"高松市岡本町１５５４-３","next":[9980211,9980209,9980213,9980210,1180604],"voronoi":{"lat":34.257908,"lng":134.013096,"delta_lat":[0,-18351,-23366,66486,10628],"delta_lng":[0,7036,5789,-55393,17429]},"impl":true},
    {"code":1180101,"left":9980213,"right":1180612,"id":"fc4501","name":"多度津","name_kana":"たどつ","lat":34.271238,"lng":133.757235,"prefecture":37,"lines":[11801,11806],"attr":"cool","postal_code":"764-0011","address":"仲多度郡多度津町栄町３丁目","next":[1180102,9971901,1180612,1180614],"voronoi":{"lat":34.266622,"lng":133.775258,"delta_lat":[0,101521,6465,-127384],"delta_lng":[0,-69457,-33558,80902]},"impl":true},
    {"code":9980213,"left":9980214,"id":"ea336d","name":"挿頭丘","name_kana":"かざしがおか","lat":34.262007,"lng":133.979358,"prefecture":37,"lines":[99802],"attr":"cool","postal_code":"761-2101","address":"綾歌郡綾川町畑田５６２-３","next":[1180604,9980212,9980209,1180320,9980214],"voronoi":{"lat":34.281821,"lng":133.967262,"delta_lat":[0,857,-66486,-54963,-7441],"delta_lng":[0,3266,55393,19548,-28937]},"impl":true},
    {"code":9980214,"id":"c5f30a","name":"畑田","name_kana":"はただ","lat":34.25901,"lng":133.97157,"prefecture":37,"lines":[99802],"attr":"cool","postal_code":"761-2101","address":"綾歌郡綾川町畑田１０５９-３","next":[9980215,1180605,9980213,1180604,1180320],"voronoi":{"lat":34.281821,"lng":133.967262,"delta_lat":[0,-659,-4844,-127967,5437],"delta_lng":[0,-8670,-6746,46342,18344]},"impl":true},
    {"code":1180612,"id":"119835","name":"讃岐塩屋","name_kana":"さぬきしおや","lat":34.285093,"lng":133.777486,"prefecture":37,"lines":[11806],"attr":"eco","postal_code":"763-0065","address":"丸亀市塩屋町","next":[1180102,1180611,1180101,9971901],"voronoi":{"lat":34.368143,"lng":133.705801,"delta_lat":[0,-101521,0,97954],"delta_lng":[0,69457,19718,-43690]},"impl":true},
    {"code":9980208,"left":9980209,"right":9980211,"id":"c7b02d","name":"仏生山","name_kana":"ぶっしょうざん","lat":34.283213,"lng":134.042605,"prefecture":37,"lines":[99802],"attr":"heat","postal_code":"760-0000","address":"高松市仏生山町３０２-１","next":[9980309,9980311,9980207,9980312,9980310,1180318,9980209,9980307,9980308],"voronoi":{"lat":34.263028,"lng":134.079118,"delta_lat":[0,-7253,-35765,-54187,-2079,129235,-7498,-40,-19991],"delta_lng":[0,552,-2112,-6126,-7515,-28446,35203,26,7919]},"impl":true},
    {"code":9980209,"left":9980210,"id":"9f99f2","name":"空港通り","name_kana":"くうこうどおり","lat":34.28112,"lng":134.033096,"prefecture":37,"lines":[99802],"attr":"heat","postal_code":"761-8085","address":"高松市寺井町２７７番地３","next":[9980210,9980207,9980212,1180318,9980213,1180320,9980208],"voronoi":{"lat":34.16137,"lng":134.056506,"delta_lat":[0,-141,54963,23366,57032,-3611,-129235],"delta_lng":[0,-11036,-19548,-5789,10324,5014,28446]},"impl":true},
    {"code":9980210,"id":"dbecbd","name":"一宮","name_kana":"いちのみや","lat":34.283027,"lng":134.022561,"prefecture":37,"lines":[99802],"attr":"heat","postal_code":"761-8084","address":"高松市一宮町５０４-５","next":[9980209,9980207,9980212,9980206,9980211,1180603],"voronoi":{"lat":34.311518,"lng":134.01896,"delta_lat":[0,-53610,-18351,57032,12014,2996],"delta_lng":[0,-5863,7036,10324,-8194,-3183]},"impl":true},
    {"code":9980211,"id":"442afb","name":"円座","name_kana":"えんざ","lat":34.284479,"lng":134.009285,"prefecture":37,"lines":[99802],"attr":"heat","postal_code":"761-8044","address":"高松市円座町１４６９-２","next":[9980212,1180604,9980210,1180603],"voronoi":{"lat":34.301351,"lng":133.991968,"delta_lat":[0,-8046,-35397,53610],"delta_lng":[0,-4011,25139,5863]},"impl":true},
    {"code":1180607,"left":1180608,"right":1180604,"id":"3d228e","name":"鴨川","name_kana":"かもがわ","lat":34.306863,"lng":133.905324,"prefecture":37,"lines":[11806],"attr":"eco","postal_code":"762-0024","address":"坂出市府中町西福寺","next":[1180603,1180605,1180606,1170915,1180608,9980218],"voronoi":{"lat":34.274971,"lng":133.884968,"delta_lat":[0,127688,-2326,-21899,-66950,-37006],"delta_lng":[0,37896,9044,4600,-11619,-30768]},"impl":true},
    {"code":1180608,"left":1171006,"right":1180609,"id":"521815","name":"八十場","name_kana":"やそば","lat":34.312804,"lng":133.885306,"prefecture":37,"lines":[11806],"attr":"eco","postal_code":"762-0021","address":"坂出市西庄町","next":[9980219,9971903,9980218,1180609,1170915,1180607],"voronoi":{"lat":34.410728,"lng":133.901366,"delta_lat":[0,-18089,-119074,-116,1522,127688],"delta_lng":[0,-29227,-1609,7814,6625,37896]},"impl":true},
    {"code":1171006,"left":1180611,"id":"60d264","name":"宇多津","name_kana":"うたづ","lat":34.306271,"lng":133.813686,"prefecture":37,"lines":[11710,11806],"attr":"cool","postal_code":"769-0203","address":"綾歌郡宇多津町浜三番丁","next":[1180609,9971903,9971901,9980220,1180611],"voronoi":{"lat":34.364733,"lng":133.758142,"delta_lat":[0,7992,1217,-107654,-6534],"delta_lng":[0,43962,22850,17267,-11820]},"impl":true},
    {"code":1180611,"id":"70395f","name":"丸亀","name_kana":"まるがめ","lat":34.291976,"lng":133.792918,"prefecture":37,"lines":[11806],"attr":"eco","postal_code":"763-0022","address":"丸亀市浜町","next":[9980220,1180612,1180103,1180102,9971901,1171006],"voronoi":{"lat":34.364733,"lng":133.758142,"delta_lat":[0,-157,-97954,-7045,-853,1030],"delta_lng":[0,-6856,43690,20006,14342,1077]},"impl":true},
    {"code":1180609,"id":"f3fba3","name":"坂出","name_kana":"さかいで","lat":34.313189,"lng":133.856819,"prefecture":37,"lines":[11806],"attr":"eco","postal_code":"762-0045","address":"坂出市元町１丁目","next":[1171006,9971903,1180608,9980220,9980219],"voronoi":{"lat":34.392639,"lng":133.872139,"delta_lat":[0,-18697,-107654,364,6913],"delta_lng":[0,-47185,17267,8243,20066]},"impl":true},
    {"code":1180604,"left":9980207,"right":9980206,"id":"180f29","name":"端岡","name_kana":"はしおか","lat":34.305021,"lng":133.968071,"prefecture":37,"lines":[11806],"attr":"heat","postal_code":"769-0101","address":"高松市国分寺町新居","next":[9980213,1180603,9980211,9980214,1180605,9980212],"voronoi":{"lat":34.301351,"lng":133.991968,"delta_lat":[0,59142,-79332,659,857,10628],"delta_lng":[0,-46881,13505,8670,3266,17429]},"impl":true},
    {"code":9980207,"left":1180605,"id":"5586f0","name":"太田(香川)","original_name":"太田","name_kana":"おおた","lat":34.298989,"lng":134.045965,"prefecture":37,"lines":[99802],"attr":"heat","postal_code":"761-8074","address":"高松市太田上町７０５-６","next":[9980206,9980209,9980208,9980210,9980307],"voronoi":{"lat":34.292978,"lng":134.035471,"delta_lat":[0,3611,12014,-7409,-15714],"delta_lng":[0,-5014,-8194,43654,4757]},"impl":true},
    {"code":1180605,"id":"498c6a","name":"国分(香川)","original_name":"国分","name_kana":"こくぶ","lat":34.300541,"lng":133.941754,"prefecture":37,"lines":[11806],"attr":"heat","postal_code":"769-0102","address":"高松市国分寺町国分","next":[1180606,1180607,9980214,1180603,9980215,1180604],"voronoi":{"lat":34.360494,"lng":133.945088,"delta_lat":[0,17941,-66950,-36178,1011,4844],"delta_lng":[0,-8579,-11619,18532,8425,6746]},"impl":true},
    {"code":9980206,"id":"5e4351","name":"伏石","name_kana":"ふせいし","lat":34.309859,"lng":134.04781,"prefecture":37,"lines":[99802],"attr":"heat","postal_code":"761-8073","address":"香川県高松市太田下町２４８６−１","open_date":"2020-11-28","next":[9980207,1180603,1180602,9980305,9980210,1180203,9980205,9980307],"voronoi":{"lat":34.306642,"lng":134.065831,"delta_lat":[0,5763,5661,-2126,-1268,-3072,-2996,-7409],"delta_lng":[0,-3094,-33462,-8276,-1032,-888,3183,43654]},"impl":true},
    {"code":1180215,"left":9980315,"right":1180211,"id":"99254c","name":"鶴羽","name_kana":"つるわ","lat":34.280005,"lng":134.274003,"prefecture":37,"lines":[11802],"attr":"eco","postal_code":"769-2402","address":"さぬき市津田町鶴羽","next":[1180214,1163108,1163105,1180217,1163106,1180218,1180216],"voronoi":{"lat":34.214537,"lng":134.238807,"delta_lat":[0,292725,-110,-2264,-6927,-4866,-188202],"delta_lng":[0,94063,20064,18328,41973,-1919,-88656]},"impl":true},
    {"code":9980315,"left":9980312,"right":9980318,"id":"f62a3e","name":"白山(香川)","original_name":"白山","name_kana":"しらやま","lat":34.266707,"lng":134.150461,"prefecture":37,"lines":[99803],"attr":"eco","postal_code":"761-0700","address":"木田郡三木町白山９６７-５","next":[9980316,1180317,1180211,9980314,1180318],"voronoi":{"lat":34.161185,"lng":134.152586,"delta_lat":[0,133608,1548,-134670,-2199],"delta_lng":[0,896,-1793,-38701,10959]},"impl":true},
    {"code":9980312,"left":9980314,"right":9980311,"id":"e82313","name":"農学部前","name_kana":"のうがくぶまえ","lat":34.273814,"lng":134.125739,"prefecture":37,"lines":[99803],"attr":"eco","postal_code":"761-0701","address":"木田郡三木町池戸２８５２-６","next":[9980311,9980208,1180318,9980313],"voronoi":{"lat":34.163792,"lng":134.095708,"delta_lat":[0,2031,54187,69740],"delta_lng":[0,-24276,6126,56019]},"impl":true},
    {"code":9980314,"left":9980313,"id":"3defe2","name":"学園通り","name_kana":"がくえんどおり","lat":34.270576,"lng":134.136998,"prefecture":37,"lines":[99803],"attr":"eco","postal_code":"761-0703","address":"木田郡三木町鹿伏２０８-２","next":[1180211,9980415,9980315,9980313,1180318],"voronoi":{"lat":34.162845,"lng":134.104352,"delta_lat":[0,139323,-3550,-2278,-134670],"delta_lng":[0,38276,7435,1627,-38701]},"impl":true},
    {"code":9980313,"id":"59f4f0","name":"平木","name_kana":"ひらぎ","lat":34.272134,"lng":134.131327,"prefecture":37,"lines":[99803],"attr":"eco","postal_code":"761-0702","address":"木田郡三木町平木１１３-２","next":[9980415,9980310,1180318,9980311,9980314,9980312],"voronoi":{"lat":34.302688,"lng":134.140842,"delta_lat":[0,360,-880,-139323,946,125958],"delta_lng":[0,308,1477,-38276,-8644,37869]},"impl":true},
    {"code":9980311,"id":"e1e28c","name":"池戸","name_kana":"いけのべ","lat":34.27866,"lng":134.119706,"prefecture":37,"lines":[99803],"attr":"eco","postal_code":"761-0701","address":"木田郡三木町池戸３３６２-３","next":[9980312,9980208,9980313,9980310],"voronoi":{"lat":34.255774,"lng":134.07967,"delta_lat":[0,-35765,69740,12939],"delta_lng":[0,-2112,56019,7266]},"impl":true},
    {"code":9980318,"left":1180216,"right":9980317,"id":"ddd69a","name":"長尾(香川)","original_name":"長尾","name_kana":"ながお","lat":34.266675,"lng":134.169184,"prefecture":37,"lines":[99803],"attr":"eco","postal_code":"769-2302","address":"さぬき市長尾西５５９-２","next":[9980317,1180216,1180316,1180212,1180213,1180317],"voronoi":{"lat":34.16144,"lng":134.165368,"delta_lat":[0,125626,-32532,-74899,-8719,-9641],"delta_lng":[0,226,31729,30562,-801,-56031]},"impl":true},
    {"code":1180216,"left":9980316,"id":"61a3e0","name":"丹生","name_kana":"にぶ","lat":34.254517,"lng":134.301468,"prefecture":37,"lines":[11802],"attr":"eco","postal_code":"769-2516","address":"東かがわ市土居","next":[9980318,1180316,1180313,1180311,1180314,1180217,1180215,1180213,1180214],"voronoi":{"lat":34.304894,"lng":134.322659,"delta_lat":[0,-143162,-4851,365,10794,2876,8719,34239,664],"delta_lng":[0,-12969,-25411,-4768,-46696,-5732,801,10501,421]},"impl":true},
    {"code":9980316,"id":"745e7f","name":"井戸","name_kana":"いど","lat":34.266669,"lng":134.156127,"prefecture":37,"lines":[99803],"attr":"eco","postal_code":"761-0823","address":"木田郡三木町井戸４２１７-２","next":[9980315,1180211,1180317,9980317],"voronoi":{"lat":34.161185,"lng":134.152586,"delta_lat":[0,133608,-3834,-129551],"delta_lng":[0,896,5466,424]},"impl":true},
    {"code":9980317,"id":"5e7f4d","name":"公文明","name_kana":"くもんみょう","lat":34.266688,"lng":134.161929,"prefecture":37,"lines":[99803],"attr":"eco","postal_code":"761-0823","address":"木田郡三木町井戸４１２５-２","next":[9980318,1180212,1180317,1180211,9980316],"voronoi":{"lat":34.16144,"lng":134.165368,"delta_lat":[0,125626,511,3382,-129551],"delta_lng":[0,226,-347,-6298,424]},"impl":true},
    {"code":1180211,"left":9980308,"right":1180212,"id":"7acdc4","name":"オレンジタウン","name_kana":"おれんじたうん","lat":34.301879,"lng":134.180827,"prefecture":37,"lines":[11802],"attr":"eco","postal_code":"769-2101","address":"さぬき市大字志度字鳥打谷","next":[9980314,1180212,9980316,9980315,9980415,9980317,1180213,1180210],"voronoi":{"lat":34.304373,"lng":134.158282,"delta_lat":[0,-5754,-2278,-1548,-3834,-3382,8619,31957],"delta_lng":[0,-8219,1627,1793,5466,6298,32206,21585]},"impl":true},
    {"code":9980308,"left":9980310,"right":9980307,"id":"54da35","name":"水田","name_kana":"みずた","lat":34.303056,"lng":134.092699,"prefecture":37,"lines":[99803],"attr":"heat","postal_code":"761-0312","address":"高松市東山崎町５８-２","next":[1180206,9980309,9980307,9980208],"voronoi":{"lat":34.285441,"lng":134.0707,"delta_lat":[0,35074,-4358,-50707],"delta_lng":[0,28852,8926,-29859]},"impl":true},
    {"code":9980310,"left":9980309,"id":"3bf8f5","name":"高田(香川)","original_name":"高田","name_kana":"たかた","lat":34.288506,"lng":134.112155,"prefecture":37,"lines":[99803],"attr":"eco","postal_code":"761-0323","address":"高松市亀田町３８１-３","next":[9980411,9980415,9980309,9980208,9980313,9980311],"voronoi":{"lat":34.255774,"lng":134.07967,"delta_lat":[0,7253,49004,-6728,-2255,-360],"delta_lng":[0,-552,49122,11251,1660,-308]},"impl":true},
    {"code":9980309,"id":"7a828f","name":"西前田","name_kana":"にしまえだ","lat":34.296004,"lng":134.104675,"prefecture":37,"lines":[99803],"attr":"heat","postal_code":"761-0322","address":"高松市前田東町１０４７-２","next":[9980411,9980308,9980208,9980310,1180206,1180207],"voronoi":{"lat":34.312032,"lng":134.128239,"delta_lat":[0,-49004,2422,50707,-1719,-802],"delta_lng":[0,-49122,-499,29859,15785,2170]},"impl":true},
    {"code":9980307,"id":"c6c229","name":"元山(香川)","original_name":"元山","name_kana":"もとやま","lat":34.310424,"lng":134.083742,"prefecture":37,"lines":[99803],"attr":"heat","postal_code":"761-0311","address":"高松市元山町９７４-２","next":[9980305,9980207,1180206,9980308,9980208,9980306,9980206],"voronoi":{"lat":34.306642,"lng":134.065831,"delta_lat":[0,2942,12699,-1768,-35074,40,15714],"delta_lng":[0,3599,28291,1830,-28852,-26,-4757]},"impl":true},
    {"code":1180212,"left":1180213,"right":1180214,"id":"80d92d","name":"造田","name_kana":"ぞうだ","lat":34.282967,"lng":134.185888,"prefecture":37,"lines":[11802],"attr":"eco","postal_code":"769-2315","address":"さぬき市造田","next":[9980317,1180211,9980318,1180213],"voronoi":{"lat":34.287576,"lng":134.165246,"delta_lat":[0,-511,-32532,41662],"delta_lng":[0,347,31729,130]},"impl":true},
    {"code":1180213,"id":"7dc1d3","name":"神前(香川)","original_name":"神前","name_kana":"かんざき","lat":34.282895,"lng":134.208935,"prefecture":37,"lines":[11802],"attr":"eco","postal_code":"769-2323","address":"さぬき市寒川町神前","next":[1180214,1180210,9980318,1180212,1180216,1180211],"voronoi":{"lat":34.331287,"lng":134.222418,"delta_lat":[0,-117414,-34239,74899,41662,31957],"delta_lng":[0,15967,-10501,-30562,130,21585]},"impl":true},
    {"code":1180214,"id":"b21868","name":"讃岐津田","name_kana":"さぬきつだ","lat":34.288253,"lng":134.248335,"prefecture":37,"lines":[11802],"attr":"eco","postal_code":"769-2401","address":"さぬき市津田町津田","next":[1180215,1180213,1180210,9980416,1163108,1180216],"voronoi":{"lat":34.507262,"lng":134.332869,"delta_lat":[0,1919,-145982,-31912,-117414,664],"delta_lng":[0,-30465,-65872,-14114,15967,421]},"impl":true},
    {"code":3200504,"left":1163635,"right":1163624,"id":"b2d1e4","name":"中松江","name_kana":"なかまつえ","lat":34.248781,"lng":135.13291,"prefecture":30,"lines":[32005],"attr":"eco","postal_code":"640-8423","address":"和歌山市松江中３-３-１","next":[3200141,3200302,3200503,3200505],"voronoi":{"lat":34.262738,"lng":135.138663,"delta_lat":[0,-31716,-7280,42251],"delta_lng":[0,-3663,-16869,14421]},"impl":true},
    {"code":1163635,"left":9965104,"right":9965113,"id":"33204f","name":"田井ノ瀬","name_kana":"たいのせ","lat":34.242153,"lng":135.229492,"prefecture":30,"lines":[11636],"attr":"cool","postal_code":"640-8301","address":"和歌山市岩橋","next":[9965103,9965104,9965106,9965108,9965107,1162633,1163634,1162632],"voronoi":{"lat":34.262194,"lng":135.227277,"delta_lat":[0,-18638,-19500,-437,-272,-911,1021,32130],"delta_lng":[0,-16899,11022,526,903,8000,6204,959]},"impl":true},
    {"code":9965104,"left":9965105,"right":1163953,"id":"a0b7c4","name":"神前(和歌山)","original_name":"神前","name_kana":"こうざき","lat":34.212784,"lng":135.205092,"prefecture":30,"lines":[99651],"attr":"heat","postal_code":"640-8314","address":"和歌山県和歌山市神前","next":[9965106,1163635,9965105,9965103,1163953],"voronoi":{"lat":34.20631,"lng":135.196752,"delta_lat":[0,7164,10145,437,-5969],"delta_lng":[0,18271,6903,-526,-24218]},"impl":true},
    {"code":9965105,"left":1180501,"right":9965107,"id":"b50a8d","name":"竈山","name_kana":"かまやま","lat":34.207229,"lng":135.20727,"prefecture":30,"lines":[99651],"attr":"heat","postal_code":"641-0004","address":"和歌山市和田１１９３","next":[1163952,9965106,9965104,1163953,1163951],"voronoi":{"lat":34.213473,"lng":135.215023,"delta_lat":[0,-7164,-6096,-11512,115],"delta_lng":[0,-18271,-2040,11418,1450]},"impl":true},
    {"code":1180501,"left":1163949,"right":1163952,"id":"29eee1","name":"鳴門","name_kana":"なると","lat":34.179131,"lng":134.608355,"prefecture":36,"lines":[11805],"attr":"eco","postal_code":"772-0012","address":"鳴門市撫養町小桑島","next":[1180407,9963807,9963726,1180408,1180220,9963719,9963720,9963724,9963723,1180412,9963722,3200509,1180504,1180503,9963731,9963738,1163946,1180502],"voronoi":{"lat":34.079179,"lng":134.704918,"delta_lat":[0,-142,33641,28191,257484,9222,6343,12175,6742,23658,15911,11772,533,-2666,-162435,-25243,-96046,-115976],"delta_lng":[0,11119,141706,4394,-52406,-12234,-9055,-19536,-11393,-41107,-31281,-34764,-3279,-79444,-29025,9345,39009,92252]},"impl":true},
    {"code":1163949,"left":1163948,"id":"72c772","name":"冷水浦","name_kana":"しみずうら","lat":34.141864,"lng":135.193361,"prefecture":30,"lines":[11639],"attr":"cool","postal_code":"642-0035","address":"海南市冷水","next":[1163950,1163943,1163951,1163944,1163948,1163952],"voronoi":{"lat":34.15866,"lng":135.197604,"delta_lat":[0,-57212,-1069,6613,54391,3059],"delta_lng":[0,34410,-24388,-18052,-26171,24322]},"impl":true},
    {"code":1163948,"id":"3b6f5d","name":"加茂郷","name_kana":"かもごう","lat":34.125794,"lng":135.159963,"prefecture":30,"lines":[11639],"attr":"cool","postal_code":"649-0122","address":"海南市下津町黒田","next":[1163952,1163946,1163944,3200302,1163947,1163949],"voronoi":{"lat":34.102855,"lng":135.169719,"delta_lat":[0,43963,18038,5305,-8777,-54391],"delta_lng":[0,-51579,-10436,36031,19668,26171]},"impl":true},
    {"code":1163952,"id":"fcb724","name":"紀三井寺","name_kana":"きみいでら","lat":34.187714,"lng":135.187594,"prefecture":30,"lines":[11639],"attr":"cool","postal_code":"641-0011","address":"和歌山市三葛","next":[9965105,3200302,1163948,1163953,1163951,1163949],"voronoi":{"lat":34.161384,"lng":135.163404,"delta_lat":[0,8777,31501,-1448,-11512,-24259],"delta_lng":[0,-19668,22689,28288,11418,-18405]},"impl":true},
    {"code":9965107,"left":1163950,"right":9965106,"id":"a4cef8","name":"岡崎前","name_kana":"おかざきまえ","lat":34.203524,"lng":135.22509,"prefecture":30,"lines":[99651],"attr":"heat","postal_code":"640-0341","address":"和歌山市相坂５７８","next":[9965106,1163951,9965108,1163635],"voronoi":{"lat":34.181412,"lng":135.230088,"delta_lat":[0,4390,37544,-911],"delta_lng":[0,-9694,2435,8000]},"impl":true},
    {"code":1163950,"left":1163951,"id":"5fd30b","name":"海南","name_kana":"かいなん","lat":34.154536,"lng":135.21443,"prefecture":30,"lines":[11639],"attr":"cool","postal_code":"642-0032","address":"海南市名高","next":[1163949,9965111,9965108,9965109,9965110,1163943,1163951],"voronoi":{"lat":34.15866,"lng":135.197604,"delta_lat":[0,-57212,-15080,63364,5716,14551,850],"delta_lng":[0,34410,83892,-44895,-6151,-19386,-1933]},"impl":true},
    {"code":1163951,"id":"2ec7a6","name":"黒江","name_kana":"くろえ","lat":34.170584,"lng":135.210172,"prefecture":30,"lines":[11639],"attr":"cool","postal_code":"642-0012","address":"海南市岡田横山","next":[9965107,9965106,1163949,9965108,1163950,1163952,9965105],"voronoi":{"lat":34.185802,"lng":135.220394,"delta_lat":[0,-4390,-10563,-12189,5782,24259,115],"delta_lng":[0,9694,13453,-45937,-9879,18405,1450]},"impl":true},
    {"code":9965106,"id":"bae922","name":"交通センター前","name_kana":"こうつうせんたーまえ","lat":34.203982,"lng":135.218027,"prefecture":30,"lines":[99651],"attr":"heat","postal_code":"640-8313","address":"和歌山市西２２-１","next":[9965104,9965107,1163951,9965105,1163635],"voronoi":{"lat":34.185802,"lng":135.220394,"delta_lat":[0,3014,24657,10145,-272],"delta_lng":[0,-12814,7443,6903,903]},"impl":true},
    {"code":1163953,"left":1164002,"right":1162635,"id":"95cc9a","name":"宮前","name_kana":"みやまえ","lat":34.213375,"lng":135.188907,"prefecture":30,"lines":[11639],"attr":"cool","postal_code":"641-0006","address":"和歌山市中島","next":[9965103,1163952,9965104,1164003,9965105,9965102,3200302],"voronoi":{"lat":34.224272,"lng":135.177004,"delta_lat":[0,-5567,-618,-11777,-6096,1448,13777],"delta_lng":[0,19548,631,-430,-2040,-28288,1281]},"impl":true},
    {"code":1164002,"left":1164003,"right":3200503,"id":"49ca1d","name":"紀和","name_kana":"きわ","lat":34.241966,"lng":135.181451,"prefecture":30,"lines":[11640],"attr":"eco","postal_code":"640-8392","address":"和歌山市中之島","next":[3200139,1162634,1164003,1162635],"voronoi":{"lat":34.228343,"lng":135.178013,"delta_lat":[0,17727,14634,-23561],"delta_lng":[0,-6322,12212,2493]},"impl":true},
    {"code":1164003,"left":3200302,"id":"71b015","name":"和歌山市","name_kana":"わかやまし","lat":34.236717,"lng":135.166731,"prefecture":30,"lines":[11640,32001,32003,32005],"attr":"eco","postal_code":"640-8203","address":"和歌山市東蔵前丁","next":[3200503,9965102,3200302,3200139,1162635,1163953,1164002],"voronoi":{"lat":34.225884,"lng":135.177587,"delta_lat":[0,-1612,-8833,18276,11612,743,-17727],"delta_lng":[0,-584,-9298,-17511,5034,16463,6322]},"impl":true},
    {"code":3200302,"id":"dda159","name":"和歌山港","name_kana":"わかやまこう","lat":34.217321,"lng":135.146488,"prefecture":30,"lines":[32003],"attr":"eco","postal_code":"640-0000","address":"和歌山市薬種畑","next":[1163952,3200505,1163946,1163948,1164003,3200507,3200504,3200506,3200503,1163953,3200508],"voronoi":{"lat":34.175424,"lng":135.067687,"delta_lat":[0,-10569,5305,31501,13777,18276,-2692,-7280,-8418,-15953,-12666],"delta_lng":[0,40017,36031,22689,1281,-17511,-15195,-16869,-11998,-17043,-12023]},"impl":true},
    {"code":3200503,"id":"b59c98","name":"東松江(和歌山)","original_name":"東松江","name_kana":"ひがしまつえ","lat":34.247837,"lng":135.141082,"prefecture":30,"lines":[32005],"attr":"eco","postal_code":"640-8422","address":"和歌山市松江東４-１４-１","next":[1164003,3200504,3200139,3200302,3200141],"voronoi":{"lat":34.262738,"lng":135.138663,"delta_lat":[0,-31716,2692,11612,14734],"delta_lng":[0,-3663,15195,5034,-4214]},"impl":true},
    {"code":1162635,"left":9965103,"right":1162634,"id":"9365fa","name":"和歌山","name_kana":"わかやま","lat":34.232436,"lng":135.191454,"prefecture":30,"lines":[11626,11636,11639,11640,99651],"attr":"cool","postal_code":"640-8331","address":"和歌山市美園町","next":[9965103,1162634,9965102,1164003,1164002],"voronoi":{"lat":34.228343,"lng":135.178013,"delta_lat":[0,-2459,5474,7639,-1854],"delta_lng":[0,-426,20113,4448,-15752]},"impl":true},
    {"code":9965103,"left":9965102,"id":"a81369","name":"日前宮","name_kana":"にちぜんぐう","lat":34.226457,"lng":135.201722,"prefecture":30,"lines":[99651],"attr":"heat","postal_code":"640-8316","address":"和歌山市有家８８","next":[1163635,1162635,1163953,9965102,9965104,1162633,1162634],"voronoi":{"lat":34.243555,"lng":135.210379,"delta_lat":[0,-19500,-5969,618,12653,7639,4770],"delta_lng":[0,11022,-24218,-631,1149,4448,6819]},"impl":true},
    {"code":9965102,"id":"a688a6","name":"田中口","name_kana":"たなかぐち","lat":34.227262,"lng":135.192862,"prefecture":30,"lines":[99651],"attr":"heat","postal_code":"640-8331","address":"和歌山市美園町５-９３","next":[1164003,1162635,9965103,1163953],"voronoi":{"lat":34.224272,"lng":135.177004,"delta_lat":[0,1612,5474,-12653],"delta_lng":[0,584,20113,-1149]},"impl":true},
    {"code":1162634,"id":"2fd66d","name":"紀伊中ノ島","name_kana":"きいなかのしま","lat":34.242894,"lng":135.190223,"prefecture":30,"lines":[11626],"attr":"cool","postal_code":"640-8392","address":"和歌山市中之島","next":[1164002,1162635,3200139,1162633,9965103],"voronoi":{"lat":34.264012,"lng":135.185543,"delta_lat":[0,-3309,-23561,1854,4770],"delta_lng":[0,-1639,2493,15752,6819]},"impl":true},
    {"code":9965113,"left":9965112,"right":3200740,"id":"7df586","name":"甘露寺前","name_kana":"かんろじまえ","lat":34.213327,"lng":135.301292,"prefecture":30,"lines":[99651],"attr":"eco","postal_code":"640-0415","address":"紀の川市貴志川町長原５８０","next":[9965114,1163631,1163632,9965112],"voronoi":{"lat":34.22893,"lng":135.312903,"delta_lat":[0,3511,-4423,-31013],"delta_lng":[0,-12430,-10475,11365]},"impl":true},
    {"code":9965112,"left":9965111,"right":1151021,"id":"344872","name":"西山口","name_kana":"にしやまぐち","lat":34.209508,"lng":135.290871,"prefecture":30,"lines":[99651],"attr":"eco","postal_code":"640-0416","address":"紀の川市貴志川町長山５３","next":[1163633,9965111,9965110,9965114,1163632,9965113],"voronoi":{"lat":34.191498,"lng":135.301364,"delta_lat":[0,31503,2304,1358,1355,-31013],"delta_lng":[0,-26860,-296,1621,14170,11365]},"impl":true},
    {"code":9965111,"left":9965109,"right":9965110,"id":"fa6a9f","name":"大池遊園","name_kana":"おいけゆうえん","lat":34.204706,"lng":135.285239,"prefecture":30,"lines":[99651],"attr":"cool","postal_code":"640-0416","address":"紀の川市貴志川町長山２８０","next":[9965114,9965112,1163950,9965110,1163943],"voronoi":{"lat":34.086369,"lng":135.315906,"delta_lat":[0,63364,73268,-31503,-108111],"delta_lng":[0,-44895,3492,26860,19510]},"impl":true},
    {"code":9965109,"left":9965108,"id":"4125bd","name":"伊太祈曽","name_kana":"いだきそ","lat":34.204127,"lng":135.251653,"prefecture":30,"lines":[99651],"attr":"cool","postal_code":"640-0361","address":"和歌山市伊太祈曽７３","next":[9965108,9965110,1163950,1163634],"voronoi":{"lat":34.221972,"lng":135.242844,"delta_lat":[0,-51972,-14551,68273],"delta_lng":[0,2630,19386,-11023]},"impl":true},
    {"code":9965108,"id":"de7502","name":"吉礼","name_kana":"きれ","lat":34.203329,"lng":135.235882,"prefecture":30,"lines":[99651],"attr":"cool","postal_code":"640-0351","address":"和歌山市吉礼６１","next":[9965109,9965107,1163634,1163950,1163635,1163951],"voronoi":{"lat":34.181412,"lng":135.230088,"delta_lat":[0,41023,1021,-1485,-51972,850],"delta_lng":[0,741,6204,5811,2630,-1933]},"impl":true},
    {"code":9965110,"id":"59eb8b","name":"山東","name_kana":"さんどう","lat":34.20581,"lng":135.262077,"prefecture":30,"lines":[99651],"attr":"cool","postal_code":"640-0302","address":"和歌山県和歌山市永山","next":[9965109,1163634,1163633,9965111,9965112,1163950],"voronoi":{"lat":34.223001,"lng":135.274504,"delta_lat":[0,2304,-224,-1359,-68273,-5716],"delta_lng":[0,-296,-17399,-2971,11023,6151]},"impl":true},
    {"code":1151021,"left":1151022,"right":9965114,"id":"783f01","name":"紀伊長島","name_kana":"きいながしま","lat":34.20937,"lng":136.339968,"prefecture":24,"lines":[11510],"attr":"eco","postal_code":"519-3204","address":"北牟婁郡紀北町紀伊長島区東長島","next":[1151022,1151018,1151020,1151027,3101516],"voronoi":{"lat":34.105131,"lng":136.611448,"delta_lat":[0,87721,72378,-211761,-119637],"delta_lng":[0,-143088,-212626,153337,237815]},"impl":true},
    {"code":1151022,"left":1151023,"id":"ba7b70","name":"三野瀬","name_kana":"みのせ","lat":34.167771,"lng":136.282519,"prefecture":24,"lines":[11510],"attr":"eco","postal_code":"519-3208","address":"北牟婁郡紀北町紀伊長島区三浦","next":[1151019,1151023,1151021,1151024,1151020,1151026,1151027],"voronoi":{"lat":34.076724,"lng":136.320444,"delta_lat":[0,2648,45394,199574,-38964,-20145,-211761],"delta_lng":[0,-4703,-45729,-94883,56028,24577,153337]},"impl":true},
    {"code":1151023,"id":"8e7047","name":"船津(JR)","original_name":"船津","name_kana":"ふなつ","lat":34.142214,"lng":136.228763,"prefecture":24,"lines":[11510],"attr":"eco","postal_code":"519-3403","address":"三重県北牟婁郡紀北町海山区上里456","next":[1151022,1151025,1151315,1151024,1151019,3100532,3100716],"voronoi":{"lat":34.339655,"lng":136.096855,"delta_lat":[0,-5777,-9539,-199574,5452,88291,114011],"delta_lng":[0,68339,9935,94883,-99183,-155353,71283]},"impl":true},
    {"code":9965114,"id":"e77854","name":"貴志","name_kana":"きし","lat":34.209509,"lng":135.311855,"prefecture":30,"lines":[99651],"attr":"eco","postal_code":"640-0413","address":"紀の川市貴志川町神戸８０３","next":[9965111,9965113,1163627,1163631,1163625,1163943,3200740,1163628,1163629,1163626,1163630,9965112,1163931],"voronoi":{"lat":34.100405,"lng":135.446026,"delta_lat":[0,32479,9665,49429,26369,8500,2401,-318,-31925,-5507,-108111,-91375,451],"delta_lng":[0,-16921,-6407,-36435,-28030,-15711,-11583,-18036,-11540,0,19510,120734,16119]},"impl":true},
    {"code":3200740,"left":1163632,"right":3200742,"id":"1fd591","name":"紀伊細川","name_kana":"きいほそかわ","lat":34.235723,"lng":135.553705,"prefecture":30,"lines":[32007],"attr":"cool","postal_code":"648-0262","address":"伊都郡高野町大字細川７３２","next":[3200739,3200802,3200741,1163624,1163623,9965114,1163931,1163625],"voronoi":{"lat":34.229805,"lng":135.49078,"delta_lat":[0,1207,17548,-17066,-251068,12036,107942,92833],"delta_lng":[0,923,66852,7021,-83298,-24551,-11700,28698]},"impl":true},
    {"code":1163632,"left":1163633,"right":1163631,"id":"621831","name":"紀伊小倉","name_kana":"きいおぐら","lat":34.246357,"lng":135.287346,"prefecture":30,"lines":[11636],"attr":"cool","postal_code":"649-6264","address":"和歌山市新庄","next":[1163633,1162631,1163631,1163630,1162632,9965113,9965112],"voronoi":{"lat":34.23244,"lng":135.300473,"delta_lat":[0,49232,7816,-2565,-18311,-41950,1355],"delta_lng":[0,-4017,-1979,-11537,-10167,3055,14170]},"impl":true},
    {"code":1163633,"left":1163634,"id":"7ed308","name":"布施屋","name_kana":"ほしや","lat":34.244481,"lng":135.261579,"prefecture":30,"lines":[11636],"attr":"cool","postal_code":"649-6321","address":"和歌山市布施屋","next":[1163632,9965112,1162632,9965110,1163634],"voronoi":{"lat":34.255341,"lng":135.25146,"delta_lat":[0,13272,-41950,-1358,-224],"delta_lng":[0,21314,3055,-1621,-17399]},"impl":true},
    {"code":1163634,"id":"0185ae","name":"千旦","name_kana":"せんだ","lat":34.24167,"lng":135.245677,"prefecture":30,"lines":[11636],"attr":"cool","postal_code":"641-0035","address":"和歌山市関戸４８５-１","next":[9965108,9965110,1162632,1163635,9965109,1163633],"voronoi":{"lat":34.255341,"lng":135.25146,"delta_lat":[0,246,-32130,-1485,1750,1359],"delta_lng":[0,-13467,-959,5811,10993,2971]},"impl":true},
    {"code":1163631,"id":"65c4e7","name":"船戸","name_kana":"ふなと","lat":34.248301,"lng":135.311171,"prefecture":30,"lines":[11636],"attr":"cool","postal_code":"649-6225","address":"岩出市船戸","next":[9965114,1163632,9965113,1163630],"voronoi":{"lat":34.281672,"lng":135.296456,"delta_lat":[0,-49232,-3511,318],"delta_lng":[0,4017,12430,18036]},"impl":true},
    {"code":3200742,"left":3200802,"right":3200741,"id":"9926e5","name":"極楽橋","name_kana":"ごくらくばし","lat":34.23435,"lng":135.582078,"prefecture":30,"lines":[32007,32008],"attr":"heat","postal_code":"648-0211","address":"伊都郡高野町大字高野山国有林第８林班","next":[1163615,1163614,3200734,3200735,1151035,3200737,3100716,3200802,3200741,1163616],"voronoi":{"lat":34.148942,"lng":135.787471,"delta_lat":[0,-22187,-59037,-10295,177703,26241,4979,72,-13380,-9314],"delta_lng":[0,24210,30996,-7323,-261474,20201,11809,2053,43110,15611]},"impl":true},
    {"code":3200802,"id":"2a69ff","name":"高野山","name_kana":"こうやさん","lat":34.227789,"lng":135.577619,"prefecture":30,"lines":[32008],"attr":"heat","postal_code":"648-0211","address":"和歌山県伊都郡高野町大字高野山国有林第9林班ノは","next":[3200740,1151041,1151036,1151035,1151038,1151037,1163929,3200741,1163931,1163930,3200742,1163928],"voronoi":{"lat":33.954989,"lng":135.546091,"delta_lat":[0,23932,372,1134,251068,3631,-177703,-31495,-36320,-17099,-36810,-32889],"delta_lng":[0,-60949,-802,-2062,83298,8305,261474,-21799,-29077,-14310,-33499,-39696]},"impl":true},
    {"code":3200741,"id":"86805f","name":"紀伊神谷","name_kana":"きいかみや","lat":34.242852,"lng":135.571034,"prefecture":30,"lines":[32007],"attr":"heat","postal_code":"648-0200","address":"伊都郡高野町大字神谷","next":[3200737,3200740,3200738,3200802,3200739,3200742],"voronoi":{"lat":34.235126,"lng":135.57388,"delta_lat":[0,-3631,17066,6530,1497,4779],"delta_lng":[0,-8305,-7021,4118,1985,29424]},"impl":true},
    {"code":1163624,"left":1163627,"right":1163621,"id":"0381ea","name":"西笠田","name_kana":"にしかせだ","lat":34.280136,"lng":135.452551,"prefecture":30,"lines":[11636],"attr":"heat","postal_code":"649-7166","address":"伊都郡かつらぎ町大字高田","next":[1163623,3200740,1163625,9961710],"voronoi":{"lat":34.229805,"lng":135.49078,"delta_lat":[0,-36568,148186,10461],"delta_lng":[0,-16055,-56411,19274]},"impl":true},
    {"code":1163627,"left":3200139,"right":3200602,"id":"2198a8","name":"紀伊長田","name_kana":"きいながた","lat":34.268242,"lng":135.391536,"prefecture":30,"lines":[11636],"attr":"cool","postal_code":"649-6553","address":"紀の川市深田","next":[1162626,9965114,1163628,9961710,1163626],"voronoi":{"lat":34.191978,"lng":135.386264,"delta_lat":[0,141905,1319,522,-193175],"delta_lng":[0,-15919,2683,11870,37801]},"impl":true},
    {"code":3200139,"left":3200507,"right":1162633,"id":"b80516","name":"紀ノ川","name_kana":"きのかわ","lat":34.254937,"lng":135.165908,"prefecture":30,"lines":[32001,32005],"attr":"eco","postal_code":"640-8464","address":"和歌山市市小路１６２-３","next":[3200138,1164002,1164003,3200141,1162634,3200503,1162633],"voronoi":{"lat":34.260703,"lng":135.183904,"delta_lat":[0,-14634,-743,14734,17479,5121,-18648],"delta_lng":[0,-12212,-16463,-4214,18860,12273,3395]},"impl":true},
    {"code":3200507,"left":3200505,"right":3200508,"id":"4adff8","name":"二里ヶ浜","name_kana":"にりがはま","lat":34.257627,"lng":135.104025,"prefecture":30,"lines":[32005],"attr":"cool","postal_code":"640-0113","address":"和歌山県和歌山市本脇","next":[3200506,3200604,3200508,3200141,3200302,3200509],"voronoi":{"lat":34.286599,"lng":135.107695,"delta_lat":[0,-99894,12666,87532,2873,2300],"delta_lng":[0,-30629,12023,28042,-1180,-4098]},"impl":true},
    {"code":3200505,"left":3200506,"id":"149b37","name":"八幡前(和歌山)","original_name":"八幡前","name_kana":"はちまんまえ","lat":34.252592,"lng":135.121744,"prefecture":30,"lines":[32005],"attr":"cool","postal_code":"640-8435","address":"和歌山市古屋２２２-２","next":[3200302,3200506,3200141,3200504],"voronoi":{"lat":34.277336,"lng":135.122368,"delta_lat":[0,-62012,8418,42251],"delta_lng":[0,-16235,11998,14421]},"impl":true},
    {"code":3200506,"id":"0b7e4a","name":"西ノ庄","name_kana":"にしのしょう","lat":34.255461,"lng":135.110786,"prefecture":30,"lines":[32005],"attr":"cool","postal_code":"640-0112","address":"和歌山市西庄１０１６-３","next":[3200141,3200505,3200507,3200302],"voronoi":{"lat":34.199371,"lng":135.089089,"delta_lat":[0,87532,-9567,-62012],"delta_lng":[0,28042,5236,-16235]},"impl":true},
    {"code":3200508,"id":"322cbe","name":"磯ノ浦","name_kana":"いそのうら","lat":34.260549,"lng":135.094495,"prefecture":30,"lines":[32005],"attr":"heat","postal_code":"640-0114","address":"和歌山市磯の浦３７７-２","next":[1163946,3200509,3200507,3200302],"voronoi":{"lat":34.286599,"lng":135.107695,"delta_lat":[0,-123280,12105,11281],"delta_lng":[0,-132372,92364,9379]},"impl":true},
    {"code":1162633,"left":1163629,"right":1163628,"id":"55b6fb","name":"六十谷","name_kana":"むそた","lat":34.26244,"lng":135.207116,"prefecture":30,"lines":[11626],"attr":"cool","postal_code":"640-8482","address":"和歌山市六十谷","next":[1162632,3200138,3200135,3200139,1163635,1162634,3200136,9965103],"voronoi":{"lat":34.243767,"lng":135.208968,"delta_lat":[0,20246,18648,12375,7161,-1060,-38943,-18638],"delta_lng":[0,-23425,-3395,6216,17011,15151,6752,-16899]},"impl":true},
    {"code":1163629,"left":1163630,"id":"d0228c","name":"下井阪","name_kana":"しもいさか","lat":34.262003,"lng":135.340256,"prefecture":30,"lines":[11636],"attr":"cool","postal_code":"649-6426","address":"紀の川市下井阪","next":[1163630,1162628,9965114,1162627,1163628,1162631],"voronoi":{"lat":34.303703,"lng":135.313949,"delta_lat":[0,-76856,-8500,106050,-1682,-1889],"delta_lng":[0,28574,15711,-14048,-9745,-5064]},"impl":true},
    {"code":1163630,"id":"b2644d","name":"岩出","name_kana":"いわで","lat":34.254945,"lng":135.321272,"prefecture":30,"lines":[11636],"attr":"cool","postal_code":"649-6223","address":"岩出市高塚","next":[1162631,1163629,1163631,1163632,9965114],"voronoi":{"lat":34.229248,"lng":135.330939,"delta_lat":[0,52425,7816,14214,-76856],"delta_lng":[0,-34483,-1979,19471,28574]},"impl":true},
    {"code":1163628,"id":"69b014","name":"打田","name_kana":"うちた","lat":34.265178,"lng":135.364224,"prefecture":30,"lines":[11636],"attr":"cool","postal_code":"649-6414","address":"紀の川市打田","next":[1163627,9965114,1162627,1162626,1163629],"voronoi":{"lat":34.324396,"lng":135.344185,"delta_lat":[0,8346,1140,-141905,26369],"delta_lng":[0,21812,4347,15919,-28030]},"impl":true},
    {"code":3200602,"left":3200604,"right":1163625,"id":"02f7d6","name":"深日町","name_kana":"ふけちょう","lat":34.31823,"lng":135.148002,"prefecture":27,"lines":[32006],"attr":"eco","postal_code":"599-0303","address":"泉南郡岬町深日１４３３","next":[3200603,3200137,3200138],"voronoi":{"lat":34.353383,"lng":135.140171,"delta_lat":[0,-49301,1632],"delta_lng":[0,6206,14941]},"impl":true},
    {"code":3200604,"left":3200141,"right":3200603,"id":"1ce5c3","name":"多奈川","name_kana":"たながわ","lat":34.316705,"lng":135.137181,"prefecture":27,"lines":[32006],"attr":"eco","postal_code":"599-0300","address":"泉南郡岬町多奈川２２９０","next":[9963712,3200507,3200509,9963710,3200137,3200138,3200141,1160807,3200603,1162803],"voronoi":{"lat":34.394255,"lng":135.126465,"delta_lat":[0,-91883,-11743,-852,2300,153942,10268,6728,6485,-21711],"delta_lng":[0,15202,-22136,-3579,-4098,-113043,34092,25244,27558,24380]},"impl":true},
    {"code":3200141,"left":3200509,"id":"989393","name":"和歌山大学前","name_kana":"わかやまだいがくまえ","lat":34.2753,"lng":135.147036,"prefecture":30,"lines":[32001],"attr":"cool","postal_code":"640-8451","address":"和歌山県和歌山市中575番地3","next":[3200506,3200505,3200138,3200507,3200504,3200139,3200604,3200503],"voronoi":{"lat":34.277539,"lng":135.169874,"delta_lat":[0,13089,-852,-2873,-9567,-11343,-3255,-2678],"delta_lng":[0,-50344,-3579,1180,5236,10184,6111,12352]},"impl":true},
    {"code":3200509,"id":"8befe9","name":"加太(和歌山)","original_name":"加太","name_kana":"かだ","lat":34.275283,"lng":135.080773,"prefecture":30,"lines":[32005],"attr":"heat","postal_code":"640-0103","address":"和歌山市加太１０３８-１","next":[1163946,3200508,9963719,3200604,1160808,9963718,1180501,9963712,3200507],"voronoi":{"lat":34.446018,"lng":134.99881,"delta_lat":[0,-2427,-4050,-2078,-39111,-257484,22451,123280,5477],"delta_lng":[0,-22652,-31223,-7780,-127425,52406,113187,132372,4158]},"impl":true},
    {"code":3200603,"id":"18f240","name":"深日港","name_kana":"ふけこう","lat":34.317386,"lng":135.141297,"prefecture":27,"lines":[32006],"attr":"eco","postal_code":"599-0303","address":"泉南郡岬町深日２５３５-１","next":[3200602,3200604,3200137,3200138],"voronoi":{"lat":34.302371,"lng":135.141667,"delta_lat":[0,91883,-40871,-49301],"delta_lng":[0,-15202,13707,6206]},"impl":true},
    {"code":1163625,"left":1163626,"right":3200138,"id":"d09e6b","name":"名手","name_kana":"なて","lat":34.272883,"lng":135.433498,"prefecture":30,"lines":[11636],"attr":"heat","postal_code":"649-6631","address":"紀の川市名手市場","next":[9965114,1163626,1163624,9961710,3200740],"voronoi":{"lat":34.341424,"lng":135.418313,"delta_lat":[0,-1649,-206891,-32479,92833],"delta_lng":[0,-4495,15287,16921,28698]},"impl":true},
    {"code":1163626,"left":1162632,"id":"d6abd2","name":"粉河","name_kana":"こかわ","lat":34.270717,"lng":135.404184,"prefecture":30,"lines":[11636],"attr":"cool","postal_code":"649-6531","address":"紀の川市粉河","next":[1163625,9961710,9965114,1163627],"voronoi":{"lat":34.335724,"lng":135.384897,"delta_lat":[0,4051,-206891,9665],"delta_lng":[0,28921,15287,-6407]},"impl":true},
    {"code":1162632,"id":"2292ac","name":"紀伊","name_kana":"きい","lat":34.269213,"lng":135.246179,"prefecture":30,"lines":[11626],"attr":"cool","postal_code":"649-6331","address":"和歌山市北野","next":[1162633,1163633,1162631,1163634,3200135,1163635,1163632],"voronoi":{"lat":34.307401,"lng":135.233991,"delta_lat":[0,-6264,-38943,-6607,-246,13272,18311],"delta_lng":[0,-13466,6752,10715,13467,21314,10167]},"impl":true},
    {"code":3200138,"id":"38f2e0","name":"孝子","name_kana":"きょうし","lat":34.290619,"lng":135.151019,"prefecture":27,"lines":[32001],"attr":"heat","postal_code":"599-0302","address":"泉南郡岬町孝子６０２","next":[3200139,3200141,1162633,3200137,3200136,3200604,3200602,3200603],"voronoi":{"lat":34.302371,"lng":135.141667,"delta_lat":[0,-11743,-13089,5121,12375,4712,5967,-1632],"delta_lng":[0,-22136,50344,12273,6216,-7051,-19994,-14941]},"impl":true},
    {"code":1163621,"left":3200736,"right":1163617,"id":"0c9938","name":"妙寺","name_kana":"みょうじ","lat":34.298607,"lng":135.517382,"prefecture":30,"lines":[11636],"attr":"eco","postal_code":"649-7122","address":"伊都郡かつらぎ町大字新田","next":[3200739,1163620,3200738,1163622],"voronoi":{"lat":34.274642,"lng":135.528205,"delta_lat":[0,5269,71906,-93939],"delta_lng":[0,4722,-27520,234]},"impl":true},
    {"code":3200736,"left":1163623,"right":1151019,"id":"fd489f","name":"九度山","name_kana":"くどやま","lat":34.287775,"lng":135.564487,"prefecture":30,"lines":[32007],"attr":"eco","postal_code":"648-0101","address":"伊都郡九度山町大字九度山１２３-２","next":[3200738,3200735,3200737,1163620,1163619],"voronoi":{"lat":34.292231,"lng":135.546349,"delta_lat":[0,-6677,-6935,2598,19065],"delta_lng":[0,-3380,13082,22404,-10907]},"impl":true},
    {"code":1163623,"left":3200738,"right":1163622,"id":"46403a","name":"笠田","name_kana":"かせだ","lat":34.292073,"lng":135.479947,"prefecture":30,"lines":[11636],"attr":"heat","postal_code":"649-7161","address":"伊都郡かつらぎ町大字笠田東","next":[9961710,1163624,3200740,3200739,1163622],"voronoi":{"lat":34.231013,"lng":135.491702,"delta_lat":[0,-1207,122079,13678,-108655],"delta_lng":[0,-923,-53192,16155,51163]},"impl":true},
    {"code":3200738,"left":3200739,"id":"57fb11","name":"下古沢","name_kana":"しもこさわ","lat":34.266497,"lng":135.553207,"prefecture":30,"lines":[32007],"attr":"cool","postal_code":"648-0145","address":"伊都郡九度山町大字下古沢","next":[3200739,3200737,3200736,1163621,3200741,1163620],"voronoi":{"lat":34.279912,"lng":135.532928,"delta_lat":[0,-5269,-19552,1497,22031,6935],"delta_lng":[0,-4722,34467,1985,-8606,-13082]},"impl":true},
    {"code":3200739,"id":"a91b7e","name":"上古沢","name_kana":"かみこさわ","lat":34.257362,"lng":135.548025,"prefecture":30,"lines":[32007],"attr":"cool","postal_code":"648-0143","address":"伊都郡九度山町大字上古沢","next":[1163621,3200740,3200738,1163623,1163622,3200741],"voronoi":{"lat":34.248561,"lng":135.558554,"delta_lat":[0,-17548,25895,971,16764,-19552],"delta_lng":[0,-66852,13203,736,22564,34467]},"impl":true},
    {"code":1163622,"id":"94a4ae","name":"大谷(和歌山)","original_name":"大谷","name_kana":"おおたに","lat":34.298548,"lng":135.493698,"prefecture":30,"lines":[11636],"attr":"heat","postal_code":"649-7173","address":"伊都郡かつらぎ町大字大谷","next":[9961710,3200727,9961606,3200739,1163620,1163621,1163623],"voronoi":{"lat":34.365563,"lng":135.453743,"delta_lat":[0,12158,7810,-823,-32890,-93939,-971],"delta_lng":[0,11805,33757,1244,4859,234,-736]},"impl":true},
    {"code":1151019,"left":1151020,"right":3200735,"id":"b1e0cb","name":"大内山","name_kana":"おおうちやま","lat":34.278152,"lng":136.359284,"prefecture":24,"lines":[11510],"attr":"cool","postal_code":"519-3111","address":"度会郡大紀町大内山","next":[1151022,1151020,1151016,1151017,1151023,1151315,1151018,1151015],"voronoi":{"lat":34.381824,"lng":136.278231,"delta_lat":[0,-47945,-9539,-38964,-21977,81764,2758,21272],"delta_lng":[0,-113037,9935,56028,161495,-48970,-2832,-33085]},"impl":true},
    {"code":1151020,"left":3200737,"id":"5ffd67","name":"梅ヶ谷","name_kana":"うめがだに","lat":34.258098,"lng":136.356555,"prefecture":24,"lines":[11510],"attr":"cool","postal_code":"519-3111","address":"三重県度会郡大紀町大内山1135","next":[1151022,1151019,1151021,1151018],"voronoi":{"lat":34.263399,"lng":136.392652,"delta_lat":[0,21977,-20145,-72378],"delta_lng":[0,-161495,24577,212626]},"impl":true},
    {"code":3200737,"id":"5200f1","name":"高野下","name_kana":"こうやした","lat":34.271635,"lng":135.566359,"prefecture":30,"lines":[32007],"attr":"cool","postal_code":"648-0141","address":"伊都郡九度山町大字椎出８-１","next":[3200741,3200738,3200736,3200742,3200735],"voronoi":{"lat":34.281217,"lng":135.578455,"delta_lat":[0,-2598,-22031,4779,4979],"delta_lng":[0,-22404,8606,29424,11809]},"impl":true},
    {"code":3200735,"id":"b97294","name":"学文路","name_kana":"かむろ","lat":34.296582,"lng":135.579882,"prefecture":30,"lines":[32007],"attr":"eco","postal_code":"648-0043","address":"橋本市学文路３６１-１","next":[1163619,3200736,3200742,3200734,3200737,1163618],"voronoi":{"lat":34.266417,"lng":135.607944,"delta_lat":[0,-72,14871,19065,7311,-5344],"delta_lng":[0,-2053,-27435,-10907,3515,21176]},"impl":true},
    {"code":1163617,"left":1163619,"right":3101516,"id":"bd4eee","name":"橋本(和歌山)","original_name":"橋本","name_kana":"はしもと","lat":34.318158,"lng":135.614767,"prefecture":30,"lines":[11636,32007],"attr":"eco","postal_code":"648-0065","address":"橋本市古佐田１丁目","next":[1163616,3200734,3200732],"voronoi":{"lat":34.293095,"lng":135.630841,"delta_lat":[0,29317,13843],"delta_lng":[0,-31301,21675]},"impl":true},
    {"code":1163619,"left":3200734,"right":1163618,"id":"9d60b7","name":"高野口","name_kana":"こうやぐち","lat":34.307603,"lng":135.556957,"prefecture":30,"lines":[11636],"attr":"eco","postal_code":"649-7205","address":"橋本市高野口町名倉","next":[3200730,3200735,1163618,3200736,3200732,1163620],"voronoi":{"lat":34.367967,"lng":135.536042,"delta_lat":[0,-18839,-1809,-39726,-7311,-8051],"delta_lng":[0,25743,1219,8060,-3515,-21199]},"impl":true},
    {"code":3200734,"left":1163620,"id":"7ea3be","name":"紀伊清水","name_kana":"きいしみず","lat":34.307495,"lng":135.60478,"prefecture":30,"lines":[32007],"attr":"eco","postal_code":"648-0041","address":"橋本市清水５５８-４","next":[3200742,1163618,1163617,3200732,1163616,3200735],"voronoi":{"lat":34.253038,"lng":135.651053,"delta_lat":[0,40057,29317,-167,-19996,-35831],"delta_lng":[0,-20213,-31301,-1894,-5406,15704]},"impl":true},
    {"code":1163620,"id":"c79f62","name":"中飯降","name_kana":"なかいぶり","lat":34.304209,"lng":135.532019,"prefecture":30,"lines":[11636],"attr":"eco","postal_code":"649-7112","address":"伊都郡かつらぎ町大字中飯降","next":[3200727,3200730,1163621,3200729,3200736,1163622,3200738,1163619],"voronoi":{"lat":34.285553,"lng":135.542969,"delta_lat":[0,-5642,71906,32890,-11251,-812,-4678,-75736],"delta_lng":[0,-10042,-27520,-4859,30021,1194,4278,10308]},"impl":true},
    {"code":1163618,"id":"3287f8","name":"紀伊山田","name_kana":"きいやまだ","lat":34.3131,"lng":135.584051,"prefecture":30,"lines":[11636],"attr":"eco","postal_code":"648-0086","address":"橋本市神野々","next":[3200734,1163619,3200732,3200735],"voronoi":{"lat":34.322245,"lng":135.597646,"delta_lat":[0,25074,-39726,-5344],"delta_lng":[0,-34642,8060,21176]},"impl":true},
    {"code":3101516,"left":1151018,"right":3101515,"id":"b73b56","name":"賢島","name_kana":"かしこじま","lat":34.308529,"lng":136.819285,"prefecture":24,"lines":[31015],"attr":"eco","postal_code":"517-0502","address":"志摩市阿児町神明賢島７４７-１７","next":[1151017,1151013,1163910,9950116,1151027,1151014,1151030,1151018,3101515,1150131,1163904,3101511,3101514,1163909,1151021,3101513],"voronoi":{"lat":34.319968,"lng":136.819176,"delta_lat":[0,-1795791,-552169,-557221,1343655,4692,222526,427932,520240,171299,108049,43227,889,41497,17287,5122],"delta_lng":[0,1288395,214677,97315,-1087902,-3774,-169664,-247417,-263920,-35438,-2230,2416,285,18218,78312,106754]},"impl":true},
    {"code":1151018,"id":"213469","name":"伊勢柏崎","name_kana":"いせかしわざき","lat":34.299779,"lng":136.395394,"prefecture":24,"lines":[11510],"attr":"cool","postal_code":"519-2802","address":"度会郡大紀町崎","next":[1151017,1151021,3101516,1151020,1151019],"voronoi":{"lat":34.345162,"lng":136.343682,"delta_lat":[0,-131982,-108049,87721,70546],"delta_lng":[0,265536,2230,-143088,-75708]},"impl":true},
    {"code":3101515,"id":"876041","name":"志摩神明","name_kana":"しましんめい","lat":34.3162,"lng":136.829977,"prefecture":24,"lines":[31015],"attr":"eco","postal_code":"517-0502","address":"志摩市阿児町神明１１５８-３","next":[1150204,1150203,9952014,3101505,1150131,9952016,3101514,3101516,3101506],"voronoi":{"lat":34.33678,"lng":137.17314,"delta_lat":[0,-149958,-276210,-578794,-474671,-332970,1795791,43970,-2113],"delta_lng":[0,119734,209205,268525,208655,128311,-1288395,136507,24220]},"impl":true}
  ]
}