{
  "name":"segment49",
  "root":1140315,
  "east":139.69799,
  "west":137.400288,
  "south":36.642513,
  "north":37.1837,
  "station_size":155,
  "node_list":[
    {"code":1140315,"left":1140507,"right":1134218,"id":"256ba4","name":"新井(新潟)","original_name":"新井","name_kana":"あらい","lat":37.026738,"lng":138.255614,"prefecture":15,"lines":[99424],"attr":"cool","postal_code":"944-0044","address":"妙高市栄町","next":[1140314,1140713,1140715,1140714,1140316],"voronoi":{"lat":37.045688,"lng":138.183228,"delta_lat":[0,-82568,36968,16527,14925],"delta_lng":[0,134175,29626,8977,5161]},"impl":true},
    {"code":1140507,"left":1140932,"right":100909,"id":"0e5228","name":"黒部","name_kana":"くろべ","lat":36.869322,"lng":137.434393,"prefecture":16,"lines":[11405,99425],"attr":"cool","postal_code":"938-0042","address":"黒部市天神新","next":[1140508,9940824,9940826,9940825,9940823],"voronoi":{"lat":36.851688,"lng":137.433623,"delta_lat":[0,34431,1745,-37189,-18469],"delta_lng":[0,-10435,8153,18223,5989]},"impl":true},
    {"code":1140932,"left":1140506,"right":9940507,"id":"9a0e67","name":"白馬大池","name_kana":"はくばおおいけ","lat":36.739918,"lng":137.885531,"prefecture":20,"lines":[11409],"attr":"cool","postal_code":"399-9400","address":"北安曇郡小谷村大字千国","next":[1140935,1141213,1140937,1140931,1140933,1140303,9941203],"voronoi":{"lat":36.798678,"lng":137.766968,"delta_lat":[0,5192,-6020,-126677,-6611,-1286,114602],"delta_lng":[0,38301,17687,192366,-3136,-1082,-243644]},"impl":true},
    {"code":1140506,"left":9941204,"right":9940833,"id":"8507ed","name":"魚津","name_kana":"うおづ","lat":36.82642,"lng":137.405693,"prefecture":16,"lines":[11405,99425],"attr":"eco","postal_code":"937-0067","address":"魚津市釈迦堂","next":[9940821,9940832,9940823,9940828,9940830,9940822,9940829],"voronoi":{"lat":36.805782,"lng":137.470378,"delta_lat":[0,6061,25153,-15831,-38553,2473,1706],"delta_lng":[0,-4400,-53671,-10149,80651,-804,-873]},"impl":true},
    {"code":9941204,"left":9941201,"right":1140930,"id":"d01ec8","name":"欅平","name_kana":"けやきだいら","lat":36.696732,"lng":137.658179,"prefecture":16,"lines":[99412],"attr":"eco","postal_code":"938-0000","address":"黒部市宇奈月町黒部字黒部奥山国有林４１い林小班","next":[1140923,1140925,1140928,1140924,1140922,1140927,9940914,1140929,9941203,1140918],"voronoi":{"lat":36.508679,"lng":137.660069,"delta_lat":[0,41457,42124,15207,62394,20947,44142,-43210,-207061,14103],"delta_lng":[0,32076,30067,8321,20288,4274,6021,-236986,110343,17116]},"impl":true},
    {"code":9941201,"left":9941203,"right":9940838,"id":"044f90","name":"宇奈月","name_kana":"うなづき","lat":36.815038,"lng":137.58586,"prefecture":16,"lines":[99412],"attr":"cool","postal_code":"938-0282","address":"黒部市宇奈月温泉字桃原４８４-１５","next":[9940837,9940835,9940838,9941202,1140513],"voronoi":{"lat":36.745638,"lng":137.564976,"delta_lat":[0,104114,22284,17610,-9499],"delta_lng":[0,29452,21985,22465,24356]},"impl":true},
    {"code":9941203,"left":9941202,"id":"5acb4c","name":"鐘釣","name_kana":"かねつり","lat":36.734378,"lng":137.651315,"prefecture":16,"lines":[99412],"attr":"eco","postal_code":"938-0000","address":"黒部市宇奈月町黒部字黒部奥山国有林４６い林小班","next":[1140937,1140930,9940914,1140931,9941202,9940838,1140929,9941204,1140932],"voronoi":{"lat":36.758586,"lng":137.765427,"delta_lat":[0,-23394,-242,-43210,3436,15721,107903,-20122,-20800],"delta_lng":[0,-4234,-77,-236986,-2520,18863,212175,14319,492]},"impl":true},
    {"code":9941202,"id":"19160e","name":"黒薙","name_kana":"くろなぎ","lat":36.786638,"lng":137.624738,"prefecture":16,"lines":[99412],"attr":"cool","postal_code":"938-0000","address":"黒部市宇奈月町黒部字黒部奥山国有林１０わ林小班","next":[1140513,9940838,1140937,9941203,9941201],"voronoi":{"lat":36.871205,"lng":137.730839,"delta_lat":[0,-52405,-107903,34741,134509],"delta_lng":[0,21809,-212175,24502,98258]},"impl":true},
    {"code":9940838,"id":"7cf1dd","name":"宇奈月温泉","name_kana":"うなづきおんせん","lat":36.815694,"lng":137.583541,"prefecture":16,"lines":[99408],"attr":"cool","postal_code":"938-0282","address":"黒部市宇奈月温泉桃原","next":[9940820,9940837,9941202,9940914,9941203,9941201],"voronoi":{"lat":36.753325,"lng":137.492657,"delta_lat":[0,-42517,-15632,15721,34741,104114],"delta_lng":[0,2683,26271,18863,24502,29452]},"impl":true},
    {"code":1140930,"left":1140929,"right":1140931,"id":"d0fc43","name":"白馬","name_kana":"はくば","lat":36.695922,"lng":137.863819,"prefecture":20,"lines":[11409],"attr":"cool","postal_code":"399-9301","address":"北安曇郡白馬村大字北城四ツ谷","next":[9941203,1140929,1140931,1140926],"voronoi":{"lat":36.644096,"lng":137.92909,"delta_lat":[0,91095,23394,-120376],"delta_lng":[0,-167896,4234,224048]},"impl":true},
    {"code":1140929,"left":1140928,"id":"e1fb02","name":"飯森","name_kana":"いいもり","lat":36.670563,"lng":137.85006,"prefecture":20,"lines":[11409],"attr":"cool","postal_code":"399-9211","address":"北安曇郡白馬村大字神城字飯森","next":[1140928,1140930,1140926,9941204,9941203],"voronoi":{"lat":36.734949,"lng":137.761116,"delta_lat":[0,-44142,-47252,541,91095],"delta_lng":[0,-6021,166972,7022,-167896]},"impl":true},
    {"code":1140928,"id":"969c95","name":"神城","name_kana":"かみしろ","lat":36.658287,"lng":137.846586,"prefecture":20,"lines":[11409],"attr":"cool","postal_code":"399-9211","address":"北安曇郡白馬村大字神城","next":[1140929,9941204,1140926,1140927],"voronoi":{"lat":36.669861,"lng":137.750822,"delta_lat":[0,20947,-47252,-5819],"delta_lng":[0,4274,166972,-36099]},"impl":true},
    {"code":1140931,"id":"b9b335","name":"信濃森上","name_kana":"しなのもりうえ","lat":36.711132,"lng":137.871991,"prefecture":20,"lines":[11409],"attr":"cool","postal_code":"399-9301","address":"北安曇郡白馬村大字北城","next":[1140926,1140932,1140930,9941203,1141213],"voronoi":{"lat":36.777878,"lng":137.76746,"delta_lat":[0,-19292,-120376,-697,25763],"delta_lng":[0,-2032,224048,4331,17297]},"impl":true},
    {"code":9940833,"left":9940832,"right":9940835,"id":"7a7f19","name":"下立口","name_kana":"おりたてぐち","lat":36.859571,"lng":137.532908,"prefecture":16,"lines":[99408],"attr":"cool","postal_code":"938-0861","address":"黒部市宇奈月町下立","next":[9940834,9940832,9940837,1140511],"voronoi":{"lat":36.907107,"lng":137.539096,"delta_lat":[0,-113195,33171,77946],"delta_lng":[0,-32103,23229,17117]},"impl":true},
    {"code":9940832,"left":9940823,"right":9940824,"id":"0b816a","name":"浦山","name_kana":"うらやま","lat":36.8634,"lng":137.519407,"prefecture":16,"lines":[99408],"attr":"cool","postal_code":"938-0862","address":"黒部市宇奈月町浦山","next":[9940831,1140510,9940833,1140506,1140511,9940830,9940837,9940821],"voronoi":{"lat":36.782611,"lng":137.48281,"delta_lat":[0,2473,44261,79057,589,-1884,-113195,-29762],"delta_lng":[0,-804,13078,37229,2249,4535,-32103,-16700]},"impl":true},
    {"code":9940823,"left":9940822,"id":"ff4932","name":"経田","name_kana":"きょうでん","lat":36.848846,"lng":137.416203,"prefecture":16,"lines":[99408],"attr":"heat","postal_code":"937-0001","address":"魚津市浜経田","next":[9940828,9940824,1140508,9940827,9940822,9941513,1140506,9940826,1140507],"voronoi":{"lat":36.830261,"lng":137.457001,"delta_lat":[0,-3901,-14518,25153,64407,1969,-9547,-42136,-19482],"delta_lng":[0,2375,6602,-53671,-133536,-948,52842,102958,21930]},"impl":true},
    {"code":9940822,"id":"a6d2f9","name":"新魚津","name_kana":"しんうおづ","lat":36.82657,"lng":137.405459,"prefecture":16,"lines":[99408],"attr":"heat","postal_code":"937-0067","address":"魚津市釈迦堂","next":[9940823,9941513,9940821,9940817,1140506,9940818],"voronoi":{"lat":36.86284,"lng":137.315562,"delta_lat":[0,30077,8485,-64407,-15831,35586],"delta_lng":[0,-33555,-3235,133536,-10149,-78845]},"impl":true},
    {"code":9940824,"id":"b4b369","name":"電鉄石田","name_kana":"でんてついしだ","lat":36.865928,"lng":137.423194,"prefecture":16,"lines":[99408],"attr":"heat","postal_code":"938-0054","address":"黒部市岡","next":[9940823,1140507,1140508],"voronoi":{"lat":36.893825,"lng":137.330665,"delta_lat":[0,-42136,34431],"delta_lng":[0,102958,-10435]},"impl":true},
    {"code":9940835,"left":9940837,"right":9940834,"id":"56aa90","name":"愛本","name_kana":"あいもと","lat":36.855975,"lng":137.553769,"prefecture":16,"lines":[99408],"attr":"cool","postal_code":"938-0281","address":"黒部市宇奈月町内山","next":[9940834,9940836,9941201,1140512,1140513,1140511,9940837],"voronoi":{"lat":36.867596,"lng":137.60524,"delta_lat":[0,-19056,55417,-1363,-10645,-2303,-17610],"delta_lng":[0,-58820,7757,54247,27486,2967,-22465]},"impl":true},
    {"code":9940837,"left":9940836,"id":"ddf101","name":"音沢","name_kana":"おとざわ","lat":36.840716,"lng":137.559833,"prefecture":16,"lines":[99408],"attr":"cool","postal_code":"938-0000","address":"黒部市宇奈月町大滝","next":[9940821,9941201,9940820,9940838,9940834,9940833,9940832,9940836,9940835],"voronoi":{"lat":36.867596,"lng":137.60524,"delta_lat":[0,-35910,-4602,-33171,-29762,-912,-9914,96427,22284],"delta_lng":[0,-70777,-4241,-23229,-16700,146,2217,101771,21985]},"impl":true},
    {"code":9940836,"id":"967071","name":"内山","name_kana":"うちやま","lat":36.846826,"lng":137.556733,"prefecture":16,"lines":[99408],"attr":"cool","postal_code":"938-0281","address":"黒部市宇奈月町内山","next":[9940835,9940837,9940834],"voronoi":{"lat":36.867596,"lng":137.60524,"delta_lat":[0,-35910,16854],"delta_lng":[0,-70777,11957]},"impl":true},
    {"code":9940834,"id":"aa94b5","name":"下立","name_kana":"おりたて","lat":36.857707,"lng":137.541396,"prefecture":16,"lines":[99408],"attr":"cool","postal_code":"938-0861","address":"黒部市宇奈月町下立","next":[9940833,9940835,1140511,9940837,9940836],"voronoi":{"lat":36.831686,"lng":137.534463,"delta_lat":[0,-4602,77946,-1073,-55417],"delta_lng":[0,-4241,17117,6838,-7757]},"impl":true},
    {"code":9940507,"left":9940505,"right":1140311,"id":"dc3caf","name":"信濃吉田","name_kana":"しなのよしだ","lat":36.667428,"lng":138.220904,"prefecture":20,"lines":[99405],"attr":"cool","postal_code":"381-0043","address":"長野市吉田３-９-１３","next":[9940506,1140307,9940508,1140306],"voronoi":{"lat":36.678353,"lng":138.23141,"delta_lat":[0,28368,-43305,9499],"delta_lng":[0,-23558,9822,13432]},"impl":true},
    {"code":9940505,"left":9940503,"right":9940506,"id":"e3cbe6","name":"本郷(長野)","original_name":"本郷","name_kana":"ほんごう","lat":36.662567,"lng":138.204014,"prefecture":20,"lines":[99405],"attr":"cool","postal_code":"380-0803","address":"長野市三輪３-１５-９","next":[1140306,1140309,9940504,9940506,9940503,9940502],"voronoi":{"lat":36.649876,"lng":138.204159,"delta_lat":[0,3439,80179,-7442,-85174,-2827],"delta_lng":[0,-2687,-29732,15654,29049,391]},"impl":true},
    {"code":9940503,"left":9940502,"right":9940504,"id":"b277a2","name":"権堂","name_kana":"ごんどう","lat":36.653088,"lng":138.19188,"prefecture":20,"lines":[99405],"attr":"cool","postal_code":"380-0833","address":"長野市権堂町２１９９-１０","next":[9940502,9940504,1140304,9940505,100906],"voronoi":{"lat":36.649876,"lng":138.204159,"delta_lat":[0,3439,12575,-10954,-2071],"delta_lng":[0,-2687,-43006,8310,7289]},"impl":true},
    {"code":9940502,"left":100906,"id":"e16299","name":"市役所前(長野)","original_name":"市役所前","name_kana":"しやくしょまえ","lat":36.649141,"lng":138.191488,"prefecture":20,"lines":[99405],"attr":"cool","postal_code":"381-0000","address":"長野市鶴賀字森下１１２０-５","next":[9940503,100906,1140306,9940505],"voronoi":{"lat":36.634649,"lng":138.218585,"delta_lat":[0,18216,-2989,-11825],"delta_lng":[0,-44519,30094,12675]},"impl":true},
    {"code":100906,"id":"194165","name":"長野","name_kana":"ながの","lat":36.643307,"lng":138.189101,"prefecture":20,"lines":[1009,11403,99427,99405],"attr":"cool","postal_code":"380-0921","address":"長野市大字栗田１０３８番地","next":[1140306,9940608,9940502,1140304,9940607,9940503],"voronoi":{"lat":36.634649,"lng":138.218585,"delta_lat":[0,-1637,-13989,-3969,39882,-2071],"delta_lng":[0,1069,-17099,-16728,-19050,7289]},"impl":true},
    {"code":9940504,"id":"31cfb5","name":"善光寺下","name_kana":"ぜんこうじした","lat":36.658673,"lng":138.193513,"prefecture":20,"lines":[99405],"attr":"cool","postal_code":"380-0803","address":"長野市三輪７-９１９-２","next":[9940505,9940503,1140309,1140304,1140311],"voronoi":{"lat":36.733493,"lng":138.171741,"delta_lat":[0,-80179,12575,69512,-1871],"delta_lng":[0,29732,-43006,-62257,75465]},"impl":true},
    {"code":9940506,"left":9940509,"right":9940508,"id":"894e4e","name":"桐原(長野)","original_name":"桐原","name_kana":"きりはら","lat":36.665642,"lng":138.21303,"prefecture":20,"lines":[99405],"attr":"cool","postal_code":"381-0000","address":"長野市古野宮西８２８-２","next":[1140306,9940507,9940505,1140309,1140307],"voronoi":{"lat":36.72216,"lng":138.197394,"delta_lat":[0,3892,-85174,22538,43305],"delta_lng":[0,-9999,29049,1231,-9822]},"impl":true},
    {"code":9940509,"left":1140306,"id":"c3c2a6","name":"附属中学前","name_kana":"ふぞくちゅうがくまえ","lat":36.662488,"lng":138.248298,"prefecture":20,"lines":[99405],"attr":"eco","postal_code":"381-0016","address":"長野市南堀中堰北８３-１","next":[1140306,9940510,1140307,9940508,9940611],"voronoi":{"lat":36.637359,"lng":138.232711,"delta_lat":[0,4496,33371,388,-31487],"delta_lng":[0,459,16715,2222,2986]},"impl":true},
    {"code":1140306,"id":"644734","name":"北長野","name_kana":"きたながの","lat":36.665123,"lng":138.222534,"prefecture":20,"lines":[99427],"attr":"cool","postal_code":"381-0044","address":"長野市中越","next":[9940509,9940505,9940506,100906,9940611,9940508,9940609,9940502,9940608,9940507],"voronoi":{"lat":36.663415,"lng":138.217675,"delta_lat":[0,-22538,-2827,-3402,-1637,44,2239,2064,4496,31060],"delta_lng":[0,-1231,391,1750,1069,2472,8356,2230,459,-2064]},"impl":true},
    {"code":9940508,"id":"f24f61","name":"朝陽","name_kana":"あさひ","lat":36.666326,"lng":138.240635,"prefecture":20,"lines":[99405],"attr":"cool","postal_code":"381-0016","address":"長野市南堀村北１９２-１","next":[1140307,1140306,9940509,9940507],"voronoi":{"lat":36.675226,"lng":138.249885,"delta_lat":[0,-33371,31060,5438],"delta_lng":[0,-16715,-2064,304]},"impl":true},
    {"code":1140311,"left":1140935,"right":1140309,"id":"071a42","name":"黒姫","name_kana":"くろひめ","lat":36.807214,"lng":138.197195,"prefecture":20,"lines":[99427],"attr":"heat","postal_code":"389-1305","address":"上水内郡信濃町柏原","next":[1140936,1140310,1140312,1140934,1140304,1140309,9940504,1140935],"voronoi":{"lat":36.829681,"lng":138.052405,"delta_lat":[0,43386,-38973,-80878,-19685,1871,7606,49384],"delta_lng":[0,5275,171548,-36272,-21282,-75465,-38018,-5575]},"impl":true},
    {"code":1140935,"left":1140934,"right":1140936,"id":"ee81c2","name":"中土","name_kana":"なかつち","lat":36.80558,"lng":137.907879,"prefecture":20,"lines":[11409],"attr":"cool","postal_code":"399-9400","address":"北安曇郡小谷村大字中小谷池原下","next":[1140933,1140932,1140937,1140936,1140934,1140311],"voronoi":{"lat":36.829681,"lng":138.052405,"delta_lat":[0,-8236,-17575,-6020,-8311,2853],"delta_lng":[0,-213333,-33804,17687,50376,179285]},"impl":true},
    {"code":1140934,"left":1140933,"id":"b19e94","name":"南小谷","name_kana":"みなみおたり","lat":36.774604,"lng":137.908372,"prefecture":20,"lines":[11409],"attr":"cool","postal_code":"399-9400","address":"北安曇郡小谷村大字千国","next":[1140303,1140304,1140311,1140933,1140935],"voronoi":{"lat":36.789538,"lng":137.873331,"delta_lat":[0,-100513,15866,38116,49384],"delta_lng":[0,152645,10506,21709,-5575]},"impl":true},
    {"code":1140933,"id":"38aec6","name":"千国","name_kana":"ちくに","lat":36.763249,"lng":137.900895,"prefecture":20,"lines":[11409],"attr":"cool","postal_code":"399-9400","address":"北安曇郡小谷村大字千国","next":[1140935,1140303,1140932,1140934],"voronoi":{"lat":36.671173,"lng":138.015321,"delta_lat":[0,126677,-8311,-100513],"delta_lng":[0,-192366,50376,152645]},"impl":true},
    {"code":1140936,"id":"a04015","name":"北小谷","name_kana":"きたおたり","lat":36.842567,"lng":137.906451,"prefecture":20,"lines":[11409],"attr":"cool","postal_code":"399-9601","address":"北安曇郡小谷村大字北小谷","next":[1140312,1140519,1140311,1140939,1140938,1140518,1140935,1140937],"voronoi":{"lat":36.927084,"lng":137.957635,"delta_lat":[0,18037,-1988,-7511,-62555,-43386,-8236,101483],"delta_lng":[0,56903,13849,23231,6062,-5275,-213333,110110]},"impl":true},
    {"code":1140309,"left":1140307,"right":1140310,"id":"2ba998","name":"牟礼","name_kana":"むれ","lat":36.753239,"lng":138.247121,"prefecture":20,"lines":[99427],"attr":"heat","postal_code":"389-1212","address":"上水内郡飯綱町豊野","next":[9940505,1140706,1140310,1140308,1140307,1140705,1140708,9940506,9940504,1140707,1140311],"voronoi":{"lat":36.73353,"lng":138.171675,"delta_lat":[0,-37,-7442,-3892,-2054,18965,13952,6014,12380,18621,-36822],"delta_lng":[0,66,15654,9999,44954,29552,9141,2206,-121,-3848,-86321]},"impl":true},
    {"code":1140307,"id":"c640cc","name":"三才","name_kana":"さんさい","lat":36.686674,"lng":138.244079,"prefecture":20,"lines":[99427],"attr":"eco","postal_code":"381-0081","address":"長野市三才","next":[9940510,9940508,1140308,9940509,1140309,9940507,9940506],"voronoi":{"lat":36.678353,"lng":138.23141,"delta_lat":[0,-3127,388,10468,34024,2054,-15439],"delta_lng":[0,18475,2222,17084,-26844,-44954,10459]},"impl":true},
    {"code":1140310,"id":"2dd8cf","name":"古間","name_kana":"ふるま","lat":36.792295,"lng":138.230461,"prefecture":20,"lines":[99427],"attr":"heat","postal_code":"389-1312","address":"上水内郡信濃町富濃","next":[1140309,1140708,1140709,1140311,1140312],"voronoi":{"lat":36.834093,"lng":138.229228,"delta_lat":[0,-80878,36822,30575,26010],"delta_lng":[0,-36272,86321,7665,-3638]},"impl":true},
    {"code":100909,"left":1140508,"right":1140519,"id":"6c0a71","name":"糸魚川","name_kana":"いといがわ","lat":37.043631,"lng":137.861311,"prefecture":15,"lines":[1009,11405,11409,99423],"attr":"cool","postal_code":"941-0061","address":"糸魚川市大町１丁目","next":[1140517,9941807,1140941,1140518,1140515],"voronoi":{"lat":37.936799,"lng":137.53732,"delta_lat":[0,40655,-714351,-231592,1028],"delta_lng":[0,7836,276301,67486,-60311]},"impl":true},
    {"code":1140508,"left":9940841,"right":1140513,"id":"7c2ce9","name":"生地","name_kana":"いくじ","lat":36.906031,"lng":137.426534,"prefecture":16,"lines":[11405,99425],"attr":"cool","postal_code":"938-0005","address":"黒部市吉田","next":[1140507,1141919,9940826,9940823,9940824,9940825,9940827,9941513,1140509],"voronoi":{"lat":37.174451,"lng":137.254392,"delta_lat":[0,-172627,-98453,-9547,-7705,1745,7892,6382,449],"delta_lng":[0,-50657,74089,52842,92523,8153,14329,8209,427]},"impl":true},
    {"code":9940841,"left":9940826,"right":9940829,"id":"d51a56","name":"新黒部","name_kana":"しんくろべ","lat":36.87316273,"lng":137.4801774,"prefecture":16,"lines":[99408],"attr":"heat","postal_code":"938-0802","address":"富山県黒部市若栗2787番地","open_date":"2015-03-14","next":[100910,9940828,9940829],"voronoi":{"lat":36.827429,"lng":137.472962,"delta_lat":[0,51062,-7030],"delta_lng":[0,2806,7058]},"impl":true},
    {"code":9940826,"left":9940828,"right":9940827,"id":"c8dee7","name":"東三日市","name_kana":"ひがしみっかいち","lat":36.874677,"lng":137.450908,"prefecture":16,"lines":[99408],"attr":"heat","postal_code":"938-0031","address":"黒部市三日市","next":[1140508,9940825,1140507,9940827,9940823],"voronoi":{"lat":36.832206,"lng":137.455553,"delta_lat":[0,18469,45081,6382,-71877],"delta_lng":[0,-5989,-3894,8209,3122]},"impl":true},
    {"code":9940828,"left":9940825,"id":"0c711c","name":"長屋","name_kana":"ながや","lat":36.873678,"lng":137.470803,"prefecture":16,"lines":[99408],"attr":"heat","postal_code":"938-0000","address":"黒部市長屋","next":[9940823,9940829,9940841,1140506,1140509,100910,9940827],"voronoi":{"lat":36.826361,"lng":137.459376,"delta_lat":[0,-14518,-6061,21648,51062,25380,-1303],"delta_lng":[0,6602,4400,2584,2806,-1048,-6396]},"impl":true},
    {"code":9940825,"id":"348f83","name":"電鉄黒部","name_kana":"でんてつくろべ","lat":36.874091,"lng":137.444125,"prefecture":16,"lines":[99408],"attr":"heat","postal_code":"938-0031","address":"黒部市三日市","next":[9940826,1140507,1140508],"voronoi":{"lat":36.850676,"lng":137.449565,"delta_lat":[0,37189,7892],"delta_lng":[0,-18223,14329]},"impl":true},
    {"code":9940827,"id":"3cb796","name":"荻生","name_kana":"おぎゅう","lat":36.875038,"lng":137.459221,"prefecture":16,"lines":[99408],"attr":"heat","postal_code":"938-0801","address":"黒部市荻生","next":[9940823,9940826,1140509,1140508,9940828],"voronoi":{"lat":36.902588,"lng":137.454306,"delta_lat":[0,-449,-71877,-3901,76208],"delta_lng":[0,-427,3122,2375,8948]},"impl":true},
    {"code":9940829,"left":9940831,"right":100910,"id":"e6801a","name":"舌山","name_kana":"したやま","lat":36.87187,"lng":137.485948,"prefecture":16,"lines":[99408],"attr":"cool","postal_code":"938-0802","address":"黒部市若栗","next":[9940830,9940828,100910,1140506,9940841],"voronoi":{"lat":36.827429,"lng":137.472962,"delta_lat":[0,-21648,-18991,103224,-18553],"delta_lng":[0,-2584,10754,10270,-8576]},"impl":true},
    {"code":9940831,"left":9940830,"id":"4e025c","name":"栃屋","name_kana":"とちや","lat":36.869788,"lng":137.505842,"prefecture":16,"lines":[99408],"attr":"cool","postal_code":"938-0864","address":"黒部市宇奈月町栃屋","next":[9940832,1140510,9940830],"voronoi":{"lat":36.829345,"lng":137.495083,"delta_lat":[0,79057,-2777],"delta_lng":[0,37229,-29021]},"impl":true},
    {"code":9940830,"id":"dbf50b","name":"若栗","name_kana":"わかぐり","lat":36.871151,"lng":137.493175,"prefecture":16,"lines":[99408],"attr":"cool","postal_code":"938-0802","address":"黒部市若栗","next":[100910,9940829,1140510,9940831,9940832,1140506],"voronoi":{"lat":36.786791,"lng":137.481133,"delta_lat":[0,103224,16267,-656,-76280,-44261],"delta_lng":[0,10270,3983,7906,-8208,-13078]},"impl":true},
    {"code":100910,"id":"e42936","name":"黒部宇奈月温泉","name_kana":"くろべうなづきおんせん","lat":36.874104,"lng":137.481115,"prefecture":16,"lines":[1009],"attr":"heat","postal_code":"938-0000","address":"富山県黒部市荻生","next":[9940830,9940841,1140509,9940829,9940828,1140510],"voronoi":{"lat":36.908571,"lng":137.486786,"delta_lat":[0,-4699,-25380,-7030,18553,16267],"delta_lng":[0,-12065,1048,7058,8576,3983]},"impl":true},
    {"code":1140513,"left":1140511,"right":1140941,"id":"78203a","name":"市振","name_kana":"いちぶり","lat":36.980448,"lng":137.650373,"prefecture":15,"lines":[11405,99423,99425],"attr":"cool","postal_code":"949-0111","address":"糸魚川市市振","next":[1140512,1140937,9941202,1140514,9940835,9941201],"voronoi":{"lat":36.871205,"lng":137.730839,"delta_lat":[0,270,539299,-518825,-2303,-9499],"delta_lng":[0,117,-162101,67055,2967,24356]},"impl":true},
    {"code":1140511,"left":1140510,"right":1140512,"id":"abe18f","name":"泊(富山)","original_name":"泊","name_kana":"とまり","lat":36.951897,"lng":137.556179,"prefecture":16,"lines":[11405,99425],"attr":"eco","postal_code":"939-0744","address":"下新川郡朝日町平柳","next":[9940834,1140512,1140510,9940832,9940833,9940835],"voronoi":{"lat":37.127908,"lng":137.493974,"delta_lat":[0,-218916,-1884,-2078,-1073,-1363],"delta_lng":[0,40587,4535,8243,6838,54247]},"impl":true},
    {"code":1140510,"left":1140509,"id":"afe7ca","name":"入善","name_kana":"にゅうぜん","lat":36.941296,"lng":137.499,"prefecture":16,"lines":[11405,99425],"attr":"eco","postal_code":"939-0626","address":"下新川郡入善町入膳","next":[1140509,1140512,9940831,9940832,9940830,9941807,1140511,100910],"voronoi":{"lat":36.905625,"lng":137.503291,"delta_lat":[0,2777,589,218916,336345,-71331,-484351,-2289],"delta_lng":[0,29021,2249,-40587,-109076,-34407,136294,8600]},"impl":true},
    {"code":1140509,"id":"f62f81","name":"西入善","name_kana":"にしにゅうぜん","lat":36.930124,"lng":137.459298,"prefecture":16,"lines":[11405,99425],"attr":"eco","postal_code":"939-0663","address":"下新川郡入善町下飯野","next":[1140510,9941807,100910,1141919,9940827,9940828,1140508],"voronoi":{"lat":37.174451,"lng":137.254392,"delta_lat":[0,68091,150379,-484351,-4699,-1303,19],"delta_lng":[0,15342,80758,136294,-12065,-6396,-14018]},"impl":true},
    {"code":1140512,"id":"170c07","name":"越中宮崎","name_kana":"えっちゅうみやざき","lat":36.973863,"lng":137.599423,"prefecture":16,"lines":[11405,99425],"attr":"eco","postal_code":"939-0703","address":"下新川郡朝日町宮崎","next":[1140513,1140510,1140511,1140514,9941807,9940835],"voronoi":{"lat":36.902593,"lng":137.608424,"delta_lat":[0,225314,336345,283802,-337281,-518825],"delta_lng":[0,-114450,-109076,103808,80149,67055]},"impl":true},
    {"code":1140941,"left":1140938,"right":1140515,"id":"ee7997","name":"姫川(新潟)","original_name":"姫川","name_kana":"ひめかわ","lat":37.020339,"lng":137.860914,"prefecture":15,"lines":[11409],"attr":"cool","postal_code":"941-0071","address":"糸魚川市大字大野","next":[1140940,1140515,100909,1140517,1140939],"voronoi":{"lat":37.031379,"lng":137.889049,"delta_lat":[0,131,1028,-43276,1335],"delta_lng":[0,-106,-60311,-1412,11564]},"impl":true},
    {"code":1140938,"left":1140514,"id":"205729","name":"小滝","name_kana":"こたき","lat":36.938155,"lng":137.85945,"prefecture":15,"lines":[11409],"attr":"eco","postal_code":"949-0462","address":"糸魚川市大字小滝","next":[1140515,1140936,1140937,1140939,1140514],"voronoi":{"lat":36.966807,"lng":137.809696,"delta_lat":[0,-39723,-4156,-23002,48165],"delta_lng":[0,147939,-8453,-191464,27254]},"impl":true},
    {"code":1140514,"id":"21ca49","name":"親不知","name_kana":"おやしらず","lat":37.006818,"lng":137.738104,"prefecture":15,"lines":[11405,99423],"attr":"cool","postal_code":"949-0307","address":"糸魚川市歌","next":[1140515,9941807,1140513,1140937,1140512,1140938],"voronoi":{"lat":36.899926,"lng":137.757719,"delta_lat":[0,-28451,539299,337281,146220,-946184],"delta_lng":[0,-26762,-162101,-80149,38804,257462]},"impl":true},
    {"code":1140515,"id":"01b9ff","name":"青海(新潟)","original_name":"青海","name_kana":"おうみ","lat":37.022469,"lng":137.795622,"prefecture":15,"lines":[11405,99423],"attr":"cool","postal_code":"949-0305","address":"糸魚川市青海","next":[9941807,1140514,1140941,1140938,1140939,100909],"voronoi":{"lat":36.989262,"lng":137.827219,"delta_lat":[0,-22456,-18716,946184,42524,-904260],"delta_lng":[0,-17523,-24724,-257462,9809,291312]},"impl":true},
    {"code":1140519,"left":1140518,"right":1140320,"id":"0aadc2","name":"能生","name_kana":"のう","lat":37.096049,"lng":137.988405,"prefecture":15,"lines":[11405,99423],"attr":"heat","postal_code":"949-1352","address":"糸魚川市能生","next":[1140518,1140936,1140313,1140521,1140312,1140314,1140520],"voronoi":{"lat":37.284579,"lng":137.94954,"delta_lat":[0,634239,-975685,-7511,5493,36751,510],"delta_lng":[0,-363779,442627,23231,5500,25169,222]},"impl":true},
    {"code":1140518,"left":1140940,"right":1140314,"id":"0dace8","name":"浦本","name_kana":"うらもと","lat":37.073935,"lng":137.939659,"prefecture":15,"lines":[11405,99423],"attr":"cool","postal_code":"941-0001","address":"糸魚川市大字間脇","next":[1140519,1140940,9941807,1140521,1140936,1140939,100909,1140517],"voronoi":{"lat":37.263102,"lng":137.821457,"delta_lat":[0,714351,13467,-72103,-975685,1988,27120,8347],"delta_lng":[0,-276301,2004,38601,442627,-13849,-40092,-8421]},"impl":true},
    {"code":1140940,"left":1140939,"right":1140517,"id":"a74688","name":"頸城大野","name_kana":"くびきおおの","lat":37.006124,"lng":137.872447,"prefecture":15,"lines":[11409],"attr":"cool","postal_code":"941-0071","address":"糸魚川市大字大野","next":[1140517,1140941,1140518,1140939],"voronoi":{"lat":36.990598,"lng":137.838783,"delta_lat":[0,40782,-50792,-8347],"delta_lng":[0,50265,76977,8421]},"impl":true},
    {"code":1140939,"left":1140937,"id":"225562","name":"根知","name_kana":"ねち","lat":36.966683,"lng":137.86711,"prefecture":15,"lines":[11409],"attr":"eco","postal_code":"949-0536","address":"糸魚川市大字根小屋","next":[1140936,1140515,1140940,1140518,1140941,1140938],"voronoi":{"lat":36.94512,"lng":138.014539,"delta_lat":[0,27120,18357,-1335,-22456,-39723],"delta_lng":[0,-40092,-135663,-11564,-17523,147939]},"impl":true},
    {"code":1140937,"id":"f736ab","name":"平岩","name_kana":"ひらいわ","lat":36.88688,"lng":137.86561,"prefecture":15,"lines":[11409],"attr":"eco","postal_code":"949-0464","address":"糸魚川市大字大所字平岩","next":[1140513,9941203,1140935,1140514,1140932,1140938,9941202,1140936],"voronoi":{"lat":36.821445,"lng":137.839072,"delta_lat":[0,-17575,-5192,20122,52405,270,28451,23002],"delta_lng":[0,-33804,-38301,-14319,-21809,117,26762,191464]},"impl":true},
    {"code":1140517,"id":"dd08fc","name":"梶屋敷","name_kana":"かじやしき","lat":37.056577,"lng":137.905738,"prefecture":15,"lines":[11405,99423],"attr":"cool","postal_code":"941-0008","address":"糸魚川市大字田伏","next":[100909,1140940,1140941,1140518],"voronoi":{"lat":37.263102,"lng":137.821457,"delta_lat":[0,-231592,-131,-50792],"delta_lng":[0,67486,106,76977]},"impl":true},
    {"code":1140314,"left":1140313,"right":100908,"id":"4df71e","name":"二本木","name_kana":"にほんぎ","lat":36.989608,"lng":138.232765,"prefecture":15,"lines":[99424],"attr":"cool","postal_code":"949-2301","address":"上越市中郷区板橋","next":[1140315,100908,1140313,1140520,1140713,1140316,1140519,1140318],"voronoi":{"lat":37.046643,"lng":138.180801,"delta_lat":[0,-955,-82568,-11084,25830,510,73964,-1522],"delta_lng":[0,2426,134175,-5047,-230068,222,59286,15968]},"impl":true},
    {"code":1140313,"left":1140312,"id":"a44730","name":"関山","name_kana":"せきやま","lat":36.933048,"lng":138.226415,"prefecture":15,"lines":[99424],"attr":"cool","postal_code":"949-2141","address":"妙高市関山","next":[1140711,1140519,1140314,1140713,1140712,1140312],"voronoi":{"lat":36.910362,"lng":138.302883,"delta_lat":[0,24633,17041,25830,-36751,-55244],"delta_lng":[0,7796,1676,-230068,-25169,232531]},"impl":true},
    {"code":1140312,"id":"9a4d78","name":"妙高高原","name_kana":"みょうこうこうげん","lat":36.872175,"lng":138.211953,"prefecture":15,"lines":[99427,99424],"attr":"cool","postal_code":"949-2106","address":"妙高市田口","next":[1140936,100907,1140711,1140311,1140310,1140313,1140519,1140709],"voronoi":{"lat":36.881846,"lng":138.289296,"delta_lat":[0,4025,55244,-5493,-62555,-38973,12529,435],"delta_lng":[0,354,-232531,-5500,6062,171548,54076,200]},"impl":true},
    {"code":100908,"id":"64b8a9","name":"上越妙高","name_kana":"じょうえつみょうこう","lat":37.081813,"lng":138.249476,"prefecture":15,"lines":[1009,99424],"attr":"cool","postal_code":"943-0863","address":"上越市大字脇野田","next":[1140314,1140319,1140318,9940210,1140316],"voronoi":{"lat":37.116292,"lng":138.325371,"delta_lat":[0,-7822,-57653,-4175,46633],"delta_lng":[0,-35041,-132566,23038,163626]},"impl":true},
    {"code":1140320,"left":1140523,"right":1140319,"id":"7a4de3","name":"春日山","name_kana":"かすがやま","lat":37.148042,"lng":138.234922,"prefecture":15,"lines":[99424],"attr":"heat","postal_code":"943-0805","address":"上越市大字木田","next":[1140523,1140319,1140402,1140321],"voronoi":{"lat":37.140413,"lng":138.279069,"delta_lat":[0,-17806,46747,-20559],"delta_lng":[0,-82344,10993,62181]},"impl":true},
    {"code":1140523,"left":1140521,"right":1140522,"id":"a569b8","name":"谷浜","name_kana":"たにはま","lat":37.162399,"lng":138.173867,"prefecture":15,"lines":[11405,99423],"attr":"eco","postal_code":"949-1701","address":"上越市大字長浜","next":[1140321,1140522,1140320,1140402,1140319,1140318,1140403],"voronoi":{"lat":37.291986,"lng":138.19364,"delta_lat":[0,-122632,-46747,-19684,-31757,329888,-56074],"delta_lng":[0,14078,-10993,-13625,-30161,8169,20478]},"impl":true},
    {"code":1140521,"left":1140520,"id":"166a93","name":"名立","name_kana":"なだち","lat":37.15584,"lng":138.092649,"prefecture":15,"lines":[11405,99423],"attr":"heat","postal_code":"949-1602","address":"上越市名立区名立大町","next":[1140408,1140823,1140518,1140522,1140519,9941807,1140520,1141001],"voronoi":{"lat":37.762485,"lng":138.011842,"delta_lat":[0,-677753,199846,634239,72103,625682,-39344,-28935],"delta_lng":[0,115516,-177819,-363779,-38601,38011,31847,21271]},"impl":true},
    {"code":1140520,"id":"6cf500","name":"筒石","name_kana":"つついし","lat":37.127473,"lng":138.060768,"prefecture":15,"lines":[11405,99423],"attr":"heat","postal_code":"949-1302","address":"糸魚川市仙納","next":[1140318,1140522,1140314,1140521,1140519],"voronoi":{"lat":37.052339,"lng":138.141796,"delta_lat":[0,1381,31012,199846,-306203],"delta_lng":[0,233,-14670,-177819,132970]},"impl":true},
    {"code":1140522,"id":"af3c4f","name":"有間川","name_kana":"ありまがわ","lat":37.163323,"lng":138.136553,"prefecture":15,"lines":[11405,99423],"attr":"heat","postal_code":"949-1702","address":"上越市大字有間川","next":[1140407,1140403,1140405,1140520,1140523,1140318,1140408,1140521],"voronoi":{"lat":37.762485,"lng":138.011842,"delta_lat":[0,-12337,-252753,-234,-96107,-329888,-17446,31012],"delta_lng":[0,6424,115957,81,26804,-8169,-10911,-14670]},"impl":true},
    {"code":1140319,"left":1140318,"right":1140321,"id":"34e564","name":"高田(新潟)","original_name":"高田","name_kana":"たかだ","lat":37.115226,"lng":138.242018,"prefecture":15,"lines":[99424],"attr":"heat","postal_code":"943-0831","address":"上越市仲町４丁目","next":[100908,1140320,1140523,1140402,1140318,9940210],"voronoi":{"lat":37.124848,"lng":138.320865,"delta_lat":[0,15565,-17806,-19684,5547,7822],"delta_lng":[0,-41795,-82344,-13625,107229,35041]},"impl":true},
    {"code":1140318,"id":"5450ba","name":"南高田","name_kana":"みなみたかだ","lat":37.096766,"lng":138.242973,"prefecture":15,"lines":[99424],"attr":"eco","postal_code":"943-0899","address":"上越市大字下中田","next":[1140520,1140522,100908,1140523,1140314,1140319],"voronoi":{"lat":37.050818,"lng":138.157763,"delta_lat":[0,1522,1381,17446,31757,5547],"delta_lng":[0,-15968,233,10911,30161,107229]},"impl":true},
    {"code":1140321,"id":"54830d","name":"直江津","name_kana":"なおえつ","lat":37.170251,"lng":138.242265,"prefecture":15,"lines":[11404,11405,99423,99424],"attr":"eco","postal_code":"942-0003","address":"上越市東町１丁目","next":[1140523,1140402,1140320],"voronoi":{"lat":37.291986,"lng":138.19364,"delta_lat":[0,-122632,-20559],"delta_lng":[0,14078,62181]},"impl":true},
    {"code":1134218,"left":1140712,"right":1140727,"id":"c6cec2","name":"越後中里","name_kana":"えちごなかざと","lat":36.910398,"lng":138.84846,"prefecture":15,"lines":[11342],"attr":"cool","postal_code":"949-6103","address":"南魚沼郡湯沢町大字土樽","next":[1134219,100508,1134217,1134225,1134224,1134216],"voronoi":{"lat":36.926271,"lng":138.945376,"delta_lat":[0,-55651,25111,80239,0,-6804],"delta_lng":[0,-150508,16258,122269,1702,38889]},"impl":true},
    {"code":1140712,"left":1140705,"right":1134007,"id":"d1f8b5","name":"信濃平","name_kana":"しなのたいら","lat":36.884918,"lng":138.378479,"prefecture":20,"lines":[11407],"attr":"cool","postal_code":"389-2414","address":"飯山市大字常盤","next":[1140713,1140711,9940522,1140313,1140714],"voronoi":{"lat":36.832432,"lng":138.441053,"delta_lat":[0,77930,24633,-64434,-28544],"delta_lng":[0,-138170,7796,141374,37194]},"impl":true},
    {"code":1140705,"left":9940513,"right":100907,"id":"b2f53c","name":"信濃浅野","name_kana":"しなのあさの","lat":36.722011,"lng":138.294784,"prefecture":20,"lines":[11407],"attr":"eco","postal_code":"389-1104","address":"長野市豊野町浅野","next":[1140308,1140309,9940515,1140706],"voronoi":{"lat":36.753022,"lng":138.281041,"delta_lat":[0,-13952,-37218,13200],"delta_lng":[0,-9141,20817,16929]},"impl":true},
    {"code":9940513,"left":9940510,"right":9940516,"id":"a82b87","name":"須坂","name_kana":"すざか","lat":36.656841,"lng":138.304239,"prefecture":20,"lines":[99405,99406],"attr":"heat","postal_code":"382-0000","address":"須坂市須坂宗石１２８８-２","next":[9940514,9940512,9940612,9940517,1133519],"voronoi":{"lat":36.532519,"lng":138.383003,"delta_lat":[0,107800,29470,-13868,-53188],"delta_lng":[0,-84772,-2452,66581,65368]},"impl":true},
    {"code":9940510,"left":9940512,"right":1140308,"id":"b6827e","name":"柳原(長野)","original_name":"柳原","name_kana":"やなぎはら","lat":36.663438,"lng":138.258317,"prefecture":20,"lines":[99405],"attr":"eco","postal_code":"381-0012","address":"長野市柳原西井２１３３-２","next":[1140307,9940509,9940611,9940612,1140308,9940511],"voronoi":{"lat":36.648041,"lng":138.266337,"delta_lat":[0,-3675,-240,31487,10468,-1464],"delta_lng":[0,-4104,-7140,-2986,17084,4280]},"impl":true},
    {"code":9940512,"left":9940511,"id":"bc569c","name":"日野(長野)","original_name":"日野","name_kana":"ひの","lat":36.655621,"lng":138.289574,"prefecture":20,"lines":[99405],"attr":"eco","postal_code":"382-0000","address":"須坂市小山蒔田２５１７-１５","next":[9940612,9940513,9940511,9940514],"voronoi":{"lat":36.674103,"lng":138.290669,"delta_lat":[0,-25194,-8589,29470],"delta_lng":[0,-9240,16801,-2452]},"impl":true},
    {"code":9940511,"id":"ac4d59","name":"村山(長野)","original_name":"村山","name_kana":"むらやま","lat":36.659295,"lng":138.279556,"prefecture":20,"lines":[99405],"attr":"eco","postal_code":"382-0054","address":"須坂市高梨町流３０３-２","next":[9940512,1140308,9940510,9940514,9940612],"voronoi":{"lat":36.674103,"lng":138.290669,"delta_lat":[0,11480,-965,-36576,867],"delta_lng":[0,-7478,-9720,-7134,15092]},"impl":true},
    {"code":1140308,"id":"31a555","name":"豊野","name_kana":"とよの","lat":36.710642,"lng":138.274458,"prefecture":20,"lines":[11407,99427],"attr":"eco","postal_code":"389-1105","address":"長野市豊野町豊野","next":[1140307,1140309,1140705,9940510,9940511,9940515,9940514],"voronoi":{"lat":36.701852,"lng":138.292717,"delta_lat":[0,37218,-18965,-34024,-1464,965,7126],"delta_lng":[0,-20817,-29552,26844,4280,9720,6733]},"impl":true},
    {"code":9940516,"left":9940515,"right":9940517,"id":"79ac75","name":"都住","name_kana":"つすみ","lat":36.704122,"lng":138.322086,"prefecture":20,"lines":[99405],"attr":"heat","postal_code":"381-0208","address":"上高井郡小布施町都住宮上４７２-４","next":[9940517,9940515,1140706,9940514],"voronoi":{"lat":36.685546,"lng":138.326318,"delta_lat":[0,29548,11303,-51090],"delta_lng":[0,-16432,20408,15794]},"impl":true},
    {"code":9940515,"left":9940514,"id":"929871","name":"小布施","name_kana":"おぶせ","lat":36.698942,"lng":138.312771,"prefecture":20,"lines":[99405],"attr":"heat","postal_code":"381-0201","address":"上高井郡小布施町小布施親木１４９７-２","next":[9940516,1140308,1140706,1140705,9940514],"voronoi":{"lat":36.692709,"lng":138.289925,"delta_lat":[0,9144,13200,42,-29548],"delta_lng":[0,2792,16929,241,16432]},"impl":true},
    {"code":9940514,"id":"fcdfb4","name":"北須坂","name_kana":"きたすざか","lat":36.678283,"lng":138.308705,"prefecture":20,"lines":[99405],"attr":"heat","postal_code":"382-0071","address":"須坂市小河原町北山道北沖２１２９-４","next":[9940513,9940512,1140308,9940511,9940515,9940517,9940516],"voronoi":{"lat":36.685546,"lng":138.326318,"delta_lat":[0,7162,-7126,-11480,-4313,-13868,19386],"delta_lng":[0,-36394,-6733,7478,5109,66581,-16271]},"impl":true},
    {"code":9940517,"id":"32e7a4","name":"桜沢(長野)","original_name":"桜沢","name_kana":"さくらさわ","lat":36.712641,"lng":138.349642,"prefecture":20,"lines":[99405],"attr":"heat","postal_code":"383-0043","address":"中野市三ツ和大日前１４９７-１","next":[1140706,1133519,9940516,9940518,1140707,9940514,9940513,9940524],"voronoi":{"lat":36.602733,"lng":138.427727,"delta_lat":[0,53188,19386,51090,5555,4096,-61178,-65783],"delta_lng":[0,-65368,-16271,-15794,2428,5609,67183,29262]},"impl":true},
    {"code":100907,"left":1140708,"right":9940520,"id":"83b3a3","name":"飯山","name_kana":"いいやま","lat":36.847642,"lng":138.359335,"prefecture":20,"lines":[1009,11407],"attr":"heat","postal_code":"389-2253","address":"飯山市大字飯山","next":[9940522,1140709,9940521,1140711,1140312],"voronoi":{"lat":36.847058,"lng":138.283505,"delta_lat":[0,-31952,321,11639,54780],"delta_lng":[0,120141,809,23190,-138349]},"impl":true},
    {"code":1140708,"left":1140707,"right":1140709,"id":"8b3942","name":"替佐","name_kana":"かえさ","lat":36.768999,"lng":138.323385,"prefecture":20,"lines":[11407],"attr":"heat","postal_code":"389-2101","address":"中野市豊津","next":[1140310,9940520,1140309,1140707,9940519,1140709],"voronoi":{"lat":36.773143,"lng":138.353638,"delta_lat":[0,-17393,15667,18621,30575,-43746],"delta_lng":[0,-10155,-60358,-3848,7665,68041]},"impl":true},
    {"code":1140707,"left":1140706,"id":"1f853e","name":"上今井","name_kana":"かみいまい","lat":36.753947,"lng":138.319478,"prefecture":20,"lines":[11407],"attr":"eco","postal_code":"389-2102","address":"中野市上今井","next":[9940519,1140708,1140309,9940517,1140706,9940518],"voronoi":{"lat":36.755749,"lng":138.343483,"delta_lat":[0,15667,-12380,-27084,4096,2765],"delta_lng":[0,-60358,121,49476,5609,1726]},"impl":true},
    {"code":1140706,"id":"d21fd6","name":"立ヶ花","name_kana":"たてがはな","lat":36.731257,"lng":138.307057,"prefecture":20,"lines":[11407],"attr":"eco","postal_code":"389-1103","address":"長野県長野市豊野町蟹沢","next":[9940517,1140309,9940515,1140707,9940516,1140705],"voronoi":{"lat":36.715095,"lng":138.309886,"delta_lat":[0,11303,5555,27084,-6014,-37970],"delta_lng":[0,20408,2428,-49476,-2206,28605]},"impl":true},
    {"code":1140709,"id":"7f6558","name":"蓮","name_kana":"はちす","lat":36.80888,"lng":138.349026,"prefecture":20,"lines":[11407],"attr":"heat","postal_code":"389-2256","address":"飯山市大字蓮","next":[100907,9940520,1140310,1140312,9940521,1140708],"voronoi":{"lat":36.820613,"lng":138.286942,"delta_lat":[0,26010,435,-31952,-32029,-6210],"delta_lng":[0,-3638,200,120141,-34317,-14345]},"impl":true},
    {"code":9940520,"left":9940519,"right":1140711,"id":"05819a","name":"中野松川","name_kana":"なかのまつかわ","lat":36.750615,"lng":138.374252,"prefecture":20,"lines":[99405],"attr":"heat","postal_code":"383-0013","address":"中野市中野馬場１８４０-３","next":[1140709,1140708,9940519,9940521,9940523,9940518],"voronoi":{"lat":36.734092,"lng":138.378089,"delta_lat":[0,39050,3724,6210,-39855,-15096],"delta_lng":[0,-24450,1345,14345,21405,-440]},"impl":true},
    {"code":9940519,"left":9940518,"id":"e7469d","name":"信州中野","name_kana":"しんしゅうなかの","lat":36.74476,"lng":138.364901,"prefecture":20,"lines":[99405],"attr":"heat","postal_code":"383-0021","address":"中野市西１-１","next":[9940518,1140707,9940520,1140708],"voronoi":{"lat":36.755749,"lng":138.343483,"delta_lat":[0,-16936,-4721,39050],"delta_lng":[0,-3426,38031,-24450]},"impl":true},
    {"code":9940518,"id":"42e79e","name":"延徳","name_kana":"えんとく","lat":36.726973,"lng":138.362693,"prefecture":20,"lines":[99405],"attr":"heat","postal_code":"383-0035","address":"中野市篠井堰向２２９-２","next":[9940519,9940523,9940524,9940517,9940520,1140707],"voronoi":{"lat":36.734092,"lng":138.378089,"delta_lat":[0,-5967,-1049,-52206,61178,2765],"delta_lng":[0,12205,529,14692,-67183,1726]},"impl":true},
    {"code":1140711,"id":"42da0e","name":"北飯山","name_kana":"きたいいやま","lat":36.85883,"lng":138.363765,"prefecture":20,"lines":[11407],"attr":"heat","postal_code":"389-2253","address":"飯山市大字飯山","next":[1140313,1140712,9940522,100907,1140312],"voronoi":{"lat":36.910362,"lng":138.302883,"delta_lat":[0,-77930,-5366,54780,4025],"delta_lng":[0,138170,-13409,-138349,354]},"impl":true},
    {"code":1134007,"left":9931218,"right":1134216,"id":"f0c20f","name":"日光","name_kana":"にっこう","lat":36.7474,"lng":139.62215,"prefecture":9,"lines":[11340],"attr":"eco","postal_code":"321-1413","address":"日光市相生町","next":[2100326,2100904,2100322,2100321,2100325,1134006,2100905],"voronoi":{"lat":36.772565,"lng":139.663105,"delta_lat":[0,-91089,-25620,-2914,-27313,183261,-26916],"delta_lng":[0,-30073,-10615,-3053,-40823,63607,17510]},"impl":true},
    {"code":9931218,"left":1134213,"right":2100325,"id":"71473f","name":"間藤","name_kana":"まとう","lat":36.653507,"lng":139.450078,"prefecture":9,"lines":[99312,11345],"attr":"cool","postal_code":"321-1506","address":"日光市足尾町下間藤","open_date":"1914-11-01","next":[2100321,1134215,9931215,1122729,2100326,9931217,9931216,9934105],"voronoi":{"lat":36.983832,"lng":139.346284,"delta_lat":[0,-14870,-174221,-91839,-52886,-27675,2487,307953],"delta_lng":[0,-50681,-56027,112826,84713,139924,328,-171927]},"impl":true},
    {"code":1134213,"left":1134212,"right":9940524,"id":"d7f9cc","name":"上牧(群馬)","original_name":"上牧","name_kana":"かみもく","lat":36.735616,"lng":138.984533,"prefecture":10,"lines":[11342],"attr":"cool","postal_code":"379-1303","address":"利根郡みなかみ町上牧","next":[1134211,1134212,1134215,1134214,100507],"voronoi":{"lat":36.736376,"lng":139.096164,"delta_lat":[0,28700,3507,-40491,-17372],"delta_lng":[0,52189,-140342,-110662,106280]},"impl":true},
    {"code":1134212,"left":100507,"id":"4f664e","name":"後閑","name_kana":"ごかん","lat":36.679547,"lng":139.000078,"prefecture":10,"lines":[11342],"attr":"cool","postal_code":"379-1305","address":"利根郡みなかみ町後閑","next":[100507,1134213,1133504,1134211,1133503],"voronoi":{"lat":36.61503,"lng":138.96278,"delta_lat":[0,7718,87972,25656,-123070],"delta_lng":[0,-12589,53438,92535,-127825]},"impl":true},
    {"code":100507,"id":"206152","name":"上毛高原","name_kana":"じょうもうこうげん","lat":36.693201,"lng":138.9776,"prefecture":10,"lines":[1005],"attr":"heat","postal_code":"379-1313","address":"群馬県利根郡みなかみ町月夜野１７５６","next":[1134214,1133507,1134212,1133504,1134213,1133506],"voronoi":{"lat":36.65345,"lng":138.90229,"delta_lat":[0,69102,5541,-17372,-87972,6738],"delta_lng":[0,-58722,53780,106280,-53438,-17111]},"impl":true},
    {"code":9940524,"id":"dbde06","name":"湯田中","name_kana":"ゆだなか","lat":36.741659,"lng":138.414877,"prefecture":20,"lines":[99405],"attr":"heat","postal_code":"381-0401","address":"下高井郡山ノ内町平穏字下中道南","next":[9940518,1133518,1133514,1133519,1133517,9940523,9940522,9940517,1140720],"voronoi":{"lat":36.830585,"lng":138.535681,"delta_lat":[0,-63662,-39846,-52206,-65783,12493,35176,1252,129616],"delta_lng":[0,-101039,-43820,14692,29262,24962,54032,1506,95969]},"impl":true},
    {"code":2100325,"left":2100324,"right":2100902,"id":"fedb9e","name":"上今市","name_kana":"かみいまいち","lat":36.727962,"lng":139.681026,"prefecture":9,"lines":[21003],"attr":"eco","postal_code":"321-1261","address":"日光市今市","next":[1134006,2100904,1134007,2100324,2100902],"voronoi":{"lat":36.767646,"lng":139.671722,"delta_lat":[0,4918,-91089,44838,2039],"delta_lng":[0,-8617,-30073,53718,408]},"impl":true},
    {"code":2100324,"left":1134006,"id":"1b14b6","name":"下今市","name_kana":"しもいまいち","lat":36.72563,"lng":139.692666,"prefecture":9,"lines":[21003,21009],"attr":"eco","postal_code":"321-1261","address":"日光市今市","next":[2100903,1134005,1134006,2100325,2100902,2100323],"voronoi":{"lat":36.703716,"lng":139.709025,"delta_lat":[0,22598,2039,3903,-6312,-21428],"delta_lng":[0,-22275,408,34395,10629,-21159]},"impl":true},
    {"code":1134006,"id":"0bec71","name":"今市","name_kana":"いまいち","lat":36.720388,"lng":139.687348,"prefecture":9,"lines":[11340],"attr":"eco","postal_code":"321-1262","address":"日光市平ケ崎","next":[2100325,2100323,2100324,1134007,2100322],"voronoi":{"lat":36.655855,"lng":139.622417,"delta_lat":[0,25620,44838,-22598,-44856],"delta_lng":[0,10615,53718,22275,-78776]},"impl":true},
    {"code":2100902,"id":"2b450f","name":"大谷向","name_kana":"だいやむこう","lat":36.73224,"lng":139.691916,"prefecture":9,"lines":[21009],"attr":"cool","postal_code":"321-1261","address":"日光市今市","next":[2100903,2100904,2100325,2100324],"voronoi":{"lat":36.728353,"lng":139.687158,"delta_lat":[0,39294,-2549,-32842],"delta_lng":[0,-15436,6482,43349]},"impl":true},
    {"code":1134216,"left":9940521,"right":1134214,"id":"ff7f0a","name":"土合","name_kana":"どあい","lat":36.830696,"lng":138.967959,"prefecture":10,"lines":[11342],"attr":"cool","postal_code":"379-1728","address":"利根郡みなかみ町湯桧曽","next":[1134225,1122729,1134217,1134215,1134226,1134218,1134214],"voronoi":{"lat":36.803453,"lng":138.89397,"delta_lat":[0,122818,42895,28705,29553,-33891,-189040],"delta_lng":[0,51405,28610,73681,143372,57494,-290169]},"impl":true},
    {"code":9940521,"left":9940523,"right":1134217,"id":"e3c0fc","name":"信濃竹原","name_kana":"しなのたけはら","lat":36.761045,"lng":138.393672,"prefecture":20,"lines":[99405],"attr":"heat","postal_code":"383-0007","address":"中野市竹原松崎１８１３","next":[9940522,100907,9940520,9940523,1140709],"voronoi":{"lat":36.783077,"lng":138.369328,"delta_lat":[0,-39855,8300,63905,-321],"delta_lng":[0,21405,6787,6934,-809]},"impl":true},
    {"code":9940523,"left":9940522,"id":"66f27b","name":"上条(長野)","original_name":"上条","name_kana":"かみじょう","lat":36.749641,"lng":138.407619,"prefecture":20,"lines":[99405],"attr":"heat","postal_code":"381-0401","address":"下高井郡山ノ内町平穏仁堂下４５９４-２","next":[9940522,9940518,9940521,9940524,9940520],"voronoi":{"lat":36.751521,"lng":138.39752,"delta_lat":[0,15401,-39846,1049,15096],"delta_lng":[0,37122,-43820,-529,440]},"impl":true},
    {"code":9940522,"id":"0b590a","name":"夜間瀬","name_kana":"よませ","lat":36.759998,"lng":138.403322,"prefecture":20,"lines":[99405],"attr":"heat","postal_code":"381-0405","address":"下高井郡山ノ内町夜間瀬下田中島２４９３-２","next":[9940521,9940523,100907,1140714,1140711,1140712,1140720,9940524],"voronoi":{"lat":36.766923,"lng":138.434643,"delta_lat":[0,-15401,63905,11639,5366,9585,-3010,-8422],"delta_lng":[0,-37122,6934,23190,13409,48194,33837,12597]},"impl":true},
    {"code":1134217,"id":"cca662","name":"土樽","name_kana":"つちたる","lat":36.875277,"lng":138.861446,"prefecture":15,"lines":[11342],"attr":"cool","postal_code":"949-6103","address":"南魚沼郡湯沢町大字土樽字古屋敷","next":[1134218,1134216,1133511,100508,1134214,1133507,1133514],"voronoi":{"lat":36.777146,"lng":138.686529,"delta_lat":[0,93475,55651,-122818,-72059,2281,14479],"delta_lng":[0,108338,150508,-51405,-64883,-62719,-44480]},"impl":true},
    {"code":1134214,"left":2100326,"right":1134215,"id":"fe9bac","name":"水上","name_kana":"みなかみ","lat":36.778614,"lng":138.9688,"prefecture":10,"lines":[11342],"attr":"cool","postal_code":"379-1611","address":"利根郡みなかみ町鹿野沢","next":[100507,1133507,1134213,1134217,1134216,1134215],"voronoi":{"lat":36.804493,"lng":138.958363,"delta_lat":[0,-1040,-72059,-8843,5541,40491],"delta_lng":[0,-64393,-64883,14481,53780,110662]},"impl":true},
    {"code":2100326,"id":"56b201","name":"東武日光","name_kana":"とうぶにっこう","lat":36.748233,"lng":139.61975,"prefecture":9,"lines":[21003],"attr":"eco","postal_code":"321-1406","address":"日光市松原町","next":[1134007,9934103,9934105,2100905,9931218,2100321],"voronoi":{"lat":36.808889,"lng":139.642147,"delta_lat":[0,31537,26542,65812,-307953,801],"delta_lng":[0,-19646,-42898,-174163,171927,1173]},"impl":true},
    {"code":1134215,"id":"e4bb12","name":"湯檜曽","name_kana":"ゆびそ","lat":36.802683,"lng":138.986209,"prefecture":10,"lines":[11342],"attr":"cool","postal_code":"379-1728","address":"利根郡みなかみ町湯桧曽","next":[9931218,1122729,9931215,1134213,1134211,1134216,1134214],"voronoi":{"lat":36.765077,"lng":139.148353,"delta_lat":[0,27985,1679,174221,24572,-189040,-35910],"delta_lng":[0,90507,717,56027,-47071,-290169,49647]},"impl":true},
    {"code":1140727,"left":1140722,"right":1134225,"id":"cff203","name":"越後水沢","name_kana":"えちごみずさわ","lat":37.074324,"lng":138.718056,"prefecture":15,"lines":[11407],"attr":"eco","postal_code":"949-8551","address":"十日町市大字馬場","next":[9940206,1140726,1134222,1134221,1140728],"voronoi":{"lat":37.031864,"lng":138.761506,"delta_lat":[0,-15685,93844,2066,-52056],"delta_lng":[0,-15593,-76190,1149,105135]},"impl":true},
    {"code":1140722,"left":1140717,"right":9940206,"id":"6da0a3","name":"足滝","name_kana":"あしだき","lat":36.998958,"lng":138.603625,"prefecture":15,"lines":[11407],"attr":"eco","postal_code":"949-8126","address":"中魚沼郡津南町大字上郷寺石","next":[9940206,1140723,100508,1140724,1140721],"voronoi":{"lat":37.069076,"lng":138.563396,"delta_lat":[0,-1488,-35690,-205662,-17695],"delta_lng":[0,19334,24537,55802,-5436]},"impl":true},
    {"code":1140717,"left":1140715,"right":1140719,"id":"f2fc4c","name":"西大滝","name_kana":"にしおおたき","lat":36.979169,"lng":138.480872,"prefecture":20,"lines":[11407],"attr":"cool","postal_code":"389-2601","address":"飯山市大字照岡","next":[9940208,1140718,1140714,1140716,1140715,9940207],"voronoi":{"lat":36.859349,"lng":138.51631,"delta_lat":[0,34361,43117,129213,2057,-1550],"delta_lng":[0,-22966,-18054,-18575,9159,9067]},"impl":true},
    {"code":1140715,"left":1140714,"right":1140716,"id":"d60fc7","name":"上桑名川","name_kana":"かみくわながわ","lat":36.962559,"lng":138.441204,"prefecture":20,"lines":[11407],"attr":"cool","postal_code":"389-2601","address":"飯山市大字照岡","next":[1140714,1140316,1140315,1140716,1140717,9940209],"voronoi":{"lat":37.054425,"lng":138.372441,"delta_lat":[0,-22886,-14925,-122905,43117,118592],"delta_lng":[0,-11274,-5161,137339,-18054,-94031]},"impl":true},
    {"code":1140714,"left":1140713,"id":"ceacf7","name":"上境","name_kana":"かみさかい","lat":36.937916,"lng":138.419151,"prefecture":20,"lines":[11407],"attr":"cool","postal_code":"389-2602","address":"飯山市大字一山","next":[1140720,1140715,9940522,1140713,1140717,1140712,1140315,1140718],"voronoi":{"lat":36.839006,"lng":138.523084,"delta_lat":[0,3010,28544,129527,16527,-122905,-34361,-1184],"delta_lng":[0,-33837,-37194,-105025,8977,137339,22966,645]},"impl":true},
    {"code":1140713,"id":"913c7b","name":"戸狩野沢温泉","name_kana":"とがりのざわおんせん","lat":36.916673,"lng":138.392952,"prefecture":20,"lines":[11407],"attr":"cool","postal_code":"389-2413","address":"飯山市大字照里","next":[1140712,1140315,1140714,1140313,1140314],"voronoi":{"lat":36.952036,"lng":138.312356,"delta_lat":[0,-17041,-64434,129527,-36968],"delta_lng":[0,-1676,141374,-105025,-29626]},"impl":true},
    {"code":1140716,"id":"59b72f","name":"桑名川","name_kana":"くわながわ","lat":36.975882,"lng":138.458007,"prefecture":20,"lines":[11407],"attr":"cool","postal_code":"389-2601","address":"飯山市大字照岡","next":[9940209,1140717,1140715,9940208],"voronoi":{"lat":36.936827,"lng":138.47529,"delta_lat":[0,118592,6432,4189],"delta_lng":[0,-94031,30280,45176]},"impl":true},
    {"code":1140719,"left":1140720,"right":1140721,"id":"803423","name":"平滝","name_kana":"ひらたき","lat":36.986041,"lng":138.533723,"prefecture":20,"lines":[11407],"attr":"cool","postal_code":"389-2701","address":"下水内郡栄村大字豊栄","next":[1140718,9940207,1140720,1140721],"voronoi":{"lat":37.070636,"lng":138.549052,"delta_lat":[0,-5570,-134146,82901],"delta_lng":[0,-37085,10705,30817]},"impl":true},
    {"code":1140720,"left":1140718,"id":"0ea390","name":"横倉(長野)","original_name":"横倉","name_kana":"よこくら","lat":36.979875,"lng":138.55031,"prefecture":20,"lines":[11407],"attr":"cool","postal_code":"389-2702","address":"下水内郡栄村大字北信","next":[1140714,1140721,1133514,1140718,1140719,9940522,9940524],"voronoi":{"lat":36.791583,"lng":138.632219,"delta_lat":[0,222238,-82901,-72756,-19158,-8422,-42960],"delta_lng":[0,-78730,-30817,-5717,6129,12597,75564]},"impl":true},
    {"code":1140718,"id":"26a171","name":"信濃白鳥","name_kana":"しなのしらとり","lat":36.983591,"lng":138.50302,"prefecture":20,"lines":[11407],"attr":"cool","postal_code":"389-2701","address":"下水内郡栄村大字豊栄","next":[1140719,1140717,1140720,9940207,1140714],"voronoi":{"lat":36.859349,"lng":138.51631,"delta_lat":[0,207198,-1480,-134146,-72756],"delta_lng":[0,-41369,37026,10705,-5717]},"impl":true},
    {"code":1140721,"id":"939255","name":"森宮野原","name_kana":"もりみやのはら","lat":36.989447,"lng":138.57733,"prefecture":20,"lines":[11407],"attr":"cool","postal_code":"389-2702","address":"下水内郡栄村大字北信","next":[9940207,1140720,9940206,100508,1133514,1140722,1140719],"voronoi":{"lat":37.070636,"lng":138.549052,"delta_lat":[0,1324,-2885,-260535,-14368,-2589,222238],"delta_lng":[0,3077,11266,94237,-3324,-22089,-78730]},"impl":true},
    {"code":9940206,"left":9940208,"right":1140725,"id":"935782","name":"まつだい","name_kana":"まつだい","lat":37.132209,"lng":138.613884,"prefecture":15,"lines":[99402],"attr":"cool","postal_code":"942-1526","address":"十日町市松代","next":[1140725,1140722,1140415,1140731,1140726,1140727,1140414,1140724,1140728,9940207,1140721,1140729],"voronoi":{"lat":37.197843,"lng":138.68397,"delta_lat":[0,32276,6560,-325,-164393,-2885,-1488,9640,28818,3977,2066,45779],"delta_lng":[0,-12847,-58590,-37103,-23301,11266,19334,41191,42025,3778,1149,13759]},"impl":true},
    {"code":9940208,"left":9940207,"right":9940209,"id":"5e4aef","name":"虫川大杉","name_kana":"むしがわおおすぎ","lat":37.154897,"lng":138.441409,"prefecture":15,"lines":[99402],"attr":"cool","postal_code":"942-0305","address":"上越市浦川原区虫川","next":[1140717,9940207,9940209,1140408,1140716,1140407],"voronoi":{"lat":37.230278,"lng":138.444589,"delta_lat":[0,-168428,4189,2057,170845,-1593],"delta_lng":[0,-33050,45176,9159,19807,-25438]},"impl":true},
    {"code":9940207,"left":1140316,"id":"689bb4","name":"ほくほく大島","name_kana":"ほくほくおおしま","lat":37.146997,"lng":138.509551,"prefecture":15,"lines":[99402],"attr":"cool","postal_code":"942-1104","address":"上越市大島区下達","next":[1140719,1140721,9940208,1140411,1140414,1140718,9940206,1140408,1140410,1140409,1140717],"voronoi":{"lat":37.065067,"lng":138.511968,"delta_lat":[0,5570,1324,164393,13729,608,-767,-7385,-3597,-170845,-1550],"delta_lng":[0,37085,3077,23301,-26003,-16472,-6534,-32939,-7801,-19807,9067]},"impl":true},
    {"code":1140316,"id":"e9b20c","name":"北新井","name_kana":"きたあらい","lat":37.05296,"lng":138.257699,"prefecture":15,"lines":[99424],"attr":"cool","postal_code":"944-0008","address":"妙高市柳井田町","next":[9940210,1140715,1140314,100908,1140315,9940209],"voronoi":{"lat":37.031539,"lng":138.361166,"delta_lat":[0,14148,955,46633,-5054,-33796],"delta_lng":[0,-177939,-2426,163626,5742,22271]},"impl":true},
    {"code":9940209,"id":"07ceef","name":"うらがわら","name_kana":"うらがわら","lat":37.159285,"lng":138.419047,"prefecture":15,"lines":[99402],"attr":"eco","postal_code":"942-0314","address":"上越市浦川原区顕聖寺","next":[1140716,9940208,1140316,9940210,1140407,1140715],"voronoi":{"lat":37.061851,"lng":138.411539,"delta_lat":[0,168428,-5349,-136708,-33796,993],"delta_lng":[0,33050,-19133,-75287,22271,8819]},"impl":true},
    {"code":1140725,"left":1140724,"right":1140726,"id":"e5d6f9","name":"越後鹿渡","name_kana":"えちごしかわたり","lat":37.048054,"lng":138.671592,"prefecture":15,"lines":[11407],"attr":"eco","postal_code":"949-8207","address":"中魚沼郡津南町字三箇","next":[9940206,1140726,1140724,100602],"voronoi":{"lat":36.964962,"lng":138.709343,"delta_lat":[0,112266,28818,-139865],"delta_lng":[0,-85423,42025,44325]},"impl":true},
    {"code":1140724,"left":1140723,"id":"6cd72f","name":"津南","name_kana":"つなん","lat":37.023503,"lng":138.639326,"prefecture":15,"lines":[11407],"attr":"eco","postal_code":"949-8206","address":"中魚沼郡津南町大字外丸","next":[1140723,100602,9940206,1140722,1140725],"voronoi":{"lat":37.077228,"lng":138.623921,"delta_lat":[0,-9640,-35690,-68406,1470],"delta_lng":[0,-41191,24537,101410,667]},"impl":true},
    {"code":1140723,"id":"6a152d","name":"越後田中","name_kana":"えちごたなか","lat":37.005316,"lng":138.627058,"prefecture":15,"lines":[11407],"attr":"eco","postal_code":"949-8200","address":"中魚沼郡津南町大字上郷上田","next":[100602,1140724,1140722,100508],"voronoi":{"lat":36.963492,"lng":138.708676,"delta_lat":[0,68406,-205662,33804],"delta_lng":[0,-101410,55802,12899]},"impl":true},
    {"code":1140726,"id":"52f156","name":"越後田沢","name_kana":"えちごたざわ","lat":37.055387,"lng":138.694731,"prefecture":15,"lines":[11407],"attr":"eco","postal_code":"949-8407","address":"十日町市田中","next":[100602,9940206,1140725,1134221,1140727],"voronoi":{"lat":37.110022,"lng":138.669724,"delta_lat":[0,-3977,-139865,13305,36693],"delta_lng":[0,-3778,44325,13282,22361]},"impl":true},
    {"code":1134225,"left":1134223,"right":9940203,"id":"761b28","name":"六日町","name_kana":"むいかまち","lat":37.067065,"lng":138.875872,"prefecture":15,"lines":[11342,99402],"attr":"cool","postal_code":"949-6600","address":"南魚沼市六日町","next":[1134216,9940202,1134226,1134218,1134224],"voronoi":{"lat":36.969166,"lng":138.973986,"delta_lat":[0,28705,81421,4862,-108184],"delta_lng":[0,73681,-132470,-80915,100815]},"impl":true},
    {"code":1134223,"left":1134221,"right":9934106,"id":"607ce8","name":"上越国際スキー場前","name_kana":"じょうえつこくさいすきーじょうまえ","lat":37.028755,"lng":138.827973,"prefecture":15,"lines":[11342],"attr":"cool","postal_code":"949-6431","address":"南魚沼市樺野沢１１１-５","next":[1134222,1134224,9940203,1140728],"voronoi":{"lat":37.064456,"lng":138.779683,"delta_lat":[0,-77959,93822,-9757],"delta_lng":[0,88747,-58371,-26116]},"impl":true},
    {"code":1134221,"left":100508,"right":1134222,"id":"746e74","name":"石打","name_kana":"いしうち","lat":36.988663,"lng":138.804221,"prefecture":15,"lines":[11342],"attr":"cool","postal_code":"949-6373","address":"南魚沼市上野","next":[1134219,1140726,100602,1134222,1140727],"voronoi":{"lat":37.016179,"lng":138.745913,"delta_lat":[0,-36693,-14258,13462,53174],"delta_lng":[0,-22361,114440,24663,-101149]},"impl":true},
    {"code":100508,"left":100602,"id":"61e081","name":"越後湯沢","name_kana":"えちごゆざわ","lat":36.935799,"lng":138.809227,"prefecture":15,"lines":[1005,1006,11342],"attr":"cool","postal_code":"949-6101","address":"南魚沼郡湯沢町大字湯沢","next":[1134218,100602,1140722,1133514,1134217,1140721,1140723,1134219],"voronoi":{"lat":36.860039,"lng":138.675968,"delta_lat":[0,-33804,-17695,-14368,-17027,93475,25111,69276],"delta_lng":[0,-12899,-5436,-3324,32221,108338,16258,26721]},"impl":true},
    {"code":100602,"id":"8efad8","name":"ガーラ湯沢","name_kana":"がーらゆざわ","lat":36.950795,"lng":138.799503,"prefecture":15,"lines":[1006],"attr":"cool","postal_code":"949-6101","address":"新潟県南魚沼郡湯沢町大字湯沢","next":[1134219,1140723,100508,1140726,1140724,1134221,1140725],"voronoi":{"lat":36.964962,"lng":138.709343,"delta_lat":[0,-1470,-103452,104968,220,14258,-13305],"delta_lng":[0,-667,-32709,161879,146,-114440,-13282]},"impl":true},
    {"code":1134222,"id":"e9a0f2","name":"大沢(新潟)","original_name":"大沢","name_kana":"おおさわ","lat":37.02117,"lng":138.82131,"prefecture":15,"lines":[11342],"attr":"cool","postal_code":"949-6361","address":"南魚沼市大沢","next":[1134223,1140727,1134221,1140728,1134224,1134219],"voronoi":{"lat":36.978689,"lng":138.862655,"delta_lat":[0,53174,28169,4423,-77959,-5902],"delta_lng":[0,-101149,14501,3676,88747,4421]},"impl":true},
    {"code":9934106,"left":9934105,"right":1134224,"id":"45568a","name":"中三依温泉","name_kana":"なかみよりおんせん","lat":36.985843,"lng":139.69614,"prefecture":9,"lines":[99341],"attr":"eco","postal_code":"321-2803","address":"日光市中三依字君山樺地","next":[9934108,9921621,9934107,1122729,9934105],"voronoi":{"lat":37.003656,"lng":139.364061,"delta_lat":[0,59521,-21181,-14715,-79060],"delta_lng":[0,44813,244829,32929,72919]},"impl":true},
    {"code":9934105,"left":1134219,"id":"62d8ce","name":"湯西川温泉","name_kana":"ゆにしがわおんせん","lat":36.929482,"lng":139.68824,"prefecture":9,"lines":[99341],"attr":"eco","postal_code":"321-2603","address":"日光市西川字葛老","next":[9934103,2100326,9934104,9934107,9931218,1122729,9934106],"voronoi":{"lat":37.003656,"lng":139.364061,"delta_lat":[0,-19824,-51051,-65812,15539,61124,4589],"delta_lng":[0,-17777,59156,174163,45459,144507,-10018]},"impl":true},
    {"code":1134219,"id":"b8fea5","name":"岩原スキー場前","name_kana":"いわっぱらすきーじょうまえ","lat":36.924146,"lng":138.839438,"prefecture":15,"lines":[11342],"attr":"cool","postal_code":"949-6100","address":"南魚沼郡湯沢町字中子","next":[100602,1134224,1134218,1134221,100508,1134222],"voronoi":{"lat":36.97597,"lng":138.933395,"delta_lat":[0,-80239,69276,220,13462,1905],"delta_lng":[0,-122269,26721,146,24663,10196]},"impl":true},
    {"code":1134224,"id":"732582","name":"塩沢","name_kana":"しおざわ","lat":37.041463,"lng":138.848399,"prefecture":15,"lines":[11342],"attr":"cool","postal_code":"949-6408","address":"南魚沼市塩沢","next":[1134219,9940202,9940203,1134223,1134225,1134218,1134222],"voronoi":{"lat":36.97597,"lng":138.933395,"delta_lat":[0,0,108184,5403,-9239,-93822,-5902],"delta_lng":[0,1702,-100815,-10112,-14110,58371,4421]},"impl":true},
    {"code":9940203,"left":9940204,"right":1134226,"id":"b3fd22","name":"美佐島","name_kana":"みさしま","lat":37.130996,"lng":138.789774,"prefecture":15,"lines":[99402],"attr":"heat","postal_code":"948-0015","address":"十日町市猿倉","next":[9940202,1140728,1134224,100509,9940204,1140731,1134226,1140729,1134223,1140730],"voronoi":{"lat":37.146786,"lng":138.783693,"delta_lat":[0,-30880,-18835,-26509,9757,9239,71014,2259,11218,-3989],"delta_lng":[0,-12503,-2000,14754,26116,14110,28177,212,-3078,-27448]},"impl":true},
    {"code":9940204,"left":1140729,"right":1140730,"id":"c235d7","name":"しんざ","name_kana":"しんざ","lat":37.139675,"lng":138.768339,"prefecture":15,"lines":[99402],"attr":"heat","postal_code":"948-0012","address":"十日町市新座","next":[1140729,9940203,1140730],"voronoi":{"lat":37.152652,"lng":138.755727,"delta_lat":[0,-36747,30880],"delta_lng":[0,15462,12503]},"impl":true},
    {"code":1140729,"left":1140728,"id":"9e94fe","name":"十日町","name_kana":"とおかまち","lat":37.134562,"lng":138.756188,"prefecture":15,"lines":[11407,99402],"attr":"heat","postal_code":"948-0000","address":"十日町市丑","next":[1140731,1140730,1140728,9940204,9940203,9940206],"voronoi":{"lat":37.197843,"lng":138.68397,"delta_lat":[0,-2365,-42825,-36747,-18835,60797],"delta_lng":[0,6335,65422,15462,-2000,-84558]},"impl":true},
    {"code":1140728,"id":"a666c4","name":"土市","name_kana":"どいち","lat":37.097457,"lng":138.72951,"prefecture":15,"lines":[11407],"attr":"eco","postal_code":"949-8526","address":"十日町市大字新宮","next":[9940203,1140729,9940206,1134223,1134222,1140727],"voronoi":{"lat":37.112089,"lng":138.670872,"delta_lat":[0,45779,-60797,-26509,-6106,-4423],"delta_lng":[0,13759,84558,14754,-4260,-3676]},"impl":true},
    {"code":1140730,"id":"3fa8e5","name":"魚沼中条","name_kana":"うおぬまなかじょう","lat":37.159467,"lng":138.772491,"prefecture":15,"lines":[11407],"attr":"heat","postal_code":"948-0000","address":"十日町市大字中条旭町","next":[1140729,1140731,9940203,9940204],"voronoi":{"lat":37.170059,"lng":138.822032,"delta_lat":[0,25418,-42825,-5867],"delta_lng":[0,-131727,65422,27965]},"impl":true},
    {"code":1134226,"left":9940202,"right":100509,"id":"f84e9c","name":"五日町","name_kana":"いつかまち","lat":37.1199,"lng":138.908346,"prefecture":15,"lines":[11342],"attr":"heat","postal_code":"949-7101","address":"南魚沼市五日町","next":[1134225,100509,9940203,1134216,9940202,1122729,1134228],"voronoi":{"lat":37.0769,"lng":139.135514,"delta_lat":[0,85931,-2259,-81279,-81421,29553,36724],"delta_lng":[0,-282955,-212,62850,132470,143372,-20963]},"impl":true},
    {"code":9940202,"id":"105bad","name":"魚沼丘陵","name_kana":"うおぬまきゅうりょう","lat":37.09614,"lng":138.877619,"prefecture":15,"lines":[99402],"attr":"heat","postal_code":"949-7144","address":"南魚沼市野田","next":[1134225,9940203,1134224,1134226],"voronoi":{"lat":37.160571,"lng":138.852347,"delta_lat":[0,-71014,-5403,-4862],"delta_lng":[0,-28177,10112,80915]},"impl":true},
    {"code":100509,"id":"38f14e","name":"浦佐","name_kana":"うらさ","lat":37.167488,"lng":138.922798,"prefecture":15,"lines":[1005,11342],"attr":"heat","postal_code":"949-7302","address":"南魚沼市浦佐","next":[9940203,1134226,1134231,1140733,1140731,1134228],"voronoi":{"lat":37.203231,"lng":138.881311,"delta_lat":[0,-189,-26338,-2656,-11218,-85931],"delta_lng":[0,-629,-30627,-574,3078,282955]},"impl":true}
  ]
}