{
  "name":"segment60",
  "root":1120912,
  "east":180.0,
  "west":141.02465,
  "south":39.311482,
  "north":40.71309,
  "station_size":144,
  "node_list":[
    {"code":1120912,"left":1121205,"right":1120707,"id":"f4ac51","name":"岩手二日町","name_kana":"いわてふつかまち","lat":39.323441,"lng":141.45606,"prefecture":3,"lines":[11209],"attr":"cool","postal_code":"028-0532","address":"遠野市綾織町下綾織","next":[1120908,1120911,1120913,1120917],"voronoi":{"lat":39.214529,"lng":141.492385,"delta_lat":[0,161351,82334,-242527],"delta_lng":[0,-79132,21500,58120]}},
    {"code":1121205,"left":9920506,"right":9920518,"id":"bc5245","name":"北森","name_kana":"きたもり","lat":39.956786,"lng":141.071647,"prefecture":3,"lines":[11212],"attr":"heat","postal_code":"028-7305","address":"八幡平市松尾","next":[1121206,1121203,1121210,1121204],"voronoi":{"lat":39.920164,"lng":141.063938,"delta_lat":[0,-24731,136294,4020],"delta_lng":[0,-36502,61186,25227]}},
    {"code":9920506,"left":1121302,"right":1123181,"id":"ee5b7d","name":"渋民","name_kana":"しぶたみ","lat":39.83480577,"lng":141.1544895,"prefecture":3,"lines":[99205],"attr":"heat","postal_code":"028-4134","address":"盛岡市玉山区下田字陣場６５番地","next":[1121203,1121304,1121202,1121201,9920505],"voronoi":{"lat":39.829722,"lng":141.06213,"delta_lat":[0,32082,5143,-47271,-11626],"delta_lng":[0,47177,29181,96611,-21433]}},
    {"code":1121302,"left":1120902,"right":9920503,"id":"e14758","name":"上盛岡","name_kana":"かみもりおか","lat":39.71146,"lng":141.147937,"prefecture":3,"lines":[11213],"attr":"heat","postal_code":"020-0015","address":"盛岡市本町通３","next":[100418,9920503,9920502,1123184,1121303],"voronoi":{"lat":39.737291,"lng":141.155147,"delta_lat":[0,-9947,-9997,-17663,522],"delta_lng":[0,-17758,-4602,15444,14028]}},
    {"code":1120902,"left":1123177,"right":1123183,"id":"8fc010","name":"似内","name_kana":"にたない","lat":39.406819,"lng":141.140889,"prefecture":3,"lines":[11209],"attr":"cool","postal_code":"025-0007","address":"花巻市上似内","next":[1123175,1123176,1123177,100417],"voronoi":{"lat":39.418483,"lng":141.117391,"delta_lat":[0,-56500,-3122,74578],"delta_lng":[0,25319,12797,2275]}},
    {"code":1123177,"left":1123175,"right":100418,"id":"3b5508","name":"花巻空港","name_kana":"はなまきくうこう","lat":39.442639,"lng":141.127625,"prefecture":3,"lines":[11231],"attr":"cool","postal_code":"025-0312","address":"花巻市二枚橋","next":[1123178,1121104,100417,1121006,1120902,1123176,1121106],"voronoi":{"lat":39.526448,"lng":140.987481,"delta_lat":[0,-73994,-19015,-14956,51406,28226,6441],"delta_lng":[0,185714,-15414,-40391,-148097,-24215,7086]}},
    {"code":1123175,"left":1123176,"id":"487983","name":"村崎野","name_kana":"むらさきの","lat":39.323027,"lng":141.120442,"prefecture":3,"lines":[11231],"attr":"cool","postal_code":"024-0001","address":"北上市飯豊町字村崎野","next":[1121003,1123176,1121002,100416,100417,1120902,1120905,1120906],"voronoi":{"lat":39.307864,"lng":141.200888,"delta_lat":[0,33715,17283,3122,-9623,-37255,-12696,1218],"delta_lng":[0,-18161,-27220,-12797,-67624,20571,41154,65421]}},
    {"code":1123176,"id":"c20046","name":"花巻","name_kana":"はなまき","lat":39.393182,"lng":141.110458,"prefecture":3,"lines":[11231,11209],"attr":"cool","postal_code":"025-0092","address":"花巻市大通り","next":[1123175,1121006,1121005,1121004,1121003,1120902,1123177],"voronoi":{"lat":39.46989,"lng":140.969293,"delta_lat":[0,-36633,-52019,-24078,-4799,9623,56500],"delta_lng":[0,22228,39162,31288,13114,67624,-25319]}},
    {"code":100418,"id":"2f6f3d","name":"盛岡","name_kana":"もりおか","lat":39.701547,"lng":141.136599,"prefecture":3,"lines":[1004,11231,11211,11213,99205],"attr":"heat","postal_code":"020-0034","address":"盛岡市盛岡駅前通","next":[1121302,1121102,1123183,9920502,1123184],"voronoi":{"lat":39.672532,"lng":141.117938,"delta_lat":[0,-4184,25549,23450,-17663],"delta_lng":[0,-19495,3983,30361,15444]}},
    {"code":1123183,"left":1123182,"right":1123184,"id":"5a0289","name":"岩手飯岡","name_kana":"いわていいおか","lat":39.65373,"lng":141.146861,"prefecture":3,"lines":[11231],"attr":"heat","postal_code":"020-0834","address":"盛岡市永井","next":[1121303,100418,1121102,1123182,1123184,1121307,1121305],"voronoi":{"lat":39.637117,"lng":141.248957,"delta_lat":[0,-6389,37621,4184,-4837,-16503,-6930],"delta_lng":[0,-179668,29154,19495,84683,41849,4556]}},
    {"code":1123182,"left":1123178,"id":"0a22a3","name":"矢幅","name_kana":"やはば","lat":39.613293,"lng":141.148299,"prefecture":3,"lines":[11231],"attr":"heat","postal_code":"028-3614","address":"紫波郡矢巾町大字又兵エ新田","next":[1121104,1121307,1121103,1123183,1123181,1121102],"voronoi":{"lat":39.637117,"lng":141.248957,"delta_lat":[0,-20438,-43619,28673,15660,13335],"delta_lng":[0,3873,-225528,12549,12214,17224]}},
    {"code":1123178,"id":"924187","name":"石鳥谷","name_kana":"いしどりや","lat":39.490919,"lng":141.146861,"prefecture":3,"lines":[11231],"attr":"cool","postal_code":"028-3101","address":"花巻市石鳥谷町好地","next":[1123177,1123181,1121104,100417,1120904,1123179,1123180],"voronoi":{"lat":39.544852,"lng":141.046149,"delta_lat":[0,2925,-21328,-73994,1289,36106,52613],"delta_lng":[0,-34089,-24578,185714,4191,63055,-182614]}},
    {"code":1123184,"id":"e11721","name":"仙北町","name_kana":"せんぼくちょう","lat":39.687919,"lng":141.148814,"prefecture":3,"lines":[11231],"attr":"heat","postal_code":"020-0861","address":"盛岡市仙北２丁目","next":[1121302,1121303,100418,1123183],"voronoi":{"lat":39.672532,"lng":141.117938,"delta_lat":[0,27152,522,-32511],"delta_lng":[0,30293,14028,40362]}},
    {"code":9920503,"left":1121203,"right":9920505,"id":"1dc5a0","name":"厨川","name_kana":"くりやがわ","lat":39.744637,"lng":141.129354,"prefecture":3,"lines":[99205],"attr":"eco","postal_code":"020-0124","address":"盛岡市厨川１丁目１７番地","next":[1121302,1121102,9920505,1121303,9920502,9920504],"voronoi":{"lat":39.794263,"lng":141.078362,"delta_lat":[0,7414,-44734,-29599,9947,13912],"delta_lng":[0,-20128,25870,53284,17758,9488]}},
    {"code":1121203,"left":9920502,"right":1121204,"id":"c064c3","name":"大更","name_kana":"おおぶけ","lat":39.913746,"lng":141.100808,"prefecture":3,"lines":[11212],"attr":"heat","postal_code":"028-7111","address":"八幡平市大更","next":[9920506,1121205,9920505,1121202,1121103,1121206,1121204],"voronoi":{"lat":39.920164,"lng":141.063938,"delta_lat":[0,-24731,-51700,-23446,9434,32082,86968],"delta_lng":[0,-36502,-50418,62808,22304,47177,23186]}},
    {"code":9920502,"left":1121102,"id":"6aff99","name":"青山(岩手)","name_kana":"あおやま","lat":39.725029,"lng":141.118462,"prefecture":3,"lines":[99205],"attr":"eco","postal_code":"020-0133","address":"盛岡市青山２丁目２番４０号","next":[1121302,100418,9920503,1121102],"voronoi":{"lat":39.717348,"lng":141.132787,"delta_lat":[0,9997,29599,-63046],"delta_lng":[0,4602,-53284,18321]}},
    {"code":1121102,"id":"ce2f50","name":"大釜","name_kana":"おおかま","lat":39.711586,"lng":141.072202,"prefecture":3,"lines":[11211],"attr":"heat","postal_code":"020-0731","address":"岩手県滝沢市篠木明法","next":[100418,9920503,9920505,1123183,1123182,1121103,9920502],"voronoi":{"lat":39.756943,"lng":141.084105,"delta_lat":[0,44734,12220,-196505,13335,37621,25549],"delta_lng":[0,-25870,-13836,7666,17224,29154,3983]}},
    {"code":1121204,"id":"1421cb","name":"平館","name_kana":"たいらだて","lat":39.950886,"lng":141.08531,"prefecture":3,"lines":[11212],"attr":"heat","postal_code":"028-7405","address":"八幡平市平舘","next":[9920510,100419,1121202,9920511,1121205,1121210,1121203],"voronoi":{"lat":39.920164,"lng":141.063938,"delta_lat":[0,115583,4335,-16933,-4438,-49023,-20917],"delta_lng":[0,49911,17622,13646,1566,3451,-17641]}},
    {"code":9920505,"left":9920504,"right":1121202,"id":"f99af3","name":"滝沢","name_kana":"たきざわ","lat":39.798953,"lng":141.149362,"prefecture":3,"lines":[99205],"attr":"eco","postal_code":"020-0622","address":"岩手県滝沢市野沢90","next":[1121304,1121203,9920504,1121102,9920503,1121103,9920506],"voronoi":{"lat":39.829722,"lng":141.06213,"delta_lat":[0,-9434,-6390,-12220,-7414,-5121,18907],"delta_lng":[0,-22304,4572,13836,20128,116176,19128]}},
    {"code":9920504,"id":"811e66","name":"巣子","name_kana":"すご","lat":39.783345,"lng":141.148674,"prefecture":3,"lines":[99205],"attr":"eco","postal_code":"020-0611","address":"岩手県滝沢市巣子290-8","open_date":"2016-03-18","next":[1121303,1121304,9920505,9920503],"voronoi":{"lat":39.752421,"lng":141.168245,"delta_lat":[0,36722,5121,-43060],"delta_lng":[0,26294,-116176,86272]}},
    {"code":1121202,"id":"721d12","name":"東大更","name_kana":"ひがしおおぶけ","lat":39.902621,"lng":141.142537,"prefecture":3,"lines":[11212],"attr":"heat","postal_code":"028-7111","address":"八幡平市大更","next":[9920506,1121201,1121203,100419,1121204,9920508],"voronoi":{"lat":39.961332,"lng":141.156596,"delta_lat":[0,8357,-20917,-86968,5143,37328],"delta_lng":[0,-6461,-17641,-23186,29181,34255]}},
    {"code":1123181,"left":1120905,"right":1121305,"id":"98d468","name":"古館","name_kana":"ふるだて","lat":39.580844,"lng":141.154575,"prefecture":3,"lines":[11231],"attr":"heat","postal_code":"028-3301","address":"紫波郡紫波町中島","next":[1123178,1121104,1123182,1121307,1123180],"voronoi":{"lat":39.616679,"lng":141.252829,"delta_lat":[0,-43619,-25283,-2925,44835],"delta_lng":[0,-225528,-15242,34089,216410]}},
    {"code":1120905,"left":1123179,"right":1120907,"id":"182348","name":"土沢","name_kana":"つちざわ","lat":39.383381,"lng":141.232488,"prefecture":3,"lines":[11209],"attr":"cool","postal_code":"028-0114","address":"花巻市東和町土沢","next":[1120907,1120904,1120906,1121307,1123179,1123175,100417],"voronoi":{"lat":39.341579,"lng":141.182727,"delta_lat":[0,-33715,163811,33508,6320,-11084,-140339],"delta_lng":[0,18161,108098,10916,-14269,-23965,-91954]}},
    {"code":1123179,"left":1120904,"right":1123180,"id":"bb08b2","name":"日詰","name_kana":"ひづめ","lat":39.538734,"lng":141.160637,"prefecture":3,"lines":[11231],"attr":"cool","postal_code":"028-3309","address":"紫波郡紫波町北日詰","next":[1121307,1120905,1123178,1120904,1123180],"voronoi":{"lat":39.511503,"lng":141.305632,"delta_lat":[0,-11084,-10569,52613,9512],"delta_lng":[0,-23965,-41226,-182614,223818]}},
    {"code":1120904,"left":100417,"id":"3d9d40","name":"小山田","name_kana":"おやまだ","lat":39.4086,"lng":141.193999,"prefecture":3,"lines":[11209],"attr":"cool","postal_code":"025-0013","address":"花巻市幸田","next":[1123178,1120905,1123179,100417],"voronoi":{"lat":39.453743,"lng":141.177387,"delta_lat":[0,36106,10569,-140339],"delta_lng":[0,63055,41226,-91954]}},
    {"code":100417,"id":"c85451","name":"新花巻","name_kana":"しんはなまき","lat":39.405839,"lng":141.17302,"prefecture":3,"lines":[1004,11209],"attr":"cool","postal_code":"025-0011","address":"花巻市矢沢第１０地割","next":[1123178,1123177,1123175,1120905,1120904,1120902],"voronoi":{"lat":39.452455,"lng":141.173196,"delta_lat":[0,1289,-93664,-18501,17283,74578],"delta_lng":[0,4191,12327,-6987,-27220,2275]}},
    {"code":1123180,"id":"3baf8a","name":"紫波中央","name_kana":"しわちゅうおう","lat":39.5549,"lng":141.15995,"prefecture":3,"lines":[11231],"attr":"heat","postal_code":"028-3305","address":"紫波郡紫波町日詰字中新田３４６番地","next":[1123181,1121307,1123178,1123179],"voronoi":{"lat":39.542463,"lng":141.057827,"delta_lat":[0,2389,44835,-37712],"delta_lng":[0,-11679,216410,19087]}},
    {"code":1120907,"left":1120908,"right":1120906,"id":"3d20f4","name":"岩根橋","name_kana":"いわねばし","lat":39.355264,"lng":141.318795,"prefecture":3,"lines":[11209],"attr":"cool","postal_code":"028-0304","address":"遠野市宮守町下宮守","next":[1120909,100415,1120908,1120905,1121307,1120906],"voronoi":{"lat":39.242525,"lng":141.26627,"delta_lat":[0,-4977,66646,197212,3777,-33508],"delta_lng":[0,8033,53699,26303,-34403,-10916]}},
    {"code":1120908,"id":"7595d4","name":"宮守","name_kana":"みやもり","lat":39.351066,"lng":141.350271,"prefecture":3,"lines":[11209],"attr":"cool","postal_code":"028-0304","address":"遠野市宮守町下宮守","next":[1120907,1120912,1121308,1120911,1121307,1120909,1120913],"voronoi":{"lat":39.458213,"lng":141.434752,"delta_lat":[0,-82334,-23897,-47789,197212,-50,-21560],"delta_lng":[0,-21500,-12566,-72685,26303,13839,70470]}},
    {"code":1120906,"id":"576dda","name":"晴山","name_kana":"はるやま","lat":39.366617,"lng":141.257892,"prefecture":3,"lines":[11209],"attr":"cool","postal_code":"028-0113","address":"花巻市東和町東晴山","next":[1120905,1120907,1123175,100415,100416],"voronoi":{"lat":39.303627,"lng":141.202231,"delta_lat":[0,4236,163811,-229150,10044],"delta_lng":[0,-1344,108098,-42716,-32126]}},
    {"code":1121305,"left":1121201,"right":1121307,"id":"9f5f3e","name":"大志田","name_kana":"おおしだ","closed":true,"lat":39.741806,"lng":141.280843,"prefecture":3,"lines":[11213],"attr":"unknown","postal_code":"020-0801","address":"盛岡市浅岸字大志田","open_date":"1928-09-25","closed_date":"2016-03-26","next":[9920508,1121306,1121201,1121307,1121304,100419,1121303,1123183],"voronoi":{"lat":39.651192,"lng":141.24447,"delta_lat":[0,17405,153240,24144,34003,14696,-226742,-23676],"delta_lng":[0,-4110,4076,29794,73795,50228,-118994,-30233]}},
    {"code":1121201,"left":1121304,"right":9920508,"id":"b307d5","name":"好摩","name_kana":"こうま","lat":39.874037,"lng":141.173685,"prefecture":3,"lines":[11212,99205],"attr":"heat","postal_code":"028-4125","address":"盛岡市玉山区好摩","next":[9920506,1121202,9920508,1121304,1121305],"voronoi":{"lat":39.904274,"lng":141.172744,"delta_lat":[0,-37328,-47271,2162,24144],"delta_lng":[0,-34255,96611,9336,29794]}},
    {"code":1121304,"left":1121303,"id":"84bc67","name":"上米内","name_kana":"かみよない","lat":39.743855,"lng":141.203825,"prefecture":3,"lines":[11213],"attr":"heat","postal_code":"020-0001","address":"盛岡市上米内字中居","next":[9920506,9920505,9920504,1121303,1121201,1121305],"voronoi":{"lat":39.668598,"lng":141.240359,"delta_lat":[0,83823,36722,18907,11626,2162],"delta_lng":[0,-72115,26294,19128,21433,9336]}},
    {"code":1121303,"id":"11afa1","name":"山岸","name_kana":"やまぎし","lat":39.71596,"lng":141.171401,"prefecture":3,"lines":[11213],"attr":"heat","postal_code":"020-0004","address":"盛岡市山岸２","next":[9920504,1123183,1121304,1123184,1121302,9920503,1121305],"voronoi":{"lat":39.667695,"lng":141.202621,"delta_lat":[0,32511,37085,13912,1217,-83823,-17405],"delta_lng":[0,-40362,-7112,9488,3610,72115,4110]}},
    {"code":9920508,"id":"9ef617","name":"岩手川口","name_kana":"いわてかわぐち","lat":39.918696,"lng":141.199337,"prefecture":3,"lines":[99205],"attr":"heat","postal_code":"028-4211","address":"岩手郡岩手町字川口９番地","next":[1121305,1121201,100419,1121202],"voronoi":{"lat":39.845981,"lng":141.274229,"delta_lat":[0,34003,81347,-57057],"delta_lng":[0,73795,-191429,16148]}},
    {"code":1121307,"left":1121308,"right":1121306,"id":"5950b0","name":"区界","name_kana":"くざかい","lat":39.65177,"lng":141.351352,"prefecture":3,"lines":[11213],"attr":"heat","postal_code":"028-2631","address":"岩手県宮古市区界第1地割1009","next":[1123182,1123179,1121308,1120908,1120905,1121305,1120907,1123181,1123180,1121306,1123183],"voronoi":{"lat":39.637117,"lng":141.248957,"delta_lat":[0,-20438,-26992,-37712,-40472,-6320,-3777,-50,192100,-25517,-23676],"delta_lng":[0,3873,9729,19087,23987,14269,34403,13839,35380,-124265,-30233]}},
    {"code":1121308,"id":"356b1c","name":"松草","name_kana":"まつくさ","lat":39.635918,"lng":141.437421,"prefecture":3,"lines":[11213],"attr":"heat","postal_code":"028-2631","address":"岩手県宮古市区界第4地割28","next":[1120913,1121309,1121307,1120908,1120706,1121306],"voronoi":{"lat":39.693455,"lng":141.403524,"delta_lat":[0,-192100,-21560,1351,312029,15079],"delta_lng":[0,-35380,70470,10533,52892,-10564]}},
    {"code":1121306,"id":"c38bd3","name":"浅岸","name_kana":"あさぎし","closed":true,"lat":39.711208,"lng":141.339147,"prefecture":3,"lines":[11213],"attr":"unknown","postal_code":"020-0803","address":"盛岡市新庄字中津川","open_date":"1928-09-25","closed_date":"2016-03-26","next":[9920510,1120706,1121305,1121308,1121307,100419],"voronoi":{"lat":39.918386,"lng":141.462018,"delta_lat":[0,-110132,-114799,-25517,226742,5155],"delta_lng":[0,29456,-87951,-124265,118994,10503]}},
    {"code":9920518,"left":9920602,"right":100421,"id":"f6e35e","name":"目時","name_kana":"めとき","lat":40.351908,"lng":141.289504,"prefecture":2,"lines":[99205,99206],"attr":"heat","postal_code":"039-0113","address":"三戸郡三戸町大字目時字村中１２番地","next":[9920517,9920603,9920602,9920516],"voronoi":{"lat":40.368811,"lng":141.357915,"delta_lat":[0,13144,-67542,3323],"delta_lng":[0,-54840,-182637,136999]}},
    {"code":9920602,"left":9920511,"right":9920408,"id":"e89816","name":"三戸","name_kana":"さんのへ","lat":40.395941,"lng":141.27322,"prefecture":2,"lines":[99206],"attr":"heat","postal_code":"039-0103","address":"三戸郡南部町大字大向","next":[100420,9920603,1121211,1121219,9920516,9920518,9920411,1121212],"voronoi":{"lat":40.309147,"lng":141.08285,"delta_lat":[0,1169,4097,67542,123896,-62084,-35047,-83393],"delta_lng":[0,12233,25355,182637,-74813,-239073,9755,64938]}},
    {"code":9920511,"left":1121210,"right":9920512,"id":"3c12ae","name":"奥中山高原","name_kana":"おくなかやまこうげん","lat":40.066235,"lng":141.22844,"prefecture":3,"lines":[99205],"attr":"heat","postal_code":"028-5133","address":"二戸郡一戸町大字中山字大塚７６番地","next":[9920512,1121204,9920510,1121210],"voronoi":{"lat":40.048399,"lng":141.326838,"delta_lat":[0,-25249,16933,107506],"delta_lng":[0,-181720,-13646,18861]}},
    {"code":1121210,"left":100419,"right":1121211,"id":"4da1d0","name":"荒屋新町","name_kana":"あらやしんまち","lat":40.097682,"lng":141.049196,"prefecture":3,"lines":[11212],"attr":"cool","postal_code":"028-7534","address":"八幡平市荒屋新町","next":[1121209,100420,1121206,9920512,1121205,1121204,9920511,1121211],"voronoi":{"lat":40.090174,"lng":141.032663,"delta_lat":[0,-57910,-537,4020,4335,107506,68718,47252],"delta_lng":[0,42926,13033,25227,17622,18861,-8293,-32354]}},
    {"code":100419,"left":1121206,"id":"515470","name":"いわて沼宮内","name_kana":"いわてぬまくない","lat":39.960155,"lng":141.216955,"prefecture":3,"lines":[1004,99205],"attr":"heat","postal_code":"028-4303","address":"岩手郡岩手町大字江刈内","next":[9920508,1121202,1121204,9920510,1121305,1121306],"voronoi":{"lat":40.018712,"lng":141.146683,"delta_lat":[0,-49023,-8357,-81347,14696,5155],"delta_lng":[0,3451,6461,191429,50228,10503]}},
    {"code":1121206,"id":"ac8f3a","name":"松尾八幡平","name_kana":"まつおはちまんたい","lat":39.969241,"lng":141.043903,"prefecture":3,"lines":[11212],"attr":"heat","postal_code":"028-7305","address":"八幡平市松尾","next":[1121205,1121105,1121210,1121208,1121209,1121207,1121203,1121103],"voronoi":{"lat":39.895433,"lng":141.027436,"delta_lat":[0,136294,537,-1993,-8783,-157204,-18931,-1620],"delta_lng":[0,61186,-13033,-9207,-17411,-146026,52250,21823]}},
    {"code":1121211,"id":"fb17b6","name":"横間","name_kana":"よこま","lat":40.107475,"lng":141.027151,"prefecture":3,"lines":[11212],"attr":"eco","postal_code":"028-7536","address":"八幡平市打田内","next":[1121212,100420,9920602,1121209,1121210],"voronoi":{"lat":40.090174,"lng":141.032663,"delta_lat":[0,11616,223536,-16180,-45588],"delta_lng":[0,-55473,86692,18968,26835]}},
    {"code":9920512,"left":9920510,"right":100420,"id":"888936","name":"小繋","name_kana":"こつなぎ","lat":40.123173,"lng":141.260437,"prefecture":3,"lines":[99205],"attr":"heat","postal_code":"028-5132","address":"二戸郡一戸町大字小繋字西田子３番地","next":[100420,9920511,9920514,9920510,1121210,9920513],"voronoi":{"lat":40.048399,"lng":141.326838,"delta_lat":[0,99190,68718,-6809,-31951,-143232],"delta_lng":[0,-176505,-8293,36144,75094,145018]}},
    {"code":9920510,"id":"770eab","name":"御堂","name_kana":"みどう","lat":40.004412,"lng":141.23703,"prefecture":3,"lines":[99205],"attr":"heat","postal_code":"028-4307","address":"岩手郡岩手町大字五日市４番地","next":[1121306,1121204,9920512,1120706,9920513,100419,9920511],"voronoi":{"lat":40.02315,"lng":141.145118,"delta_lat":[0,-4438,-118876,18551,74125,41803,14084],"delta_lng":[0,1566,262072,53263,34806,-98529,-71458]}},
    {"code":100420,"id":"c953e7","name":"二戸","name_kana":"にのへ","lat":40.25997,"lng":141.286211,"prefecture":3,"lines":[1004,99205],"attr":"cool","postal_code":"028-6103","address":"二戸市石切所","next":[9920512,9920602,1121210,1121211,9920516,9920514],"voronoi":{"lat":40.310315,"lng":141.095084,"delta_lat":[0,-1169,-45588,-47252,-6809,45299],"delta_lng":[0,-12233,26835,32354,36144,201592]}},
    {"code":9920408,"left":9920409,"right":9920406,"id":"6178ce","name":"北里大学前","name_kana":"きたさとだいがくまえ","closed":true,"lat":40.628666,"lng":141.236837,"prefecture":2,"lines":[99204],"attr":"unknown","postal_code":"034-0001","address":"十和田市大字三本木字前谷地","closed_date":"2012-04-01","next":[9920409,1120107,9922011,9920603,9920407,9920604],"voronoi":{"lat":40.68572,"lng":141.232573,"delta_lat":[0,2071,-2025,-169710,1265,12477],"delta_lng":[0,-7727,-1921,29744,3991,20382]}},
    {"code":9920409,"left":9920410,"right":9922011,"id":"5e528f","name":"工業高校前","name_kana":"こうぎょうこうこうまえ","closed":true,"lat":40.627338,"lng":141.22926,"prefecture":2,"lines":[99204],"attr":"unknown","postal_code":"034-0001","address":"十和田市大字三本木字下平２１５","closed_date":"2012-04-01","next":[9920408,9920410,9920603,9922011,9920411],"voronoi":{"lat":40.578944,"lng":141.232671,"delta_lat":[0,103513,3310,-169710,-1681],"delta_lng":[0,-13326,3579,29744,-4741]}},
    {"code":9920410,"left":9920411,"id":"65c62b","name":"ひがし野団地","name_kana":"ひがしのだんち","closed":true,"lat":40.626624,"lng":141.223714,"prefecture":2,"lines":[99204],"attr":"unknown","postal_code":"034-0001","address":"十和田市大字三本木字下平６０","closed_date":"2012-04-01","next":[9920409,9920411,9922011],"voronoi":{"lat":40.578944,"lng":141.232671,"delta_lat":[0,91780,11733],"delta_lng":[0,-27357,14031]}},
    {"code":9920411,"id":"e11098","name":"十和田市","name_kana":"とわだし","closed":true,"lat":40.623747,"lng":141.214062,"prefecture":2,"lines":[99204],"attr":"unknown","postal_code":"034-0012","address":"十和田市東一番町７-２７","closed_date":"2012-04-01","next":[9922011,9920410,1121219,9920603,9920409,9920602],"voronoi":{"lat":40.443766,"lng":140.989189,"delta_lat":[0,52681,174276,-91780,-64568,-8525],"delta_lng":[0,-43690,259815,27357,15256,-19665]}},
    {"code":9922011,"id":"bc9d10","name":"七戸","name_kana":"しちのへ","closed":true,"lat":40.696639,"lng":141.165168,"prefecture":2,"lines":[99220],"attr":"unknown","postal_code":"039-2512","address":"青森県上北郡七戸町字笊田４８−１","open_date":"1962-10-20","closed_date":"2002-08-01","next":[1120118,1120253,9920408,9920411,100422,1121219,1120107,9922010,1120252,9920409,9920410,1120119],"voronoi":{"lat":40.596755,"lng":140.928431,"delta_lat":[0,110168,-13615,-5517,-2025,-3310,-11733,-174276,18924,19595,8963,13821],"delta_lng":[0,228464,65938,2013,-1921,-3579,-14031,-259815,-21137,-9364,-3594,4105]}},
    {"code":9920406,"left":9920407,"right":9920405,"id":"7880b7","name":"三農校前","name_kana":"さんのうこうまえ","closed":true,"lat":40.636861,"lng":141.267245,"prefecture":2,"lines":[99204],"attr":"unknown","postal_code":"039-2372","address":"上北郡六戸町大字折茂字今熊２４７","closed_date":"2012-04-01","next":[9920604,1120107,1120106,9920407,9920405],"voronoi":{"lat":40.678649,"lng":141.271627,"delta_lat":[0,6074,-149,-150430,420],"delta_lng":[0,-13659,-5864,34145,993]}},
    {"code":9920407,"id":"cd518f","name":"高清水","name_kana":"たかしず","closed":true,"lat":40.635,"lng":141.259046,"prefecture":2,"lines":[99204],"attr":"unknown","postal_code":"034-0041","address":"十和田市大字相坂字高清水７７-３","closed_date":"2012-04-01","next":[9920604,1120107,9920406,9920408],"voronoi":{"lat":40.534143,"lng":141.286249,"delta_lat":[0,150430,1147,-155922],"delta_lng":[0,-34145,-19532,44469]}},
    {"code":9920405,"id":"df9aea","name":"古里(青森)","name_kana":"ふるさと","closed":true,"lat":40.63877,"lng":141.28486,"prefecture":2,"lines":[99204],"attr":"unknown","postal_code":"039-2372","address":"上北郡六戸町大字折茂字古里","closed_date":"2012-04-01","next":[9920404,1120106,9920605,9920403,9920604,9920406],"voronoi":{"lat":40.678649,"lng":141.271627,"delta_lat":[0,-3306,-99244,-31516,-3312,-6707],"delta_lng":[0,15825,22978,3677,-6320,-20545]}},
    {"code":100421,"left":9920513,"right":1120105,"id":"614352","name":"八戸","name_kana":"はちのへ","lat":40.5092,"lng":141.431499,"prefecture":2,"lines":[1004,11201,11206,99206],"attr":"eco","postal_code":"039-1101","address":"八戸市尻内町","next":[9920605,9920606,1120603,1120602,1120102,1120103],"voronoi":{"lat":40.535749,"lng":141.367582,"delta_lat":[0,-10465,-70881,13167,67755,7233],"delta_lng":[0,7816,91951,-1629,-24142,-50051]}},
    {"code":9920513,"left":9920517,"right":9920605,"id":"343f15","name":"小鳥谷","name_kana":"こずや","lat":40.171061,"lng":141.307735,"prefecture":3,"lines":[99205],"attr":"heat","postal_code":"028-5221","address":"二戸郡一戸町大字小鳥谷字中屋敷１番地","next":[1120623,9920840,1120625,1120706,9920512,9920510,9920514],"voronoi":{"lat":40.192904,"lng":141.538805,"delta_lat":[0,-92558,-68228,-39606,41803,143232,72456],"delta_lng":[0,3863,-5510,-40333,-98529,-145018,274140]}},
    {"code":9920517,"left":9920514,"right":9920603,"id":"2cbd3c","name":"金田一温泉","name_kana":"きんたいちおんせん","lat":40.323503,"lng":141.303943,"prefecture":3,"lines":[99205],"attr":"cool","postal_code":"028-5711","address":"二戸市金田一字水梨１４番地","next":[1120614,1120616,9920603,9920518,9920514,9920516,9920606,9920604,1120623,1120613,1120612],"voronoi":{"lat":40.280869,"lng":141.524817,"delta_lat":[0,-8585,-3879,-14626,5438,58519,51075,-136,-16463,-64737,-1784],"delta_lng":[0,3170,1001,-1990,-94527,-175034,100478,18969,48213,96905,817]}},
    {"code":9920514,"left":9920516,"id":"3055a3","name":"一戸","name_kana":"いちのへ","lat":40.210092,"lng":141.297419,"prefecture":3,"lines":[99205],"attr":"cool","postal_code":"028-5301","address":"二戸郡一戸町西法寺字稲荷","next":[9920516,9920512,9920517,1120623,100420,9920513],"voronoi":{"lat":40.177546,"lng":141.253277,"delta_lat":[0,31951,45299,4420,-5438,-3776],"delta_lng":[0,-75094,201592,52696,94527,419]}},
    {"code":9920516,"id":"3d6b1c","name":"斗米","name_kana":"とまい","lat":40.285158,"lng":141.291123,"prefecture":3,"lines":[99205],"attr":"cool","postal_code":"028-6104","address":"二戸市米沢字沢内１７６番地","next":[9920514,100420,9920517,9920602,9920518],"voronoi":{"lat":40.314413,"lng":141.120438,"delta_lat":[0,-4097,-55519,4420,58519],"delta_lng":[0,-25355,284692,52696,-175034]}},
    {"code":9920603,"id":"dfed70","name":"諏訪ノ平","name_kana":"すわのたいら","lat":40.414889,"lng":141.304599,"prefecture":2,"lines":[99206],"attr":"heat","postal_code":"039-0101","address":"三戸郡南部町大字玉掛","next":[9920602,9920408,9920604,9920517,9920518,9920411,9920409],"voronoi":{"lat":40.514375,"lng":141.247928,"delta_lat":[0,-8525,-123896,-13144,-136,148647,-1265],"delta_lng":[0,-19665,74813,54840,18969,-120225,-3991]}},
    {"code":9920605,"left":9920604,"right":9920606,"id":"bd0687","name":"苫米地","name_kana":"とまべち","lat":40.466926,"lng":141.374903,"prefecture":2,"lines":[99206],"attr":"heat","postal_code":"039-0802","address":"三戸郡南部町苫米地","next":[9920606,100421,1120104,9920405,9920604,1120103,9920403],"voronoi":{"lat":40.546922,"lng":141.325328,"delta_lat":[0,-11173,-10465,-156590,172576,3312,2230],"delta_lng":[0,42255,7816,42336,-109947,6320,7268]}},
    {"code":9920604,"id":"aaba87","name":"剣吉","name_kana":"けんよし","lat":40.449025,"lng":141.346805,"prefecture":2,"lines":[99206],"attr":"heat","postal_code":"039-0612","address":"三戸郡南部町剣吉","next":[9920407,9920406,9920603,9920606,9920605,9920517,9920408,9920405],"voronoi":{"lat":40.368694,"lng":141.417734,"delta_lat":[0,-16483,16463,148647,12477,4345,420,6707],"delta_lng":[0,7363,-48213,-120225,20382,9208,993,20545]}},
    {"code":9920606,"id":"da03f9","name":"北高岩","name_kana":"きたたかいわ","lat":40.475126,"lng":141.405233,"prefecture":2,"lines":[99206],"attr":"heat","postal_code":"039-1108","address":"八戸市大字上野","next":[9920605,100421,1120603,9920604,9920517,1120612,1120604],"voronoi":{"lat":40.349623,"lng":141.518982,"delta_lat":[0,104780,70881,-156590,-16483,-64737,55391],"delta_lng":[0,-51632,-91951,42336,7363,96905,-207]}},
    {"code":1120105,"left":9920402,"right":1120103,"id":"69a9b3","name":"三沢(青森)","name_kana":"みさわ","lat":40.668498,"lng":141.353638,"prefecture":2,"lines":[11201,99204,99206],"attr":"eco","postal_code":"033-0000","address":"三沢市犬落瀬","next":[1120106,1120306,1120607,9920402,9920403,1120103,1120104,1120304],"voronoi":{"lat":40.965253,"lng":141.705613,"delta_lat":[0,-203899,-62928,-48423,19659,9519,223871,58721],"delta_lng":[0,-140072,-88657,-112586,-37888,-7419,171874,193864]}},
    {"code":9920402,"left":9920403,"right":1120106,"id":"b47024","name":"大曲(青森)","name_kana":"おおまがり","closed":true,"lat":40.648069,"lng":141.343038,"prefecture":2,"lines":[99204],"attr":"unknown","postal_code":"033-0071","address":"上北郡六戸町大字犬落瀬字柳沢９０-２８","closed_date":"2012-04-01","next":[1120105,9920403,1120104],"voronoi":{"lat":40.613229,"lng":141.339393,"delta_lat":[0,56432,-19659],"delta_lng":[0,-12984,37888]}},
    {"code":9920403,"left":9920404,"id":"8780df","name":"柳沢","name_kana":"やなぎさわ","closed":true,"lat":40.642973,"lng":141.320889,"prefecture":2,"lines":[99204],"attr":"unknown","postal_code":"033-0071","address":"上北郡六戸町大字犬落瀬字柳沢","closed_date":"2012-04-01","next":[1120104,1120105,9920402,9920404,1120106,9920405,9920605],"voronoi":{"lat":40.613229,"lng":141.339393,"delta_lat":[0,56432,9519,-1298,-101784,-31516,2230],"delta_lng":[0,-12984,-7419,-4105,-4455,3677,7268]}},
    {"code":9920404,"id":"5b78d1","name":"七百","name_kana":"しちひゃく","closed":true,"lat":40.643631,"lng":141.305855,"prefecture":2,"lines":[99204],"attr":"unknown","postal_code":"033-0071","address":"上北郡六戸町大字犬落瀬字権現沢１４-６６","closed_date":"2012-04-01","next":[9920405,1120106,9920403],"voronoi":{"lat":40.675342,"lng":141.287453,"delta_lat":[0,-99244,101784],"delta_lng":[0,22978,4455]}},
    {"code":1120106,"id":"07661e","name":"小川原","name_kana":"こがわら","lat":40.709893,"lng":141.29972,"prefecture":2,"lines":[11201,99206],"attr":"heat","postal_code":"039-2402","address":"上北郡東北町大浦","next":[1120304,1120107,9920404,1120105,9920405,9920406,9920403],"voronoi":{"lat":40.677882,"lng":141.314885,"delta_lat":[0,-2540,3306,6074,201347,16982,-223871],"delta_lng":[0,-27433,-15825,-13659,133198,99698,-171874]}},
    {"code":1120103,"left":1120102,"right":1120104,"id":"bc8d8c","name":"下田","name_kana":"しもだ","lat":40.591958,"lng":141.407965,"prefecture":2,"lines":[11201,99206],"attr":"eco","postal_code":"039-2124","address":"上北郡おいらせ町境田","next":[1120102,9920605,1120105,1120607,1120104,100421],"voronoi":{"lat":40.707982,"lng":141.543123,"delta_lat":[0,53371,-62928,-151503,-11173,6809],"delta_lng":[0,22417,-88657,-151556,42255,23945]}},
    {"code":1120102,"id":"3abac9","name":"陸奥市川","name_kana":"むついちかわ","lat":40.563235,"lng":141.439308,"prefecture":2,"lines":[11201,99206],"attr":"eco","postal_code":"039-2241","address":"八戸市市川町","next":[1120607,1120605,1120602,1120604,1120103,100421,1120603],"voronoi":{"lat":40.584861,"lng":141.502247,"delta_lat":[0,34531,88591,-165424,-7233,29371,5804],"delta_lng":[0,15590,25287,-151596,50051,46130,5509]}},
    {"code":1120104,"id":"fa8693","name":"向山","name_kana":"むかいやま","lat":40.629544,"lng":141.370392,"prefecture":2,"lines":[11201,99206],"attr":"eco","postal_code":"039-2251","address":"上北郡おいらせ町向山","next":[9920605,9920403,9920402,1120105,1120103],"voronoi":{"lat":40.650003,"lng":141.364297,"delta_lat":[0,-36773,-66417,110,151503],"delta_lng":[0,-24904,-18018,3952,151556]}},
    {"code":1120707,"left":1121317,"right":1120619,"id":"0a35a6","name":"浅内","name_kana":"あさない","closed":true,"lat":39.819482,"lng":141.727016,"prefecture":3,"lines":[11207],"attr":"unknown","postal_code":"028-2231","address":"下閉伊郡岩泉町大字浅内","open_date":"1957-05-16","closed_date":"2014-04-01","next":[1120705,1120703,1120706,1120709,1120708,1120704],"voronoi":{"lat":39.744278,"lng":141.794575,"delta_lat":[0,38789,120771,-133169,-26330,-275],"delta_lng":[0,-16684,-111304,46577,74282,3390]}},
    {"code":1121317,"left":1121309,"right":9920822,"id":"9b6e64","name":"千徳","name_kana":"せんとく","lat":39.632251,"lng":141.9124,"prefecture":3,"lines":[11213],"attr":"eco","postal_code":"027-0043","address":"宮古市大字千徳町","next":[1121316,9920821,9920826,9920825,9920822],"voronoi":{"lat":39.675876,"lng":141.89806,"delta_lat":[0,7337,-94439,16398,23029],"delta_lng":[0,-13259,3730,33029,8767]}},
    {"code":1121309,"left":1121313,"right":1120703,"id":"f3adfb","name":"平津戸","name_kana":"ひらつと","lat":39.623408,"lng":141.511222,"prefecture":3,"lines":[11213],"attr":"heat","postal_code":"028-2633","address":"岩手県宮古市平津戸","next":[1121308,1120706,1121310,1120913,1120914,1121311],"voronoi":{"lat":39.480642,"lng":141.560859,"delta_lat":[0,-4570,5074,312029,-22229,-196702],"delta_lng":[0,-68176,-43537,52892,24459,39501]}},
    {"code":1121313,"left":1121312,"right":9920813,"id":"928f6b","name":"腹帯","name_kana":"はらたい","lat":39.604539,"lng":141.767434,"prefecture":3,"lines":[11213],"attr":"heat","postal_code":"028-2103","address":"宮古市腹帯","next":[1120701,1120920,9920819,9920813,1121312,1120702],"voronoi":{"lat":39.526387,"lng":141.826871,"delta_lat":[0,-66529,-20023,3468,171765,11323],"delta_lng":[0,-29717,-36629,-22934,-14281,53079]}},
    {"code":1121312,"left":1120914,"right":1121311,"id":"0f7552","name":"陸中川井","name_kana":"りくちゅうかわい","lat":39.597397,"lng":141.68153,"prefecture":3,"lines":[11213],"attr":"heat","postal_code":"028-2302","address":"岩手県宮古市川井第5地割102-10","next":[1120914,1120915,1121311,1120702,1120704,1120703,1120920,1121313],"voronoi":{"lat":39.615069,"lng":141.72331,"delta_lat":[0,4470,19513,11818,-184572,-11046,-19503,7555],"delta_lng":[0,-2603,-23056,-28532,-65338,19401,49533,64876]}},
    {"code":1120914,"left":1120913,"id":"ec66ff","name":"遠野","name_kana":"とおの","lat":39.332529,"lng":141.53072,"prefecture":3,"lines":[11209],"attr":"heat","postal_code":"028-0522","address":"遠野市新穀町","next":[1121312,1120913,1120915,1121311,1121309,1120916],"voronoi":{"lat":39.252682,"lng":141.509713,"delta_lat":[0,223391,4570,-14345,-11046,-196387],"delta_lng":[0,-17029,68176,42921,19401,-108098]}},
    {"code":1120913,"id":"6d045a","name":"綾織","name_kana":"あやおり","lat":39.328422,"lng":141.476845,"prefecture":3,"lines":[11209],"attr":"cool","postal_code":"028-0531","address":"遠野市綾織町新里","next":[1120914,1121308,1120917,1121309,1120916,1120912,1120908],"voronoi":{"lat":39.481146,"lng":141.449146,"delta_lat":[0,-5074,-223391,-22276,-14719,242527,21582],"delta_lng":[0,43537,17029,-8944,-7896,-58120,3861]}},
    {"code":1121311,"id":"d1e7c3","name":"箱石","name_kana":"はこいし","lat":39.617115,"lng":141.625829,"prefecture":3,"lines":[11213],"attr":"heat","postal_code":"028-2304","address":"岩手県宮古市箱石","next":[1121312,1120705,1121310,1120914,1120704,1121309],"voronoi":{"lat":39.480642,"lng":141.560859,"delta_lat":[0,-14345,184572,24373,705,-101703],"delta_lng":[0,42921,65338,-17028,-1118,-84974]}},
    {"code":9920813,"left":9920812,"right":1120701,"id":"3f97eb","name":"大槌","name_kana":"おおつち","lat":39.356734,"lng":141.902894,"prefecture":3,"lines":[99208],"attr":"cool","postal_code":"028-1116","address":"上閉伊郡大槌町本町","open_date":"1938-04-05","next":[1120920,9920819,9920812,9920818,1121313,9920814,9920815],"voronoi":{"lat":39.440537,"lng":141.860416,"delta_lat":[0,15805,3517,-20023,-38400,-79736,49990],"delta_lng":[0,-34674,-28588,-36629,15880,159248,-17946]}},
    {"code":9920812,"id":"122e6a","name":"鵜住居","name_kana":"うのすまい","lat":39.32694,"lng":141.887976,"prefecture":3,"lines":[99208],"attr":"cool","postal_code":"026-0301","address":"釜石市鵜住居町","open_date":"1939-09-17","next":[9920814,1120923,9920813,1120920,1120922,9920811],"voronoi":{"lat":39.314542,"lng":141.839373,"delta_lat":[0,33214,14657,39022,-79736,-1298],"delta_lng":[0,-40324,-11943,-10701,159248,1092]}},
    {"code":1120701,"id":"0044bc","name":"茂市","name_kana":"もいち","lat":39.620619,"lng":141.799288,"prefecture":3,"lines":[11207,11213],"attr":"cool","postal_code":"028-2101","address":"宮古市茂市","open_date":"1934-11-06","next":[1121313,1120702,1121315,9920819],"voronoi":{"lat":39.68128,"lng":141.806678,"delta_lat":[0,-54889,-100004,15335],"delta_lng":[0,-30289,50482,10555]}},
    {"code":1120703,"left":1120705,"right":1121316,"id":"5107e6","name":"中里(岩手)","name_kana":"なかさと","closed":true,"lat":39.661836,"lng":141.736067,"prefecture":3,"lines":[11207],"attr":"unknown","postal_code":"028-2104","address":"宮古市刈屋","open_date":"1966-10-01","closed_date":"2014-04-01","next":[1120707,1121315,1120709,1120702,1120704,1121312],"voronoi":{"lat":39.639052,"lng":141.69765,"delta_lat":[0,105012,214,-6094,-3482,-115163],"delta_lng":[0,93186,3739,22163,-1101,-94931]}},
    {"code":1120705,"left":1120704,"right":1120706,"id":"2039bd","name":"押角","name_kana":"おしかど","closed":true,"lat":39.724029,"lng":141.693181,"prefecture":3,"lines":[11207],"attr":"unknown","postal_code":"028-2105","address":"宮古市和井内","open_date":"1944-07-20","closed_date":"2014-04-01","next":[1120707,1120706,1121311,1121310,1120704],"voronoi":{"lat":39.675243,"lng":141.652091,"delta_lat":[0,705,62223,32498,-26330],"delta_lng":[0,-1118,-54189,116381,74282]}},
    {"code":1120704,"left":1121310,"id":"47e1f4","name":"岩手和井内","name_kana":"いわてわいない","closed":true,"lat":39.679905,"lng":141.715705,"prefecture":3,"lines":[11207],"attr":"unknown","postal_code":"028-2105","address":"宮古市和井内","open_date":"1942-06-25","closed_date":"2014-04-01","next":[1121311,1120705,1120707,1121312,1120703],"voronoi":{"lat":39.744338,"lng":141.787447,"delta_lat":[0,-69096,-24373,-11818,105012],"delta_lng":[0,-135356,17028,28532,93186]}},
    {"code":1121310,"id":"774123","name":"川内(岩手)","name_kana":"かわうち","lat":39.640744,"lng":141.597548,"prefecture":3,"lines":[11213],"attr":"heat","postal_code":"028-2513","address":"岩手県宮古市川内第6地割48-3","next":[1121309,1121311,1120705,1120706],"voronoi":{"lat":39.770946,"lng":141.526497,"delta_lat":[0,-196702,101703,62223],"delta_lng":[0,39501,84974,-54189]}},
    {"code":1120706,"id":"6bb58c","name":"岩手大川","name_kana":"いわておおかわ","closed":true,"lat":39.800208,"lng":141.671909,"prefecture":3,"lines":[11207],"attr":"unknown","postal_code":"028-2232","address":"下閉伊郡岩泉町大字大川","open_date":"1957-05-16","closed_date":"2014-04-01","next":[1120707,1120705,1121306,1121309,1120708,1121308,9920513,9920510,9920840,1121310],"voronoi":{"lat":39.770946,"lng":141.526497,"delta_lat":[0,22229,15079,110132,74125,39606,-27260,-101020,-133169,-32498],"delta_lng":[0,-24459,-10564,-29456,34806,40333,79448,49982,46577,-116381]}},
    {"code":1121316,"left":1121315,"right":1120702,"id":"7e04ba","name":"花原市","name_kana":"けばらいち","lat":39.630233,"lng":141.861308,"prefecture":3,"lines":[11213],"attr":"heat","postal_code":"027-0046","address":"宮古市大字花原市","next":[1121315,9920820,9920819,1121317,9920821,9920827,9920826],"voronoi":{"lat":39.683703,"lng":141.884461,"delta_lat":[0,34932,-162815,9861,20710,2384,94439],"delta_lng":[0,-37901,6474,14918,19058,1522,-3730]}},
    {"code":1121315,"id":"27b84a","name":"蟇目","name_kana":"ひきめ","lat":39.629341,"lng":141.838876,"prefecture":3,"lines":[11213],"attr":"heat","postal_code":"028-2102","address":"宮古市蟇目","next":[1120709,1121316,1120701,9920819,1120703,1120702,9920827],"voronoi":{"lat":39.555819,"lng":141.853033,"delta_lat":[0,-14097,139558,53421,3482,2690,-22239],"delta_lng":[0,-15608,-30748,8960,1101,11067,18754]}},
    {"code":1120702,"id":"29226a","name":"岩手刈屋","name_kana":"いわてかりや","closed":true,"lat":39.642688,"lng":141.759296,"prefecture":3,"lines":[11207],"attr":"unknown","postal_code":"028-2104","address":"宮古市刈屋","open_date":"1942-06-25","closed_date":"2014-04-01","next":[1121312,1120701,1121315,1120703,1121313],"voronoi":{"lat":39.68128,"lng":141.806678,"delta_lat":[0,53421,-115163,-4470,11323],"delta_lng":[0,8960,-94931,2603,53079]}},
    {"code":9920822,"left":9920814,"right":9920823,"id":"8610ac","name":"八木沢・宮古短大","name_kana":"やぎさわ・みやこたんだい","lat":39.619304,"lng":141.946409,"prefecture":3,"lines":[99208],"attr":"eco","postal_code":"027-0031","address":"宮古市八木沢第一地割1番3","open_date":"2019-03-23","next":[9920821,1121318,1121317,9920823,9920825],"voronoi":{"lat":39.628202,"lng":141.930327,"delta_lat":[0,-23029,-12979,37595,34],"delta_lng":[0,-8767,55653,-27287,-16272]}},
    {"code":9920814,"left":9920820,"right":9920817,"id":"fac18f","name":"吉里吉里","name_kana":"きりきり","lat":39.36957,"lng":141.938648,"prefecture":3,"lines":[99208],"attr":"cool","postal_code":"028-1101","address":"上閉伊郡大槌町吉里吉里","open_date":"1938-04-05","next":[9920812,9920809,9920811,9920813,9920816,9920815],"voronoi":{"lat":39.371689,"lng":141.917706,"delta_lat":[0,-49990,-1298,-49165,-305480,421563],"delta_lng":[0,17946,1092,61048,717764,-736250]}},
    {"code":9920820,"left":9920815,"right":9920821,"id":"13d0e8","name":"払川","name_kana":"はらいかわ","lat":39.564417,"lng":141.932833,"prefecture":3,"lines":[99208],"attr":"eco","postal_code":"027-0203","address":"宮古市津軽石第13地割336番3","open_date":"2019-03-23","next":[9920819,1121316,9920821,9920818],"voronoi":{"lat":39.586391,"lng":141.887009,"delta_lat":[0,-20710,-38761,9810],"delta_lng":[0,-19058,144351,52969]}},
    {"code":9920815,"left":9920819,"id":"5a4a02","name":"浪板海岸","name_kana":"なみいたかいがん","lat":39.383537,"lng":141.935104,"prefecture":3,"lines":[99208],"attr":"cool","postal_code":"028-1101","address":"上閉伊郡大槌町吉里吉里10","open_date":"1961-12-20","next":[9920818,9920816,9920817,9920814,9920813],"voronoi":{"lat":39.440537,"lng":141.860416,"delta_lat":[0,-6429,-13298,-33490,-15630],"delta_lng":[0,31273,46469,41149,-61600]}},
    {"code":9920819,"id":"1eaa39","name":"豊間根","name_kana":"とよまね","lat":39.534274,"lng":141.924739,"prefecture":3,"lines":[99208],"attr":"eco","postal_code":"028-1302","address":"下閉伊郡山田町豊間根","open_date":"1935-11-17","next":[9920820,9920813,1121315,9920818,1121316,1121313,1120701],"voronoi":{"lat":39.555819,"lng":141.853033,"delta_lat":[0,9861,-38761,-70578,3517,66529,15335],"delta_lng":[0,14918,144351,-186561,-28588,29717,10555]}},
    {"code":9920821,"id":"d2b9ef","name":"津軽石","name_kana":"つがるいし","lat":39.581507,"lng":141.937594,"prefecture":3,"lines":[99208],"attr":"eco","postal_code":"027-0203","address":"宮古市大字津軽石5-60","open_date":"1935-11-17","next":[9920822,9920818,1121316,1121317,9920823,9920820],"voronoi":{"lat":39.586391,"lng":141.887009,"delta_lat":[0,2384,16398,-12979,-52934,-2530],"delta_lng":[0,1522,33029,55653,109480,-21422]}},
    {"code":9920817,"left":9920816,"right":9920818,"id":"c371d7","name":"織笠","name_kana":"おりかさ","lat":39.454055,"lng":141.955284,"prefecture":3,"lines":[99208],"attr":"cool","postal_code":"028-1361","address":"下閉伊郡山田町織笠","open_date":"1936-11-10","next":[9920818,9920816,9920815],"voronoi":{"lat":39.434107,"lng":141.891689,"delta_lat":[0,48329,-61627],"delta_lng":[0,121037,-74568]}},
    {"code":9920816,"id":"540970","name":"岩手船越","name_kana":"いわてふなこし","lat":39.431369,"lng":141.974033,"prefecture":3,"lines":[99208],"attr":"cool","postal_code":"028-1371","address":"下閉伊郡山田町船越","open_date":"1936-11-10","next":[9920818,9920817,9920804,9920829,9920823,9920809,9920815,1110816,1110808,9920814,1110806],"voronoi":{"lat":39.188776,"lng":146.005674,"delta_lat":[0,-3302322,1985983,1093320,421563,33490,61627,56452,71297,49145,-292428],"delta_lng":[0,3508682,-4494737,-2304062,-736250,-41149,74568,80488,1084626,2218370,384277]}},
    {"code":9920818,"id":"03f097","name":"陸中山田","name_kana":"りくちゅうやまだ","lat":39.463449,"lng":141.951533,"prefecture":3,"lines":[99208],"attr":"eco","postal_code":"028-1342","address":"下閉伊郡山田町川向町","open_date":"1935-11-17","next":[9920816,9920821,9920817,9920815,9920819,9920813,9920820,9920823],"voronoi":{"lat":39.539259,"lng":142.086694,"delta_lat":[0,-2530,-9810,-70578,-15805,-6429,48329,56452],"delta_lng":[0,-21422,-52969,-186561,34674,31273,121037,80488]}},
    {"code":9920823,"left":9920826,"right":9920829,"id":"5d2474","name":"磯鶏","name_kana":"そけい","lat":39.629883,"lng":141.960984,"prefecture":3,"lines":[99208],"attr":"eco","postal_code":"027-0024","address":"宮古市磯鶏石崎13","open_date":"1935-11-17","next":[1121318,9920816,9920829,9920828,9920821,9920826,9920822,9920818],"voronoi":{"lat":39.539259,"lng":142.086694,"delta_lat":[0,52934,37595,36374,12842,-853,-67966,-71297],"delta_lng":[0,-109480,-27287,26045,39913,24364,1137591,-1084626]}},
    {"code":9920826,"left":1121318,"right":9920827,"id":"40b59b","name":"一の渡","name_kana":"いちのわたり","lat":39.686895,"lng":141.94264,"prefecture":3,"lines":[99207,99208],"attr":"eco","postal_code":"027-0097","address":"宮古市崎山","next":[1121317,1121318,9920827,9920828,9920823,9920825,1121316],"voronoi":{"lat":39.675876,"lng":141.89806,"delta_lat":[0,-11895,2181,12842,26330,-21632,-489],"delta_lng":[0,51256,26655,39913,-54006,-77418,341]}},
    {"code":1121318,"left":9920825,"id":"805656","name":"宮古","name_kana":"みやこ","lat":39.640287,"lng":141.946454,"prefecture":3,"lines":[11213,99207,99208],"attr":"eco","postal_code":"027-0076","address":"宮古市栄町","open_date":"1934-11-06","next":[9920823,9920822,9920825,9920826],"voronoi":{"lat":39.663981,"lng":141.949317,"delta_lat":[0,-34159,-34,36374],"delta_lng":[0,-15662,16272,26045]}},
    {"code":9920825,"id":"b6b836","name":"山口団地","name_kana":"やまぐちだんち","lat":39.64635,"lng":141.933231,"prefecture":3,"lines":[99207,99208],"attr":"eco","postal_code":"027-0063","address":"岩手県宮古市山口三丁目","open_date":"2010-10-16","next":[1121318,1121317,9920822,9920826],"voronoi":{"lat":39.675876,"lng":141.89806,"delta_lat":[0,-47675,1621,34159],"delta_lng":[0,32267,3327,15662]}},
    {"code":9920827,"id":"dd1c5e","name":"佐羽根","name_kana":"さばね","lat":39.711131,"lng":141.935868,"prefecture":3,"lines":[99207,99208],"attr":"eco","postal_code":"027-0067","address":"宮古市大字田代","next":[1120709,9920830,1121315,9920826,1121316,9920828],"voronoi":{"lat":39.683703,"lng":141.884461,"delta_lat":[0,34932,22239,41828,-13507,-63860],"delta_lng":[0,-37901,-18754,37487,50470,46116]}},
    {"code":9920829,"left":9920828,"right":9920830,"id":"f52e8c","name":"新田老","name_kana":"しんたろう","lat":39.735514,"lng":141.967295,"prefecture":3,"lines":[99208],"attr":"eco","postal_code":"027-0307","address":"岩手県宮古市田老１丁目３-６","next":[9920828,9920816,9920830,9920823,1110806,1111130],"voronoi":{"lat":39.970348,"lng":144.82605,"delta_lat":[0,-201076,-91120,-67966,49145,155888],"delta_lng":[0,-2907761,121959,1137591,2218370,-187020]}},
    {"code":9920828,"id":"03bf08","name":"田老","name_kana":"たろう","lat":39.731848,"lng":141.964556,"prefecture":3,"lines":[99207,99208],"attr":"eco","postal_code":"027-0351","address":"宮古市田老小林","next":[9920829,9920830,9920823,9920826,9920827],"voronoi":{"lat":39.769194,"lng":141.915762,"delta_lat":[0,77,-91120,853,26330],"delta_lng":[0,2527,121959,-24364,-54006]}},
    {"code":9920830,"id":"d13f6c","name":"摂待","name_kana":"せったい","lat":39.809453,"lng":141.962182,"prefecture":3,"lines":[99207,99208],"attr":"eco","postal_code":"027-0384","address":"宮古市田老摂待","next":[9920831,1120709,9920829,9920828,9920827,1111130],"voronoi":{"lat":39.769271,"lng":141.91829,"delta_lat":[0,-77,13507,33497,293811,-139662],"delta_lng":[0,-2527,-50470,6784,2621451,332523]}},
    {"code":1120619,"left":1120611,"right":9920838,"id":"604c28","name":"宿戸","name_kana":"しゅくのへ","lat":40.366129,"lng":141.746683,"prefecture":3,"lines":[11206],"attr":"cool","postal_code":"028-7900","address":"九戸郡洋野町種市第７地割","next":[1120618,1120621,1120620,1120623],"voronoi":{"lat":40.300064,"lng":141.650413,"delta_lat":[0,246873,-227744,-12818],"delta_lng":[0,305122,-237045,-20491]}},
    {"code":1120611,"left":1120616,"right":1120606,"id":"b36f24","name":"大久喜","name_kana":"おおくき","lat":40.495135,"lng":141.622958,"prefecture":2,"lines":[11206],"attr":"cool","postal_code":"031-0841","address":"八戸市大字鮫町","next":[1120307,1120612,1120615,1120610,1120613,1111126,1120614],"voronoi":{"lat":40.611972,"lng":141.767969,"delta_lat":[0,-92403,-80848,738964,83676,-16053,-498193],"delta_lng":[0,-92632,-107406,560041,169461,22867,-429090]}},
    {"code":1120616,"left":1120613,"right":1120618,"id":"0d0b52","name":"平内","name_kana":"ひらない","lat":40.42552,"lng":141.699272,"prefecture":3,"lines":[11206],"attr":"cool","postal_code":"028-7900","address":"九戸郡洋野町種市第３６地割","next":[1120614,9920517,1120618,1120617,1120623,1120615],"voronoi":{"lat":40.324999,"lng":141.619098,"delta_lat":[0,-43274,-13321,3879,80485,325898],"delta_lng":[0,-54442,-35668,-1001,73448,353070]}},
    {"code":1120613,"left":1120615,"right":1120612,"id":"245565","name":"大蛇","name_kana":"おおじゃ","lat":40.467251,"lng":141.650773,"prefecture":2,"lines":[11206],"attr":"cool","postal_code":"039-1201","address":"三戸郡階上町大字道仏","next":[1120612,1120614,1120611,9920517],"voronoi":{"lat":40.28569,"lng":141.522819,"delta_lat":[0,233878,92403,-331103],"delta_lng":[0,152517,92632,-243151]}},
    {"code":1120615,"left":1120614,"id":"5ba0bb","name":"角の浜","name_kana":"かどのはま","lat":40.444478,"lng":141.681773,"prefecture":3,"lines":[11206],"attr":"cool","postal_code":"028-7911","address":"九戸郡洋野町種市第３９地割角浜","next":[1120614,1120611,1120617,1111126,1120616],"voronoi":{"lat":40.352768,"lng":141.601436,"delta_lat":[0,394346,498193,-82500,-484141],"delta_lng":[0,289774,429090,127536,-493330]}},
    {"code":1120614,"id":"ac4420","name":"階上","name_kana":"はしかみ","lat":40.456834,"lng":141.664958,"prefecture":2,"lines":[11206],"attr":"cool","postal_code":"039-1201","address":"三戸郡階上町大字道仏","next":[9920517,1120615,1120616,1120613,1120611],"voronoi":{"lat":40.611972,"lng":141.767969,"delta_lat":[0,-331103,-8585,80485,394346],"delta_lng":[0,-243151,3170,73448,289774]}},
    {"code":1120612,"id":"e51b3f","name":"金浜","name_kana":"かねはま","lat":40.475994,"lng":141.637366,"prefecture":2,"lines":[11206],"attr":"cool","postal_code":"031-0843","address":"八戸市大字金浜字金浜","next":[1120611,1120613,1120604,1120610,9920517,9920606,1120606],"voronoi":{"lat":40.438721,"lng":141.56793,"delta_lat":[0,80848,-233878,1784,55391,50946,31440],"delta_lng":[0,107406,-152517,-817,-207,17113,15122]}},
    {"code":1120618,"left":1120708,"right":1120617,"id":"0791cc","name":"玉川(岩手)","name_kana":"たまがわ","lat":40.380424,"lng":141.735117,"prefecture":3,"lines":[11206],"attr":"cool","postal_code":"028-7900","address":"九戸郡洋野町種市第１３地割","next":[1120617,1120619,1120620,1120616,1120623],"voronoi":{"lat":40.281725,"lng":141.564656,"delta_lat":[0,43274,227146,-5209,-246873],"delta_lng":[0,54442,342233,-5797,-305122]}},
    {"code":1120708,"id":"aa9f56","name":"二升石","name_kana":"にしょういし","closed":true,"lat":39.836739,"lng":141.745741,"prefecture":3,"lines":[11207],"attr":"unknown","postal_code":"027-0507","address":"下閉伊郡岩泉町大字二升石","open_date":"1972-02-06","closed_date":"2014-04-01","next":[9920837,9920840,1120709,1120706,1120707],"voronoi":{"lat":39.903838,"lng":141.666588,"delta_lat":[0,101020,-8444,-20178,-193169],"delta_lng":[0,-49982,62167,59707,39412]}},
    {"code":1120617,"id":"68975e","name":"種市","name_kana":"たねいち","lat":40.410384,"lng":141.715232,"prefecture":3,"lines":[11206],"attr":"cool","postal_code":"028-7900","address":"九戸郡洋野町種市第２３地割","next":[1120618,1111127,1120615,1120620,1111126,1120616],"voronoi":{"lat":40.324999,"lng":141.619098,"delta_lat":[0,227146,509869,65760,35033,-484141],"delta_lng":[0,342233,645218,-101755,-56959,-493330]}},
    {"code":1120606,"left":1120602,"right":1120609,"id":"8d8c56","name":"白銀","name_kana":"しろがね","lat":40.522031,"lng":141.541648,"prefecture":2,"lines":[11206],"attr":"eco","postal_code":"031-0821","address":"八戸市大字白銀","next":[1120605,1120610,1120604,1120607,1120609,1120612],"voronoi":{"lat":40.393811,"lng":141.538909,"delta_lat":[0,83069,67866,-45345,-50383,-23767],"delta_lng":[0,-8576,6396,28122,-5367,-5453]}},
    {"code":1120602,"left":1120604,"right":1120605,"id":"153d3c","name":"長苗代","name_kana":"ながなわしろ","lat":40.52146,"lng":141.465907,"prefecture":2,"lines":[11206],"attr":"eco","postal_code":"039-1103","address":"八戸市大字長苗代","next":[1120102,1120603,100421],"voronoi":{"lat":40.535325,"lng":141.441578,"delta_lat":[0,29371,-97126],"delta_lng":[0,46130,-21988]}},
    {"code":1120604,"left":1120603,"id":"1648ff","name":"小中野","name_kana":"こなかの","lat":40.518767,"lng":141.510032,"prefecture":2,"lines":[11206],"attr":"eco","postal_code":"031-0802","address":"八戸市大字小中野町","next":[1120603,1120612,1120606,1120102,1120605,9920606],"voronoi":{"lat":40.393811,"lng":141.538909,"delta_lat":[0,83069,107980,-14360,-220877,-6758],"delta_lng":[0,-8576,-28086,-9029,25764,2814]}},
    {"code":1120603,"id":"9757a8","name":"本八戸","name_kana":"ほんはちのへ","lat":40.516286,"lng":141.488762,"prefecture":2,"lines":[11206],"attr":"eco","postal_code":"031-0075","address":"八戸市内丸１","next":[1120604,100421,9920606,1120602,1120102],"voronoi":{"lat":40.349623,"lng":141.518982,"delta_lat":[0,104780,13167,97126,5804],"delta_lng":[0,-51632,-1629,21988,5509]}},
    {"code":1120605,"id":"031c24","name":"陸奥湊","name_kana":"むつみなと","lat":40.52335,"lng":141.527652,"prefecture":2,"lines":[11206],"attr":"eco","postal_code":"031-0812","address":"八戸市大字湊町","next":[1120606,1120102,1120604,1120607],"voronoi":{"lat":40.619391,"lng":141.517837,"delta_lat":[0,-34531,-107980,67866],"delta_lng":[0,-15590,28086,6396]}},
    {"code":1120609,"left":1120610,"right":1120607,"id":"308c43","name":"陸奥白浜","name_kana":"むつしらはま","lat":40.516636,"lng":141.592299,"prefecture":2,"lines":[11206],"attr":"heat","postal_code":"031-0841","address":"八戸市大字鮫町","next":[1120607,1120606,1120610,1120306],"voronoi":{"lat":40.449018,"lng":141.559484,"delta_lat":[0,50383,481827,123729],"delta_lng":[0,5367,175275,240965]}},
    {"code":1120610,"id":"6ba42b","name":"種差海岸","name_kana":"たねさしかいがん","lat":40.506951,"lng":141.607367,"prefecture":2,"lines":[11206],"attr":"heat","postal_code":"031-0841","address":"八戸市大字鮫町","next":[1120606,1120611,1120609,1120612,1120306,1120307],"voronoi":{"lat":40.438721,"lng":141.56793,"delta_lat":[0,-13469,23767,655939,24260,48467],"delta_lng":[0,-13900,5453,421607,45806,101075]}},
    {"code":1120607,"id":"7d597a","name":"鮫","name_kana":"さめ","lat":40.530244,"lng":141.554891,"prefecture":2,"lines":[11206],"attr":"heat","postal_code":"031-0841","address":"八戸市大字鮫町","next":[1120609,1120102,1120105,1120606,1120103,1120306,1120605],"voronoi":{"lat":40.499402,"lng":141.56485,"delta_lat":[0,481827,-15976,-203899,-53371,-88591,-74645],"delta_lng":[0,175275,-34513,-140072,-22417,-25287,18892]}},
    {"code":9920838,"left":9920834,"right":9920840,"id":"176d79","name":"十府ヶ浦海岸","name_kana":"とふがうらかいがん","lat":40.096834,"lng":141.824171,"prefecture":3,"lines":[99207,99208],"attr":"cool","postal_code":"028-8201","address":"岩手県九戸郡野田村大字野田第10地割中沼10-3","open_date":"2017-03-25","next":[9920837,9920839,9920836,9920840],"voronoi":{"lat":40.068217,"lng":141.761844,"delta_lat":[0,41791,21423,-33605],"delta_lng":[0,125345,27265,-125059]}},
    {"code":9920834,"left":9920836,"right":9920832,"id":"c00464","name":"普代","name_kana":"ふだい","lat":40.002492,"lng":141.886269,"prefecture":3,"lines":[99207,99208],"attr":"cool","postal_code":"028-8332","address":"下閉伊郡普代村銅屋","next":[9920836,9920835,1120709,9920833],"voronoi":{"lat":39.920536,"lng":141.841455,"delta_lat":[0,48306,44889,15607],"delta_lng":[0,-76193,82786,149405]}},
    {"code":9920836,"left":9920835,"right":9920837,"id":"c74f12","name":"堀内","name_kana":"ほりない","lat":40.051895,"lng":141.859481,"prefecture":3,"lines":[99207,99208],"attr":"cool","postal_code":"028-8301","address":"下閉伊郡普代村馬場野","next":[9920839,9920834,1120709,9920838,9920835,9920837],"voronoi":{"lat":40.131431,"lng":141.914454,"delta_lat":[0,38289,-155988,-44889,5282,135883],"delta_lng":[0,60728,-127133,-82786,-14960,136886]}},
    {"code":9920835,"left":1120709,"id":"f1262a","name":"白井海岸","name_kana":"しらいかいがん","lat":40.032628,"lng":141.883121,"prefecture":3,"lines":[99207,99208],"attr":"cool","postal_code":"028-8311","address":"下閉伊郡普代村白井","next":[1120624,9920834,1120622,9920833,9920839,9920836],"voronoi":{"lat":40.238606,"lng":142.064859,"delta_lat":[0,32154,368705,-610127,-15607,155988],"delta_lng":[0,61731,1053830,-1182967,-149405,127133]}},
    {"code":1120709,"id":"ccbdca","name":"岩泉","name_kana":"いわいずみ","closed":true,"lat":39.845044,"lng":141.786446,"prefecture":3,"lines":[11207],"attr":"unknown","postal_code":"027-0501","address":"下閉伊郡岩泉町大字岩泉","open_date":"1972-02-06","closed_date":"2014-04-01","next":[9920832,9920837,1121315,1120708,9920830,9920827,9920836,9920833,9920834,9920831,1120703,1120707],"voronoi":{"lat":39.783066,"lng":141.777892,"delta_lat":[0,193169,-2111,-5282,-48306,-21435,-39516,-43387,-33497,-41828,-2690,6094],"delta_lng":[0,-39412,11823,14960,76193,12975,18231,-585,-6784,-37487,-11067,-22163]}},
    {"code":9920837,"id":"e6ac89","name":"野田玉川","name_kana":"のだたまがわ","lat":40.082728,"lng":141.828874,"prefecture":3,"lines":[99207,99208],"attr":"cool","postal_code":"028-8202","address":"九戸郡野田村大字玉川","next":[1120708,1120709,9920838,9920840,9920836],"voronoi":{"lat":40.068217,"lng":141.761844,"delta_lat":[0,-71803,-20178,-2111,135883],"delta_lng":[0,-83071,59707,11823,136886]}},
    {"code":9920832,"left":9920831,"right":9920833,"id":"7ca601","name":"島越","name_kana":"しまのこし","lat":39.915737,"lng":141.93968,"prefecture":3,"lines":[99207,99208],"attr":"eco","postal_code":"028-8404","address":"下閉伊郡田野畑村松前沢","next":[1120709,9920833,9920831,1111130],"voronoi":{"lat":40.468932,"lng":143.665521,"delta_lat":[0,-569831,-39516,514899],"delta_lng":[0,-1811090,18231,2002576]}},
    {"code":9920831,"id":"2fd21e","name":"岩泉小本","name_kana":"いわいずみおもと","lat":39.842724,"lng":141.958453,"prefecture":3,"lines":[99207,99208],"attr":"eco","postal_code":"027-0421","address":"下閉伊郡岩泉町小本","next":[9920832,9920830,1120709,1111130],"voronoi":{"lat":39.816198,"lng":141.872076,"delta_lat":[0,43387,514899,-264475],"delta_lng":[0,585,2002576,618290]}},
    {"code":9920833,"id":"c028b0","name":"田野畑","name_kana":"たのはた","lat":39.934276,"lng":141.933847,"prefecture":3,"lines":[99207,99208],"attr":"eco","postal_code":"028-8407","address":"下閉伊郡田野畑村和野","next":[1111130,9920832,9920835,1120709,9920834,1120622],"voronoi":{"lat":40.468932,"lng":143.665521,"delta_lat":[0,-569831,21435,108802,610127,23646],"delta_lng":[0,-1811090,-12975,155998,1182967,60036]}},
    {"code":9920840,"left":1120621,"right":1120624,"id":"1531a9","name":"陸中宇部","name_kana":"りくちゅううべ","lat":40.132441,"lng":141.785904,"prefecture":3,"lines":[99207,99208],"attr":"heat","postal_code":"028-8111","address":"久慈市宇部町","next":[1120708,9920513,9920837,1120625,1120706,1120624,9920838,9920839],"voronoi":{"lat":40.168693,"lng":141.806486,"delta_lat":[0,-68347,-68228,-27260,-8444,71803,29609,69496],"delta_lng":[0,-263818,-5510,79448,62167,83071,27551,34292]}},
    {"code":1120621,"left":1120625,"right":1120620,"id":"b161db","name":"有家","name_kana":"うげ","lat":40.324007,"lng":141.773031,"prefecture":3,"lines":[11206],"attr":"eco","postal_code":"028-7905","address":"九戸郡洋野町有家","next":[1120619,1120620,1120622,1120623],"voronoi":{"lat":40.306375,"lng":141.697999,"delta_lat":[0,12818,33586,-57805],"delta_lng":[0,20491,110741,-73906]}},
    {"code":1120625,"left":1120623,"id":"083ed1","name":"久慈","name_kana":"くじ","lat":40.190391,"lng":141.770891,"prefecture":3,"lines":[11206,99207,99208],"attr":"heat","postal_code":"028-0061","address":"久慈市中央３","next":[9920513,1120623,9920840,1120624],"voronoi":{"lat":40.225042,"lng":141.759948,"delta_lat":[0,-32139,-92558,68347],"delta_lng":[0,-221143,3863,263818]}},
    {"code":1120623,"id":"36406f","name":"侍浜","name_kana":"さむらいはま","lat":40.261375,"lng":141.760575,"prefecture":3,"lines":[11206],"attr":"eco","postal_code":"028-7801","address":"久慈市侍浜町字堀切","next":[9920513,1120625,9920514,1120618,1120622,9920517,1120619,1120616,1120624,1120621],"voronoi":{"lat":40.306375,"lng":141.697999,"delta_lat":[0,-6311,-18338,-13321,-14626,-3776,-57099,32139,32507,37424],"delta_lng":[0,-47586,-85756,-35668,-1990,419,11387,221143,55642,-60265]}},
    {"code":1120620,"id":"cad02a","name":"陸中八木","name_kana":"りくちゅうやぎ","lat":40.345485,"lng":141.766517,"prefecture":3,"lines":[11206],"attr":"cool","postal_code":"028-7900","address":"九戸郡洋野町種市第１地割","next":[1111130,1111128,1120618,1120622,1120617,1120619,1120621,1111127],"voronoi":{"lat":40.963937,"lng":142.766996,"delta_lat":[0,-64825,-546334,-33586,227744,5209,509869,-40630],"delta_lng":[0,98806,-1036571,-110741,237045,5797,645218,68358]}},
    {"code":1120624,"left":9920839,"right":1120622,"id":"404496","name":"陸中夏井","name_kana":"りくちゅうなつい","lat":40.207747,"lng":141.791906,"prefecture":3,"lines":[11206],"attr":"heat","postal_code":"028-0001","address":"久慈市夏井町字大崎","next":[9920835,9920839,1120622,1120625,9920840,1120623],"voronoi":{"lat":40.225042,"lng":141.759948,"delta_lat":[0,-56350,-1371,71285,32154,-13211],"delta_lng":[0,46538,17201,241173,61731,-311001]}},
    {"code":9920839,"id":"dfe7dc","name":"陸中野田","name_kana":"りくちゅうのだ","lat":40.116115,"lng":141.81899,"prefecture":3,"lines":[99207,99208],"attr":"heat","postal_code":"028-8201","address":"九戸郡野田村大字野田","next":[9920836,1120624,9920835,9920838,9920840],"voronoi":{"lat":40.097826,"lng":141.789394,"delta_lat":[0,33605,38289,68887,-71285],"delta_lng":[0,125059,60728,89678,-241173]}},
    {"code":1120622,"id":"7dd47f","name":"陸中中野","name_kana":"りくちゅうなかの","lat":40.305165,"lng":141.787768,"prefecture":3,"lines":[11206],"attr":"eco","postal_code":"028-7906","address":"九戸郡洋野町中野","next":[9920835,1120624,1120620,1111130,1120623,1120621,9920833],"voronoi":{"lat":40.899112,"lng":142.865802,"delta_lat":[0,-546334,-57805,-37424,13211,368705,23646],"delta_lng":[0,-1036571,-73906,60265,311001,1053830,60036]}}
  ]
}