{
  "name":"segment2",
  "root":1190533,
  "east":130.558015,
  "west":-180.0,
  "south":32.744762,
  "north":33.209495,
  "station_size":145,
  "node_list":[
    {"code":1190533,"left":1190534,"right":1190331,"id":"61adfa","name":"東園(長崎)","name_kana":"ひがしその","lat":32.847091,"lng":129.962591,"prefecture":42,"lines":[11905],"attr":"cool","postal_code":"859-0411","address":"諫早市多良見町東園","next":[1190534,1190529,1190530,1192212],"voronoi":{"lat":32.833789,"lng":129.970717,"delta_lat":[0,-3818,43229,-11217],"delta_lng":[0,-33117,24052,26148]}},
    {"code":1190534,"left":9991316,"right":1191811,"id":"8099dd","name":"大草","name_kana":"おおくさ","lat":32.860232,"lng":129.938972,"prefecture":42,"lines":[11905],"attr":"cool","postal_code":"859-0414","address":"諫早市多良見町元釜","next":[1192209,1190533,1190530,1192212,1192211,1190535],"voronoi":{"lat":32.913441,"lng":129.870343,"delta_lat":[0,-5624,-23323,-11295,-43229,-2860],"delta_lng":[0,31880,51333,8096,-24052,-4393]}},
    {"code":9991316,"left":9991307,"right":9991318,"id":"9f2bb3","name":"宝町(長崎)","name_kana":"たからまち","lat":32.75783,"lng":129.868913,"prefecture":42,"lines":[99913,99914],"attr":"eco","postal_code":"850-0045","address":"長崎市宝町","next":[1190541,9991312,9991404,9991315,9991317],"voronoi":{"lat":32.769773,"lng":129.881522,"delta_lat":[0,-1946,-17328,1984,8659],"delta_lng":[0,-4589,-20296,5698,16209]}},
    {"code":9991307,"left":9991311,"right":9991303,"id":"cc8374","name":"岩屋橋","name_kana":"いわやばし","lat":32.781935,"lng":129.862282,"prefecture":42,"lines":[99913,99914],"attr":"heat","postal_code":"852-8134","address":"長崎市大橋町","next":[9991308,9991311,9991402,9991306,1190539,9991309],"voronoi":{"lat":32.779747,"lng":129.889593,"delta_lat":[0,4099,0,-88,-4838,-1314],"delta_lng":[0,4307,-39215,-239,12108,6811]}},
    {"code":9991311,"left":9991309,"right":9991313,"id":"7c4245","name":"原爆資料館","name_kana":"げんばくしりょうかん","lat":32.770551,"lng":129.863784,"prefecture":42,"lines":[99913,99914],"attr":"heat","postal_code":"852-8107","address":"長崎市浜口町","next":[1190540,9991403,9991307,9991312,9991404,9991309,9991310,9991402],"voronoi":{"lat":32.777606,"lng":129.873364,"delta_lat":[0,-448,-8797,-77,7091,1420,1634,1318],"delta_lng":[0,-1385,-15367,1423,28106,1256,1296,899]}},
    {"code":9991309,"left":1190540,"right":9991308,"id":"11408e","name":"大橋(長崎)","name_kana":"おおはし","lat":32.777713,"lng":129.861467,"prefecture":42,"lines":[99913,99914],"attr":"heat","postal_code":"852-8118","address":"長崎市松山町","next":[9991310,1190538,1190539,9991308,9991311,9991301,9991307],"voronoi":{"lat":32.778921,"lng":129.866554,"delta_lat":[0,-1976,-1613,-3175,-12734,17736,448],"delta_lng":[0,-45209,-8938,-14455,-40014,114042,1385]}},
    {"code":1190540,"left":9991310,"id":"89254c","name":"浦上","name_kana":"うらかみ","lat":32.765414,"lng":129.863507,"prefecture":42,"lines":[11905],"attr":"cool","postal_code":"852-8108","address":"長崎市川口町","next":[9991610,9991311,9991315,1190538,9991310,9991313,9991314,9991312,9991611,9991134],"voronoi":{"lat":32.449108,"lng":128.663498,"delta_lat":[0,274910,17136,15349,8108,2639,1035,77,-27900,-261669],"delta_lng":[0,1096390,66490,26355,11190,-266,-5622,-1423,-162797,-968872]}},
    {"code":9991310,"id":"54bcbc","name":"平和公園","name_kana":"へいわこうえん","lat":32.773437,"lng":129.862132,"prefecture":42,"lines":[99913,99914],"attr":"heat","postal_code":"852-8118","address":"長崎市松山町","next":[9991309,1190540,1190538,9991311],"voronoi":{"lat":32.768362,"lng":129.856613,"delta_lat":[0,-27900,18961,17736],"delta_lng":[0,-162797,64122,114042]}},
    {"code":9991308,"id":"bdb718","name":"浦上車庫","name_kana":"うらかみしゃこ","lat":32.77968,"lng":129.861381,"prefecture":42,"lines":[99913,99914],"attr":"heat","postal_code":"852-8134","address":"長崎市大橋町","next":[9991307,1190539,9991309],"voronoi":{"lat":32.776944,"lng":129.821345,"delta_lat":[0,6814,-4838],"delta_lng":[0,33101,12108]}},
    {"code":9991313,"left":9991315,"right":9991312,"id":"7b747c","name":"浦上駅前","name_kana":"うらかみえきまえ","lat":32.765481,"lng":129.864171,"prefecture":42,"lines":[99913,99914],"attr":"heat","postal_code":"852-8106","address":"長崎市岩川町","next":[9991315,9991312,9991314,1190540],"voronoi":{"lat":32.767228,"lng":129.874202,"delta_lat":[0,22,0,-2639],"delta_lng":[0,51,-10596,266]}},
    {"code":9991315,"left":9991314,"id":"073277","name":"銭座町","name_kana":"ぜんざまち","lat":32.761475,"lng":129.865801,"prefecture":42,"lines":[99913,99914],"attr":"eco","postal_code":"850-0047","address":"長崎市銭座町","next":[9991312,9991313,1190540,9991610,1190541,9991321,9991316,9991314],"voronoi":{"lat":32.767249,"lng":129.874254,"delta_lat":[0,578,-17328,-4750,-491,-4105,15349,10725],"delta_lng":[0,2679,-20296,-8625,-1469,-20164,26355,21469]}},
    {"code":9991314,"id":"a995ff","name":"茂里町","name_kana":"もりまち","lat":32.763965,"lng":129.864557,"prefecture":42,"lines":[99913,99914],"attr":"eco","postal_code":"852-8105","address":"長崎市目覚町","next":[9991313,1190540,9991315],"voronoi":{"lat":32.756502,"lng":129.852734,"delta_lat":[0,8108,2617],"delta_lng":[0,11190,10279]}},
    {"code":9991312,"id":"1b6142","name":"大学病院","name_kana":"だいがくびょういん","lat":32.769017,"lng":129.864171,"prefecture":42,"lines":[99913,99914],"attr":"heat","postal_code":"852-8107","address":"長崎市浜口町","next":[9991315,9991313,9991311,9991316,1190540,9991404],"voronoi":{"lat":32.768285,"lng":129.858036,"delta_lat":[0,-1035,0,578,1946,5602],"delta_lng":[0,5622,10596,2679,4589,4620]}},
    {"code":9991303,"left":9991301,"right":9991305,"id":"dc7b3b","name":"昭和町通り","name_kana":"しょうわまちどおり","lat":32.79063,"lng":129.860694,"prefecture":42,"lines":[99913,99914],"attr":"heat","postal_code":"852-8155","address":"長崎県長崎市中園町","next":[9991302,1190539,1190536,9991304,9991305],"voronoi":{"lat":32.794772,"lng":129.879014,"delta_lat":[0,-4836,1132,9723,-4697],"delta_lng":[0,-18934,-292,16351,7105]}},
    {"code":9991301,"left":9991302,"right":1190538,"id":"ad28ab","name":"赤迫","name_kana":"あかさこ","lat":32.793732,"lng":129.857948,"prefecture":42,"lines":[99913,99914],"attr":"heat","postal_code":"852-8155","address":"長崎市中園町","next":[1190539,9991302,1190537,9991309,1190538],"voronoi":{"lat":32.772156,"lng":129.797951,"delta_lat":[0,3175,16399,12553,497],"delta_lng":[0,14455,45456,11030,-1113]}},
    {"code":9991302,"left":1190539,"id":"3430eb","name":"住吉(長崎)","name_kana":"すみよし","lat":32.792073,"lng":129.859836,"prefecture":42,"lines":[99913,99914],"attr":"heat","postal_code":"852-8154","address":"長崎市住吉町","next":[1190537,9991303,9991301,1190536,1190539],"voronoi":{"lat":32.791731,"lng":129.857862,"delta_lat":[0,12553,-1661,-1832,-9723],"delta_lng":[0,11030,4731,2515,-16351]}},
    {"code":1190539,"id":"2ae477","name":"西浦上","name_kana":"にしうらかみ","lat":32.790245,"lng":129.859206,"prefecture":42,"lines":[11905],"attr":"cool","postal_code":"852-8044","address":"長崎市音無町","next":[9991306,9991308,9991303,9991301,9991309,9991307,9991302,9991305,9991304],"voronoi":{"lat":32.791067,"lng":129.859787,"delta_lat":[0,663,-16399,1613,6814,88,802,3391,1896],"delta_lng":[0,-1925,-45456,8938,33101,239,1168,3549,678]}},
    {"code":1190538,"id":"ab2f30","name":"道ノ尾","name_kana":"みちのお","lat":32.804329,"lng":129.852997,"prefecture":42,"lines":[11905],"attr":"cool","postal_code":"852-8053","address":"長崎市葉山町","next":[9991309,1190540,1192203,1190537,1192204,1192202,9991310,9991301,9991134],"voronoi":{"lat":32.478792,"lng":128.724943,"delta_lat":[0,261669,18961,12734,32624,122879,-3036,-20222,-10851],"delta_lng":[0,968872,64122,40014,69828,-113069,-42237,-110158,-55196]}},
    {"code":9991305,"left":9991306,"right":9991304,"id":"eceec5","name":"若葉町","name_kana":"わかばまち","lat":32.787744,"lng":129.861596,"prefecture":42,"lines":[99913,99914],"attr":"heat","postal_code":"852-8137","address":"長崎市若葉町","next":[9991304,9991306,1190539,9991303,1190536],"voronoi":{"lat":32.784648,"lng":129.855853,"delta_lat":[0,3391,6732,1322,-1233],"delta_lng":[0,3549,19612,4230,2160]}},
    {"code":9991306,"id":"ab5c56","name":"長崎大学","name_kana":"ながさきだいがく","lat":32.785759,"lng":129.862282,"prefecture":42,"lines":[99913,99914],"attr":"heat","postal_code":"852-8137","address":"長崎市若葉町","next":[1190539,1190536,9991307,1190532,9991402,9991305],"voronoi":{"lat":32.790313,"lng":129.894212,"delta_lat":[0,-5790,-676,0,802,10212],"delta_lng":[0,489,-801,-39215,1168,29551]}},
    {"code":9991304,"id":"956edf","name":"千歳町(長崎)","name_kana":"ちとせまち","lat":32.78962,"lng":129.860952,"prefecture":42,"lines":[99913,99914],"attr":"heat","postal_code":"852-8137","address":"長崎市若葉町","next":[9991305,9991303,1190539],"voronoi":{"lat":32.788039,"lng":129.859401,"delta_lat":[0,6732,-4836],"delta_lng":[0,19612,-18934]}},
    {"code":9991318,"left":9991506,"right":9991403,"id":"9d68a7","name":"長崎駅前","name_kana":"ながさきえきまえ","lat":32.75238,"lng":129.871874,"prefecture":42,"lines":[99913,99914],"attr":"eco","postal_code":"850-0057","address":"長崎市大黒町","next":[9991317,9991319,1190541,9991406],"voronoi":{"lat":32.751058,"lng":129.873456,"delta_lat":[0,-244,2968,2415],"delta_lng":[0,-2112,-2,4365]}},
    {"code":9991506,"left":9991406,"right":9991401,"id":"0d063f","name":"めがね橋","name_kana":"めがねばし","lat":32.746785,"lng":129.878204,"prefecture":42,"lines":[99915,99916],"attr":"cool","postal_code":"850-0875","address":"長崎市栄町","next":[9991405,9991325,9991406,9991324,9991511],"voronoi":{"lat":32.747519,"lng":129.87497,"delta_lat":[0,1987,-3504,-1073,134],"delta_lng":[0,2945,3775,-2116,-1032]}},
    {"code":9991406,"left":9991319,"right":1190541,"id":"174977","name":"桜町(長崎)","name_kana":"さくらまち","lat":32.750792,"lng":129.8755,"prefecture":42,"lines":[99914],"attr":"eco","postal_code":"850-0031","address":"長崎市桜町","next":[9991405,9991511,9991506,9991404,9991317,9991318,9991319],"voronoi":{"lat":32.747519,"lng":129.87497,"delta_lat":[0,1987,4902,4817,-3027,-5139,-3545],"delta_lng":[0,2945,1306,-1013,-2502,-2251,1492]}},
    {"code":9991319,"left":9991320,"id":"d4f580","name":"五島町","name_kana":"ごとうまち","lat":32.749411,"lng":129.872217,"prefecture":42,"lines":[99913],"attr":"cool","postal_code":"850-0035","address":"長崎市元船町２","next":[1190541,9991318,9991511,9991406,9991320],"voronoi":{"lat":32.747568,"lng":129.86449,"delta_lat":[0,3247,244,-3545,-348],"delta_lng":[0,6853,2112,1492,-353]}},
    {"code":9991320,"id":"3d0f3d","name":"大波止","name_kana":"おおはと","lat":32.745116,"lng":129.872046,"prefecture":42,"lines":[99913],"attr":"cool","postal_code":"850-0861","address":"長崎市江戸町２","next":[9991511,9991321,9991322,1190541,9991323,9991319],"voronoi":{"lat":32.747568,"lng":129.86449,"delta_lat":[0,-335,-3221,883,849,1422],"delta_lng":[0,-1970,10988,685,295,106]}},
    {"code":1190541,"id":"5fd6b6","name":"長崎(長崎)","name_kana":"ながさき","lat":32.752379,"lng":129.870811,"prefecture":42,"lines":[11905],"attr":"cool","postal_code":"850-0058","address":"長崎市尾上町","next":[9991317,9991316,9991319,9991315,9991318,9991320,9991321],"voronoi":{"lat":32.745749,"lng":129.848012,"delta_lat":[0,4750,1984,1299,-2968,-3247,-335],"delta_lng":[0,8625,5698,9007,2,-6853,-1970]}},
    {"code":9991401,"left":9991405,"right":9991402,"id":"3af478","name":"蛍茶屋","name_kana":"ほたるぢゃや","lat":32.751135,"lng":129.894254,"prefecture":42,"lines":[99914,99915,99916],"attr":"cool","postal_code":"850-0013","address":"長崎市中川町２","next":[9991209,1190532,9991402,1190531,9991326],"voronoi":{"lat":32.744133,"lng":129.889898,"delta_lat":[0,34547,-44767,-143913,-115352],"delta_lng":[0,11100,55675,118833,29847]}},
    {"code":9991405,"id":"0657b6","name":"市民会館","name_kana":"しみんかいかん","lat":32.74942,"lng":129.88065,"prefecture":42,"lines":[99914,99915,99916],"attr":"eco","postal_code":"850-0874","address":"長崎市魚の町","next":[9991506,9991406,9991404,9991403,9991326,9991325],"voronoi":{"lat":32.746256,"lng":129.885947,"delta_lat":[0,1870,6281,-4902,-3504,-125],"delta_lng":[0,-915,-5811,-1306,3775,2174]}},
    {"code":9991402,"id":"80cc1b","name":"新中川町","name_kana":"しんなかがわまち","lat":32.752362,"lng":129.890435,"prefecture":42,"lines":[99914,99915,99916],"attr":"cool","postal_code":"850-0014","address":"長崎市新中川町","next":[1190532,9991307,9991326,9991401,9991306,9991403,9991311],"voronoi":{"lat":32.783847,"lng":129.893899,"delta_lat":[0,676,-5842,-34547,1039,33257,1318],"delta_lng":[0,801,6297,-11100,-1364,160,899]}},
    {"code":9991403,"left":1190536,"right":1190531,"id":"320f45","name":"新大工町","name_kana":"しんだいくまち","lat":32.75238,"lng":129.886701,"prefecture":42,"lines":[99914,99915,99916],"attr":"cool","postal_code":"850-0017","address":"長崎市新大工町","next":[9991311,9991404,9991405,9991326,9991402],"voronoi":{"lat":32.745172,"lng":129.888533,"delta_lat":[0,1084,1870,28669,1634],"delta_lng":[0,-2586,-915,2365,1296]}},
    {"code":1190536,"left":9991404,"right":1190537,"id":"85c29e","name":"長与","name_kana":"ながよ","lat":32.818981,"lng":129.879434,"prefecture":42,"lines":[11905],"attr":"cool","postal_code":"851-2126","address":"西彼杵郡長与町吉無田郷","next":[1190535,1190537,1190532,9991306,9991303,9991302,9991305],"voronoi":{"lat":32.796094,"lng":129.883244,"delta_lat":[0,4697,1832,44875,-42883,-14302,4548],"delta_lng":[0,-7105,-2515,2222,26822,-8456,-8808]}},
    {"code":9991404,"left":9991317,"id":"d267b3","name":"諏訪神社","name_kana":"すわじんじゃ","lat":32.752596,"lng":129.884083,"prefecture":42,"lines":[99914,99915,99916],"attr":"eco","postal_code":"850-0023","address":"長崎市出来大工町","next":[9991403,9991405,9991316,9991406,9991311,9991317,9991312],"voronoi":{"lat":32.769773,"lng":129.881522,"delta_lat":[0,-8631,-1918,-4817,-6281,28669,-1420],"delta_lng":[0,-2978,-335,1013,5811,2365,-1256]}},
    {"code":9991317,"id":"142ac3","name":"八千代町","name_kana":"やちよまち","lat":32.754979,"lng":129.870436,"prefecture":42,"lines":[99913,99914],"attr":"cool","postal_code":"850-0043","address":"長崎市八千代町","next":[9991318,1190541,9991406,9991316,9991404],"voronoi":{"lat":32.752483,"lng":129.862334,"delta_lat":[0,1299,2415,3027,1918],"delta_lng":[0,9007,4365,2502,335]}},
    {"code":1190537,"id":"eb356b","name":"高田(長崎)","name_kana":"こうだ","lat":32.819475,"lng":129.869457,"prefecture":42,"lines":[11905],"attr":"cool","postal_code":"851-2127","address":"西彼杵郡長与町高田郷","next":[1192208,9991302,1190536,1190538,1190535,1192209,9991301,1192204],"voronoi":{"lat":32.936641,"lng":129.829186,"delta_lat":[0,-10232,-78912,-44875,1661,497,122879,10310],"delta_lng":[0,14749,31911,-2222,-4731,-1113,-113069,71742]}},
    {"code":1190531,"left":1190532,"right":1190535,"id":"2749bd","name":"肥前古賀","name_kana":"ひぜんこが","lat":32.798463,"lng":129.951571,"prefecture":42,"lines":[11905],"attr":"heat","postal_code":"851-0131","address":"長崎市松原町","next":[9991203,9991209,1190528,1190532,1190535,1190530,9991401,9991204,1190529],"voronoi":{"lat":32.731618,"lng":130.038063,"delta_lat":[0,-42300,-80968,-18349,143913,89106,3498,-55497,-4591],"delta_lng":[0,14150,21464,1829,-118833,-25837,2257,79872,4536]}},
    {"code":1190532,"id":"3565a7","name":"現川","name_kana":"うつつがわ","lat":32.79118,"lng":129.926453,"prefecture":42,"lines":[11905],"attr":"cool","postal_code":"851-0135","address":"長崎市現川町","next":[9991402,9991401,1190536,1190531,9991306,1190535],"voronoi":{"lat":32.804614,"lng":129.902668,"delta_lat":[0,-14302,-5790,-5842,-44767,89106],"delta_lng":[0,-8456,489,6297,55675,-25837]}},
    {"code":1190535,"id":"57e341","name":"本川内","name_kana":"ほんかわち","lat":32.831792,"lng":129.899916,"prefecture":42,"lines":[11905],"attr":"cool","postal_code":"851-2122","address":"西彼杵郡長与町本川内郷","next":[1190536,1190537,1190531,1190530,1190532,1190534,1192209],"voronoi":{"lat":32.92641,"lng":129.843935,"delta_lat":[0,-78912,-42883,18405,3498,593,86331],"delta_lng":[0,31911,26822,28168,2257,115,-62864]}},
    {"code":1191811,"left":9991134,"right":1192203,"id":"e1c2ce","name":"早岐","name_kana":"はいき","lat":33.134155,"lng":129.79929,"prefecture":42,"lines":[11918,11922],"attr":"cool","postal_code":"859-3215","address":"佐世保市早岐１丁目","next":[1192203,1191812,1191810,1192202],"voronoi":{"lat":33.111745,"lng":129.830658,"delta_lat":[0,46881,-43553,-3658],"delta_lng":[0,-25264,-37852,54557]}},
    {"code":9991134,"left":1191814,"right":9991138,"id":"497310","name":"相浦","name_kana":"あいのうら","lat":33.192577,"lng":129.65714,"prefecture":42,"lines":[99911],"attr":"eco","postal_code":"858-0918","address":"佐世保市相浦町","next":[9991135,9991136,9991611,9991133,1190540,1190538,1192202],"voronoi":{"lat":33.195353,"lng":129.663508,"delta_lat":[0,6347,-1341603,589010,29685,414758,55262],"delta_lng":[0,-1253,-2256424,1257668,61445,822176,39926]}},
    {"code":1191814,"left":9991144,"right":1191812,"id":"918930","name":"佐世保","name_kana":"させぼ","lat":33.163868,"lng":129.725667,"prefecture":42,"lines":[11918,99911],"attr":"heat","postal_code":"857-0862","address":"佐世保市白南風町","next":[9991135,1192202,9991145,1191813,9991146],"voronoi":{"lat":33.17546,"lng":129.744902,"delta_lat":[0,-78802,-117343,155668,33052],"delta_lng":[0,-15587,-119256,68126,45847]}},
    {"code":9991144,"left":9991145,"right":9991135,"id":"6565de","name":"北佐世保","name_kana":"きたさせぼ","lat":33.18717,"lng":129.720446,"prefecture":42,"lines":[99911],"attr":"heat","postal_code":"857-0016","address":"佐世保市俵町","next":[9991146,1191813,9991140,9991145,9991138,9991143,9991136],"voronoi":{"lat":33.178786,"lng":129.693456,"delta_lat":[0,214,4738,976,11021,-2924,-10749],"delta_lng":[0,23193,31712,767,-42272,-6020,-6854]}},
    {"code":9991145,"left":9991146,"id":"a0f894","name":"中佐世保","name_kana":"なかさせぼ","lat":33.172297,"lng":129.722668,"prefecture":42,"lines":[99911],"attr":"heat","postal_code":"857-0806","address":"佐世保市島瀬町","next":[1191813,1191814,9991144,9991146],"voronoi":{"lat":33.17546,"lng":129.744902,"delta_lat":[0,8279,-4738,-10966],"delta_lng":[0,3459,-31712,7383]}},
    {"code":9991146,"id":"ea7777","name":"佐世保中央","name_kana":"させぼちゅうおう","lat":33.170902,"lng":129.720596,"prefecture":42,"lines":[99911],"attr":"heat","postal_code":"857-0806","address":"佐世保市島瀬町","next":[9991144,9991135,1191814,9991136,9991145],"voronoi":{"lat":33.134982,"lng":129.678185,"delta_lat":[0,43442,362,214,-10966],"delta_lng":[0,15096,175,23193,7383]}},
    {"code":9991135,"id":"35faad","name":"大学","name_kana":"だいがく","lat":33.189461,"lng":129.667187,"prefecture":42,"lines":[99911],"attr":"eco","postal_code":"858-0914","address":"佐世保市川下町","next":[1191814,1192202,9991134,9991146,9991136],"voronoi":{"lat":33.195353,"lng":129.663508,"delta_lat":[0,-246541,30502,155668,43442],"delta_lng":[0,-76462,23014,68126,15096]}},
    {"code":1191812,"left":1192202,"right":1191813,"id":"aa3f4d","name":"大塔","name_kana":"だいとう","lat":33.14917,"lng":129.782014,"prefecture":42,"lines":[11918],"attr":"eco","postal_code":"857-1161","address":"佐世保市大塔町","next":[1191811,1191810,1191813,9991004,9991005,1192202],"voronoi":{"lat":33.158625,"lng":129.805395,"delta_lat":[0,32037,11869,6761,-97172,2952],"delta_lng":[0,-745,-9130,-5917,-33764,11704]}},
    {"code":1192202,"id":"8b38df","name":"ハウステンボス","name_kana":"はうすてんぼす","lat":33.091923,"lng":129.796458,"prefecture":42,"lines":[11922],"attr":"cool","postal_code":"859-3236","address":"佐世保市南風崎町","next":[1191814,9991135,1190538,1192203,1191813,1191811,1191812,9991134],"voronoi":{"lat":32.979314,"lng":129.610059,"delta_lat":[0,117343,15463,2952,-3658,-207013,-10851,55262],"delta_lng":[0,119256,26523,11704,54557,-219784,-55196,39926]}},
    {"code":1191813,"id":"85e4ba","name":"日宇","name_kana":"ひう","lat":33.157418,"lng":129.758276,"prefecture":42,"lines":[11918],"attr":"eco","postal_code":"857-1151","address":"佐世保市日宇町","next":[9991143,9991145,9991142,1191814,9991144,1192202,1191812,9991005],"voronoi":{"lat":33.11212,"lng":129.755839,"delta_lat":[0,-15463,78802,8279,976,3801,22715,-1938],"delta_lng":[0,-26523,15587,3459,767,4207,35183,1084]}},
    {"code":9991138,"left":9991132,"right":9991142,"id":"5cc8e0","name":"中里(長崎)","name_kana":"なかざと","lat":33.20821,"lng":129.687448,"prefecture":42,"lines":[99911],"attr":"eco","postal_code":"858-0904","address":"佐世保市中里町","next":[9991139,9991129,9991144,9991137,9991128,9991140,9991136],"voronoi":{"lat":33.188614,"lng":129.68897,"delta_lat":[0,44898,1872,1196,-42648,-1121,-10749],"delta_lng":[0,-9913,2396,3867,15331,186,-6854]}},
    {"code":9991132,"left":9991136,"right":9991137,"id":"13a0df","name":"真申","name_kana":"まさる","lat":33.206498,"lng":129.65146,"prefecture":42,"lines":[99911],"attr":"eco","postal_code":"858-0908","address":"佐世保市光町","next":[9991130,9991136,9991137,9991131,9991133],"voronoi":{"lat":33.202412,"lng":129.62785,"delta_lat":[0,20993,833,-13703,-5707],"delta_lng":[0,33161,5466,238,-3394]}},
    {"code":9991136,"left":9991133,"id":"c57838","name":"上相浦","name_kana":"かみあいのうら","lat":33.195205,"lng":129.670453,"prefecture":42,"lines":[99911],"attr":"eco","postal_code":"858-0916","address":"佐世保市木宮町","next":[9991133,9991132,9991134,9991135,9991146,9991144,9991137,9991138],"voronoi":{"lat":33.178786,"lng":129.693456,"delta_lat":[0,-362,16929,6347,3127,5707,-21920,-6552],"delta_lng":[0,-175,-29774,-1253,1066,3394,22255,5013]}},
    {"code":9991133,"id":"2f41cb","name":"棚方","name_kana":"たながた","lat":33.201565,"lng":129.651796,"prefecture":42,"lines":[99911],"attr":"eco","postal_code":"858-0907","address":"佐世保市棚方町","next":[9991136,9992901,9991611,9991134,9991131,9991132],"voronoi":{"lat":33.202412,"lng":129.62785,"delta_lat":[0,-2359340,-64132,1081158,1341603,3127],"delta_lng":[0,-4749819,231249,2296551,2256424,1066]}},
    {"code":9991137,"id":"531a9a","name":"本山(長崎)","name_kana":"もとやま","lat":33.207029,"lng":129.682099,"prefecture":42,"lines":[99911],"attr":"eco","postal_code":"858-0905","address":"佐世保市下本山町","next":[9991132,9991130,9991129,9991138,9991136],"voronoi":{"lat":33.233512,"lng":129.679057,"delta_lat":[0,-6345,-2930,-13703,-21920],"delta_lng":[0,-10113,-2467,238,22255]}},
    {"code":9991142,"left":9991143,"right":9991141,"id":"d8da07","name":"泉福寺","name_kana":"せんぷくじ","lat":33.205816,"lng":129.727028,"prefecture":42,"lines":[99911],"attr":"eco","postal_code":"857-0134","address":"佐世保市瀬戸越３丁目","next":[9991141,9991006,1191813,9991005,9991143,9991105,9991104,9991007],"voronoi":{"lat":33.214836,"lng":129.78843,"delta_lat":[0,-3605,-22715,14161,61831,-20265,-3665,-21288],"delta_lng":[0,89,-35183,-31687,37815,21159,3149,4087]}},
    {"code":9991143,"id":"2ddc97","name":"山の田","name_kana":"やまのた","lat":33.196575,"lng":129.722898,"prefecture":42,"lines":[99911],"attr":"heat","postal_code":"857-0011","address":"佐世保市春日町","next":[9991141,1191813,9991140,9991142,9991144],"voronoi":{"lat":33.195735,"lng":129.706856,"delta_lat":[0,6345,596,-14161,-3801],"delta_lng":[0,6683,8109,31687,-4207]}},
    {"code":9991141,"id":"487a05","name":"左石","name_kana":"ひだりいし","lat":33.208896,"lng":129.721992,"prefecture":42,"lines":[99911],"attr":"eco","postal_code":"857-0136","address":"佐世保市田原町","next":[9991143,9991142,9991140,9991105,9991127],"voronoi":{"lat":33.250431,"lng":129.723651,"delta_lat":[0,-48350,596,61831,5460],"delta_lng":[0,-10112,8109,37815,-5221]}},
    {"code":1192203,"left":1192208,"right":9991002,"id":"34d25f","name":"南風崎","name_kana":"はえのさき","lat":33.086984,"lng":129.80111,"prefecture":42,"lines":[11922],"attr":"cool","postal_code":"859-3236","address":"佐世保市南風崎町小島郷","next":[1190538,1191811,1192202,1191810,1192204],"voronoi":{"lat":33.111745,"lng":129.830658,"delta_lat":[0,-330,-207013,20222,182901],"delta_lng":[0,-8559,-219784,110158,127696]}},
    {"code":1192208,"left":1192204,"right":1192210,"id":"f08d15","name":"松原(長崎)","name_kana":"まつばら","lat":32.97738,"lng":129.94619,"prefecture":42,"lines":[11922],"attr":"heat","postal_code":"856-0009","address":"大村市松原本町","next":[1190537,1192204,1192209,1190517,1190524,1192206,1192207],"voronoi":{"lat":32.994494,"lng":129.902456,"delta_lat":[0,-26902,-29622,-1328,40661,16460,3424],"delta_lng":[0,-53121,-22883,2733,222290,8526,-1609]}},
    {"code":1192204,"left":1192207,"right":1192205,"id":"4ec86b","name":"小串郷","name_kana":"おぐしごう","lat":33.063779,"lng":129.834347,"prefecture":42,"lines":[11922],"attr":"cool","postal_code":"859-3618","address":"東彼杵郡川棚町小串郷","next":[1192206,1192205,1192208,1190538,1190537,1191810,1192203],"voronoi":{"lat":32.924623,"lng":129.712474,"delta_lat":[0,3036,10310,29622,33339,106752,-158],"delta_lng":[0,42237,71742,22883,9937,-16458,-2645]}},
    {"code":1192207,"left":1192206,"id":"3758a8","name":"千綿","name_kana":"ちわた","lat":33.013107,"lng":129.945573,"prefecture":42,"lines":[11922],"attr":"heat","postal_code":"859-3928","address":"東彼杵郡東彼杵町平似田郷","next":[1192206,1190517,1191806,1190515,1190516,1192208],"voronoi":{"lat":32.994494,"lng":129.902456,"delta_lat":[0,103262,-1675,-59030,-39089,-775],"delta_lng":[0,89073,8655,39295,18688,225]}},
    {"code":1192206,"id":"a7dfaf","name":"彼杵","name_kana":"そのぎ","lat":33.039875,"lng":129.914541,"prefecture":42,"lines":[11922],"attr":"cool","postal_code":"859-3808","address":"東彼杵郡東彼杵町蔵本郷","next":[1192204,1192207,1191807,1192205,1191808,1192208,1191806],"voronoi":{"lat":32.994494,"lng":129.902456,"delta_lat":[0,-26902,33339,115018,625,-5654,-13164],"delta_lng":[0,-53121,9937,64987,10287,26325,30658]}},
    {"code":1192205,"id":"f4b345","name":"川棚","name_kana":"かわたな","lat":33.068368,"lng":129.864112,"prefecture":42,"lines":[11922],"attr":"cool","postal_code":"859-3605","address":"東彼杵郡川棚町百津郷","next":[1192204,1191810,1192206,1191808,1191809],"voronoi":{"lat":33.124609,"lng":129.882512,"delta_lat":[0,-16927,-106752,115018,4138],"delta_lng":[0,-39697,16458,64987,-12219]}},
    {"code":1192210,"left":1192211,"right":1192209,"id":"b5a795","name":"諏訪","name_kana":"すわ","lat":32.923627,"lng":129.960277,"prefecture":42,"lines":[11922],"attr":"eco","postal_code":"856-0024","address":"大村市諏訪","next":[1190524,1192212,1192209,1192211],"voronoi":{"lat":32.954875,"lng":130.046341,"delta_lat":[0,18421,-65045,14901],"delta_lng":[0,3911,-146690,92615]}},
    {"code":1192211,"id":"abe290","name":"大村(長崎)","name_kana":"おおむら","lat":32.911439,"lng":129.962238,"prefecture":42,"lines":[11922],"attr":"eco","postal_code":"856-0831","address":"大村市東本町","next":[1190534,1192210,1192212,1192209],"voronoi":{"lat":32.907818,"lng":129.902223,"delta_lat":[0,-23323,38657,-14901],"delta_lng":[0,51333,42621,-92615]}},
    {"code":1192209,"id":"a91784","name":"竹松","name_kana":"たけまつ","lat":32.939959,"lng":129.953035,"prefecture":42,"lines":[11922],"attr":"heat","postal_code":"856-0805","address":"大村市竹松本町","next":[1190534,1190524,1192208,1192210,1190537,1190535,1192211],"voronoi":{"lat":32.973296,"lng":130.050253,"delta_lat":[0,4007,-40661,-10232,-12968,-5624,433],"delta_lng":[0,1223,-222290,14749,26409,31880,1339]}},
    {"code":9991002,"left":9991004,"right":1191808,"id":"02f1ff","name":"三代橋","name_kana":"みだいばし","lat":33.188949,"lng":129.866336,"prefecture":41,"lines":[99910],"attr":"cool","postal_code":"844-0027","address":"西松浦郡有田町南原甲","next":[1191809,9991003,9991006,1191810,9991005],"voronoi":{"lat":33.208566,"lng":129.87019,"delta_lat":[0,-39270,-14727,63908,-3070],"delta_lng":[0,-22103,15336,21383,-6183]}},
    {"code":9991004,"left":9991003,"right":9991005,"id":"75dd04","name":"蔵宿","name_kana":"ぞうしゅく","lat":33.201898,"lng":129.850559,"prefecture":41,"lines":[99910],"attr":"cool","postal_code":"849-4164","address":"西松浦郡有田町仏ノ原丙","next":[1191810,9991005,9991003,1191812],"voronoi":{"lat":33.180868,"lng":129.828313,"delta_lat":[0,25182,-3519,-11869],"delta_lng":[0,35253,-68046,9130]}},
    {"code":9991003,"left":1191810,"id":"181d51","name":"黒川(佐賀)","name_kana":"くろごう","lat":33.195093,"lng":129.85542,"prefecture":41,"lines":[99910],"attr":"cool","postal_code":"849-4165","address":"西松浦郡有田町黒川甲","next":[9991002,9991004,9991005,1191810],"voronoi":{"lat":33.208566,"lng":129.87019,"delta_lat":[0,-2516,-25182,-11572],"delta_lng":[0,-6625,-35253,19775]}},
    {"code":1191810,"id":"b992f9","name":"三河内","name_kana":"みかわち","lat":33.150268,"lng":129.82919,"prefecture":42,"lines":[11918],"attr":"cool","postal_code":"859-3151","address":"佐世保市三川内本町","next":[1192205,9991004,9991002,1191812,9991003,1191811,1192204,1191809,1192203],"voronoi":{"lat":33.107682,"lng":129.842815,"delta_lat":[0,16927,29960,14727,11572,9794,-32037,-46881,-4220],"delta_lng":[0,39697,-19088,-15336,-19775,-23663,745,25264,9511]}},
    {"code":9991005,"id":"b4a95a","name":"西有田","name_kana":"にしありた","lat":33.208839,"lng":129.8502,"prefecture":41,"lines":[99910],"attr":"cool","postal_code":"849-4153","address":"西松浦郡有田町立部乙","next":[9991142,9991006,9991004,9991003,9991002,1191813,1191812],"voronoi":{"lat":33.206051,"lng":129.863566,"delta_lat":[0,2516,6841,-572,-3605,-1938,-6761],"delta_lng":[0,6625,8433,-90194,89,1084,5917]}},
    {"code":1191808,"left":1191809,"right":1191807,"id":"33265f","name":"上有田","name_kana":"かみありた","lat":33.190286,"lng":129.905404,"prefecture":41,"lines":[11918],"attr":"eco","postal_code":"844-0002","address":"西松浦郡有田町中樽","next":[9991006,1192206,1192013,1192012,1191809,9991008,1192205,1191807],"voronoi":{"lat":33.115948,"lng":129.924259,"delta_lat":[0,4138,98476,9706,610,3048,-5216,-110137],"delta_lng":[0,-12219,-27132,5500,518,18869,13226,11525]}},
    {"code":1191809,"id":"33eabe","name":"有田","name_kana":"ありた","lat":33.183779,"lng":129.881787,"prefecture":41,"lines":[11918,99910],"attr":"eco","postal_code":"844-0000","address":"西松浦郡有田町中部本町","next":[9991006,9991002,1191808,1191810,1192205],"voronoi":{"lat":33.124609,"lng":129.882512,"delta_lat":[0,29960,63908,85,-98476],"delta_lng":[0,-19088,21383,102,27132]}},
    {"code":1191807,"id":"40cdb7","name":"三間坂","name_kana":"みまさか","lat":33.194722,"lng":129.947798,"prefecture":41,"lines":[11918],"attr":"cool","postal_code":"849-2303","address":"武雄市山内町三間坂島巡甲","next":[1192012,1192206,1191806,1192011,1191808],"voronoi":{"lat":33.22671,"lng":129.923022,"delta_lat":[0,6062,-1049,-120804,5654],"delta_lng":[0,33492,9101,-4743,-26325]}},
    {"code":1190331,"left":9991210,"right":1190329,"id":"bcfd0b","name":"長洲","name_kana":"ながす","lat":32.935205,"lng":130.455652,"prefecture":43,"lines":[11903],"attr":"heat","postal_code":"869-0121","address":"玉名郡長洲町高浜１４７９","next":[9991221,1190330,1190332,1190329,9991220,9991217,9991219,9991218],"voronoi":{"lat":32.859982,"lng":130.42481,"delta_lat":[0,-14136,-6420,142865,-4741,-70146,-566,-43698],"delta_lng":[0,17256,10926,41480,-13470,-95502,342,36012]}},
    {"code":9991210,"left":1190528,"right":9991212,"id":"349066","name":"阿母崎","name_kana":"あぼざき","lat":32.830073,"lng":130.170196,"prefecture":42,"lines":[99912],"attr":"heat","postal_code":"859-1116","address":"雲仙市吾妻町阿母名１０９６-１","next":[9991211,9991207,9991209,1190523,9991208],"voronoi":{"lat":32.843121,"lng":130.154167,"delta_lat":[0,24950,1968,-130754,91062],"delta_lng":[0,2829,4971,67861,-71429]}},
    {"code":1190528,"left":9991205,"right":1190525,"id":"cbaba7","name":"西諫早","name_kana":"にしいさはや","lat":32.839632,"lng":130.021269,"prefecture":42,"lines":[11905],"attr":"heat","postal_code":"854-0075","address":"諫早市馬渡町","next":[1190529,1190531,9991202,1190527,1192212,9991203],"voronoi":{"lat":32.834503,"lng":130.037495,"delta_lat":[0,41019,-12602,-96490,-34812,52401],"delta_lng":[0,-22976,-16011,18993,20562,2964]}},
    {"code":9991205,"left":9991204,"right":9991207,"id":"bb0504","name":"干拓の里","name_kana":"かんたくのさと","lat":32.836138,"lng":130.093272,"prefecture":42,"lines":[99912],"attr":"heat","postal_code":"854-0034","address":"諫早市小野町２８９-２","next":[9991204,1190525,9991206],"voronoi":{"lat":32.848464,"lng":130.085674,"delta_lat":[0,-54537,64387],"delta_lng":[0,15245,3739]}},
    {"code":9991204,"left":1190529,"right":9991203,"id":"c60041","name":"小野(長崎)","name_kana":"おの","lat":32.833985,"lng":130.08557,"prefecture":42,"lines":[99912],"attr":"heat","postal_code":"854-0034","address":"諫早市小野町５２０-１３","next":[9991209,1190525,9991205,9991206,1190531,9991203,9991208],"voronoi":{"lat":32.793927,"lng":130.10092,"delta_lat":[0,54537,-1521,-157626,-80968,133184,1773],"delta_lng":[0,-15245,-7548,-25914,21464,28729,304]}},
    {"code":1190529,"left":1190530,"id":"1e5c07","name":"喜々津","name_kana":"ききつ","lat":32.832743,"lng":129.98627,"prefecture":42,"lines":[11905],"attr":"heat","postal_code":"859-0401","address":"諫早市多良見町化屋","next":[1190528,1190533,1190530,1192212,1190531],"voronoi":{"lat":32.77102,"lng":130.012965,"delta_lat":[0,62768,28194,937,-96490],"delta_lng":[0,-42247,17083,10707,18993]}},
    {"code":1190530,"id":"96bd4d","name":"市布","name_kana":"いちぬの","lat":32.818986,"lng":129.965831,"prefecture":42,"lines":[11905],"attr":"heat","postal_code":"859-0403","address":"諫早市多良見町市布","next":[1190534,1190533,1190529,1190531,1190535],"voronoi":{"lat":32.829971,"lng":129.937601,"delta_lat":[0,3818,-62768,55497,593],"delta_lng":[0,33117,42247,-79872,115]}},
    {"code":9991203,"id":"5af4d2","name":"幸","name_kana":"さいわい","lat":32.83705,"lng":130.066927,"prefecture":42,"lines":[99912],"attr":"heat","postal_code":"854-0022","address":"諫早市幸町８２１-２","next":[1190531,1190526,9991202,9991204,1190528,1190525],"voronoi":{"lat":32.848535,"lng":130.075109,"delta_lat":[0,-4555,-59962,-52401,-42300,157626],"delta_lng":[0,-13679,-20404,-2964,14150,25914]}},
    {"code":9991207,"left":9991209,"right":9991206,"id":"4f9750","name":"釜ノ鼻","name_kana":"かまのはな","lat":32.833992,"lng":130.135624,"prefecture":42,"lines":[99912],"attr":"heat","postal_code":"854-0204","address":"諫早市森山町田尻９８５-１","next":[1190523,9991210,1190524,9991206,9991208],"voronoi":{"lat":32.804884,"lng":130.123212,"delta_lat":[0,58533,5842,-1188,-24950],"delta_lng":[0,2574,14355,16855,-2829]}},
    {"code":9991209,"left":9991208,"id":"bd79fd","name":"愛野(長崎)","name_kana":"あいの","lat":32.818824,"lng":130.155855,"prefecture":42,"lines":[99912],"attr":"heat","postal_code":"854-0301","address":"雲仙市愛野町甲３８７３-３","next":[9991401,1190531,9991224,9991204,9992113,1192411,9991210,9991326,9991208,9991211],"voronoi":{"lat":32.739285,"lng":130.229827,"delta_lat":[0,91062,-88814,-133184,-18349,-115352,-26466,11538,96466,159522],"delta_lng":[0,-71429,-55993,-28729,1829,29847,7483,29524,64883,37456]}},
    {"code":9991208,"id":"50882d","name":"諫早東高校","name_kana":"いさはやひがしこうこう","lat":32.823084,"lng":130.149098,"prefecture":42,"lines":[99912],"attr":"heat","postal_code":"854-0205","address":"諫早市森山町杉谷１０９-２","next":[9991209,9991206,9991204,9991207,9991210],"voronoi":{"lat":32.843121,"lng":130.154167,"delta_lat":[0,-38237,-61578,-1773,88814],"delta_lng":[0,-30955,-20502,-304,55993]}},
    {"code":9991206,"id":"81bcdf","name":"森山","name_kana":"もりやま","lat":32.834969,"lng":130.113402,"prefecture":42,"lines":[99912],"attr":"heat","postal_code":"854-0201","address":"諫早市森山町下井牟田２４１１-５","next":[1190525,9991204,9991208,9991207,1190524,9991205],"voronoi":{"lat":32.863073,"lng":130.108474,"delta_lat":[0,344,-58533,-61578,50621,64387],"delta_lng":[0,17311,-2574,-20502,-1790,3739]}},
    {"code":1190525,"left":1190526,"right":1190523,"id":"5f6214","name":"肥前長田","name_kana":"ひぜんながた","lat":32.861773,"lng":130.079971,"prefecture":42,"lines":[11905],"attr":"eco","postal_code":"859-0301","address":"諫早市長田町","next":[9991204,1190524,1192212,9991205,9991206,1190526,1190527,9991203],"voronoi":{"lat":32.848464,"lng":130.085674,"delta_lat":[0,9850,4759,67706,-11481,-12735,-58028,-1592],"delta_lng":[0,18984,3816,-61979,-3341,3569,28386,3017]}},
    {"code":1190526,"left":9991202,"right":1192212,"id":"fbb624","name":"東諫早","name_kana":"ひがしいさはや","lat":32.852823,"lng":130.061675,"prefecture":42,"lines":[11905],"attr":"eco","postal_code":"859-0311","address":"諫早市小豆崎町","next":[9991203,1190527,1190525,9991202],"voronoi":{"lat":32.848535,"lng":130.075109,"delta_lat":[0,58028,-54715,-7868],"delta_lng":[0,-28386,4918,9789]}},
    {"code":9991202,"left":1190527,"id":"363aad","name":"本諫早","name_kana":"ほんいさはや","lat":32.841841,"lng":130.052848,"prefecture":42,"lines":[99912],"attr":"heat","postal_code":"854-0014","address":"諫早市東小路町４-２２","next":[1190527,1190528,9991203,1190526],"voronoi":{"lat":32.784018,"lng":130.041026,"delta_lat":[0,50484,17346,-7868],"delta_lng":[0,-3532,14147,9789]}},
    {"code":1190527,"id":"a86fba","name":"諫早","name_kana":"いさはや","lat":32.851018,"lng":130.041596,"prefecture":42,"lines":[11905,11922,99912],"attr":"heat","postal_code":"854-0072","address":"諫早市永昌町","next":[9991202,1190526,1192212,1190528,1190525],"voronoi":{"lat":32.919299,"lng":130.043154,"delta_lat":[0,-43777,-41019,17346,54715],"delta_lng":[0,-28636,22976,14147,-4918]}},
    {"code":1192212,"id":"1ed208","name":"岩松","name_kana":"いわまつ","lat":32.890513,"lng":129.981218,"prefecture":42,"lines":[11922],"attr":"eco","postal_code":"856-0044","address":"大村市岩松町郷","next":[1190524,1190525,1192210,1190527,1190534,1190533,1190529,1190528,1192211],"voronoi":{"lat":32.954875,"lng":130.046341,"delta_lat":[0,-24095,-11481,-43777,-12602,-937,11217,11295,38657],"delta_lng":[0,154,-3341,-28636,-16011,-10707,-26148,-8096,42621]}},
    {"code":1190523,"left":1190524,"right":1190522,"id":"bf3994","name":"湯江","name_kana":"ゆえ","lat":32.904811,"lng":130.140614,"prefecture":42,"lines":[11905],"attr":"eco","postal_code":"859-0132","address":"諫早市高来町三部壱","next":[9991207,1190524,1190519,9991210,1190522,9991211],"voronoi":{"lat":32.974556,"lng":130.125941,"delta_lat":[0,12254,-117551,-1188,1968,4562],"delta_lng":[0,-41647,55846,16855,4971,5970]}},
    {"code":1190524,"id":"b8d07b","name":"小江","name_kana":"おえ","lat":32.891351,"lng":130.112282,"prefecture":42,"lines":[11905],"attr":"eco","postal_code":"859-0113","address":"諫早市高来町下与","next":[1190523,1192210,1192212,1190525,1192209,1190518,9991207,1192208,1190519,9991206,1190517],"voronoi":{"lat":32.989764,"lng":130.078093,"delta_lat":[0,-2953,-117551,-5842,-344,67706,24095,18421,4007,16460,-2066],"delta_lng":[0,6201,55846,-14355,-17311,-61979,-154,3911,1223,8526,11255]}},
    {"code":1190522,"id":"44e53c","name":"長里","name_kana":"ながさと","lat":32.91526,"lng":130.165484,"prefecture":42,"lines":[11905],"attr":"eco","postal_code":"859-0151","address":"諫早市小長井町打越","next":[1190521,9991211,1190519,9991212,1190520,1190523],"voronoi":{"lat":32.974556,"lng":130.125941,"delta_lat":[0,-2028,-6510,-79649,-7694,-4074],"delta_lng":[0,21108,9338,33590,-9541,-12500]}},
    {"code":9991212,"left":9991224,"right":9991216,"id":"ded4be","name":"古部","name_kana":"こべ","lat":32.856312,"lng":130.213024,"prefecture":42,"lines":[99912],"attr":"heat","postal_code":"859-1216","address":"雲仙市瑞穂町古部乙８２-４","next":[1190521,9991211,9991213,1190522],"voronoi":{"lat":32.893452,"lng":130.207994,"delta_lat":[0,-101535,86758,7694],"delta_lng":[0,32527,-60085,9541]}},
    {"code":9991224,"left":9991211,"right":9991222,"id":"1929b5","name":"島原港","name_kana":"しまばらこう","lat":32.768507,"lng":130.370151,"prefecture":42,"lines":[99912],"attr":"cool","postal_code":"855-0861","address":"島原市下川尻町７９２３-２","next":[9991213,9991209,1192411,1192408,9991220,9991222,9991211,9991223,9991221],"voronoi":{"lat":32.777159,"lng":130.366132,"delta_lat":[0,-59446,-27925,-133602,159522,40256,8390,16133,-714],"delta_lng":[0,79653,-22987,-215555,37456,16036,5324,57527,33779]}},
    {"code":9991211,"left":9991220,"right":9991218,"id":"0ead46","name":"吾妻","name_kana":"あづま","lat":32.840305,"lng":130.189911,"prefecture":42,"lines":[99912],"attr":"heat","postal_code":"859-1107","address":"雲仙市吾妻町牛口名２８０-３","next":[9991210,9991212,9991213,9991224,1190522,9991209,1190523],"voronoi":{"lat":32.870039,"lng":130.161966,"delta_lat":[0,-130754,-23577,40256,35953,86758,-4074],"delta_lng":[0,67861,14871,16036,-20213,-60085,-12500]}},
    {"code":9991220,"left":9991219,"id":"dc8b64","name":"三会","name_kana":"みえ","lat":32.814936,"lng":130.35713,"prefecture":42,"lines":[99912],"attr":"cool","postal_code":"855-0012","address":"島原市大手原町甲２２１８-１","next":[9991213,9991224,9991221,9991215,9991219,1190331],"voronoi":{"lat":32.780488,"lng":130.323585,"delta_lat":[0,-16133,12179,11432,72017,-14136],"delta_lng":[0,-57527,4197,7401,147153,17256]}},
    {"code":9991219,"id":"f83582","name":"松尾(長崎)","name_kana":"まつお","lat":32.834176,"lng":130.347714,"prefecture":42,"lines":[99912],"attr":"cool","postal_code":"859-1411","address":"島原市有明町大三東甲２０１２","next":[9991215,9991220,9991217,9991218,1190331],"voronoi":{"lat":32.787966,"lng":130.277656,"delta_lat":[0,15442,26467,33266,-3158],"delta_lng":[0,7393,32728,104076,2956]}},
    {"code":9991218,"id":"391be1","name":"大三東","name_kana":"おおみさき","lat":32.843734,"lng":130.344659,"prefecture":42,"lines":[99912],"attr":"cool","postal_code":"859-1413","address":"島原市有明町大三東丙１３５-２","next":[9991217,9991219,1190331],"voronoi":{"lat":32.829875,"lng":130.317778,"delta_lat":[0,76964,-43698],"delta_lng":[0,68064,36012]}},
    {"code":9991222,"left":9991223,"right":9991221,"id":"c3f319","name":"霊丘公園体育館","name_kana":"れいきゅうこうえんたいいくかん","lat":32.782198,"lng":130.374233,"prefecture":42,"lines":[99912],"attr":"cool","postal_code":"855-0802","address":"島原市弁天町２-７３８９-１０","next":[9991221,9991224,1190332,9991223],"voronoi":{"lat":32.777159,"lng":130.366132,"delta_lat":[0,2614,47161,-23732],"delta_lng":[0,-8767,108103,25911]}},
    {"code":9991223,"id":"7fc412","name":"島原船津","name_kana":"しまばらふなつ","lat":32.775768,"lng":130.37557,"prefecture":42,"lines":[99912],"attr":"cool","postal_code":"855-0814","address":"島原市津町４０９-１","next":[1190332,1192406,1192408,9991224,9991222],"voronoi":{"lat":32.797764,"lng":130.497655,"delta_lat":[0,-46684,-33366,59446,26043],"delta_lng":[0,-21500,-30371,-79653,125247]}},
    {"code":9991221,"id":"d789af","name":"島原","name_kana":"しまばら","lat":32.790489,"lng":130.370616,"prefecture":42,"lines":[99912],"attr":"cool","postal_code":"855-0042","address":"島原市片町５７７-１","next":[9991222,1190331,9991220,1190332,9991224],"voronoi":{"lat":32.826934,"lng":130.465467,"delta_lat":[0,12492,6420,-65359,-714],"delta_lng":[0,-12476,-10926,-118480,33779]}},
    {"code":9991216,"left":9991214,"right":1190332,"id":"8e4525","name":"多比良","name_kana":"たいら","lat":32.872061,"lng":130.308528,"prefecture":42,"lines":[99912],"attr":"eco","postal_code":"859-1322","address":"雲仙市国見町多比良乙２００-２","next":[9991215,1190520,9991217,1190330],"voronoi":{"lat":32.985403,"lng":130.320679,"delta_lat":[0,-32183,-128884,104764],"delta_lng":[0,-32694,1810,73385]}},
    {"code":9991214,"left":9991215,"right":1190521,"id":"5933aa","name":"西郷","name_kana":"さいごう","lat":32.872801,"lng":130.243814,"prefecture":42,"lines":[99912],"attr":"eco","postal_code":"859-1206","address":"雲仙市瑞穂町西郷辛１３６-１","next":[1190521,9991213,9991215,1190520],"voronoi":{"lat":32.836682,"lng":130.255012,"delta_lat":[0,60364,33396,5835],"delta_lng":[0,-41154,29818,16275]}},
    {"code":9991215,"left":9991213,"id":"a30361","name":"神代(長崎)","name_kana":"こうじろ","lat":32.871516,"lng":130.269728,"prefecture":42,"lines":[99912],"attr":"eco","postal_code":"859-1302","address":"雲仙市国見町神代乙４５４-２","next":[1190520,9991219,9991216,9991217,9991214,9991220,9991213],"voronoi":{"lat":32.836682,"lng":130.255012,"delta_lat":[0,99595,16943,-128884,-20929,-15442,-11432],"delta_lng":[0,4939,28034,1810,-4745,-7393,-7401]}},
    {"code":9991213,"id":"0ccae8","name":"大正(長崎)","name_kana":"たいしょう","lat":32.860303,"lng":130.225482,"prefecture":42,"lines":[99912],"attr":"eco","postal_code":"859-1215","address":"雲仙市瑞穂町古部甲５-２","next":[9991224,9991220,9991214,9991211,9991212,9991215,1190521],"voronoi":{"lat":32.893452,"lng":130.207994,"delta_lat":[0,-101535,-35953,8390,12179,60149,60364],"delta_lng":[0,32527,20213,5324,4197,-15244,-41154]}},
    {"code":1190521,"id":"374378","name":"小長井","name_kana":"こながい","lat":32.924075,"lng":130.186386,"prefecture":42,"lines":[11905],"attr":"eco","postal_code":"859-0165","address":"諫早市小長井町小川原浦","next":[9991212,1190520,1190522,9991214,9991213],"voronoi":{"lat":32.930443,"lng":130.243675,"delta_lat":[0,35576,-79649,7083,3594],"delta_lng":[0,-87288,33590,18017,5863]}},
    {"code":1190332,"left":9991217,"right":1190333,"id":"45e8b3","name":"大野下","name_kana":"おおのしも","lat":32.921737,"lng":130.502038,"prefecture":43,"lines":[11903],"attr":"heat","postal_code":"869-0224","address":"玉名市岱明町大野下","next":[1192406,3600147,9991223,1190329,9991222,1190331,1190333,101005,1190334,9991221],"voronoi":{"lat":32.803202,"lng":130.491378,"delta_lat":[0,-5439,8992,14309,177458,-115,-4450,-11666,-142865,-12492],"delta_lng":[0,6277,35656,1436,-16365,-1290,-9981,-12640,-41480,12476]}},
    {"code":9991217,"id":"10b6ce","name":"有明湯江","name_kana":"ありあけゆえ","lat":32.858249,"lng":130.328246,"prefecture":42,"lines":[99912],"attr":"eco","postal_code":"859-1401","address":"島原市有明町湯江甲４７２-２","next":[9991215,9991218,9991219,1190331,9991216,1190330],"voronoi":{"lat":32.906839,"lng":130.385841,"delta_lat":[0,-76964,-26467,20929,104764,-21696],"delta_lng":[0,-68064,-32728,4745,73385,22320]}},
    {"code":1190333,"id":"32295a","name":"玉名","name_kana":"たまな","lat":32.926021,"lng":130.548494,"prefecture":43,"lines":[11903],"attr":"heat","postal_code":"865-0064","address":"玉名市中","next":[1190332,1190334,101006,101005],"voronoi":{"lat":32.998522,"lng":130.518383,"delta_lat":[0,-177458,101576,75966],"delta_lng":[0,16365,33907,-50066]}},
    {"code":1190329,"left":1190514,"right":3600143,"id":"069782","name":"荒尾(熊本)","name_kana":"あらお","lat":32.994682,"lng":130.434717,"prefecture":43,"lines":[11903],"attr":"heat","postal_code":"864-0002","address":"荒尾市大字万田","next":[1190332,1190520,1190331,1190328,3600147,1190330],"voronoi":{"lat":32.982292,"lng":130.494472,"delta_lat":[0,11666,2762,47408,-57041,-9536],"delta_lng":[0,12640,-7910,-183378,4923,160255]}},
    {"code":1190514,"left":1190519,"right":3600136,"id":"ba1f3c","name":"肥前竜王","name_kana":"ひぜんりゅうおう","lat":33.146663,"lng":130.12042,"prefecture":41,"lines":[11905],"attr":"cool","postal_code":"849-1204","address":"杵島郡白石町坂田","next":[1191804,1190515,1190516,1190517,1191802,1191803,1190513],"voronoi":{"lat":33.118126,"lng":130.161293,"delta_lat":[0,2461,39172,5783,8657,2827,-42557],"delta_lng":[0,-37981,-55806,4549,16189,13264,109642]}},
    {"code":1190519,"left":1190516,"right":1190520,"id":"f721f6","name":"多良","name_kana":"たら","lat":33.02524,"lng":130.176049,"prefecture":41,"lines":[11905],"attr":"eco","postal_code":"849-1602","address":"藤津郡太良町大字多良","next":[1190523,3600139,1190518,3600137,1190522,1190524,1190520,3600140],"voronoi":{"lat":33.078955,"lng":130.306207,"delta_lat":[0,6993,23738,-119923,-2953,-12254,-2028,100086],"delta_lng":[0,-3246,-13651,-211216,6201,41647,21108,161491]}},
    {"code":1190516,"left":1190518,"right":1190515,"id":"3a9c7f","name":"肥前浜","name_kana":"ひぜんはま","lat":33.095103,"lng":130.117079,"prefecture":41,"lines":[11905],"attr":"cool","postal_code":"849-1322","address":"鹿島市浜町","next":[1190517,1190514,1190515,1192207],"voronoi":{"lat":33.118126,"lng":130.161293,"delta_lat":[0,2461,-83537,-39089],"delta_lng":[0,-37981,-83832,18688]}},
    {"code":1190518,"left":1190517,"id":"d59224","name":"肥前飯田","name_kana":"ひぜんいいだ","lat":33.055701,"lng":130.158754,"prefecture":41,"lines":[11905],"attr":"eco","postal_code":"849-1324","address":"鹿島市大字飯田乙","next":[1190524,1190513,1190519,1190512,3600137,1190508,1190510,3600136,1190517,1190509],"voronoi":{"lat":33.135111,"lng":130.252333,"delta_lat":[0,1187,178,-146,-144633,-1933,119923,8083,1135,9597],"delta_lng":[0,-3351,-13825,-842,-163058,6837,211216,-3395,-523,-18247]}},
    {"code":1190517,"id":"00300b","name":"肥前七浦","name_kana":"ひぜんななうら","lat":33.070931,"lng":130.145245,"prefecture":41,"lines":[11905],"attr":"eco","postal_code":"849-1323","address":"鹿島市大字音成","next":[1192208,1190516,1192207,1190514,1190513,1190518,1190524],"voronoi":{"lat":33.136329,"lng":130.234314,"delta_lat":[0,-1860,-16343,-120165,-775,-3424,-2066],"delta_lng":[0,-23165,-49857,-103125,225,1609,11255]}},
    {"code":1190515,"id":"9e74d4","name":"肥前鹿島","name_kana":"ひぜんかしま","lat":33.114445,"lng":130.097805,"prefecture":41,"lines":[11905],"attr":"cool","postal_code":"849-1311","address":"鹿島市大字高津原","next":[1191805,1191806,1190514,1191804,1190516,1192207],"voronoi":{"lat":33.096081,"lng":130.000184,"delta_lat":[0,10314,49047,4318,-39172,-83537],"delta_lng":[0,6944,53091,7286,55806,-83832]}},
    {"code":1190520,"left":1190330,"right":3600139,"id":"fb5c5e","name":"肥前大浦","name_kana":"ひぜんおおうら","lat":32.975043,"lng":130.207159,"prefecture":41,"lines":[11905],"attr":"eco","postal_code":"849-1613","address":"藤津郡太良町大字大浦丙","next":[1190521,9991215,3600140,1190330,1190329,1190328,9991216,9991214,1190519,1190522],"voronoi":{"lat":32.930443,"lng":130.243675,"delta_lat":[0,5835,16943,32183,1683,57041,26754,1733,-100086,-6510],"delta_lng":[0,16275,28034,32694,68,-4923,-6186,-1097,-161491,9338]}},
    {"code":1190330,"id":"04950f","name":"南荒尾","name_kana":"みなみあらお","lat":32.966029,"lng":130.433012,"prefecture":43,"lines":[11903],"attr":"heat","postal_code":"864-0032","address":"荒尾市大字増永","next":[1190520,1190331,9991216,9991217,1190329],"voronoi":{"lat":32.907405,"lng":130.385499,"delta_lat":[0,21696,56303,1683,-9536],"delta_lng":[0,-22320,-42501,68,160255]}},
    {"code":3600139,"id":"de9118","name":"塩塚","name_kana":"しおつか","lat":33.143725,"lng":130.431232,"prefecture":40,"lines":[36001],"attr":"heat","postal_code":"839-0243","address":"柳川市大和町塩塚２０６４-２","next":[1190324,1190519,3600138,1190323,3600140,3600137],"voronoi":{"lat":33.085948,"lng":130.30296,"delta_lat":[0,-6993,60723,18879,1487,-26351],"delta_lng":[0,3246,145246,4737,-365,-67584]}},
    {"code":3600136,"left":1191805,"right":3600137,"id":"3aa066","name":"矢加部","name_kana":"やかべ","lat":33.17418,"lng":130.415685,"prefecture":40,"lines":[36001],"attr":"eco","postal_code":"832-0806","address":"柳川市三橋町柳河３９４-３","next":[3600137,1190518,3600135,1190508,1190507],"voronoi":{"lat":33.145442,"lng":130.30041,"delta_lat":[0,-26538,-1135,57970,36642],"delta_lng":[0,-15019,523,147032,-81496]}},
    {"code":1191805,"left":1190513,"right":1191804,"id":"094dd2","name":"武雄温泉","name_kana":"たけおおんせん","lat":33.196151,"lng":130.022322,"prefecture":41,"lines":[11918],"attr":"heat","postal_code":"843-0024","address":"武雄市武雄町大字富岡","next":[1191806,1190515,1191804,1192011],"voronoi":{"lat":33.241666,"lng":129.998361,"delta_lat":[0,-135271,49047,92124],"delta_lng":[0,8767,53091,-55058]}},
    {"code":1190513,"left":1191806,"id":"d42a57","name":"肥前白石","name_kana":"ひぜんしろいし","lat":33.186679,"lng":130.135952,"prefecture":41,"lines":[11905],"attr":"cool","postal_code":"849-1112","address":"杵島郡白石町大字福田","next":[1190512,1190518,1191802,1190517,1190514],"voronoi":{"lat":33.177026,"lng":130.101507,"delta_lat":[0,37064,-77615,-146,-1860],"delta_lng":[0,32335,101314,-842,-23165]}},
    {"code":1191806,"id":"9d49b3","name":"永尾","name_kana":"ながお","lat":33.193439,"lng":129.980476,"prefecture":41,"lines":[11918],"attr":"cool","postal_code":"849-2301","address":"武雄市山内町犬走","next":[1191805,1192011,1190515,1191807,1192207,1192206],"voronoi":{"lat":33.110919,"lng":129.960872,"delta_lat":[0,120804,9942,-135271,-10314,1675],"delta_lng":[0,4743,32747,8767,-6944,-8655]}},
    {"code":1191804,"id":"e734b6","name":"高橋","name_kana":"たかはし","lat":33.2081,"lng":130.042315,"prefecture":41,"lines":[11918],"attr":"heat","postal_code":"843-0001","address":"武雄市朝日町大字甘久","next":[1190514,1192109,1192010,1192108,1191803,1190515,1191805,1192110,1192011],"voronoi":{"lat":33.247565,"lng":130.005161,"delta_lat":[0,-92124,4318,5783,93299,8562,1697,-63,-13595],"delta_lng":[0,55058,7286,4549,-18595,-12757,-10980,-1991,-16710]}},
    {"code":3600137,"left":3600138,"right":3600135,"id":"accc7f","name":"西鉄柳川","name_kana":"にしてつやながわ","lat":33.1651,"lng":130.419265,"prefecture":40,"lines":[36001],"attr":"eco","postal_code":"832-0822","address":"柳川市三橋町下百町４６-２","next":[1190519,3600136,1190518,3600138,3600139,3600135],"voronoi":{"lat":33.17574,"lng":130.432946,"delta_lat":[0,-57970,-8083,-23738,47745,40846],"delta_lng":[0,-147032,3395,13651,85280,53407]}},
    {"code":3600138,"id":"e79e7b","name":"徳益","name_kana":"とくます","lat":33.15541,"lng":130.426676,"prefecture":40,"lines":[36001],"attr":"heat","postal_code":"839-0241","address":"柳川市大和町徳益","next":[1190323,3600139,3600137,3600135],"voronoi":{"lat":33.160044,"lng":130.455824,"delta_lat":[0,-26351,40846,1611],"delta_lng":[0,-67584,53407,13739]}},
    {"code":3600135,"id":"a0b096","name":"蒲池(福岡)","name_kana":"かまち","lat":33.189687,"lng":130.422657,"prefecture":40,"lines":[36001],"attr":"eco","postal_code":"832-0001","address":"柳川市大字蒲生９６２-３","next":[3600134,1190323,101004,1190506,3600138,3600136,1190507,3600137],"voronoi":{"lat":33.17574,"lng":130.432946,"delta_lat":[0,36642,6951,19978,-60282,-1740,-1138,-1611],"delta_lng":[0,-81496,4143,23374,77308,-294,-595,-13739]}},
    {"code":3600143,"left":3600144,"right":1190325,"id":"b5d18c","name":"西鉄渡瀬","name_kana":"にしてつわたぜ","lat":33.086848,"lng":130.458729,"prefecture":40,"lines":[36001],"attr":"heat","postal_code":"837-0906","address":"大牟田市大字倉永字火渡３３６６-１","next":[1190326,3600147,1190325,3600144,3600142,3600146],"voronoi":{"lat":33.078715,"lng":130.458944,"delta_lat":[0,12610,2030,-23560,-204,-256],"delta_lng":[0,18349,-18996,-43541,1128,15595]}},
    {"code":3600144,"left":3600146,"right":101005,"id":"68299c","name":"倉永","name_kana":"くらなが","lat":33.07215,"lng":130.463749,"prefecture":40,"lines":[36001],"attr":"heat","postal_code":"837-0906","address":"大牟田市大字倉永字笹尾８３-１２","next":[1190327,3600146,3600145,3600143,1190326],"voronoi":{"lat":33.078715,"lng":130.458944,"delta_lat":[0,-9380,-1992,-1261,2029],"delta_lng":[0,-27465,7530,7745,25687]}},
    {"code":3600146,"left":3600147,"right":1190327,"id":"34748e","name":"西鉄銀水","name_kana":"にしてつぎんすい","lat":33.050935,"lng":130.458139,"prefecture":40,"lines":[36001],"attr":"heat","postal_code":"837-0917","address":"大牟田市大字草木字横木１２７-１","next":[3600144,1190327,101005,3600147,3600143],"voronoi":{"lat":33.067343,"lng":130.439009,"delta_lat":[0,-39706,-17636,59590,-256],"delta_lng":[0,56580,11694,-91399,15595]}},
    {"code":3600147,"left":1190328,"id":"d6b587","name":"新栄町(福岡)","name_kana":"しんさかえまち","lat":33.038453,"lng":130.450001,"prefecture":40,"lines":[36001],"attr":"heat","postal_code":"836-0041","address":"大牟田市新栄町１０-１","next":[1190332,3600146,3600143,3600142,101005,1190328,1190329],"voronoi":{"lat":32.998407,"lng":130.517093,"delta_lat":[0,11593,59590,204,1008,-74083,-2762],"delta_lng":[0,-9810,-91399,-1128,-19213,103659,7910]}},
    {"code":1190328,"id":"7785f9","name":"大牟田","name_kana":"おおむた","lat":33.029754,"lng":130.443784,"prefecture":40,"lines":[11903,36001],"attr":"heat","postal_code":"836-0843","address":"大牟田市不知火町１丁目","next":[3600147,3600140,1190329,1190520,3600142,3600141],"voronoi":{"lat":33.070802,"lng":130.395543,"delta_lat":[0,-74083,47408,26754,1695,-1416],"delta_lng":[0,103659,-183378,-6186,42997,40307]}},
    {"code":1190327,"id":"daa0ce","name":"銀水","name_kana":"ぎんすい","lat":33.054932,"lng":130.460944,"prefecture":40,"lines":[11903],"attr":"eco","postal_code":"837-0917","address":"大牟田市大字草木","next":[3600144,3600145,3600146,101005],"voronoi":{"lat":33.067343,"lng":130.439009,"delta_lat":[0,-1261,-16239,-22206],"delta_lng":[0,7745,35820,13015]}},
    {"code":101005,"left":3600145,"right":1190326,"id":"c029cc","name":"新大牟田","name_kana":"しんおおむた","lat":33.071201,"lng":130.488702,"prefecture":40,"lines":[1010],"attr":"heat","postal_code":"837-0913","address":"福岡県大牟田市大字岩本２５０９－３","next":[1190324,1190325,3600146,1190327,101004,1191306,101006,1190332,3600147,1190335,3600145,1190323,1190326,1190333],"voronoi":{"lat":32.998522,"lng":130.518383,"delta_lat":[0,-115,11593,17636,22206,17659,24894,14474,8893,4791,-1259,-2415,-6050,-112223],"delta_lng":[0,-1290,-9810,-11694,-13015,-6159,4922,14379,31736,116734,47577,3948,-6794,-170328]}},
    {"code":3600145,"id":"7c5223","name":"東甘木","name_kana":"ひがしあまぎ","lat":33.062756,"lng":130.464491,"prefecture":40,"lines":[36001],"attr":"heat","postal_code":"837-0905","address":"大牟田市大字甘木４６９-３","next":[1190327,3600144,101005,1190326],"voronoi":{"lat":33.06811,"lng":130.47244,"delta_lat":[0,-2029,-16239,17659],"delta_lng":[0,-25687,35820,-6159]}},
    {"code":1190326,"id":"46dc54","name":"吉野(福岡)","name_kana":"よしの","lat":33.075599,"lng":130.466459,"prefecture":40,"lines":[11903],"attr":"eco","postal_code":"837-0906","address":"大牟田市倉永字神屋原","next":[3600143,3600145,101005,1190325,3600144],"voronoi":{"lat":33.078715,"lng":130.458944,"delta_lat":[0,12610,1071,-24894,609],"delta_lng":[0,18349,4044,-4922,-3974]}},
    {"code":1190325,"left":3600140,"right":1190323,"id":"b77e80","name":"渡瀬(福岡)","name_kana":"わたぜ","lat":33.099622,"lng":130.460094,"prefecture":40,"lines":[11903],"attr":"eco","postal_code":"839-0215","address":"みやま市高田町濃施","next":[3600142,101005,3600141,1190324,3600143,1190326],"voronoi":{"lat":33.106869,"lng":130.495716,"delta_lat":[0,10805,-12127,-12193,-2030,1071],"delta_lng":[0,-33190,-8313,4084,18996,4044]}},
    {"code":3600140,"left":3600142,"right":3600134,"id":"f8a3da","name":"西鉄中島","name_kana":"にしてつなかしま","lat":33.122444,"lng":130.440129,"prefecture":40,"lines":[36001],"attr":"heat","postal_code":"839-0254","address":"柳川市大和町中島４４６１","next":[1190520,1190328,3600141,3600139,1190519,1190324],"voronoi":{"lat":33.139678,"lng":130.451452,"delta_lat":[0,-60723,-6341,-1733,1695,49904],"delta_lng":[0,-145246,2334,1097,42997,105050]}},
    {"code":3600142,"left":3600141,"id":"f78cad","name":"開","name_kana":"ひらき","lat":33.097275,"lng":130.453087,"prefecture":40,"lines":[36001],"attr":"heat","postal_code":"839-0204","address":"みやま市高田町北新開３６０-２","next":[1190325,3600147,3600143,1190328,3600141],"voronoi":{"lat":33.093354,"lng":130.458297,"delta_lat":[0,-23560,1008,358,34387],"delta_lng":[0,-43541,-19213,-2601,61271]}},
    {"code":3600141,"id":"e208b5","name":"江の浦","name_kana":"えのうら","lat":33.108896,"lng":130.446565,"prefecture":40,"lines":[36001],"attr":"heat","postal_code":"839-0212","address":"みやま市高田町江浦町６１８-４","next":[1190324,1190325,3600140,1190328,3600142],"voronoi":{"lat":33.07116,"lng":130.392941,"delta_lat":[0,1416,49904,-4806,-12127],"delta_lng":[0,-40307,105050,4841,-8313]}},
    {"code":3600134,"id":"d17e0c","name":"八丁牟田","name_kana":"はっちょうむた","lat":33.209035,"lng":130.437744,"prefecture":40,"lines":[36001],"attr":"eco","postal_code":"830-0416","address":"三潴郡大木町大字八町牟田７４-２","next":[3600135,1190505,101004,1190506,1190321,3600133],"voronoi":{"lat":33.253424,"lng":130.390875,"delta_lat":[0,-640,-13473,-60282,20034,2883],"delta_lng":[0,-1080,-10828,77308,11538,-38]}},
    {"code":1190323,"left":1190324,"right":101004,"id":"b696f6","name":"瀬高","name_kana":"せたか","lat":33.157,"lng":130.485181,"prefecture":40,"lines":[11903],"attr":"eco","postal_code":"835-0024","address":"みやま市瀬高町下庄２３１５","next":[3600135,3600138,101004,1190324,3600139,101005],"voronoi":{"lat":33.115763,"lng":130.527452,"delta_lat":[0,42795,1487,16106,1138,-56735],"delta_lng":[0,-71262,-365,-438,595,188204]}},
    {"code":1190324,"id":"19fa97","name":"南瀬高","name_kana":"みなみせたか","lat":33.133699,"lng":130.471188,"prefecture":40,"lines":[11903],"attr":"eco","postal_code":"835-0013","address":"みやま市瀬高町太神","next":[3600139,3600141,101005,1190325,1190323,3600140],"voronoi":{"lat":33.139678,"lng":130.451452,"delta_lat":[0,18879,-42795,-8893,10805,4806],"delta_lng":[0,4737,71262,-31736,-33190,-4841]}},
    {"code":101004,"id":"83dba4","name":"筑後船小屋","name_kana":"ちくごふなごや","lat":33.178058,"lng":130.491529,"prefecture":40,"lines":[1010,11903],"attr":"cool","postal_code":"833-0015","address":"筑後市大字津島","next":[1191306,3600135,1190323,101005,3600134,1190321],"voronoi":{"lat":33.119295,"lng":130.691763,"delta_lat":[0,1259,56735,1740,20034,-34613],"delta_lng":[0,-47577,-188204,294,11538,180798]}}
  ]
}