{
  "name":"segment1",
  "root":9992111,
  "east":130.558015,
  "west":-180.0,
  "south":-90.0,
  "north":32.744762,
  "station_size":145,
  "node_list":[
    {"code":9992111,"left":1190404,"right":1190413,"id":"a4ef65","name":"津奈木","name_kana":"つなぎ","lat":32.232417,"lng":130.450165,"prefecture":43,"lines":[99921],"attr":"eco","postal_code":"869-5600","address":"葦北郡津奈木町","next":[9992113,9992108,101009,9992110,9992109,1193220],"voronoi":{"lat":32.277015,"lng":130.459476,"delta_lat":[0,18080,24493,-62531,-117054,19358],"delta_lng":[0,-26875,-60648,31607,118814,20890]}},
    {"code":1190404,"left":9992716,"right":9992119,"id":"eb6ed8","name":"串木野","name_kana":"くしきの","lat":31.721605,"lng":130.274531,"prefecture":46,"lines":[11904],"attr":"eco","postal_code":"896-0001","address":"鹿児島県いちき串木野市曙町11760","next":[9992126,1190414,1193036,1190403,1190402],"voronoi":{"lat":31.729409,"lng":130.310506,"delta_lat":[0,-257837,-40719,351552,-5246],"delta_lng":[0,-480161,-734755,1140038,11431]}},
    {"code":9992716,"left":9992709,"right":1193029,"id":"6dafda","name":"石嶺","name_kana":"いしみね","lat":26.227222,"lng":127.729167,"prefecture":47,"lines":[99927],"attr":"eco","postal_code":"903-0804","address":"沖縄県那覇市首里石嶺町二丁目90","open_date":"2019-10-01","next":[9992714,9992715,9992717,9992719],"voronoi":{"lat":26.232722,"lng":127.737553,"delta_lat":[0,-1309,-6894,-21661],"delta_lng":[0,-14832,1741,47335]}},
    {"code":9992709,"left":9992706,"right":9992902,"id":"c27796","name":"牧志","name_kana":"まきし","lat":26.217248,"lng":127.69255,"prefecture":47,"lines":[99927],"attr":"cool","postal_code":"900-0013","address":"那覇市牧志３-２７２-５","next":[9992708,9992903,9992711,9992710],"voronoi":{"lat":26.212961,"lng":127.693496,"delta_lat":[0,469,12165,-4844],"delta_lng":[0,-6228,2955,4522]}},
    {"code":9992706,"left":9992704,"right":9992707,"id":"101991","name":"旭橋","name_kana":"あさひばし","lat":26.21191,"lng":127.675515,"prefecture":47,"lines":[99927],"attr":"heat","postal_code":"900-0021","address":"那覇市泉崎１-１０５","next":[9992708,9992704,9992701,9992705,9992707,9992703],"voronoi":{"lat":26.208146,"lng":127.664111,"delta_lat":[0,36612,-5141,-29503,-3714,108],"delta_lng":[0,-8477,4279,19545,-7854,-4570]}},
    {"code":9992704,"left":9992703,"right":9992701,"id":"8ae68a","name":"奥武山公園","name_kana":"おうのやまこうえん","lat":26.200714,"lng":127.675252,"prefecture":47,"lines":[99927],"attr":"heat","postal_code":"900-0026","address":"那覇市奥武山町３１６-２","next":[9992715,9992903,9992706,9992703,9992705],"voronoi":{"lat":26.05056,"lng":127.758993,"delta_lat":[0,-92449,248398,-108,-9350],"delta_lng":[0,34001,-125959,4570,15764]}},
    {"code":9992703,"left":9992702,"id":"f2b4e9","name":"小禄","name_kana":"おろく","lat":26.196455,"lng":127.666853,"prefecture":47,"lines":[99927],"attr":"heat","postal_code":"901-0156","address":"那覇市田原３-１０００-１","next":[9992715,9992701,9992704,9992702,9992706],"voronoi":{"lat":25.95811,"lng":127.792993,"delta_lat":[0,-143069,387166,5939,-1638],"delta_lng":[0,55472,-188435,4081,2923]}},
    {"code":9992702,"id":"fd2af8","name":"赤嶺","name_kana":"あかみね","lat":26.193289,"lng":127.660348,"prefecture":47,"lines":[99927],"attr":"heat","postal_code":"901-0154","address":"那覇市赤嶺２-１０００-１１","next":[9992701,9992703,9992715],"voronoi":{"enclosed":false,"lat":-26.183817,"lng":42.479607,"delta_lat":[0,52386023,-387166,-92924007],"delta_lng":[0,85180423,188435,36947649]}},
    {"code":9992701,"id":"8b3885","name":"那覇空港","name_kana":"なはくうこう","lat":26.206515,"lng":127.652214,"prefecture":47,"lines":[99927],"attr":"heat","postal_code":"901-0142","address":"那覇市字鏡水９３８-５","next":[9992703,9992702,9992708,9992706,9992902,9991120,9992901],"voronoi":{"enclosed":false,"lat":-26.183817,"lng":42.479607,"delta_lat":[0,52386023,5939,36612,29567,120005,6232243,26044658],"delta_lng":[0,85180423,4081,-8477,-11720,-106642,-9455485,-96548826]}},
    {"code":9992707,"left":9992903,"right":9992710,"id":"c48983","name":"県庁前(沖縄)","original_name":"県庁前","name_kana":"けんちょうまえ","lat":26.214446,"lng":127.679343,"prefecture":47,"lines":[99927],"attr":"cool","postal_code":"900-0015","address":"那覇市久茂地１-１０３","next":[9992903,9992708,9992706,9992705],"voronoi":{"lat":26.212509,"lng":127.68601,"delta_lat":[0,27109,-29503,-612],"delta_lng":[0,-26097,19545,5217]}},
    {"code":9992903,"left":9992705,"id":"c95ebb","name":"与儀","name_kana":"よぎ","closed":true,"lat":26.208863,"lng":127.691919,"prefecture":47,"lines":[99929],"attr":"unknown","postal_code":"900-0022","address":"沖縄県那覇市樋川２丁目１６-１７","next":[9992704,9992710,9992707,9992708,9992715,9992709,9992705],"voronoi":{"lat":26.05056,"lng":127.758993,"delta_lat":[0,153549,8852,469,-921,-3006,-12452],"delta_lng":[0,-47236,-18260,-6228,-1258,-1335,2693]}},
    {"code":9992705,"id":"ede537","name":"壺川","name_kana":"つぼがわ","lat":26.205927,"lng":127.678344,"prefecture":47,"lines":[99927],"attr":"heat","postal_code":"900-0025","address":"那覇市壺川３-１０６","next":[9992706,9992903,9992704,9992707],"voronoi":{"lat":26.197051,"lng":127.687369,"delta_lat":[0,9350,3714,-612],"delta_lng":[0,-15764,7854,5217]}},
    {"code":9992710,"id":"1ec0a5","name":"安里","name_kana":"あさと","lat":26.216737,"lng":127.695736,"prefecture":47,"lines":[99927],"attr":"cool","postal_code":"902-0067","address":"那覇市安里３８９-７","next":[9992903,9992713,9992711,9992709,9992714,9992715],"voronoi":{"lat":26.209053,"lng":127.711349,"delta_lat":[0,3446,2085,6166,-7790,-8852],"delta_lng":[0,-1172,-1580,-13851,-1249,18260]}},
    {"code":9992902,"left":9992713,"right":9992714,"id":"a22697","name":"城間","name_kana":"ぐすくま","closed":true,"lat":26.258114,"lng":127.710279,"prefecture":47,"lines":[99929],"attr":"unknown","postal_code":"901-2133","address":"沖縄県浦添市城間１丁目１１-７","next":[9992712,9992718,9992719,9992901,9992708,9992701,9992717,9992713],"voronoi":{"lat":26.246721,"lng":127.718511,"delta_lat":[0,45540,9524,92546,-120005,-21860,-9662,-6],"delta_lng":[0,29447,4926,-215611,106642,32741,36492,702]}},
    {"code":9992713,"left":9992711,"right":9992712,"id":"8eec0d","name":"市立病院前(沖縄)","original_name":"市立病院前","name_kana":"しりつびょういんまえ","lat":26.227548,"lng":127.710003,"prefecture":47,"lines":[99927],"attr":"eco","postal_code":"902-0061","address":"那覇市古島１７２-２","next":[9992717,9992712,9992714,9992710,9992711,9992902],"voronoi":{"lat":26.235451,"lng":127.717505,"delta_lat":[0,-22951,2085,10160,18059,-6],"delta_lng":[0,-7328,-1580,-4241,8792,702]}},
    {"code":9992711,"left":9992708,"id":"40411b","name":"おもろまち","name_kana":"おもろまち","lat":26.222701,"lng":127.698391,"prefecture":47,"lines":[99927],"attr":"eco","postal_code":"902-0067","address":"那覇市安里３０５-３","next":[9992708,9992713,9992709,9992710,9992712],"voronoi":{"lat":26.233982,"lng":127.688163,"delta_lat":[0,-8388,-4844,-6166,10160],"delta_lng":[0,2061,4522,13851,-4241]}},
    {"code":9992708,"id":"1a6b1f","name":"美栄橋","name_kana":"みえばし","lat":26.219245,"lng":127.684328,"prefecture":47,"lines":[99927],"attr":"cool","postal_code":"900-0013","address":"那覇市牧志１-９６５","next":[9992706,9992711,9992701,9992903,9992707,9992709,9992712,9992902],"voronoi":{"lat":26.274325,"lng":127.643914,"delta_lat":[0,-29567,-5141,-27109,921,12165,8388,18483],"delta_lng":[0,11720,4279,26097,1258,2955,-2061,-11507]}},
    {"code":9992712,"id":"f19d54","name":"古島","name_kana":"ふるじま","lat":26.230919,"lng":127.703079,"prefecture":47,"lines":[99927],"attr":"eco","postal_code":"902-0061","address":"那覇市古島９３-１","next":[9992902,9992713,9992708,9992711],"voronoi":{"lat":26.233982,"lng":127.688163,"delta_lat":[0,18483,-9662,-18059],"delta_lng":[0,-11507,36492,-8792]}},
    {"code":9992714,"left":9992715,"right":9992717,"id":"70e566","name":"儀保","name_kana":"ぎぼ","lat":26.224663,"lng":127.719039,"prefecture":47,"lines":[99927],"attr":"eco","postal_code":"903-0821","address":"那覇市首里儀保町３-１４-３","next":[9992716,9992713,9992717,9992715,9992710],"voronoi":{"lat":26.212499,"lng":127.710177,"delta_lat":[0,22951,-4038,-6894,-15465],"delta_lng":[0,7328,5217,1741,-13114]}},
    {"code":9992715,"id":"d21b4b","name":"首里","name_kana":"しゅり","lat":26.219191,"lng":127.725492,"prefecture":47,"lines":[99927],"attr":"eco","postal_code":"903-0806","address":"那覇市首里汀良町３-１９","next":[9992703,9992704,9992903,1132526,1132421,9992716,9992714,9992719,9992710,9992702],"voronoi":{"enclosed":false,"lat":-88.929501,"lng":218.917372,"delta_lat":[0,81547443,19700673,13884242,21661,-15465,-4945,-153549,-92449,-143069,-92924007],"delta_lng":[0,-57879310,-14107894,-19158371,-47335,-13114,408,47236,34001,55472,36947649]}},
    {"code":9992717,"id":"092f47","name":"経塚","name_kana":"きょうづか","lat":26.236667,"lng":127.728333,"prefecture":47,"lines":[99927],"attr":"heat","postal_code":"901-2102","address":"沖縄県浦添市前田","open_date":"2019-10-01","next":[9992713,9992719,9992714,9992716,9992718,9992902],"voronoi":{"lat":26.242798,"lng":127.71385,"delta_lat":[0,-7347,-4038,1309,4533,9466],"delta_lng":[0,3655,5217,14832,-1713,-17330]}},
    {"code":1193029,"left":1193033,"right":1190406,"id":"17c449","name":"石垣","name_kana":"いしかき","lat":31.259228,"lng":130.445227,"prefecture":46,"lines":[11930],"attr":"eco","postal_code":"891-0704","address":"南九州市頴娃町別府","next":[1193028,1193011,1193031,1193010,1193012,1193030],"voronoi":{"lat":31.326507,"lng":130.478672,"delta_lat":[0,38227,904,3287,-25104,-129722],"delta_lng":[0,-45820,-1352,-6880,1067,18594]}},
    {"code":1193033,"left":9992901,"right":1193031,"id":"dc0baa","name":"薩摩塩屋","name_kana":"さつましおや","lat":31.257132,"lng":130.376128,"prefecture":46,"lines":[11930],"attr":"eco","postal_code":"891-0911","address":"南九州市知覧町塩屋","next":[1193031,1193035,1193032,1193025,1193009,1193034],"voronoi":{"lat":31.359607,"lng":130.365026,"delta_lat":[0,47095,-837,-276921,-31872,-78037],"delta_lng":[0,5406,1173,25719,635,-28904]}},
    {"code":9992901,"left":9992719,"right":1193034,"id":"110b39","name":"嘉手納","name_kana":"かでな","closed":true,"lat":26.362752,"lng":127.755192,"prefecture":47,"lines":[99929],"attr":"unknown","postal_code":"904-0203","address":"沖縄県中頭郡嘉手納町字嘉手納２９０−４","next":[1193025,1192820,1193035,1193021,9991120,9992719,1193036,9991133,9992902,1193020,9991611,1192825,9992701,9991131],"voronoi":{"lat":30.77894,"lng":125.109279,"delta_lat":[0,-122917,-2072438,-57737,-153624,-871699,-932442,-964043,-34487,732232,92546,6232243,-1601535,-181967],"delta_lng":[0,370315,3998991,109826,269132,1491710,1584315,1414732,49324,-6644741,-215611,-9455485,6134602,661641]}},
    {"code":9992719,"left":9992718,"id":"527f5e","name":"てだこ浦西","name_kana":"てだこうらにし","lat":26.241778,"lng":127.741861,"prefecture":47,"lines":[99927],"attr":"heat","postal_code":"901-2102","address":"沖縄県浦添市前田三丁目21","open_date":"2019-10-01","next":[1132526,9950116,9992717,9992902,1163915,9992901,1192820,9992715,9992716,9992718],"voronoi":{"lat":26.301785,"lng":127.752884,"delta_lat":[0,-732232,-2189787,-7408251,-1603519,-2049380,13884242,29864,4533,55006],"delta_lng":[0,6644741,3193420,6665560,1207801,1465763,-19158371,-34244,-1713,12117]}},
    {"code":9992718,"id":"d0c77b","name":"浦添前田","name_kana":"うらそえまえだ","lat":26.243889,"lng":127.732278,"prefecture":47,"lines":[99927],"attr":"heat","postal_code":"901-2102","address":"沖縄県浦添市前田一丁目","open_date":"2019-10-01","next":[9992902,9992717,9992719],"voronoi":{"lat":26.237255,"lng":127.735841,"delta_lat":[0,9466,45540],"delta_lng":[0,-17330,29447]}},
    {"code":1193034,"id":"58e06b","name":"白沢(鹿児島)","original_name":"白沢","name_kana":"しらさわ","lat":31.256898,"lng":130.356352,"prefecture":46,"lines":[11930],"attr":"eco","postal_code":"898-0032","address":"枕崎市別府","next":[1193035,1193025,1193033],"voronoi":{"lat":30.323282,"lng":130.143736,"delta_lat":[0,1036325,-340572],"delta_lng":[0,221291,4029]}},
    {"code":1193031,"left":1193030,"right":1193032,"id":"eae7cd","name":"頴娃大川","name_kana":"えいおおかわ","lat":31.257875,"lng":130.413394,"prefecture":46,"lines":[11930],"attr":"eco","postal_code":"891-0701","address":"南九州市頴娃町郡","next":[1193030,1193033,1193032,1193029,1193025,1193010],"voronoi":{"lat":31.378588,"lng":130.410149,"delta_lat":[0,-249644,-31872,37142,209607,25104],"delta_lng":[0,-12824,635,18883,8844,-1067]}},
    {"code":1193030,"id":"798cce","name":"水成川","name_kana":"みずなりかわ","lat":31.257145,"lng":130.430695,"prefecture":46,"lines":[11930],"attr":"eco","postal_code":"891-0704","address":"南九州市頴娃町別府","next":[1193031,1193028,1193026,1193025,1193029],"voronoi":{"lat":31.178425,"lng":130.439487,"delta_lat":[0,-19669,-24542,209607,-129722],"delta_lng":[0,-7920,-14724,8844,18594]}},
    {"code":1193032,"id":"06a0b7","name":"松ヶ浦","name_kana":"まつがうら","lat":31.258843,"lng":130.394551,"prefecture":46,"lines":[11930],"attr":"eco","postal_code":"891-0912","address":"鹿児島県南九州市知覧町南別府小山25067","next":[1193031,1193033,1193010,1193009],"voronoi":{"lat":31.405865,"lng":130.371606,"delta_lat":[0,-276921,249644,15661],"delta_lng":[0,25719,12824,-19888]}},
    {"code":1190406,"left":1190405,"right":1190408,"id":"db3674","name":"湯之元","name_kana":"ゆのもと","lat":31.673961,"lng":130.336753,"prefecture":46,"lines":[11904],"attr":"eco","postal_code":"899-2201","address":"日置市東市来町湯田","next":[1190408,1190407,1193205,1190403,1190405,1193207],"voronoi":{"lat":31.731465,"lng":130.410237,"delta_lat":[0,7848,-13687,-85376,58052,26746],"delta_lng":[0,-25985,-43949,-40219,100517,19877]}},
    {"code":1190405,"left":1193035,"right":1190414,"id":"7b7eb6","name":"市来","name_kana":"いちき","lat":31.68999,"lng":130.302727,"prefecture":46,"lines":[11904],"attr":"eco","postal_code":"899-2103","address":"いちき串木野市大里","next":[1190414,1190407,1190406,1190403,1193036],"voronoi":{"lat":31.482377,"lng":130.134959,"delta_lat":[0,244949,-1701,-85376,-158206],"delta_lng":[0,180979,24365,-40219,-122759]}},
    {"code":1193035,"left":1193036,"id":"9f4d67","name":"薩摩板敷","name_kana":"さつまいたしき","lat":31.262313,"lng":130.330993,"prefecture":46,"lines":[11930],"attr":"eco","postal_code":"898-0032","address":"枕崎市別府","next":[1193034,9992901,1193009,1193033,1193008,1193025,1193036],"voronoi":{"lat":28.583585,"lng":129.478586,"delta_lat":[0,-57737,1797434,1036325,47095,2218,5685],"delta_lng":[0,109826,555324,221291,5406,-2282,-6991]}},
    {"code":1193036,"id":"881dbe","name":"枕崎","name_kana":"まくらざき","lat":31.27215,"lng":130.299439,"prefecture":46,"lines":[11930],"attr":"eco","postal_code":"898-0014","address":"枕崎市東本町","next":[9992126,1193008,1190414,9992901,1190407,9991611,9992125,1190404,1193035,1190408,1190405],"voronoi":{"lat":31.468966,"lng":130.281311,"delta_lat":[0,-9503,-44858,-2831020,2072438,563793,181519,29518,40719,10806,-334],"delta_lng":[0,35342,44506,-882574,-3998991,1925865,1429284,260846,734755,304614,42366]}},
    {"code":1190414,"id":"8fe85b","name":"神村学園前","name_kana":"かみむらがくえんまえ","lat":31.703731,"lng":130.284129,"prefecture":46,"lines":[11904],"attr":"eco","postal_code":"896-0037","address":"鹿児島県いちき串木野市別府4251","open_date":"2010-03-13","next":[1190405,1193036,1190404,1190403],"voronoi":{"lat":31.729409,"lng":130.310506,"delta_lat":[0,-257837,10806,244949],"delta_lng":[0,-480161,304614,180979]}},
    {"code":1190408,"left":1190409,"right":1190407,"id":"16e3fa","name":"伊集院","name_kana":"いじゅういん","lat":31.630148,"lng":130.395703,"prefecture":46,"lines":[11904],"attr":"heat","postal_code":"899-2502","address":"日置市伊集院町徳重","next":[1190407,1190406,1193008,1190409,1193207,1193036],"voronoi":{"lat":31.468966,"lng":130.281311,"delta_lat":[0,229336,26746,-9428,-244548,-11609],"delta_lng":[0,119289,19877,53008,-140237,-16595]}},
    {"code":1190409,"id":"4ce011","name":"薩摩松元","name_kana":"さつままつもと","lat":31.605318,"lng":130.439002,"prefecture":46,"lines":[11904],"attr":"heat","postal_code":"899-2703","address":"鹿児島市上谷口町","next":[1193207,1190410,1190408,1193008,1190753],"voronoi":{"lat":31.5016,"lng":130.394271,"delta_lat":[0,-30528,244548,765,-20510],"delta_lng":[0,-61023,140237,18360,11410]}},
    {"code":1190407,"id":"c7e770","name":"東市来","name_kana":"ひがしいちき","lat":31.655164,"lng":130.347609,"prefecture":46,"lines":[11904],"attr":"heat","postal_code":"899-2202","address":"日置市東市来町長里","next":[1190408,1190405,1190406,1193036],"voronoi":{"lat":31.698302,"lng":130.4006,"delta_lat":[0,-58052,-158206,-13078],"delta_lng":[0,-100517,-122759,103987]}},
    {"code":9992119,"left":9991611,"right":1193202,"id":"ad71ff","name":"野田郷","name_kana":"のだごう","lat":32.063238,"lng":130.267214,"prefecture":46,"lines":[99921],"attr":"cool","postal_code":"899-0502","address":"出水市野田町下名","next":[9992121,9992115,9992118,9992123,9992120,9992122],"voronoi":{"lat":31.9895,"lng":130.282926,"delta_lat":[0,127558,61615,-157574,-11810,-16806],"delta_lng":[0,2601,-48544,7253,6704,24932]}},
    {"code":9991611,"left":9992123,"right":9991323,"id":"e38b03","name":"大浦天主堂","name_kana":"おおうらてんしゅどう","lat":32.736408,"lng":129.87078,"prefecture":42,"lines":[99916],"attr":"heat","postal_code":"850-0918","address":"長崎市大浦町","next":[9991610,9991609,9991612,9992125,1193036,9991133,9991134,9992901,1190540,9992121],"voronoi":{"lat":31.609661,"lng":128.345741,"delta_lat":[0,-389845,-563793,122917,1081158,589010,274910,13505,-120,-1051555],"delta_lng":[0,-940282,-1925865,-370315,2296551,1257668,1096390,114086,304,-1361548]}},
    {"code":9992123,"left":9992120,"right":9992125,"id":"4c2b59","name":"薩摩大川","name_kana":"さつまおおかわ","lat":31.949414,"lng":130.219072,"prefecture":46,"lines":[99921],"attr":"heat","postal_code":"899-1741","address":"阿久根市大川","next":[9992119,9992124,9992122,1193203,9992118],"voronoi":{"lat":31.944685,"lng":130.307684,"delta_lat":[0,-24807,72604,-2983,-27596],"delta_lng":[0,-179916,148104,7054,37811]}},
    {"code":9992120,"left":9992122,"right":9991612,"id":"7ce275","name":"折口","name_kana":"おりぐち","lat":32.060949,"lng":130.217485,"prefecture":46,"lines":[99921],"attr":"cool","postal_code":"899-1601","address":"阿久根市折口","next":[9992113,9992114,9992119,9992115,9991612,9992121],"voronoi":{"lat":32.270686,"lng":129.797287,"delta_lat":[0,144293,-113287,-35102,-87918,-157574],"delta_lng":[0,281568,91486,23393,43249,7253]}},
    {"code":9992122,"left":9992121,"id":"928f61","name":"牛ノ浜","name_kana":"うしのはま","lat":31.973962,"lng":130.207038,"prefecture":46,"lines":[99921],"attr":"heat","postal_code":"899-1741","address":"阿久根市大川","next":[9992123,9992121,9992119,9992124,9992125],"voronoi":{"lat":31.919878,"lng":130.127768,"delta_lat":[0,72604,16806,-292522,200687],"delta_lng":[0,148104,-24932,-1332058,1200453]}},
    {"code":9992121,"id":"166d26","name":"阿久根","name_kana":"あくね","lat":32.022969,"lng":130.196276,"prefecture":46,"lines":[99921],"attr":"cool","postal_code":"899-1616","address":"阿久根市栄町","next":[9992119,9991612,9992125,9992122,9992120,9991611],"voronoi":{"lat":32.270686,"lng":129.797287,"delta_lat":[0,-249588,-11810,-292522,-107106,76187],"delta_lng":[0,446949,6704,-1332058,-573141,166989]}},
    {"code":9991612,"id":"97b404","name":"石橋(長崎)","original_name":"石橋","name_kana":"いしばし","lat":32.734269,"lng":129.872432,"prefecture":42,"lines":[99916],"attr":"heat","postal_code":"850-0918","address":"長崎市大浦町","next":[9992121,9992113,9991326,9991611,9992120,9991325,9991609],"voronoi":{"lat":32.737403,"lng":129.874279,"delta_lat":[0,-1051555,584839,144293,21229,300990,215],"delta_lng":[0,-1361548,1284557,281568,21472,-222577,-233]}},
    {"code":9992125,"left":9992126,"right":9992124,"id":"401526","name":"薩摩高城","name_kana":"さつまたき","lat":31.892545,"lng":130.220649,"prefecture":46,"lines":[99921],"attr":"heat","postal_code":"899-1802","address":"薩摩川内市湯田町","next":[9992121,9991611,9992124,1193202,1193036,9992126,9992122],"voronoi":{"lat":31.897,"lng":130.279809,"delta_lat":[0,-6342,-489324,-181519,389845,107106,200687],"delta_lng":[0,-2276,-1442790,-1429284,940282,573141,1200453]}},
    {"code":9992126,"id":"09ee9a","name":"草道","name_kana":"くさみち","lat":31.854556,"lng":130.233533,"prefecture":46,"lines":[99921],"attr":"eco","postal_code":"899-1921","address":"薩摩川内市水引町","next":[1193036,1193202,1190404,1190402,9992127,9992125],"voronoi":{"lat":31.401335,"lng":128.834743,"delta_lat":[0,29518,351552,13453,93841,960],"delta_lng":[0,260846,1140038,11339,30582,-15]}},
    {"code":9992124,"id":"5616a9","name":"西方","name_kana":"にしかた","lat":31.916153,"lng":130.223658,"prefecture":46,"lines":[99921],"attr":"heat","postal_code":"899-1801","address":"薩摩川内市西方町","next":[9992123,9992125,1193202,1193203,9992122],"voronoi":{"lat":31.944685,"lng":130.307684,"delta_lat":[0,-9828,-37857,20453,2425],"delta_lng":[0,-4849,-23026,-160474,8433]}},
    {"code":9991323,"left":9991322,"right":9991325,"id":"a74a70","name":"西浜町","name_kana":"にしはまのまち","lat":32.743735,"lng":129.876015,"prefecture":42,"lines":[99913,99916],"attr":"cool","postal_code":"850-0853","address":"長崎市浜町","next":[9991322,9991511,9991320,9991324],"voronoi":{"lat":32.745743,"lng":129.874489,"delta_lat":[0,-849,-3037,1990],"delta_lng":[0,-295,2451,285]}},
    {"code":9991322,"left":9991609,"right":9991321,"id":"1d0e91","name":"新地中華街","name_kana":"しんちちゅうかがい","lat":32.742869,"lng":129.874942,"prefecture":42,"lines":[99913,99916],"attr":"cool","postal_code":"850-0841","address":"長崎市銅座町","next":[9991320,9991323,9991324,9991321,9991609,9991325],"voronoi":{"lat":32.737609,"lng":129.877463,"delta_lat":[0,4799,1603,883,-3037,-3828],"delta_lng":[0,-4446,492,685,2451,829]}},
    {"code":9991609,"left":9991610,"id":"ef56b1","name":"メディカルセンター","name_kana":"めでぃかるせんたー","lat":32.740523,"lng":129.87241,"prefecture":42,"lines":[99916],"attr":"cool","postal_code":"850-0842","address":"長崎市新地町","next":[9991611,9991610,9991321,9991322,9991325,9991612],"voronoi":{"lat":32.737609,"lng":129.877463,"delta_lat":[0,4799,-1031,-3855,-120,11],"delta_lng":[0,-4446,-4736,5694,304,3239]}},
    {"code":9991610,"id":"1f2792","name":"大浦海岸通り","name_kana":"おおうらかいがんどおり","lat":32.737861,"lng":129.870608,"prefecture":42,"lines":[99916],"attr":"heat","postal_code":"850-0918","address":"長崎県長崎市大浦町","next":[1190540,9991611,9991315,9991609,9991321],"voronoi":{"lat":32.737523,"lng":129.873975,"delta_lat":[0,-13505,17136,4105,-3881],"delta_lng":[0,-114086,66490,20164,21738]}},
    {"code":9991321,"id":"e3c3cd","name":"出島","name_kana":"でじま","lat":32.743871,"lng":129.871681,"prefecture":42,"lines":[99913],"attr":"cool","postal_code":"850-0862","address":"長崎市出島町","next":[9991320,9991315,9991609,9991322,9991610,1190541],"voronoi":{"lat":32.744011,"lng":129.873509,"delta_lat":[0,-1603,-1031,3881,491,1483],"delta_lng":[0,-492,-4736,-21738,1469,14509]}},
    {"code":9991325,"left":9991326,"right":9991324,"id":"ef3c8c","name":"思案橋","name_kana":"しあんばし","lat":32.742725,"lng":129.880264,"prefecture":42,"lines":[99913,99915],"attr":"eco","postal_code":"850-0832","address":"長崎市油屋町","next":[9991326,9991506,9991612,9991322,9991609,9991324,9991405],"voronoi":{"lat":32.746001,"lng":129.88169,"delta_lat":[0,-1073,-6899,-420,-196,-215,8678],"delta_lng":[0,-2116,-2101,-11,55,233,6114]}},
    {"code":9991326,"id":"bc5985","name":"崇福寺","name_kana":"そうふくじ","lat":32.741425,"lng":129.882109,"prefecture":42,"lines":[99913,99915],"attr":"eco","postal_code":"850-0832","address":"長崎市油屋町","next":[9991325,9992113,9991402,9991612,9991209,9991403,9991405,9991401],"voronoi":{"lat":32.448183,"lng":130.112835,"delta_lat":[0,-11974,300990,8678,380,-1084,-1039,-269485],"delta_lng":[0,-12508,-222577,6114,2083,2586,1364,215455]}},
    {"code":9991324,"id":"21b793","name":"観光通り","name_kana":"かんこうどおり","lat":32.743483,"lng":129.877775,"prefecture":42,"lines":[99913,99915],"attr":"eco","postal_code":"850-0853","address":"長崎県長崎市浜町","next":[9991506,9991322,9991511,9991323,9991325],"voronoi":{"lat":32.738029,"lng":129.877474,"delta_lat":[0,3828,1990,1215,-134],"delta_lng":[0,-829,285,1613,1032]}},
    {"code":1193202,"left":1193204,"right":101010,"id":"e4ff2d","name":"薩摩白浜","name_kana":"さつましらはま","closed":true,"lat":31.855948,"lng":130.32264,"prefecture":46,"lines":[11932],"attr":"unknown","postal_code":"895-0001","address":"鹿児島県薩摩川内市白浜町２６７","next":[101011,9992126,9992127,1193204,9992125,9992124,1193203],"voronoi":{"lat":31.934858,"lng":130.302836,"delta_lat":[0,-37857,-6342,-960,-54113,-4776,6508],"delta_lng":[0,-23026,-2276,15,36831,19187,3116]}},
    {"code":1193204,"left":101011,"right":1193207,"id":"3f5e1e","name":"吉野山","name_kana":"よしのやま","closed":true,"lat":31.838059,"lng":130.360001,"prefecture":46,"lines":[11932],"attr":"unknown","postal_code":"895-0003","address":"鹿児島県薩摩川内市中村町６９８０−４","next":[1193203,1193202,1193209,1193205,1193206,101011],"voronoi":{"lat":31.830809,"lng":130.333566,"delta_lat":[0,6508,55609,-12867,-33562,-43660],"delta_lng":[0,3116,52690,6260,-10118,-37730]}},
    {"code":101011,"left":1190403,"right":9992127,"id":"425db5","name":"川内(鹿児島)","original_name":"川内","name_kana":"せんだい","lat":31.813726,"lng":130.31213,"prefecture":46,"lines":[1010,11904,99921,11932],"attr":"cool","postal_code":"895-0024","address":"薩摩川内市鳥追町","next":[1193202,9992127,1193205,1193204,1190402],"voronoi":{"lat":31.808956,"lng":130.285158,"delta_lat":[0,26630,-4776,-27972,-8977],"delta_lng":[0,29222,19187,14218,823]}},
    {"code":1190403,"left":1190402,"id":"225010","name":"木場茶屋","name_kana":"こばんちゃや","lat":31.766138,"lng":130.308046,"prefecture":46,"lines":[11904],"attr":"cool","postal_code":"895-0034","address":"薩摩川内市木場茶屋町","next":[1193205,1190406,1190404,1190414,1190405,1190402],"voronoi":{"lat":31.739312,"lng":130.384251,"delta_lat":[0,-13687,1701,2082,47750,3841],"delta_lng":[0,-43949,-24365,-5432,-63447,106340]}},
    {"code":1190402,"id":"f306ab","name":"隈之城","name_kana":"くまのじょう","lat":31.79255,"lng":130.307092,"prefecture":46,"lines":[11904],"attr":"cool","postal_code":"895-0041","address":"薩摩川内市隈之城町","next":[9992127,9992126,1190404,1190403,1193205,101011],"voronoi":{"lat":31.780999,"lng":130.353398,"delta_lat":[0,-3841,5246,13453,13098,-15095],"delta_lng":[0,-106340,-11431,11339,38191,63450]}},
    {"code":9992127,"id":"1f9eb4","name":"上川内","name_kana":"かみせんだい","lat":31.83537,"lng":130.292406,"prefecture":46,"lines":[99921],"attr":"eco","postal_code":"895-0061","address":"薩摩川内市御陵下町","next":[1190402,1193202,101011,9992126],"voronoi":{"lat":31.795857,"lng":130.246966,"delta_lat":[0,13098,26630,54113],"delta_lng":[0,38191,29222,-36831]}},
    {"code":1193207,"left":1193205,"right":1193206,"id":"01ba9c","name":"入来","name_kana":"いりき","closed":true,"lat":31.822669,"lng":130.429945,"prefecture":46,"lines":[11932],"attr":"unknown","postal_code":"895-1401","address":"鹿児島県薩摩川内市入来町副田５８６０−２","next":[1193208,1190753,1190752,1190409,1193206,1190408,1193205,1190406],"voronoi":{"lat":31.731465,"lng":130.410237,"delta_lat":[0,21046,100329,-67990,-10580,-57885,-765,9428],"delta_lng":[0,-1131,9715,116613,-5880,-37708,-18360,-53008]}},
    {"code":1193205,"id":"bdf645","name":"樋脇","name_kana":"ひわき","closed":true,"lat":31.82003,"lng":130.380863,"prefecture":46,"lines":[11932],"attr":"unknown","postal_code":"895-1202","address":"鹿児島県薩摩川内市樋脇町塔之原８１４","next":[1190403,1190406,1193206,1193204,1193207,101011,1190402],"voronoi":{"lat":31.739312,"lng":130.384251,"delta_lat":[0,-7848,21046,93987,-43660,-8977,-12861],"delta_lng":[0,25985,-1131,-23591,-37730,823,4791]}},
    {"code":1193206,"id":"c0918b","name":"上樋脇","name_kana":"かみひわき","closed":true,"lat":31.825364,"lng":130.402114,"prefecture":46,"lines":[11932],"attr":"unknown","postal_code":"895-1202","address":"鹿児島県薩摩川内市樋脇町塔之原８０５８","next":[1193207,1193205,1193209,1193204,1193208],"voronoi":{"lat":31.8703,"lng":130.40705,"delta_lat":[0,9759,-33562,-93987,100329],"delta_lng":[0,-11417,-10118,23591,9715]}},
    {"code":101010,"left":9992117,"right":9992113,"id":"e87866","name":"出水","name_kana":"いずみ","lat":32.089275,"lng":130.357803,"prefecture":46,"lines":[1010,99921],"attr":"cool","postal_code":"899-0203","address":"出水市上鯖淵","next":[9992115,1193219,101009,9992114,9992117,1193212,1193213],"voronoi":{"lat":32.024627,"lng":130.434735,"delta_lat":[0,-20329,94824,23884,-18471,-8486,-31280],"delta_lng":[0,-27711,-71059,50308,84896,14510,-7499]}},
    {"code":9992117,"left":1193203,"right":9992115,"id":"723f2d","name":"西出水","name_kana":"にしいずみ","lat":32.075398,"lng":130.339285,"prefecture":46,"lines":[99921],"attr":"cool","postal_code":"899-0213","address":"出水市西出水町","next":[1193212,1193210,9992118,1193203,101010,9992115],"voronoi":{"lat":32.100727,"lng":130.309609,"delta_lat":[0,-132959,-147,6767,29910,94824],"delta_lng":[0,45418,10173,9782,32041,-71059]}},
    {"code":1193203,"left":9992118,"id":"7dc9fc","name":"楠元","name_kana":"くすもと","closed":true,"lat":31.860642,"lng":130.336167,"prefecture":46,"lines":[11932],"attr":"unknown","postal_code":"895-0002","address":"鹿児島県薩摩川内市楠元町１７１","next":[1193204,9992117,1193210,9992123,1193209,1193202,9992124,9992118],"voronoi":{"lat":31.961903,"lng":130.320738,"delta_lat":[0,-17218,-9828,-97540,55609,19157,55538,147],"delta_lng":[0,-13053,-4849,33847,52690,-3602,-20570,-10173]}},
    {"code":9992118,"id":"987de4","name":"高尾野","name_kana":"たかおの","lat":32.062536,"lng":130.301632,"prefecture":46,"lines":[99921],"attr":"cool","postal_code":"899-0402","address":"出水市高尾野町柴引","next":[9992119,9992117,9992123,9992115,1193203],"voronoi":{"lat":31.961903,"lng":130.320738,"delta_lat":[0,27596,127558,-16330,-132959],"delta_lng":[0,-37811,2601,24082,45418]}},
    {"code":9992115,"id":"fcb083","name":"米ノ津","name_kana":"こめのつ","lat":32.122269,"lng":130.342139,"prefecture":46,"lines":[99921],"attr":"cool","postal_code":"899-0200","address":"出水市下鯖淵","next":[101010,9992119,9992114,9992120,9992117,9992118],"voronoi":{"lat":32.099123,"lng":130.335965,"delta_lat":[0,23884,143584,-87918,-61615,-16330],"delta_lng":[0,50308,-192538,43249,48544,24082]}},
    {"code":9992113,"left":9992114,"right":101009,"id":"fd09ce","name":"水俣","name_kana":"みなまた","lat":32.204919,"lng":130.395763,"prefecture":43,"lines":[99921],"attr":"eco","postal_code":"867-0045","address":"水俣市桜井町１丁目","next":[9992120,9991612,9991326,9992114,9991209,9992111,101009,9992108,1192411],"voronoi":{"lat":32.459721,"lng":130.14236,"delta_lat":[0,-11538,-11974,-21229,-113287,-135263,90628,62531,129393],"delta_lng":[0,-29524,-12508,-21472,91486,249374,-16156,-31607,-171235]}},
    {"code":9992114,"id":"f9bdbb","name":"袋","name_kana":"ふくろ","lat":32.165517,"lng":130.374391,"prefecture":43,"lines":[99921],"attr":"eco","postal_code":"867-0034","address":"水俣市大字袋","next":[9992120,9992113,9992115,101010,101009],"voronoi":{"lat":32.16643,"lng":130.419716,"delta_lat":[0,135263,-35102,-143584,-18471],"delta_lng":[0,-249374,23393,192538,84896]}},
    {"code":101009,"id":"75b3e1","name":"新水俣","name_kana":"しんみなまた","lat":32.210825,"lng":130.428893,"prefecture":43,"lines":[1010,99921],"attr":"eco","postal_code":"867-0002","address":"水俣市初野３０５","next":[101010,9992114,9992111,9992113,1193220,1193219],"voronoi":{"lat":32.140004,"lng":130.522374,"delta_lat":[0,117054,-90628,-61894,-8486,559],"delta_lng":[0,-118814,16156,51453,14510,597]}},
    {"code":1190413,"left":9992520,"right":1193214,"id":"2d0e3f","name":"広木","name_kana":"ひろき","lat":31.576712,"lng":130.504328,"prefecture":46,"lines":[11904],"attr":"heat","postal_code":"890-0035","address":"鹿児島県鹿児島市田上町広木","next":[9992616,9992503,9992524,9992504,1193004,1190410,1193002,1193005,9992615,1193006,101012,9992523,9992610],"voronoi":{"lat":31.636443,"lng":130.512301,"delta_lat":[0,1422,12464,-104549,848,3823,1199,2715,5558,4491,3536,12357,50200],"delta_lng":[0,-542,-5027,-39911,26763,13054,2929,4652,5618,1325,592,1287,-9400]}},
    {"code":9992520,"left":1193008,"right":9992619,"id":"5d46b2","name":"宇宿一丁目","name_kana":"うすきいっちょうめ","lat":31.546439,"lng":130.539068,"prefecture":46,"lines":[99925],"attr":"heat","postal_code":"890-0073","address":"鹿児島市宇宿１","next":[1193010,1193004,9992521,9992519,1193011],"voronoi":{"lat":31.553885,"lng":130.530541,"delta_lat":[0,-7799,-78817,-601,-361],"delta_lng":[0,6589,123815,4633,13854]}},
    {"code":1193008,"left":1193025,"right":9992523,"id":"a3c1e9","name":"五位野","name_kana":"ごいの","lat":31.475201,"lng":130.504096,"prefecture":46,"lines":[11930],"attr":"heat","postal_code":"891-0133","address":"鹿児島市平川町","next":[1193036,1190410,1193006,1190408,1190409,1193009,1193035,1193007],"voronoi":{"lat":31.500571,"lng":130.419092,"delta_lat":[0,1222,-193,-30528,-11609,-44858,-5685,71614],"delta_lng":[0,-24308,-513,-61023,-16595,44506,6991,187515]}},
    {"code":1193025,"left":1193028,"right":1193011,"id":"bec988","name":"入野(鹿児島)","original_name":"入野","name_kana":"いりの","lat":31.204293,"lng":130.518788,"prefecture":46,"lines":[11930],"attr":"cool","postal_code":"891-0603","address":"指宿市開聞十町","next":[1193021,9992901,1193033,1193026,1193034,1193031,1193035,1193022,1193030,1193024],"voronoi":{"lat":31.158756,"lng":130.431567,"delta_lat":[0,-24542,-37142,-78037,-695753,-1797434,-153624,2679341,62877,115438],"delta_lng":[0,-14724,-18883,-28904,-225320,-555324,269132,654368,12821,2613]}},
    {"code":1193028,"left":1193026,"right":1193009,"id":"452aff","name":"御領(鹿児島)","original_name":"御領","name_kana":"ごりょう","lat":31.252032,"lng":130.468747,"prefecture":46,"lines":[11930],"attr":"eco","postal_code":"891-0703","address":"南九州市頴娃町御領","next":[1193029,1193026,1193030,1193013,1193012,1193027],"voronoi":{"lat":31.209446,"lng":130.461992,"delta_lat":[0,-31022,35674,112408,-6586,-17007],"delta_lng":[0,-22505,4794,34391,11219,17615]}},
    {"code":1193026,"left":1193027,"id":"23461f","name":"頴娃","name_kana":"えい","lat":31.229085,"lng":130.500378,"prefecture":46,"lines":[11930],"attr":"cool","postal_code":"891-0701","address":"南九州市頴娃町郡","next":[1193024,1193028,1193030,1193025,1193014,1193027],"voronoi":{"lat":31.209446,"lng":130.461992,"delta_lat":[0,-31022,-19669,71124,28969,9099],"delta_lng":[0,-22505,-7920,95779,21208,-9182]}},
    {"code":1193027,"id":"f05df4","name":"西頴娃","name_kana":"にしえい","lat":31.241025,"lng":130.491351,"prefecture":46,"lines":[11930],"attr":"cool","postal_code":"891-0702","address":"南九州市頴娃町牧之内","next":[1193014,1193028,1193013,1193026],"voronoi":{"lat":31.209446,"lng":130.461992,"delta_lat":[0,93467,-6406,-28560],"delta_lng":[0,45514,9993,21873]}},
    {"code":1193009,"id":"cba79d","name":"平川","name_kana":"ひらかわ","lat":31.450132,"lng":130.51367,"prefecture":46,"lines":[11930],"attr":"heat","postal_code":"891-0133","address":"鹿児島市平川町","next":[9992521,1193035,1193033,1193008,1193010,9992523,9992522,1193032,1193007],"voronoi":{"lat":31.481318,"lng":130.583447,"delta_lat":[0,-9357,-584,-77128,11616,837,2218,71614,2271],"delta_lng":[0,41100,2292,-236578,-18655,-1173,-2282,187515,19473]}},
    {"code":1193011,"left":1193012,"right":1193010,"id":"286ecf","name":"中名","name_kana":"なかみょう","lat":31.393591,"lng":130.535086,"prefecture":46,"lines":[11930],"attr":"heat","postal_code":"891-0202","address":"鹿児島市喜入中名町","next":[1193013,1193029,9992519,1193016,1193010,9992516,9992520,1193012],"voronoi":{"lat":31.452465,"lng":130.738242,"delta_lat":[0,8278,5250,313,361,-101030,-904,29351],"delta_lng":[0,11371,-62163,-8017,-13854,-234079,1352,171734]}},
    {"code":1193012,"left":1193024,"id":"b811d7","name":"喜入","name_kana":"きいれ","lat":31.371468,"lng":130.538867,"prefecture":46,"lines":[11930],"attr":"heat","postal_code":"891-0203","address":"鹿児島市喜入町７１０８","next":[1193013,1193028,1193029,1193011],"voronoi":{"lat":31.364734,"lng":130.432852,"delta_lat":[0,-38227,-6586,74164],"delta_lng":[0,45820,11219,114695]}},
    {"code":1193024,"id":"3a6948","name":"開聞","name_kana":"かいもん","lat":31.203932,"lng":130.534737,"prefecture":46,"lines":[11930],"attr":"cool","postal_code":"891-0603","address":"指宿市開聞十町","next":[1193026,1193023,1193014,1193022,1193025],"voronoi":{"lat":31.258849,"lng":130.548553,"delta_lat":[0,-1911,-141234,-1262,115438],"delta_lng":[0,4579,-28023,-377,2613]}},
    {"code":1193010,"id":"24ab57","name":"瀬々串","name_kana":"せせくし","lat":31.421839,"lng":130.522894,"prefecture":46,"lines":[11930],"attr":"heat","postal_code":"891-0201","address":"鹿児島市喜入瀬々串町","next":[9992520,9992521,1193032,1193009,1193011,1193029,1193031],"voronoi":{"lat":31.378588,"lng":130.410149,"delta_lat":[0,15661,77128,-4108,-601,-101030,3287],"delta_lng":[0,-19888,236578,34107,4633,-234079,-6880]}},
    {"code":9992523,"left":1193005,"right":9992521,"id":"2255f2","name":"上塩屋","name_kana":"かみしおや","lat":31.534762,"lng":130.528811,"prefecture":46,"lines":[99925],"attr":"cool","postal_code":"891-0114","address":"鹿児島市小松原１","next":[1193004,1193007,9992522,9992524,1193009,1190413],"voronoi":{"lat":31.550368,"lng":130.519171,"delta_lat":[0,-69050,1487,8174,60672,2715],"delta_lng":[0,64276,-8308,-13348,-52223,4652]}},
    {"code":1193005,"left":1193007,"right":9992524,"id":"cc5af0","name":"谷山(JR)","original_name":"谷山","name_kana":"たにやま","lat":31.527094,"lng":130.51886,"prefecture":46,"lines":[11930],"attr":"heat","postal_code":"891-0141","address":"鹿児島県鹿児島市谷山中央1丁目4127","next":[1193006,1193007,9992524,1190413],"voronoi":{"lat":31.546629,"lng":130.493585,"delta_lat":[0,-36364,-6594,46781],"delta_lng":[0,28199,15884,-31029]}},
    {"code":1193007,"left":1193006,"id":"8f5083","name":"坂之上","name_kana":"さかのうえ","lat":31.500454,"lng":130.507801,"prefecture":46,"lines":[11930],"attr":"heat","postal_code":"891-0144","address":"鹿児島市下福元町","next":[9992523,1193006,1193005,9992524,1193008,1193009],"voronoi":{"lat":31.480533,"lng":130.555666,"delta_lat":[0,20037,9694,-6594,-12692,-8174],"delta_lng":[0,-136573,102691,15884,24123,13348]}},
    {"code":1193006,"id":"738104","name":"慈眼寺","name_kana":"じげんじ","lat":31.517286,"lng":130.506212,"prefecture":46,"lines":[11930],"attr":"heat","postal_code":"891-0144","address":"鹿児島市下福元町","next":[1193005,1193007,1190410,1193008,1190413],"voronoi":{"lat":31.510265,"lng":130.521783,"delta_lat":[0,-9694,1222,43988,848],"delta_lng":[0,-102691,-24308,72037,26763]}},
    {"code":9992524,"id":"f15b54","name":"谷山(鹿児島市交通局)","original_name":"谷山","name_kana":"たにやま","lat":31.530108,"lng":130.523404,"prefecture":46,"lines":[99925],"attr":"cool","postal_code":"891-0141","address":"鹿児島県鹿児島市谷山中央1丁目4127","next":[1190413,1193005,1193007,9992523],"voronoi":{"lat":31.503671,"lng":130.537668,"delta_lat":[0,46781,1199,-60672],"delta_lng":[0,-31029,2929,52223]}},
    {"code":9992521,"left":9992522,"right":1193004,"id":"132547","name":"脇田","name_kana":"わきだ","lat":31.54418,"lng":130.53763,"prefecture":46,"lines":[99925],"attr":"cool","postal_code":"890-0073","address":"鹿児島市宇宿３","next":[1193009,1193010,1193004,9992520,9992522],"voronoi":{"lat":31.471377,"lng":130.626839,"delta_lat":[0,-4108,78817,-5014,-69111],"delta_lng":[0,34107,-123815,-231,87647]}},
    {"code":9992522,"id":"d44440","name":"笹貫","name_kana":"ささぬき","lat":31.539636,"lng":130.534047,"prefecture":46,"lines":[99925],"attr":"cool","postal_code":"891-0114","address":"鹿児島市小松原１","next":[1193004,9992523,9992521,1193009],"voronoi":{"lat":31.481318,"lng":130.583447,"delta_lat":[0,69050,-9296,-69111],"delta_lng":[0,-64276,17729,87647]}},
    {"code":1193004,"id":"c4f218","name":"宇宿","name_kana":"うすき","lat":31.544234,"lng":130.536458,"prefecture":46,"lines":[11930],"attr":"heat","postal_code":"890-0073","address":"鹿児島市宇宿３丁目","next":[9992522,9992523,9992519,9992521,9992520,1190413,1193002],"voronoi":{"lat":31.559924,"lng":130.519838,"delta_lat":[0,-5558,-3998,-9296,5014,7799,4798],"delta_lng":[0,-5618,4951,17729,231,-6589,-5894]}},
    {"code":9992619,"left":9992516,"right":1193002,"id":"75959b","name":"中郡(鹿児島)","original_name":"中郡","name_kana":"なかごおり","lat":31.56498,"lng":130.545312,"prefecture":46,"lines":[99926],"attr":"cool","postal_code":"890-0065","address":"鹿児島市郡元１","next":[9992618,9992516,1193002,9992514,9992515,9992517],"voronoi":{"lat":31.561365,"lng":130.542906,"delta_lat":[0,4111,4381,-2184,-3161,-2273],"delta_lng":[0,773,3165,1367,-578,-1146]}},
    {"code":9992516,"left":9992518,"right":1193013,"id":"3faba9","name":"郡元(鹿児島市交通局)","original_name":"郡元","name_kana":"こおりもと","lat":31.56292504,"lng":130.5493878,"prefecture":46,"lines":[99925,99926],"attr":"heat","postal_code":"890-0063","address":"鹿児島県鹿児島市鴨池一丁目","next":[9992517,9992518,1193016,9992619,9992519,9992515,1193011],"voronoi":{"lat":31.46292,"lng":130.758445,"delta_lat":[0,101592,-2273,-46534,-5562,-44150,-5250],"delta_lng":[0,-210812,-1146,63514,8093,69356,62163]}},
    {"code":9992518,"left":1193003,"right":9992517,"id":"5050e5","name":"南鹿児島駅前","name_kana":"みなみかごしまえきまえ","lat":31.555371,"lng":130.544196,"prefecture":46,"lines":[99925],"attr":"heat","postal_code":"890-0069","address":"鹿児島市南郡元町","next":[9992516,9992517,1193002,1193003,9992519],"voronoi":{"lat":31.545295,"lng":130.555829,"delta_lat":[0,14216,564,-44369,-5562],"delta_lng":[0,-17254,2601,68824,8093]}},
    {"code":1193003,"left":9992519,"id":"c40af3","name":"南鹿児島","name_kana":"みなみかごしま","lat":31.554786,"lng":130.543714,"prefecture":46,"lines":[11930],"attr":"heat","postal_code":"890-0069","address":"鹿児島市南郡元町","next":[1193002,9992519,9992518],"voronoi":{"lat":31.558346,"lng":130.531322,"delta_lat":[0,1165,-14216],"delta_lng":[0,7254,17254]}},
    {"code":9992519,"id":"a559c7","name":"二軒茶屋(鹿児島)","original_name":"二軒茶屋","name_kana":"にけんぢゃや","lat":31.55005,"lng":130.541192,"prefecture":46,"lines":[99925],"attr":"heat","postal_code":"890-0073","address":"鹿児島市宇宿１","next":[1193004,1193002,9992516,1193003,1193011,9992520,9992518],"voronoi":{"lat":31.545295,"lng":130.555829,"delta_lat":[0,13051,337,-4798,-87578,-313,44150],"delta_lng":[0,-24508,-6674,5894,148891,8017,-69356]}},
    {"code":9992517,"id":"b14521","name":"涙橋","name_kana":"なみだばし","lat":31.559266,"lng":130.546707,"prefecture":46,"lines":[99925],"attr":"heat","postal_code":"890-0065","address":"鹿児島市郡元２","next":[9992516,9992518,1193002,9992619],"voronoi":{"lat":31.515706,"lng":130.61,"delta_lat":[0,44369,1291,874],"delta_lng":[0,-68824,1729,3581]}},
    {"code":1193013,"left":1193023,"right":9992515,"id":"be8b9a","name":"前之浜","name_kana":"まえのはま","lat":31.343433,"lng":130.556995,"prefecture":46,"lines":[11930],"attr":"heat","postal_code":"891-0205","address":"鹿児島市喜入前之浜町","next":[1193016,1193011,1193014,1193028,1193015,1193012,1193027],"voronoi":{"lat":31.369574,"lng":130.643951,"delta_lat":[0,34264,48628,-58381,-74164,-17007,-6406],"delta_lng":[0,43028,51263,-133656,-114695,17615,9993]}},
    {"code":1193023,"id":"f702a0","name":"東開聞","name_kana":"ひがしかいもん","lat":31.200924,"lng":130.549897,"prefecture":46,"lines":[11930],"attr":"cool","postal_code":"891-0603","address":"指宿市開聞十町","next":[1193022,1193014,1193024,1193015],"voronoi":{"lat":31.256449,"lng":130.554989,"delta_lat":[0,489,-141234,129120],"delta_lng":[0,-1856,-28023,51129]}},
    {"code":9992515,"id":"3f2c1f","name":"鴨池","name_kana":"かもいけ","lat":31.564129,"lng":130.549968,"prefecture":46,"lines":[99925],"attr":"heat","postal_code":"890-0063","address":"鹿児島市鴨池２","next":[1190754,1193016,9992514,9992619,9992516],"voronoi":{"lat":31.564513,"lng":130.547632,"delta_lat":[0,3161,-84093,-13938,-6722],"delta_lng":[0,578,216458,21393,-27617]}},
    {"code":1193002,"left":9992615,"right":9992514,"id":"89506c","name":"郡元(JR)","original_name":"郡元","name_kana":"こおりもと","lat":31.565607,"lng":130.541976,"prefecture":46,"lines":[11930],"attr":"heat","postal_code":"890-0081","address":"鹿児島県鹿児島市唐湊4丁目17","next":[9992519,1193003,9992618,9992619,1190413,9992517,9992518,9992616,1193004,9992617],"voronoi":{"lat":31.566654,"lng":130.533603,"delta_lat":[0,-2240,-4491,-1241,-337,1165,564,1291,4111,1494],"delta_lng":[0,-12441,-1325,4810,6674,7254,2601,1729,773,-2632]}},
    {"code":9992615,"left":9992617,"right":9992614,"id":"8ad6d7","name":"神田（交通局前）","name_kana":"しんでん（こうつうきょくまえ）","lat":31.572932,"lng":130.540613,"prefecture":46,"lines":[99926],"attr":"heat","postal_code":"890-0055","address":"鹿児島市上荒田町","next":[9992616,101012,1190413,9992614],"voronoi":{"lat":31.579692,"lng":130.528698,"delta_lat":[0,616,-12357,4682],"delta_lng":[0,-5656,-1287,23567]}},
    {"code":9992617,"left":9992616,"id":"4545eb","name":"工学部前","name_kana":"こうがくぶまえ","lat":31.568408,"lng":130.541857,"prefecture":46,"lines":[99926],"attr":"cool","postal_code":"890-0065","address":"鹿児島市郡元１","next":[9992618,9992616,9992514,1193002],"voronoi":{"lat":31.570098,"lng":130.546786,"delta_lat":[0,1263,-4706,316],"delta_lng":[0,-87,-13095,7443]}},
    {"code":9992616,"id":"ffcb5c","name":"唐湊","name_kana":"とそ","lat":31.570556,"lng":130.541085,"prefecture":46,"lines":[99926],"attr":"heat","postal_code":"890-0065","address":"鹿児島市郡元１","next":[9992614,1190413,9992617,9992615,1193002,9992514],"voronoi":{"lat":31.571361,"lng":130.546698,"delta_lat":[0,-4706,-2240,3536,4682,-217],"delta_lng":[0,-13095,-12441,592,23567,1519]}},
    {"code":9992614,"id":"0d8317","name":"市立病院前(鹿児島)","original_name":"市立病院前","name_kana":"しりつびょういんまえ","lat":31.575812,"lng":130.541836,"prefecture":46,"lines":[99926],"attr":"heat","postal_code":"890-0055","address":"鹿児島市上荒田町","next":[9992616,101012,9992613,9992513,9992514,9992615],"voronoi":{"lat":31.572415,"lng":130.54684,"delta_lat":[0,285,3028,3988,-25,-7059],"delta_lng":[0,190,594,-14705,-4222,16624]}},
    {"code":9992514,"left":9992618,"right":9992513,"id":"aae5e8","name":"騎射場","name_kana":"きしゃば","lat":31.569102,"lng":130.5519,"prefecture":46,"lines":[99925],"attr":"heat","postal_code":"890-0056","address":"鹿児島市下荒田３","next":[9992515,9992513,9992618,9992619,9992614,9992617,9992616,1190754],"voronoi":{"lat":31.539702,"lng":130.680679,"delta_lat":[0,32998,-285,-1055,-1263,-240,-2184,-84093],"delta_lng":[0,-133648,-190,-142,87,58,1367,216458]}},
    {"code":9992618,"id":"52bf91","name":"純心学園前","name_kana":"じゅんしんがくえんまえ","lat":31.566872,"lng":130.542694,"prefecture":46,"lines":[99926],"attr":"cool","postal_code":"890-0065","address":"鹿児島市郡元１","next":[9992617,9992619,1193002,9992514],"voronoi":{"lat":31.565477,"lng":130.543678,"delta_lat":[0,1494,3127,-240],"delta_lng":[0,-2632,5739,58]}},
    {"code":9992513,"id":"544481","name":"荒田八幡","name_kana":"あらたはちまん","lat":31.573618,"lng":130.553015,"prefecture":46,"lines":[99925],"attr":"eco","postal_code":"890-0056","address":"鹿児島市下荒田３","next":[1190412,9992613,9992512,9992514,1190754,9992614],"voronoi":{"lat":31.576427,"lng":130.547957,"delta_lat":[0,-15873,-19541,-1310,32998,3028],"delta_lng":[0,80682,50152,1888,-133648,594]}},
    {"code":1193214,"left":9992109,"right":9992610,"id":"fc6715","name":"薩摩求名","name_kana":"さつまぐみょう","closed":true,"lat":31.935201,"lng":130.526714,"prefecture":46,"lines":[11932],"attr":"unknown","postal_code":"895-2201","address":"鹿児島県薩摩郡さつま町求名２１８８−２３","next":[1193217,1193213,1193211,1193215],"voronoi":{"lat":31.899354,"lng":130.515664,"delta_lat":[0,24267,71614,-37723],"delta_lng":[0,-9250,16269,31073]}},
    {"code":9992109,"left":1193212,"right":9992106,"id":"e51956","name":"佐敷","name_kana":"さしき","lat":32.302447,"lng":130.497277,"prefecture":43,"lines":[99921],"attr":"heat","postal_code":"869-5442","address":"葦北郡芦北町花岡西","next":[9992110,9992107,1192509,9992111,9992108,1192508],"voronoi":{"lat":32.319253,"lng":130.548109,"delta_lat":[0,4556,-28714,-18080,22128,2930],"delta_lng":[0,-29307,-86201,26875,93471,-86]}},
    {"code":1193212,"left":1193209,"right":1193213,"id":"15536d","name":"薩摩湯田","name_kana":"さつまゆだ","closed":true,"lat":31.931835,"lng":130.473301,"prefecture":46,"lines":[11932],"attr":"unknown","postal_code":"895-1817","address":"鹿児島県薩摩郡さつま町湯田９４−２","next":[1193213,9992117,1193211,101010,1193210],"voronoi":{"lat":31.974388,"lng":130.374983,"delta_lat":[0,29910,20329,-93074,-14607],"delta_lng":[0,32041,27711,51682,-18636]}},
    {"code":1193209,"left":1190410,"right":1193210,"id":"b4e30e","name":"船木","name_kana":"ふなき","closed":true,"lat":31.882169,"lng":130.45067,"prefecture":46,"lines":[11932],"attr":"unknown","postal_code":"895-1804","address":"鹿児島県薩摩郡さつま町船木３８３７","next":[1193204,1193206,1193208,1193203,1193211,1193210],"voronoi":{"lat":31.912083,"lng":130.385771,"delta_lat":[0,-19157,-12867,-9759,-445,15929],"delta_lng":[0,3602,6260,11417,94107,-17719]}},
    {"code":1190410,"left":1193208,"id":"777caf","name":"上伊集院","name_kana":"かみいじゅういん","lat":31.593837,"lng":130.459468,"prefecture":46,"lines":[11904],"attr":"heat","postal_code":"899-2703","address":"鹿児島市上谷口町","next":[1190753,1193008,9992503,9992501,1193006,1190409,1190413],"voronoi":{"lat":31.54578,"lng":130.466821,"delta_lat":[0,-43988,-193,194275,-937,-25285,-19323],"delta_lng":[0,-72037,-513,108984,660,1824,993]}},
    {"code":1193208,"id":"6f9b44","name":"薩摩山崎","name_kana":"さつまやまざき","closed":true,"lat":31.85802,"lng":130.450556,"prefecture":46,"lines":[11932],"attr":"unknown","postal_code":"895-1722","address":"鹿児島県薩摩郡さつま町久富木８７６−５","next":[1193207,1193209,1190752,1193211,1193215,1193206,1190751],"voronoi":{"lat":31.860196,"lng":130.518934,"delta_lat":[0,9660,445,-17461,-67990,6549,18603],"delta_lng":[0,-17777,-94107,11771,116613,5414,13383]}},
    {"code":1193210,"id":"932a43","name":"宮之城","name_kana":"みやのじょう","closed":true,"lat":31.905365,"lng":130.456916,"prefecture":46,"lines":[11932],"attr":"unknown","postal_code":"895-1803","address":"鹿児島県薩摩郡さつま町宮之城屋地２０３６−４","next":[9992117,1193203,1193211,1193212,1193209],"voronoi":{"lat":31.912083,"lng":130.385771,"delta_lat":[0,55538,6767,-57442,-31162],"delta_lng":[0,-20570,9782,92798,15657]}},
    {"code":1193213,"left":1193211,"right":9992110,"id":"038776","name":"薩摩鶴田","name_kana":"さつまつるだ","closed":true,"lat":31.942835,"lng":130.493111,"prefecture":46,"lines":[11932],"attr":"unknown","postal_code":"895-2101","address":"鹿児島県薩摩郡さつま町鶴田１７３７","next":[1193212,1193214,1193217,1193211,1193219,101010],"voronoi":{"lat":32.024627,"lng":130.434735,"delta_lat":[0,-93074,-7933,71614,35014,34521],"delta_lng":[0,51682,19998,16269,-14746,-29758]}},
    {"code":1193211,"id":"4063fd","name":"佐志","name_kana":"さし","closed":true,"lat":31.918751,"lng":130.483557,"prefecture":46,"lines":[11932],"attr":"unknown","postal_code":"895-1802","address":"鹿児島県薩摩郡さつま町田原１８２−１６","next":[1193212,1193215,1193210,1193208,1193214,1193209,1193213],"voronoi":{"lat":31.899354,"lng":130.515664,"delta_lat":[0,-39158,9660,15929,31162,14607,-7933],"delta_lng":[0,3269,-17777,-17719,-15657,18636,19998]}},
    {"code":9992110,"id":"3fe802","name":"湯浦","name_kana":"ゆのうら","lat":32.271231,"lng":130.504667,"prefecture":43,"lines":[99921],"attr":"heat","postal_code":"869-5562","address":"葦北郡芦北町大字宮崎","next":[9992109,1192510,1193220,9992111,1192509],"voronoi":{"lat":32.164172,"lng":130.552955,"delta_lat":[0,-4810,117654,22128,-12203],"delta_lng":[0,-9691,-83788,93471,4057]}},
    {"code":9992106,"left":1192411,"right":1192409,"id":"4e8b39","name":"たのうら御立岬公園","name_kana":"たのうらおたちみさきこうえん","lat":32.363202,"lng":130.506705,"prefecture":43,"lines":[99921],"attr":"cool","postal_code":"869-5305","address":"葦北郡芦北町田浦町","next":[1192508,9992107,1192411,9992108,9992105],"voronoi":{"lat":32.458695,"lng":130.311022,"delta_lat":[0,-4098,-90958,-14180,10501],"delta_lng":[0,-27193,178502,92016,3616]}},
    {"code":1192411,"left":9992107,"right":1192410,"id":"85d6b5","name":"三角","name_kana":"みすみ","lat":32.607616,"lng":130.469872,"prefecture":43,"lines":[11924],"attr":"cool","postal_code":"869-3207","address":"宇城市三角町三角浦","next":[1192410,9991224,9992102,9991209,9992106,1192409,1192408,9992104,9992105,9992108,9992113],"voronoi":{"lat":32.459721,"lng":130.14236,"delta_lat":[0,96466,133602,-24595,-10001,-137087,-257,-25339,-33814,-4098,-5616],"delta_lng":[0,64883,215555,27856,9433,59419,-238,-59279,-148966,-27193,-83112]}},
    {"code":9992107,"left":9992108,"id":"43446a","name":"肥後田浦","name_kana":"ひごたのうら","lat":32.350698,"lng":130.504778,"prefecture":43,"lines":[99921],"attr":"heat","postal_code":"869-5303","address":"葦北郡芦北町小田浦","next":[1192508,9992106,9992109,9992108],"voronoi":{"lat":32.319253,"lng":130.548109,"delta_lat":[0,30206,14180,-39830],"delta_lng":[0,6239,-92016,56470]}},
    {"code":9992108,"id":"4a3ca4","name":"海浦","name_kana":"うみのうら","lat":32.327997,"lng":130.488766,"prefecture":43,"lines":[99921],"attr":"heat","postal_code":"869-5304","address":"葦北郡芦北町海浦","next":[9992106,9992111,9992113,9992107,9992109,1192411],"voronoi":{"lat":32.36364,"lng":130.462331,"delta_lat":[0,-39830,-28714,24493,129393,5616],"delta_lng":[0,56470,-86201,-60648,-171235,83112]}},
    {"code":1192410,"id":"b56ba3","name":"波多浦","name_kana":"はたうら","lat":32.615524,"lng":130.488117,"prefecture":43,"lines":[11924],"attr":"cool","postal_code":"869-3205","address":"宇城市三角町波多","next":[1192411,1190349,1190347,1192409,101008,9992102],"voronoi":{"lat":32.571141,"lng":130.564468,"delta_lat":[0,6455,1391,76205,-137087,2005],"delta_lng":[0,4294,734,-109409,59419,2254]}},
    {"code":1192409,"left":9992105,"right":1192408,"id":"ad918a","name":"石打ダム","name_kana":"いしうちだむ","lat":32.642653,"lng":130.507013,"prefecture":43,"lines":[11924],"attr":"cool","postal_code":"869-3204","address":"宇城市三角町中村","next":[1192407,1190347,1192411,1192410,1192408],"voronoi":{"lat":32.582356,"lng":130.572176,"delta_lat":[0,-3368,76205,10001,-25579],"delta_lng":[0,-2681,-109409,-9433,85957]}},
    {"code":9992105,"id":"9e0c76","name":"上田浦","name_kana":"かみたのうら","lat":32.392952,"lng":130.5186,"prefecture":43,"lines":[99921],"attr":"cool","postal_code":"869-5307","address":"葦北郡芦北町井牟田","next":[9992104,9992106,1192508,1192411],"voronoi":{"lat":32.370192,"lng":130.565722,"delta_lat":[0,-10231,98735,33814],"delta_lng":[0,-7759,-246941,148966]}},
    {"code":1192408,"id":"477ee8","name":"赤瀬","name_kana":"あかせ","lat":32.653252,"lng":130.510167,"prefecture":43,"lines":[11924],"attr":"eco","postal_code":"869-3175","address":"宇土市赤瀬町","next":[9991224,1192406,9991223,1192411,1192407,1192409],"voronoi":{"lat":32.665193,"lng":130.450653,"delta_lat":[0,24595,27925,33366,-48199,-63266],"delta_lng":[0,-27856,22987,30371,35997,24458]}},
    {"code":9992610,"left":9992509,"right":9992508,"id":"5669ab","name":"高見橋","name_kana":"たかみばし","lat":31.58593,"lng":130.545162,"prefecture":46,"lines":[99926],"attr":"eco","postal_code":"890-0053","address":"鹿児島市中央町","next":[9992609,9992611,101012,1190413,9992510,9992504],"voronoi":{"lat":31.582104,"lng":130.548767,"delta_lat":[0,-479,5248,43635,5936,-26272],"delta_lng":[0,-116,-6511,-28499,-1340,22993]}},
    {"code":9992509,"left":101012,"right":9992511,"id":"d39dc2","name":"甲東中学校前","name_kana":"こうとうちゅうがっこうまえ","lat":31.585738,"lng":130.553058,"prefecture":46,"lines":[99925],"attr":"eco","postal_code":"892-0845","address":"鹿児島市樋之口町","next":[9992508,9992609,9992507,9992510],"voronoi":{"lat":31.58345,"lng":130.549585,"delta_lat":[0,2670,2258,-1865],"delta_lng":[0,836,3242,4581]}},
    {"code":101012,"left":9992612,"right":9992611,"id":"4f45fc","name":"鹿児島中央","name_kana":"かごしまちゅうおう","lat":31.583727,"lng":130.541789,"prefecture":46,"lines":[1010,11904,11907,11930],"attr":"heat","postal_code":"890-0053","address":"鹿児島市中央町","next":[9992612,9992614,9992613,9992615,9992610,1190413,9992611],"voronoi":{"lat":31.586873,"lng":130.54214,"delta_lat":[0,43635,-50200,-616,25,854,1850],"delta_lng":[0,-28499,9400,5656,4222,5506,4629]}},
    {"code":9992612,"left":9992613,"id":"20d0e7","name":"都通","name_kana":"みやこどおり","lat":31.580601,"lng":130.543038,"prefecture":46,"lines":[99926],"attr":"heat","postal_code":"890-0053","address":"鹿児島市中央町","next":[9992512,101012,9992611,9992510,9992613,9992511],"voronoi":{"lat":31.581364,"lng":130.548644,"delta_lat":[0,1057,-1850,-2186,838,2118],"delta_lng":[0,-5590,-4629,9790,275,161]}},
    {"code":9992613,"id":"e21042","name":"中洲通","name_kana":"なかすどおり","lat":31.578581,"lng":130.542587,"prefecture":46,"lines":[99926],"attr":"heat","postal_code":"890-0055","address":"鹿児島市上荒田町","next":[9992513,9992614,101012,9992612,9992512],"voronoi":{"lat":31.580571,"lng":130.538425,"delta_lat":[0,-854,-3988,698,1958],"delta_lng":[0,-5506,14705,332,259]}},
    {"code":9992611,"id":"94e58c","name":"鹿児島中央駅前","name_kana":"かごしまちゅうおうえきまえ","lat":31.58412,"lng":130.543703,"prefecture":46,"lines":[99926],"attr":"eco","postal_code":"890-0053","address":"鹿児島市中央町３７-１","next":[9992612,9992610,9992510,101012],"voronoi":{"lat":31.581364,"lng":130.548644,"delta_lat":[0,261,5248,-4452],"delta_lng":[0,7,-6511,914]}},
    {"code":9992511,"left":9992512,"right":9992510,"id":"3e27ce","name":"武之橋","name_kana":"たけのはし","lat":31.57976,"lng":130.554088,"prefecture":46,"lines":[99925],"attr":"eco","postal_code":"890-0056","address":"鹿児島市下荒田１","next":[1190412,9992512,9992506,9992510,9992612],"voronoi":{"lat":31.58286,"lng":130.565749,"delta_lat":[0,-9962,-1591,7915,2118],"delta_lng":[0,33531,3545,-54334,161]}},
    {"code":9992512,"id":"78b6b3","name":"二中通","name_kana":"にちゅうどおり","lat":31.57711,"lng":130.553702,"prefecture":46,"lines":[99925],"attr":"eco","postal_code":"890-0056","address":"鹿児島県鹿児島市高麗町","next":[9992612,9992513,1190412,9992511,9992613],"voronoi":{"lat":31.579222,"lng":130.54849,"delta_lat":[0,-7915,-10754,15873,1958],"delta_lng":[0,54334,25814,-80682,259]}},
    {"code":9992510,"id":"b71025","name":"新屋敷","name_kana":"しんやしき","lat":31.583855,"lng":130.553724,"prefecture":46,"lines":[99925],"attr":"eco","postal_code":"892-0846","address":"鹿児島市加治屋町","next":[9992507,9992611,9992612,9992506,9992509,9992609,9992511,9992610],"voronoi":{"lat":31.58345,"lng":130.549585,"delta_lat":[0,3063,-43,-3610,-1520,23,261,479],"delta_lng":[0,8659,218,7286,-17097,-7,7,116]}},
    {"code":9992508,"left":9992104,"right":9992506,"id":"7a1dcf","name":"高見馬場","name_kana":"たかみばば","lat":31.588726,"lng":130.550977,"prefecture":46,"lines":[99925,99926],"attr":"eco","postal_code":"892-0844","address":"鹿児島市山之口町","next":[9992507,9992505,9992509,9992609,9992504],"voronoi":{"lat":31.596333,"lng":130.549849,"delta_lat":[0,-7955,-2258,17070,-4941],"delta_lng":[0,3814,-3242,-8222,5934]}},
    {"code":9992104,"left":9992609,"right":1192407,"id":"a9e561","name":"肥後二見","name_kana":"ひごふたみ","lat":32.420111,"lng":130.550019,"prefecture":43,"lines":[99921],"attr":"cool","postal_code":"869-5171","address":"八代市二見洲口町","next":[9992103,1192507,9992105,9992102,1192411,1192508],"voronoi":{"lat":32.370192,"lng":130.565722,"delta_lat":[0,122318,25339,-2675,-128320,-11256],"delta_lng":[0,-105734,59279,2370,65150,-11490]}},
    {"code":9992609,"left":1193215,"id":"503c86","name":"加治屋町","name_kana":"かじやちょう","lat":31.58731,"lng":130.548037,"prefecture":46,"lines":[99926],"attr":"eco","postal_code":"892-0846","address":"鹿児島市加治屋町","next":[9992610,9992508,9992509,9992510,9992504],"voronoi":{"lat":31.610172,"lng":130.535295,"delta_lat":[0,-28068,1347,2670,17070],"delta_lng":[0,13473,818,836,-8222]}},
    {"code":1193215,"id":"c096eb","name":"広橋","name_kana":"ひろはし","closed":true,"lat":31.923807,"lng":130.54411,"prefecture":46,"lines":[11932],"attr":"unknown","postal_code":"895-2201","address":"鹿児島県薩摩郡さつま町求名１２５０３","next":[1193217,1193216,1193211,1193208,1190751,1193214],"voronoi":{"lat":31.949718,"lng":130.565635,"delta_lat":[0,-133296,-6421,50194,39158,58158],"delta_lng":[0,2860,-14264,-35297,-3269,38092]}},
    {"code":1192407,"id":"0f1a04","name":"網田","name_kana":"おうだ","lat":32.667493,"lng":130.547004,"prefecture":43,"lines":[11924],"attr":"eco","postal_code":"869-3173","address":"宇土市下網田町","next":[1192409,1192406,1190344,1192404,1192408,1190347,1190346,1192405],"voronoi":{"lat":32.657815,"lng":130.590777,"delta_lat":[0,45065,-63266,-57259,16300,9270,22077,12420],"delta_lng":[0,-78625,24458,35566,22344,7895,2710,-3905]}},
    {"code":9992506,"left":9992507,"right":9992505,"id":"d33a96","name":"いづろ通","name_kana":"いづろどおり","lat":31.591824,"lng":130.557672,"prefecture":46,"lines":[99925,99926],"attr":"eco","postal_code":"892-0828","address":"鹿児島市金生町","next":[9992503,9992505,1190412,9992502,9992510,9992507,9992511],"voronoi":{"lat":31.58286,"lng":130.565749,"delta_lat":[0,3610,6357,1225,-76,-1816,-19262],"delta_lng":[0,-7286,-2774,8089,293,4480,30729]}},
    {"code":9992507,"id":"b5760a","name":"天文館通","name_kana":"てんもんかんどおり","lat":31.590691,"lng":130.555075,"prefecture":46,"lines":[99925,99926],"attr":"eco","postal_code":"892-0843","address":"鹿児島市千日町","next":[9992510,9992508,9992505,9992509,9992506],"voronoi":{"lat":31.592828,"lng":130.555688,"delta_lat":[0,3506,-7955,-1865,-43],"delta_lng":[0,-5839,3814,4581,218]}},
    {"code":9992505,"id":"c84648","name":"朝日通","name_kana":"あさひどおり","lat":31.594374,"lng":130.557286,"prefecture":46,"lines":[99925,99926],"attr":"eco","postal_code":"892-0821","address":"鹿児島市名山町","next":[9992504,9992506,9992508,9992507,9992503],"voronoi":{"lat":31.592828,"lng":130.555688,"delta_lat":[0,3506,1916,-3916,-281],"delta_lng":[0,-5839,-1716,15071,573]}}
  ]
}