{
  "name":"segment3",
  "root":1192911,
  "east":131.97669,
  "west":130.558015,
  "south":-90.0,
  "north":32.52812,
  "station_size":145,
  "node_list":[
    {"code":1192911,"left":1192916,"right":1190735,"id":"22d568","name":"西小林","name_kana":"にしこばやし","lat":32.009409,"lng":130.921829,"prefecture":45,"lines":[11929],"attr":"cool","postal_code":"886-0006","address":"小林市北西方","next":[1192909,1190746,9992008,1192910,1192912,9992009],"voronoi":{"lat":32.132205,"lng":130.983854,"delta_lat":[0,-5345,-203078,-15456,54148,170125],"delta_lng":[0,-43226,-83739,34817,44353,58459]}},
    {"code":1192916,"left":1190751,"right":1192513,"id":"6f6614","name":"鶴丸","name_kana":"つるまる","lat":32.030394,"lng":130.748524,"prefecture":46,"lines":[11929],"attr":"heat","postal_code":"899-6101","address":"姶良郡湧水町鶴丸","next":[1192519,1192914,1192518,1192915],"voronoi":{"lat":32.055129,"lng":130.74489,"delta_lat":[0,-15188,-44993,3007],"delta_lng":[0,-34594,79312,-526]}},
    {"code":1190751,"left":9992502,"right":1192607,"id":"63d574","name":"帖佐","name_kana":"ちょうさ","lat":31.72697,"lng":130.632716,"prefecture":46,"lines":[11907],"attr":"heat","postal_code":"899-5421","address":"鹿児島県姶良市東餅田2575","next":[1193216,1190752,1190750,1193215,1193208],"voronoi":{"lat":31.816422,"lng":130.568494,"delta_lat":[0,6838,-128911,97049,18603],"delta_lng":[0,30415,62251,-120313,13383]}},
    {"code":9992502,"left":1193015,"right":1193218,"id":"7d1666","name":"桜島桟橋通","name_kana":"さくらじまさんばしどおり","lat":31.599976,"lng":130.560976,"prefecture":46,"lines":[99925,99926],"attr":"eco","postal_code":"892-0817","address":"鹿児島市小川町","next":[1190412,9992503,9992501,9992506],"voronoi":{"lat":31.593976,"lng":130.564071,"delta_lat":[0,17647,-16168,-3295],"delta_lng":[0,-12231,14481,2230]}},
    {"code":1193015,"left":1193014,"right":1193017,"id":"767314","name":"薩摩今和泉","name_kana":"さつまいまいずみ","lat":31.29068,"lng":130.599002,"prefecture":46,"lines":[11930],"attr":"heat","postal_code":"891-0315","address":"指宿市岩本","next":[1193017,1193016,1193022,1193013,1193023,1193014],"voronoi":{"lat":31.256449,"lng":130.554989,"delta_lat":[0,-11625,-1475,5149,155340,-34264],"delta_lng":[0,21250,4206,6021,100513,-43028]}},
    {"code":1193014,"left":1193021,"right":9992503,"id":"b67fee","name":"生見","name_kana":"ぬくみ","lat":31.307292,"lng":130.577878,"prefecture":46,"lines":[11930],"attr":"heat","postal_code":"891-0206","address":"鹿児島市喜入生見町","next":[1193013,1193027,1193023,1193024,1193026,1193015],"voronoi":{"lat":31.256449,"lng":130.554989,"delta_lat":[0,489,1911,9099,28560,73066],"delta_lng":[0,-1856,-4579,-9182,-21873,126452]}},
    {"code":1193021,"left":1193022,"id":"e22be0","name":"西大山","name_kana":"にしおおやま","lat":31.190269,"lng":130.57621,"prefecture":46,"lines":[11930],"attr":"cool","postal_code":"891-0614","address":"指宿市山川大山（その他）","next":[1193025,9992901,1193022,1193020],"voronoi":{"lat":28.372224,"lng":129.857544,"delta_lat":[0,2679341,168097,-3719137],"delta_lng":[0,654368,70220,767122]}},
    {"code":1193022,"id":"78e848","name":"薩摩川尻","name_kana":"さつまかわしり","lat":31.194791,"lng":130.565385,"prefecture":46,"lines":[11930],"attr":"cool","postal_code":"891-0603","address":"指宿市開聞十町","next":[1193017,1193023,1193015,1193020,1193024,1193021,1193025],"voronoi":{"lat":31.115704,"lng":130.525109,"delta_lat":[0,129120,-1475,-1677,-22010,-168097,62877],"delta_lng":[0,51129,4206,1544,143,-70220,12821]}},
    {"code":9992503,"id":"403366","name":"水族館口","name_kana":"すいぞくかんぐち","lat":31.59898,"lng":130.559539,"prefecture":46,"lines":[99925,99926],"attr":"eco","postal_code":"892-0816","address":"鹿児島市山下町","next":[9992506,9992502,1190413,1190410,9992504,9992505,9992501],"voronoi":{"lat":31.669652,"lng":130.505739,"delta_lat":[0,-19323,-12464,-43532,-281,-76,17647],"delta_lng":[0,993,5027,51445,573,293,-12231]}},
    {"code":1193017,"left":1193019,"right":1193016,"id":"c7e85d","name":"二月田","name_kana":"にがつでん","lat":31.254339,"lng":130.630082,"prefecture":46,"lines":[11930],"attr":"heat","postal_code":"891-0402","address":"指宿市十町","next":[1193022,1193015,1193018,1193016,1193019,1193020],"voronoi":{"lat":31.233009,"lng":130.618851,"delta_lat":[0,79645,-64156,-5149,-1677,-8684],"delta_lng":[0,110469,-142854,-6021,1544,16684]}},
    {"code":1193019,"left":1193020,"id":"51a321","name":"山川","name_kana":"やまかわ","lat":31.211702,"lng":130.630127,"prefecture":46,"lines":[11930],"attr":"cool","postal_code":"891-0516","address":"指宿市山川成川","next":[1193020,1193018,1192825,1192829,1192827,1192826,1193017],"voronoi":{"lat":31.232987,"lng":130.598672,"delta_lat":[0,-3085108,1663911,987191,200218,23815,209994],"delta_lng":[0,1665002,-695647,-422299,-90186,-13296,-423396]}},
    {"code":1193020,"id":"cfad5e","name":"大山(鹿児島)","original_name":"大山","name_kana":"おおやま","lat":31.195011,"lng":130.5992,"prefecture":46,"lines":[11930],"attr":"cool","postal_code":"891-0614","address":"指宿市山川大山（その他）","next":[1193019,1193022,1192825,9992901,1193021,1193017],"voronoi":{"lat":28.14788,"lng":132.263675,"delta_lat":[0,-1579797,932442,3719137,22010,-8684],"delta_lng":[0,669894,-1584315,-767122,-143,16684]}},
    {"code":1193016,"id":"25af9e","name":"宮ヶ浜","name_kana":"みやがはま","lat":31.277218,"lng":130.619807,"prefecture":46,"lines":[11930],"attr":"heat","postal_code":"891-0311","address":"鹿児島県指宿市西方4672番地","next":[1193018,1193013,1193015,1190747,9992515,9992516,1193017,1193011,1190754,1192829],"voronoi":{"lat":31.471045,"lng":130.819546,"delta_lat":[0,5,-1407,-6722,-2177,-8278,-48628,-155340,64156,71313],"delta_lng":[0,-16,-33468,-27617,-8832,-11371,-51263,-100513,142854,125861]}},
    {"code":1193218,"left":1193216,"right":1190753,"id":"9f9e1f","name":"西太良","name_kana":"にしたら","closed":true,"lat":32.008027,"lng":130.603723,"prefecture":46,"lines":[11932],"attr":"unknown","postal_code":"895-2441","address":"鹿児島県伊佐市大口曽木１５６９−１","next":[1192519,1193217,1193219,1193220,1192602,1192603,1193216],"voronoi":{"lat":31.959099,"lng":130.63523,"delta_lat":[0,52199,20023,-3233,-32798,-38290,-1012],"delta_lng":[0,-64418,67301,32263,977,-18342,-1037]}},
    {"code":1193216,"left":1190412,"right":1193217,"id":"2ac031","name":"薩摩永野","name_kana":"さつまながの","closed":true,"lat":31.924754,"lng":130.588251,"prefecture":46,"lines":[11932],"attr":"unknown","postal_code":"895-2203","address":"鹿児島県薩摩郡さつま町永野８８４","next":[1190751,1193217,1192603,1193215,1190750,1193218,1192606],"voronoi":{"lat":31.955988,"lng":130.651974,"delta_lat":[0,3111,-9381,-133296,6838,8584,14976],"delta_lng":[0,-16744,-69595,2860,30415,24790,10869]}},
    {"code":1190412,"left":9992501,"id":"662dbf","name":"鹿児島","name_kana":"かごしま","lat":31.602098,"lng":130.564112,"prefecture":46,"lines":[11904,11907],"attr":"heat","postal_code":"892-0812","address":"鹿児島市浜町","next":[9992502,9992511,9992513,9992512,9992506,9992501,1190754],"voronoi":{"lat":31.675269,"lng":130.527119,"delta_lat":[0,-79814,-3295,-19262,-1591,-10754,-19541],"delta_lng":[0,39202,2230,30729,3545,25814,50152]}},
    {"code":9992501,"id":"be9c0d","name":"鹿児島駅前","name_kana":"かごしまえきまえ","lat":31.601264,"lng":130.562414,"prefecture":46,"lines":[99925,99926],"attr":"eco","postal_code":"892-0812","address":"鹿児島市浜町","next":[1190753,1190754,9992502,1190410,1190412,9992503],"voronoi":{"lat":31.669652,"lng":130.505739,"delta_lat":[0,25285,-1738,-17930,-79814,16168],"delta_lng":[0,-1824,3412,19791,39202,-14481]}},
    {"code":1193217,"id":"244feb","name":"針持","name_kana":"はりもち","closed":true,"lat":31.97978,"lng":130.580834,"prefecture":46,"lines":[11932],"attr":"unknown","postal_code":"895-2442","address":"鹿児島県伊佐市大口針持４２９６−８","next":[1193216,1193215,1193214,1193218,1193213,1193219],"voronoi":{"lat":32.030249,"lng":130.507937,"delta_lat":[0,-35014,-37723,-7793,9381,52199],"delta_lng":[0,14746,31073,11878,69595,-64418]}},
    {"code":1190753,"left":1190754,"right":1190752,"id":"299e43","name":"重富","name_kana":"しげとみ","lat":31.702717,"lng":130.61408,"prefecture":46,"lines":[11907],"attr":"heat","postal_code":"899-5651","address":"鹿児島県姶良市脇元3001","next":[1193207,1190410,9992501,1190752,1190749,1190409,1190754],"voronoi":{"lat":31.693199,"lng":130.507328,"delta_lat":[0,1738,937,20510,57885,-109033,-2806],"delta_lng":[0,-3412,-660,-11410,37708,148827,1810]}},
    {"code":1190754,"id":"9208f3","name":"竜ヶ水","name_kana":"りゅうがみず","lat":31.64743,"lng":130.604239,"prefecture":46,"lines":[11907],"attr":"heat","postal_code":"892-0871","address":"鹿児島県鹿児島市吉野町10252","next":[9992515,1190748,9992501,9992513,1190747,1193016,1190749,1190412,1190753,9992514],"voronoi":{"lat":31.469643,"lng":130.786061,"delta_lat":[0,1407,114593,53504,23284,30769,-17930,-134257,-1310,-56122],"delta_lng":[0,33468,-69261,-37928,-32150,-172863,19791,151672,1888,83990]}},
    {"code":1190752,"id":"1aa420","name":"姶良","name_kana":"あいら","lat":31.715246,"lng":130.623259,"prefecture":46,"lines":[11907],"attr":"heat","postal_code":"899-5431","address":"鹿児島県姶良市西餅田3546-1","next":[1190750,1193207,1190751,1190753,1193208,1190749],"voronoi":{"lat":31.774269,"lng":130.529554,"delta_lat":[0,10580,6549,-97049,-11578,-17535],"delta_lng":[0,5880,5414,120313,8349,8871]}},
    {"code":1192607,"left":1192608,"right":1192605,"id":"7207ae","name":"中福良","name_kana":"なかふくら","lat":31.813818,"lng":130.733174,"prefecture":46,"lines":[11926],"attr":"cool","postal_code":"899-5113","address":"霧島市隼人町嘉例川","next":[1192606,1190749,1190746,1192608,1192605],"voronoi":{"lat":31.835966,"lng":130.784217,"delta_lat":[0,-57900,10749,51735,-636],"delta_lng":[0,-84071,-12837,66857,29885]}},
    {"code":1192608,"left":1190749,"right":1192609,"id":"c3cbcf","name":"表木山","name_kana":"ひょうきやま","lat":31.796176,"lng":130.745324,"prefecture":46,"lines":[11926],"attr":"eco","postal_code":"899-5113","address":"霧島市隼人町嘉例川","next":[1190748,1190746,1192609,1192607,1190749],"voronoi":{"lat":31.773768,"lng":130.703844,"delta_lat":[0,12702,49497,-57900,-4255],"delta_lng":[0,92261,-11889,-84071,3247]}},
    {"code":1190749,"left":1190750,"right":1190748,"id":"247109","name":"加治木","name_kana":"かじき","lat":31.739271,"lng":130.670752,"prefecture":46,"lines":[11907],"attr":"eco","postal_code":"899-5231","address":"鹿児島県姶良市加治木町反土903","next":[1192606,1192607,1190753,1190750,1190754,1192608,1190748,1190752],"voronoi":{"lat":31.682772,"lng":130.66951,"delta_lat":[0,126891,-20847,-10749,-4255,-134665,23284,2806],"delta_lng":[0,-17166,34965,12837,3247,8948,-32150,-1810]}},
    {"code":1190750,"left":1193018,"id":"76ad40","name":"錦江","name_kana":"きんこう","lat":31.73691,"lng":130.6533,"prefecture":46,"lines":[11907],"attr":"heat","postal_code":"899-5223","address":"鹿児島県姶良市加治木町新生町83","next":[1190752,1192606,1193216,1190749,1190751],"voronoi":{"lat":31.682772,"lng":130.66951,"delta_lat":[0,126891,22182,-8584,-128911],"delta_lng":[0,-17166,-28644,-24790,62251]}},
    {"code":1193018,"id":"d2bcef","name":"指宿","name_kana":"いぶすき","lat":31.236925,"lng":130.642637,"prefecture":46,"lines":[11930],"attr":"heat","postal_code":"891-0405","address":"指宿市湊１丁目","next":[1193016,1193017,1193019,1192829],"voronoi":{"lat":31.233009,"lng":130.618851,"delta_lat":[0,79645,71313,-360952],"delta_lng":[0,110469,125861,187066]}},
    {"code":1190748,"id":"0f2107","name":"隼人","name_kana":"はやと","lat":31.743893,"lng":130.740316,"prefecture":46,"lines":[11907,11926],"attr":"eco","postal_code":"899-5117","address":"霧島市隼人町見次","next":[1192608,1190754,1192609,1190749,1190747],"voronoi":{"lat":31.585643,"lng":130.750268,"delta_lat":[0,53504,134665,-44,-23473],"delta_lng":[0,-37928,-8948,452,48104]}},
    {"code":1192609,"left":1190747,"right":1190745,"id":"108399","name":"日当山","name_kana":"ひなたやま","lat":31.763402,"lng":130.749836,"prefecture":46,"lines":[11926],"attr":"eco","postal_code":"899-5116","address":"霧島市隼人町内","next":[1192608,1190746,1190748,1190747],"voronoi":{"lat":31.750294,"lng":130.751948,"delta_lat":[0,23473,12702,-4001],"delta_lng":[0,-48104,92261,2516]}},
    {"code":1190747,"id":"aee38b","name":"国分(鹿児島)","original_name":"国分","name_kana":"こくぶ","lat":31.743657,"lng":130.763447,"prefecture":46,"lines":[11907],"attr":"eco","postal_code":"899-4345","address":"霧島市国分府中","next":[1192829,1193016,1190746,1190743,1190745,1190754,1192609,1190748],"voronoi":{"lat":31.585643,"lng":130.750268,"delta_lat":[0,-114593,-5,53966,112249,124930,20279,-32174],"delta_lng":[0,69261,16,43701,-771,-43290,-20564,-46673]}},
    {"code":1190745,"id":"6c1ee4","name":"北永野田","name_kana":"きたながのだ","lat":31.782118,"lng":130.87444,"prefecture":46,"lines":[11907],"attr":"cool","postal_code":"899-4202","address":"霧島市霧島永水","next":[1190743,1190746,1190747,1190744],"voronoi":{"lat":31.76219,"lng":130.819185,"delta_lat":[0,-124930,43293,181538],"delta_lng":[0,43290,18771,34009]}},
    {"code":1192605,"left":1192603,"right":1192519,"id":"febe3d","name":"霧島温泉","name_kana":"きりしまおんせん","lat":31.86815,"lng":130.734329,"prefecture":46,"lines":[11926],"attr":"cool","postal_code":"899-6507","address":"霧島市牧園町宿窪田","next":[1192604,1192602,1192606,1192607,1190746],"voronoi":{"lat":31.839915,"lng":130.784051,"delta_lat":[0,636,18621,61837,628],"delta_lng":[0,-29885,-67865,132691,4856]}},
    {"code":1192603,"left":1192604,"right":1192602,"id":"cf2dbc","name":"大隅横川","name_kana":"おおすみよこがわ","lat":31.906487,"lng":130.702825,"prefecture":46,"lines":[11926],"attr":"heat","postal_code":"899-6303","address":"霧島市横川町中ノ","next":[1193216,1192606,1192602,1193218,1192604],"voronoi":{"lat":31.85922,"lng":130.683408,"delta_lat":[0,-12399,109168,1012,-36582],"delta_lng":[0,-48840,17405,1037,77397]}},
    {"code":1192604,"left":1192606,"id":"ee18ce","name":"植村","name_kana":"うえむら","lat":31.890175,"lng":130.724065,"prefecture":46,"lines":[11926],"attr":"heat","postal_code":"899-6303","address":"霧島市横川町中ノ","next":[1192605,1192606,1192602,1192603],"voronoi":{"lat":31.85922,"lng":130.683408,"delta_lat":[0,-48,61837,-590],"delta_lng":[0,2892,132691,-88584]}},
    {"code":1192606,"id":"e44659","name":"嘉例川","name_kana":"かれいがわ","lat":31.826939,"lng":130.723021,"prefecture":46,"lines":[11926],"attr":"cool","postal_code":"899-5113","address":"霧島市隼人町嘉例川","next":[1192607,1190750,1192603,1190749,1192604,1192605,1193216],"voronoi":{"lat":31.831845,"lng":130.6237,"delta_lat":[0,-22182,-20847,51735,18621,48,-12399],"delta_lng":[0,28644,34965,66857,-67865,-2892,-48840]}},
    {"code":1192602,"id":"13a361","name":"栗野","name_kana":"くりの","lat":31.950575,"lng":130.723663,"prefecture":46,"lines":[11926],"attr":"heat","postal_code":"899-6201","address":"姶良郡湧水町木場","next":[1192605,1192603,1192913,1192914,1193218,1192604,1192519,1190746],"voronoi":{"lat":31.950292,"lng":130.815615,"delta_lat":[0,14464,30535,-38290,-36582,590,628,5984],"delta_lng":[0,-14326,-129936,-18342,77397,88584,4856,6994]}},
    {"code":1192519,"left":1190746,"right":1192912,"id":"4db963","name":"吉松","name_kana":"よしまつ","lat":32.012026,"lng":130.738104,"prefecture":46,"lines":[11925,11926,11929],"attr":"heat","postal_code":"899-6104","address":"姶良郡湧水町川西","next":[1193218,1192914,1192518,1192602,1192916,1193220],"voronoi":{"lat":32.028089,"lng":130.670376,"delta_lat":[0,-32798,-30535,30192,44993,-5372],"delta_lng":[0,977,129936,-11680,-79312,-37463]}},
    {"code":1190746,"id":"226292","name":"霧島神宮","name_kana":"きりしまじんぐう","lat":31.818181,"lng":130.836939,"prefecture":46,"lines":[11907],"attr":"eco","postal_code":"899-4203","address":"霧島市霧島大窪","next":[1192608,1192909,1192912,1190747,1192609,1192607,1192911,1190745,1192913,1192908,1190744,1192602,1192605],"voronoi":{"lat":31.839915,"lng":130.784051,"delta_lat":[0,-3948,-49497,-4001,-20279,99901,8174,29754,8307,15456,3619,220,-5984],"delta_lng":[0,166,11889,2516,20564,96070,4246,-19959,-7837,-34817,-22423,-3624,-6994]}},
    {"code":1192912,"id":"f4a14a","name":"えびの飯野","name_kana":"えびのいいの","lat":32.030295,"lng":130.871178,"prefecture":45,"lines":[11929],"attr":"cool","postal_code":"889-4301","address":"えびの市大字原田","next":[1190746,9992005,1192913,1192911,9992006,9992008],"voronoi":{"lat":32.13016,"lng":130.91056,"delta_lat":[0,-952,-1945,-199863,-3619,203078],"delta_lng":[0,-15022,-11460,-49612,22423,83739]}},
    {"code":1192513,"left":1192506,"right":9992005,"id":"b5c055","name":"渡","name_kana":"わたり","lat":32.236631,"lng":130.694801,"prefecture":43,"lines":[11925],"attr":"eco","postal_code":"869-6401","address":"球磨郡球磨村渡島田入枝","next":[1192512,1192514,1193220,1192506,1192518],"voronoi":{"lat":32.144662,"lng":130.660398,"delta_lat":[0,1770,168541,12657,-177022],"delta_lng":[0,-3624,43804,34974,-47087]}},
    {"code":1192506,"left":1193220,"right":1192504,"id":"60d73a","name":"瀬戸石","name_kana":"せといし","lat":32.371474,"lng":130.646004,"prefecture":43,"lines":[11925],"attr":"heat","postal_code":"869-5221","address":"八代市坂本町川嶽","next":[1192505,1192507,1192512,1192511,1192509,1192504,1192513,1192514],"voronoi":{"lat":32.327629,"lng":130.735553,"delta_lat":[0,-12657,-2055,-791,894,77318,302,-53832],"delta_lng":[0,-34974,-12223,-14997,-1560,-63844,20932,123143]}},
    {"code":1193220,"left":1192509,"right":1192511,"id":"6e3bf4","name":"薩摩大口","name_kana":"さつまおおくち","closed":true,"lat":32.060977,"lng":130.609029,"prefecture":46,"lines":[11932],"attr":"unknown","postal_code":"895-2513","address":"鹿児島県伊佐市大口上町２-１","next":[1192518,1192513,1193218,1192512,1192511,9992110,1192510,101009,1192519,1193219,9992111],"voronoi":{"lat":32.164172,"lng":130.552955,"delta_lat":[0,161,-6610,-11291,-1770,-110093,-6480,3233,65287,43395,19358],"delta_lng":[0,39672,28845,35303,3624,12435,-2458,-32263,-151837,36098,20890]}},
    {"code":1192509,"left":1192510,"right":1192508,"id":"958277","name":"白石(熊本)","original_name":"白石","name_kana":"しろいし","lat":32.305694,"lng":130.608328,"prefecture":43,"lines":[11925],"attr":"heat","postal_code":"869-6302","address":"葦北郡芦北町白石","next":[1192507,1192506,1192508,9992110,1192510,9992109,1192511],"voronoi":{"lat":32.286636,"lng":130.641279,"delta_lat":[0,304,12203,2930,22718,-11771,-894],"delta_lng":[0,-84276,-4057,-86,71957,46981,1560]}},
    {"code":1192510,"left":1193219,"id":"3736fc","name":"球泉洞","name_kana":"きゅうせんどう","lat":32.267817,"lng":130.608191,"prefecture":43,"lines":[11925],"attr":"eco","postal_code":"869-6400","address":"球磨郡球磨村大坂間","next":[1192511,9992110,1193220,1192509],"voronoi":{"lat":32.286941,"lng":130.557003,"delta_lat":[0,-122769,161,122304],"delta_lng":[0,-4049,39672,48653]}},
    {"code":1193219,"id":"6dd9ff","name":"羽月","name_kana":"はつき","closed":true,"lat":32.032029,"lng":130.596582,"prefecture":46,"lines":[11932],"attr":"unknown","postal_code":"895-2524","address":"鹿児島県伊佐市大口堂崎５２５−３羽月鉄道記念公園","next":[101010,1193218,1193217,1193213,101009,1193220],"voronoi":{"lat":32.011299,"lng":130.570811,"delta_lat":[0,18950,34521,31280,559,-65287],"delta_lng":[0,-62874,-29758,7499,597,151837]}},
    {"code":1192508,"id":"88afb6","name":"吉尾","name_kana":"よしお","lat":32.330958,"lng":130.600352,"prefecture":43,"lines":[11925],"attr":"heat","postal_code":"869-5400","address":"葦北郡芦北町上蔀","next":[9992106,9992107,1192509,9992105,1192507,9992104,9992109],"voronoi":{"lat":32.319253,"lng":130.548109,"delta_lat":[0,30206,10501,10231,5406,-50806,-22718],"delta_lng":[0,6239,3616,7759,9575,49520,-71957]}},
    {"code":1192511,"left":1192512,"right":1192507,"id":"85b79c","name":"一勝地","name_kana":"いっしょうち","lat":32.250231,"lng":130.652399,"prefecture":43,"lines":[11925],"attr":"eco","postal_code":"869-6403","address":"球磨郡球磨村大字一勝地","next":[1192510,1192512,1192506,1193220,1192509],"voronoi":{"lat":32.312918,"lng":130.688355,"delta_lat":[0,-155195,6610,122304,25490],"delta_lng":[0,-66884,-28845,48653,32079]}},
    {"code":1192512,"id":"1eddf8","name":"那良口","name_kana":"ならぐち","lat":32.243732,"lng":130.667479,"prefecture":43,"lines":[11925],"attr":"eco","postal_code":"869-6402","address":"球磨郡球磨村大字三ケ浦","next":[1192513,1192511,1192506,1193220],"voronoi":{"lat":32.314972,"lng":130.700578,"delta_lat":[0,-2055,-155195,-11291],"delta_lng":[0,-12223,-66884,35303]}},
    {"code":1192507,"id":"3f71e1","name":"海路","name_kana":"かいじ","lat":32.349407,"lng":130.61928,"prefecture":43,"lines":[11925],"attr":"heat","postal_code":"869-6216","address":"葦北郡芦北町海路","next":[1192509,1192506,9992104,9992103,1192508,1192504],"voronoi":{"lat":32.393174,"lng":130.601355,"delta_lat":[0,-6321,-11256,-50806,-11771,77318],"delta_lng":[0,-14567,-11490,49520,46981,-63844]}},
    {"code":1192504,"left":1190349,"right":1192503,"id":"a577ce","name":"葉木","name_kana":"はき","lat":32.410293,"lng":130.645444,"prefecture":43,"lines":[11925],"attr":"heat","postal_code":"869-6111","address":"八代市坂本町葉木","next":[1192505,1192506,1192503,9992103,9992102,1192507],"voronoi":{"lat":32.390641,"lng":130.628886,"delta_lat":[0,21187,26657,-306,-45004,-2836],"delta_lng":[0,44527,-53205,-607,-18247,6600]}},
    {"code":1190349,"left":9992102,"right":101008,"id":"5c4fda","name":"八代","name_kana":"やつしろ","lat":32.503805,"lng":130.621609,"prefecture":43,"lines":[11903,11925,99921],"attr":"cool","postal_code":"866-0831","address":"八代市萩原町１丁目","next":[1192410,9992102,1192502,101008],"voronoi":{"lat":32.484888,"lng":130.632096,"delta_lat":[0,35223,51031,-76941],"delta_lng":[0,-110337,42708,81410]}},
    {"code":9992102,"left":9992103,"id":"5b6e58","name":"肥後高田","name_kana":"ひごこうだ","lat":32.475546,"lng":130.612588,"prefecture":43,"lines":[99921],"attr":"cool","postal_code":"866-0074","address":"八代市平山新町","next":[1192502,1192411,1192503,1190349,9992103,9992104,1192504,1192410],"voronoi":{"lat":32.518105,"lng":130.519505,"delta_lat":[0,-257,-2675,-76995,306,2197,44206,35223],"delta_lng":[0,-238,2370,97964,607,1959,9929,-110337]}},
    {"code":9992103,"id":"10032d","name":"日奈久温泉","name_kana":"ひなぐおんせん","lat":32.436163,"lng":130.581635,"prefecture":43,"lines":[99921],"attr":"cool","postal_code":"869-5142","address":"八代市日奈久塩北町","next":[9992104,9992102,1192504,1192507],"voronoi":{"lat":32.438179,"lng":130.619601,"delta_lat":[0,76995,-128320,6321],"delta_lng":[0,-97964,65150,14567]}},
    {"code":101008,"id":"a00705","name":"新八代","name_kana":"しんやつしろ","lat":32.517888,"lng":130.634919,"prefecture":43,"lines":[1010,11903],"attr":"cool","postal_code":"866-0824","address":"八代市上日置町字女夫木４７７４-２","next":[1192502,1190347,1190349,1192410],"voronoi":{"lat":32.571141,"lng":130.564468,"delta_lat":[0,-76941,6121,77275],"delta_lng":[0,81410,28175,-105291]}},
    {"code":1192503,"left":1192505,"right":1192502,"id":"bff482","name":"坂本","name_kana":"さかもと","lat":32.435149,"lng":130.657898,"prefecture":43,"lines":[11925],"attr":"heat","postal_code":"869-6105","address":"八代市坂本町坂本","next":[9992010,9992011,1190346,9992102,1192502,1192505,9992012,1192504,1190345],"voronoi":{"lat":32.482248,"lng":130.839106,"delta_lat":[0,7899,-49465,-2197,-26657,-11568,12120,25308,37363],"delta_lng":[0,-82918,-134020,-1959,53205,153598,8233,15825,20787]}},
    {"code":1192505,"id":"2c59a3","name":"鎌瀬","name_kana":"かませ","lat":32.391092,"lng":130.65458,"prefecture":43,"lines":[11925],"attr":"heat","postal_code":"869-6112","address":"八代市坂本町鎌瀬","next":[1192506,1192504,9992009,1192514,9992010,1192503,9992007,9992002],"voronoi":{"lat":32.389137,"lng":130.821169,"delta_lat":[0,5402,5721,11568,-21187,-53832,10391,19123],"delta_lng":[0,2947,2895,-153598,-44527,123143,23767,28700]}},
    {"code":1192502,"id":"6a4933","name":"段","name_kana":"だん","lat":32.468101,"lng":130.645736,"prefecture":43,"lines":[11925],"attr":"heat","postal_code":"869-6101","address":"八代市坂本町西部","next":[1190347,9992102,1192503,1190346,101008,1190349],"voronoi":{"lat":32.500322,"lng":130.674052,"delta_lat":[0,115,-10290,-49465,44206,9313],"delta_lng":[0,42089,40046,-134020,9929,13781]}},
    {"code":9992005,"left":9992003,"right":9992007,"id":"8d2e39","name":"一武","name_kana":"いちぶ","lat":32.214551,"lng":130.839915,"prefecture":43,"lines":[99920],"attr":"cool","postal_code":"868-0302","address":"球磨郡錦町大字一武","next":[1192516,9992004,1192913,1192912,9992002,9992006,9992003],"voronoi":{"lat":32.157455,"lng":130.844513,"delta_lat":[0,-30780,588,1945,168669,-26671,-35422],"delta_lng":[0,29263,10302,11460,-86277,-1471,5770]}},
    {"code":9992003,"left":1192517,"right":1192914,"id":"2c05cb","name":"川村(熊本)","original_name":"川村","name_kana":"かわむら","lat":32.207284,"lng":130.795307,"prefecture":43,"lines":[99920],"attr":"cool","postal_code":"868-0095","address":"球磨郡相良村大字柳瀬","next":[1192516,9992004,9992002,9992005],"voronoi":{"lat":32.271207,"lng":130.807789,"delta_lat":[0,-81667,-4044,50289],"delta_lng":[0,-35442,22582,18630]}},
    {"code":1192517,"left":1192915,"right":1192516,"id":"5d1691","name":"矢岳","name_kana":"やたけ","lat":32.104278,"lng":130.769799,"prefecture":43,"lines":[11925],"attr":"cool","postal_code":"868-0813","address":"人吉市矢岳町","next":[1192515,1192915,1192518,1192514,1192516,1192914],"voronoi":{"lat":32.074022,"lng":130.794023,"delta_lat":[0,1093,75850,1746,782,-39275],"delta_lng":[0,-34098,-55469,4914,5471,132910]}},
    {"code":1192915,"left":1192518,"id":"9d8306","name":"京町温泉","name_kana":"きょうまちおんせん","lat":32.045379,"lng":130.767911,"prefecture":45,"lines":[11929],"attr":"cool","postal_code":"889-4151","address":"えびの市大字向江","next":[1192517,1192518,1192914,1192916],"voronoi":{"lat":32.055129,"lng":130.74489,"delta_lat":[0,19986,-1093,-76067],"delta_lng":[0,15034,34098,-4940]}},
    {"code":1192518,"id":"c0f476","name":"真幸","name_kana":"まさき","lat":32.074544,"lng":130.72914,"prefecture":45,"lines":[11925],"attr":"cool","postal_code":"889-4162","address":"えびの市内竪","next":[1193220,1192514,1192517,1192915,1192519,1192513,1192916],"voronoi":{"lat":32.075115,"lng":130.759924,"delta_lat":[0,75850,-357,-5946,-110093,5372,15188],"delta_lng":[0,-55469,-15990,-28067,12435,37463,34594]}},
    {"code":1192516,"id":"79ec49","name":"大畑","name_kana":"おこば","lat":32.16493,"lng":130.787722,"prefecture":43,"lines":[11925],"attr":"cool","postal_code":"868-0811","address":"人吉市大畑麓町","next":[9992003,9992005,1192913,9992004,1192517,9992002,1192914,1192515],"voronoi":{"lat":32.18954,"lng":130.772347,"delta_lat":[0,-4044,-28040,-30780,-12373,-85,39275,33910],"delta_lng":[0,22582,49583,29263,-25657,-368,-132910,51189]}},
    {"code":1192914,"left":1192913,"right":9992004,"id":"1abb4c","name":"えびの","name_kana":"えびの","lat":32.042242,"lng":130.81621,"prefecture":45,"lines":[11929],"attr":"cool","postal_code":"889-4221","address":"えびの市大字栗下","next":[1192602,1192915,1192519,1192516,1192517,1192913,1192916],"voronoi":{"lat":31.964755,"lng":130.801289,"delta_lat":[0,-14464,164011,-85,-40196,-76067,-3007],"delta_lng":[0,14326,32504,-368,-53728,-4940,526]}},
    {"code":1192913,"id":"bf2c7c","name":"えびの上江","name_kana":"えびのうわえ","lat":32.035519,"lng":130.850133,"prefecture":45,"lines":[11929],"attr":"cool","postal_code":"889-4304","address":"えびの市大字上江","next":[1192516,9992005,1192602,1192912,1190746,1192914],"voronoi":{"lat":32.126676,"lng":130.873775,"delta_lat":[0,588,-199863,220,22671,164011],"delta_lng":[0,10302,-49612,-3624,-15227,32504]}},
    {"code":9992004,"id":"68ba8e","name":"肥後西村","name_kana":"ひごにしのむら","lat":32.202271,"lng":130.808839,"prefecture":43,"lines":[99920],"attr":"cool","postal_code":"868-0303","address":"球磨郡錦町大字西","next":[1192516,9992005,9992003],"voronoi":{"lat":32.185495,"lng":130.79493,"delta_lat":[0,-28040,78329],"delta_lng":[0,49583,-30953]}},
    {"code":9992007,"left":9992006,"right":9992009,"id":"0fe6d1","name":"おかどめ幸福","name_kana":"おかどめこうふく","lat":32.231011,"lng":130.873629,"prefecture":43,"lines":[99920],"attr":"cool","postal_code":"868-0400","address":"球磨郡あさぎり町","next":[9992006,9992008,1192505,9992002,9992009],"voronoi":{"lat":32.389137,"lng":130.821169,"delta_lat":[0,-22814,-5313,-227705,157034],"delta_lng":[0,-16673,643,104345,-40361]}},
    {"code":9992006,"left":9992002,"right":1192514,"id":"783f62","name":"木上","name_kana":"きのえ","lat":32.224256,"lng":130.858888,"prefecture":43,"lines":[99920],"attr":"cool","postal_code":"868-0301","address":"球磨郡錦町大字木上","next":[9992007,9992002,1192912,9992008,9992005],"voronoi":{"lat":32.297877,"lng":130.809261,"delta_lat":[0,63132,-227705,-3144,-952],"delta_lng":[0,-4121,104345,1075,-15022]}},
    {"code":9992002,"left":1192515,"id":"974356","name":"相良藩願成寺","name_kana":"さがらはんがんじょうじ","lat":32.218429,"lng":130.769626,"prefecture":43,"lines":[99920],"attr":"cool","postal_code":"868-0022","address":"人吉市願成寺町高野","next":[1192515,9992006,1192514,1192516,9992005,9992007,9992003,1192505],"voronoi":{"lat":32.3472,"lng":130.775797,"delta_lat":[0,-88382,-71415,2137,81667,26671,63132,5313],"delta_lng":[0,-20086,10319,6318,35442,1471,-4121,-643]}},
    {"code":1192515,"id":"c900e0","name":"人吉(人吉温泉)","name_kana":"ひとよしおんせん","lat":32.216142,"lng":130.753797,"prefecture":43,"lines":[11925,99920],"attr":"cool","postal_code":"868-0008","address":"人吉市中青井町","next":[9992002,1192517,1192514,1192516],"voronoi":{"lat":32.153493,"lng":130.71484,"delta_lat":[0,-782,106107,-71415],"delta_lng":[0,-5471,46341,10319]}},
    {"code":1192514,"id":"be5c0c","name":"西人吉","name_kana":"にしひとよし","lat":32.22841,"lng":130.725707,"prefecture":43,"lines":[11925],"attr":"cool","postal_code":"868-0086","address":"人吉市下原田町","next":[1192513,1192518,1192505,1192515,1192517,9992002,1192506],"voronoi":{"lat":32.3472,"lng":130.775797,"delta_lat":[0,-88382,-106107,-1746,-357,177022,9179],"delta_lng":[0,-20086,-46341,-4914,-15990,47087,16477]}},
    {"code":9992009,"left":9992008,"right":9992010,"id":"2c401e","name":"東免田","name_kana":"ひがしめんだ","lat":32.250095,"lng":130.912947,"prefecture":43,"lines":[99920],"attr":"heat","postal_code":"868-0400","address":"球磨郡あさぎり町","next":[1192505,9992010,9992008,9992007,1192910,1192911],"voronoi":{"lat":32.132205,"lng":130.983854,"delta_lat":[0,158134,98798,5402,-261487,-453],"delta_lng":[0,-114730,-47954,2947,172260,-1859]}},
    {"code":9992008,"id":"8f2d2a","name":"あさぎり","name_kana":"あさぎり","lat":32.236191,"lng":130.893783,"prefecture":43,"lines":[99920],"attr":"heat","postal_code":"868-0415","address":"熊本県球磨郡あさぎり町免田","next":[9992007,1192911,9992006,9992009,1192912],"voronoi":{"lat":32.132205,"lng":130.983854,"delta_lat":[0,158134,-157034,-3144,-3301],"delta_lng":[0,-114730,40361,1075,30068]}},
    {"code":9992010,"id":"e8d7c1","name":"公立病院前","name_kana":"こうりつびょういんまえ","lat":32.255906,"lng":130.921768,"prefecture":43,"lines":[99920],"attr":"heat","postal_code":"868-0501","address":"球磨郡多良木町大字多良木","next":[1192910,1192503,9992011,1192505,9992013,9992009],"voronoi":{"lat":32.134111,"lng":131.001548,"delta_lat":[0,9823,268445,-12120,-5721,-261487],"delta_lng":[0,-4296,-162007,-8233,-2895,172260]}},
    {"code":1190735,"left":1192823,"right":1190729,"id":"9ebfa5","name":"青井岳","name_kana":"あおいだけ","lat":31.827922,"lng":131.218153,"prefecture":45,"lines":[11907],"attr":"cool","postal_code":"880-2303","address":"都城市山之口町山之口（その他）","next":[1190736,1190727,1192814,1192906,1190728,1190734,1192907],"voronoi":{"lat":31.978729,"lng":131.179407,"delta_lat":[0,-114160,-156320,21922,326690,11147,7836],"delta_lng":[0,-35074,108342,21110,-39900,-5789,-4611]}},
    {"code":1192823,"left":1190738,"right":1192814,"id":"74f5c7","name":"日向大束","name_kana":"ひゅうがおおつか","lat":31.510584,"lng":131.248745,"prefecture":45,"lines":[11928],"attr":"heat","postal_code":"889-3531","address":"串間市大字奈留","next":[1192827,1192822,1190738,1192826,1192828,1192816,1192824],"voronoi":{"lat":31.644713,"lng":131.22671,"delta_lat":[0,1369,-42760,-68266,-24565,-4295,-18750],"delta_lng":[0,-1417,-73781,24792,18121,5076,92815]}},
    {"code":1190738,"left":1192828,"right":1192904,"id":"47c2b3","name":"三股","name_kana":"みまた","lat":31.733794,"lng":131.119384,"prefecture":45,"lines":[11907],"attr":"cool","postal_code":"889-1901","address":"北諸県郡三股町大字樺山","next":[1190737,1190740,1192816,1192823,1190739,1192829,1192828],"voronoi":{"lat":31.601768,"lng":131.127464,"delta_lat":[0,1512,89895,67858,-80171,-34780,-42760],"delta_lng":[0,-18334,-15011,4149,142334,-15310,-73781]}},
    {"code":1192828,"left":1190740,"right":1192825,"id":"7e2849","name":"大隅夏井","name_kana":"おおすみなつい","lat":31.469801,"lng":131.136449,"prefecture":46,"lines":[11928],"attr":"heat","postal_code":"899-7101","address":"志布志市志布志町夏井","next":[1192829,1192823,1192827,1190738],"voronoi":{"lat":31.535056,"lng":131.176304,"delta_lat":[0,-287582,354294,1554],"delta_lng":[0,-76836,27997,24047]}},
    {"code":1190740,"left":1192829,"right":1190742,"id":"b2299e","name":"西都城","name_kana":"にしみやこのじょう","lat":31.723381,"lng":131.057027,"prefecture":45,"lines":[11907],"attr":"cool","postal_code":"885-0077","address":"都城市松元町","next":[1192902,1190738,1192829,1190739,1190741],"voronoi":{"lat":31.744942,"lng":131.04032,"delta_lat":[0,-1748,-50019,-89895,-6094],"delta_lng":[0,14913,38887,15011,-37385]}},
    {"code":1192829,"left":1190741,"id":"ff5a4c","name":"志布志","name_kana":"しぶし","lat":31.47285,"lng":131.097864,"prefecture":46,"lines":[11928],"attr":"heat","postal_code":"899-7103","address":"志布志市志布志町志布志","next":[1190747,1190740,1192827,1192828,1190741,1193019,1190742,1193018,1190743,1193016,1190738],"voronoi":{"lat":31.247475,"lng":131.099468,"delta_lat":[0,-248275,23815,360952,87078,53966,1959,45173,25044,6094,-1512],"delta_lng":[0,-43925,-13296,-187066,-35635,43701,3868,108571,96060,37385,18334]}},
    {"code":1190741,"id":"378f6b","name":"五十市","name_kana":"いそいち","lat":31.718448,"lng":131.033833,"prefecture":45,"lines":[11907],"attr":"cool","postal_code":"885-0086","address":"都城市久保原町","next":[1190742,1192829,1190740,1192902],"voronoi":{"lat":31.597186,"lng":131.071745,"delta_lat":[0,-25044,185197,-12397],"delta_lng":[0,-96060,45136,19498]}},
    {"code":1190742,"id":"160b12","name":"財部","name_kana":"たからべ","lat":31.728796,"lng":130.991374,"prefecture":46,"lines":[11907],"attr":"cool","postal_code":"899-4102","address":"曽於市財部町北俣","next":[1190741,1192903,1192829,1192902,1190743],"voronoi":{"lat":31.52697,"lng":130.867114,"delta_lat":[0,45173,185197,7065,18539],"delta_lng":[0,108571,45136,-3348,-17954]}},
    {"code":1192825,"left":1192826,"right":1192824,"id":"fd9ec3","name":"串間","name_kana":"くしま","lat":31.462684,"lng":131.230448,"prefecture":45,"lines":[11928],"attr":"heat","postal_code":"888-0001","address":"串間市大字西方","next":[1192821,1193019,1192824,1193020,9992901,1192826,1192820],"voronoi":{"lat":26.568083,"lng":132.933568,"delta_lat":[0,1579797,1663911,1677460,-84084,-48195,-5752932],"delta_lng":[0,-669894,-695647,-357415,134416,29840,2973432]}},
    {"code":1192826,"left":1192827,"id":"38a348","name":"福島今町","name_kana":"ふくしまいままち","lat":31.456906,"lng":131.20333,"prefecture":45,"lines":[11928],"attr":"heat","postal_code":"888-0001","address":"串間市大字西方","next":[1192827,1192823,1193019,1192824,1192825],"voronoi":{"lat":30.798981,"lng":131.145728,"delta_lat":[0,711510,-4295,-16946,-1677460],"delta_lng":[0,48696,5076,11112,357415]}},
    {"code":1192827,"id":"c87c56","name":"福島高松","name_kana":"ふくしまたかまつ","lat":31.458619,"lng":131.178301,"prefecture":45,"lines":[11928],"attr":"heat","postal_code":"888-0002","address":"串間市大字高松","next":[1192823,1192829,1192826,1193019,1192828],"voronoi":{"lat":31.510492,"lng":131.194424,"delta_lat":[0,-711510,200218,248275,287582],"delta_lng":[0,-48696,-90186,43925,76836]}},
    {"code":1192824,"id":"f6ebf7","name":"日向北方","name_kana":"ひゅうがきたかた","lat":31.483037,"lng":131.24318,"prefecture":45,"lines":[11928],"attr":"heat","postal_code":"888-0004","address":"串間市大字串間","next":[1192821,1192825,1192823,1192822,1192826],"voronoi":{"lat":31.506197,"lng":131.199501,"delta_lat":[0,-18750,-37233,-45047,84084],"delta_lng":[0,92815,30359,22354,-134416]}},
    {"code":1192904,"left":1190744,"right":1190737,"id":"1a4a0a","name":"万ヶ塚","name_kana":"まんがつか","lat":31.817215,"lng":131.063991,"prefecture":45,"lines":[11929],"attr":"eco","postal_code":"885-1105","address":"宮崎県都城市丸谷町","next":[1192905,1190737,1190736,1192903,1190744],"voronoi":{"lat":31.832572,"lng":130.98221,"delta_lat":[0,-5799,-29069,-9111,42276],"delta_lng":[0,136641,-11345,-7994,-116760]}},
    {"code":1190744,"left":1192902,"right":1192903,"id":"468007","name":"大隅大川原","name_kana":"おおすみおおかわら","lat":31.772767,"lng":130.924355,"prefecture":46,"lines":[11907],"attr":"cool","postal_code":"899-4103","address":"曽於市財部町下財部","next":[1192905,1192908,1190746,1190745,1192904,1190743,1192903],"voronoi":{"lat":31.680552,"lng":130.881246,"delta_lat":[0,181538,8174,-28128,-9564,-1703,-17050],"delta_lng":[0,34009,4246,58073,4636,542,2182]}},
    {"code":1192902,"left":1190743,"id":"1e85e9","name":"日向庄内","name_kana":"ひゅうがしょうない","lat":31.762056,"lng":131.06156,"prefecture":45,"lines":[11929],"attr":"eco","postal_code":"885-0112","address":"都城市乙房町","next":[1190740,1192903,1190742,1190737,1190739,1190741],"voronoi":{"lat":31.743194,"lng":131.055233,"delta_lat":[0,20532,23549,-22871,-7065,-12397],"delta_lng":[0,42092,1647,-81498,3348,19498]}},
    {"code":1190743,"id":"d3c024","name":"北俣","name_kana":"きたまた","lat":31.745007,"lng":130.960034,"prefecture":46,"lines":[11907],"attr":"cool","postal_code":"899-4102","address":"曽於市財部町北俣","next":[1190747,1190745,1190744,1192829,1192903,1190742],"voronoi":{"lat":31.81382,"lng":130.984935,"delta_lat":[0,-133267,-43293,-112249,1959,255974],"delta_lng":[0,-103688,-18771,771,3868,132405]}},
    {"code":1192903,"id":"37f9de","name":"谷頭","name_kana":"たにがしら","lat":31.789348,"lng":131.053901,"prefecture":45,"lines":[11929],"attr":"eco","postal_code":"889-4602","address":"都城市山田町中霧島","next":[1190737,1190742,1192902,1192904,1190743,1190744],"voronoi":{"lat":31.782944,"lng":130.99952,"delta_lat":[0,-18539,22871,1318,42276,-17050],"delta_lng":[0,17954,81498,541,-116760,2182]}},
    {"code":1190737,"left":1190739,"right":1190736,"id":"30156f","name":"餅原","name_kana":"もちばる","lat":31.757094,"lng":131.132508,"prefecture":45,"lines":[11907],"attr":"cool","postal_code":"889-1913","address":"北諸県郡三股町大字餅原","next":[1190738,1190736,1190739,1192816,1192903,1192904,1192814,1192902],"voronoi":{"lat":31.763727,"lng":131.097324,"delta_lat":[0,-2693,-80171,1642,7017,108183,-9111,-1318],"delta_lng":[0,944,142334,931,2295,-136322,-7994,-541]}},
    {"code":1190739,"id":"1f43bd","name":"都城","name_kana":"みやこのじょう","lat":31.73657,"lng":131.073992,"prefecture":45,"lines":[11907,11929],"attr":"cool","postal_code":"885-0023","address":"都城市栄町","next":[1190737,1190738,1190740,1192902],"voronoi":{"lat":31.761033,"lng":131.098269,"delta_lat":[0,-67858,50019,20532],"delta_lng":[0,-4149,-38887,42092]}},
    {"code":1190736,"id":"8b6683","name":"山之口","name_kana":"やまのくち","lat":31.782582,"lng":131.152735,"prefecture":45,"lines":[11907],"attr":"cool","postal_code":"889-1802","address":"都城市山之口町花木","next":[1190735,1192906,1190737,1192814,1192904,1192905],"voronoi":{"lat":31.86457,"lng":131.144332,"delta_lat":[0,-156320,-18728,108183,29069,36878],"delta_lng":[0,108342,-8846,-136322,11345,24531]}},
    {"code":1192814,"left":1192815,"right":1192812,"id":"50a9c5","name":"北郷","name_kana":"きたごう","lat":31.678267,"lng":131.373565,"prefecture":45,"lines":[11928],"attr":"eco","postal_code":"889-2402","address":"宮崎県日南市北郷町郷之原2099","next":[1192813,1192807,1192806,1190734,1192811,1190736,1190735,1192815,1192816,1190737,1192812,1190733],"voronoi":{"lat":31.760803,"lng":131.383874,"delta_lat":[0,-373,-7515,-3067,-90961,2690,20928,7017,18728,21922,25393,8027],"delta_lng":[0,674,6425,1974,36125,-98940,-88599,2295,8846,21110,58683,45697]}},
    {"code":1192815,"left":1192820,"right":1192818,"id":"178c7c","name":"内之田","name_kana":"うちのだ","lat":31.642551,"lng":131.372594,"prefecture":45,"lines":[11928],"attr":"heat","postal_code":"889-2401","address":"宮崎県日南市北郷町大藤2527","next":[1192818,1192816,1192814,1192817,1192813],"voronoi":{"lat":31.658887,"lng":131.429072,"delta_lat":[0,2690,-37615,10983,5205],"delta_lng":[0,-98940,52023,49990,12290]}},
    {"code":1192820,"left":1192821,"right":1192816,"id":"fa4acd","name":"南郷","name_kana":"なんごう","lat":31.535927,"lng":131.372157,"prefecture":45,"lines":[11928],"attr":"heat","postal_code":"889-3204","address":"宮崎県日南市南郷町中村乙1866-2","next":[1192819,9992901,1192821,1163915,9981414,9981408,9992719,1192825],"voronoi":{"lat":31.356971,"lng":131.374869,"delta_lat":[0,199268,-1212442,-942031,-377491,-5644510,2189787,34487],"delta_lng":[0,-18485,2558867,859043,333920,2482831,-3193420,-49324]}},
    {"code":1192821,"left":1192822,"id":"0284fc","name":"谷之口","name_kana":"たにのくち","lat":31.533372,"lng":131.344615,"prefecture":45,"lines":[11928],"attr":"heat","postal_code":"889-3203","address":"宮崎県日南市南郷町谷之口","next":[1192824,1192820,1192825,1192817,1192822,1192816,1192819],"voronoi":{"lat":31.579275,"lng":131.341924,"delta_lat":[0,4596,1054,-134712,-45047,-48195,199268],"delta_lng":[0,-8741,-5854,-4654,22354,29840,-18485]}},
    {"code":1192822,"id":"4f204f","name":"榎原","name_kana":"よわら","lat":31.534688,"lng":131.306526,"prefecture":45,"lines":[11928],"attr":"heat","postal_code":"889-3214","address":"宮崎県日南市南郷町榎原114","next":[1192823,1192821,1192824,1192816],"voronoi":{"lat":31.644713,"lng":131.22671,"delta_lat":[0,-157267,-37233,134712],"delta_lng":[0,65606,30359,4654]}},
    {"code":1192816,"id":"ab9fbb","name":"飫肥","name_kana":"おび","lat":31.627216,"lng":131.361506,"prefecture":45,"lines":[11928],"attr":"heat","postal_code":"889-2533","address":"日南市大字星倉","next":[1190738,1190737,1192823,1192821,1192815,1192817,1192814,1192822],"voronoi":{"lat":31.644713,"lng":131.22671,"delta_lat":[0,1369,34780,1642,-20928,-37615,-40090,1054],"delta_lng":[0,-1417,15310,931,88599,52023,-48973,-5854]}},
    {"code":1192818,"left":1192819,"right":1192817,"id":"f99d9a","name":"油津","name_kana":"あぶらつ","lat":31.586883,"lng":131.396169,"prefecture":45,"lines":[11928],"attr":"heat","postal_code":"887-0014","address":"日南市岩崎２丁目","next":[9981414,1192815,1192817,1192819,1192813],"voronoi":{"lat":30.417274,"lng":133.848802,"delta_lat":[0,1162544,55127,5205,-1114848],"delta_lng":[0,-2476559,59903,12290,2307860]}},
    {"code":1192819,"id":"ba31e1","name":"大堂津","name_kana":"おおどうつ","lat":31.556897,"lng":131.382093,"prefecture":45,"lines":[11928],"attr":"heat","postal_code":"889-3143","address":"日南市大字下方","next":[1192820,1192817,1192821,1192818,9981414],"voronoi":{"lat":30.417274,"lng":133.848802,"delta_lat":[0,1162544,-542,-23036,-1212442],"delta_lng":[0,-2476559,-30319,14460,2558867]}},
    {"code":1192817,"id":"9cf4fb","name":"日南","name_kana":"にちなん","lat":31.603076,"lng":131.381267,"prefecture":45,"lines":[11928],"attr":"heat","postal_code":"887-0021","address":"日南市中央通り１丁目","next":[1192819,1192818,1192821,1192816,1192815],"voronoi":{"lat":31.623961,"lng":131.382155,"delta_lat":[0,-40090,-4596,542,55127],"delta_lng":[0,-48973,8741,30319,59903]}},
    {"code":1192812,"left":1192807,"right":1192810,"id":"c84ef1","name":"小内海","name_kana":"こうちうみ","lat":31.737838,"lng":131.466127,"prefecture":45,"lines":[11928],"attr":"eco","postal_code":"889-2301","address":"宮崎市大字内海","next":[9981508,9981414,1192813,1192811,9981507,1192814],"voronoi":{"lat":31.752915,"lng":131.390974,"delta_lat":[0,-83610,-100848,-458272,-79636,719299],"delta_lng":[0,1336600,96578,434036,66433,-1931673]}},
    {"code":1192807,"left":1192808,"right":1192806,"id":"23598c","name":"曽山寺","name_kana":"そさんじ","lat":31.813401,"lng":131.448309,"prefecture":45,"lines":[11928],"attr":"cool","postal_code":"889-2161","address":"宮崎市大字加江田","next":[1192814,1192811,1192808,1192806,1192805,1192810],"voronoi":{"lat":31.843336,"lng":131.47541,"delta_lat":[0,-699,-81834,-373,13584,7022],"delta_lng":[0,-1100,-90435,674,39018,8808]}},
    {"code":1192808,"left":1192813,"id":"f06c55","name":"子供の国","name_kana":"こどものくに","lat":31.807394,"lng":131.457005,"prefecture":45,"lines":[11928],"attr":"eco","postal_code":"889-2161","address":"宮崎市大字加江田","next":[1192807,1192805,1192704,1192809,1192810],"voronoi":{"lat":31.781035,"lng":131.432374,"delta_lat":[0,62300,4789,4475,-58440],"delta_lng":[0,43035,5722,17712,-43865]}},
    {"code":1192813,"id":"11b9b4","name":"伊比井","name_kana":"いびい","lat":31.711069,"lng":131.456159,"prefecture":45,"lines":[11928],"attr":"eco","postal_code":"887-0111","address":"日南市伊比井","next":[1192814,1192812,1192818,1192815,9981414],"voronoi":{"lat":31.030548,"lng":133.324621,"delta_lat":[0,719299,-90961,-18737,-1114848],"delta_lng":[0,-1931673,36125,15363,2307860]}},
    {"code":1192806,"id":"2266ef","name":"運動公園(宮崎)","original_name":"運動公園","name_kana":"うんどうこうえん","lat":31.819678,"lng":131.442629,"prefecture":45,"lines":[11928],"attr":"cool","postal_code":"889-2151","address":"宮崎市大字熊野","next":[1190733,1192805,1192814,1192807],"voronoi":{"lat":31.760803,"lng":131.383874,"delta_lat":[0,2789,35795,43250],"delta_lng":[0,-5710,8252,87893]}},
    {"code":1192810,"left":1192811,"right":1192809,"id":"c0c0e4","name":"折生迫","name_kana":"おりゅうざこ","lat":31.789357,"lng":131.467477,"prefecture":45,"lines":[11928],"attr":"eco","postal_code":"889-2164","address":"宮崎市大字折生迫","next":[1192809,1190723,1192811,1192807,1192808],"voronoi":{"lat":31.819149,"lng":132.18811,"delta_lat":[0,-46983,1848,7022,13124],"delta_lng":[0,235809,-1000352,8808,22604]}},
    {"code":1192811,"id":"75cbc4","name":"内海(宮崎)","original_name":"内海","name_kana":"うちうみ","lat":31.758508,"lng":131.46742,"prefecture":45,"lines":[11928],"attr":"eco","postal_code":"889-2301","address":"宮崎市大字内海","next":[9981508,1192810,1192814,1192807,1190723,1192812],"voronoi":{"lat":31.752915,"lng":131.390974,"delta_lat":[0,7515,13584,-1848,-45576,-57285],"delta_lng":[0,-6425,39018,1000352,249688,53967]}},
    {"code":1192809,"id":"787fa2","name":"青島","name_kana":"あおしま","lat":31.799801,"lng":131.467121,"prefecture":45,"lines":[11928],"attr":"eco","postal_code":"889-2162","address":"宮崎市青島２丁目","next":[1192810,1190724,1190723,1190725,1192808,1192704],"voronoi":{"lat":31.852599,"lng":131.498843,"delta_lat":[0,-58440,24989,71994,4460,7783],"delta_lng":[0,-43865,733131,-348153,-35243,-166871]}},
    {"code":1190729,"left":1192907,"right":1190722,"id":"71e13a","name":"宮崎","name_kana":"みやざき","lat":31.915742,"lng":131.431975,"prefecture":45,"lines":[11907,11927,11928],"attr":"cool","postal_code":"880-0811","address":"宮崎市錦町","next":[1192703,1190730,1190728,1192704,1190727],"voronoi":{"lat":31.92996,"lng":131.470039,"delta_lat":[0,-6411,-27088,-49,17483],"delta_lng":[0,-81691,57975,1460,88093]}},
    {"code":1192907,"left":1190732,"right":9992014,"id":"e8195e","name":"日向前田","name_kana":"ひゅうがまえだ","lat":31.908605,"lng":131.040386,"prefecture":45,"lines":[11929],"attr":"eco","postal_code":"889-4506","address":"都城市高崎町前田","next":[1192905,1192906,1192910,1190735,1192909,1190727,1190726,1192908],"voronoi":{"lat":31.852236,"lng":130.99073,"delta_lat":[0,1451,125043,97115,11208,25852,-114911,-33484],"delta_lng":[0,3989,184687,44078,-1435,-5116,-146905,-29655]}},
    {"code":1190732,"left":1190733,"right":1192703,"id":"13eb4b","name":"清武","name_kana":"きよたけ","lat":31.859418,"lng":131.38931,"prefecture":45,"lines":[11907],"attr":"cool","postal_code":"889-1604","address":"宮崎県宮崎市清武町船引484","next":[1192805,1190731,1190733,1192804],"voronoi":{"lat":31.853433,"lng":131.411867,"delta_lat":[0,76587,-129726,43237],"delta_lng":[0,-75367,50022,25383]}},
    {"code":1190733,"left":1190734,"right":1192906,"id":"3b78a3","name":"日向沓掛","name_kana":"ひゅうがくつかけ","lat":31.842241,"lng":131.344763,"prefecture":45,"lines":[11907],"attr":"cool","postal_code":"889-1602","address":"宮崎県宮崎市清武町今泉3512","next":[1190734,1192806,1190731,1190728,1192805,1190732,1192814],"voronoi":{"lat":31.799387,"lng":131.386417,"delta_lat":[0,908,129726,11018,14971,-200445,8027],"delta_lng":[0,106,-50022,-6064,-16787,18818,45697]}},
    {"code":1190734,"left":1192905,"id":"335130","name":"田野(宮崎)","original_name":"田野","name_kana":"たの","lat":31.838438,"lng":131.304255,"prefecture":45,"lines":[11907],"attr":"cool","postal_code":"889-1701","address":"宮崎市田野町甲","next":[1190733,1192814,1190735,1190728],"voronoi":{"lat":31.755565,"lng":131.332468,"delta_lat":[0,-25393,326690,-100852],"delta_lng":[0,-58683,-39900,79765]}},
    {"code":1192905,"id":"fcfa8a","name":"東高崎","name_kana":"ひがしたかさき","lat":31.840946,"lng":131.064998,"prefecture":45,"lines":[11929],"attr":"eco","postal_code":"889-4504","address":"都城市高崎町東霧島","next":[1190744,1192907,1192904,1192908,1192906,1190736],"voronoi":{"lat":31.853687,"lng":130.994719,"delta_lat":[0,-1451,-10099,-9564,-5799,36878],"delta_lng":[0,-3989,-13156,4636,136641,24531]}},
    {"code":1192906,"id":"7c6bfa","name":"高崎新田","name_kana":"たかさきしんでん","lat":31.875693,"lng":131.062669,"prefecture":45,"lines":[11929],"attr":"eco","postal_code":"889-4505","address":"都城市高崎町大牟田","next":[1190736,1192907,1190735,1192905],"voronoi":{"lat":31.86457,"lng":131.144332,"delta_lat":[0,114160,-125043,9965],"delta_lng":[0,35074,-184687,148663]}},
    {"code":1192703,"left":1190731,"right":1190730,"id":"4ca52a","name":"田吉","name_kana":"たよし","lat":31.878202,"lng":131.430697,"prefecture":45,"lines":[11927,11928],"attr":"cool","postal_code":"880-0911","address":"宮崎市田吉字赤江３１０-２","next":[1190729,1190730,1192704,1192804,1190731],"voronoi":{"lat":31.882439,"lng":131.418013,"delta_lat":[0,14022,-49,-27659,-2453],"delta_lng":[0,28311,1460,-15970,-12403]}},
    {"code":1190731,"id":"85753a","name":"加納(宮崎)","original_name":"加納","name_kana":"かのう","lat":31.876084,"lng":131.406246,"prefecture":45,"lines":[11907],"attr":"cool","postal_code":"889-1605","address":"宮崎県宮崎市清武町加納乙4-3","next":[1190733,1192804,1190732,1190728,1190730,1192703],"voronoi":{"lat":31.882439,"lng":131.418013,"delta_lat":[0,45554,13045,-11018,-76587,12867],"delta_lng":[0,-53853,-33723,6064,75367,7543]}},
    {"code":1190730,"id":"085e8a","name":"南宮崎","name_kana":"みなみみやざき","lat":31.895097,"lng":131.422329,"prefecture":45,"lines":[11907,11927,11928],"attr":"cool","postal_code":"880-0901","address":"宮崎市東大淀２丁目","next":[1190729,1192703,1190728,1190731],"voronoi":{"lat":31.927993,"lng":131.36416,"delta_lat":[0,-4444,-27088,-14022],"delta_lng":[0,24189,57975,-28311]}},
    {"code":9992014,"left":9992012,"right":1190728,"id":"406d8f","name":"湯前","name_kana":"ゆのまえ","lat":32.281389,"lng":130.980094,"prefecture":43,"lines":[99920],"attr":"eco","postal_code":"868-0600","address":"球磨郡湯前町字上牧原","next":[1190725,1192910,1190726,1190722,9991908,1190720,1190345,1190724,9991909,9992013,9991906,9991907,1190716,1190721,9992012],"voronoi":{"lat":32.135287,"lng":131.03549,"delta_lat":[0,-2473,22526,13498,75576,50429,78906,94381,23606,29876,27603,4113,7261,-65768,-149087],"delta_lng":[0,181424,13676,7028,30273,7844,4065,-1367,-5263,-112855,-114271,-21341,-53943,-73556,46654]}},
    {"code":9992012,"left":1192910,"right":9992013,"id":"7029a2","name":"東多良木","name_kana":"ひがしたらぎ","lat":32.272211,"lng":130.950765,"prefecture":43,"lines":[99920],"attr":"eco","postal_code":"868-0502","address":"球磨郡多良木町大字黒肥地","next":[9992013,1190345,9992011,1192503,9992014],"voronoi":{"lat":32.214008,"lng":130.970704,"delta_lat":[0,223679,37363,19770,-149087],"delta_lng":[0,-119635,20787,25347,46654]}},
    {"code":1192910,"left":9992011,"id":"2c9b53","name":"小林(宮崎)","original_name":"小林","name_kana":"こばやし","lat":31.990749,"lng":130.976132,"prefecture":45,"lines":[11929],"attr":"heat","postal_code":"886-0004","address":"小林市大字細野","next":[9992010,9992014,1192907,1192911,1190726,1192909,9992013,9992009],"voronoi":{"lat":32.134111,"lng":131.001548,"delta_lat":[0,1175,-2473,-19909,-114911,-35520,170125,453],"delta_lng":[0,33942,181424,20,-146905,-133970,58459,1859]}},
    {"code":9992011,"id":"11e558","name":"多良木","name_kana":"たらぎ","lat":32.262903,"lng":130.933362,"prefecture":43,"lines":[99920],"attr":"heat","postal_code":"868-0501","address":"球磨郡多良木町大字多良木","next":[9992013,1192503,9992010,9992012],"voronoi":{"lat":32.143935,"lng":130.997251,"delta_lat":[0,268445,25308,-223679],"delta_lng":[0,-162007,15825,119635]}},
    {"code":9992013,"id":"673a41","name":"新鶴羽","name_kana":"しんつるば","lat":32.275372,"lng":130.966275,"prefecture":43,"lines":[99920],"attr":"eco","postal_code":"868-0501","address":"球磨郡多良木町大字多良木","next":[9992011,9992012,9992010,9992014,1192910],"voronoi":{"lat":32.345734,"lng":130.943858,"delta_lat":[0,-131725,-70074,-9823,1175],"delta_lng":[0,26847,26547,4296,33942]}},
    {"code":1190728,"left":1192908,"right":1192909,"id":"6d3be2","name":"宮崎神宮","name_kana":"みやざきじんぐう","lat":31.938067,"lng":131.430223,"prefecture":45,"lines":[11907],"attr":"cool","postal_code":"880-0053","address":"宮崎市神宮３","next":[1190729,1190727,1190733,1190735,1190730,1190731,1190734],"voronoi":{"lat":31.941039,"lng":131.330436,"delta_lat":[0,-13045,-4444,6411,138048,-11147,-100852],"delta_lng":[0,33723,24189,81691,-241944,5789,79765]}},
    {"code":1192908,"id":"cf9af6","name":"高原","name_kana":"たかはる","lat":31.926899,"lng":130.999012,"prefecture":45,"lines":[11929],"attr":"heat","postal_code":"889-4412","address":"西諸県郡高原町大字西麓","next":[1190744,1190746,1192905,1192909,1192907],"voronoi":{"lat":31.900019,"lng":130.899543,"delta_lat":[0,-29754,-28128,10099,112274],"delta_lng":[0,19959,58073,13156,49643]}},
    {"code":1192909,"id":"730b6e","name":"広原","name_kana":"ひろわら","lat":31.957766,"lng":130.984877,"prefecture":45,"lines":[11929],"attr":"heat","postal_code":"889-4411","address":"西諸県郡高原町大字広原","next":[1192911,1190746,1192910,1192908,1192907],"voronoi":{"lat":31.96451,"lng":131.040373,"delta_lat":[0,-64491,8307,54148,35520],"delta_lng":[0,-140831,-7837,44353,133970]}},
    {"code":1190722,"left":1190726,"right":1190718,"id":"2360fd","name":"川南","name_kana":"かわみなみ","lat":32.192224,"lng":131.553321,"prefecture":45,"lines":[11907],"attr":"cool","postal_code":"889-1302","address":"児湯郡川南町大字平田","next":[1190723,1190721,1190718,9992014,1190719,1190724],"voronoi":{"lat":31.870668,"lng":132.569573,"delta_lat":[0,199167,49701,175307,-50429,-27727],"delta_lng":[0,-475144,-135695,-682999,-7844,64229]}},
    {"code":1190726,"left":1192704,"right":1190724,"id":"619f76","name":"日向住吉","name_kana":"ひゅうがすみよし","lat":31.991244,"lng":131.457986,"prefecture":45,"lines":[11907],"attr":"cool","postal_code":"880-0121","address":"宮崎市大字島之内","next":[1192704,9992014,1190727,1192910,1190725,1192907],"voronoi":{"lat":31.91278,"lng":131.579351,"delta_lat":[0,-7398,249957,-22526,-19909,-25852],"delta_lng":[0,50390,-399152,-13676,20,5116]}},
    {"code":1192704,"left":1192805,"right":1190727,"id":"58ae5a","name":"宮崎空港","name_kana":"みやざきくうこう","lat":31.87251,"lng":131.440555,"prefecture":45,"lines":[11927],"attr":"cool","postal_code":"880-0912","address":"宮崎市赤江字飛江田無番地","next":[1190726,1192805,1190725,1192808,1192804,1192703,1190727,1190729,1192809],"voronoi":{"lat":31.852599,"lng":131.498843,"delta_lat":[0,-4475,703,19926,27659,17483,-1115,-7398,-1997],"delta_lng":[0,-17712,-7645,-41673,15970,88093,43475,50390,8101]}},
    {"code":1192805,"left":1192804,"id":"25e164","name":"木花","name_kana":"きばな","lat":31.831544,"lng":131.43679,"prefecture":45,"lines":[11928],"attr":"cool","postal_code":"889-2151","address":"宮崎市大字熊野","next":[1192806,1192704,1190732,1190733,1192808,1192807,1192804],"voronoi":{"lat":31.843532,"lng":131.411906,"delta_lat":[0,-43237,-908,43250,699,4789,703],"delta_lng":[0,-25383,-106,87893,1100,5722,-7645]}},
    {"code":1192804,"id":"58e468","name":"南方(宮崎)","original_name":"南方","name_kana":"みなみかた","lat":31.859592,"lng":131.434378,"prefecture":45,"lines":[11928],"attr":"cool","postal_code":"880-0921","address":"宮崎市大字本郷南方","next":[1190731,1192704,1190732,1192703,1192805],"voronoi":{"lat":31.843532,"lng":131.411906,"delta_lat":[0,9902,12867,2453,-19926],"delta_lng":[0,-38,7543,12403,41673]}},
    {"code":1190727,"id":"24fa60","name":"蓮ヶ池","name_kana":"はすがいけ","lat":31.960113,"lng":131.442802,"prefecture":45,"lines":[11907],"attr":"cool","postal_code":"880-0837","address":"宮崎県宮崎市村角町","next":[1190735,1190726,1190728,1192704,1192907,1190729],"voronoi":{"lat":31.91278,"lng":131.579351,"delta_lat":[0,174272,-11208,-7836,-138048,-16065],"delta_lng":[0,-357302,1435,4611,241944,65837]}},
    {"code":1190724,"left":1190725,"right":1190723,"id":"3b9998","name":"日向新富","name_kana":"ひゅうがしんとみ","lat":32.072479,"lng":131.501627,"prefecture":45,"lines":[11907],"attr":"cool","postal_code":"889-1402","address":"児湯郡新富町大字三納代","next":[1192809,1190723,9992014,1190722,1190725],"voronoi":{"lat":31.891143,"lng":131.839957,"delta_lat":[0,325544,27727,-75576,-273235],"delta_lng":[0,-507837,-64229,-30273,567096]}},
    {"code":1190725,"id":"19ba9e","name":"佐土原","name_kana":"さどわら","lat":32.022412,"lng":131.477504,"prefecture":45,"lines":[11907],"attr":"cool","postal_code":"880-0211","address":"宮崎市佐土原町下田島","next":[9992014,1192704,1192809,1190726,1190724],"voronoi":{"lat":31.903386,"lng":131.637842,"delta_lat":[0,1997,249957,13498,-273235],"delta_lng":[0,-8101,-399152,7028,567096]}},
    {"code":1190723,"id":"f2c973","name":"高鍋","name_kana":"たかなべ","lat":32.122866,"lng":131.533927,"prefecture":45,"lines":[11907],"attr":"cool","postal_code":"884-0004","address":"児湯郡高鍋町大字蚊口浦","next":[1190722,1192810,9981508,1190724,1190718,1192811,1192809],"voronoi":{"lat":31.891143,"lng":131.839957,"delta_lat":[0,325544,-346019,-2647,-141431,45576,46983],"delta_lng":[0,-507837,1237453,6966,97068,-249688,-235809]}},
    {"code":1190718,"left":1190719,"right":1190715,"id":"0bd8c4","name":"南日向","name_kana":"みなみひゅうが","lat":32.369867,"lng":131.627784,"prefecture":45,"lines":[11907],"attr":"eco","postal_code":"883-0022","address":"日向市大字平岩","next":[9981508,1190717,1190719,1190722,1190723,1190714,1190715],"voronoi":{"lat":32.176976,"lng":132.416445,"delta_lat":[0,-308955,2647,199167,317516,1209,-11386],"delta_lng":[0,160094,-6966,-475144,-547451,237856,46746]}},
    {"code":1190719,"left":1190720,"right":1190717,"id":"e4eb2c","name":"美々津","name_kana":"みみつ","lat":32.325892,"lng":131.602279,"prefecture":45,"lines":[11907],"attr":"eco","postal_code":"889-1111","address":"日向市美々津町","next":[1190718,1190720,1190717,1190716,1190722,1190721],"voronoi":{"lat":32.194699,"lng":131.792625,"delta_lat":[0,247956,-24840,-30464,-317516,49701],"delta_lng":[0,-438696,97092,95956,547451,-135695]}},
    {"code":1190720,"left":1190721,"id":"7c172e","name":"東都農","name_kana":"ひがしつの","lat":32.290109,"lng":131.582054,"prefecture":45,"lines":[11907],"attr":"eco","postal_code":"889-1201","address":"児湯郡都農町大字川北","next":[1190719,9992014,1190716,1190721],"voronoi":{"lat":32.373749,"lng":131.279799,"delta_lat":[0,94381,-25475,-247956],"delta_lng":[0,-1367,75497,438696]}},
    {"code":1190721,"id":"c9b90b","name":"都農","name_kana":"つの","lat":32.251085,"lng":131.568429,"prefecture":45,"lines":[11907],"attr":"eco","postal_code":"889-1201","address":"児湯郡都農町大字川北","next":[1190722,1190719,9992014,1190720],"voronoi":{"lat":32.373749,"lng":131.279799,"delta_lat":[0,-78906,-175307,75163],"delta_lng":[0,-4065,682999,-166108]}},
    {"code":1190717,"id":"903071","name":"財光寺","name_kana":"ざいこうじ","lat":32.405654,"lng":131.627602,"prefecture":45,"lines":[11907],"attr":"eco","postal_code":"883-0021","address":"日向市大字財光寺字沖ノ下","next":[1190716,1190715,1190718,1190719],"voronoi":{"lat":32.417814,"lng":131.451021,"delta_lat":[0,-3103,-26152,-1209],"delta_lng":[0,262679,71133,-237856]}},
    {"code":1190715,"left":1190716,"right":1190714,"id":"26b837","name":"門川","name_kana":"かどがわ","lat":32.477381,"lng":131.653972,"prefecture":45,"lines":[11907],"attr":"eco","postal_code":"889-0621","address":"東臼杵郡門川町大字東栄町２丁目","next":[1190716,1190717,1190712,1190711,1190714,1190718],"voronoi":{"lat":32.536188,"lng":131.601406,"delta_lat":[0,18477,23724,-163678,-26152,-11386],"delta_lng":[0,-66199,-144585,323079,71133,46746]}},
    {"code":1190716,"id":"88d407","name":"日向市","name_kana":"ひゅうがし","lat":32.4258,"lng":131.62784,"prefecture":45,"lines":[11907],"attr":"eco","postal_code":"883-0044","address":"日向市上町１丁目","next":[1190717,1190715,1190720,1190719,9991909,9992014,1190711],"voronoi":{"lat":32.589586,"lng":131.349419,"delta_lat":[0,-97850,-23606,-25475,-24840,-3103,163678],"delta_lng":[0,-76250,5263,75497,97092,262679,-323079]}},
    {"code":1190714,"id":"24090f","name":"土々呂","name_kana":"ととろ","lat":32.507832,"lng":131.675009,"prefecture":45,"lines":[11907],"attr":"heat","postal_code":"889-0513","address":"延岡市土々呂町５丁目","next":[1190713,1190715,9981508,1190712,1190718],"voronoi":{"lat":32.377173,"lng":131.83158,"delta_lat":[0,159015,-752,-233441,-125020],"delta_lng":[0,-230174,21242,742676,51121]}}
  ]
}