{
  "name":"segment44",
  "root":9931112,
  "east":180.0,
  "west":139.72962,
  "south":35.622458,
  "north":35.691273,
  "station_size":144,
  "node_list":[
    {"code":9931112,"left":2800312,"right":1131422,"id":"9bf888","name":"有明(東京)","name_kana":"ありあけ","lat":35.634596,"lng":139.793269,"prefecture":13,"lines":[99311],"attr":"cool","postal_code":"135-0063","address":"江東区有明２-５","next":[9933703,9931111,9931113,9933702],"voronoi":{"lat":35.641759,"lng":139.796553,"delta_lat":[0,-3689,-5904,-5848],"delta_lng":[0,-4511,665,12716]}},
    {"code":2800312,"left":9931105,"right":2800111,"id":"634af8","name":"築地","name_kana":"つきじ","lat":35.668115,"lng":139.772603,"prefecture":13,"lines":[28003],"attr":"heat","postal_code":"104-0045","address":"中央区築地３-１５-１","next":[9930118,2800313,2800621,9930119,2800620],"voronoi":{"lat":35.670598,"lng":139.770384,"delta_lat":[0,-3595,-4655,2316,2105],"delta_lng":[0,-906,2635,5795,587]}},
    {"code":9931105,"left":2800916,"right":9931115,"id":"673bab","name":"芝浦ふ頭","name_kana":"しばうらふとう","lat":35.641773,"lng":139.757852,"prefecture":13,"lines":[99311],"attr":"eco","postal_code":"108-0022","address":"港区海岸３-２２-１２","next":[9933602,9931114,1130230,9930208,9931107,1130228,9931104,9931106],"voronoi":{"lat":35.643263,"lng":139.771811,"delta_lat":[0,2898,-1587,-7854,-3208,-3445,7932,4256],"delta_lng":[0,-17662,-1120,-3029,1183,9054,9263,2453]}},
    {"code":2800916,"left":1130230,"right":2800317,"id":"6a2cb4","name":"麻布十番","name_kana":"あざぶじゅうばん","lat":35.654682,"lng":139.737051,"prefecture":13,"lines":[28009,99301],"attr":"eco","postal_code":"106-0045","address":"港区麻布十番４-４-９","next":[2800915,9930122,2800318,2800320,2800917,1130228,2800319],"voronoi":{"lat":35.65977,"lng":139.740087,"delta_lat":[0,-17,-11477,-625,2495,5224,5019],"delta_lng":[0,17,566,-532,-9972,-846,7298]}},
    {"code":1130230,"left":2700101,"right":9930208,"id":"654c8f","name":"高輪ゲートウェイ","name_kana":"たかなわげーとうぇい","lat":35.635468,"lng":139.740749,"prefecture":13,"lines":[11302,11332],"attr":"heat","postal_code":"108-0075","address":"港区港南二丁目10-145","open_date":"2020-03-14","next":[100202,9933602,9931105,9930206,1130228,2700101],"voronoi":{"lat":35.635799,"lng":139.73472,"delta_lat":[0,-2585,-2972,3270,3208,1891],"delta_lng":[0,938,11389,4137,-1183,-2844]}},
    {"code":2700101,"left":100202,"right":2800917,"id":"283523","name":"泉岳寺","name_kana":"せんがくじ","lat":35.638692,"lng":139.74002,"prefecture":13,"lines":[27001,99302],"attr":"eco","postal_code":"108-0074","address":"港区高輪２-１６-３４","next":[1130228,9930206,1130230,2800917],"voronoi":{"lat":35.638611,"lng":139.747157,"delta_lat":[0,-2812,847,9051],"delta_lng":[0,-12437,-612,6442]}},
    {"code":100202,"left":9930206,"id":"73e262","name":"品川","name_kana":"しながわ","lat":35.62876,"lng":139.738999,"prefecture":13,"lines":[1002,11301,11302,11308,11328,11332,27001],"attr":"heat","postal_code":"108-0074","address":"東京都港区高輪三丁目26-27","open_date":"1872-06-12","next":[1130230,2700103,9933602,9930206],"voronoi":{"lat":35.630243,"lng":139.747047,"delta_lat":[0,-4459,-359,7790],"delta_lng":[0,-2235,-11769,2615]}},
    {"code":9930206,"id":"df5dc1","name":"高輪台","name_kana":"たかなわだい","lat":35.631679,"lng":139.730305,"prefecture":13,"lines":[99302],"attr":"eco","postal_code":"108-0071","address":"港区白金台２-２６-７","next":[2800918,2700101,1130202,1130230,2800917,2700103,1130201,100202],"voronoi":{"lat":35.625425,"lng":139.733042,"delta_lat":[0,-236,461,6450,5249,-702,-847,-2585],"delta_lng":[0,-245,-2938,-5676,7850,2074,612,938]}},
    {"code":2800917,"id":"3cde0d","name":"白金高輪","name_kana":"しろかねたかなわ","lat":35.642903,"lng":139.734104,"prefecture":13,"lines":[28009,99303],"attr":"eco","postal_code":"108-0074","address":"港区高輪１-３-２０","next":[2800918,9930206,1130228,2700101,2800320,2800916],"voronoi":{"lat":35.650146,"lng":139.730166,"delta_lat":[0,-4343,-8455,-702,9051,1954],"delta_lng":[0,-3422,5289,2074,6442,-411]}},
    {"code":9930208,"left":9933602,"right":9930305,"id":"3361a8","name":"三田(東京)","name_kana":"みた","lat":35.64818,"lng":139.748775,"prefecture":13,"lines":[99302,99303],"attr":"cool","postal_code":"108-0014","address":"港区芝５-３４-１０","next":[9930122,1130228,9931105,9931104,9930305],"voronoi":{"lat":35.646161,"lng":139.75415,"delta_lat":[0,-1587,4799,2288,-1329],"delta_lng":[0,-1120,-9774,3043,7463]}},
    {"code":9933602,"left":1130228,"id":"ab47d9","name":"天王洲アイル","name_kana":"てんのうずあいる","lat":35.622908,"lng":139.750675,"prefecture":13,"lines":[99336,99337],"attr":"eco","postal_code":"140-0002","address":"品川区東品川２-５-１９","next":[9931105,1130230,2700103,9931108,100202,2700104,9933706,9931107],"voronoi":{"lat":35.614829,"lng":139.761443,"delta_lat":[0,1010,6302,3642,4459,3270,-3445,-10467],"delta_lng":[0,-12909,-3579,-143,2235,4137,9054,1512]}},
    {"code":1130228,"id":"ddf57e","name":"田町(東京)","name_kana":"たまち","lat":35.645736,"lng":139.747575,"prefecture":13,"lines":[11302,11332],"attr":"heat","postal_code":"108-0014","address":"東京都港区芝五丁目33-36","open_date":"1906-12-16","next":[2700101,9930208,1130230,2800917,9931105,2800916,9930122],"voronoi":{"lat":35.648277,"lng":139.74067,"delta_lat":[0,-625,-1954,-7086,-1891,7854,4799],"delta_lng":[0,-532,411,6607,2844,3029,-9774]}},
    {"code":9930305,"id":"f3d096","name":"芝公園","name_kana":"しばこうえん","lat":35.654074,"lng":139.749824,"prefecture":13,"lines":[99303],"attr":"eco","postal_code":"105-0011","address":"港区芝公園４-８-１４","next":[1130227,9930306,9930122,9930121,9931104,9930208],"voronoi":{"lat":35.651661,"lng":139.746298,"delta_lat":[0,6787,-893,-5049,-1460,-714],"delta_lng":[0,1024,3728,2830,263,-382]}},
    {"code":2800317,"left":2800318,"right":9930121,"id":"a46932","name":"虎ノ門ヒルズ","name_kana":"とらのもんひるず","lat":35.667409,"lng":139.747754,"prefecture":13,"lines":[28003],"attr":"cool","postal_code":"105-0001","address":"東京都港区虎ノ門１丁目２２-１８","open_date":"2020-06-06","next":[2800318,2800113,2800114,2800915,9930306,2800212,9930307],"voronoi":{"lat":35.666171,"lng":139.7524,"delta_lat":[0,4446,-1046,-775,-1688,-3337,2250],"delta_lng":[0,-6048,-2691,-759,350,5507,3686]}},
    {"code":2800318,"left":9930122,"right":2800915,"id":"052f60","name":"神谷町","name_kana":"かみやちょう","lat":35.662978,"lng":139.745069,"prefecture":13,"lines":[28003],"attr":"cool","postal_code":"105-0001","address":"港区虎ノ門５-１２-１１","next":[9930122,2800915,2800317,9930306,2800916],"voronoi":{"lat":35.658463,"lng":139.747311,"delta_lat":[0,5308,3337,-7338,-17],"delta_lng":[0,1447,-5507,-3164,17]}},
    {"code":9930122,"left":2800319,"id":"f6d995","name":"赤羽橋","name_kana":"あかばねばし","lat":35.655007,"lng":139.743642,"prefecture":13,"lines":[99301],"attr":"cool","postal_code":"106-0044","address":"港区東麻布１-２８-１３","next":[2800318,9930208,9930305,2800916,9930306,1130228],"voronoi":{"lat":35.648277,"lng":139.74067,"delta_lat":[0,11477,-1290,-15,-6787,-2288],"delta_lng":[0,-566,7207,11,-1024,-3043]}},
    {"code":2800319,"id":"1cf8c3","name":"六本木","name_kana":"ろっぽんぎ","lat":35.662836,"lng":139.731443,"prefecture":13,"lines":[28003,99301],"attr":"cool","postal_code":"106-0032","address":"港区六本木６-１-２５","next":[2800320,2800516,2800515,2800915,2800916],"voronoi":{"lat":35.668969,"lng":139.733486,"delta_lat":[0,725,-10467,-3857,5019],"delta_lng":[0,-1090,-7480,4405,7298]}},
    {"code":2800915,"id":"068fd5","name":"六本木一丁目","name_kana":"ろっぽんぎいっちょうめ","lat":35.665595,"lng":139.739,"prefecture":13,"lines":[28009],"attr":"eco","postal_code":"106-0032","address":"港区六本木１-４-１","next":[2800318,2800114,2800916,2800317,2800515,2800319],"voronoi":{"lat":35.65977,"lng":139.740087,"delta_lat":[0,7338,1688,761,-588,-8580],"delta_lng":[0,3164,-350,-2526,-6890,3133]}},
    {"code":9930121,"left":1130227,"right":9930306,"id":"f05b47","name":"大門(東京)","name_kana":"だいもん","lat":35.656785,"lng":139.75466,"prefecture":13,"lines":[99301,99302],"attr":"cool","postal_code":"105-0013","address":"港区浜松町１-２７-１２","next":[1130227,9930306,9930120,9930305],"voronoi":{"lat":35.659902,"lng":139.758046,"delta_lat":[0,1425,-3772,-5049],"delta_lng":[0,-1648,-5347,2830]}},
    {"code":1130227,"id":"d22a54","name":"浜松町","name_kana":"はままつちょう","lat":35.655391,"lng":139.757135,"prefecture":13,"lines":[11302,11332,99336],"attr":"heat","postal_code":"105-0022","address":"東京都港区海岸一丁目3-1","open_date":"1909-12-16","next":[9931103,9930305,9930120,9931104,9930121],"voronoi":{"lat":35.652507,"lng":139.75388,"delta_lat":[0,-1460,1496,6259,1101],"delta_lng":[0,263,4862,1650,-2610]}},
    {"code":9930306,"id":"659c88","name":"御成門","name_kana":"おなりもん","lat":35.661215,"lng":139.751535,"prefecture":13,"lines":[99303],"attr":"eco","postal_code":"105-0003","address":"港区西新橋３-２４-６","next":[9930305,9930121,1130102,9930307,9930120,2800317,2800318,9930122],"voronoi":{"lat":35.657556,"lng":139.75105,"delta_lat":[0,3772,791,3196,707,-2250,-5308,-15],"delta_lng":[0,5347,-216,-2257,-1480,-3686,-1447,11]}},
    {"code":9931115,"left":9931114,"right":9930119,"id":"f8cecf","name":"新豊洲","name_kana":"しんとよす","lat":35.648718,"lng":139.789996,"prefecture":13,"lines":[99311],"attr":"heat","postal_code":"135-0061","address":"江東区豊洲６丁目","next":[9931113,2800621,9933702,9930118,9931114,2800622],"voronoi":{"lat":35.657065,"lng":139.787872,"delta_lat":[0,-1038,-2320,-9418,-840,3257],"delta_lng":[0,-2909,-1676,6560,6595,1749]}},
    {"code":9931114,"left":9933704,"right":9933703,"id":"68815d","name":"市場前","name_kana":"しじょうまえ","lat":35.645684,"lng":139.78564,"prefecture":13,"lines":[99311],"attr":"heat","postal_code":"135-0061","address":"江東区豊洲６丁目","next":[9931106,9931105,9931113,9931104,9931115,9931103,9930118],"voronoi":{"lat":35.645911,"lng":139.772419,"delta_lat":[0,-1165,-1483,-1008,-3556,5589,9418],"delta_lng":[0,-415,-193,142,8025,9868,-6560]}},
    {"code":9933704,"left":9931110,"right":9931106,"id":"985a83","name":"東京テレポート","name_kana":"とうきょうてれぽーと","lat":35.62753,"lng":139.778896,"prefecture":13,"lines":[99337],"attr":"heat","postal_code":"135-0064","address":"江東区青海１-２","next":[9931110,9931108,9931106,9931107],"voronoi":{"lat":35.623667,"lng":139.776903,"delta_lat":[0,5691,-1181,-3232],"delta_lng":[0,7280,-9334,703]}},
    {"code":9931110,"left":9931107,"id":"aac49b","name":"青海(東京)","name_kana":"あおみ","lat":35.62467,"lng":139.781132,"prefecture":13,"lines":[99311],"attr":"cool","postal_code":"135-0064","address":"江東区青海１","next":[9933704,9931109,9931108,9931106,9931111],"voronoi":{"lat":35.621787,"lng":139.777659,"delta_lat":[0,1880,5691,365,-11365],"delta_lng":[0,-756,7280,742,6178]}},
    {"code":9931107,"id":"496bd9","name":"台場","name_kana":"だいば","lat":35.625908,"lng":139.771435,"prefecture":13,"lines":[99311],"attr":"eco","postal_code":"135-0091","address":"港区台場２-６","next":[9931105,9931108,9931106,9933602,9933704],"voronoi":{"lat":35.6196,"lng":139.76175,"delta_lat":[0,10467,7932,-9822,-3232],"delta_lng":[0,-1512,9263,5348,703]}},
    {"code":9931106,"id":"b54cfa","name":"お台場海浜公園","name_kana":"おだいばかいひんこうえん","lat":35.629813,"lng":139.778607,"prefecture":13,"lines":[99311],"attr":"eco","postal_code":"135-0091","address":"港区台場２-３","next":[9931114,9933703,9931113,9933704,9931111,9931110,9931107,9931105],"voronoi":{"lat":35.638699,"lng":139.779978,"delta_lat":[0,-4421,-1392,-3163,-365,-1181,9822,4256],"delta_lng":[0,4368,492,86,-742,-9334,-5348,2453]}},
    {"code":9933703,"left":9931111,"right":9931113,"id":"6af921","name":"国際展示場","name_kana":"こくさいてんじじょう","lat":35.63441,"lng":139.791617,"prefecture":13,"lines":[99337],"attr":"heat","postal_code":"135-0063","address":"江東区有明２-５-２５","next":[9931111,9931106,9931112,9931113],"voronoi":{"lat":35.634278,"lng":139.784346,"delta_lat":[0,-1392,-720,5904],"delta_lng":[0,492,7868,-665]}},
    {"code":9931111,"id":"783a1c","name":"東京ビッグサイト","name_kana":"とうきょうびっぐさいと","lat":35.630158,"lng":139.791228,"prefecture":13,"lines":[99311],"attr":"cool","postal_code":"135-0063","address":"江東区有明三丁目6-15","next":[1132605,9933703,9931109,9931106,9931112,9933702,9931110,9933610],"voronoi":{"lat":35.589122,"lng":139.82197,"delta_lat":[0,29237,11365,3163,-720,-5848,-24061,-13513],"delta_lng":[0,-30868,-6178,-86,7868,12716,19789,5982]}},
    {"code":9931113,"id":"43d2a0","name":"有明テニスの森","name_kana":"ありあけてにすのもり","lat":35.639964,"lng":139.78888,"prefecture":13,"lines":[99311],"attr":"heat","postal_code":"135-0063","address":"江東区有明１丁目","next":[9933702,9931115,9931114,9931106,9931112,9933703],"voronoi":{"lat":35.634278,"lng":139.784346,"delta_lat":[0,4421,5589,-840,-1689,-3689],"delta_lng":[0,-4368,9868,6595,111,-4511]}},
    {"code":9930119,"left":9930120,"right":2800621,"id":"926084","name":"築地市場","name_kana":"つきじしじょう","lat":35.664895,"lng":139.766915,"prefecture":13,"lines":[99301],"attr":"cool","postal_code":"104-0045","address":"中央区築地５-１-２","next":[9930120,9930118,2800312,2800313,9931103],"voronoi":{"lat":35.662348,"lng":139.772112,"delta_lat":[0,4655,466,-8078,-1879],"delta_lng":[0,-2635,-6301,1535,4158]}},
    {"code":9930120,"left":9931103,"right":1130102,"id":"c1c797","name":"汐留","name_kana":"しおどめ","lat":35.663703,"lng":139.760642,"prefecture":13,"lines":[99301,99311],"attr":"cool","postal_code":"105-0021","address":"港区東新橋１丁目５","next":[1130227,9930119,2800111,9931103,9930306,9930121,1130102,2800313],"voronoi":{"lat":35.667511,"lng":139.763139,"delta_lat":[0,113,-5505,-791,-1425,-1101,589,8078],"delta_lng":[0,-282,-6676,216,1648,2610,4056,-1535]}},
    {"code":9931103,"left":9931104,"id":"ca089d","name":"竹芝","name_kana":"たけしば","lat":35.654099,"lng":139.762037,"prefecture":13,"lines":[99311],"attr":"eco","postal_code":"105-0022","address":"港区海岸１-１３-１０","next":[1130227,9931104,9930120,9930118,9930119,9931114],"voronoi":{"lat":35.644746,"lng":139.772004,"delta_lat":[0,7796,6259,589,-1879,-11600],"delta_lng":[0,-12999,1650,4056,4158,3550]}},
    {"code":9931104,"id":"272a54","name":"日の出","name_kana":"ひので","lat":35.649136,"lng":139.75906,"prefecture":13,"lines":[99311],"attr":"eco","postal_code":"105-0022","address":"港区海岸２-７-６８","next":[1130227,9931103,9931114,9931105,9930305,9930208],"voronoi":{"lat":35.650333,"lng":139.753762,"delta_lat":[0,714,1496,-7796,-1483,2898],"delta_lng":[0,382,4862,12999,-193,-17662]}},
    {"code":1130102,"id":"c3891c","name":"新橋","name_kana":"しんばし","lat":35.666195,"lng":139.758587,"prefecture":13,"lines":[11301,11302,11308,11332,28001,99302,99311],"attr":"heat","postal_code":"105-0004","address":"東京都港区新橋二丁目17","open_date":"1909-12-16","next":[9930306,2800111,9930307,2800315,9930120],"voronoi":{"lat":35.670275,"lng":139.760001,"delta_lat":[0,23,-4984,-3196,5505],"delta_lng":[0,-125,-5952,2257,6676]}},
    {"code":2800621,"left":9930118,"right":1132603,"id":"059a1f","name":"月島","name_kana":"つきしま","lat":35.664871,"lng":139.784233,"prefecture":13,"lines":[28006,99301],"attr":"cool","postal_code":"104-0052","address":"東京都中央区月島一丁目3-9","open_date":"1988-06-08","next":[1132602,9930118,9931115,2800622,2800312,1132603,2800620],"voronoi":{"lat":35.673136,"lng":139.786033,"delta_lat":[0,-12732,-3340,-1038,8637,2105,2047],"delta_lng":[0,4617,-2779,-2909,-7055,587,1088]}},
    {"code":9930118,"id":"21c19c","name":"勝どき","name_kana":"かちどき","lat":35.658507,"lng":139.776442,"prefecture":13,"lines":[99301],"attr":"cool","postal_code":"104-0054","address":"中央区勝どき２-１０-１５","next":[2800621,2800312,9930119,9931115,9931103,9931114],"voronoi":{"lat":35.645911,"lng":139.772419,"delta_lat":[0,11600,4836,2316,-8637,-2320],"delta_lng":[0,-3550,3243,5795,7055,-1676]}},
    {"code":1132603,"id":"999bed","name":"越中島","name_kana":"えっちゅうじま","lat":35.667946,"lng":139.792713,"prefecture":13,"lines":[11326],"attr":"heat","postal_code":"135-0044","address":"江東区越中島２丁目","next":[2800621,2800310,1132602,2800622,2800413,2800412,2800810],"voronoi":{"lat":35.674088,"lng":139.786581,"delta_lat":[0,-257,-694,-12732,2623,1675,10409],"delta_lng":[0,-238,-309,4617,9778,-164,-11627]}},
    {"code":2800111,"left":2800115,"right":2800109,"id":"1e31fc","name":"銀座","name_kana":"ぎんざ","lat":35.671989,"lng":139.763965,"prefecture":13,"lines":[28001,28002,28003],"attr":"cool","postal_code":"104-0061","address":"中央区銀座４-１-２","next":[2800619,9930120,1130102,1130225,2800313,2800315],"voronoi":{"lat":35.673768,"lng":139.765046,"delta_lat":[0,-1889,-4369,113,2652,3367],"delta_lng":[0,1449,-3355,-282,-2856,2308]}},
    {"code":2800115,"left":2800211,"right":2800805,"id":"67bee3","name":"赤坂見附","name_kana":"あかさかみつけ","lat":35.677021,"lng":139.737047,"prefecture":13,"lines":[28001,28002],"attr":"cool","postal_code":"107-0052","address":"港区赤坂３-１-６","next":[2800616,1131102,2800615,2800116,2800515,2800114],"voronoi":{"lat":35.675773,"lng":139.739585,"delta_lat":[0,-2859,5491,2466,-350,-4588],"delta_lng":[0,-8328,-1814,3473,4314,2480]}},
    {"code":2800211,"left":2800114,"right":2800315,"id":"53bc5a","name":"霞ケ関","name_kana":"かすみがせき","lat":35.673838,"lng":139.750899,"prefecture":13,"lines":[28002,28003,28005],"attr":"heat","postal_code":"100-0013","address":"千代田区霞が関２丁目","next":[2800617,9930307,2800315,2800113,2800212],"voronoi":{"lat":35.674912,"lng":139.755478,"delta_lat":[0,-508,-3097,1419,3409],"delta_lng":[0,42,-2688,-4791,55]}},
    {"code":2800114,"left":2800113,"right":2800212,"id":"55f6a4","name":"溜池山王","name_kana":"ためいけさんのう","lat":35.673621,"lng":139.741419,"prefecture":13,"lines":[28001,28009],"attr":"cool","postal_code":"100-0014","address":"千代田区永田町２-１１-１","next":[2800915,2800317,2800212,2800515,2800616,2800115],"voronoi":{"lat":35.675773,"lng":139.739585,"delta_lat":[0,-6216,-761,775,7125,-763],"delta_lng":[0,791,2526,759,-579,-3372]}},
    {"code":2800113,"left":2800515,"id":"258ca8","name":"虎ノ門","name_kana":"とらのもん","lat":35.670236,"lng":139.749832,"prefecture":13,"lines":[28001],"attr":"cool","postal_code":"105-0001","address":"港区虎ノ門１-１-２１","next":[9930307,2800317,2800212,2800211],"voronoi":{"lat":35.672726,"lng":139.74804,"delta_lat":[0,-2108,-4446,5135],"delta_lng":[0,-1689,6048,432]}},
    {"code":2800515,"id":"fc66d7","name":"赤坂(東京)","name_kana":"あかさか","lat":35.67323,"lng":139.738348,"prefecture":13,"lines":[28005],"attr":"heat","postal_code":"107-0052","address":"港区赤坂５丁目","next":[2800116,2800319,2800114,2800915,2800115,2800516],"voronoi":{"lat":35.668969,"lng":139.733486,"delta_lat":[0,588,6216,-2859,-1218,-2002],"delta_lng":[0,6890,-791,-8328,40,1099]}},
    {"code":2800212,"id":"01f5a3","name":"国会議事堂前","name_kana":"こっかいぎじどうまえ","lat":35.67393,"lng":139.745219,"prefecture":13,"lines":[28002,28005],"attr":"cool","postal_code":"100-0014","address":"千代田区永田町１丁目","next":[2800114,2800317,2800616,2800113,2800617,2800211],"voronoi":{"lat":35.679776,"lng":139.746078,"delta_lat":[0,-3079,-7125,1046,2108,3409],"delta_lng":[0,-2996,579,2691,1689,55]}},
    {"code":2800315,"left":9930307,"right":1130225,"id":"3a7f35","name":"日比谷","name_kana":"ひびや","lat":35.67459,"lng":139.76017,"prefecture":13,"lines":[28003,28005,99303],"attr":"heat","postal_code":"100-0006","address":"千代田区有楽町１丁目","next":[2800511,2800617,1130225,1130102,2800211,9930307,2800111],"voronoi":{"lat":35.670275,"lng":139.760001,"delta_lat":[0,23,4105,508,4087,-1247,-4109],"delta_lng":[0,-125,-4357,-42,1326,4544,962]}},
    {"code":9930307,"id":"10d1b4","name":"内幸町","name_kana":"うちさいわいちょう","lat":35.66975,"lng":139.75561,"prefecture":13,"lines":[99303],"attr":"eco","postal_code":"100-0011","address":"千代田区内幸町２-２-３","next":[2800113,9930306,1130102,2800211,2800317,2800315],"voronoi":{"lat":35.665314,"lng":139.753924,"delta_lat":[0,707,150,5135,3097,-4105],"delta_lng":[0,-1480,-45,432,2688,4357]}},
    {"code":1130225,"id":"7a9dfd","name":"有楽町","name_kana":"ゆうらくちょう","lat":35.675441,"lng":139.763806,"prefecture":13,"lines":[11302,11332,28006],"attr":"heat","postal_code":"100-0006","address":"東京都千代田区有楽町二丁目9","open_date":"1910-06-25","next":[2800619,2800315,2800111,2800511,100201],"voronoi":{"lat":35.678699,"lng":139.76422,"delta_lat":[0,-948,-4109,126,4081],"delta_lng":[0,-2873,962,2736,1375]}},
    {"code":2800805,"left":1131102,"right":2800511,"id":"15f0e5","name":"半蔵門","name_kana":"はんぞうもん","lat":35.685703,"lng":139.74163,"prefecture":13,"lines":[28008],"attr":"eco","postal_code":"102-0083","address":"千代田区麹町１-６","next":[2800408,2800407,2800617,1131316,2800616,1131315,2800615],"voronoi":{"lat":35.688159,"lng":139.738226,"delta_lat":[0,5687,-189,-5591,-2378,-4505,1094],"delta_lng":[0,4808,871,5357,777,-3791,-5537]}},
    {"code":1131102,"left":2800616,"right":1131315,"id":"90f3a3","name":"四ツ谷(四ッ谷)","name_kana":"よつや","lat":35.686041,"lng":139.730644,"prefecture":13,"lines":[11311,11312,11313,28002,28009],"attr":"heat","postal_code":"160-0004","address":"東京都新宿区四谷一丁目","next":[9930403,2800115,2800615,2800116,1131315,1131313,2800215],"voronoi":{"lat":35.692064,"lng":139.729092,"delta_lat":[0,-5085,-6108,-2466,659,5283,3329],"delta_lng":[0,5608,-1784,-3473,-1349,-3202,605]}},
    {"code":2800616,"left":2800615,"id":"4aa7d8","name":"永田町","name_kana":"ながたちょう","lat":35.678757,"lng":139.740258,"prefecture":13,"lines":[28006,28008,28009],"attr":"heat","postal_code":"100-0014","address":"東京都千代田区永田町一丁目11-28","open_date":"1974-10-30","next":[2800115,2800615,2800617,2800805,2800114,2800212],"voronoi":{"lat":35.681182,"lng":139.746247,"delta_lat":[0,1094,-1755,-4588,763,3079],"delta_lng":[0,-5537,-3481,2480,3372,2996]}},
    {"code":2800615,"id":"85b57c","name":"麹町","name_kana":"こうじまち","lat":35.684006,"lng":139.737613,"prefecture":13,"lines":[28006],"attr":"heat","postal_code":"102-0083","address":"東京都千代田区麹町三丁目2","open_date":"1974-10-30","next":[2800616,1131102,2800115,1131315,2800805],"voronoi":{"lat":35.688159,"lng":139.738226,"delta_lat":[0,-1179,-6108,-350,1755],"delta_lng":[0,-3526,-1784,4314,3481]}},
    {"code":1131315,"id":"51ad8c","name":"市ケ谷(市ヶ谷)","name_kana":"いちがや","lat":35.691107,"lng":139.735238,"prefecture":13,"lines":[11313,28006,28009,99304],"attr":"heat","postal_code":"162-0843","address":"東京都新宿区市谷田町一丁目1","open_date":"1974-10-30","next":[9930105,1131316,9930106,2800615,1131102,2800805,9930403],"voronoi":{"lat":35.696246,"lng":139.730902,"delta_lat":[0,-589,-1812,-5687,-1179,5085,2274],"delta_lng":[0,10170,1962,-4808,-3526,-5608,239]}},
    {"code":2800511,"left":2800617,"right":2800408,"id":"fecdae","name":"二重橋前","name_kana":"にじゅうばしまえ","lat":35.681071,"lng":139.761948,"prefecture":13,"lines":[28005],"attr":"heat","postal_code":"100-0005","address":"千代田区丸の内２丁目","next":[2800408,2800315,2800208,2800617,1130225,100201],"voronoi":{"lat":35.677751,"lng":139.761348,"delta_lat":[0,1247,4621,2891,-2493,-5318],"delta_lng":[0,-4544,-1621,5403,3225,410]}},
    {"code":2800617,"id":"32aeb8","name":"桜田門","name_kana":"さくらだもん","lat":35.677405,"lng":139.75149,"prefecture":13,"lines":[28006],"attr":"heat","postal_code":"100-0013","address":"東京都千代田区霞が関二丁目1-1","open_date":"1974-10-30","next":[2800315,2800211,2800408,2800616,2800805,2800511,2800212],"voronoi":{"lat":35.674912,"lng":139.755478,"delta_lat":[0,4087,4621,2068,-4505,-1407,-3641],"delta_lng":[0,1326,-1621,-5144,-3791,-170,2018]}},
    {"code":2800408,"id":"d7153d","name":"竹橋","name_kana":"たけばし","lat":35.690662,"lng":139.756817,"prefecture":13,"lines":[28004],"attr":"eco","postal_code":"100-0003","address":"千代田区一ツ橋１-１-１","next":[2800511,2800207,2800805,2800617,2800807,2800208,2800407],"voronoi":{"lat":35.688065,"lng":139.749262,"delta_lat":[0,-2378,-2068,2891,5120,908,1117],"delta_lng":[0,777,5144,5403,2239,-403,-7503]}},
    {"code":2800109,"left":9930212,"right":2800308,"id":"4996b7","name":"日本橋(東京)","name_kana":"にほんばし","lat":35.682078,"lng":139.773516,"prefecture":13,"lines":[28001,28004,99302],"attr":"heat","postal_code":"103-0027","address":"中央区日本橋１丁目","next":[9930212,2800110,2800309,2800208,1132602,2800310,100201,2800108],"voronoi":{"lat":35.684644,"lng":139.770053,"delta_lat":[0,-727,-3205,-2055,-556,408,5643,373],"delta_lng":[0,-445,297,3165,2102,727,2022,-180]}},
    {"code":9930212,"left":2800110,"right":1132602,"id":"f9f40b","name":"宝町(東京)","name_kana":"たからちょう","lat":35.675461,"lng":139.771767,"prefecture":13,"lines":[99302],"attr":"cool","postal_code":"104-0031","address":"中央区京橋２-１３-１１","next":[2800109,2800619,2800620,1132602,2800110,2800313],"voronoi":{"lat":35.672032,"lng":139.770082,"delta_lat":[0,2436,4189,-556,-4439,-1698],"delta_lng":[0,-573,3560,2102,-631,-4368]}},
    {"code":2800110,"left":2800313,"right":100201,"id":"6542ff","name":"京橋(東京)","name_kana":"きょうばし","lat":35.676856,"lng":139.770126,"prefecture":13,"lines":[28001],"attr":"cool","postal_code":"104-0031","address":"中央区京橋２-２-１０","next":[2800109,100201,2800619,9930212],"voronoi":{"lat":35.674468,"lng":139.769509,"delta_lat":[0,3423,2821,-2055],"delta_lng":[0,-2785,3180,3165]}},
    {"code":2800313,"left":2800619,"id":"291247","name":"東銀座","name_kana":"ひがしぎんざ","lat":35.669464,"lng":139.767253,"prefecture":13,"lines":[28003,99302],"attr":"heat","postal_code":"104-0061","address":"中央区銀座４-１２-１５","next":[2800312,2800619,2800111,9930119,9930120,2800620,9930212],"voronoi":{"lat":35.672032,"lng":139.770082,"delta_lat":[0,-152,-4369,-42,-466,3595,1366],"delta_lng":[0,-3588,-3355,37,6301,906,-211]}},
    {"code":2800619,"id":"8c253b","name":"銀座一丁目","name_kana":"ぎんざいっちょうめ","lat":35.67435,"lng":139.767045,"prefecture":13,"lines":[28006],"attr":"heat","postal_code":"104-0061","address":"東京都中央区銀座一丁目7-12","open_date":"1974-10-30","next":[2800111,100201,1130225,9930212,2800313,2800110],"voronoi":{"lat":35.677891,"lng":139.766725,"delta_lat":[0,-41,-4081,-1889,152,2436],"delta_lng":[0,-304,-1375,1449,3588,-573]}},
    {"code":100201,"id":"8b222f","name":"東京","name_kana":"とうきょう","lat":35.681391,"lng":139.766103,"prefecture":13,"lines":[1002,1004,1005,11301,11302,11308,11311,11312,11314,11326,11328,11332,11343,28002],"attr":"heat","postal_code":"100-0005","address":"東京都千代田区丸の内一丁目","open_date":"1914-12-20","next":[2800619,2800208,2800110,2800109,2800511,1130225],"voronoi":{"lat":35.677891,"lng":139.766725,"delta_lat":[0,2821,3205,101,-5318,-850],"delta_lng":[0,3180,-297,-5797,410,2200]}},
    {"code":1132602,"left":2800620,"right":2800310,"id":"ea172b","name":"八丁堀(東京)","name_kana":"はっちょうぼり","lat":35.674617,"lng":139.777705,"prefecture":13,"lines":[11326,28003],"attr":"heat","postal_code":"104-0032","address":"中央区八丁堀３丁目","next":[2800621,2800109,9930212,2800620,1132603,2800310],"voronoi":{"lat":35.678509,"lng":139.775898,"delta_lat":[0,-408,-4439,-4846,4321,694],"delta_lng":[0,-727,-631,5042,6451,309]}},
    {"code":2800620,"id":"a9b001","name":"新富町(東京)","name_kana":"しんとみちょう","lat":35.670462,"lng":139.773711,"prefecture":13,"lines":[28006],"attr":"cool","postal_code":"104-0045","address":"東京都中央区築地一丁目1-1","open_date":"1980-03-27","next":[9930212,1132602,2800621,2800312,2800313],"voronoi":{"lat":35.671964,"lng":139.770173,"delta_lat":[0,1698,-4846,-2047,3829],"delta_lng":[0,4368,5042,-1088,-8111]}},
    {"code":2800310,"id":"0929eb","name":"茅場町","name_kana":"かやばちょう","lat":35.679752,"lng":139.780005,"prefecture":13,"lines":[28003,28004],"attr":"heat","postal_code":"103-0025","address":"中央区日本橋茅場町１-４-６","next":[2800810,2800309,1132603,2800109,1132602],"voronoi":{"lat":35.678509,"lng":139.775898,"delta_lat":[0,5643,-1361,-8703,-257],"delta_lng":[0,2022,3912,4748,-238]}},
    {"code":2800308,"left":1131402,"right":2800309,"id":"0cc552","name":"小伝馬町","name_kana":"こでんまちょう","lat":35.690737,"lng":139.778433,"prefecture":13,"lines":[28003],"attr":"eco","postal_code":"103-0001","address":"中央区日本橋小伝馬町１１-１","next":[9930408,9930409,2800309,1131403,1131402,2800108],"voronoi":{"lat":35.68676,"lng":139.777636,"delta_lat":[0,5435,1941,-2071,-2747,-2924],"delta_lng":[0,-2244,3627,1379,876,-3362]}},
    {"code":1131402,"left":2800108,"right":1130223,"id":"68d7ac","name":"新日本橋","name_kana":"しんにほんばし","lat":35.689016,"lng":139.774265,"prefecture":13,"lines":[11314],"attr":"heat","postal_code":"103-0022","address":"中央区日本橋室町４丁目","next":[1130223,2800108,9930408,2800308],"voronoi":{"lat":35.688838,"lng":139.771705,"delta_lat":[0,3719,-362,-5435],"delta_lng":[0,2213,1473,2244]}},
    {"code":2800108,"left":2800208,"id":"6a5dc6","name":"三越前","name_kana":"みつこしまえ","lat":35.687101,"lng":139.773594,"prefecture":13,"lines":[28001,28008],"attr":"heat","postal_code":"103-0022","address":"中央区日本橋室町１-８-１","next":[1131402,2800309,2800208,1130223,2800308,2800109],"voronoi":{"lat":35.684644,"lng":139.770053,"delta_lat":[0,2846,1348,-2078,-366,-1869],"delta_lng":[0,-207,1860,5930,276,-171]}},
    {"code":2800208,"id":"d9a155","name":"大手町(東京)","name_kana":"おおてまち","lat":35.686563,"lng":139.766193,"prefecture":13,"lines":[28002,28004,28005,28008,99303],"attr":"heat","postal_code":"100-0004","address":"千代田区大手町１丁目","next":[100201,2800109,1130223,2800108,2800408,2800511,2800207],"voronoi":{"lat":35.691631,"lng":139.762825,"delta_lat":[0,-5120,-2493,-101,727,2846,3634],"delta_lng":[0,-2239,3225,5797,445,-207,-3767]}},
    {"code":1130223,"id":"d0d7ec","name":"神田(東京)","name_kana":"かんだ","lat":35.691173,"lng":139.770641,"prefecture":13,"lines":[11302,11312,11332,28001],"attr":"heat","postal_code":"101-0044","address":"東京都千代田区鍛冶町二丁目13-1","open_date":"1919-03-01","next":[1131402,2800208,2800108,9930408,1130222,2800207],"voronoi":{"lat":35.691124,"lng":139.766079,"delta_lat":[0,-3634,1348,3719,2340,153],"delta_lng":[0,3767,1860,2213,-1953,-431]}},
    {"code":2800309,"left":2800810,"right":9930410,"id":"ab81cc","name":"人形町","name_kana":"にんぎょうちょう","lat":35.686307,"lng":139.782285,"prefecture":13,"lines":[28003,99302],"attr":"eco","postal_code":"103-0013","address":"中央区日本橋人形町２-６-５","next":[2800108,2800308,2800310,2800109,9930215,2800810,9930410,9930409],"voronoi":{"lat":35.688702,"lng":139.784734,"delta_lat":[0,-2601,-3310,1361,373,1869,2924,-210],"delta_lng":[0,979,-3880,-3912,-180,171,3362,2530]}},
    {"code":2800810,"id":"1bc8b0","name":"水天宮前","name_kana":"すいてんぐうまえ","lat":35.682683,"lng":139.785377,"prefecture":13,"lines":[28008],"attr":"heat","postal_code":"103-0014","address":"中央区日本橋蛎殻町２-１-１","next":[2800811,2800310,2800412,2800309,9930410,1132603],"voronoi":{"lat":35.678417,"lng":139.791943,"delta_lat":[0,4622,3061,-3310,-8703,1024],"delta_lng":[0,198,-6429,-3880,4748,2057]}},
    {"code":9930410,"id":"7e0242","name":"浜町","name_kana":"はまちょう","lat":35.688516,"lng":139.788154,"prefecture":13,"lines":[99304],"attr":"cool","postal_code":"103-0007","address":"中央区日本橋浜町２-５９-３","next":[1131321,2800309,2800810,2800811,9930215,9930114],"voronoi":{"lat":35.683284,"lng":139.792288,"delta_lat":[0,-245,3061,2601,4365,-2344],"delta_lng":[0,-147,-6429,-979,4728,3292]}},
    {"code":1131422,"left":1131336,"right":2800420,"id":"1efac6","name":"横芝","name_kana":"よこしば","lat":35.661739,"lng":140.490736,"prefecture":12,"lines":[11314],"attr":"heat","postal_code":"289-1732","address":"山武郡横芝光町横芝","next":[9932402,1131426,1131424,1131421,1132414,1131423],"voronoi":{"lat":35.452876,"lng":140.660266,"delta_lat":[0,-35335,9898,271241,29461,-184901],"delta_lng":[0,12924,-27346,-210282,29778,139876]}},
    {"code":1131336,"left":2800623,"right":9933204,"id":"b3e1bd","name":"新検見川","name_kana":"しんけみがわ","lat":35.65169,"lng":140.073025,"prefecture":12,"lines":[11313],"attr":"cool","postal_code":"262-0022","address":"千葉市花見川区南花園","next":[1131337,2300129,9933206,2300404,1131335,1132615,2300128,1132616,2300405],"voronoi":{"lat":35.665179,"lng":140.09808,"delta_lat":[0,5231,1960,-2839,-1316,-26254,-1523,211,13982],"delta_lng":[0,1035,-5445,-21079,-671,-3389,1552,4627,15581]}},
    {"code":2800623,"left":1132607,"right":1132614,"id":"8b5b5b","name":"辰巳","name_kana":"たつみ","lat":35.645576,"lng":139.81052,"prefecture":13,"lines":[28006],"attr":"cool","postal_code":"135-0053","address":"東京都江東区辰巳一丁目1-44","open_date":"1988-06-08","next":[9933702,1132605,2800622,1132604],"voronoi":{"lat":35.65576,"lng":139.806963,"delta_lat":[0,-6318,-22401,22553],"delta_lng":[0,-4121,16783,-796]}},
    {"code":1132607,"left":9933702,"right":9934501,"id":"f27187","name":"舞浜","name_kana":"まいはま","lat":35.636115,"lng":139.883714,"prefecture":12,"lines":[11326],"attr":"cool","postal_code":"279-0031","address":"浦安市舞浜","next":[9934502,2800418,2800417,9934501,9934503],"voronoi":{"lat":35.649669,"lng":139.892714,"delta_lat":[0,2692,-1527,-20005,-80],"delta_lng":[0,-8468,-3721,884,89]}},
    {"code":9933702,"left":9934502,"right":1132606,"id":"a25021","name":"東雲(東京)","name_kana":"しののめ","lat":35.640987,"lng":139.804395,"prefecture":13,"lines":[99337],"attr":"cool","postal_code":"135-0062","address":"江東区東雲２-８-１０","next":[9931113,2800623,9931115,1132605,9931111,2800622,9931112],"voronoi":{"lat":35.602257,"lng":139.825211,"delta_lat":[0,24783,22401,-2736,-3257,-1689,-15441],"delta_lng":[0,-5586,-16783,-4652,-1749,111,8870]}},
    {"code":9934502,"left":9934503,"id":"1a7596","name":"東京ディズニーランド・ステーション","name_kana":"とうきょうでぃずにーらんど・すてーしょん","lat":35.635891,"lng":139.878646,"prefecture":12,"lines":[99345],"attr":"eco","postal_code":"279-0031","address":"千葉県浦安市舞浜","next":[1132607,9934503,1132606,2800417],"voronoi":{"lat":35.630829,"lng":139.881409,"delta_lat":[0,3931,14784,1290],"delta_lng":[0,-13993,7342,5767]}},
    {"code":9934503,"id":"a3079b","name":"ベイサイド・ステーション","name_kana":"べいさいど・すてーしょん","lat":35.627947,"lng":139.876414,"prefecture":12,"lines":[99345],"attr":"cool","postal_code":"279-0031","address":"千葉県浦安市舞浜","next":[9934501,9934504,9934502,9933610,1132606,1132607,1132605],"voronoi":{"lat":35.634761,"lng":139.867415,"delta_lat":[0,-3931,-80,-1785,-93280,52076,24677],"delta_lng":[0,13993,89,1498,-3951,-45468,9176]}},
    {"code":1132606,"id":"b1579e","name":"葛西臨海公園","name_kana":"かさいりんかいこうえん","lat":35.644392,"lng":139.861529,"prefecture":13,"lines":[11326],"attr":"cool","postal_code":"134-0086","address":"江戸川区臨海町６丁目","next":[9934503,2800416,9934502,1132605,2800417],"voronoi":{"lat":35.655042,"lng":139.86512,"delta_lat":[0,-2273,-40331,22323,14784],"delta_lng":[0,-20264,-2103,24663,7342]}},
    {"code":9934501,"left":9934504,"right":1132615,"id":"3f5f8e","name":"リゾートゲートウェイ・ステーション","name_kana":"りぞーとげーとうぇい・すてーしょん","lat":35.635269,"lng":139.885141,"prefecture":12,"lines":[99345],"attr":"eco","postal_code":"279-0031","address":"千葉県浦安市舞浜","next":[2800418,9934503,9934504,1132607,1132608],"voronoi":{"lat":35.628964,"lng":139.882996,"delta_lat":[0,1785,18920,-715,-10231],"delta_lng":[0,-1498,11216,2723,5321]}},
    {"code":9934504,"id":"3f22f3","name":"東京ディズニーシー・ステーション","name_kana":"とうきょうでぃずにーしー・すてーしょん","lat":35.627394,"lng":139.889468,"prefecture":12,"lines":[99345],"attr":"cool","postal_code":"279-0031","address":"千葉県浦安市舞浜","next":[9934503,9934501,9933610,1132508,1132608,9933608,1132509,1132507],"voronoi":{"lat":35.552181,"lng":139.964811,"delta_lat":[0,-19480,-13849,13705,3128,93280,9759,-76771],"delta_lng":[0,-32555,-39555,-11294,-2362,3951,17762,73602]}},
    {"code":1132615,"id":"bb2660","name":"検見川浜","name_kana":"けみがわはま","lat":35.637291,"lng":140.058888,"prefecture":12,"lines":[11326],"attr":"heat","postal_code":"261-0011","address":"千葉市美浜区真砂４丁目","next":[1132507,1131335,1132616,2300404,1132506,1132614,1131336],"voronoi":{"lat":35.641962,"lng":140.068532,"delta_lat":[0,6287,-105,-84614,-2139,3106,75942],"delta_lng":[0,-12317,-2344,-55252,19802,12604,39059]}},
    {"code":1132614,"left":2800622,"right":1131335,"id":"ea1820","name":"海浜幕張","name_kana":"かいひんまくはり","lat":35.648373,"lng":140.041917,"prefecture":12,"lines":[11326],"attr":"heat","postal_code":"261-0021","address":"千葉市美浜区ひび野","next":[1132613,2300402,1132507,2300403,1131335,1132615,1132608],"voronoi":{"lat":35.660555,"lng":140.02913,"delta_lat":[0,-105,-8509,-3797,-84614,22,16472],"delta_lng":[0,14576,7545,2620,-55252,-22145,147]}},
    {"code":2800622,"left":1132608,"right":1132604,"id":"21bab1","name":"豊洲","name_kana":"とよす","lat":35.654908,"lng":139.79621,"prefecture":13,"lines":[28006,99311],"attr":"cool","postal_code":"135-0061","address":"東京都江東区豊洲四丁目1-1","open_date":"1988-06-08","next":[1132604,2800623,2800621,2800413,9931115,1132603,9933702],"voronoi":{"lat":35.646706,"lng":139.798191,"delta_lat":[0,10359,3340,2623,-4532,-2736,-6318],"delta_lng":[0,-10319,2779,9778,6044,491,-4121]}},
    {"code":1132608,"left":1132605,"id":"0f32e4","name":"新浦安","name_kana":"しんうらやす","lat":35.649526,"lng":139.912553,"prefecture":12,"lines":[11326],"attr":"cool","postal_code":"279-0012","address":"浦安市入船１丁目","next":[1132613,1132609,2800418,1132507,9934504,9934501,1132614,2800419],"voronoi":{"lat":35.625024,"lng":139.968625,"delta_lat":[0,-45001,-16472,-1599,76771,10231,10952,2781],"delta_lng":[0,7995,-147,-2114,-73602,-5321,9282,6290]}},
    {"code":1132605,"id":"369de7","name":"新木場","name_kana":"しんきば","lat":35.646172,"lng":139.827402,"prefecture":13,"lines":[11326,28006,99337],"attr":"cool","postal_code":"136-0082","address":"東京都江東区新木場一丁目5","open_date":"1988-06-08","next":[9931111,2800623,1132604,9933702,2800416,9934503,2800415,1132606,9933610],"voronoi":{"lat":35.612438,"lng":139.842752,"delta_lat":[0,40331,2665,2095,-7935,-22553,-24783,-13513,-984],"delta_lng":[0,2103,-1543,-14599,-9884,796,5586,5982,2383]}},
    {"code":1132604,"id":"7f6c1f","name":"潮見","name_kana":"しおみ","lat":35.658702,"lng":139.817341,"prefecture":13,"lines":[11326],"attr":"cool","postal_code":"135-0052","address":"江東区潮見２丁目","next":[2800622,1132605,2800414,2800623,2800415,2800413],"voronoi":{"lat":35.658495,"lng":139.806472,"delta_lat":[0,-2736,-6166,7935,6489,265],"delta_lng":[0,491,11866,9884,-4922,-11335]}},
    {"code":1131335,"left":2300404,"right":2300403,"id":"4f78ae","name":"幕張","name_kana":"まくはり","lat":35.6594,"lng":140.057899,"prefecture":12,"lines":[11313],"attr":"cool","postal_code":"262-0032","address":"千葉市花見川区幕張町５丁目","next":[1132615,2300403,1132614,2300128,1131336,2300404],"voronoi":{"lat":35.669532,"lng":140.072591,"delta_lat":[0,2739,-20330,-3797,105,19967],"delta_lng":[0,-7236,-14105,2620,2344,15706]}},
    {"code":2300404,"id":"f410b0","name":"検見川","name_kana":"けみがわ","lat":35.652512,"lng":140.066656,"prefecture":12,"lines":[23004],"attr":"heat","postal_code":"262-0023","address":"千葉市花見川区検見川町１-７９１","next":[1132615,1131336,1131335],"voronoi":{"lat":35.648248,"lng":140.056215,"delta_lat":[0,-6287,26254],"delta_lng":[0,12317,3389]}},
    {"code":2300403,"id":"3e44b0","name":"京成幕張","name_kana":"けいせいまくはり","lat":35.66078,"lng":140.05591,"prefecture":12,"lines":[23004],"attr":"cool","postal_code":"262-0032","address":"千葉市花見川区幕張町４-６０１","next":[1131334,2300127,1131335,1132614,2300402,2300128],"voronoi":{"lat":35.651941,"lng":140.05125,"delta_lat":[0,8509,4747,9207,917,-3050],"delta_lng":[0,-7545,4044,8004,3178,6424]}},
    {"code":9933204,"left":9933210,"right":9933207,"id":"eca174","name":"天台","name_kana":"てんだい","lat":35.631447,"lng":140.112902,"prefecture":12,"lines":[99332],"attr":"cool","postal_code":"263-0016","address":"千葉市稲毛区天台１-１０９５-２","next":[1131338,9933203,9933207,1131337,2300406,9933206,9933205],"voronoi":{"lat":35.634305,"lng":140.102717,"delta_lat":[0,-134,-2227,-5603,6163,3207,583],"delta_lng":[0,-38,928,5159,14413,-2850,-2129]}},
    {"code":9933210,"left":9933203,"right":9933211,"id":"52fcfc","name":"桜木(千葉)","name_kana":"さくらぎ","lat":35.631308,"lng":140.160935,"prefecture":12,"lines":[99332],"attr":"eco","postal_code":"264-0028","address":"千葉市若葉区桜木町３３５-４","next":[1131413,2300502,1131412,2300503,9933211,1131411],"voronoi":{"lat":35.611832,"lng":140.146155,"delta_lat":[0,35504,-1440,-39119,2505,1578],"delta_lng":[0,14489,11076,-12707,-10244,-2254]}},
    {"code":9933203,"left":1131338,"right":1132616,"id":"416505","name":"作草部","name_kana":"さくさべ","lat":35.625806,"lng":140.115314,"prefecture":12,"lines":[99332],"attr":"cool","postal_code":"263-0015","address":"千葉市稲毛区作草部２-１-１９","next":[1131338,9933204,1131411,9933207,9933202,9933208],"voronoi":{"lat":35.630752,"lng":140.126083,"delta_lat":[0,1752,-6163,-6259,6506,1811],"delta_lng":[0,-2904,-14413,1655,14921,2292]}},
    {"code":1131338,"left":2300406,"id":"0922b3","name":"西千葉","name_kana":"にしちば","lat":35.622639,"lng":140.103337,"prefecture":12,"lines":[11313],"attr":"cool","postal_code":"260-0033","address":"千葉市中央区春日２丁目","next":[9933204,2300408,9933203,1131339,9933202,2300406,2300407],"voronoi":{"lat":35.620553,"lng":140.099078,"delta_lat":[0,11392,-5603,-6259,-249,-37,-368],"delta_lng":[0,4529,5159,1655,-49,-35,-719]}},
    {"code":2300406,"id":"d233da","name":"みどり台","name_kana":"みどりだい","lat":35.624994,"lng":140.097413,"prefecture":12,"lines":[23004],"attr":"eco","postal_code":"263-0023","address":"千葉市稲毛区緑町１-７-１","next":[2300405,1132616,1132617,2300407,1131338,1131337,9933204],"voronoi":{"lat":35.620553,"lng":140.099078,"delta_lat":[0,-7607,-1734,14574,2726,5660,-2227],"delta_lng":[0,-10418,-6027,2809,2928,14309,928]}},
    {"code":1132616,"id":"5833f4","name":"稲毛海岸","name_kana":"いなげかいがん","lat":35.629501,"lng":140.074034,"prefecture":12,"lines":[11326],"attr":"heat","postal_code":"261-0004","address":"千葉市美浜区高洲３丁目","next":[1132617,2300406,1132506,2300405,1132615,1131336],"voronoi":{"lat":35.640439,"lng":140.070083,"delta_lat":[0,-75942,2267,44448,14574,14864],"delta_lng":[0,-39059,17055,34553,2809,-10731]}},
    {"code":9933211,"left":9933212,"right":1131419,"id":"f3338d","name":"小倉台","name_kana":"おぐらだい","lat":35.627755,"lng":140.171873,"prefecture":12,"lines":[99332],"attr":"eco","postal_code":"264-0006","address":"千葉市若葉区小倉台４-１７３１-１","next":[1131413,9933212,9933213,9933210,2300503],"voronoi":{"lat":35.606777,"lng":140.159012,"delta_lat":[0,39119,1139,-33461,-13523],"delta_lng":[0,12707,5817,-1057,-4409]}},
    {"code":9933212,"id":"83947f","name":"千城台北","name_kana":"ちしろだいきた","lat":35.627436,"lng":140.181972,"prefecture":12,"lines":[99332],"attr":"eco","postal_code":"264-0005","address":"千葉市若葉区千城台北１-２-２","next":[1131413,9933211,1131414,9933213],"voronoi":{"lat":35.613574,"lng":140.17648,"delta_lat":[0,33461,8328,-3554],"delta_lng":[0,1057,17355,11314]}},
    {"code":1131419,"id":"b01c2e","name":"日向","name_kana":"ひゅうが","lat":35.628402,"lng":140.362447,"prefecture":12,"lines":[11314],"attr":"heat","postal_code":"289-1205","address":"山武市椎崎","next":[1131421,1133102,1131420,1131418,1133103,1133104,9932402],"voronoi":{"lat":35.668388,"lng":140.407113,"delta_lat":[0,-63264,-10796,-728,5720,93399,-8706],"delta_lng":[0,-26400,-15471,-38340,-22896,72053,29800]}},
    {"code":9933207,"left":9933205,"right":1131412,"id":"f635fd","name":"動物公園","name_kana":"どうぶつこうえん","lat":35.642585,"lng":140.125437,"prefecture":12,"lines":[99332],"attr":"heat","postal_code":"264-0037","address":"千葉市若葉区源町４０７-７","next":[2300130,2300131,9933204,9933208,9933203,9933206,1131413],"voronoi":{"lat":35.630752,"lng":140.126083,"delta_lat":[0,1752,3207,43187,135,-70,-15305],"delta_lng":[0,-2904,-2850,2681,559,8264,7799]}},
    {"code":9933205,"left":1131337,"right":9933206,"id":"25e20b","name":"穴川(千葉)","name_kana":"あながわ","lat":35.639645,"lng":140.111849,"prefecture":12,"lines":[99332],"attr":"cool","postal_code":"263-0024","address":"千葉市稲毛区穴川７９-１","next":[9933206,1131337,9933204],"voronoi":{"lat":35.634305,"lng":140.102717,"delta_lat":[0,24381,-22392],"delta_lng":[0,-3009,18492]}},
    {"code":1131337,"left":2300405,"id":"d2ca15","name":"稲毛","name_kana":"いなげ","lat":35.637264,"lng":140.09256,"prefecture":12,"lines":[11313,11314],"attr":"cool","postal_code":"263-0031","address":"千葉市稲毛区稲毛東３丁目","next":[9933206,1131336,2300406,9933204,2300405,9933205],"voronoi":{"lat":35.634171,"lng":140.102678,"delta_lat":[0,-5660,26120,10548,-6493,-24381],"delta_lng":[0,-14309,1922,7789,1627,3009]}},
    {"code":2300405,"id":"677596","name":"京成稲毛","name_kana":"けいせいいなげ","lat":35.637783,"lng":140.085505,"prefecture":12,"lines":[23004],"attr":"heat","postal_code":"263-0034","address":"千葉市稲毛区稲毛３-１-１７","next":[2300406,1132616,1131337,1131336],"voronoi":{"lat":35.640649,"lng":140.07471,"delta_lat":[0,-14864,2726,26120],"delta_lng":[0,10731,2928,1922]}},
    {"code":9933206,"id":"8d8f25","name":"スポーツセンター","name_kana":"すぽーつせんたー","lat":35.643164,"lng":140.11611,"prefecture":12,"lines":[99332],"attr":"cool","postal_code":"263-0016","address":"千葉市稲毛区天台６-２１２-６","next":[2300130,1131337,9933205,1131336,9933207,9933204,2300129],"voronoi":{"lat":35.678898,"lng":140.12301,"delta_lat":[0,-43187,583,22392,6493,5231,7871],"delta_lng":[0,-2681,-2129,-18492,-1627,1035,18233]}},
    {"code":1131412,"left":1131421,"right":9933208,"id":"10343a","name":"都賀","name_kana":"つが","lat":35.636088,"lng":140.149222,"prefecture":12,"lines":[11314,99332],"attr":"cool","postal_code":"264-0025","address":"千葉市若葉区都賀３丁目","next":[9933208,9933210,1131411,1131413],"voronoi":{"lat":35.611832,"lng":140.146155,"delta_lat":[0,9849,34633,-8978],"delta_lng":[0,-6967,6304,15152]}},
    {"code":1131421,"id":"c9271f","name":"松尾(千葉)","name_kana":"まつお","lat":35.63604,"lng":140.457587,"prefecture":12,"lines":[11314],"attr":"heat","postal_code":"289-1523","address":"山武市松尾町五反田","next":[1133104,1131419,1131420,9932402,1131422,1132414],"voronoi":{"lat":35.69868,"lng":140.435561,"delta_lat":[0,-14667,-15625,-105801,-114954,-20194],"delta_lng":[0,-29702,1254,61342,105143,72245]}},
    {"code":9933208,"id":"7c4aeb","name":"みつわ台","name_kana":"みつわだい","lat":35.6387,"lng":140.134873,"prefecture":12,"lines":[99332],"attr":"heat","postal_code":"264-0032","address":"千葉市若葉区みつわ台３-２８","next":[1131412,1131411,1131413,9933207,9933203],"voronoi":{"lat":35.621681,"lng":140.139187,"delta_lat":[0,34633,7345,-32906,-2353],"delta_lng":[0,6304,-5860,-13549,1551]}},
    {"code":2800420,"left":2800811,"right":1131417,"id":"f63910","name":"行徳","name_kana":"ぎょうとく","lat":35.682686,"lng":139.914254,"prefecture":12,"lines":[28004],"attr":"eco","postal_code":"272-0133","address":"市川市行徳駅前２-４-１","next":[9930419,1132609,2800419,2800421,9930420],"voronoi":{"lat":35.678701,"lng":139.925951,"delta_lat":[0,-7268,12310,11252,675],"delta_lng":[0,-12433,-10306,7188,1491]}},
    {"code":2800811,"left":2800416,"right":9930415,"id":"54a571","name":"清澄白河","name_kana":"きよすみしらかわ","lat":35.682105,"lng":139.798851,"prefecture":13,"lines":[28008,99301],"attr":"cool","postal_code":"135-0021","address":"江東区白河１-７-１４","next":[2800810,2800412,9930410,9930114,2800413,9930412],"voronoi":{"lat":35.675624,"lng":139.802785,"delta_lat":[0,2793,4622,245,2884,-7227],"delta_lng":[0,-10841,198,147,9334,6328]}},
    {"code":2800416,"left":2800414,"right":2800418,"id":"646eff","name":"西葛西","name_kana":"にしかさい","lat":35.664631,"lng":139.859259,"prefecture":13,"lines":[28004],"attr":"cool","postal_code":"134-0088","address":"江戸川区西葛西６-１４-１","next":[9930417,2800415,9930416,1132605,1132606,2800417],"voronoi":{"lat":35.655042,"lng":139.86512,"delta_lat":[0,-2273,2665,18657,2808,-3944],"delta_lng":[0,-20264,-1543,2716,5433,15120]}},
    {"code":2800414,"left":2800415,"right":2800412,"id":"d8a42d","name":"東陽町","name_kana":"とうようちょう","lat":35.669629,"lng":139.817596,"prefecture":13,"lines":[28004],"attr":"heat","postal_code":"135-0016","address":"江東区東陽４-２-１","next":[2800413,1132604,2800814,2800415,9930414],"voronoi":{"lat":35.679799,"lng":139.82119,"delta_lat":[0,-898,-14619,-265,14249],"delta_lng":[0,-9119,385,11335,909]}},
    {"code":2800415,"left":2800413,"id":"ad768b","name":"南砂町","name_kana":"みなみすなまち","lat":35.668796,"lng":139.83065,"prefecture":13,"lines":[28004],"attr":"cool","postal_code":"136-0076","address":"江東区南砂３-１１-８５","next":[9930416,2800416,9930414,2800414,9930415,1132604,1132605],"voronoi":{"lat":35.657529,"lng":139.828713,"delta_lat":[0,6489,14249,1472,-2333,-3315,-18657],"delta_lng":[0,-4922,909,6810,9851,4667,-2716]}},
    {"code":2800413,"id":"bb0a81","name":"木場","name_kana":"きば","lat":35.669351,"lng":139.807042,"prefecture":13,"lines":[28004],"attr":"heat","postal_code":"135-0042","address":"江東区木場５-５-１","next":[2800412,2800414,2800622,2800811,9930412,1132603,2800814,1132604],"voronoi":{"lat":35.658495,"lng":139.806472,"delta_lat":[0,4532,1675,10922,3317,194,-234,-14619],"delta_lng":[0,-6044,-164,2520,5166,3587,534,385]}},
    {"code":2800412,"id":"8ff791","name":"門前仲町","name_kana":"もんぜんなかちょう","lat":35.671851,"lng":139.796209,"prefecture":13,"lines":[28004,99301],"attr":"heat","postal_code":"135-0048","address":"江東区門前仲町１丁目","next":[2800413,2800810,2800811,1132603],"voronoi":{"lat":35.675624,"lng":139.802785,"delta_lat":[0,2793,-3306,-10409],"delta_lng":[0,-10841,-3306,11627]}},
    {"code":2800418,"left":2800417,"right":2800419,"id":"d772ed","name":"浦安(千葉)","name_kana":"うらやす","lat":35.665932,"lng":139.893193,"prefecture":12,"lines":[28004],"attr":"eco","postal_code":"279-0002","address":"浦安市北栄１-１３-１","next":[9934501,1132608,1132607,2800419,9930418,2800417],"voronoi":{"lat":35.649669,"lng":139.892714,"delta_lat":[0,-715,10952,17840,-4897,-20488],"delta_lng":[0,2723,9282,-13217,-9606,2350]}},
    {"code":2800417,"id":"9e9cdc","name":"葛西","name_kana":"かさい","lat":35.663554,"lng":139.872458,"prefecture":13,"lines":[28004],"attr":"cool","postal_code":"134-0083","address":"江戸川区中葛西５-４３-１１","next":[1132607,9930417,2800418,9930418,9934502,2800416,1132606],"voronoi":{"lat":35.650835,"lng":139.880524,"delta_lat":[0,1527,20488,3374,-3269,-17913,-5497],"delta_lng":[0,3721,-2350,-7246,-8068,-1462,9638]}},
    {"code":2800419,"id":"1bfffe","name":"南行徳","name_kana":"みなみぎょうとく","lat":35.672687,"lng":139.902311,"prefecture":12,"lines":[28004],"attr":"eco","postal_code":"272-0143","address":"市川市相之川４-１７-１","next":[2800418,2800420,9930419,1132609,9930418,1132608],"voronoi":{"lat":35.671433,"lng":139.913518,"delta_lat":[0,12310,-2048,-3949,-17840,2781],"delta_lng":[0,-10306,-8985,-2725,13217,6290]}},
    {"code":9930415,"left":2800814,"right":9930418,"id":"8e56ca","name":"大島(東京)","name_kana":"おおじま","lat":35.689905,"lng":139.83565,"prefecture":13,"lines":[99304],"attr":"eco","postal_code":"136-0072","address":"江東区大島５-１０-８","next":[9930414,9930416,1131323,2100504,2800415],"voronoi":{"lat":35.696268,"lng":139.840539,"delta_lat":[0,-2009,-944,-13577,-2333],"delta_lng":[0,-9079,-749,800,9851]}},
    {"code":2800814,"left":9930412,"right":9930414,"id":"d1dfd5","name":"住吉(東京)","name_kana":"すみよし","lat":35.689073,"lng":139.815681,"prefecture":13,"lines":[28008,99304],"attr":"cool","postal_code":"135-0002","address":"江東区住吉２-２３-１２","next":[9930414,1131322,9930412,2800414,2800413,1131323],"voronoi":{"lat":35.679799,"lng":139.82119,"delta_lat":[0,-898,234,12942,1945,-638],"delta_lng":[0,-9119,-534,-930,9728,499]}},
    {"code":9930412,"left":9930114,"id":"25acb3","name":"菊川(東京)","name_kana":"きくかわ","lat":35.688379,"lng":139.806016,"prefecture":13,"lines":[99304],"attr":"cool","postal_code":"130-0024","address":"墨田区菊川３-１６-２","next":[9930114,1131321,2800814,9930219,2800413,2800811,1131322],"voronoi":{"lat":35.698393,"lng":139.804057,"delta_lat":[0,-50,-3610,-8564,-7227,194,12942],"delta_lng":[0,-725,-2110,400,6328,3587,-930]}},
    {"code":9930114,"id":"6cdbab","name":"森下(東京)","name_kana":"もりした","lat":35.68796,"lng":139.797042,"prefecture":13,"lines":[99301,99304],"attr":"eco","postal_code":"135-0004","address":"江東区森下２-１７-１７","next":[9930412,1131321,2800811,9930410],"voronoi":{"lat":35.694733,"lng":139.801223,"delta_lat":[0,-8564,-2884,7438],"delta_lng":[0,400,-9334,465]}},
    {"code":9930414,"id":"f58adc","name":"西大島","name_kana":"にしおおじま","lat":35.689349,"lng":139.826206,"prefecture":13,"lines":[99304],"attr":"eco","postal_code":"136-0072","address":"江東区大島２-４１-１９","next":[2800814,9930415,2800415,2800414,1131323],"voronoi":{"lat":35.693385,"lng":139.820834,"delta_lat":[0,-13585,-1533,1472,13577],"delta_lng":[0,356,3510,6810,-800]}},
    {"code":9930418,"left":9930417,"right":9930416,"id":"1e80e3","name":"一之江","name_kana":"いちのえ","lat":35.686055,"lng":139.882934,"prefecture":13,"lines":[99304],"attr":"eco","postal_code":"134-0003","address":"江戸川区春江町４-２","next":[9930420,2800418,1131325,1131326,2800419,2800417,9930417,9930419],"voronoi":{"lat":35.677746,"lng":139.891502,"delta_lat":[0,-4897,3374,26174,7182,0,-282,-27602],"delta_lng":[0,-9606,-7246,-3168,8807,7,271,13660]}},
    {"code":9930417,"id":"2b3ad2","name":"船堀","name_kana":"ふなぼり","lat":35.683795,"lng":139.864258,"prefecture":13,"lines":[99304],"attr":"eco","postal_code":"134-0091","address":"江戸川区船堀３-６-１","next":[2800416,9930416,2800417,1131325,9930418],"voronoi":{"lat":35.702397,"lng":139.871482,"delta_lat":[0,-2290,-23209,-3944,3269],"delta_lng":[0,-11698,-8322,15120,8068]}},
    {"code":9930416,"id":"66328e","name":"東大島","name_kana":"ひがしおおじま","lat":35.690355,"lng":139.845963,"prefecture":13,"lines":[99304],"attr":"eco","postal_code":"136-0072","address":"江東区大島９-３-１４","next":[2800415,1131324,2800416,2100504,9930417,9930415,1131325],"voronoi":{"lat":35.701404,"lng":139.856871,"delta_lat":[0,-3558,-1577,-18863,-3315,2808,23209],"delta_lng":[0,-15122,-1210,823,4667,5433,8322]}},
    {"code":1131417,"left":2300402,"right":2300127,"id":"cd0c99","name":"榎戸(千葉)","name_kana":"えのきど","lat":35.683967,"lng":140.288136,"prefecture":12,"lines":[11314],"attr":"cool","postal_code":"289-1106","address":"八街市榎戸","next":[1131418,9933213,1132702,1131416,1131414,2300139],"voronoi":{"lat":35.71931,"lng":140.324249,"delta_lat":[0,-7777,-51805,-14798,-29249,102715],"delta_lng":[0,-28876,-51657,-285,18109,73032]}},
    {"code":2300402,"left":1132612,"right":1131418,"id":"f1eeac","name":"京成幕張本郷","name_kana":"けいせいまくはりほんごう","lat":35.672551,"lng":140.042091,"prefecture":12,"lines":[23004],"attr":"cool","postal_code":"262-0033","address":"千葉市花見川区幕張本郷１-１-３","open_date":"1991-08-07","next":[1132614,1132613,1131334,2300126,2300403],"voronoi":{"lat":35.681374,"lng":140.035562,"delta_lat":[0,-12361,-8458,-105,4747],"delta_lng":[0,-7938,1505,14576,4044]}},
    {"code":1132612,"left":1132613,"right":2300126,"id":"53d30e","name":"南船橋","name_kana":"みなみふなばし","lat":35.681804,"lng":139.995773,"prefecture":12,"lines":[11305,11326],"attr":"cool","postal_code":"273-0013","address":"船橋市若松２丁目","next":[1132611,2300124,2300123,1132609,1132613,2300125],"voronoi":{"lat":35.632433,"lng":139.96856,"delta_lat":[0,10670,38615,5470,-2789,-9810],"delta_lng":[0,-2257,10087,15294,9780,2850]}},
    {"code":1132613,"left":1132609,"id":"cc75ed","name":"新習志野","name_kana":"しんならしの","lat":35.667342,"lng":140.012825,"prefecture":12,"lines":[11326],"attr":"cool","postal_code":"275-0024","address":"習志野市茜浜２丁目","next":[1132608,1132609,1132614,2300125,2300402,2300126,1132612],"voronoi":{"lat":35.632433,"lng":139.96856,"delta_lat":[0,-7409,-45001,80531,8458,8838,-3261],"delta_lng":[0,66,7995,52509,-1505,-12006,-11305]}},
    {"code":1132609,"id":"dd432f","name":"市川塩浜","name_kana":"いちかわしおはま","lat":35.666554,"lng":139.923684,"prefecture":12,"lines":[11326],"attr":"cool","postal_code":"272-0127","address":"市川市塩浜２丁目","next":[1132613,1132608,1132611,2800420,1132612,2800419,2800421],"voronoi":{"lat":35.643103,"lng":139.966302,"delta_lat":[0,-10670,-7409,37663,8746,7268,-346],"delta_lng":[0,2257,66,-57617,2509,12433,16039]}},
    {"code":2300126,"id":"28818e","name":"京成津田沼","name_kana":"けいせいつだぬま","lat":35.68364,"lng":140.024823,"prefecture":12,"lines":[23001,23004,99329],"attr":"heat","postal_code":"275-0016","address":"習志野市津田沼３-１-１","next":[1131334,2300125,2300127,1132613,2300402,1131333,9932902],"voronoi":{"lat":35.686284,"lng":140.020472,"delta_lat":[0,-2586,-5848,-8838,12361,2067,5454],"delta_lng":[0,-4302,-551,12006,7938,1302,-544]}},
    {"code":1131418,"left":1131413,"right":1131334,"id":"f1b558","name":"八街","name_kana":"やちまた","lat":35.663228,"lng":140.317304,"prefecture":12,"lines":[11314],"attr":"cool","postal_code":"289-1115","address":"八街市八街ほ","next":[1131417,1132406,1133102,2300139,1131419,9933213,9932402,1132705],"voronoi":{"lat":35.692719,"lng":140.37606,"delta_lat":[0,-93399,-2226,10523,8065,102715,1582,-11247],"delta_lng":[0,-72053,-10593,-29310,-2563,73032,6866,16829]}},
    {"code":1131413,"id":"0881c9","name":"四街道","name_kana":"よつかいどう","lat":35.662756,"lng":140.165023,"prefecture":12,"lines":[11314,11328],"attr":"cool","postal_code":"284-0005","address":"四街道市四街道１丁目","next":[9933210,2300132,9933211,9933212,1131412,2300133,9933208,1131414,2300131,9933207],"voronoi":{"lat":35.656313,"lng":140.145491,"delta_lat":[0,-8978,-1440,1139,8328,38284,-1293,-8192,-5198,-15305],"delta_lng":[0,15152,11076,5817,17355,-24883,-8809,-22340,-7027,7799]}},
    {"code":1131334,"id":"7fb30c","name":"幕張本郷","name_kana":"まくはりほんごう","lat":35.672664,"lng":140.042241,"prefecture":12,"lines":[11313],"attr":"cool","postal_code":"262-0033","address":"千葉市花見川区幕張本郷１丁目","open_date":"1981-10-01","next":[2300126,2300403,2300127,2300402],"voronoi":{"lat":35.681374,"lng":140.035562,"delta_lat":[0,2067,-9037,-9207],"delta_lng":[0,1302,18889,-8004]}},
    {"code":2300127,"left":9932902,"right":1131414,"id":"ea62e9","name":"京成大久保","name_kana":"けいせいおおくぼ","lat":35.686016,"lng":140.048629,"prefecture":12,"lines":[23001],"attr":"heat","postal_code":"275-0012","address":"習志野市本大久保３-１０-１","next":[2300128,2300403,9932902,2300126,9932903,1131334,9932904,9932905],"voronoi":{"lat":35.67532,"lng":140.058932,"delta_lat":[0,-917,9037,5454,2511,5613,4677,1362],"delta_lng":[0,-3178,-18889,-544,420,3900,10284,6828]}},
    {"code":9932902,"left":2300125,"right":2800421,"id":"e2f955","name":"新津田沼","name_kana":"しんつだぬま","lat":35.690184,"lng":140.023745,"prefecture":12,"lines":[99329],"attr":"eco","postal_code":"275-0016","address":"習志野市津田沼１-１０-３５","next":[9932903,1131333,2300127,2300126],"voronoi":{"lat":35.686284,"lng":140.020472,"delta_lat":[0,9832,-4711,-2511],"delta_lng":[0,3262,13007,-420]}},
    {"code":2300125,"left":2300124,"id":"1729dc","name":"谷津","name_kana":"やつ","lat":35.685257,"lng":140.007658,"prefecture":12,"lines":[23001],"attr":"heat","postal_code":"275-0026","address":"習志野市谷津５-４-５","next":[2300124,1132613,2300126,1131333,1131332,1132612],"voronoi":{"lat":35.6844,"lng":140.001463,"delta_lat":[0,7941,1574,-10216,-5848,-3261],"delta_lng":[0,3574,6147,4985,-551,-11305]}},
    {"code":2300124,"id":"999f13","name":"船橋競馬場","name_kana":"ふなばしけいばじょう","lat":35.689606,"lng":139.997998,"prefecture":12,"lines":[23001],"attr":"heat","postal_code":"273-0003","address":"船橋市宮本８-４２-１","next":[2300125,2300123,1131332,1132612],"voronoi":{"lat":35.69234,"lng":140.005038,"delta_lat":[0,4179,-9331,-2789],"delta_lng":[0,-7189,-6165,9780]}},
    {"code":2800421,"id":"ad4799","name":"妙典","name_kana":"みょうでん","lat":35.690935,"lng":139.924209,"prefecture":12,"lines":[28004],"attr":"cool","postal_code":"272-0115","address":"市川市富浜１-２-１０","next":[9930420,1131328,1132611,2800420,1132609,2800422],"voronoi":{"lat":35.678356,"lng":139.941989,"delta_lat":[0,346,16969,10878,-768,-21031],"delta_lng":[0,-16039,-14060,7999,7189,14849]}},
    {"code":1131414,"left":1131423,"right":2300128,"id":"7be84d","name":"物井","name_kana":"ものい","lat":35.68566,"lng":140.200263,"prefecture":12,"lines":[11314],"attr":"cool","postal_code":"284-0012","address":"四街道市物井","next":[1131416,1131415,9933213,9933212,1131413,1131417,2300134,2300133],"voronoi":{"lat":35.712146,"lng":140.200345,"delta_lat":[0,-45590,-6828,-14798,6878,3554,38284,8119],"delta_lng":[0,41496,1876,-285,-37226,-11314,-24883,6682]}},
    {"code":1131423,"id":"beed11","name":"飯倉","name_kana":"いいぐら","lat":35.685638,"lng":140.522328,"prefecture":12,"lines":[11314],"attr":"heat","postal_code":"289-2147","address":"匝瑳市飯倉","next":[9932402,1131424,1131422],"voronoi":{"lat":35.72814,"lng":140.46534,"delta_lat":[0,55166,-240067],"delta_lng":[0,30744,109132]}},
    {"code":2300128,"id":"71d2e2","name":"実籾","name_kana":"みもみ","lat":35.686852,"lng":140.068289,"prefecture":12,"lines":[23001],"attr":"heat","postal_code":"275-0002","address":"習志野市実籾町１-１-１","next":[2300127,2300129,9933805,1131335,1131336,9933806,2300403,9932905],"voronoi":{"lat":35.703058,"lng":140.057752,"delta_lat":[0,-27737,-3050,-2739,2839,35511,232,-1724],"delta_lng":[0,1179,6424,7236,21079,-22908,-1885,-7410]}}
  ]
}