{
  "name":"segment61",
  "root":9910511,
  "east":141.676999,
  "west":140.490448,
  "south":40.71309,
  "north":42.797984,
  "station_size":145,
  "node_list":[
    {"code":9910511,"left":9910515,"right":9910504,"id":"0e86e0","name":"千代台","name_kana":"ちよがだい","lat":41.784257,"lng":140.748532,"prefecture":1,"lines":[99105,99106],"attr":"cool","postal_code":"040-0013","address":"函館市千代台町１６番","next":[9910507,1110102,9910512,9910510,9910509,9910508],"voronoi":{"lat":41.763613,"lng":140.761835,"delta_lat":[0,28206,1359,-2527,-11000,-8246],"delta_lng":[0,-23489,1750,3970,12659,3392]}},
    {"code":9910515,"left":1120264,"right":1111918,"id":"9ab459","name":"新川町(北海道)","original_name":"新川町","name_kana":"しんかわちょう","lat":41.77464,"lng":140.736601,"prefecture":1,"lines":[99105,99106],"attr":"heat","postal_code":"040-0032","address":"函館市新川町１番","next":[9910517,9910514,9910516,1110101],"voronoi":{"lat":41.776316,"lng":140.731677,"delta_lat":[0,-30934,39138,-5611],"delta_lng":[0,29042,-30157,513]}},
    {"code":1120264,"left":1111801,"right":9910520,"id":"fd22c6","name":"津軽新城","name_kana":"つがるしんじょう","lat":40.828022,"lng":140.672025,"prefecture":2,"lines":[11202],"attr":"cool","postal_code":"038-0042","address":"青森市大字新城","next":[1120502,1120503,100423,1120263],"voronoi":{"lat":40.860641,"lng":140.60292,"delta_lat":[0,-2309,-16967,-60174],"delta_lng":[0,53480,26680,-1464]}},
    {"code":1111801,"left":1120509,"right":1111913,"id":"ae7081","name":"中小国","name_kana":"なかおぐに","lat":41.051702,"lng":140.596798,"prefecture":2,"lines":[11118,11205],"attr":"cool","postal_code":"030-1305","address":"東津軽郡外ヶ浜町蟹田小国","next":[1120511,9920112,101102,1120508,1120509,1120513,1120510,9920107],"voronoi":{"lat":40.96828,"lng":140.565402,"delta_lat":[0,15476,33046,174061,-44714,-180672,-2903,-5097],"delta_lng":[0,17819,28191,51069,-51328,-68381,1618,5545]}},
    {"code":1120509,"left":1120510,"right":1120507,"id":"3e2cbe","name":"郷沢","name_kana":"ごうさわ","lat":40.987682,"lng":140.652399,"prefecture":2,"lines":[11205],"attr":"heat","postal_code":"030-1203","address":"東津軽郡蓬田村大字郷沢","next":[1111801,1120508,1120115,1120510],"voronoi":{"lat":40.993087,"lng":140.782087,"delta_lat":[0,-24808,15476,45009],"delta_lng":[0,-216685,17819,215310]}},
    {"code":1120510,"left":1120263,"right":1120511,"id":"27066a","name":"瀬辺地","name_kana":"せへじ","lat":41.007869,"lng":140.648179,"prefecture":2,"lines":[11205],"attr":"heat","postal_code":"030-1202","address":"東津軽郡蓬田村大字瀬辺地","next":[1120511,1120114,1111801,1120115,1120509],"voronoi":{"lat":40.983755,"lng":140.58322,"delta_lat":[0,33046,36923,-3742,-21218],"delta_lng":[0,28191,199974,-1268,-11587]}},
    {"code":1120263,"left":1120262,"id":"a5f6af","name":"鶴ヶ坂","name_kana":"つるがさか","lat":40.791228,"lng":140.634878,"prefecture":2,"lines":[11202],"attr":"cool","postal_code":"038-0045","address":"青森県青森市大字鶴ケ坂字川合91-3","next":[1120503,9920212,1120261,100423,9920104,1120264,1120262,9920608,9920105],"voronoi":{"lat":40.860641,"lng":140.60292,"delta_lat":[0,-79450,-44148,-48273,7769,27162,114690,11191,22067],"delta_lng":[0,78696,27329,5119,-25325,-40592,-83986,2786,9366]}},
    {"code":1120262,"id":"7603e0","name":"大釈迦","name_kana":"だいしゃか","lat":40.756736,"lng":140.587776,"prefecture":2,"lines":[11202],"attr":"eco","postal_code":"038-1301","address":"青森市浪岡大釈迦","next":[1120440,1120263,9920104,9920103,1120261],"voronoi":{"lat":40.838392,"lng":140.564161,"delta_lat":[0,-19709,-65236,-9677,-20068],"delta_lng":[0,-13325,-38541,4569,131283]}},
    {"code":1120511,"id":"50628d","name":"蟹田","name_kana":"かにた","lat":41.038274,"lng":140.642565,"prefecture":2,"lines":[11205],"attr":"eco","postal_code":"030-1303","address":"東津軽郡外ヶ浜町蟹田","next":[1120114,1111801,1120510,1120113,101102,1120311,1120515],"voronoi":{"lat":41.237324,"lng":140.7015,"delta_lat":[0,-46461,-174061,36923,117373,40710,143560],"delta_lng":[0,-39020,-51069,199974,52112,14195,-66932]}},
    {"code":1120507,"left":1120505,"right":1120508,"id":"668e0b","name":"中沢","name_kana":"なかさわ","lat":40.949044,"lng":140.656244,"prefecture":2,"lines":[11205],"attr":"heat","postal_code":"030-1261","address":"青森市大字四戸橋","next":[9920106,1120508,1120506,9920107],"voronoi":{"lat":40.905724,"lng":140.566172,"delta_lat":[0,59413,-14905,-18784],"delta_lng":[0,160432,-174206,4418]}},
    {"code":1120505,"left":1120506,"id":"f56599","name":"左堰","name_kana":"ひだりせき","lat":40.917214,"lng":140.665929,"prefecture":2,"lines":[11205],"attr":"cool","postal_code":"030-1273","address":"青森市大字左堰","next":[1120506,1120503,1120504,9920105],"voronoi":{"lat":40.902649,"lng":140.567097,"delta_lat":[0,37535,-52495,-12693],"delta_lng":[0,168056,-115273,-44066]}},
    {"code":1120506,"id":"ddb580","name":"後潟","name_kana":"うしろがた","lat":40.931519,"lng":140.662734,"prefecture":2,"lines":[11205],"attr":"heat","postal_code":"030-1271","address":"青森市大字六枚橋","next":[1120504,9920106,1120505,1120508,1120507,9920105,1120115],"voronoi":{"lat":40.965136,"lng":140.726604,"delta_lat":[0,-59413,-2178,-896,37535,12083,23578],"delta_lng":[0,-160432,568,357,168056,35661,4792]}},
    {"code":1120508,"id":"ffa502","name":"蓬田","name_kana":"よもぎた","lat":40.969042,"lng":140.654533,"prefecture":2,"lines":[11205],"attr":"heat","postal_code":"030-1212","address":"東津軽郡蓬田村大字阿弥陀川","next":[1120507,1120506,1111801,1120509,1120115,9920107],"voronoi":{"lat":40.965136,"lng":140.726604,"delta_lat":[0,10709,17242,-24808,-10803,-7245],"delta_lng":[0,49002,6480,-216685,-15467,2464]}},
    {"code":1111913,"left":1120515,"right":1111914,"id":"2aed11","name":"釜谷","name_kana":"かまや","lat":41.712153,"lng":140.53718,"prefecture":1,"lines":[11119,99108],"attr":"eco","postal_code":"049-0403","address":"上磯郡木古内町字釜谷","next":[1111912,1120516,1111915,1111914,1111911,9910523],"voronoi":{"lat":41.534518,"lng":140.672266,"delta_lat":[0,280164,32497,-35262,-375493,-6491],"delta_lng":[0,-168089,-27918,6575,139480,73946]}},
    {"code":1120515,"left":101102,"right":1111912,"id":"dba32e","name":"大川平","name_kana":"おおかわだい","lat":41.163204,"lng":140.507592,"prefecture":2,"lines":[11205],"attr":"eco","postal_code":"030-1505","address":"東津軽郡今別町大字大川平","next":[1120517,1120311,9910523,1120516,1120514,101102,1120511],"voronoi":{"lat":41.237324,"lng":140.7015,"delta_lat":[0,-76806,-19918,11110,263358,-24966,-34734],"delta_lng":[0,-175121,-51806,5384,254033,70550,6220]}},
    {"code":101102,"left":1120514,"id":"7b5595","name":"奥津軽いまべつ","name_kana":"おくつがるいまべつ","lat":41.144877,"lng":140.51563,"prefecture":2,"lines":[1011,11118],"attr":"cool","postal_code":"030-1505","address":"青森県東津軽郡今別町大字大川平清川","next":[1120513,1111801,9920112,1120514,1120511,1120515],"voronoi":{"lat":41.160518,"lng":140.52638,"delta_lat":[0,-95563,-2495,83689,44714,46461],"delta_lng":[0,-72406,6022,151157,51328,39020]}},
    {"code":1120514,"id":"e37f5b","name":"津軽二股","name_kana":"つがるふたまた","lat":41.145937,"lng":140.514231,"prefecture":2,"lines":[11205],"attr":"eco","postal_code":"030-1505","address":"東津軽郡今別町大字大川平","next":[9920112,1120517,101102,1120515,1120518],"voronoi":{"lat":41.075354,"lng":140.428251,"delta_lat":[0,-10399,95563,-19918,-37588],"delta_lng":[0,25722,72406,-51806,-30672]}},
    {"code":1111912,"id":"1ab83d","name":"泉沢","name_kana":"いずみさわ","lat":41.700867,"lng":140.506797,"prefecture":1,"lines":[11119,99108],"attr":"eco","postal_code":"049-0405","address":"上磯郡木古内町字泉沢","next":[1111911,1111913,101103,1120516],"voronoi":{"lat":41.811917,"lng":140.482834,"delta_lat":[0,-185627,-187608,-2258],"delta_lng":[0,7655,59858,71967]}},
    {"code":1111914,"left":1120513,"right":1111915,"id":"94b9f4","name":"渡島当別","name_kana":"おしまとうべつ","lat":41.737309,"lng":140.579109,"prefecture":1,"lines":[11119,99108],"attr":"eco","postal_code":"049-0282","address":"北斗市当別","open_date":"1930-10-25","next":[1111915,1111913,9910523],"voronoi":{"lat":41.814682,"lng":140.504177,"delta_lat":[0,-108469,-171695],"delta_lng":[0,148126,19963]}},
    {"code":1120513,"id":"fb4e52","name":"大平","name_kana":"おおだい","lat":41.065866,"lng":140.559375,"prefecture":2,"lines":[11205],"attr":"eco","postal_code":"030-1307","address":"東津軽郡外ヶ浜町字蟹田大平","next":[101102,9920112,1111801],"voronoi":{"lat":40.965477,"lng":140.542771,"delta_lat":[0,96983,83689],"delta_lng":[0,-82776,151157]}},
    {"code":1111915,"id":"e0dcae","name":"茂辺地","name_kana":"もへじ","lat":41.766604,"lng":140.600561,"prefecture":1,"lines":[11119,99108],"attr":"eco","postal_code":"049-0281","address":"北斗市茂辺地","next":[1111914,1111913,1110107,9910623,1111911,1111916,9910523],"voronoi":{"lat":41.768925,"lng":140.652531,"delta_lat":[0,100087,13057,-34891,-32497,-108469,23137],"delta_lng":[0,-132379,-61628,17736,27918,148126,2662]}},
    {"code":9910520,"left":9910523,"right":9910518,"id":"bb807b","name":"十字街","name_kana":"じゅうじがい","lat":41.763998,"lng":140.718513,"prefecture":1,"lines":[99105,99106],"attr":"eco","postal_code":"040-0053","address":"函館市末広町９番","next":[9910521,9910522,9910621,9910519],"voronoi":{"lat":41.769951,"lng":140.717244,"delta_lat":[0,-9655,-34,3099],"delta_lng":[0,-4263,1017,7015]}},
    {"code":9910523,"left":1120503,"right":9910522,"id":"4656eb","name":"谷地頭","name_kana":"やちがしら","lat":41.753273,"lng":140.71641,"prefecture":1,"lines":[99105],"attr":"eco","postal_code":"040-0046","address":"函館市谷地頭町２５番","next":[9910516,9910623,9910621,9910522,1120516,1120515,1120311,9910501,1111913,1111915,1111914,9910502],"voronoi":{"lat":41.453463,"lng":140.871824,"delta_lat":[0,-63361,24966,14865,104585,171695,23137,24592,4979,-33986,-2634,-148335],"delta_lng":[0,-67284,-70550,-37730,-23994,-19963,2662,40354,15324,54562,2855,58181]}},
    {"code":1120503,"left":100423,"right":1120504,"id":"5c7f42","name":"津軽宮田","name_kana":"つがるみやた","lat":40.887184,"lng":140.674579,"prefecture":2,"lines":[11205],"attr":"cool","postal_code":"038-0054","address":"青森市大字奥内","next":[1120263,1120264,1120505,1120504,1120502,9920105],"voronoi":{"lat":40.860641,"lng":140.60292,"delta_lat":[0,-2309,46678,-17321,-12693,-3347],"delta_lng":[0,53480,88526,-125045,-44066,498]}},
    {"code":100423,"left":1120502,"id":"6d47f7","name":"新青森","name_kana":"しんあおもり","lat":40.8275,"lng":140.693472,"prefecture":2,"lines":[1004,1011,11202],"attr":"cool","postal_code":"038-0003","address":"青森県青森市大字石江字高間140-2","open_date":"1986-11-01","next":[9920608,1120263,1120502,1120264,1120120],"voronoi":{"lat":40.844465,"lng":140.713641,"delta_lat":[0,-3100,-60174,-44148,24560],"delta_lng":[0,-30562,-1464,27329,7042]}},
    {"code":1120502,"id":"a10748","name":"油川","name_kana":"あぶらかわ","lat":40.857035,"lng":140.690476,"prefecture":2,"lines":[11205],"attr":"cool","postal_code":"038-0058","address":"青森市大字羽白","next":[1120264,1120504,100423,1120503,1120120],"voronoi":{"lat":40.905011,"lng":140.744926,"delta_lat":[0,-46678,-16967,3100,64499],"delta_lng":[0,-88526,26680,30562,41336]}},
    {"code":1120504,"id":"d06ea4","name":"奥内","name_kana":"おくない","lat":40.903044,"lng":140.672382,"prefecture":2,"lines":[11205],"attr":"cool","postal_code":"038-0052","address":"青森市大字清水","next":[1120116,1120502,1120506,1120503,1120505,1120115,1120120],"voronoi":{"lat":40.938938,"lng":140.769967,"delta_lat":[0,13330,-12083,-52495,17321,3954,3993],"delta_lng":[0,848,-35661,-115273,125045,10052,4764]}},
    {"code":9910522,"left":1120120,"right":9910521,"id":"2bf7b6","name":"青柳町","name_kana":"あおやぎちょう","lat":41.756235,"lng":140.718255,"prefecture":1,"lines":[99105],"attr":"eco","postal_code":"040-0044","address":"函館市青柳町２１番","next":[9910621,9910521,9910523,9910520,9910516],"voronoi":{"lat":41.758921,"lng":140.710643,"delta_lat":[0,1376,-34,-7177,-28151],"delta_lng":[0,2337,1017,22530,28678]}},
    {"code":1120120,"id":"f1cf2c","name":"青森","name_kana":"あおもり","lat":40.828668,"lng":140.734738,"prefecture":2,"lines":[11201,11202,11205,99206],"attr":"cool","postal_code":"038-0012","address":"青森市柳川１丁目","next":[1120117,9920608,1120116,100423,1120119,1120502,1120504],"voronoi":{"lat":40.874626,"lng":140.767901,"delta_lat":[0,-25839,-12655,-74529,82862,64499,3993],"delta_lng":[0,1812,-4877,-48849,-2345,41336,4764]}},
    {"code":9910521,"id":"dcc331","name":"宝来町","name_kana":"ほうらいちょう","lat":41.761085,"lng":140.7198,"prefecture":1,"lines":[99105],"attr":"eco","postal_code":"040-0043","address":"函館市宝来町１０番","next":[9910520,9910522,9910516,9910519,9910518],"voronoi":{"lat":41.753085,"lng":140.736527,"delta_lat":[0,7177,3099,-4152,-758],"delta_lng":[0,-22530,7015,10219,1157]}},
    {"code":9910518,"left":9910622,"right":9910517,"id":"348c47","name":"市役所前(北海道)","original_name":"市役所前","name_kana":"しやくしょまえ","lat":41.768943,"lng":140.72495,"prefecture":1,"lines":[99105,99106],"attr":"heat","postal_code":"040-0064","address":"函館市大手町１１番","next":[9910621,9910517,1110101,9910516,9910521,9910519],"voronoi":{"lat":41.758451,"lng":140.732389,"delta_lat":[0,9819,2985,2574,-494,-14126],"delta_lng":[0,-2856,-3622,-8383,78,13626]}},
    {"code":9910622,"left":9910519,"right":9910623,"id":"dd490a","name":"大町(北海道)","original_name":"大町","name_kana":"おおまち","lat":41.770207,"lng":140.7092,"prefecture":1,"lines":[99106],"attr":"heat","postal_code":"040-0052","address":"函館市大町７番","next":[9910621,9910623,1110101],"voronoi":{"lat":41.785757,"lng":140.714999,"delta_lat":[0,-26286,14733],"delta_lng":[0,-15229,17579]}},
    {"code":9910519,"left":9910621,"id":"ec60fc","name":"魚市場通","name_kana":"うおいちばどおり","lat":41.765838,"lng":140.721731,"prefecture":1,"lines":[99105,99106],"attr":"eco","postal_code":"040-0065","address":"函館市豊川町２２番","next":[9910521,9910520,9910518,9910621],"voronoi":{"lat":41.769951,"lng":140.717244,"delta_lat":[0,-6590,-4152,14126],"delta_lng":[0,3769,10219,-13626]}},
    {"code":9910621,"id":"db9436","name":"末広町(北海道)","original_name":"末広町","name_kana":"すえひろちょう","lat":41.766879,"lng":140.711989,"prefecture":1,"lines":[99106],"attr":"heat","postal_code":"040-0053","address":"函館市末広町２１番","next":[9910518,9910522,9910622,9910523,1110101,9910520,9910623,9910519],"voronoi":{"lat":41.769951,"lng":140.717244,"delta_lat":[0,-9655,-1376,-4979,5530,14733,-375,-494],"delta_lng":[0,-4263,-2337,-15324,4451,17579,178,78]}},
    {"code":9910623,"id":"5d2ab7","name":"函館どつく前","name_kana":"はこだてどっくまえ","lat":41.772992,"lng":140.704393,"prefecture":1,"lines":[99106],"attr":"heat","postal_code":"040-0057","address":"函館市入舟町１番","next":[1111916,9910523,1110102,1111918,1111920,1111915,9910622,1111917,1111919,9910621,1110101],"voronoi":{"lat":41.759472,"lng":140.69977,"delta_lat":[0,-5530,-24592,39576,14077,3043,3704,7142,-2045,-2587,-6502],"delta_lng":[0,-4451,-40354,-2435,10276,3051,5249,15351,25616,2714,212]}},
    {"code":9910517,"left":9910516,"right":1110101,"id":"e16e64","name":"函館駅前","name_kana":"はこだてえきまえ","lat":41.77264,"lng":140.727997,"prefecture":1,"lines":[99105,99106],"attr":"heat","postal_code":"040-0063","address":"函館市若松町１５番","next":[9910515,9910518,9910516,1110101],"voronoi":{"lat":41.776316,"lng":140.731677,"delta_lat":[0,-8045,2985,7653],"delta_lng":[0,-2144,-3622,5164]}},
    {"code":9910516,"id":"bea3b4","name":"松風町","name_kana":"まつかぜちょう","lat":41.771296,"lng":140.733039,"prefecture":1,"lines":[99105,99106],"attr":"heat","postal_code":"040-0035","address":"函館市松風町１１番","next":[9910523,9910514,9910521,9910517,9910502,9910518,9910515,9910522],"voronoi":{"lat":41.7223,"lng":140.768061,"delta_lat":[0,18268,4813,30934,-8045,-9819,-5366,-28151],"delta_lng":[0,-3113,-4229,-29042,-2144,2856,4139,28678]}},
    {"code":1110101,"id":"d8aab0","name":"函館","name_kana":"はこだて","lat":41.773709,"lng":140.726413,"prefecture":1,"lines":[11101,11119],"attr":"eco","postal_code":"040-0063","address":"北海道函館市若松町１２-１３","open_date":"1902-12-10","next":[9910514,1110102,9910518,9910622,9910621,9910515,9910623,9910517],"voronoi":{"lat":41.771256,"lng":140.72591,"delta_lat":[0,2574,375,11553,6502,-3565,-4175,-5611],"delta_lng":[0,-8383,-178,-2350,-212,14933,841,513]}},
    {"code":1111918,"left":1110122,"right":1110105,"id":"f23100","name":"久根別","name_kana":"くねべつ","lat":41.826727,"lng":140.666468,"prefecture":1,"lines":[11119,99108],"attr":"eco","postal_code":"049-0121","address":"北斗市久根別","next":[101104,9910623,1110105,1111917,1111919],"voronoi":{"lat":41.78975,"lng":140.671106,"delta_lat":[0,-3704,79262,139,-7608],"delta_lng":[0,-5249,-12343,548,20750]}},
    {"code":1110122,"left":1111916,"right":1110404,"id":"705d7d","name":"東森","name_kana":"ひがしもり","lat":42.106823,"lng":140.59353,"prefecture":1,"lines":[11101],"attr":"eco","postal_code":"049-2302","address":"茅部郡森町字港町","next":[1110121,1110113,1110123],"voronoi":{"lat":42.092992,"lng":140.607039,"delta_lat":[0,1841,74240],"delta_lng":[0,-24737,7897]}},
    {"code":1111916,"left":1110112,"right":101104,"id":"002870","name":"上磯","name_kana":"かみいそ","lat":41.81956,"lng":140.640599,"prefecture":1,"lines":[11119,99108],"attr":"eco","postal_code":"049-0161","address":"北斗市飯生","next":[9910623,101104,1110107,1111915,1111917],"voronoi":{"lat":41.863432,"lng":140.629771,"delta_lat":[0,6405,-825,-100087,14077],"delta_lng":[0,-92785,-16834,132379,10276]}},
    {"code":1110112,"left":1110107,"right":1110113,"id":"469432","name":"東山(北海道)","original_name":"東山","name_kana":"ひがしやま","closed":true,"lat":42.06172,"lng":140.605222,"prefecture":1,"lines":[11101],"attr":"unknown","postal_code":"049-2141","address":"茅部郡森町字駒ケ岳","open_date":"1943-02-26","closed_date":"2017-03-04","next":[1110113,1110120,1110111,1110121],"voronoi":{"lat":42.063165,"lng":140.664102,"delta_lat":[0,-26623,48506,-3322],"delta_lng":[0,-116096,69929,19989]}},
    {"code":1110107,"left":1110111,"id":"e51cf1","name":"仁山","name_kana":"にやま","lat":41.930011,"lng":140.635183,"prefecture":1,"lines":[11101],"attr":"heat","postal_code":"041-1101","address":"亀田郡七飯町字仁山","next":[1111915,1111907,1110111,1110125,101104,1110110,1110108,1111916,1111911],"voronoi":{"lat":41.869012,"lng":140.520152,"delta_lat":[0,825,63251,34239,5967,-34930,-12123,-3732,-40440],"delta_lng":[0,16834,137248,-42036,-58316,-153816,-19363,1975,55846]}},
    {"code":1110111,"id":"a3c96d","name":"駒ヶ岳","name_kana":"こまがたけ","lat":42.038809,"lng":140.610476,"prefecture":1,"lines":[11101],"attr":"cool","postal_code":"049-2300","address":"北海道茅部郡森町字駒ヶ岳","next":[1110120,1110125,1110110,1110107,1110113,1110112,1110124],"voronoi":{"lat":42.036541,"lng":140.548005,"delta_lat":[0,26623,-2663,-87207,-34930,4635,77926],"delta_lng":[0,116096,6032,-96252,-153816,4313,88405]}},
    {"code":1110113,"id":"611954","name":"姫川(北海道)","original_name":"姫川","name_kana":"ひめかわ","closed":true,"lat":42.081312,"lng":140.591632,"prefecture":1,"lines":[11101],"attr":"unknown","postal_code":"049-2306","address":"茅部郡森町字姫川","open_date":"1951-05-19","closed_date":"2017-03-04","next":[1110112,1110121,1110111,1110122,1110123,1110124],"voronoi":{"lat":42.020925,"lng":140.512784,"delta_lat":[0,15616,48506,7944,1841,-20746],"delta_lng":[0,35222,69929,-10896,-24737,-32199]}},
    {"code":101104,"left":1111917,"right":1110110,"id":"fbe0a2","name":"新函館北斗","name_kana":"しんはこだてほくと","lat":41.9054,"lng":140.646525,"prefecture":1,"lines":[1011,11101],"attr":"eco","postal_code":"041-1242","address":"北海道北斗市市渡","open_date":"1902-12-10","next":[1110108,1111918,1111916,1110107,1111917,1110105],"voronoi":{"lat":41.865447,"lng":140.654063,"delta_lat":[0,-139,-1875,6405,63251,-2828],"delta_lng":[0,-548,-23744,-92785,137248,8248]}},
    {"code":1111917,"id":"9fb53f","name":"清川口","name_kana":"きよかわぐち","lat":41.824615,"lng":140.652906,"prefecture":1,"lines":[11119,99108],"attr":"eco","postal_code":"049-0100","address":"北斗市会所町","next":[101104,9910623,1111916,1111918],"voronoi":{"lat":41.783002,"lng":140.662806,"delta_lat":[0,80430,1875,-79262],"delta_lng":[0,-33036,23744,12343]}},
    {"code":1110110,"id":"7ea221","name":"赤井川","name_kana":"あかいがわ","lat":42.003267,"lng":140.642678,"prefecture":1,"lines":[11101],"attr":"cool","postal_code":"049-2142","address":"茅部郡森町字赤井川","next":[1110114,1110111,1110120,1110119,1110107,1110109,1110108,1110116],"voronoi":{"lat":42.059381,"lng":140.67384,"delta_lat":[0,1093,27,-87207,-5967,10283,37988,13682],"delta_lng":[0,-2766,-940,-96252,58316,12073,31296,2984]}},
    {"code":1110404,"left":1110125,"right":1110120,"id":"f3b4e4","name":"礼文","name_kana":"れぶん","lat":42.580422,"lng":140.595013,"prefecture":1,"lines":[11104],"attr":"eco","postal_code":"049-5333","address":"虻田郡豊浦町字礼文華","next":[1110208,1110405,1110408,1110403,1110127,1110120,1110138],"voronoi":{"lat":42.387202,"lng":140.534236,"delta_lat":[0,302065,-104,-299556,-38933,-2001,23936],"delta_lng":[0,48774,20662,37745,-13142,-18103,-71428]}},
    {"code":1110125,"left":1110123,"right":1110403,"id":"de62e7","name":"石谷","name_kana":"いしや","lat":42.135519,"lng":140.506525,"prefecture":1,"lines":[11101],"attr":"eco","postal_code":"049-2464","address":"茅部郡森町字本茅部町","next":[1110111,1110127,1110126,1111907,1110123,1110107,1110121,1110124,1110120,1111906],"voronoi":{"lat":41.926242,"lng":140.400702,"delta_lat":[0,12123,4635,291877,3636,28285,34375,-713,-344210,-24232],"delta_lng":[0,19363,4313,160324,1437,6425,4021,-553,-240463,35515]}},
    {"code":1110123,"left":1110124,"id":"3b6a82","name":"森(北海道)","original_name":"森","name_kana":"もり","lat":42.108917,"lng":140.573846,"prefecture":1,"lines":[11101],"attr":"eco","postal_code":"049-2325","address":"茅部郡森町字本町","next":[1110125,1110124,1110113,1110121,1110122],"voronoi":{"lat":42.094832,"lng":140.582301,"delta_lat":[0,-20746,160790,3636,-69440],"delta_lng":[0,-32199,34600,1437,4059]}},
    {"code":1110124,"id":"8e86e6","name":"桂川(北海道)","original_name":"桂川","name_kana":"かつらがわ","closed":true,"lat":42.1156004,"lng":140.5427876,"prefecture":1,"lines":[11101],"attr":"unknown","postal_code":"049-2321","address":"茅部郡森町字鷲ノ木町","open_date":"1944-09-30","closed_date":"2017-03-04","next":[1110123,1110125,1110113,1110111],"voronoi":{"lat":42.074087,"lng":140.550103,"delta_lat":[0,160790,-291877,77926],"delta_lng":[0,34600,-160324,88405]}},
    {"code":1110403,"id":"c48d1f","name":"小幌","name_kana":"こぼろ","lat":42.589731,"lng":140.537361,"prefecture":1,"lines":[11104],"attr":"eco","postal_code":"049-5333","address":"虻田郡豊浦町字礼文華","next":[1110206,1110138,1110404,1110208,1110402],"voronoi":{"lat":42.671795,"lng":140.492473,"delta_lat":[0,25659,-8187,-302065,51924],"delta_lng":[0,61514,29023,-48774,-24717]}},
    {"code":1110120,"left":1110121,"right":1110405,"id":"c7d1b0","name":"掛澗","name_kana":"かかりま","lat":42.119205,"lng":140.64598,"prefecture":1,"lines":[11101],"attr":"eco","postal_code":"049-2221","address":"茅部郡森町砂原西３丁目","next":[1110119,1110112,1110111,1110110,1110125,1110408,1110404,1110121,1110127],"voronoi":{"lat":42.350673,"lng":140.628276,"delta_lat":[0,-10182,-280017,27,2663,18561,185072,34375,47500],"delta_lng":[0,27113,15685,-940,-6032,-26178,-45359,4021,13587]}},
    {"code":1110121,"id":"c96830","name":"尾白内","name_kana":"おしろない","lat":42.111232,"lng":140.613449,"prefecture":1,"lines":[11101],"attr":"eco","postal_code":"049-2301","address":"茅部郡森町字尾白内町","next":[1110113,1110122,1110125,1110123,1110120,1110112],"voronoi":{"lat":42.266797,"lng":140.592564,"delta_lat":[0,-28285,-69440,-76081,-7944,-3322],"delta_lng":[0,-6425,4059,16840,10896,19989]}},
    {"code":1110405,"id":"01fab0","name":"大岸","name_kana":"おおきし","lat":42.585969,"lng":140.639036,"prefecture":1,"lines":[11104],"attr":"eco","postal_code":"049-5332","address":"虻田郡豊浦町字大岸","next":[1110404,1110208,1110406,1110407,1110408,1110209],"voronoi":{"lat":42.699155,"lng":140.653023,"delta_lat":[0,-9992,-299556,50760,6679,245511],"delta_lng":[0,-49350,37745,23819,1894,18161]}},
    {"code":1110105,"left":1110102,"right":1110406,"id":"233872","name":"七飯","name_kana":"ななえ","lat":41.886971,"lng":140.688556,"prefecture":1,"lines":[11101],"attr":"heat","postal_code":"041-1111","address":"亀田郡七飯町字本町","next":[1111919,1110104,1110108,1110114,101104,1111918],"voronoi":{"lat":41.856528,"lng":140.683866,"delta_lat":[0,75822,4519,-6609,-64814,-7608],"delta_lng":[0,67659,-39803,-29240,-28419,20750]}},
    {"code":1110102,"left":1110103,"right":9910513,"id":"61b622","name":"五稜郭","name_kana":"ごりょうかく","lat":41.803557,"lng":140.733539,"prefecture":1,"lines":[11101,11119,99108],"attr":"eco","postal_code":"041-0813","address":"函館市亀田本町","next":[9910513,1110103,9910511,9910623,1111920,1110101,9910512,9910507,9910508,9910514,9910509],"voronoi":{"lat":41.833528,"lng":140.768007,"delta_lat":[0,1470,-9867,-30285,-2587,-3565,115,1048,1961,1359,22550],"delta_lng":[0,725,-39982,-16676,2714,14933,629,3637,4360,1750,17638]}},
    {"code":1110103,"left":1111920,"right":1110104,"id":"d35955","name":"桔梗","name_kana":"ききょう","lat":41.846457,"lng":140.722952,"prefecture":1,"lines":[11101],"attr":"heat","postal_code":"041-0801","address":"北海道函館市桔梗３丁目４１-３６","open_date":"1902-12-10","next":[1110102,9910507,9910506,1111920,1111919,9910501,1110104,1110117],"voronoi":{"lat":41.929819,"lng":140.862367,"delta_lat":[0,-85070,-4320,-15297,9867,5529,21654,66286],"delta_lng":[0,-165057,2045,29394,39982,7654,27325,64736]}},
    {"code":1111920,"left":1111919,"id":"1160b7","name":"七重浜","name_kana":"ななえはま","lat":41.817643,"lng":140.707957,"prefecture":1,"lines":[11119,99108],"attr":"eco","postal_code":"049-0111","address":"北斗市七重浜２丁目","next":[1110103,9910623,1110102,1111919],"voronoi":{"lat":41.825131,"lng":140.728749,"delta_lat":[0,-30285,2045,43537],"delta_lng":[0,-16676,-25616,12898]}},
    {"code":1111919,"id":"077d91","name":"東久根別","name_kana":"ひがしくねべつ","lat":41.826005,"lng":140.679731,"prefecture":1,"lines":[11119,99108],"attr":"eco","postal_code":"049-0121","address":"北斗市久根別","next":[1110105,1110103,1111920,9910623,1111918,1110104],"voronoi":{"lat":41.840428,"lng":140.699355,"delta_lat":[0,-43537,-7142,68089,-1310,-11780],"delta_lng":[0,-12898,-15351,3706,9053,13445]}},
    {"code":1110104,"id":"5a1ac2","name":"大中山","name_kana":"おおなかやま","lat":41.864641,"lng":140.71358,"prefecture":1,"lines":[11101],"attr":"heat","postal_code":"041-1121","address":"亀田郡七飯町大字大中山","next":[1110105,1110117,1110115,1110103,1111919,1110114],"voronoi":{"lat":41.931209,"lng":140.857564,"delta_lat":[0,-1390,-85070,11780,75822,823],"delta_lng":[0,4804,-165057,-13445,67659,7836]}},
    {"code":9910513,"left":9910514,"right":9910512,"id":"f13cee","name":"昭和橋","name_kana":"しょうわばし","lat":41.778017,"lng":140.740893,"prefecture":1,"lines":[99105,99106],"attr":"cool","postal_code":"040-0025","address":"函館市堀川町６番","next":[9910502,1110102,9910512,9910505,9910514],"voronoi":{"lat":41.78881,"lng":140.730349,"delta_lat":[0,1048,-37430,-3456,-2770],"delta_lng":[0,3637,29678,668,133]}},
    {"code":9910514,"id":"afab18","name":"千歳町(北海道)","original_name":"千歳町","name_kana":"ちとせちょう","lat":41.776161,"lng":140.738575,"prefecture":1,"lines":[99105,99106],"attr":"heat","postal_code":"040-0032","address":"函館市新川町２３番","next":[9910516,1110101,9910515,9910502,9910513,1110102],"voronoi":{"lat":41.788694,"lng":140.72972,"delta_lat":[0,-4175,-39138,-4813,5633,42608],"delta_lng":[0,841,30157,4229,-482,-34116]}},
    {"code":9910512,"id":"2a9692","name":"堀川町","name_kana":"ほりかわちょう","lat":41.780433,"lng":140.74394,"prefecture":1,"lines":[99105,99106],"attr":"cool","postal_code":"040-0014","address":"函館市中島町２１番","next":[9910511,9910513,1110102,9910507,9910505],"voronoi":{"lat":41.789857,"lng":140.733986,"delta_lat":[0,1961,-28206,-1476,-9709],"delta_lng":[0,4360,23489,520,1309]}},
    {"code":1110406,"left":1110114,"right":1110116,"id":"423ecb","name":"豊浦","name_kana":"とようら","lat":42.580323,"lng":140.71536,"prefecture":1,"lines":[11104],"attr":"eco","postal_code":"049-5412","address":"虻田郡豊浦町字旭町","next":[1110209,1110210,1110407,1110405],"voronoi":{"lat":42.711541,"lng":140.826217,"delta_lat":[0,-79,-264417,245511],"delta_lng":[0,2902,-161988,18161]}},
    {"code":1110114,"left":1110109,"right":1110119,"id":"95298f","name":"池田園","name_kana":"いけだえん","lat":41.990692,"lng":140.700333,"prefecture":1,"lines":[11101],"attr":"cool","postal_code":"041-1352","address":"亀田郡七飯町字軍川","next":[1110116,1110110,1110115,1110109,1110105,1110108,1110104],"voronoi":{"lat":41.93235,"lng":140.751525,"delta_lat":[0,4519,38731,39998,13682,-9733,-86374],"delta_lng":[0,-39803,-23421,-12734,2984,11868,68942]}},
    {"code":1110109,"left":1110108,"id":"82d18d","name":"大沼公園","name_kana":"おおぬまこうえん","lat":41.980958,"lng":140.669758,"prefecture":1,"lines":[11101],"attr":"cool","postal_code":"041-1354","address":"北海道亀田郡七飯町字大沼町８５","open_date":"1907-06-05","next":[1110114,1110110,1110108],"voronoi":{"lat":41.97761,"lng":140.644271,"delta_lat":[0,37988,-39998],"delta_lng":[0,31296,12734]}},
    {"code":1110108,"id":"9c8c93","name":"大沼","name_kana":"おおぬま","lat":41.971954,"lng":140.669347,"prefecture":1,"lines":[11101],"attr":"heat","postal_code":"041-1354","address":"北海道亀田郡七飯町字大沼町４","open_date":"1903-06-28","next":[101104,1110110,1110107,1110105,1110109,1110114],"voronoi":{"lat":41.9756,"lng":140.688301,"delta_lat":[0,2010,-10283,-34239,-2828,6609],"delta_lng":[0,-44030,-12073,42036,8248,29240]}},
    {"code":1110119,"id":"250722","name":"渡島砂原","name_kana":"おしまさはら","lat":42.12164,"lng":140.689451,"prefecture":1,"lines":[11101],"attr":"cool","postal_code":"049-2222","address":"茅部郡森町砂原４丁目","next":[1110120,1110409,1110118,1110110,1110410,1110116,1110408,1110413],"voronoi":{"lat":42.323223,"lng":140.714708,"delta_lat":[0,1101,2949,13218,-280017,-1093,9804,215645],"delta_lng":[0,-2302,-7490,-49527,15685,2766,33359,54073]}},
    {"code":1110116,"left":1110115,"right":1110118,"id":"44013a","name":"銚子口","name_kana":"ちょうしぐち","lat":42.015471,"lng":140.720656,"prefecture":1,"lines":[11101],"attr":"cool","postal_code":"041-1351","address":"亀田郡七飯町字東大沼","next":[1110114,1110118,1110117,1110115,1110110,1110119],"voronoi":{"lat":42.059381,"lng":140.67384,"delta_lat":[0,-30101,-9733,-41237,86516,4359],"delta_lng":[0,4711,11868,115018,-83416,-14822]}},
    {"code":1110115,"id":"a3b416","name":"流山温泉","name_kana":"ながれやまおんせん","lat":42.003483,"lng":140.716358,"prefecture":1,"lines":[11101],"attr":"cool","postal_code":"041-1351","address":"亀田郡七飯町字東大沼２３６","next":[1110114,1110104,1110116,1110117],"voronoi":{"lat":41.978311,"lng":140.805436,"delta_lat":[0,41237,-86374,-1965],"delta_lng":[0,-115018,68942,98203]}},
    {"code":1110118,"id":"9cb1e4","name":"渡島沼尻","name_kana":"おしまぬまじり","lat":42.10706,"lng":140.747596,"prefecture":1,"lines":[11101],"attr":"cool","postal_code":"049-2223","address":"茅部郡森町砂原東４丁目","next":[1110116,1110119,1110413,1110117,1110414,1110416],"voronoi":{"lat":42.243428,"lng":140.833037,"delta_lat":[0,1735,39668,-215645,-4359,101599],"delta_lng":[0,-2579,-69187,-54073,14822,182176]}},
    {"code":9910504,"left":9922003,"right":1110417,"id":"b48d30","name":"駒場車庫前","name_kana":"こまばしゃこまえ","lat":41.783265,"lng":140.779216,"prefecture":1,"lines":[99105,99106],"attr":"cool","postal_code":"042-0941","address":"函館市深堀町２４番","next":[9910506,9910505,9910502,9910501,9910503],"voronoi":{"lat":41.766682,"lng":140.773737,"delta_lat":[0,-12871,77758,3100,-34004],"delta_lng":[0,-7125,27416,1301,-6975]}},
    {"code":9922003,"left":1120302,"right":1120303,"id":"63380e","name":"後平","name_kana":"うしろたい","closed":true,"lat":40.791154,"lng":141.150543,"prefecture":2,"lines":[99220],"attr":"unknown","postal_code":"039-2731","address":"青森県上北郡七戸町字後平１５０−１１０","open_date":"1963-04-01","closed_date":"2002-08-01","next":[9922004,1120109,1120108,9922002,9922005],"voronoi":{"lat":40.79251,"lng":141.182964,"delta_lat":[0,7386,-10532,-12766,-343],"delta_lng":[0,-42766,-10473,47334,3089]}},
    {"code":1120302,"left":1120116,"right":1120114,"id":"e397c8","name":"北野辺地","name_kana":"きたのへじ","lat":40.871077,"lng":141.134115,"prefecture":2,"lines":[11203],"attr":"cool","postal_code":"039-3131","address":"上北郡野辺地町大字野辺地","next":[1120303,1120109,1120110,1120111],"voronoi":{"lat":40.851923,"lng":141.193244,"delta_lat":[0,-11664,45033,52135],"delta_lng":[0,-41292,-49450,24273]}},
    {"code":1120116,"left":1120118,"right":9922002,"id":"1da7c0","name":"野内","name_kana":"のない","lat":40.84615948,"lng":140.8169067,"prefecture":2,"lines":[11201,99206],"attr":"cool","postal_code":"039-3503","address":"青森市大字野内","next":[1120504,1120115,9922002,1120118,1120120,1120117],"voronoi":{"lat":40.874626,"lng":140.767901,"delta_lat":[0,38331,25980,-196535,-14398,37839],"delta_lng":[0,-8159,10225,194376,-1646,-56354]}},
    {"code":1120118,"left":1120119,"right":1120117,"id":"157f80","name":"小柳(青森)","original_name":"小柳","name_kana":"こやなぎ","lat":40.818223,"lng":140.798149,"prefecture":2,"lines":[11201,99206],"attr":"cool","postal_code":"030-0915","address":"青森市小柳字唐橋","next":[9922011,9922002,1120117,1120116,100422,1120119],"voronoi":{"lat":40.596755,"lng":140.928431,"delta_lat":[0,123186,8063,37839,74876,-282969],"delta_lng":[0,34072,194,-56354,-129100,138267]}},
    {"code":1120119,"left":9920608,"id":"fda6c7","name":"東青森","name_kana":"ひがしあおもり","lat":40.810402,"lng":140.782143,"prefecture":2,"lines":[11201,99206],"attr":"cool","postal_code":"030-0946","address":"青森市大字古館字安田","next":[1120253,1120117,9920608,1120120,9922011,1120118],"voronoi":{"lat":40.840719,"lng":140.777243,"delta_lat":[0,8068,-12655,-274331,-17872,13821],"delta_lng":[0,-7530,-4877,109480,37089,4105]}},
    {"code":9920608,"id":"50f5a9","name":"筒井(青森)","original_name":"筒井","name_kana":"つつい","lat":40.805556,"lng":140.77,"prefecture":2,"lines":[99206],"attr":"cool","postal_code":"030-0944","address":"青森県青森市筒井","open_date":"2014-03-15","next":[100423,1120120,1120253,1120254,9920212,1120119,1120263],"voronoi":{"lat":40.737044,"lng":140.708944,"delta_lat":[0,24560,74529,-274331,33566,4570,88833],"delta_lng":[0,7042,48849,109480,-74287,-7925,-78040]}},
    {"code":1120117,"id":"0a01d0","name":"矢田前","name_kana":"やだまえ","lat":40.833744,"lng":140.807151,"prefecture":2,"lines":[11201,99206],"attr":"cool","postal_code":"030-0936","address":"青森市矢田前字本泉","next":[1120120,1120118,1120119,1120116],"voronoi":{"lat":40.874626,"lng":140.767901,"delta_lat":[0,-25839,-8068,-74876],"delta_lng":[0,1812,7530,129100]}},
    {"code":9922002,"left":9922005,"right":1120110,"id":"70fc8e","name":"西千曳","name_kana":"にしちびき","closed":true,"lat":40.810193,"lng":141.131398,"prefecture":2,"lines":[99220],"attr":"unknown","postal_code":"039-2685","address":"青森県上北郡東北町字家ノ下タ４１","open_date":"1968-08-05","closed_date":"2002-08-01","next":[1120118,9922004,100422,9922005,1120116,1120115,1120114,1120112,1120111,1120109,9922003,1120110],"voronoi":{"lat":40.799896,"lng":141.140198,"delta_lat":[0,-10532,-25964,-42085,-1374,8063,14398,11793,12251,12709,28403,31620],"delta_lng":[0,-10473,-55294,-106435,-5493,194,1646,3540,6059,13287,42583,120502]}},
    {"code":9922005,"left":9922004,"id":"f7b136","name":"坪川","name_kana":"つぼがわ","closed":true,"lat":40.768221,"lng":141.147994,"prefecture":2,"lines":[99220],"attr":"unknown","postal_code":"039-2733","address":"青森県上北郡七戸町字天間舘前川原３８","open_date":"1963-04-01","closed_date":"2002-08-01","next":[9922002,100422,9922006,9922003,1120108,9922004],"voronoi":{"lat":40.776255,"lng":141.180148,"delta_lat":[0,-7836,-37248,-9856,42085,13198],"delta_lng":[0,1459,-134142,-79469,106435,102628]}},
    {"code":9922004,"id":"ecb1c2","name":"坪","name_kana":"つぼ","closed":true,"lat":40.77735,"lng":141.14682,"prefecture":2,"lines":[99220],"attr":"unknown","postal_code":"039-2731","address":"青森県上北郡七戸町字後平１２６−２４","open_date":"1962-10-20","closed_date":"2002-08-01","next":[9922002,9922003,9922005],"voronoi":{"lat":40.763401,"lng":141.074431,"delta_lat":[0,25964,-12766],"delta_lng":[0,55294,47334]}},
    {"code":1120110,"id":"83ffd8","name":"野辺地","name_kana":"のへじ","lat":40.855142,"lng":141.119603,"prefecture":2,"lines":[11201,11203,99206,99220],"attr":"cool","postal_code":"039-3131","address":"上北郡野辺地町大字野辺地","next":[1120111,1120302,1120109,9922002],"voronoi":{"lat":40.807558,"lng":141.029812,"delta_lat":[0,77733,-45033,-1080],"delta_lng":[0,72690,49450,-1638]}},
    {"code":1120114,"left":9910501,"right":1120112,"id":"8032aa","name":"西平内","name_kana":"にしひらない","lat":40.918138,"lng":140.913146,"prefecture":2,"lines":[11201,99206],"attr":"cool","postal_code":"039-3364","address":"東津軽郡平内町大字小豆沢","next":[1120115,1120511,1120112,9922002,1120510,1120113],"voronoi":{"lat":41.171097,"lng":140.863498,"delta_lat":[0,-117373,-3742,-295787,12251,16912],"delta_lng":[0,-52112,-1268,157765,6059,-556]}},
    {"code":9910501,"left":1120115,"right":9910503,"id":"c96dff","name":"湯の川","name_kana":"ゆのかわ","lat":41.781073,"lng":140.789902,"prefecture":1,"lines":[99105,99106],"attr":"cool","postal_code":"042-0932","address":"函館市湯川町２-１８","next":[1120310,9910503,1120311,1110103,9910523,1110117,9910506,1110417,9910502,9910504],"voronoi":{"lat":41.800666,"lng":140.788353,"delta_lat":[0,-15094,-211606,-120503,200812,205326,88047,-19180,-66286,-27512],"delta_lng":[0,-1897,39785,45583,270396,255738,-235925,-293587,-64736,-8382]}},
    {"code":1120115,"left":9910502,"id":"5513d9","name":"浅虫温泉","name_kana":"あさむしおんせん","lat":40.890976,"lng":140.862221,"prefecture":2,"lines":[11201,99206],"attr":"cool","postal_code":"039-3501","address":"青森市浅虫","next":[1120114,1120116,9922002,1120509,1120504,1120508,1120510,1120506],"voronoi":{"lat":40.993087,"lng":140.782087,"delta_lat":[0,35677,21218,-295787,-11793,196535,13330,23578],"delta_lng":[0,16444,11587,157765,-3540,-194376,848,4792]}},
    {"code":9910502,"id":"ddae88","name":"湯の川温泉","name_kana":"ゆのかわおんせん","lat":41.780129,"lng":140.784881,"prefecture":1,"lines":[99105,99106],"attr":"cool","postal_code":"042-0932","address":"函館市湯川町１-２８","next":[9910513,9910503,9910505,9910514,9910516,9910504,9910501,9910523],"voronoi":{"lat":41.785572,"lng":140.786457,"delta_lat":[0,-18889,-12871,-4840,-2770,-5633,-18268,-148335],"delta_lng":[0,-12720,-7125,-2279,133,482,3113,58181]}},
    {"code":9910503,"id":"4b183e","name":"函館アリーナ前","name_kana":"はこだてありーなまえ","lat":41.782065,"lng":140.782006,"prefecture":1,"lines":[99105,99106],"attr":"cool","postal_code":"042-0932","address":"函館市湯川町１-３２","next":[9910502,9910501,9910504],"voronoi":{"lat":41.766682,"lng":140.773737,"delta_lat":[0,18889,15094],"delta_lng":[0,12720,1897]}},
    {"code":1120112,"left":1120111,"right":1120113,"id":"1d400d","name":"清水川","name_kana":"しみずがわ","lat":40.921801,"lng":141.02465,"prefecture":2,"lines":[11201,99206],"attr":"cool","postal_code":"039-3332","address":"東津軽郡平内町大字清水川","next":[1120114,1120304,1120305,9922002,1120311,1120113,1120111],"voronoi":{"lat":41.061903,"lng":141.094954,"delta_lat":[0,53469,16624,-348637,-16912,12709,258131],"delta_lng":[0,-39130,-43470,-38968,556,13287,118845]}},
    {"code":1120111,"id":"6ed6e5","name":"狩場沢","name_kana":"かりばさわ","lat":40.900335,"lng":141.071274,"prefecture":2,"lines":[11201,99206],"attr":"cool","postal_code":"039-3343","address":"東津軽郡平内町大字狩場沢","next":[1120110,1120303,1120304,9922002,1120112,1120302],"voronoi":{"lat":41.021432,"lng":141.117082,"delta_lat":[0,15854,-258131,28403,77733,52135],"delta_lng":[0,-11008,-118845,42583,72690,24273]}},
    {"code":1120113,"id":"470fc7","name":"小湊","name_kana":"こみなと","lat":40.929703,"lng":140.953953,"prefecture":2,"lines":[11201,99206],"attr":"cool","postal_code":"039-3321","address":"東津軽郡平内町大字小湊","next":[1120311,1120511,1120114,1120112],"voronoi":{"lat":40.783359,"lng":140.973386,"delta_lat":[0,387739,40710,-79812],"delta_lng":[0,-109888,14195,134661]}},
    {"code":1120303,"left":9922009,"right":1120308,"id":"bb8b48","name":"有戸","name_kana":"ありと","lat":40.913949,"lng":141.189264,"prefecture":2,"lines":[11203],"attr":"cool","postal_code":"039-3108","address":"上北郡野辺地町大字有戸","next":[1120108,1120109,1120302,1120304,1120111,1120107],"voronoi":{"lat":41.021432,"lng":141.117082,"delta_lat":[0,-84006,-85504,-4035,24860,12268],"delta_lng":[0,9693,66469,12119,139716,29390]}},
    {"code":9922009,"left":9922006,"right":9922008,"id":"137152","name":"営農大学校前","name_kana":"えいのうだいがっこうまえ","closed":true,"lat":40.721156,"lng":141.159019,"prefecture":2,"lines":[99220],"attr":"unknown","postal_code":"039-2501","address":"青森県上北郡七戸町字荒熊内６７−５５２","open_date":"1962-10-20","closed_date":"2002-08-01","next":[100422,9922008,9922010],"voronoi":{"lat":40.730664,"lng":141.15376,"delta_lat":[0,-19262,13741],"delta_lng":[0,5199,11611]}},
    {"code":9922006,"left":9922007,"right":1120109,"id":"e4ce5f","name":"道ノ上","name_kana":"みちのかみ","closed":true,"lat":40.751259,"lng":141.152704,"prefecture":2,"lines":[99220],"attr":"unknown","postal_code":"039-2828","address":"青森県上北郡七戸町字森ヶ沢１９２−７","open_date":"1962-10-20","closed_date":"2002-08-01","next":[100422,9922007,9922005,1120108],"voronoi":{"lat":40.76842,"lng":141.181606,"delta_lat":[0,-37248,3506,29157],"delta_lng":[0,-134142,85177,51174]}},
    {"code":9922007,"left":100422,"id":"881f4d","name":"天間林","name_kana":"てんまばやし","closed":true,"lat":40.743482,"lng":141.157135,"prefecture":2,"lines":[99220],"attr":"unknown","postal_code":"039-2827","address":"青森県上北郡七戸町字森ノ上１３１−９","open_date":"1962-10-20","closed_date":"2002-08-01","next":[9922008,100422,1120108,9922006],"voronoi":{"lat":40.734677,"lng":141.132641,"delta_lat":[0,-2470,27604,4023],"delta_lng":[0,18650,35175,-2651]}},
    {"code":100422,"id":"bd81c1","name":"七戸十和田","name_kana":"しちのへとわだ","lat":40.719801,"lng":141.153999,"prefecture":2,"lines":[1004],"attr":"cool","postal_code":"039-2501","address":"青森県上北郡七戸町字荒熊内","next":[9922010,9922002,9922011,9922008,9922006,9922007,9922005,1120118,9922009],"voronoi":{"lat":40.730664,"lng":141.15376,"delta_lat":[0,1543,2470,-3506,-9856,-1374,-123186,110168,4479],"delta_lng":[0,-2468,-18650,-85177,-79469,-5493,-34072,228464,2064]}},
    {"code":1120109,"id":"df8dce","name":"千曳","name_kana":"ちびき","lat":40.804662,"lng":141.152876,"prefecture":2,"lines":[11201,99206],"attr":"eco","postal_code":"039-2683","address":"上北郡東北町字大平","next":[1120303,9922003,1120108,1120302,1120110,9922002],"voronoi":{"lat":40.840258,"lng":141.151951,"delta_lat":[0,11664,-4035,-55377,7386,39282],"delta_lng":[0,41292,12119,-22399,-42766,10116]}},
    {"code":9922008,"left":1120107,"right":1120108,"id":"2156da","name":"中野(青森)","original_name":"中野","name_kana":"なかの","closed":true,"lat":40.735203,"lng":141.163632,"prefecture":2,"lines":[99220],"attr":"unknown","postal_code":"039-2814","address":"青森県上北郡七戸町字道ノ下","open_date":"1962-10-20","closed_date":"2002-08-01","next":[1120108,100422,9922007,9922009,9922010],"voronoi":{"lat":40.725144,"lng":141.170569,"delta_lat":[0,5521,1543,27604,-25854],"delta_lng":[0,-16810,-2468,35175,23613]}},
    {"code":1120107,"id":"3fb643","name":"上北町","name_kana":"かみきたちょう","lat":40.732993,"lng":141.264801,"prefecture":2,"lines":[11201,99206],"attr":"heat","postal_code":"039-2401","address":"上北郡東北町上野","next":[1120106,9922010,9920408,9922011,9920406,1120303,1120304,9920407,1120108],"voronoi":{"lat":40.730628,"lng":141.215114,"delta_lat":[0,-37320,-5517,-2071,-1147,149,201347,-1054,-12268],"delta_lng":[0,7719,2013,7727,19532,5864,133198,-16698,-29390]}},
    {"code":1120108,"id":"6f9906","name":"乙供","name_kana":"おっとも","lat":40.780328,"lng":141.213039,"prefecture":2,"lines":[11201,99206],"attr":"heat","postal_code":"039-2661","address":"上北郡東北町字上笹橋","next":[1120303,9922008,1120109,9922003,9922010,9922007,1120107,9922005,9922006],"voronoi":{"lat":40.76842,"lng":141.181606,"delta_lat":[0,7836,16255,55377,24860,-142119,3329,25854,4023],"delta_lng":[0,-1459,2816,22399,139716,-129965,-5034,-23613,-2651]}},
    {"code":1120308,"left":1120311,"right":1120306,"id":"5296a3","name":"金谷沢","name_kana":"かなやさわ","lat":41.228854,"lng":141.248432,"prefecture":2,"lines":[11203],"attr":"eco","postal_code":"035-0011","address":"むつ市大字奥内","next":[1120309,1120306,1111108,1120307,1120305,1120311,1111113],"voronoi":{"lat":41.164762,"lng":141.208431,"delta_lat":[0,-7689,-324,23321,606149,-47177,-29676],"delta_lng":[0,-26659,-34810,13857,604319,71680,33331]}},
    {"code":1120311,"left":1120304,"right":1120310,"id":"fc9bd8","name":"大湊","name_kana":"おおみなと","lat":41.280344,"lng":141.161772,"prefecture":2,"lines":[11203],"attr":"heat","postal_code":"035-0084","address":"むつ市大湊新町","next":[1120305,9910501,1120515,1120113,9910523,1120112,1120308,1120309,1120511,1120310],"voronoi":{"lat":41.654274,"lng":141.14222,"delta_lat":[0,-200812,-63361,-34734,-143560,-79812,-16624,41377,23321,68413],"delta_lng":[0,-270396,-67284,6220,66932,134661,43470,91139,13857,18000]}},
    {"code":1120304,"left":1120309,"id":"774fed","name":"吹越","name_kana":"ふっこし","lat":41.022038,"lng":141.246552,"prefecture":2,"lines":[11203],"attr":"cool","postal_code":"039-4153","address":"上北郡横浜町字吹越","next":[1120106,1120305,1120112,1120303,1120107,1120111,1120105,1120306],"voronoi":{"lat":41.048423,"lng":141.366252,"delta_lat":[0,13479,-24616,-15854,-136417,1054,16982,58721],"delta_lng":[0,-271299,11120,11008,257387,16698,99698,193864]}},
    {"code":1120309,"id":"69b1b2","name":"赤川","name_kana":"あかがわ","lat":41.267829,"lng":141.209339,"prefecture":2,"lines":[11203],"attr":"heat","postal_code":"035-0044","address":"むつ市赤川町","next":[1120308,1111108,1120310,1120311,1110426],"voronoi":{"lat":41.862855,"lng":141.654264,"delta_lat":[0,-614372,-68413,606149,76496],"delta_lng":[0,-475444,-18000,604319,-107513]}},
    {"code":1120310,"id":"ea13e3","name":"下北","name_kana":"しもきた","lat":41.28288,"lng":141.18989,"prefecture":2,"lines":[11203],"attr":"heat","postal_code":"035-0061","address":"むつ市下北町","next":[1110421,1110417,1110426,9910501,1120309,1110425,1120311],"voronoi":{"lat":41.654274,"lng":141.14222,"delta_lat":[0,205326,312,8367,-3376,-2049,-614372],"delta_lng":[0,255738,1613,61224,158318,35150,-475444]}},
    {"code":1120306,"left":1120305,"right":1120307,"id":"dc6df6","name":"有畑","name_kana":"ありはた","lat":41.131818,"lng":141.276421,"prefecture":2,"lines":[11203],"attr":"eco","postal_code":"039-4106","address":"上北郡横浜町字有畑","next":[1120307,1120308,1120105,1120607,1120610,1120609,1120304,1120305],"voronoi":{"lat":41.157072,"lng":141.181772,"delta_lat":[0,7689,-35544,-24260,-123729,-15976,-3480,86651],"delta_lng":[0,26659,818465,-45806,-240965,-34513,-20884,-318476]}},
    {"code":1120305,"id":"66f962","name":"陸奥横浜","name_kana":"むつよこはま","lat":41.086544,"lng":141.249757,"prefecture":2,"lines":[11203],"attr":"cool","postal_code":"039-4133","address":"上北郡横浜町字舘の後","next":[1120311,1120308,1120304,1120112,1120306],"voronoi":{"lat":41.061903,"lng":141.094954,"delta_lat":[0,53469,41377,324,-108649],"delta_lng":[0,-39130,91139,34810,184480]}},
    {"code":1120307,"id":"99da67","name":"近川","name_kana":"ちかがわ","lat":41.191687,"lng":141.279021,"prefecture":2,"lines":[11203],"attr":"eco","postal_code":"035-0011","address":"むつ市大字奥内","next":[1120306,1111113,1111118,1120611,1120308,1111120,1111126,1111114,1120610,1111115],"voronoi":{"lat":41.622015,"lng":141.970163,"delta_lat":[0,68302,19048,-544604,-35544,48467,83676,5555,62684,211587],"delta_lng":[0,-77252,-22762,-661718,818465,101075,169461,-3548,-51379,-186768]}},
    {"code":1110417,"left":1110415,"right":1110426,"id":"10dbbd","name":"母恋","name_kana":"ぼこい","lat":42.317295,"lng":140.990018,"prefecture":1,"lines":[11104],"attr":"cool","postal_code":"051-0004","address":"室蘭市母恋北町１丁目","next":[1110419,1110421,1120310,1110420,1110117,1110416,1110418,9910501],"voronoi":{"lat":41.947647,"lng":141.162033,"delta_lat":[0,162031,216360,-7127,-96701,-40629,-321669,-312],"delta_lng":[0,-187437,8604,21622,101344,35812,257593,-1613]}},
    {"code":1110415,"left":9910506,"right":1110411,"id":"20b241","name":"本輪西","name_kana":"もとわにし","lat":42.358734,"lng":140.977561,"prefecture":1,"lines":[11104],"attr":"eco","postal_code":"050-0065","address":"室蘭市本輪西町１丁目","next":[1110418,1110419,1110416,1110412,1110421,1110414,1110420,1110422],"voronoi":{"lat":42.473542,"lng":141.007295,"delta_lat":[0,-41253,-92526,-1419,9617,11031,35471,75228],"delta_lng":[0,-35021,-27956,31332,17513,9769,6797,-918]}},
    {"code":9910506,"left":9910508,"right":1110117,"id":"3ae7b3","name":"深堀町","name_kana":"ふかぼりちょう","lat":41.787153,"lng":140.769947,"prefecture":1,"lines":[99105,99106],"attr":"cool","postal_code":"042-0942","address":"函館市柏木町３５番","next":[9910504,1110103,9910507,9910505,9910501],"voronoi":{"lat":41.840527,"lng":140.776385,"delta_lat":[0,-72091,63133,3100,27512],"delta_lng":[0,-11972,29614,1301,8382]}},
    {"code":9910508,"left":9910507,"right":9910509,"id":"6141cd","name":"杉並町","name_kana":"すぎなみちょう","lat":41.788689,"lng":140.759304,"prefecture":1,"lines":[99105,99106],"attr":"cool","postal_code":"040-0004","address":"函館市杉並町２１番","next":[9910510,9910507,9910511,1110102,9910509],"voronoi":{"lat":41.786897,"lng":140.755353,"delta_lat":[0,-7247,-8246,62124,-17801],"delta_lng":[0,1372,3392,7889,-10272]}},
    {"code":9910507,"left":9910510,"id":"46653a","name":"柏木町","name_kana":"かしわぎちょう","lat":41.787937,"lng":140.765226,"prefecture":1,"lines":[99105,99106],"attr":"cool","postal_code":"042-0942","address":"函館市柏木町３番","next":[9910511,9910505,1110103,9910506,9910512,9910508,1110102],"voronoi":{"lat":41.833528,"lng":140.768007,"delta_lat":[0,-62124,-7792,-1476,6300,72091,-5529],"delta_lng":[0,-7889,1718,520,2058,11972,-7654]}},
    {"code":9910510,"id":"5efc17","name":"中央病院前","name_kana":"ちゅうおうびょういんまえ","lat":41.787121,"lng":140.751021,"prefecture":1,"lines":[99105,99106],"attr":"cool","postal_code":"040-0011","address":"函館市本町２番","next":[9910508,9910511,9910509],"voronoi":{"lat":41.77965,"lng":140.756725,"delta_lat":[0,11000,-3753],"delta_lng":[0,-12659,11287]}},
    {"code":9910509,"id":"e2391f","name":"五稜郭公園前","name_kana":"ごりょうかくこうえん","lat":41.789313,"lng":140.75175,"prefecture":1,"lines":[99105,99106],"attr":"cool","postal_code":"040-0011","address":"函館市本町２５番","next":[9910511,9910510,9910508,1110102],"voronoi":{"lat":41.793178,"lng":140.740097,"delta_lat":[0,-2527,-3753,28830],"delta_lng":[0,3970,11287,2381]}},
    {"code":1110117,"left":9910505,"right":1110416,"id":"c3e36f","name":"鹿部","name_kana":"しかべ","lat":42.06439,"lng":140.771393,"prefecture":1,"lines":[11101],"attr":"cool","postal_code":"041-1404","address":"茅部郡鹿部町字本別","next":[1110104,1110417,1110116,1110118,9910501,1110416,1110115,1110103],"voronoi":{"lat":41.947647,"lng":141.162033,"delta_lat":[0,162031,56747,-101599,-86516,-47102,-1390,-1351],"delta_lng":[0,-187437,-70400,-182176,83416,52127,4804,6079]}},
    {"code":9910505,"id":"50bc3e","name":"競馬場前(北海道)","original_name":"競馬場前","name_kana":"けいばじょうまえ","lat":41.784657,"lng":140.775268,"prefecture":1,"lines":[99105,99106],"attr":"cool","postal_code":"042-0941","address":"函館市深堀町２２番","next":[9910507,9910502,9910506,9910504,9910512,9910513],"voronoi":{"lat":41.752427,"lng":140.763665,"delta_lat":[0,9709,6300,63133,-77758,-4840],"delta_lng":[0,-1309,2058,29614,-27416,-2279]}},
    {"code":1110416,"id":"c1a600","name":"室蘭","name_kana":"むろらん","lat":42.317864,"lng":140.97571,"prefecture":1,"lines":[11104],"attr":"cool","postal_code":"051-0023","address":"室蘭市入江町１","next":[1110414,1110417,1110415,1110117,1110418,1110118],"voronoi":{"lat":42.243428,"lng":140.833037,"delta_lat":[0,96335,-1419,-12305,-216360,56747],"delta_lng":[0,111280,31332,7551,-8604,-70400]}},
    {"code":1110411,"left":1110408,"right":1110413,"id":"2eab44","name":"北舟岡","name_kana":"きたふなおか","lat":42.450528,"lng":140.880259,"prefecture":1,"lines":[11104],"attr":"eco","postal_code":"052-0014","address":"伊達市舟岡町","next":[1110412,1110410,1110422,1110423,1110413],"voronoi":{"lat":42.528794,"lng":141.011479,"delta_lat":[0,64973,70075,-282596,6010],"delta_lng":[0,11661,2171,-218004,13994]}},
    {"code":1110408,"left":1110410,"right":1110407,"id":"371781","name":"有珠","name_kana":"うす","lat":42.513267,"lng":140.793969,"prefecture":1,"lines":[11104],"attr":"eco","postal_code":"059-0151","address":"伊達市有珠町","next":[1110409,1110404,1110120,1110407,1110405,1110119],"voronoi":{"lat":42.620581,"lng":140.889126,"delta_lat":[0,-180214,-50760,-38933,-10182,-13218],"delta_lng":[0,-223889,-23819,-13142,27113,49527]}},
    {"code":1110410,"left":1110409,"id":"2fed5c","name":"伊達紋別","name_kana":"だてもんべつ","lat":42.469395,"lng":140.855802,"prefecture":1,"lines":[11104],"attr":"eco","postal_code":"052-0032","address":"伊達市山下町","next":[1110411,1110413,1110409,1110423,1110119],"voronoi":{"lat":42.381245,"lng":140.807306,"delta_lat":[0,282596,28718,-368235,-1101],"delta_lng":[0,218004,2617,-315522,2302]}},
    {"code":1110409,"id":"08953e","name":"長和","name_kana":"ながわ","lat":42.488262,"lng":140.833783,"prefecture":1,"lines":[11104],"attr":"eco","postal_code":"052-0035","address":"伊達市長和町","next":[1110210,1110119,1110211,1110408,1110423,1110410,1110407],"voronoi":{"lat":42.746754,"lng":141.03211,"delta_lat":[0,790,-54984,-368235,2949,293307,113219],"delta_lng":[0,3699,-7881,-315522,-7490,184210,101000]}},
    {"code":1110407,"id":"873f83","name":"洞爺","name_kana":"とうや","lat":42.55055,"lng":140.763959,"prefecture":1,"lines":[11104],"attr":"eco","postal_code":"049-5611","address":"虻田郡洞爺湖町旭町","next":[1110210,1110406,1110409,1110408,1110405],"voronoi":{"lat":42.711463,"lng":140.829119,"delta_lat":[0,22337,-113219,-180214,6679],"delta_lng":[0,161007,-101000,-223889,1894]}},
    {"code":1110413,"left":1110414,"right":1110412,"id":"cda027","name":"黄金(北海道)","original_name":"黄金","name_kana":"こがね","lat":42.386441,"lng":140.907781,"prefecture":1,"lines":[11104],"attr":"eco","postal_code":"059-0271","address":"伊達市南黄金町","next":[1110118,1110412,1110410,1110414,1110411,1110119],"voronoi":{"lat":42.245163,"lng":140.830458,"delta_lat":[0,169092,-26999,-6010,-58022,-38393],"delta_lng":[0,108940,-118098,-13994,-92599,46564]}},
    {"code":1110414,"id":"5b62da","name":"崎守","name_kana":"さきもり","lat":42.373968,"lng":140.927141,"prefecture":1,"lines":[11104],"attr":"eco","postal_code":"050-0055","address":"室蘭市崎守町","next":[1110416,1110118,1110415,1110412,1110413],"voronoi":{"lat":42.245163,"lng":140.830458,"delta_lat":[0,-1735,96335,92526,-18034],"delta_lng":[0,2579,111280,27956,-32875]}},
    {"code":1110412,"id":"fc13c9","name":"稀府","name_kana":"まれっぷ","lat":42.425567,"lng":140.898836,"prefecture":1,"lines":[11104],"attr":"eco","postal_code":"059-0273","address":"伊達市南稀府町","next":[1110411,1110413,1110415,1110422,1110414],"voronoi":{"lat":42.414255,"lng":140.939399,"delta_lat":[0,-26999,141538,-55252,-41253],"delta_lng":[0,-118098,190178,-4184,-35021]}},
    {"code":1110426,"left":1110422,"right":1110431,"id":"ed0a83","name":"竹浦","name_kana":"たけうら","lat":42.49284,"lng":141.260395,"prefecture":1,"lines":[11104],"attr":"heat","postal_code":"059-0642","address":"白老郡白老町字竹浦","next":[1110211,1120310,9910216,1111106,1111108,1110425,1110427,1110424,1120309],"voronoi":{"lat":41.862855,"lng":141.654264,"delta_lat":[0,2049,801659,109028,12537,-3834,-888819,-28556,-4204],"delta_lng":[0,-35150,-498040,-55938,9953,19474,560730,2393,-60]}},
    {"code":1110422,"left":1110420,"right":1110424,"id":"be5dfb","name":"幌別","name_kana":"ほろべつ","lat":42.409782,"lng":141.107293,"prefecture":1,"lines":[11104],"attr":"cool","postal_code":"059-0013","address":"登別市幌別町３丁目","next":[1110424,1110411,1110425,1110412,1110421,1110423,1110415],"voronoi":{"lat":42.473542,"lng":141.007295,"delta_lat":[0,55252,64973,-367989,-107740,-152828,504481],"delta_lng":[0,4184,11661,238783,61871,77851,-392834]}},
    {"code":1110420,"left":1110419,"right":1110421,"id":"4a7a46","name":"東室蘭","name_kana":"ひがしむろらん","lat":42.349374,"lng":141.026411,"prefecture":1,"lines":[11104],"attr":"cool","postal_code":"050-0083","address":"室蘭市東町２丁目","next":[1110421,1110417,1110419,1110415],"voronoi":{"lat":42.181582,"lng":141.141979,"delta_lat":[0,40629,136781,35471],"delta_lng":[0,-35812,-103235,6797]}},
    {"code":1110419,"left":1110418,"id":"5185ab","name":"輪西","name_kana":"わにし","lat":42.333775,"lng":141.005743,"prefecture":1,"lines":[11104],"attr":"cool","postal_code":"050-0087","address":"室蘭市仲町","next":[1110417,1110418,1110415,1110420],"voronoi":{"lat":42.358991,"lng":141.002932,"delta_lat":[0,-11031,-29049,-96701],"delta_lng":[0,-9769,11660,101344]}},
    {"code":1110418,"id":"15ab8b","name":"御崎","name_kana":"みさき","lat":42.329014,"lng":140.993881,"prefecture":1,"lines":[11104],"attr":"cool","postal_code":"051-0001","address":"室蘭市御崎町２丁目","next":[1110419,1110415,1110417,1110416],"voronoi":{"lat":42.338344,"lng":140.97565,"delta_lat":[0,9617,-29049,7127],"delta_lng":[0,17513,11660,-21622]}},
    {"code":1110421,"id":"a75a5f","name":"鷲別","name_kana":"わしべつ","lat":42.35953,"lng":141.042759,"prefecture":1,"lines":[11104],"attr":"cool","postal_code":"059-0034","address":"登別市鷲別町２丁目","next":[1110417,1120310,1110420,1110415,1110422,1110425],"voronoi":{"lat":41.96521,"lng":141.401645,"delta_lat":[0,504481,-75228,-212881,-321669,8367],"delta_lng":[0,-392834,918,132250,257593,61224]}},
    {"code":1110424,"left":1110423,"right":1110425,"id":"518f33","name":"登別","name_kana":"のぼりべつ","lat":42.45207,"lng":141.180931,"prefecture":1,"lines":[11104],"attr":"cool","postal_code":"059-0466","address":"登別市登別港町１丁目","next":[1110422,1110211,1110425,1110423,1110426],"voronoi":{"lat":42.77559,"lng":141.065136,"delta_lat":[0,-23664,-526149,-107740,548525],"delta_lng":[0,-24431,221218,61871,-202720]}},
    {"code":1110423,"id":"b29507","name":"富浦(北海道)","original_name":"富浦","name_kana":"とみうら","lat":42.441957,"lng":141.156878,"prefecture":1,"lines":[11104],"attr":"cool","postal_code":"059-0462","address":"登別市富浦町１丁目","next":[1110211,1110411,1110409,1110422,1110410,1110424],"voronoi":{"lat":42.593767,"lng":141.02314,"delta_lat":[0,70075,28718,54984,4383,-526149],"delta_lng":[0,2171,2617,7881,4896,221218]}},
    {"code":1110425,"id":"6ccddf","name":"虎杖浜","name_kana":"こじょうはま","lat":42.464695,"lng":141.215092,"prefecture":1,"lines":[11104],"attr":"heat","postal_code":"059-0641","address":"白老郡白老町字虎杖浜","next":[1110424,1110422,1110426,1120310,1110421],"voronoi":{"lat":41.864903,"lng":141.619114,"delta_lat":[0,801659,-548525,-152828,-96930],"delta_lng":[0,-498040,202720,77851,59151]}},
    {"code":1110431,"left":1110429,"right":1110433,"id":"d97acf","name":"錦岡","name_kana":"にしきおか","lat":42.6025,"lng":141.48722,"prefecture":1,"lines":[11104],"attr":"heat","postal_code":"059-1275","address":"苫小牧市字錦岡","next":[9910216,1111106,1110911,1110430,1110910,1111102,1110432],"voronoi":{"lat":42.144997,"lng":141.667015,"delta_lat":[0,-137482,777126,5329,-1375,-20066,-584813],"delta_lng":[0,-15688,-265229,16090,4734,56860,198353]}},
    {"code":1110429,"left":1110428,"right":1110430,"id":"123518","name":"白老","name_kana":"しらおい","lat":42.55474,"lng":141.360054,"prefecture":1,"lines":[11104],"attr":"heat","postal_code":"059-0904","address":"白老郡白老町東町１丁目","next":[9910216,1110428,1110430],"voronoi":{"lat":42.772324,"lng":141.187356,"delta_lat":[0,411,-566120],"delta_lng":[0,115422,236220]}},
    {"code":1110428,"left":1110427,"id":"504b3c","name":"萩野","name_kana":"はぎの","lat":42.521159,"lng":141.30603,"prefecture":1,"lines":[11104],"attr":"heat","postal_code":"059-0922","address":"白老郡白老町字萩野","next":[1110427,1110430,1110429,9910216,1111106],"voronoi":{"lat":41.990812,"lng":141.650427,"delta_lat":[0,215803,565709,5675,-851246],"delta_lng":[0,-111430,-351642,-50831,516817]}},
    {"code":1110427,"id":"4d5eeb","name":"北吉原","name_kana":"きたよしはら","lat":42.509119,"lng":141.286199,"prefecture":1,"lines":[11104],"attr":"heat","postal_code":"059-0923","address":"白老郡白老町字北吉原","next":[1110428,9910216,1110426,1111106],"voronoi":{"lat":42.784293,"lng":141.094562,"delta_lat":[0,-6294,-851246,-31279],"delta_lng":[0,41962,516817,1951]}},
    {"code":1110430,"id":"829ff5","name":"社台","name_kana":"しゃだい","lat":42.578682,"lng":141.417433,"prefecture":1,"lines":[11104],"attr":"heat","postal_code":"059-0901","address":"白老郡白老町字社台","next":[1110428,1110431,1111106,9910216,1110429],"voronoi":{"lat":41.990812,"lng":141.650427,"delta_lat":[0,16703,777126,-11906,-566120],"delta_lng":[0,900,-265229,-83321,236220]}},
    {"code":1110433,"left":1110432,"right":1110434,"id":"0485ee","name":"青葉","name_kana":"あおば","lat":42.62999,"lng":141.568278,"prefecture":1,"lines":[11104],"attr":"heat","postal_code":"053-0807","address":"苫小牧市青葉町１丁目","next":[1110432,1111102,1110908,1110434,1110909],"voronoi":{"lat":42.760249,"lng":141.511798,"delta_lat":[0,-416623,87675,322965,3353],"delta_lng":[0,141256,-1548,-109412,-13617]}},
    {"code":1110432,"id":"ac8e06","name":"糸井","name_kana":"いとい","lat":42.6225,"lng":141.546187,"prefecture":1,"lines":[11104],"attr":"heat","postal_code":"053-0816","address":"苫小牧市日吉町３丁目","next":[1110909,1110433,1111102,1110910,1110431],"voronoi":{"lat":42.76853,"lng":141.463782,"delta_lat":[0,-5833,-2447,-416623,-159910],"delta_lng":[0,37953,10063,141256,9081]}},
    {"code":1110434,"id":"214559","name":"苫小牧","name_kana":"とまこまい","lat":42.639665,"lng":141.596837,"prefecture":1,"lines":[11104,11105,11109,11111],"attr":"eco","postal_code":"053-0022","address":"苫小牧市表町６丁目","next":[1111102,1110907,1110908,1110502,1110433,1110905],"voronoi":{"lat":42.746704,"lng":141.580552,"delta_lat":[0,4888,2675,-322965,177503,114117],"delta_lng":[0,-16718,-21739,109412,9307,-38387]}}
  ]
}