{
  "name":"segment8",
  "root":1172116,
  "east":131.97669,
  "west":130.724903,
  "south":33.868913,
  "north":34.581519,
  "station_size":144,
  "node_list":[
    {"code":1172116,"left":1161229,"right":100315,"id":"0c556a","name":"居能","name_kana":"いのう","lat":33.96706,"lng":131.228161,"prefecture":35,"lines":[11721,11723],"attr":"heat","postal_code":"755-0055","address":"宇部市居能町２丁目","next":[1172117,1172311,1172303,1172115,1172304],"voronoi":{"lat":33.947955,"lng":131.212773,"delta_lat":[0,22226,6750,-48792,3613],"delta_lng":[0,2889,28291,-29695,-1228]}},
    {"code":1161229,"left":1190203,"right":1161232,"id":"bc6384","name":"小野田","name_kana":"おのだ","lat":34.007877,"lng":131.185605,"prefecture":35,"lines":[11612,11723],"attr":"cool","postal_code":"756-0088","address":"山陽小野田市東高泊","next":[1172309,1161228,100316],"voronoi":{"lat":34.011437,"lng":131.138758,"delta_lat":[0,-12875,52952],"delta_lng":[0,63963,7132]}},
    {"code":1190203,"left":1191004,"right":1172304,"id":"ebf907","name":"小森江","name_kana":"こもりえ","lat":33.916352,"lng":130.938674,"prefecture":40,"lines":[11902,11906],"attr":"heat","postal_code":"800-0007","address":"北九州市門司区小森江３丁目","next":[9992801,1161237,1190202,1161236],"voronoi":{"lat":33.930683,"lng":130.95019,"delta_lat":[0,-54407,46387,15332],"delta_lng":[0,64194,-106692,33296]}},
    {"code":1191004,"left":1190206,"right":1161236,"id":"4019cd","name":"二島","name_kana":"ふたじま","lat":33.889687,"lng":130.748413,"prefecture":40,"lines":[11910],"attr":"cool","postal_code":"808-0103","address":"北九州市若松区大字二島","next":[1191002,1170232,1190213,1191001,1191003,1170233,9990903,1191005],"voronoi":{"lat":34.181433,"lng":130.565108,"delta_lat":[0,-115610,-17865,-6307,-91611,-70865,-1867,4164],"delta_lng":[0,161250,20726,1252,10248,-2241,-4640,-15511]}},
    {"code":1190206,"left":1190209,"right":9990802,"id":"5a5215","name":"西小倉","name_kana":"にしこくら","lat":33.888673,"lng":130.873897,"prefecture":40,"lines":[11902,11906,11914],"attr":"heat","postal_code":"803-0812","address":"北九州市小倉北区室町３丁目","next":[9990803,1190207,1190606,1161236,100318,9990802],"voronoi":{"lat":33.928483,"lng":130.887188,"delta_lat":[0,11520,-53385,-7547,4771,2681],"delta_lng":[0,-14448,-18500,15677,6099,2012]}},
    {"code":1190209,"left":1190606,"right":1191003,"id":"f5e734","name":"枝光","name_kana":"えだみつ","lat":33.879367,"lng":130.813318,"prefecture":40,"lines":[11902],"attr":"eco","postal_code":"805-0002","address":"北九州市八幡東区枝光２丁目","next":[1191001,1191002,1190606,1190208,1190207,1190210],"voronoi":{"lat":33.886102,"lng":130.797446,"delta_lat":[0,230,4343,-9335,-7140,-21171],"delta_lng":[0,102,13514,22345,5613,-3856]}},
    {"code":1190606,"left":1190210,"id":"465c6e","name":"南小倉","name_kana":"みなみこくら","lat":33.869972,"lng":130.864895,"prefecture":40,"lines":[11906,11914],"attr":"heat","postal_code":"803-0851","address":"北九州市小倉北区木町３丁目","next":[9990808,9990803,1190209,1190206,1190210,9990807,1190207,9990806,9990811,9990809,9990804,9990810,9990805],"voronoi":{"lat":33.87647,"lng":130.871728,"delta_lat":[0,2602,7547,-12419,-21171,-4894,-10,1104,1146,412,5143,6573,7334],"delta_lng":[0,-1812,-15677,-15219,-3856,-106,353,16417,4787,960,8175,5173,2160]}},
    {"code":1190210,"id":"004fdb","name":"スペースワールド","name_kana":"すぺーすわーるど","lat":33.871246,"lng":130.806197,"prefecture":40,"lines":[11902],"attr":"cool","postal_code":"805-0057","address":"北九州市八幡東区大字尾倉４００-４","next":[1190606,1190211,1191002,9990811,1190209],"voronoi":{"lat":33.886102,"lng":130.797446,"delta_lat":[0,-129,-66920,29082,4894],"delta_lng":[0,-118,14209,23521,106]}},
    {"code":1191003,"id":"9077f3","name":"奥洞海","name_kana":"おくどうかい","lat":33.889165,"lng":130.76492,"prefecture":40,"lines":[11910],"attr":"heat","postal_code":"808-0075","address":"北九州市若松区赤岩町９-１","next":[9990903,1191002,1190212,1191004,9990902],"voronoi":{"lat":33.878619,"lng":130.776572,"delta_lat":[0,71421,-70865,-790,-568],"delta_lng":[0,-17988,-2241,2597,3701]}},
    {"code":9990802,"left":9990804,"right":100318,"id":"cb2b5c","name":"平和通","name_kana":"へいわどおり","lat":33.883159,"lng":130.881246,"prefecture":40,"lines":[99908],"attr":"eco","postal_code":"802-0006","address":"北九州市小倉北区魚町２","next":[9990803,100318,9990804,1190206],"voronoi":{"lat":33.883842,"lng":130.876016,"delta_lat":[0,-6396,-776,9853],"delta_lng":[0,15419,11344,-24751]}},
    {"code":9990804,"left":9990803,"id":"1a8629","name":"香春口三萩野","name_kana":"かわらぐちみはぎの","lat":33.873174,"lng":130.880563,"prefecture":40,"lines":[99908],"attr":"eco","postal_code":"802-0084","address":"北九州市小倉北区香春口１","next":[100318,1190607,9990802,9990805,9990803,1190606],"voronoi":{"lat":33.87647,"lng":130.871728,"delta_lat":[0,977,-776,-1058,-7008,1232],"delta_lng":[0,19706,11344,6790,-18477,-18008]}},
    {"code":9990803,"id":"3fb10b","name":"旦過","name_kana":"たんが","lat":33.880623,"lng":130.880194,"prefecture":40,"lines":[99908],"attr":"eco","postal_code":"802-0006","address":"北九州市小倉北区魚町４","next":[1190206,9990802,1190606,9990804],"voronoi":{"lat":33.87647,"lng":130.871728,"delta_lat":[0,2602,4771,-6396],"delta_lng":[0,-1812,6099,15419]}},
    {"code":100318,"id":"456856","name":"小倉(福岡)","original_name":"小倉","name_kana":"こくら","lat":33.886756,"lng":130.882678,"prefecture":40,"lines":[1003,11902,11906,11914,99908],"attr":"heat","postal_code":"802-0001","address":"北九州市小倉北区浅野１丁目","next":[9990804,9990802,1161237,1161236,1190206,1190607],"voronoi":{"lat":33.920771,"lng":130.89933,"delta_lat":[0,7712,-41960,-9853,-1058,644],"delta_lng":[0,-12143,-9160,24751,6790,5155]}},
    {"code":1161236,"left":1190207,"right":1161235,"id":"fc3cbd","name":"下関","name_kana":"しものせき","lat":33.950306,"lng":130.923038,"prefecture":35,"lines":[11612,11702,11902],"attr":"heat","postal_code":"750-0025","address":"下関市大字竹崎町４丁目","next":[9992803,1161235,1190207,1190206,100318,1190202,1161237,1190203],"voronoi":{"lat":33.922662,"lng":130.907693,"delta_lat":[0,-1891,7712,11520,36148,-12543,-8167,-17447],"delta_lng":[0,-8362,-12143,-14448,-21745,91212,1123,-2341]}},
    {"code":1190207,"left":1190208,"right":1191001,"id":"28496c","name":"九州工大前","name_kana":"きゅうしゅうこうだいまえ","lat":33.900396,"lng":130.840068,"prefecture":40,"lines":[11902],"attr":"eco","postal_code":"804-0011","address":"北九州市戸畑区中原西１丁目","next":[1191001,1170235,1190206,1190208,1161235,1190606,1161236,1190209],"voronoi":{"lat":33.88134,"lng":130.833408,"delta_lat":[0,54024,59867,-11302,-7777,-36148,-53385,-12419],"delta_lng":[0,-9418,1388,18381,7236,21745,-18500,-15219]}},
    {"code":1190208,"left":1191002,"id":"7430da","name":"戸畑","name_kana":"とばた","lat":33.897018,"lng":130.820692,"prefecture":40,"lines":[11902],"attr":"eco","postal_code":"804-0067","address":"北九州市戸畑区汐井町","next":[1190207,1190209,1191001],"voronoi":{"lat":33.88134,"lng":130.833408,"delta_lat":[0,9335,44689],"delta_lng":[0,-22345,12927]}},
    {"code":1191002,"id":"99a16b","name":"藤ノ木","name_kana":"ふじのき","lat":33.893426,"lng":130.781838,"prefecture":40,"lines":[11910],"attr":"heat","postal_code":"808-0073","address":"北九州市若松区赤島町","next":[1191004,1191001,1190209,1190211,1191003,1190210,1190212],"voronoi":{"lat":33.885972,"lng":130.797329,"delta_lat":[0,129,230,155320,-91611,-71421,-2058],"delta_lng":[0,118,102,-49213,10248,17988,3504]}},
    {"code":1191001,"id":"d0d1df","name":"若松","name_kana":"わかまつ","lat":33.901179,"lng":130.806307,"prefecture":40,"lines":[11910],"attr":"heat","postal_code":"808-0035","address":"北九州市若松区白山１丁目","next":[1190207,1190209,1191002,1170235,1191004,1170233,1190208],"voronoi":{"lat":33.995231,"lng":130.825378,"delta_lat":[0,21302,31426,-6307,-155320,4343,44689],"delta_lng":[0,-23891,-54403,1252,49213,13514,12927]}},
    {"code":1161235,"left":1161237,"right":1170236,"id":"098f19","name":"幡生","name_kana":"はたぶ","lat":33.981592,"lng":130.92734,"prefecture":35,"lines":[11612,11702],"attr":"heat","postal_code":"751-0829","address":"下関市幡生宮の下町","next":[100317,1161236,1190207,9992804,1170236,9992803,1170235],"voronoi":{"lat":33.993104,"lng":130.938282,"delta_lat":[0,-12201,-10197,-7098,12543,7777,7190],"delta_lng":[0,14193,-5343,-4926,-91212,-7236,29101]}},
    {"code":1161237,"id":"9834f5","name":"門司","name_kana":"もじ","lat":33.904309,"lng":130.933438,"prefecture":40,"lines":[11612,11902,11906],"attr":"heat","postal_code":"800-0039","address":"北九州市門司区中町","next":[1190608,9992801,1190609,1190203,1190610,100318,1190607,1161236],"voronoi":{"lat":33.920771,"lng":130.89933,"delta_lat":[0,-44515,-45,-7854,1470,2774,3674,46387],"delta_lng":[0,15393,44,16348,75890,12456,-5077,-106692]}},
    {"code":1170236,"id":"ab6ac3","name":"綾羅木","name_kana":"あやらぎ","lat":34.003932,"lng":130.926662,"prefecture":35,"lines":[11702],"attr":"heat","postal_code":"751-0849","address":"下関市綾羅木本町２","next":[100317,1170235,1170240,1161235],"voronoi":{"lat":33.991119,"lng":130.87286,"delta_lat":[0,2503,18802,-19319],"delta_lng":[0,5238,58630,1555]}},
    {"code":1172304,"left":9992804,"right":1172309,"id":"c62555","name":"長門長沢","name_kana":"ながとながさわ","lat":33.966562,"lng":131.196786,"prefecture":35,"lines":[11723],"attr":"cool","postal_code":"759-0206","address":"宇部市大字東須恵","next":[1172303,1172305,1172306,1172307,1172311,1172308,1172116],"voronoi":{"lat":33.93854,"lng":131.206726,"delta_lat":[0,33792,2832,2249,3129,-32588,-16203],"delta_lng":[0,-19994,712,1119,3566,20643,257]}},
    {"code":9992804,"left":9992802,"right":1172311,"id":"a66925","name":"関門海峡めかり","name_kana":"かんもんかいきょうめかり","lat":33.960627,"lng":130.967347,"prefecture":40,"lines":[99928],"attr":"heat","postal_code":"801-0855","address":"福岡県北九州市門司区門司","next":[9992803,1172312,1161235,9992802,1161233,100317],"voronoi":{"lat":33.980903,"lng":130.952476,"delta_lat":[0,-10197,-17686,-15262,4977,49591],"delta_lng":[0,-5343,26612,95326,432,-90415]}},
    {"code":9992802,"left":9992801,"right":9992803,"id":"66533e","name":"出光美術館","name_kana":"いでみつびじゅつかん","lat":33.947792,"lng":130.965292,"prefecture":40,"lines":[99928],"attr":"eco","postal_code":"800-0000","address":"福岡県北九州市門司区","next":[1190611,9992803,1190202,9992804,1172312,9992801],"voronoi":{"lat":33.874141,"lng":131.067529,"delta_lat":[0,63617,15262,-1743,-4811,-73694],"delta_lng":[0,1541,-95326,-13737,3412,87823]}},
    {"code":9992801,"left":1190202,"id":"e90452","name":"九州鉄道記念館","name_kana":"きゅうしゅうてつどうきねんかん","lat":33.944392,"lng":130.962439,"prefecture":40,"lines":[99928],"attr":"eco","postal_code":"800-0000","address":"福岡県北九州市門司区","next":[1190610,1161237,1190203,1190611,1190202,9992802],"voronoi":{"lat":33.946466,"lng":130.96342,"delta_lat":[0,-15784,-54407,-3674,-1071,1242],"delta_lng":[0,-13229,64194,5077,19797,11984]}},
    {"code":1190202,"id":"4f17c1","name":"門司港","name_kana":"もじこう","lat":33.945138,"lng":130.961549,"prefecture":40,"lines":[11902,11906],"attr":"heat","postal_code":"801-0841","address":"北九州市門司区西海岸１丁目","next":[9992802,1190203,9992803,1161236,9992801],"voronoi":{"lat":33.930683,"lng":130.95019,"delta_lat":[0,7312,17447,-4164,-4811],"delta_lng":[0,-9202,2341,16678,3412]}},
    {"code":9992803,"id":"d6367f","name":"ノーフォーク広場","name_kana":"のーふぉーくひろば","lat":33.955973,"lng":130.964254,"prefecture":40,"lines":[99928],"attr":"heat","postal_code":"801-0854","address":"福岡県北九州市門司区旧門司","next":[1161236,9992802,9992804,1190202,1161235],"voronoi":{"lat":33.963609,"lng":130.942206,"delta_lat":[0,-8167,-4164,1743,17686],"delta_lng":[0,1123,16678,13737,-26612]}},
    {"code":1172311,"left":1172312,"right":1172305,"id":"ec8289","name":"浜河内","name_kana":"はまごうち","lat":33.950529,"lng":131.179518,"prefecture":35,"lines":[11723],"attr":"heat","postal_code":"756-0817","address":"山陽小野田市小野田","next":[1172305,1172116,1172112,1172312,1172306,1172115,1172304],"voronoi":{"lat":33.928139,"lng":131.214258,"delta_lat":[0,-11925,-1305,43264,2801,-22433,-6789],"delta_lng":[0,1486,-251,-53344,13752,30826,6303]}},
    {"code":1172312,"id":"4fe46a","name":"長門本山","name_kana":"ながともとやま","lat":33.942755,"lng":131.173213,"prefecture":35,"lines":[11723],"attr":"heat","postal_code":"756-0817","address":"山陽小野田市小野田","next":[1190620,1172306,9992804,1190611,1172311,1172112,1161231,1161233,1190616,9992802,1190619],"voronoi":{"lat":33.776741,"lng":131.202929,"delta_lat":[0,138167,43264,4809,-13852,-6394,-4977,-63617,-79638,-14021,-2426],"delta_lng":[0,12564,-53344,-72758,-17072,-2816,-432,-1541,64913,27976,16640]}},
    {"code":1172305,"id":"22f500","name":"雀田","name_kana":"すずめだ","lat":33.960743,"lng":131.186951,"prefecture":35,"lines":[11723],"attr":"cool","postal_code":"756-0817","address":"山陽小野田市小野田","next":[1172311,1172304,1172306],"voronoi":{"lat":33.960973,"lng":131.175901,"delta_lat":[0,-22433,33792],"delta_lng":[0,30826,-19994]}},
    {"code":1172309,"left":1172308,"right":1172117,"id":"863a9e","name":"目出","name_kana":"めで","lat":33.996595,"lng":131.183334,"prefecture":35,"lines":[11723],"attr":"eco","postal_code":"756-0817","address":"山陽小野田市小野田","next":[1161229,1172303,100316,1161228,1172308],"voronoi":{"lat":34.011433,"lng":131.138748,"delta_lat":[0,4,-12875,-7048,-6340],"delta_lng":[0,9,63963,1180,-8553]}},
    {"code":1172308,"left":1172306,"right":100317,"id":"1d41db","name":"南中川","name_kana":"みなみなかがわ","lat":33.986973,"lng":131.17887,"prefecture":35,"lines":[11723],"attr":"eco","postal_code":"756-0806","address":"山陽小野田市中川２丁目","next":[100316,1172303,1172307,1172309,1161231,1172304],"voronoi":{"lat":33.977413,"lng":131.188564,"delta_lat":[0,26748,3615,3657,-26259,-4632],"delta_lng":[0,-65101,2444,12842,56599,-3218]}},
    {"code":1172306,"left":1172307,"id":"155a57","name":"小野田港","name_kana":"おのだこう","lat":33.972,"lng":131.175146,"prefecture":35,"lines":[11723],"attr":"cool","postal_code":"756-0833","address":"山陽小野田市北竜王町","next":[1172304,1172312,1161231,1172307,1172311,1172305],"voronoi":{"lat":33.975165,"lng":131.187445,"delta_lat":[0,-3275,-8908,-4809,2801,11359],"delta_lng":[0,-90267,-7787,72758,13752,10832]}},
    {"code":1172307,"id":"ded1b5","name":"南小野田","name_kana":"みなみおのだ","lat":33.97743,"lng":131.174949,"prefecture":35,"lines":[11723],"attr":"cool","postal_code":"756-0837","address":"山陽小野田市平成町","next":[1172308,1172306,1172304,1161231],"voronoi":{"lat":33.977413,"lng":131.188564,"delta_lat":[0,-2249,-3275,32272],"delta_lng":[0,-1119,-90267,26285]}},
    {"code":100317,"id":"78a2be","name":"新下関","name_kana":"しんしものせき","lat":34.005651,"lng":130.948021,"prefecture":35,"lines":[1003,11612],"attr":"heat","postal_code":"751-0872","address":"下関市秋根南町１丁目","next":[1170236,1161233,1161235,1170240,1170235,1170234,9992804],"voronoi":{"lat":34.05111,"lng":130.963545,"delta_lat":[0,-13793,-3915,-20978,-19319,-12201,11423],"delta_lng":[0,-17691,-2403,-6723,1555,14193,26612]}},
    {"code":1172117,"left":1172303,"right":1161228,"id":"e5f561","name":"岩鼻","name_kana":"いわはな","lat":33.978608,"lng":131.225406,"prefecture":35,"lines":[11721],"attr":"heat","postal_code":"755-0057","address":"宇部市大字藤曲","next":[1161227,1172116,1161228,1172303,1172115],"voronoi":{"lat":33.97693,"lng":131.243953,"delta_lat":[0,-6750,18410,8275,-1656],"delta_lng":[0,-28291,-6712,54372,2349]}},
    {"code":1172303,"id":"238d5a","name":"妻崎","name_kana":"つまざき","lat":33.970359,"lng":131.20278,"prefecture":35,"lines":[11723],"attr":"cool","postal_code":"759-0206","address":"宇部市大字東須恵","next":[1172304,1172309,1172308,1161228,1172117,1172116],"voronoi":{"lat":33.988591,"lng":131.20895,"delta_lat":[0,2924,-6340,-4632,-32588,22226],"delta_lng":[0,-5049,-8553,-3218,20643,2889]}},
    {"code":1161228,"id":"2d52df","name":"宇部","name_kana":"うべ","lat":34.003017,"lng":131.221691,"prefecture":35,"lines":[11612,11721],"attr":"cool","postal_code":"759-0207","address":"宇部市大字際波","next":[100316,1161227,1172303,1172117,1172309,1161229,1172202],"voronoi":{"lat":33.996866,"lng":131.263322,"delta_lat":[0,-8275,2924,7048,52952,712,4087],"delta_lng":[0,-54372,-5049,-1180,7132,581,6878]}},
    {"code":1161232,"left":1170229,"right":1172208,"id":"518916","name":"小月","name_kana":"おづき","lat":34.067907,"lng":131.033038,"prefecture":35,"lines":[11612],"attr":"heat","postal_code":"750-1143","address":"下関市小月駅前１丁目","next":[1161231,1170229,1170234,1172203,1161233,1170230,1170231,1170228,1172204,1170233],"voronoi":{"lat":34.089177,"lng":130.968755,"delta_lat":[0,-14619,-52361,99897,27226,37793,-9380,-39596,-33451,-14266],"delta_lng":[0,2587,75961,34768,-10299,-20557,-13210,-38676,-23461,-7093]}},
    {"code":1170229,"left":1170235,"right":1170228,"id":"deca11","name":"小串","name_kana":"こぐし","lat":34.170186,"lng":130.928326,"prefecture":35,"lines":[11702],"attr":"cool","postal_code":"759-6302","address":"下関市豊浦町大字小串","next":[1170231,1161232,1170226,1170230,1170228,1170227],"voronoi":{"lat":34.197637,"lng":130.842135,"delta_lat":[0,-5523,-9610,-44368,39596,20105],"delta_lng":[0,-33102,24848,165447,38676,-180335]}},
    {"code":1170235,"left":1170232,"right":1161233,"id":"fe4c6a","name":"安岡","name_kana":"やすおか","lat":34.024921,"lng":130.916635,"prefecture":35,"lines":[11702],"attr":"heat","postal_code":"759-6612","address":"下関市安岡駅前１","next":[1190207,1170234,1170240,1191001,1170236,100317,1170233,1161235],"voronoi":{"lat":33.993621,"lng":130.878098,"delta_lat":[0,39780,3915,-3640,-17144,-21302,-11302,7190],"delta_lng":[0,65353,2403,-84078,-60289,23891,18381,29101]}},
    {"code":1170232,"left":1170234,"right":1170231,"id":"caa854","name":"梅ヶ峠","name_kana":"うめがとう","lat":34.101469,"lng":130.900253,"prefecture":35,"lines":[11702],"attr":"cool","postal_code":"759-6314","address":"山口県下関市豊浦町大字厚母郷字梅ヶ峠2","next":[1170231,1191005,1191004,1170233,1190217,1170226],"voronoi":{"lat":34.092013,"lng":130.95751,"delta_lat":[0,-26190,115610,5676,25494,-18698],"delta_lng":[0,-231152,-161250,-7244,-24026,193659]}},
    {"code":1170234,"left":1170233,"id":"38f8c8","name":"福江","name_kana":"ふくえ","lat":34.04714,"lng":130.915673,"prefecture":35,"lines":[11702],"attr":"heat","postal_code":"759-6601","address":"下関市大字福江","next":[1170235,1161232,1170233,1161233,100317],"voronoi":{"lat":34.074557,"lng":130.971342,"delta_lat":[0,14619,-55500,3640,13793],"delta_lng":[0,-2587,-106979,84078,17691]}},
    {"code":1170233,"id":"de6ecc","name":"吉見","name_kana":"よしみ","lat":34.069987,"lng":130.90382,"prefecture":35,"lines":[11702],"attr":"cool","postal_code":"759-6531","address":"下関市吉見本町１","next":[1170234,1191001,1170232,1170231,1170235,1191004,1161232],"voronoi":{"lat":34.092013,"lng":130.95751,"delta_lat":[0,-26190,-17865,-31426,17144,55500,1243],"delta_lng":[0,-231152,20726,54403,60289,106979,20]}},
    {"code":1170231,"id":"f2f61f","name":"黒井村","name_kana":"くろいむら","lat":34.128066,"lng":130.912035,"prefecture":35,"lines":[11702],"attr":"cool","postal_code":"759-6312","address":"下関市豊浦町大字黒井","next":[1170232,1170229,1170230,1170226,1161232,1170233],"voronoi":{"lat":34.104686,"lng":130.975867,"delta_lat":[0,77819,9610,1791,-101892,-1594],"delta_lng":[0,-141986,-24848,-81537,230013,11265]}},
    {"code":1161233,"left":1170240,"right":1170230,"id":"3249be","name":"長府","name_kana":"ちょうふ","lat":34.019264,"lng":130.999508,"prefecture":35,"lines":[11612],"attr":"heat","postal_code":"752-0933","address":"下関市長府松小田本町","next":[100317,1161231,1161232,1170234,1172312,9992804],"voronoi":{"lat":33.94913,"lng":131.072319,"delta_lat":[0,73067,52361,-23448,-58783,-49591],"delta_lng":[0,-25016,-75961,-7797,15543,90415]}},
    {"code":1170240,"id":"b11de8","name":"梶栗郷台地","name_kana":"かじくりごうだいち","lat":34.013477,"lng":130.923601,"prefecture":35,"lines":[11702],"attr":"heat","postal_code":"751-0865","address":"下関市綾羅木新町３丁目","next":[1170235,100317,1170236],"voronoi":{"lat":33.993621,"lng":130.878098,"delta_lat":[0,39780,-20978],"delta_lng":[0,65353,-6723]}},
    {"code":1170230,"id":"b6139d","name":"川棚温泉","name_kana":"かわたなおんせん","lat":34.145914,"lng":130.921817,"prefecture":35,"lines":[11702],"attr":"cool","postal_code":"759-6301","address":"下関市豊浦町大字川棚","next":[1170231,1161232,1170229],"voronoi":{"lat":34.182504,"lng":130.833882,"delta_lat":[0,-77819,33451],"delta_lng":[0,141986,23461]}},
    {"code":1170228,"left":1170224,"right":1170222,"id":"aab2b2","name":"湯玉","name_kana":"ゆたま","lat":34.209249,"lng":130.932681,"prefecture":35,"lines":[11702],"attr":"cool","postal_code":"759-6303","address":"下関市豊浦町大字宇賀","next":[1172204,1161232,1170229,1170225,1170227],"voronoi":{"lat":34.197838,"lng":130.857669,"delta_lat":[0,-20105,9380,36584,12677],"delta_lng":[0,180335,13210,11473,-68386]}},
    {"code":1170224,"left":1170227,"right":1170223,"id":"cd4a81","name":"特牛","name_kana":"こっとい","lat":34.305979,"lng":130.91887,"prefecture":35,"lines":[11702],"attr":"cool","postal_code":"759-5331","address":"下関市豊北町大字神田","next":[1170226,1170225,1190217,1170223,1190220],"voronoi":{"lat":34.3192,"lng":130.383511,"delta_lat":[0,-40630,36062,197436,-145833],"delta_lng":[0,536067,28975,-830337,191239]}},
    {"code":1170227,"left":1170226,"id":"b31057","name":"宇賀本郷","name_kana":"うかほんごう","lat":34.227303,"lng":130.927589,"prefecture":35,"lines":[11702],"attr":"cool","postal_code":"759-6303","address":"下関市豊浦町大字宇賀","next":[1170225,1170226,1170229,1170228],"voronoi":{"lat":34.197838,"lng":130.857669,"delta_lat":[0,-200,54919,-16183],"delta_lng":[0,-15534,103826,48340]}},
    {"code":1170226,"id":"dac080","name":"長門二見","name_kana":"ながとふたみ","lat":34.251581,"lng":130.914747,"prefecture":35,"lines":[11702],"attr":"cool","postal_code":"759-6121","address":"下関市豊北町大字神田上","next":[1170224,1190217,1170229,1170231,1170227,1170225,1170232],"voronoi":{"lat":34.212604,"lng":130.533837,"delta_lat":[0,106597,-40630,-26014,-54919,-5523,1791],"delta_lng":[0,-150326,536067,26383,-103826,-33102,-81537]}},
    {"code":1170223,"id":"a06761","name":"阿川","name_kana":"あがわ","lat":34.335721,"lng":130.925942,"prefecture":35,"lines":[11702],"attr":"cool","postal_code":"759-5241","address":"下関市豊北町大字阿川","next":[1170225,1170224,1190920,1170222,1190222,9991120,1111553,9970305,1190220],"voronoi":{"lat":34.314633,"lng":130.948553,"delta_lat":[0,5032,10706744,12284059,16568055,-38728934,-94673,-313051,-229796],"delta_lng":[0,12714,-5254978,-7374414,-17076941,28057213,85492,407390,313187]}},
    {"code":1170222,"left":1170225,"right":1170221,"id":"b7fce1","name":"長門粟野","name_kana":"ながとあわの","lat":34.357431,"lng":130.970175,"prefecture":35,"lines":[11702],"attr":"eco","postal_code":"759-5101","address":"下関市豊北町大字粟野","next":[9970305,1170134,1170123,1170205,1170225,1170223,1170221],"voronoi":{"lat":34.319664,"lng":130.961267,"delta_lat":[0,10706744,-5026241,-1478582,-334686,-467542,-3415159],"delta_lng":[0,-5254978,3031550,839802,171910,194531,1065288]}},
    {"code":1170225,"id":"2a3d3e","name":"滝部","name_kana":"たきべ","lat":34.283782,"lng":130.946497,"prefecture":35,"lines":[11702],"attr":"cool","postal_code":"759-5511","address":"下関市豊北町大字滝部","next":[1172208,1170227,1170221,1170224,1172204,1170220,1170222,1170223,1170226,1170228],"voronoi":{"lat":34.239574,"lng":131.0735,"delta_lat":[0,1351,38624,24650,15466,-5032,-36062,-26014,-16183,-12677],"delta_lng":[0,245,-31498,-32876,-48103,-12714,-28975,26383,48340,68386]}},
    {"code":1170221,"id":"558629","name":"伊上","name_kana":"いがみ","lat":34.370275,"lng":131.011351,"prefecture":35,"lines":[11702],"attr":"eco","postal_code":"759-4505","address":"長門市油谷伊上","next":[1170220,1170225,1170205,1170219,1170222],"voronoi":{"lat":37.719358,"lng":129.944083,"delta_lat":[0,-1980735,-1164118,-294956,24650],"delta_lng":[0,838424,234629,25111,-32876]}},
    {"code":1172208,"left":1172202,"right":1172211,"id":"2099d5","name":"於福","name_kana":"おふく","lat":34.236421,"lng":131.20794,"prefecture":35,"lines":[11722],"attr":"eco","postal_code":"759-2302","address":"美祢市於福町下","next":[1170225,1172209,1172204,1170805,1172207,1172210,1170220,1170215,1170804,1172205],"voronoi":{"lat":34.230109,"lng":131.093496,"delta_lat":[0,9465,1351,3455,18552,23676,-35300,-26561,-7172,-3320],"delta_lng":[0,-19996,245,3162,51194,158007,57949,-10516,-3719,-183849]}},
    {"code":1172202,"left":1172203,"right":1172206,"id":"551634","name":"湯ノ峠","name_kana":"ゆのとう","lat":34.085649,"lng":131.172601,"prefecture":35,"lines":[11722],"attr":"cool","postal_code":"757-0001","address":"山陽小野田市厚狭","next":[1172204,1172206,100316,1172205,1161228,1161227,1172203],"voronoi":{"lat":34.119555,"lng":131.202904,"delta_lat":[0,-1854,-10660,-50727,-4087,29483,35129],"delta_lng":[0,11076,28342,-25011,-6878,-75335,55468]}},
    {"code":1172203,"left":100316,"right":1172204,"id":"f87a74","name":"厚保","name_kana":"あつ","lat":34.113929,"lng":131.154691,"prefecture":35,"lines":[11722],"attr":"cool","postal_code":"759-2151","address":"美祢市西厚保町本郷","next":[1172204,1161232,1161231,1172202,100316],"voronoi":{"lat":34.080546,"lng":131.121738,"delta_lat":[0,41548,27226,-32481,-35129],"delta_lng":[0,-39667,-10299,118795,-55468]}},
    {"code":100316,"left":1161231,"id":"1bd787","name":"厚狭","name_kana":"あさ","lat":34.053361,"lng":131.159965,"prefecture":35,"lines":[1003,11612,11722],"attr":"cool","postal_code":"757-0001","address":"山陽小野田市厚狭","next":[1161228,1172308,1172202,1172309,1161229,1161231,1172203],"voronoi":{"lat":34.080546,"lng":131.121738,"delta_lat":[0,-72769,3657,4,40077,712,29483],"delta_lng":[0,4169,12842,9,71095,581,-75335]}},
    {"code":1161231,"id":"b45983","name":"埴生","name_kana":"はぶ","lat":34.049173,"lng":131.086865,"prefecture":35,"lines":[11612],"attr":"heat","postal_code":"757-0012","address":"山陽小野田市埴生","next":[1161232,1161233,1172306,1172203,100316,1172312,1172308,1172307],"voronoi":{"lat":33.97189,"lng":131.097178,"delta_lat":[0,-8908,-13852,73067,99897,-41548,-72769,-3615],"delta_lng":[0,-7787,-17072,-25016,34768,39667,4169,-2444]}},
    {"code":1172204,"id":"08298d","name":"四郎ヶ原","name_kana":"しろうがはら","lat":34.137596,"lng":131.161162,"prefecture":35,"lines":[11722],"attr":"cool","postal_code":"759-2142","address":"山口県美祢市東厚保町川東字大向2128","next":[1172202,1172203,1172208,1170225,1170228,1161232,1172205],"voronoi":{"lat":34.230109,"lng":131.093496,"delta_lat":[0,9465,-15877,-36584,-37793,-32481,2716],"delta_lng":[0,-19996,-10812,-11473,20557,118795,12338]}},
    {"code":1172206,"left":1172205,"right":1172207,"id":"48fbfc","name":"美祢","name_kana":"みね","lat":34.169077,"lng":131.203981,"prefecture":35,"lines":[11722],"attr":"cool","postal_code":"759-2212","address":"美祢市大嶺町東分","next":[1172202,1170803,1172207,1172205,1161225,1161227],"voronoi":{"lat":34.143667,"lng":131.303142,"delta_lat":[0,19011,22745,-67723,-10660,26795],"delta_lng":[0,5069,-121759,27528,28342,54730]}},
    {"code":1172205,"id":"6e343c","name":"南大嶺","name_kana":"みなみおおみね","lat":34.161483,"lng":131.185299,"prefecture":35,"lines":[11722],"attr":"cool","postal_code":"759-2213","address":"美祢市大嶺町西分","next":[1172206,1172202,1172207,1172208,1172204],"voronoi":{"lat":34.230109,"lng":131.093496,"delta_lat":[0,-15854,-28831,-67723,1854],"delta_lng":[0,52477,40480,27528,-11076]}},
    {"code":1172207,"id":"9fb44c","name":"重安","name_kana":"しげやす","lat":34.194339,"lng":131.2087,"prefecture":35,"lines":[11722],"attr":"cool","postal_code":"759-2211","address":"美祢市大嶺町北分","next":[1172206,1172208,1172205,1170803,1170804],"voronoi":{"lat":34.214254,"lng":131.145972,"delta_lat":[0,-28831,-22745,48384,6512],"delta_lng":[0,40480,121759,19547,2063]}},
    {"code":1172211,"left":1170218,"right":1170217,"id":"61e957","name":"板持","name_kana":"いたもち","lat":34.353341,"lng":131.176666,"prefecture":35,"lines":[11722],"attr":"eco","postal_code":"759-4102","address":"長門市西深川","next":[1170216,1172210,1170218,1172209,1170217],"voronoi":{"lat":34.343716,"lng":131.210012,"delta_lat":[0,-5308,12677,21549,-19225],"delta_lng":[0,-11058,-56473,18588,46865]}},
    {"code":1170218,"left":1172210,"right":1170219,"id":"c9be7b","name":"黄波戸","name_kana":"きわど","lat":34.385232,"lng":131.139695,"prefecture":35,"lines":[11702],"attr":"eco","postal_code":"759-4401","address":"長門市日置上","next":[1172213,1170217,1172211,1170219,1172210],"voronoi":{"lat":34.334136,"lng":131.116172,"delta_lat":[0,430458,-357591,-34369,-21549],"delta_lng":[0,36468,15757,-7329,-18588]}},
    {"code":1172210,"left":1170220,"id":"6df0b1","name":"長門湯本","name_kana":"ながとゆもと","lat":34.334435,"lng":131.172422,"prefecture":35,"lines":[11722],"attr":"eco","postal_code":"759-4103","address":"長門市深川湯本","next":[1172211,1172208,1170220,1170219,1170218,1172209],"voronoi":{"lat":34.262931,"lng":131.1281,"delta_lat":[0,-18552,69971,19786,16949,-12677],"delta_lng":[0,-51194,24177,15089,26308,56473]}},
    {"code":1170220,"id":"a2e62f","name":"人丸","name_kana":"ひとまる","lat":34.374192,"lng":131.057361,"prefecture":35,"lines":[11702],"attr":"eco","postal_code":"759-4503","address":"長門市油谷新別名","next":[1170221,1170219,1172208,1172210,1170225],"voronoi":{"lat":34.24438,"lng":131.076906,"delta_lat":[0,69971,260154,-294956,-38624],"delta_lng":[0,24177,-83948,25111,31498]}},
    {"code":1170219,"id":"411873","name":"長門古市","name_kana":"ながとふるいち","lat":34.388461,"lng":131.101581,"prefecture":35,"lines":[11702],"attr":"eco","postal_code":"759-4401","address":"長門市日置上","next":[1170207,1170206,1170220,1170221,1172210,1170218,1172213,1170205],"voronoi":{"lat":35.060051,"lng":131.087346,"delta_lat":[0,-183925,-111532,-430458,-19786,260154,1164118,-502329],"delta_lng":[0,66005,-711,-36468,-15089,-83948,-234629,232570]}},
    {"code":1170217,"left":1172209,"right":1172213,"id":"90682c","name":"長門市","name_kana":"ながとし","lat":34.375417,"lng":131.185722,"prefecture":35,"lines":[11702,11722],"attr":"eco","postal_code":"759-4101","address":"長門市東深川","next":[1172213,1170218,1170216,1172211],"voronoi":{"lat":34.372635,"lng":131.161069,"delta_lat":[0,34369,-43836,-9758],"delta_lng":[0,7329,41315,-1779]}},
    {"code":1172209,"id":"fe7aea","name":"渋木","name_kana":"しぶき","lat":34.311679,"lng":131.196663,"prefecture":35,"lines":[11722],"attr":"eco","postal_code":"759-4103","address":"長門市深川湯本","next":[1172208,1172211,1170215,1170216,1172210],"voronoi":{"lat":34.262931,"lng":131.1281,"delta_lat":[0,23676,2997,54112,-5308],"delta_lng":[0,158007,-2057,-74039,-11058]}},
    {"code":1172213,"id":"66bbe2","name":"仙崎","name_kana":"せんざき","lat":34.387841,"lng":131.198904,"prefecture":35,"lines":[11702],"attr":"heat","postal_code":"759-4106","address":"長門市仙崎町字道揚原","next":[1170207,1170218,1170217,1170215,1170214,1170219,1170208,1170216],"voronoi":{"lat":34.363168,"lng":131.209713,"delta_lat":[0,43836,357591,111532,-22121,-193584,-164704,-59839],"delta_lng":[0,-41315,-15757,711,10521,81419,11825,-5459]}},
    {"code":100315,"left":1161223,"right":1170810,"id":"4b4a14","name":"新山口","name_kana":"しんやまぐち","lat":34.093255,"lng":131.39657,"prefecture":35,"lines":[1003,11612,11708,11721],"attr":"cool","postal_code":"754-0002","address":"山口市小郡下郷","next":[1172102,1170803,1161223,1170802],"voronoi":{"lat":34.108822,"lng":131.38137,"delta_lat":[0,6672,-56761,24000],"delta_lng":[0,-29498,63136,6242]}},
    {"code":1161223,"left":1172107,"right":1172410,"id":"b35c78","name":"四辻","name_kana":"よつつじ","lat":34.079896,"lng":131.44793,"prefecture":35,"lines":[11612],"attr":"cool","postal_code":"747-1221","address":"山口市大字鋳銭司","next":[1172103,1170804,1161222,1170806,1170807,1172102,100315,1170805,1170802],"voronoi":{"lat":34.082733,"lng":131.421251,"delta_lat":[0,-24000,-10020,-37178,101507,3011,-734,-57,-11385],"delta_lng":[0,-6242,939,15968,66790,-19779,-30548,-258,-17152]}},
    {"code":1172107,"left":1172111,"right":1172104,"id":"35ccf9","name":"岐波","name_kana":"きわ","lat":33.989654,"lng":131.347864,"prefecture":35,"lines":[11721],"attr":"cool","postal_code":"755-0241","address":"宇部市大字東岐波","next":[1172108,1161222,1161227,1172106,1161226],"voronoi":{"lat":34.006559,"lng":131.303165,"delta_lat":[0,-3050,-97053,54291,48546],"delta_lng":[0,-1869,168917,-24593,-115177]}},
    {"code":1172111,"left":1172114,"right":1172109,"id":"9cad45","name":"草江","name_kana":"くさえ","lat":33.936602,"lng":131.274304,"prefecture":35,"lines":[11721],"attr":"eco","postal_code":"755-0004","address":"宇部市草江３丁目","next":[1190623,1172110,1190626,1172112,1172113],"voronoi":{"lat":33.944304,"lng":131.266832,"delta_lat":[0,-186129,-3038,75,205897],"delta_lng":[0,29440,29726,574,-48352]}},
    {"code":1172114,"left":1172112,"right":1172115,"id":"5986ca","name":"琴芝","name_kana":"ことしば","lat":33.952698,"lng":131.252244,"prefecture":35,"lines":[11721],"attr":"eco","postal_code":"755-0033","address":"宇部市琴芝町２丁目","next":[1172113,1172109,1172112,1172115,1161227],"voronoi":{"lat":33.993975,"lng":131.269581,"delta_lat":[0,-63637,3485,42937,15558],"delta_lng":[0,-36814,6372,39643,-45]}},
    {"code":1172112,"left":1172113,"id":"2ee3c0","name":"宇部岬","name_kana":"うべみさき","lat":33.934672,"lng":131.262102,"prefecture":35,"lines":[11721],"attr":"eco","postal_code":"755-0026","address":"宇部市松山町５丁目","next":[1190623,1172114,1190620,1172111,1172115,1190622,1172113,1172311,1172312],"voronoi":{"lat":33.776741,"lng":131.202929,"delta_lat":[0,-13525,-2206,-2836,186129,-10481,-3485,-14124,-1305],"delta_lng":[0,41006,10371,41967,-29440,-27694,-6372,-17023,-251]}},
    {"code":1172113,"id":"414ef9","name":"東新川(山口)","original_name":"東新川","name_kana":"ひがししんかわ","lat":33.94839,"lng":131.25691,"prefecture":35,"lines":[11721],"attr":"eco","postal_code":"755-0019","address":"宇部市東新川町","next":[1172114,1172112,1172110,1172111,1172109],"voronoi":{"lat":33.961108,"lng":131.278221,"delta_lat":[0,-16805,-10481,42937,-9017],"delta_lng":[0,-11388,-27694,39643,829]}},
    {"code":1172115,"id":"abc42f","name":"宇部新川","name_kana":"うべしんかわ","lat":33.958369,"lng":131.242441,"prefecture":35,"lines":[11721,11723],"attr":"heat","postal_code":"755-0051","address":"宇部市上町１丁目","next":[1172112,1172114,1172116,1172311,1161227,1172117],"voronoi":{"lat":33.97693,"lng":131.243953,"delta_lat":[0,-48792,-11925,14124,63637,1235],"delta_lng":[0,-29695,1486,17023,36814,-3910]}},
    {"code":1172109,"left":1172110,"right":1172108,"id":"955958","name":"床波","name_kana":"とこなみ","lat":33.952851,"lng":131.305457,"prefecture":35,"lines":[11721],"attr":"cool","postal_code":"755-0151","address":"宇部市大字西岐波","next":[1172114,1161227,1172108,1172110,1172113],"voronoi":{"lat":33.866289,"lng":131.374124,"delta_lat":[0,134920,-8891,-15558,-9017],"delta_lng":[0,-75114,-20274,45,829]}},
    {"code":1172110,"id":"a1e3af","name":"常盤(山口)","original_name":"常盤","name_kana":"ときわ","lat":33.940907,"lng":131.292636,"prefecture":35,"lines":[11721],"attr":"eco","postal_code":"755-0151","address":"宇部市大字西岐波","next":[1172111,1190627,1172108,1172113,1172109,1190628,1190626],"voronoi":{"lat":33.761978,"lng":131.376142,"delta_lat":[0,13997,90314,101454,-6634,-205897,1878],"delta_lng":[0,58109,-60127,-94514,-1390,48352,23330]}},
    {"code":1172108,"id":"8a121e","name":"丸尾","name_kana":"まるお","lat":33.970255,"lng":131.336718,"prefecture":35,"lines":[11721],"attr":"cool","postal_code":"755-0241","address":"宇部市大字東岐波","next":[1161227,1172107,1190628,1172110,1172109,1161222,1161221],"voronoi":{"lat":33.775974,"lng":131.434252,"delta_lat":[0,90314,134920,2300,-97053,-108045,-11064],"delta_lng":[0,-60127,-75114,2285,168917,59167,3969]}},
    {"code":1172104,"left":1161226,"right":1161225,"id":"98d804","name":"周防佐山","name_kana":"すおうさやま","lat":34.034919,"lng":131.363667,"prefecture":35,"lines":[11721],"attr":"cool","postal_code":"754-0894","address":"山口市大字佐山","next":[1172103,1161226,1172105],"voronoi":{"lat":34.031657,"lng":131.353907,"delta_lat":[0,19723,-37628],"delta_lng":[0,-2875,59404]}},
    {"code":1161226,"left":1172105,"right":1161227,"id":"adc67f","name":"本由良","name_kana":"ほんゆら","lat":34.031997,"lng":131.343621,"prefecture":35,"lines":[11612],"attr":"cool","postal_code":"754-0894","address":"山口市大字佐山","next":[1161227,1172103,1172104,1172106,1172107,1161225,1172105],"voronoi":{"lat":34.019741,"lng":131.347634,"delta_lat":[0,-10449,-2734,78656,-30021,-3814,-19723],"delta_lng":[0,-17191,-27278,6964,38838,2065,2875]}},
    {"code":1172105,"left":1172106,"id":"e20a51","name":"岩倉(山口)","original_name":"岩倉","name_kana":"いわくら","lat":34.02337,"lng":131.360009,"prefecture":35,"lines":[11721],"attr":"cool","postal_code":"754-1277","address":"山口市阿知須","next":[1172104,1172106,1161222,1172103,1161226],"voronoi":{"lat":34.013752,"lng":131.410436,"delta_lat":[0,-10493,-5954,22437,11915],"delta_lng":[0,21926,1388,-86116,6273]}},
    {"code":1172106,"id":"bdbaf3","name":"阿知須","name_kana":"あじす","lat":34.010535,"lng":131.356665,"prefecture":35,"lines":[11721],"attr":"cool","postal_code":"754-1277","address":"山口市阿知須","next":[1161222,1172105,1161226,1172107],"voronoi":{"lat":34.009292,"lng":131.330442,"delta_lat":[0,10449,-22437,-36558],"delta_lng":[0,17191,86116,11870]}},
    {"code":1161227,"id":"319aa4","name":"厚東","name_kana":"ことう","lat":34.038709,"lng":131.267807,"prefecture":35,"lines":[11612],"attr":"cool","postal_code":"759-0122","address":"宇部市大字吉見字宮の下","next":[1161226,1172108,1172117,1161228,1172109,1161225,1172107,1172202,1172114,1172115,1172206],"voronoi":{"lat":34.10704,"lng":131.242322,"delta_lat":[0,-50727,-59448,-1656,-1235,-1657,8891,2300,3050,78656,48621],"delta_lng":[0,-25011,46010,2349,3910,9156,20274,2285,1869,6964,-13076]}},
    {"code":1161225,"left":1172103,"right":1172102,"id":"3d3872","name":"嘉川","name_kana":"かがわ","lat":34.066211,"lng":131.370068,"prefecture":35,"lines":[11612],"attr":"cool","postal_code":"754-0897","address":"山口市嘉川","next":[1172103,1172102,1161227,1161226,1172206,1170803],"voronoi":{"lat":34.143667,"lng":131.303142,"delta_lat":[0,-9832,-48621,-30021,2310,72987],"delta_lng":[0,-6090,13076,38838,35658,-60662]}},
    {"code":1172103,"id":"30d8a1","name":"深溝","name_kana":"ふかみぞ","lat":34.04699,"lng":131.371313,"prefecture":35,"lines":[11721],"attr":"cool","postal_code":"754-0895","address":"山口市大字深溝","next":[1172102,1161225,1172104,1161223,1161226,1161222,1172105],"voronoi":{"lat":34.013752,"lng":131.410436,"delta_lat":[0,37628,3814,2310,-8790,-37178,-8277],"delta_lng":[0,-59404,-2065,35658,31323,15968,446]}},
    {"code":1172102,"id":"594387","name":"上嘉川","name_kana":"かみかがわ","lat":34.073407,"lng":131.378726,"prefecture":35,"lines":[11721],"attr":"cool","postal_code":"754-0897","address":"山口市大字嘉川","next":[1172103,100315,1161225,1170803,1161223],"voronoi":{"lat":34.058733,"lng":131.415008,"delta_lat":[0,56761,14996,-72987,-8790],"delta_lng":[0,-63136,-27910,60662,31323]}},
    {"code":1172410,"left":1161213,"right":1161218,"id":"a317db","name":"勝間","name_kana":"かつま","lat":34.042008,"lng":131.953979,"prefecture":35,"lines":[11724],"attr":"heat","postal_code":"745-0612","address":"周南市呼坂","next":[1172413,1161212,1172411,1172409,1172412],"voronoi":{"lat":34.015997,"lng":131.955491,"delta_lat":[0,3786,101649,-27894,-15698],"delta_lng":[0,28313,-71282,2748,5784]}},
    {"code":1161213,"left":1172413,"right":1172412,"id":"287390","name":"光","name_kana":"ひかり","lat":33.973975,"lng":131.914784,"prefecture":35,"lines":[11612],"attr":"eco","postal_code":"743-0022","address":"光市虹ケ浜３丁目","next":[1161212,1161211,1190649,1190633,1172412,1161210,1161220,1161214,1172411,1190631],"voronoi":{"lat":33.724721,"lng":131.699465,"delta_lat":[0,15404,262845,-2443,-407,-81561,-61970,-265687,4825,114380],"delta_lng":[0,4164,196361,30226,1196,29252,5888,-31171,-29838,-189649]}},
    {"code":1172413,"left":1161214,"right":1172414,"id":"98a467","name":"生野屋","name_kana":"いくのや","lat":34.035445,"lng":131.887359,"prefecture":35,"lines":[11724],"attr":"heat","postal_code":"744-0031","address":"下松市大字生野屋","next":[1172410,1172409,1172412,9971809,1161214,1172414,9971810],"voronoi":{"lat":34.145984,"lng":131.906807,"delta_lat":[0,-24552,-27894,-86465,15585,139816,-1004],"delta_lng":[0,5715,2748,-16903,-21333,3329,2088]}},
    {"code":1161214,"left":1161215,"id":"e8a6a2","name":"下松(山口)","original_name":"下松","name_kana":"くだまつ","lat":34.008933,"lng":131.86799,"prefecture":35,"lines":[11612],"attr":"eco","postal_code":"744-0011","address":"下松市大字西豊井","next":[1172412,1172413,1161213,1172414,1161215,1161220],"voronoi":{"lat":34.021986,"lng":131.84968,"delta_lat":[0,671,-15585,-4103,-262845,35025],"delta_lng":[0,27354,21333,1623,-196361,6053]}},
    {"code":1161215,"id":"b29405","name":"櫛ヶ浜","name_kana":"くしがはま","lat":34.031002,"lng":131.829079,"prefecture":35,"lines":[11612,11724],"attr":"eco","postal_code":"745-0801","address":"山口県周南市大字久米字院内3975-1","next":[1161220,1172414,100314,1161218,1161214],"voronoi":{"lat":33.775149,"lng":131.709682,"delta_lat":[0,141832,13091,145361,-53447],"delta_lng":[0,13064,5937,114122,6875]}},
    {"code":1172414,"id":"f25be4","name":"周防花岡","name_kana":"すおうはなおか","lat":34.035922,"lng":131.867328,"prefecture":35,"lines":[11724],"attr":"heat","postal_code":"744-0024","address":"下松市大字末武上","next":[1161215,9971810,1172413,1161214,100314],"voronoi":{"lat":34.075434,"lng":131.842805,"delta_lat":[0,-53447,671,139816,8379],"delta_lng":[0,6875,27354,3329,-14405]}},
    {"code":1172412,"left":1161212,"right":1172411,"id":"1474aa","name":"周防久保","name_kana":"すおうくぼ","lat":34.029211,"lng":131.919248,"prefecture":35,"lines":[11724],"attr":"heat","postal_code":"744-0061","address":"下松市大字河内","next":[1172411,1172413,1161214,1161213,1172410],"voronoi":{"lat":34.000526,"lng":131.930216,"delta_lat":[0,2443,4103,86465,-15698],"delta_lng":[0,-30226,-1623,16903,5784]}},
    {"code":1161212,"id":"dbebbb","name":"島田(山口)","original_name":"島田","name_kana":"しまた","lat":33.990502,"lng":131.960865,"prefecture":35,"lines":[11612],"attr":"eco","postal_code":"743-0063","address":"光市大字島田","next":[1161213,1172410,1161211,1172409,1172411],"voronoi":{"lat":34.00012,"lng":131.931411,"delta_lat":[0,-81561,100691,533,-3786],"delta_lng":[0,29252,25971,-2831,-28313]}},
    {"code":1172411,"id":"7a2126","name":"大河内","name_kana":"おおかわち","lat":34.03098,"lng":131.934175,"prefecture":35,"lines":[11724],"attr":"heat","postal_code":"745-0651","address":"周南市大河内","next":[1172412,1172410,1161212,1161213],"voronoi":{"lat":34.015997,"lng":131.955491,"delta_lat":[0,61843,-77313,-407],"delta_lng":[0,-34437,9162,1196]}},
    {"code":1161218,"left":1161221,"right":1172409,"id":"f995a6","name":"福川","name_kana":"ふくがわ","lat":34.072096,"lng":131.73846,"prefecture":35,"lines":[11612],"attr":"eco","postal_code":"746-0041","address":"周南市社地町","next":[1161219,100314,1170817,1161215,1161217,1161220],"voronoi":{"lat":33.929585,"lng":131.719756,"delta_lat":[0,291609,9640,-242127,-58635,-13091],"delta_lng":[0,3684,43619,-19686,-18690,-5937]}},
    {"code":1161221,"left":1161220,"right":1161219,"id":"a2cbc3","name":"防府","name_kana":"ほうふ","lat":34.05354,"lng":131.568848,"prefecture":35,"lines":[11612],"attr":"cool","postal_code":"747-0036","address":"防府市戎町１丁目","next":[1161220,1161222,1170808,1190628,1172108,1170811,1170810],"voronoi":{"lat":34.12872,"lng":131.546055,"delta_lat":[0,-13004,-317306,-11064,-19098,378326,-9782],"delta_lng":[0,-17641,966,3969,50311,27131,-48860]}},
    {"code":1161220,"left":1161222,"id":"5fd20e","name":"富海","name_kana":"とのみ","lat":34.048507,"lng":131.639029,"prefecture":35,"lines":[11612],"attr":"cool","postal_code":"747-1111","address":"防府市大字富海","next":[1161221,1190628,1161215,1190629,1161219,1190631,1161218,1161213,1170811,1161214],"voronoi":{"lat":33.740124,"lng":131.703628,"delta_lat":[0,-15404,20582,1071,21875,378326,14790,-231779,-12604,-141832],"delta_lng":[0,-4164,-71979,-2442,-41384,27131,24148,84817,2990,-13064]}},
    {"code":1161222,"id":"764abb","name":"大道","name_kana":"だいどう","lat":34.053295,"lng":131.488358,"prefecture":35,"lines":[11612],"attr":"cool","postal_code":"747-1232","address":"防府市大字台道","next":[1172106,1172107,1161221,1172103,1170807,1172108,1161223,1170808,1172105],"voronoi":{"lat":33.960747,"lng":131.445619,"delta_lat":[0,-54291,-108045,317306,-1580,-1094,-101507,-8277,-5954],"delta_lng":[0,24593,59167,-966,-25586,-4122,-66790,446,1388]}},
    {"code":1161219,"id":"3fa158","name":"戸田(山口)","original_name":"戸田","name_kana":"へた","lat":34.072523,"lng":131.704657,"prefecture":35,"lines":[11612],"attr":"eco","postal_code":"746-0084","address":"周南市夜市","next":[1161220,1170811,1161218,1170816,1170812,1170814,1170817],"voronoi":{"lat":34.220444,"lng":131.716279,"delta_lat":[0,-1945,-10365,-9033,-37737,-231779,291609],"delta_lng":[0,-10231,-25795,-13097,-32218,84817,3684]}},
    {"code":1172409,"left":100314,"right":1161217,"id":"0e09ad","name":"高水","name_kana":"たかみず","lat":34.055395,"lng":131.973069,"prefecture":35,"lines":[11724],"attr":"cool","postal_code":"745-0621","address":"周南市原","next":[1172413,9971809,1161212,1172410,1161211,1172408],"voronoi":{"lat":34.137074,"lng":131.960811,"delta_lat":[0,8910,-24552,-101649,-533,7474],"delta_lng":[0,-54005,5715,71282,2831,24819]}},
    {"code":100314,"id":"7061fa","name":"徳山","name_kana":"とくやま","lat":34.051555,"lng":131.8029,"prefecture":35,"lines":[1003,11612,11724],"attr":"eco","postal_code":"745-0034","address":"周南市御幸通り２丁目","next":[1161217,1161218,1161215,9971810,1172414,9971812],"voronoi":{"lat":34.170853,"lng":131.865957,"delta_lat":[0,-95419,-145361,58635,192835,-10540],"delta_lng":[0,-23153,-114122,18690,104392,14039]}},
    {"code":1161217,"id":"5ebcb7","name":"新南陽","name_kana":"しんなんよう","lat":34.069561,"lng":131.769639,"prefecture":35,"lines":[11612],"attr":"eco","postal_code":"746-0015","address":"周南市清水２丁目","next":[1170817,100314,9971812,1161218,1170818],"voronoi":{"lat":34.181542,"lng":131.851765,"delta_lat":[0,-192835,242127,6754,1443],"delta_lng":[0,-104392,19686,20753,5903]}},
    {"code":1170810,"left":1170216,"right":1170818,"id":"57f4a1","name":"宮野","name_kana":"みやの","lat":34.191429,"lng":131.498735,"prefecture":35,"lines":[11708],"attr":"eco","postal_code":"753-0021","address":"山口市桜畠２丁目","next":[1170812,1170809,1170808,1161221,1170811,1170212],"voronoi":{"lat":34.282166,"lng":131.465624,"delta_lat":[0,-145374,-8072,41090,113078,10088],"delta_lng":[0,96307,-15876,-43271,-73044,20937]}},
    {"code":1170216,"left":1170806,"right":1170211,"id":"1bab31","name":"長門三隅","name_kana":"ながとみすみ","lat":34.366163,"lng":131.236483,"prefecture":35,"lines":[11702],"attr":"eco","postal_code":"759-3803","address":"長門市三隅下","next":[1172211,1170215,1170217,1172209,1172213],"voronoi":{"lat":34.363168,"lng":131.209713,"delta_lat":[0,-9758,-9693,-54112,146274],"delta_lng":[0,-1779,2078,74039,-32393]}},
    {"code":1170806,"left":1170804,"right":1170808,"id":"699047","name":"矢原","name_kana":"やばら","lat":34.150681,"lng":131.446229,"prefecture":35,"lines":[11708],"attr":"eco","postal_code":"753-0861","address":"山口市大字矢原","next":[1170805,1170807,1161223],"voronoi":{"lat":34.193186,"lng":131.42821,"delta_lat":[0,-77867,734],"delta_lng":[0,20169,30548]}},
    {"code":1170804,"left":1170803,"right":1170805,"id":"177f92","name":"仁保津","name_kana":"にほづ","lat":34.128821,"lng":131.415455,"prefecture":35,"lines":[11708],"attr":"eco","postal_code":"754-0001","address":"山口市小郡上郷","next":[1170803,1161223,1170802,1172208,1172207,1170805],"voronoi":{"lat":34.224746,"lng":131.33354,"delta_lat":[0,-7172,-6512,-102416,-4769,11385],"delta_lng":[0,-3719,-2063,93595,9615,17152]}},
    {"code":1170803,"left":1170802,"id":"45d545","name":"上郷","name_kana":"かみごう","lat":34.116333,"lng":131.40179,"prefecture":35,"lines":[11708],"attr":"eco","postal_code":"754-0001","address":"山口市小郡上郷","next":[1170802,1172206,1170804,100315,1172102,1172207,1161225],"voronoi":{"lat":34.115494,"lng":131.351872,"delta_lat":[0,-6672,-176,102416,-48384,-19011,-13177],"delta_lng":[0,29498,39983,-93595,-19547,-5069,20820]}},
    {"code":1170802,"id":"e6ad65","name":"周防下郷","name_kana":"すおうしもごう","lat":34.101132,"lng":131.401723,"prefecture":35,"lines":[11708],"attr":"eco","postal_code":"754-0002","address":"山口市小郡下郷","next":[1170803,1170804,1161223,100315],"voronoi":{"lat":34.108822,"lng":131.38137,"delta_lat":[0,-176,-4769,-21144],"delta_lng":[0,39983,9615,-9718]}},
    {"code":1170805,"id":"c53e1a","name":"大歳","name_kana":"おおとし","lat":34.147278,"lng":131.433091,"prefecture":35,"lines":[11708],"attr":"eco","postal_code":"753-0871","address":"山口市大字朝田","next":[1170807,1170806,1170215,1172208,1170212,1170809,1161223,1170804],"voronoi":{"lat":34.224746,"lng":131.33354,"delta_lat":[0,26561,12517,3159,-20905,-52892,-77867,-57],"delta_lng":[0,10516,20988,24432,14210,24523,20169,-258]}},
    {"code":1170808,"left":1170807,"right":1170809,"id":"77c108","name":"山口(山口)","original_name":"山口","name_kana":"やまぐち","lat":34.172737,"lng":131.480985,"prefecture":35,"lines":[11708],"attr":"eco","postal_code":"753-0042","address":"山口市惣太夫町","next":[1161221,1170809,1161222,1170807,1170810],"voronoi":{"lat":34.16981,"lng":131.502784,"delta_lat":[0,17662,-73336,1580,13004],"delta_lng":[0,-45378,45422,25586,17641]}},
    {"code":1170807,"id":"972535","name":"湯田温泉","name_kana":"ゆだおんせん","lat":34.159797,"lng":131.460093,"prefecture":35,"lines":[11708],"attr":"eco","postal_code":"753-0055","address":"山口市今井町","next":[1170805,1170809,1170806,1161222,1170808,1161223],"voronoi":{"lat":34.114137,"lng":131.502827,"delta_lat":[0,73336,58606,-52892,-77133,-3011],"delta_lng":[0,-45422,-53719,24523,50717,19779]}},
    {"code":1170809,"id":"d1f835","name":"上山口","name_kana":"かみやまぐち","lat":34.18239,"lng":131.484742,"prefecture":35,"lines":[11708],"attr":"eco","postal_code":"753-0037","address":"山口市道祖町","next":[1170212,1170807,1170808,1170805,1170810],"voronoi":{"lat":34.187472,"lng":131.457405,"delta_lat":[0,58606,20905,15905,-113078],"delta_lng":[0,-53719,-14210,40263,73044]}},
    {"code":1170211,"left":1170214,"right":1170209,"id":"02a153","name":"東萩","name_kana":"ひがしはぎ","lat":34.417207,"lng":131.410334,"prefecture":35,"lines":[11702],"attr":"eco","postal_code":"758-0011","address":"萩市大字椿東","next":[1170212,1170213,1170210,1170813],"voronoi":{"lat":34.448064,"lng":131.380842,"delta_lat":[0,-38689,-40584,9443],"delta_lng":[0,15073,103916,6318]}},
    {"code":1170214,"left":1170212,"right":1170213,"id":"15c920","name":"三見","name_kana":"さんみ","lat":34.397263,"lng":131.330142,"prefecture":35,"lines":[11702],"attr":"eco","postal_code":"759-3721","address":"萩市三見","next":[1170212,1170209,1172213,1170208,1170210,1170213,1170215],"voronoi":{"lat":34.349759,"lng":131.363473,"delta_lat":[0,151214,60848,57809,40792,-164704,-201366],"delta_lng":[0,-24644,-27610,-35660,-30268,11825,103692]}},
    {"code":1170212,"left":1170215,"id":"06662d","name":"萩","name_kana":"はぎ","lat":34.393845,"lng":131.40121,"prefecture":35,"lines":[11702],"attr":"eco","postal_code":"758-0061","address":"萩市大字椿","next":[1170813,1170211,1170809,1170214,1170812,1170805,1170215,1170213,1170810],"voronoi":{"lat":34.345512,"lng":131.488118,"delta_lat":[0,23280,40584,-59617,-55407,-30527,3159,15905,10088],"delta_lng":[0,11713,-103916,-32441,-2665,4236,24432,40263,20937]}},
    {"code":1170215,"id":"5eda7d","name":"飯井","name_kana":"いい","lat":34.379088,"lng":131.294847,"prefecture":35,"lines":[11702],"attr":"eco","postal_code":"759-3721","address":"萩市三見","next":[1170805,1172213,1172208,1172209,1170216,1170212,1170214],"voronoi":{"lat":34.495717,"lng":131.257116,"delta_lat":[0,-59839,-146274,-2997,-35300,12517,30527],"delta_lng":[0,-5459,32393,2057,57949,20988,-4236]}},
    {"code":1170213,"id":"60c512","name":"玉江","name_kana":"たまえ","lat":34.405388,"lng":131.379997,"prefecture":35,"lines":[11702],"attr":"eco","postal_code":"758-0063","address":"萩市山田","next":[1170211,1170210,1170214,1170212],"voronoi":{"lat":34.349759,"lng":131.363473,"delta_lat":[0,151214,-52908,-38689],"delta_lng":[0,-24644,42012,15073]}},
    {"code":1170209,"left":1170210,"right":1170208,"id":"1ecdb5","name":"長門大井","name_kana":"ながとおおい","lat":34.471068,"lng":131.449788,"prefecture":35,"lines":[11702],"attr":"eco","postal_code":"759-3611","address":"萩市大井","next":[1170815,1170210,1170214,1170208,1170813,1170814],"voronoi":{"lat":34.423635,"lng":131.549859,"delta_lat":[0,195994,-57809,-173684,11207,12192],"delta_lng":[0,-274300,35660,203471,14476,11710]}},
    {"code":1170210,"id":"123b5c","name":"越ヶ浜","name_kana":"こしがはま","lat":34.439216,"lng":131.422599,"prefecture":35,"lines":[11702],"attr":"eco","postal_code":"758-0011","address":"山口県萩市大字椿東字長畠659","next":[1170813,1170209,1170213,1170211,1170214],"voronoi":{"lat":34.448064,"lng":131.380842,"delta_lat":[0,-69830,9902,173684,-60848],"delta_lng":[0,125307,8542,-203471,27610]}},
    {"code":1170208,"id":"5e0686","name":"奈古","name_kana":"なご","lat":34.502938,"lng":131.47256,"prefecture":35,"lines":[11702],"attr":"eco","postal_code":"759-3622","address":"阿武郡阿武町大字奈古","next":[1170815,1170209,1170207,1170214,1172213],"voronoi":{"lat":34.61963,"lng":131.275559,"delta_lat":[0,-195994,14244,416126,-193584],"delta_lng":[0,274300,15156,-401143,81419]}},
    {"code":1170818,"left":1170815,"right":1170821,"id":"85eec7","name":"鍋倉","name_kana":"なべくら","lat":34.378276,"lng":131.694161,"prefecture":35,"lines":[11708],"attr":"heat","postal_code":"759-1513","address":"山口県山口市阿東徳佐下字鍋倉","next":[1170817,9971812,1161217,1170206,1170819,1170816,1170820],"voronoi":{"lat":34.479838,"lng":131.627815,"delta_lat":[0,-10525,-31685,-200039,1443,29680,194066],"delta_lng":[0,-14005,18061,155940,5903,12536,-160031]}},
    {"code":1170815,"left":1170813,"right":1170816,"id":"3b2829","name":"三谷(山口)","original_name":"三谷","name_kana":"みたに","lat":34.341568,"lng":131.624217,"prefecture":35,"lines":[11708],"attr":"cool","postal_code":"759-1231","address":"山口県山口市阿東生雲東分字三谷","next":[1170208,1170209,1170207,1170816,1170814],"voronoi":{"lat":34.411536,"lng":131.540876,"delta_lat":[0,12100,14244,15654,-186211],"delta_lng":[0,8983,15156,24757,84328]}},
    {"code":1170813,"left":1170812,"right":1170814,"id":"13111e","name":"長門峡","name_kana":"ちょうもんきょう","lat":34.304532,"lng":131.578725,"prefecture":35,"lines":[11708],"attr":"cool","postal_code":"759-1231","address":"山口県山口市阿東生雲東分字御堂原","next":[1170212,1170210,1170812,1170814,1170209,1170211],"voronoi":{"lat":34.388136,"lng":131.514691,"delta_lat":[0,11207,-153159,99327,23280,9443],"delta_lng":[0,14476,111292,-152341,11713,6318]}},
    {"code":1170812,"left":1170811,"id":"824fbd","name":"篠目","name_kana":"しのめ","lat":34.279135,"lng":131.562166,"prefecture":35,"lines":[11708],"attr":"cool","postal_code":"759-1232","address":"山口県山口市阿東篠目字細野","next":[1170810,1170811,1170212,1170813,1170814,1161219],"voronoi":{"lat":34.246185,"lng":131.640459,"delta_lat":[0,99327,-52535,-10810,-83065,9033],"delta_lng":[0,-152341,-37441,14947,201533,13097]}},
    {"code":1170811,"id":"5e9d1d","name":"仁保","name_kana":"にほ","lat":34.216291,"lng":131.536264,"prefecture":35,"lines":[11708],"attr":"cool","postal_code":"753-0302","address":"山口市仁保中郷","next":[1170812,1161219,1161221,1170810,1161220],"voronoi":{"lat":34.146575,"lng":131.610791,"delta_lat":[0,-9782,145374,-83065,-37737],"delta_lng":[0,-48860,-96307,201533,-32218]}},
    {"code":1170814,"id":"03e6df","name":"渡川","name_kana":"わたりがわ","lat":34.322922,"lng":131.604033,"prefecture":35,"lines":[11708],"attr":"cool","postal_code":"759-1231","address":"山口県山口市阿東生雲東分字渡川","next":[1170816,1170813,1170812,1161219,1170209,1170815],"voronoi":{"lat":34.2185,"lng":131.706049,"delta_lat":[0,-10365,38050,153159,12192,-144213],"delta_lng":[0,-25795,-39795,-111292,11710,133224]}},
    {"code":1170816,"left":9971812,"right":1170817,"id":"cc87f2","name":"名草","name_kana":"なぐさ","lat":34.353789,"lng":131.651203,"prefecture":35,"lines":[11708],"attr":"cool","postal_code":"759-1422","address":"山口県山口市阿東地福下字名草","next":[1170814,1170207,1170817,1161219,1170815,1170206,1170818],"voronoi":{"lat":34.469312,"lng":131.61381,"delta_lat":[0,-5391,-10388,-186211,-48823,1945,217183],"delta_lng":[0,-11467,-12571,84328,31948,10231,-84408]}},
    {"code":9971812,"id":"440fac","name":"錦町","name_kana":"にしきちょう","lat":34.26475,"lng":131.962944,"prefecture":35,"lines":[99718],"attr":"cool","postal_code":"740-0724","address":"岩国市錦町広瀬字下向井","next":[1161121,9971811,1170820,1170823,1170818,9971810,1161217,1170819,1170822,100314],"voronoi":{"lat":34.181542,"lng":131.851765,"delta_lat":[0,57489,29680,66653,16342,76673,69035,-1880,-256694,-67838],"delta_lng":[0,-58050,12536,37008,11185,103771,141041,434,-142110,-91776]}},
    {"code":1170817,"id":"cc1d81","name":"地福","name_kana":"じふく","lat":34.362738,"lng":131.674229,"prefecture":35,"lines":[11708],"attr":"heat","postal_code":"759-1421","address":"山口県山口市阿東地福上字惣原","next":[1170816,1161217,1170818,1161218,1161219],"voronoi":{"lat":34.230835,"lng":131.767059,"delta_lat":[0,6754,200039,-217183,750],"delta_lng":[0,20753,-155940,84408,7160]}},
    {"code":1170821,"left":1170207,"right":1170823,"id":"2c5ea2","name":"津和野","name_kana":"つわの","lat":34.472529,"lng":131.773727,"prefecture":32,"lines":[11708],"attr":"eco","postal_code":"699-5605","address":"鹿足郡津和野町大字後田","next":[1170204,1170824,1170205,1170822,1170820],"voronoi":{"lat":34.51727,"lng":131.663113,"delta_lat":[0,2862,23065,-23372,-115730],"delta_lng":[0,2541,34188,76286,33124]}},
    {"code":1170207,"left":1170820,"right":1170206,"id":"6ca845","name":"木与","name_kana":"きよ","lat":34.532658,"lng":131.50339,"prefecture":35,"lines":[11702],"attr":"eco","postal_code":"759-3621","address":"阿武郡阿武町大字木与","next":[1172213,1170219,1170816,1170815,1170208,1170206],"voronoi":{"lat":35.060051,"lng":131.087346,"delta_lat":[0,-183925,-22121,-416126,15654,10388],"delta_lng":[0,66005,10521,401143,24757,12571]}},
    {"code":1170820,"left":1170819,"id":"d09537","name":"船平山","name_kana":"ふなひらやま","lat":34.421369,"lng":131.734107,"prefecture":35,"lines":[11708],"attr":"heat","postal_code":"759-1511","address":"山口県山口市阿東徳佐中字水戸","next":[1170819,9971812,1170206,1170205,1170822,1170821,1170818],"voronoi":{"lat":34.335364,"lng":131.843259,"delta_lat":[0,16342,52389,113175,-6579,-30854,-17060],"delta_lng":[0,11185,-45191,-146139,-10262,-25036,18404]}},
    {"code":1170819,"id":"9f34cc","name":"徳佐","name_kana":"とくさ","lat":34.399618,"lng":131.720042,"prefecture":35,"lines":[11708],"attr":"heat","postal_code":"759-1512","address":"山口県山口市阿東徳佐中","next":[1170820,9971812,1170818],"voronoi":{"lat":34.462777,"lng":131.64622,"delta_lat":[0,-127413,-66653],"delta_lng":[0,197039,-37008]}},
    {"code":1170206,"id":"a4d738","name":"宇田郷","name_kana":"うたごう","lat":34.57181,"lng":131.54871,"prefecture":35,"lines":[11702],"attr":"eco","postal_code":"759-3501","address":"阿武郡阿武町大字宇田","next":[1170219,1170205,1170820,1170207,1170818,1170816],"voronoi":{"lat":34.479838,"lng":131.627815,"delta_lat":[0,30854,725602,-176242,-596130,5391],"delta_lng":[0,25036,-637775,72270,514997,11467]}},
    {"code":1170823,"left":1170822,"right":1170824,"id":"e606b2","name":"日原","name_kana":"にちはら","lat":34.532494,"lng":131.831892,"prefecture":32,"lines":[11708],"attr":"eco","postal_code":"699-5207","address":"鹿足郡津和野町枕瀬","next":[1170144,1170824,1170826,1161121,1170822,1170827,1170145,9971812,1170141,1170825],"voronoi":{"lat":34.594609,"lng":131.878681,"delta_lat":[0,4017,-2691,-1860,-37381,-59279,-69035,91991,58218,10183],"delta_lng":[0,97105,55725,10769,79218,-22242,-141041,-165168,51881,15537]}},
    {"code":1170822,"id":"71103f","name":"青野山","name_kana":"あおのやま","lat":34.480962,"lng":131.803191,"prefecture":32,"lines":[11708],"attr":"eco","postal_code":"699-5602","address":"鹿足郡津和野町大字直地","next":[1170823,9971812,1170824,1170821,1170820],"voronoi":{"lat":34.404095,"lng":131.809252,"delta_lat":[0,115730,545,-91991,-76673],"delta_lng":[0,-33124,16918,165168,-103771]}},
    {"code":1170824,"id":"7b3de3","name":"青原","name_kana":"あおはら","lat":34.560351,"lng":131.800633,"prefecture":32,"lines":[11708],"attr":"eco","postal_code":"699-5215","address":"鹿足郡津和野町冨田","next":[1170204,1170823,1170821,1170822,1170825],"voronoi":{"lat":34.520371,"lng":131.793046,"delta_lat":[0,-545,23372,18036,17355],"delta_lng":[0,-16918,-76286,10122,134963]}}
  ]
}