{
  "name":"segment63",
  "root":1111630,
  "east":180.0,
  "west":142.384789,
  "south":43.068612,
  "north":43.83871,
  "station_size":155,
  "node_list":[
    {"code":1111630,"left":1010714,"right":1112316,"id":"9b9cc9","name":"相内","name_kana":"あいのない","lat":43.795948,"lng":143.756449,"prefecture":1,"lines":[11116],"attr":"cool","postal_code":"099-0871","address":"北見市相内町","next":[1111629,9910927,9910928,1111631,1011710,9910929,9910926,9910930],"voronoi":{"lat":43.908005,"lng":143.763723,"delta_lat":[0,8383,-125430,-22226,-6454,1396,10786,504],"delta_lng":[0,-84491,9672,34832,23692,17862,21796,506]},"impl":true},
    {"code":1010714,"left":9911414,"right":1010716,"id":"2f923c","name":"電力所前","name_kana":"でんりょくしょまえ","closed":true,"lat":43.356806,"lng":143.250694,"prefecture":1,"lines":[10107],"postal_code":"080-1404","address":"北海道河東郡上士幌町字黒石平","open_date":"1963-11-01","closed_date":"1987-03-23","next":[1010711,1010715,1010717,1010713,1010716,1010710],"voronoi":{"lat":43.290955,"lng":143.238071,"delta_lat":[0,205435,-20000,-30719,-170432,1710],"delta_lng":[0,58343,-30415,-27580,-28028,5650]},"impl":false},
    {"code":9911414,"left":1110614,"right":1010710,"id":"e17b39","name":"中音更","name_kana":"なかおとふけ","closed":true,"lat":43.180436,"lng":143.209692,"prefecture":1,"lines":[99114],"postal_code":"080-1273","address":"北海道河東郡士幌町字中音更","open_date":"1929-11-26","closed_date":"1949-09-01","next":[1010709,1010708,1010710,1010707,9911413,1010715],"voronoi":{"lat":43.248498,"lng":143.222503,"delta_lat":[0,-57106,-36425,-25986,140189,3954],"delta_lng":[0,15962,-17631,-54493,-23497,64387]},"impl":false},
    {"code":1110614,"left":9911405,"right":1110616,"id":"9fdab2","name":"金山(北海道)","original_name":"金山","name_kana":"かなやま","lat":43.136115,"lng":142.416201,"prefecture":1,"lines":[11106],"attr":"cool","postal_code":"079-2131","address":"空知郡南富良野町字金山","next":[1110612,1110615,9911806,1110613,1111013,9911808],"voronoi":{"lat":43.143792,"lng":142.253063,"delta_lat":[0,21691,1885,-112513,25863,54451],"delta_lng":[0,67884,144390,29259,-229428,-10888]},"impl":true},
    {"code":9911405,"left":9911404,"right":9911408,"id":"6318a5","name":"熊牛","name_kana":"くまうし","closed":true,"lat":43.087014,"lng":142.940525,"prefecture":1,"lines":[99114],"postal_code":"089-0241","address":"北海道上川郡清水町字熊牛","closed_date":"1968-10-01","next":[1110702,9911409,9911407,9911404,9911403,9911406],"voronoi":{"lat":43.130986,"lng":142.955263,"delta_lat":[0,24696,-98661,-15975,-15718,91490],"delta_lng":[0,-17768,-22042,5401,19103,18752]},"impl":false},
    {"code":9911404,"left":9911402,"right":1110617,"id":"9bf4c2","name":"屈足","name_kana":"くったり","closed":true,"lat":43.094833,"lng":142.905528,"prefecture":1,"lines":[99114],"postal_code":"081-0155","address":"北海道上川郡新得町屈足幸町４丁目","open_date":"1928-12-15","closed_date":"1968-10-01","next":[9911411,9911403,1110618,9911409,9911405,9911410,1110617],"voronoi":{"lat":43.280505,"lng":142.877331,"delta_lat":[0,-120434,-4388,-98661,47486,268722,2709],"delta_lng":[0,58514,1650,-22042,-49145,-45336,346]},"impl":false},
    {"code":9911402,"left":1110618,"id":"65c07b","name":"南新得","name_kana":"みなみしんとく","closed":true,"lat":43.070494,"lng":142.838075,"prefecture":1,"lines":[99114],"postal_code":"081-0038","address":"北海道上川郡新得町字新得","open_date":"1928-12-15","closed_date":"1968-10-01","next":[1110702,1110617,9911403,1110618,1111014],"voronoi":{"lat":43.038243,"lng":142.854011,"delta_lat":[0,49974,-60772,-10536,-66660],"delta_lng":[0,6178,-129310,-3402,4280]},"impl":false},
    {"code":1110618,"id":"3ff7e5","name":"新得","name_kana":"しんとく","lat":43.082501,"lng":142.832432,"prefecture":1,"lines":[11106,11107,11110,99114],"attr":"cool","postal_code":"081-0005","address":"上川郡新得町本通北１丁目","next":[9911404,9911402,1110617,9911403],"voronoi":{"lat":43.088217,"lng":142.860189,"delta_lat":[0,-60772,345785,-268722],"delta_lng":[0,-129310,90092,45336]},"impl":true},
    {"code":1110617,"id":"abe9f2","name":"落合(北海道)","original_name":"落合","name_kana":"おちあい","lat":43.125055,"lng":142.669104,"prefecture":1,"lines":[11106],"attr":"cool","postal_code":"079-2551","address":"空知郡南富良野町落合","next":[9911402,1111014,9911411,1010716,1110616,9911404,1110618,1111412],"voronoi":{"lat":43.374375,"lng":142.704001,"delta_lat":[0,-258108,-99359,10536,345785,2709,48950,11121],"delta_lng":[0,-94629,118106,3402,90092,346,-5532,-7496]},"impl":true},
    {"code":9911408,"left":9911407,"right":9911409,"id":"84212c","name":"鹿追","name_kana":"しかおい","closed":true,"lat":43.106336,"lng":142.994708,"prefecture":1,"lines":[99114],"postal_code":"081-0201","address":"北海道河東郡鹿追町新町３丁目５７","open_date":"1928-12-15","closed_date":"1968-10-01","next":[1010704,9911409,9911412,9911413,9911407],"voronoi":{"lat":43.064167,"lng":143.087152,"delta_lat":[0,8604,27523,29845,-96969],"delta_lng":[0,-4318,-19350,-106131,120310]},"impl":false},
    {"code":9911407,"left":9911406,"id":"1059fa","name":"中鹿追","name_kana":"なかしかおい","closed":true,"lat":43.098692,"lng":142.988547,"prefecture":1,"lines":[99114],"postal_code":"081-0222","address":"北海道河東郡鹿追町東町１丁目１５−１","closed_date":"1968-10-01","next":[9911409,1110705,9911405,1010704,9911406,1110706,9911408],"voronoi":{"lat":43.028393,"lng":143.07643,"delta_lat":[0,-19968,-287,108680,14168,-848,-96969],"delta_lng":[0,-44957,-910,-71855,-3446,2091,120310]},"impl":false},
    {"code":9911406,"id":"21d6aa","name":"新幌内","name_kana":"しんほろない","closed":true,"lat":43.082264,"lng":142.9637,"prefecture":1,"lines":[99114],"postal_code":"081-0227","address":"北海道河東郡鹿追町幌内西２２線２４","open_date":"1932-11-15","closed_date":"1968-10-01","next":[1110704,1110705,1110703,1110702,9911407,9911405],"voronoi":{"lat":43.025329,"lng":142.939956,"delta_lat":[0,-12253,-1425,-12001,8489,108680],"delta_lng":[0,10099,3117,60025,17366,-71855]},"impl":false},
    {"code":9911409,"id":"789af5","name":"北笹川","name_kana":"きたささかわ","closed":true,"lat":43.130983,"lng":143.001639,"prefecture":1,"lines":[99114],"postal_code":"081-0204","address":"北海道河東郡鹿追町笹川北９線９−１８","open_date":"1936-12-15","next":[9911408,9911410,9911412,9911411,9911404,9911407,9911405],"voronoi":{"lat":43.130139,"lng":142.957354,"delta_lat":[0,-29845,19087,1476,39214,-4388,-24696],"delta_lng":[0,106131,-8668,-2110,-116862,1650,17768]},"impl":false},
    {"code":1110616,"left":1110611,"right":9911411,"id":"4aa1ca","name":"幾寅","name_kana":"いくとら","lat":43.161582,"lng":142.569474,"prefecture":1,"lines":[11106],"attr":"cool","postal_code":"079-2401","address":"空知郡南富良野町幾寅仲町","next":[1110611,1111413,1111014,1110615,1110617,1111412],"voronoi":{"lat":43.116268,"lng":142.609372,"delta_lat":[0,-26187,226805,3146,17991,36353],"delta_lng":[0,-66738,11976,2429,37785,109177]},"impl":true},
    {"code":1110611,"left":1110615,"right":1110610,"id":"9d8f8b","name":"布部","name_kana":"ぬのべ","lat":43.291991,"lng":142.400595,"prefecture":1,"lines":[11106],"attr":"heat","postal_code":"076-0004","address":"富良野市字布部市街地","next":[1110616,1110612,1110610,1111413,1110609,1110615,1111415,1111414,1110613],"voronoi":{"lat":43.316885,"lng":142.554609,"delta_lat":[0,3146,1883,7762,5346,-25361,-11742,-48552,8631],"delta_lng":[0,2429,-6276,-32229,-30070,-151604,-19282,120522,55177]},"impl":true},
    {"code":1110615,"left":1110613,"id":"a53353","name":"東鹿越","name_kana":"ひがししかごえ","lat":43.164011,"lng":142.523472,"prefecture":1,"lines":[11106],"attr":"cool","postal_code":"079-2411","address":"空知郡南富良野町東鹿越","next":[1110614,1110613,1111014,1110611,1110616,1111013],"voronoi":{"lat":43.090081,"lng":142.542633,"delta_lat":[0,226805,-58887,-90630,-112513,-1718],"delta_lng":[0,11976,-61333,-27940,29259,2380]},"impl":true},
    {"code":1110613,"id":"3986f8","name":"下金山","name_kana":"しもかなやま","lat":43.197328,"lng":142.415402,"prefecture":1,"lines":[11106],"attr":"heat","postal_code":"079-2132","address":"空知郡南富良野町字下金山","next":[1110612,1110615,1110614,1110611],"voronoi":{"lat":43.167368,"lng":142.465336,"delta_lat":[0,-1885,83884,8631],"delta_lng":[0,-144390,117153,55177]},"impl":true},
    {"code":1110610,"id":"e48d7a","name":"富良野","name_kana":"ふらの","lat":43.347114,"lng":142.391374,"prefecture":1,"lines":[11106,11114],"attr":"cool","postal_code":"076-0025","address":"富良野市日の出町","next":[1110611,1111416,1111417,1110609,1111415],"voronoi":{"lat":43.341576,"lng":142.475421,"delta_lat":[0,21316,-13141,-40089,25361],"delta_lng":[0,-64058,-47803,-26700,151604]},"impl":true},
    {"code":9911411,"left":9911413,"right":9911412,"id":"be7f14","name":"瓜幕","name_kana":"うりまく","closed":true,"lat":43.165361,"lng":143.025692,"prefecture":1,"lines":[99114],"postal_code":"081-0342","address":"北海道河東郡鹿追町瓜幕東１丁目２７","open_date":"1929-11-26","closed_date":"1968-10-01","next":[9911404,9911409,1010715,9911410,1110617,9911412,1010716],"voronoi":{"lat":43.424888,"lng":142.815785,"delta_lat":[0,-48950,-95434,-159648,-1476,200666,7183],"delta_lng":[0,5532,56013,175376,2110,-6141,-8323]},"impl":false},
    {"code":9911413,"left":9911410,"id":"dce1cc","name":"東瓜幕","name_kana":"ひがしうりまく","closed":true,"lat":43.163489,"lng":143.108583,"prefecture":1,"lines":[99114],"postal_code":"081-0346","address":"北海道河東郡鹿追町東瓜幕","open_date":"1929-11-26","closed_date":"1967-10-01","next":[9911412,1010707,1010705,1010715,1010706,9911414,9911408,1010704],"voronoi":{"lat":43.064167,"lng":143.087152,"delta_lat":[0,8604,210916,-14516,-140189,-1855,-12686,-5821],"delta_lng":[0,-4318,27349,32661,23497,-493,-7249,-5919]},"impl":false},
    {"code":9911410,"id":"45ce0f","name":"自衛隊前(北海道拓殖鉄道)","original_name":"自衛隊前","name_kana":"じえいたいまえ","closed":true,"lat":43.143583,"lng":143.005867,"prefecture":1,"lines":[99114],"postal_code":"081-0204","address":"北海道河東郡鹿追町笹川","closed_date":"1968-10-01","next":[9911409,9911411,9911404],"voronoi":{"lat":43.120856,"lng":143.052707,"delta_lat":[0,159648,-120434],"delta_lng":[0,-175376,58514]},"impl":false},
    {"code":9911412,"id":"db7d13","name":"中瓜幕","name_kana":"なかうりまく","closed":true,"lat":43.167056,"lng":143.081075,"prefecture":1,"lines":[99114],"postal_code":"081-0346","address":"北海道河東郡鹿追町東瓜幕西１９線","open_date":"1932-11-15","closed_date":"1967-10-01","next":[9911413,9911409,1010715,9911408,9911411],"voronoi":{"lat":43.100293,"lng":143.063484,"delta_lat":[0,-27523,210916,36360,-200666],"delta_lng":[0,19350,27349,-61508,6141]},"impl":false},
    {"code":1010710,"left":9910905,"right":9910911,"id":"eb8854","name":"上士幌","name_kana":"かみしほろ","closed":true,"lat":43.229722,"lng":143.289167,"prefecture":1,"lines":[10107,99114],"postal_code":"080-1408","address":"北海道河東郡上士幌町字上士幌東２線２３４−４","open_date":"1926-07-10","closed_date":"1987-03-23","next":[1010709,1010711,9910910,9911414,9910904,9910905,1010715,1010714],"voronoi":{"lat":43.275239,"lng":143.210391,"delta_lat":[0,-2115,-24626,-103961,36543,1627,31173,63069],"delta_lng":[0,-3160,15272,166901,30512,972,-1768,-203079]},"impl":false},
    {"code":9910905,"left":1010708,"right":9910908,"id":"a14377","name":"勇足","name_kana":"ゆうたり","closed":true,"lat":43.088975,"lng":143.524692,"prefecture":1,"lines":[10118,99109],"postal_code":"089-3281","address":"北海道中川郡本別町勇足元町２４−１４","open_date":"1910-09-22","closed_date":"2006-04-21","next":[1110715,9910907,9910910,1010710,9910904,9910906],"voronoi":{"lat":43.173388,"lng":143.487427,"delta_lat":[0,9320,-1627,-217700,-180,66387],"delta_lng":[0,-66538,-972,180638,1756,-20703]},"impl":false},
    {"code":1010708,"left":1010707,"right":1010709,"id":"e7672e","name":"士幌","name_kana":"しほろ","closed":true,"lat":43.162028,"lng":143.247722,"prefecture":1,"lines":[10107],"postal_code":"080-1200","address":"北海道河東郡士幌町字士幌西２線１５７−１８","open_date":"1925-12-10","closed_date":"1987-03-23","next":[9910903,9911414,1010707,1010709],"voronoi":{"lat":43.191393,"lng":143.238466,"delta_lat":[0,-36425,-59740,18515],"delta_lng":[0,-17631,134415,12150]},"impl":false},
    {"code":1010707,"left":1010706,"id":"6180b0","name":"新士幌","name_kana":"しんしほろ","closed":true,"lat":43.130278,"lng":143.233611,"prefecture":1,"lines":[10107],"postal_code":"080-1189","address":"北海道河東郡士幌町字中士幌","open_date":"1966-10-01","closed_date":"1987-03-23","next":[9911413,9911414,9910903,1010708,1010706],"voronoi":{"lat":43.127126,"lng":143.165849,"delta_lat":[0,1855,25986,-59740,-8228],"delta_lng":[0,493,54493,134415,-3905]},"impl":false},
    {"code":1010706,"id":"ef49ae","name":"中士幌","name_kana":"なかしほろ","closed":true,"lat":43.09625,"lng":143.22625,"prefecture":1,"lines":[10107],"postal_code":"080-1189","address":"北海道河東郡士幌町字中士幌７２−１３８","open_date":"1925-12-10","closed_date":"1987-03-23","next":[1010705,1110712,9910903,9911413,1110711,1010707],"voronoi":{"lat":43.127126,"lng":143.165849,"delta_lat":[0,-12686,-94081,1703,8945,55992],"delta_lng":[0,-7249,157926,4594,12667,17558]},"impl":false},
    {"code":1010709,"id":"516439","name":"北平和","name_kana":"きたへいわ","closed":true,"lat":43.196944,"lng":143.26875,"prefecture":1,"lines":[10107],"postal_code":"080-1189","address":"北海道河東郡士幌町字士幌","open_date":"1957-12-25","closed_date":"1987-03-23","next":[9910903,1010710,9911414,9910904,1010708],"voronoi":{"lat":43.124353,"lng":143.377075,"delta_lat":[0,20185,103961,-57106,-77650],"delta_lng":[0,12330,-166901,15962,128934]},"impl":false},
    {"code":9910908,"left":9910907,"right":9910909,"id":"66693a","name":"本別","name_kana":"ほんべつ","closed":true,"lat":43.125894,"lng":143.613511,"prefecture":1,"lines":[10118,99109],"postal_code":"089-3334","address":"北海道中川郡本別町北３丁目１−１","open_date":"1910-09-22","closed_date":"2006-04-21","next":[9912006,1010907,9910909,1010906,9910907],"voronoi":{"lat":43.053556,"lng":143.752032,"delta_lat":[0,3929,156016,-68911,-139719],"delta_lng":[0,372,-8487,-160855,111980]},"impl":false},
    {"code":9910907,"left":9910906,"id":"df89f4","name":"岡女堂","name_kana":"おかめどう","closed":true,"lat":43.1108,"lng":143.594678,"prefecture":1,"lines":[99109],"postal_code":"089-3305","address":"北海道中川郡本別町共栄１８−１","open_date":"1995-09-04","closed_date":"2006-04-21","next":[9910905,1110715,9910909,9910908,1110718,9912006,9910906],"voronoi":{"lat":42.9632,"lng":143.602311,"delta_lat":[0,-4173,8397,37446,139719,-903,-114099],"delta_lng":[0,11336,44275,37120,-111980,-14978,13524]},"impl":false},
    {"code":9910906,"id":"ee5c3e","name":"南本別","name_kana":"みなみほんべつ","closed":true,"lat":43.105494,"lng":143.549914,"prefecture":1,"lines":[10118,99109],"postal_code":"089-3282","address":"北海道中川郡本別町勇足３３","open_date":"1962-12-01","closed_date":"2006-04-21","next":[9910909,9910910,9910907,9910905],"voronoi":{"lat":43.173388,"lng":143.487427,"delta_lat":[0,633,-30334,-114099],"delta_lng":[0,25366,55291,13524]},"impl":false},
    {"code":9910909,"id":"4f78a7","name":"仙美里","name_kana":"せんびり","closed":true,"lat":43.179531,"lng":143.590533,"prefecture":1,"lines":[10118,99109],"postal_code":"089-3664","address":"北海道中川郡本別町仙美里元町１６６−２０","open_date":"1910-09-22","closed_date":"2006-04-21","next":[9910906,9910910,9910907,9910915,9910908,9910911,1010907,9910913,9910916],"voronoi":{"lat":43.241617,"lng":143.738762,"delta_lat":[0,10052,1454,-9425,-69678,-30334,903,68911,24494],"delta_lng":[0,-37407,-41651,-44515,-102396,55291,14978,160855,3264]},"impl":false},
    {"code":9910911,"left":1010712,"right":9910913,"id":"b6dd49","name":"愛冠","name_kana":"あいかっぷ","closed":true,"lat":43.292367,"lng":143.566642,"prefecture":1,"lines":[10118,99109],"postal_code":"089-3708","address":"北海道足寄郡足寄町愛冠３５−１２","open_date":"1946-09-10","closed_date":"2006-04-21","next":[1010712,9910912,9910909,9910910,9910913],"voronoi":{"lat":43.243699,"lng":143.615189,"delta_lat":[0,75845,53556,-92449,-27527],"delta_lng":[0,-180495,5969,182271,36770]},"impl":false},
    {"code":1010712,"left":9910910,"right":1010713,"id":"8203ea","name":"清水谷","name_kana":"しみずだに","closed":true,"lat":43.322083,"lng":143.3,"prefecture":1,"lines":[10107],"postal_code":"080-1405","address":"北海道河東郡上士幌町字上士幌清水谷","open_date":"1935-11-26","closed_date":"1987-03-23","next":[9910914,9910912,9910911,9910922,9910910,1010713,1010711],"voronoi":{"lat":43.294649,"lng":143.245184,"delta_lat":[0,219487,-7355,-55743,-77939,-53556,-13001],"delta_lng":[0,181837,9007,5450,-816,-5969,-4102]},"impl":false},
    {"code":9910910,"left":1010711,"id":"a7fd31","name":"足寄","name_kana":"あしょろ","closed":true,"lat":43.244314,"lng":143.54645,"prefecture":1,"lines":[10118,99109],"postal_code":"089-3701","address":"北海道足寄郡足寄町北１条１丁目１","open_date":"1910-09-22","closed_date":"2006-04-21","next":[9910909,1010711,9910905,1010710,1010712,9910911,9910906],"voronoi":{"lat":43.243699,"lng":143.615189,"delta_lat":[0,75845,-13001,-92662,-31173,-9320,633],"delta_lng":[0,-180495,-4102,-11471,1768,66538,25366]},"impl":false},
    {"code":1010711,"id":"702419","name":"萩ヶ岡","name_kana":"はぎがおか","closed":true,"lat":43.274444,"lng":143.303056,"prefecture":1,"lines":[10107],"postal_code":"080-1408","address":"北海道河東郡上士幌町字上士幌東３線２８９","open_date":"1935-11-26","closed_date":"1987-03-23","next":[1010714,1010710,9910910,1010712,1010713],"voronoi":{"lat":43.306543,"lng":143.430591,"delta_lat":[0,-92662,63069,14006,3694],"delta_lng":[0,-11471,-203079,22030,7113]},"impl":false},
    {"code":1010713,"id":"033528","name":"黒石平","name_kana":"くろいしだいら","closed":true,"lat":43.353611,"lng":143.261944,"prefecture":1,"lines":[10107],"postal_code":"080-1404","address":"北海道河東郡上士幌町字黒石平","open_date":"1956-12-25","closed_date":"1987-03-23","next":[1010717,1010714,9910922,1010712,1010711],"voronoi":{"lat":43.290955,"lng":143.238071,"delta_lat":[0,205435,62161,-44415,-219487],"delta_lng":[0,58343,86793,43814,-181837]},"impl":false},
    {"code":9910913,"left":9910912,"right":9910914,"id":"abda10","name":"塩幌","name_kana":"しおほろ","closed":true,"lat":43.331361,"lng":143.595833,"prefecture":1,"lines":[10118,99109],"postal_code":"089-4142","address":"北海道足寄郡足寄町上利別１８１−４","open_date":"1961-02-01","closed_date":"2006-04-21","next":[9910914,9910915,9910909,9910912,9910911],"voronoi":{"lat":43.28065,"lng":143.622934,"delta_lat":[0,79094,-37103,-70972,1454],"delta_lng":[0,-61895,80983,59333,-41651]},"impl":false},
    {"code":9910912,"id":"017035","name":"西一線","name_kana":"にしいっせん","closed":true,"lat":43.319147,"lng":143.580225,"prefecture":1,"lines":[10118,99109],"postal_code":"089-4142","address":"北海道足寄郡足寄町上利別","open_date":"1960-05-01","closed_date":"2006-04-21","next":[1010712,9910914,9910911,9910913],"voronoi":{"lat":43.373099,"lng":143.440662,"delta_lat":[0,77939,-91294,-79094],"delta_lng":[0,816,119560,61895]},"impl":false},
    {"code":9910914,"id":"eb8818","name":"上利別","name_kana":"かみとしべつ","closed":true,"lat":43.351928,"lng":143.605256,"prefecture":1,"lines":[10118,99109],"postal_code":"089-4141","address":"北海道足寄郡足寄町上利別本町２０−１１","open_date":"1910-09-22","closed_date":"2006-04-21","next":[9910913,9910915,1010712,9910921,9910912,9910922],"voronoi":{"lat":43.506781,"lng":143.436029,"delta_lat":[0,-55743,-91294,-37103,174169,13667],"delta_lng":[0,5450,119560,80983,-84841,-43504]},"impl":false},
    {"code":1010716,"left":1111408,"right":9910922,"id":"acba2a","name":"幌加","name_kana":"ほろか","closed":true,"lat":43.448333,"lng":143.14875,"prefecture":1,"lines":[10107],"postal_code":"080-1402","address":"北海道河東郡上士幌町字幌加","open_date":"1939-11-18","closed_date":"1987-03-23","next":[1111412,1010717,1010715,1110617,9911411,1010714],"voronoi":{"lat":43.445672,"lng":143.23842,"delta_lat":[0,-118442,97659,11121,50711,-10330],"delta_lng":[0,-198067,-224567,-7496,1171,456539]},"impl":false},
    {"code":1111408,"left":1111413,"right":1111605,"id":"dac453","name":"千代ヶ岡","name_kana":"ちよがおか","lat":43.643737,"lng":142.451024,"prefecture":1,"lines":[11114],"attr":"heat","postal_code":"078-8381","address":"北海道旭川市西神楽1線24号","next":[1111407,1111606,1111409,1111410],"voronoi":{"lat":43.605509,"lng":142.397158,"delta_lat":[0,105806,-6592,-88028],"delta_lng":[0,74772,60263,-79657]},"impl":true},
    {"code":1111413,"left":1111415,"right":1111410,"id":"87a573","name":"西中","name_kana":"にしなか","lat":43.429569,"lng":142.441876,"prefecture":1,"lines":[11114],"attr":"eco","postal_code":"071-0704","address":"空知郡中富良野町基線北１８号","next":[1111414,1110611,1110616,1111412,1111411],"voronoi":{"lat":43.487473,"lng":142.363715,"delta_lat":[0,-165558,-1883,17991,147374],"delta_lng":[0,187047,6276,37785,-188991]},"impl":true},
    {"code":1111415,"left":1111416,"right":1111414,"id":"d96378","name":"中富良野","name_kana":"なかふらの","lat":43.405704,"lng":142.420812,"prefecture":1,"lines":[11114],"attr":"cool","postal_code":"071-0700","address":"空知郡中富良野町市街地","next":[1111414,1110608,1111416,1110609,1110611,1110610],"voronoi":{"lat":43.341576,"lng":142.475421,"delta_lat":[0,98470,25204,7822,-143395,5346],"delta_lng":[0,-112040,-11206,3380,162979,-30070]},"impl":true},
    {"code":1111416,"left":1111417,"id":"e85b4d","name":"鹿討","name_kana":"しかうち","lat":43.387499,"lng":142.404812,"prefecture":1,"lines":[11114],"attr":"cool","postal_code":"071-0700","address":"空知郡中富良野町字富良野基線北８号","next":[1110610,1110609,1111415,1111417],"voronoi":{"lat":43.341576,"lng":142.475421,"delta_lat":[0,98470,-44364,-32790],"delta_lng":[0,-112040,10681,37301]},"impl":true},
    {"code":1111417,"id":"b3e0ee","name":"学田","name_kana":"がくでん","lat":43.366234,"lng":142.386118,"prefecture":1,"lines":[11114],"attr":"cool","postal_code":"076-0047","address":"富良野市字西学田二区","next":[1110609,1110610,1111416],"voronoi":{"lat":43.34975,"lng":142.363559,"delta_lat":[0,45931,-32790],"delta_lng":[0,10502,37301]},"impl":true},
    {"code":1111414,"id":"b53903","name":"ラベンダー畑","name_kana":"らべんだーばたけ","lat":43.416922,"lng":142.430682,"prefecture":1,"lines":[11114],"attr":"eco","postal_code":"071-0704","address":"空知郡中富良野町基線北１５号","next":[1111413,1111411,1111415,1110608,1110611],"voronoi":{"lat":43.329677,"lng":142.518533,"delta_lat":[0,143395,14828,-427,-165558],"delta_lng":[0,-162979,5047,3114,187047]},"impl":true},
    {"code":1111410,"left":1111412,"right":1111409,"id":"7b9c76","name":"美瑛","name_kana":"びえい","lat":43.591186,"lng":142.461639,"prefecture":1,"lines":[11114],"attr":"heat","postal_code":"071-0208","address":"上川郡美瑛町本町１丁目","next":[1111412,1111409,1111407,1111411,1111408],"voronoi":{"lat":43.605509,"lng":142.397158,"delta_lat":[0,-17807,-54256,365,82884],"delta_lng":[0,-29862,201964,6520,-123244]},"impl":true},
    {"code":1111412,"left":1111411,"id":"2ab7f2","name":"上富良野","name_kana":"かみふらの","lat":43.464046,"lng":142.468761,"prefecture":1,"lines":[11114],"attr":"eco","postal_code":"071-0543","address":"空知郡上富良野町中町１丁目","next":[1010716,1111410,1111409,1111616,1111413,1110616,1010717,1111411,1110617],"voronoi":{"lat":43.48672,"lng":142.809461,"delta_lat":[0,22102,9499,15489,-365,-48049,-147374,36353,61634],"delta_lng":[0,-1481,-12250,-219950,-6520,-163427,188991,109177,104289]},"impl":true},
    {"code":1111411,"id":"bc4157","name":"美馬牛","name_kana":"びばうし","lat":43.537408,"lng":142.447192,"prefecture":1,"lines":[11114],"attr":"eco","postal_code":"071-0471","address":"上川郡美瑛町字美馬牛","next":[1111414,1111407,1110608,1111410,1111413,1111406,1111412],"voronoi":{"lat":43.587701,"lng":142.367295,"delta_lat":[0,-4700,-6456,-88646,-427,-2076,48049],"delta_lng":[0,-19344,-17464,30114,3114,42117,163427]},"impl":true},
    {"code":1111409,"id":"4cbf19","name":"北美瑛","name_kana":"きたびえい","lat":43.617884,"lng":142.479594,"prefecture":1,"lines":[11114],"attr":"heat","postal_code":"071-0226","address":"上川郡美瑛町字下宇莫別","next":[1111410,1111412,1111607,1111614,1111606,1111616,1111608,1111408,1111615],"voronoi":{"lat":43.682148,"lng":142.644423,"delta_lat":[0,16448,7091,1163,-2127,-88028,-82884,-15489,32054],"delta_lng":[0,-17971,-39367,-29006,-25886,-79657,123244,219950,-25730]},"impl":true},
    {"code":1111605,"left":1111604,"right":1111608,"id":"7392ba","name":"東旭川","name_kana":"ひがしあさひかわ","lat":43.776571,"lng":142.441544,"prefecture":1,"lines":[11116],"attr":"heat","postal_code":"078-8253","address":"旭川市東旭川北三条５丁目","next":[1111407,1111606,1111405,1111504,1111604],"voronoi":{"lat":43.733222,"lng":142.419573,"delta_lat":[0,-11879,-8221,84517,-4401],"delta_lng":[0,14789,33562,-18022,-23095]},"impl":true},
    {"code":1111604,"left":1111407,"right":1111504,"id":"51f3bc","name":"南永山","name_kana":"みなみながやま","lat":43.78055,"lng":142.40853,"prefecture":1,"lines":[11116],"attr":"heat","postal_code":"079-8420","address":"旭川市永山十条３丁目","next":[1111502,1111504,1111405,1111404,1111503,1111605],"voronoi":{"lat":43.816873,"lng":142.396081,"delta_lat":[0,-54019,-23931,-4665,-1035,60016],"delta_lng":[0,855,12066,7524,3046,7234]},"impl":true},
    {"code":1111407,"left":1111406,"id":"5cbbd2","name":"西聖和","name_kana":"にしせいわ","lat":43.669047,"lng":142.415209,"prefecture":1,"lines":[11114],"attr":"heat","postal_code":"078-8382","address":"旭川市西神楽二線１７号","next":[1111606,1111408,1111406,1111605,1111411,1111410,1111405],"voronoi":{"lat":43.713123,"lng":142.467924,"delta_lat":[0,-1808,-105806,-17807,-4700,133208,5134],"delta_lng":[0,4006,-74772,-29862,-19344,81254,5156]},"impl":true},
    {"code":1111406,"id":"70ce4f","name":"西神楽","name_kana":"にしかぐら","lat":43.682181,"lng":142.393677,"prefecture":1,"lines":[11114],"attr":"heat","postal_code":"071-0171","address":"旭川市西神楽南１条１丁目","next":[1111407,1111405,1110606,1110345,9911602,1110608,1111411],"voronoi":{"lat":43.716209,"lng":142.429205,"delta_lat":[0,-87963,-10129,-5933,-6260,-29379,6456],"delta_lng":[0,-152225,-2680,4696,5216,46275,17464]},"impl":true},
    {"code":1111504,"id":"a24ea9","name":"永山","name_kana":"ながやま","lat":43.814158,"lng":142.434382,"prefecture":1,"lines":[11115],"attr":"heat","postal_code":"079-8411","address":"旭川市永山１条１９丁目","next":[1111505,1111510,1111503,1111606,1111507,1111506,1111604,1110347,1111605],"voronoi":{"lat":43.793239,"lng":142.426806,"delta_lat":[0,23634,43183,42924,-55,-25626,-17559,-56748,-5352],"delta_lng":[0,-30725,-29591,-9827,402,41877,20921,35491,-5453]},"impl":true},
    {"code":1111608,"left":1111607,"right":1111505,"id":"9f9414","name":"当麻","name_kana":"とうま","lat":43.825477,"lng":142.516987,"prefecture":1,"lines":[11116],"attr":"heat","postal_code":"078-1300","address":"上川郡当麻町市街","next":[1111614,1111611,1111609,1111506,1111409,1111613,1111607],"voronoi":{"lat":43.831652,"lng":142.487781,"delta_lat":[0,13254,-12537,-22186,-19127,-92461,7091],"delta_lng":[0,7428,87688,24898,4786,13870,-39367]},"impl":true},
    {"code":1111607,"left":1111606,"id":"126e16","name":"桜岡","name_kana":"さくらおか","lat":43.801812,"lng":142.486968,"prefecture":1,"lines":[11116],"attr":"heat","postal_code":"078-8204","address":"旭川市東旭川町桜岡","next":[1111505,1111506,1111409,1111606,1111608],"voronoi":{"lat":43.706849,"lng":142.558078,"delta_lat":[0,98313,24481,2009,-125966],"delta_lng":[0,-94341,18789,5255,99303]},"impl":true},
    {"code":1111606,"id":"34937a","name":"北日ノ出","name_kana":"きたひので","lat":43.781813,"lng":142.466127,"prefecture":1,"lines":[11116],"attr":"heat","postal_code":"078-8203","address":"旭川市東旭川町日ノ出","next":[1111407,1111504,1111505,1111408,1111409,1111605,1111607],"voronoi":{"lat":43.805162,"lng":142.463737,"delta_lat":[0,-2171,-5352,-84517,-1808,-6592,2127],"delta_lng":[0,-8383,-5453,18022,4006,60263,25886]},"impl":true},
    {"code":1111505,"id":"b83a30","name":"北永山","name_kana":"きたながやま","lat":43.826736,"lng":142.454493,"prefecture":1,"lines":[11115],"attr":"heat","postal_code":"079-8431","address":"旭川市永山町１５丁目","next":[1111504,1111607,1111606,1111506],"voronoi":{"lat":43.859739,"lng":142.419863,"delta_lat":[0,-56748,2171,24481],"delta_lng":[0,35491,8383,18789]},"impl":true},
    {"code":9910922,"left":9910916,"right":9910924,"id":"35702f","name":"置戸","name_kana":"おけと","closed":true,"lat":43.677008,"lng":143.589783,"prefecture":1,"lines":[10118,99109],"postal_code":"099-1100","address":"北海道常呂郡置戸町字置戸４５６","open_date":"1911-09-25","closed_date":"2006-04-21","next":[9910923,1010712,1111619,1111627,1010713,9910921,9910914,1111628,1010717,1111618],"voronoi":{"lat":43.706248,"lng":143.349818,"delta_lat":[0,30162,-3714,-94237,-127982,-3696,7355,44415,124592,10387],"delta_lng":[0,204621,29861,56142,-126765,-77648,-9007,-43814,-47407,5268]},"impl":false},
    {"code":9910916,"left":1010717,"right":9910919,"id":"69113a","name":"大誉地","name_kana":"およち","closed":true,"lat":43.391944,"lng":143.681944,"prefecture":1,"lines":[10118,99109],"postal_code":"089-4252","address":"北海道足寄郡足寄町大誉地本町２０−１１","open_date":"1913-10-11","closed_date":"2006-04-21","next":[9910917,9910915,1010908,1010907,9910919,9910909],"voronoi":{"lat":43.241617,"lng":143.738762,"delta_lat":[0,240578,-16195,-194048,-30791,-3167],"delta_lng":[0,-133061,53002,125827,-33390,-3959]},"impl":false},
    {"code":1010717,"left":9910915,"right":9910921,"id":"06ccc8","name":"十勝三股","name_kana":"とかちみつまた","closed":true,"lat":43.509722,"lng":143.150139,"prefecture":1,"lines":[10107],"postal_code":"080-1401","address":"北海道河東郡上士幌町字三股","open_date":"1939-11-18","closed_date":"1987-03-23","next":[1010716,1010714,1010713,1111618,1111616,1111617,9910922,1111412],"voronoi":{"lat":43.47639,"lng":143.266,"delta_lat":[0,20000,62161,124592,10844,-3675,-181490,-22102],"delta_lng":[0,30415,86793,-47407,-132551,-234834,-160436,1481]},"impl":false},
    {"code":9910915,"left":1010715,"id":"0de704","name":"笹森","name_kana":"ささもり","closed":true,"lat":43.369644,"lng":143.641625,"prefecture":1,"lines":[10118,99109],"postal_code":"089-4251","address":"北海道足寄郡足寄町大誉地","open_date":"1948-08-01","closed_date":"2006-04-21","next":[9910914,9910919,9910916,9910909,9910913,9910921],"voronoi":{"lat":43.49681,"lng":143.557181,"delta_lat":[0,-174169,-70972,-10052,240578,9169],"delta_lng":[0,84841,59333,37407,-133061,-17074]},"impl":false},
    {"code":1010715,"id":"b1d513","name":"糠平","name_kana":"ぬかびら","closed":true,"lat":43.365417,"lng":143.198333,"prefecture":1,"lines":[10107],"postal_code":"080-1403","address":"北海道河東郡上士幌町字ぬかびら源泉郷","open_date":"1937-09-26","closed_date":"1987-03-23","next":[1010714,9911412,9911411,1010716,9911413,1010710,9911414],"voronoi":{"lat":43.275239,"lng":143.210391,"delta_lat":[0,170432,-118442,-7183,-36360,-14516,3954],"delta_lng":[0,28028,-198067,8323,61508,32661,64387]},"impl":false},
    {"code":9910921,"id":"60b99b","name":"小利別","name_kana":"しょうとしべつ","closed":true,"lat":43.588172,"lng":143.679472,"prefecture":1,"lines":[10118,99109],"postal_code":"089-4300","address":"北海道足寄郡陸別町字小利別本通","open_date":"1911-09-25","closed_date":"2006-04-21","next":[9910923,9910925,9910920,9910927,9910924,9910926,9910914,9910928,9910919,9910922,9910915],"voronoi":{"lat":43.49681,"lng":143.557181,"delta_lat":[0,13667,127982,12796,496,-205,-1481,-11585,-5385,-99754,-41977],"delta_lng":[0,-43504,126765,29671,3236,49291,6192,27752,9331,-99686,-77602]},"impl":false},
    {"code":9910919,"left":9910918,"right":9910920,"id":"4b0b53","name":"分線","name_kana":"ぶんせん","closed":true,"lat":43.514419,"lng":143.719367,"prefecture":1,"lines":[10118,99109],"postal_code":"089-4352","address":"北海道足寄郡陸別町字分線","open_date":"1958-09-10","closed_date":"2006-04-21","next":[9910915,9910920,9910921,9910916,9910917,9910918],"voronoi":{"lat":43.533342,"lng":143.666229,"delta_lat":[0,-41977,-9169,-16195,-522,60744],"delta_lng":[0,-77602,17074,53002,20550,123202]},"impl":false},
    {"code":9910918,"left":9910917,"id":"43f113","name":"陸別","name_kana":"りくべつ","closed":true,"lat":43.4675,"lng":143.7425,"prefecture":1,"lines":[10118,99109],"postal_code":"089-4300","address":"北海道足寄郡陸別町字陸別原野基線６９","open_date":"1910-09-22","closed_date":"2006-04-21","next":[1010114,1010908,9910920,9910917,9910919],"voronoi":{"lat":43.539404,"lng":143.851076,"delta_lat":[0,-180606,-2519,109200,60744],"delta_lng":[0,58429,-5050,-225203,123202]},"impl":false},
    {"code":9910917,"id":"7dce55","name":"薫別","name_kana":"くんべつ","closed":true,"lat":43.414567,"lng":143.716833,"prefecture":1,"lines":[10118,99109],"postal_code":"089-4300","address":"北海道足寄郡陸別町","open_date":"1958-09-10","closed_date":"2006-04-21","next":[9910916,9910918,1010908,9910919],"voronoi":{"lat":43.466,"lng":143.658703,"delta_lat":[0,-194048,84326,109200],"delta_lng":[0,125827,119926,-225203]},"impl":false},
    {"code":9910920,"id":"266950","name":"川上","name_kana":"かわかみ","closed":true,"lat":43.546622,"lng":143.72105,"prefecture":1,"lines":[10118,99109],"postal_code":"089-4353","address":"北海道足寄郡陸別町字川上","open_date":"1920-06-01","closed_date":"2006-04-21","next":[9910921,1010114,9910930,9910918,9910919,9910929,9910928,1010113],"voronoi":{"lat":43.539404,"lng":143.851076,"delta_lat":[0,-13181,7119,99754,-8345,-10119,-3440,-66325],"delta_lng":[0,-48622,-136226,99686,37847,29861,7761,9733]},"impl":false},
    {"code":9910924,"left":1111629,"right":9910926,"id":"cfd95b","name":"境野","name_kana":"さかいの","closed":true,"lat":43.714242,"lng":143.660128,"prefecture":1,"lines":[10118,99109],"postal_code":"099-1361","address":"北海道常呂郡置戸町字境野","open_date":"1922-08-01","closed_date":"2006-04-21","next":[9910921,1111629,9910925,9910923],"voronoi":{"lat":43.651752,"lng":143.673349,"delta_lat":[0,112651,-20557,-92590],"delta_lng":[0,-5873,-37837,40474]},"impl":false},
    {"code":1111629,"left":9910923,"right":1111627,"id":"f1781b","name":"留辺蘂","name_kana":"るべしべ","lat":43.785534,"lng":143.621394,"prefecture":1,"lines":[11116],"attr":"cool","postal_code":"091-0002","address":"北見市留辺蘂町東町","next":[1111630,9910925,1111628,1011710,9910924,1111627,9910923,1111626,9910926],"voronoi":{"lat":43.772548,"lng":143.67724,"delta_lat":[0,-8145,-20557,-1857,95947,48834,30547,-929,-125430],"delta_lng":[0,-9764,-37837,-16860,-1000,17443,48632,1379,9672]},"impl":true},
    {"code":9910923,"left":1111628,"id":"4e6b7f","name":"豊住","name_kana":"とよずみ","closed":true,"lat":43.701361,"lng":143.630661,"prefecture":1,"lines":[10118,99109],"postal_code":"099-1365","address":"北海道常呂郡置戸町字豊住６３","open_date":"1955-08-20","closed_date":"2006-04-21","next":[9910922,9910921,1111628,1111629,9910924],"voronoi":{"lat":43.743845,"lng":143.629639,"delta_lat":[0,-1857,-9292,-94237,12796],"delta_lng":[0,-16860,-28479,56142,29671]},"impl":false},
    {"code":1111628,"id":"34cd62","name":"西留辺蘂","name_kana":"にしるべしべ","lat":43.785345,"lng":143.603257,"prefecture":1,"lines":[11116],"attr":"cool","postal_code":"091-0027","address":"北見市留辺蘂町旭西３３４番地の１","next":[9910923,1111629,9910922,1111627],"voronoi":{"lat":43.73641,"lng":143.554439,"delta_lat":[0,-3714,9292,95947],"delta_lng":[0,29861,28479,-1000]},"impl":true},
    {"code":1111627,"id":"bbc234","name":"金華","name_kana":"かねはな","closed":true,"lat":43.803484,"lng":143.57114,"prefecture":1,"lines":[11116],"attr":"unknown","postal_code":"091-0021","address":"北見市留辺蘂町金華","open_date":"1914-10-05","closed_date":"2016-03-26","next":[1111620,9910922,1111619,1111629,1111628,1111626],"voronoi":{"lat":43.837936,"lng":143.611778,"delta_lat":[0,-101525,-30162,49373,60239,70909],"delta_lng":[0,-57340,-204621,17189,28801,233414]},"impl":true},
    {"code":9910926,"left":9910925,"right":9910927,"id":"471a5f","name":"西富","name_kana":"にしとみ","closed":true,"lat":43.727597,"lng":143.712833,"prefecture":1,"lines":[10118,99109],"postal_code":"099-1424","address":"北海道常呂郡訓子府町字西富１２３","open_date":"1955-08-20","closed_date":"2006-04-21","next":[9910921,9910925,9910927,1111630,1111629],"voronoi":{"lat":43.772548,"lng":143.67724,"delta_lat":[0,-121001,-1481,118666,22226],"delta_lng":[0,45400,6192,-5095,-34832]},"impl":false},
    {"code":9910925,"id":"2e24d1","name":"西訓子府","name_kana":"にしくんねっぷ","closed":true,"lat":43.715278,"lng":143.68,"prefecture":1,"lines":[10118,99109],"postal_code":"099-1424","address":"北海道常呂郡訓子府町字西富","closed_date":"2006-04-21","next":[9910921,1111629,9910926,9910924],"voronoi":{"lat":43.651547,"lng":143.72264,"delta_lat":[0,121001,-8145,-112651],"delta_lng":[0,-45400,-9764,5873]},"impl":false},
    {"code":9910927,"id":"a5ef65","name":"訓子府","name_kana":"くんねっぷ","closed":true,"lat":43.728683,"lng":143.738125,"prefecture":1,"lines":[10118,99109],"postal_code":"099-1436","address":"北海道常呂郡訓子府町元町","open_date":"1911-09-25","closed_date":"2006-04-21","next":[1111630,9910921,9910928,9910926],"voronoi":{"lat":43.768731,"lng":143.723736,"delta_lat":[0,-6454,-123797,11585],"delta_lng":[0,23692,9155,-27752]},"impl":false},
    {"code":1112316,"left":1112302,"right":1010104,"id":"a47498","name":"平糸","name_kana":"ひらいと","closed":true,"lat":43.4325,"lng":145.094444,"prefecture":1,"lines":[11123],"postal_code":"086-0216","address":"北海道野付郡別海町別海","open_date":"1961-10-01","closed_date":"1989-04-30","next":[1112309,1112317,1110810,1112315,1112305,1112313],"voronoi":{"lat":43.300026,"lng":144.973851,"delta_lat":[0,8585,6532,55417,165112,-9152],"delta_lng":[0,-39182,-318,24908,229409,60070]},"impl":false},
    {"code":1112302,"left":1010908,"right":1110818,"id":"766e45","name":"多和","name_kana":"たわ","closed":true,"lat":43.321944,"lng":144.613056,"prefecture":1,"lines":[11123],"postal_code":"088-2339","address":"北海道川上郡標茶町字上多和６","open_date":"1961-04-10","closed_date":"1989-04-30","next":[1112303,1111720,1111719],"voronoi":{"lat":43.299319,"lng":144.666041,"delta_lat":[0,21890,78853],"delta_lng":[0,-111162,77122]},"impl":false},
    {"code":1010908,"left":9911909,"right":1111722,"id":"dbc26c","name":"北進","name_kana":"ほくしん","closed":true,"lat":43.16,"lng":143.895833,"prefecture":1,"lines":[10109],"postal_code":"088-0344","address":"北海道白糠郡白糠町上茶路基線","open_date":"1972-09-08","closed_date":"1983-10-23","next":[9910918,1010907,1010906,9911914,1010905,9910916,1010114,9910917],"voronoi":{"lat":43.358797,"lng":143.909506,"delta_lat":[0,-5464,-186422,-32795,-2934,109979,30791,84326],"delta_lng":[0,24627,56511,-41267,-30873,-167364,33390,119926]},"impl":false},
    {"code":9911909,"left":9911910,"right":1111724,"id":"b11f73","name":"桜田","name_kana":"さくらだ","closed":true,"lat":43.088111,"lng":144.169583,"prefecture":1,"lines":[99119],"postal_code":"085-0251","address":"北海道釧路市桜田１３−７７−４","open_date":"1925-09-20","closed_date":"1970-04-16","next":[9911910,9911911,1110726,1110727,9911908],"voronoi":{"lat":43.029461,"lng":144.19396,"delta_lat":[0,14554,1229,142410,14278],"delta_lng":[0,-77747,-3462,92576,17976]},"impl":false},
    {"code":9911910,"left":1010905,"right":1010907,"id":"eaf39d","name":"阿寒","name_kana":"あかん","closed":true,"lat":43.114583,"lng":144.128861,"prefecture":1,"lines":[99119],"postal_code":"085-0218","address":"北海道釧路市阿寒町新町２丁目５","open_date":"1923-01-17","closed_date":"1970-04-16","next":[9911909,1110726,1010904,9911911,1010902,1010903],"voronoi":{"lat":43.045153,"lng":144.099531,"delta_lat":[0,92,142410,-74281,-57227,-4894],"delta_lng":[0,13220,92576,-157949,39272,4447]},"impl":false},
    {"code":1010905,"left":1010906,"id":"f5746c","name":"縫別","name_kana":"ぬいべつ","closed":true,"lat":43.076111,"lng":143.9625,"prefecture":1,"lines":[10109],"postal_code":"088-0343","address":"北海道白糠郡白糠町茶路基線","open_date":"1964-10-07","closed_date":"1983-10-23","next":[1010906,1010904,1110723,1010908,1010903,9911913,1110724,9911914,9912003],"voronoi":{"lat":42.993728,"lng":143.897452,"delta_lat":[0,140389,32795,-323,-45836,-121839,-144,-11347,1715],"delta_lng":[0,51925,41267,400,43604,-85784,-131,-31568,-10678]},"impl":false},
    {"code":1010906,"id":"3e5917","name":"上茶路","name_kana":"かみちゃろ","closed":true,"lat":43.098611,"lng":143.901667,"prefecture":1,"lines":[10109],"postal_code":"088-0343","address":"北海道白糠郡白糠町上茶路西１線７２−３","open_date":"1964-10-07","closed_date":"1983-10-23","next":[1010905,9912006,1010908,9912003,9910908,1010907,9912004],"voronoi":{"lat":42.993728,"lng":143.897452,"delta_lat":[0,140389,-2934,-73698,-3929,-32929,-24942],"delta_lng":[0,51925,-30873,-166100,-372,63723,69251]},"impl":false},
    {"code":1010907,"id":"4b57cb","name":"下北進","name_kana":"しもほくしん","closed":true,"lat":43.140556,"lng":143.883056,"prefecture":1,"lines":[10109],"postal_code":"088-0344","address":"北海道白糠郡白糠町上茶路基線","open_date":"1972-09-08","closed_date":"1983-10-23","next":[1010908,9910908,9910909,9910916,1010906],"voronoi":{"lat":43.057484,"lng":143.752403,"delta_lat":[0,156016,24494,3167,-109979],"delta_lng":[0,-8487,3264,3959,167364]},"impl":false},
    {"code":1111724,"left":1111725,"right":1111723,"id":"40cc00","name":"細岡","name_kana":"ほそおか","lat":43.105055,"lng":144.469683,"prefecture":1,"lines":[11117],"attr":"eco","postal_code":"088-2148","address":"釧路郡釧路町字鳥通牛原野","next":[1111723,1111725,1110805,1111726],"voronoi":{"lat":43.07646,"lng":144.464057,"delta_lat":[0,71458,-58977,-27012],"delta_lng":[0,-14393,101470,-13659]},"impl":true},
    {"code":1111725,"left":9911908,"id":"087f66","name":"釧路湿原","name_kana":"くしろしつげん","lat":43.100647,"lng":144.447799,"prefecture":1,"lines":[11117],"attr":"eco","postal_code":"088-2148","address":"釧路郡釧路町鳥通原野","next":[9911907,9911906,1111726,1111723,1111724,9911903,1111722,9911904],"voronoi":{"lat":43.064015,"lng":144.401913,"delta_lat":[0,12446,71458,42081,41763,-112694,-24551,-29361],"delta_lng":[0,62143,-14393,-43862,-75672,26752,13739,29523]},"impl":true},
    {"code":9911908,"id":"ce0661","name":"山花","name_kana":"やまはな","closed":true,"lat":43.07675,"lng":144.236361,"prefecture":1,"lines":[99119],"postal_code":"084-0928","address":"北海道釧路市山花１３５−８","open_date":"1926-10-20","closed_date":"1970-04-16","next":[1110728,9911907,9911909,1111722,1110727,9911911],"voronoi":{"lat":43.201933,"lng":144.223303,"delta_lat":[0,-172471,-12800,24056,210703,48951],"delta_lng":[0,-29343,13808,43389,66422,-22944]},"impl":false},
    {"code":1111723,"id":"38cd2a","name":"塘路","name_kana":"とうろ","lat":43.151739,"lng":144.496817,"prefecture":1,"lines":[11117],"attr":"eco","postal_code":"088-2261","address":"川上郡標茶町字塘路","next":[1110805,1111724,1111725,1111722,1111721],"voronoi":{"lat":43.167057,"lng":144.571538,"delta_lat":[0,22943,-42081,-58977,56820],"delta_lng":[0,-165736,43862,101470,58429]},"impl":true},
    {"code":1111722,"left":9911913,"right":1111719,"id":"bc8dad","name":"茅沼","name_kana":"かやぬま","lat":43.202097,"lng":144.503788,"prefecture":1,"lines":[11117],"attr":"eco","postal_code":"088-2265","address":"川上郡標茶町シラルトロエトロ","next":[9911907,1111721,9911911,1111717,9911908,1111723,1111718,1111719,1111725],"voronoi":{"lat":43.167057,"lng":144.571538,"delta_lat":[0,148821,3373,4585,-5672,-17792,-48951,-19658,-41763],"delta_lng":[0,-130664,-11833,-94935,-40649,1179,22944,12550,75672]},"impl":true},
    {"code":9911913,"left":9911911,"right":9911914,"id":"8faa46","name":"真澄町","name_kana":"ますみちょう","closed":true,"lat":43.190583,"lng":144.082833,"prefecture":1,"lines":[99119],"postal_code":"085-0222","address":"北海道釧路市阿寒町布伏内２２線北７５−３","open_date":"1956-09-01","closed_date":"1970-04-16","next":[9911911,1010904,9911912,9911914,1010905],"voronoi":{"lat":43.119932,"lng":144.036549,"delta_lat":[0,41254,51458,-46056,-45836],"delta_lng":[0,35996,31082,-112584,43604]},"impl":false},
    {"code":9911911,"left":9911912,"id":"bdc708","name":"古潭","name_kana":"こたん","closed":true,"lat":43.175361,"lng":144.100278,"prefecture":1,"lines":[99119],"postal_code":"085-0222","address":"北海道釧路市阿寒町布伏内２２線北４１−２４","open_date":"1923-06-14","closed_date":"1970-04-16","next":[9911909,9911912,9911913,1010904,1111722,9911910,1111717,9911908],"voronoi":{"lat":43.318163,"lng":144.293457,"delta_lat":[0,5934,-162911,-41254,-6559,74281,14278,98439],"delta_lng":[0,-5091,-215820,-35996,10829,157949,17976,71332]},"impl":false},
    {"code":9911912,"id":"e92d9d","name":"新雄別","name_kana":"しんゆうべつ","closed":true,"lat":43.183972,"lng":144.093778,"prefecture":1,"lines":[99119],"postal_code":"085-0222","address":"北海道釧路市阿寒町布伏内２２線北５７−１３","open_date":"1953-04-11","closed_date":"1970-04-16","next":[9911911,1111717,9911913,9911914],"voronoi":{"lat":43.212644,"lng":144.103627,"delta_lat":[0,-51458,162911,9699],"delta_lng":[0,-31082,215820,-7949]},"impl":false},
    {"code":9911914,"id":"29351d","name":"雄別炭山","name_kana":"ゆうべつたんざん","closed":true,"lat":43.213806,"lng":144.073333,"prefecture":1,"lines":[99119],"postal_code":"085-0000","address":"北海道釧路市阿寒町雄別２２線１０８−２２","open_date":"1923-01-17","closed_date":"1970-04-16","next":[1010114,1111716,9911912,9911913,1010908,1010905,1111717],"voronoi":{"lat":43.212644,"lng":144.103627,"delta_lat":[0,-46056,323,186422,77422,-1371,-95588],"delta_lng":[0,-112584,-400,-56511,278060,1285,66939]},"impl":false},
    {"code":1111719,"left":1111720,"right":1111718,"id":"0e2d09","name":"磯分内","name_kana":"いそぶんない","lat":43.379389,"lng":144.554322,"prefecture":1,"lines":[11117],"attr":"eco","postal_code":"088-2300","address":"川上郡標茶町字熊牛原野","next":[1112303,1111721,1111718,1111722,1112305,1111720,1112302],"voronoi":{"lat":43.468134,"lng":144.646548,"delta_lat":[0,22691,-171574,-3373,-6045,11377,78853],"delta_lng":[0,-4012,-213496,11833,96992,17013,77122]},"impl":true},
    {"code":1111720,"left":1111721,"id":"9177db","name":"標茶","name_kana":"しべちゃ","lat":43.298472,"lng":144.608434,"prefecture":1,"lines":[11117,11123],"attr":"eco","postal_code":"088-2314","address":"川上郡標茶町字標茶","next":[1112303,1112302,1110807,1111721,1111719,1110805],"voronoi":{"lat":43.166627,"lng":144.67384,"delta_lat":[0,143205,11377,-21890,-99836,-32766],"delta_lng":[0,-135974,17013,111162,59166,-45309]},"impl":true},
    {"code":1111721,"id":"3a1a4c","name":"五十石","name_kana":"ごじっこく","closed":true,"lat":43.238771,"lng":144.545558,"prefecture":1,"lines":[11117],"attr":"unknown","postal_code":"088-2331","address":"川上郡標茶町オソツベツ原野","open_date":"1927-09-15","closed_date":"2017-03-04","next":[1111719,1111722,1110805,1111720,1111723],"voronoi":{"lat":43.167057,"lng":144.571538,"delta_lat":[0,148821,-6045,-143205,-20866],"delta_lng":[0,-130664,96992,135974,-64277]},"impl":true},
    {"code":1111718,"id":"31c724","name":"南弟子屈","name_kana":"みなみてしかが","closed":true,"lat":43.428656,"lng":144.514729,"prefecture":1,"lines":[11117],"attr":"unknown","postal_code":"088-3200","address":"川上郡弟子屈町字熊牛原野","open_date":"1929-08-15","closed_date":"2020-03-14","next":[1112306,1111715,1111717,1111719,1111722,1112305],"voronoi":{"lat":43.490825,"lng":144.642537,"delta_lat":[0,-171574,4585,234998,9230,-60804],"delta_lng":[0,-213496,-94935,271900,30388,6953]},"impl":true},
    {"code":1110818,"left":1110813,"right":1112318,"id":"17d350","name":"西和田","name_kana":"にしわだ","lat":43.268043,"lng":145.541817,"prefecture":1,"lines":[11108],"attr":"eco","postal_code":"087-0033","address":"根室市西和田","next":[1110819,1110815,1110816,1110817,1110821],"voronoi":{"lat":43.249005,"lng":145.58535,"delta_lat":[0,-1575,1969,148374,-73050],"delta_lng":[0,-99098,-6134,-62269,105189]},"impl":true},
    {"code":1110813,"left":1110811,"right":1110815,"id":"a0dee2","name":"厚床","name_kana":"あっとこ","lat":43.228224,"lng":145.252096,"prefecture":1,"lines":[11108,11123],"attr":"eco","postal_code":"086-0064","address":"根室市厚床１丁目","next":[1112318,1110814,1110812],"voronoi":{"lat":43.254244,"lng":145.199949,"delta_lat":[0,58651,-170803],"delta_lng":[0,119825,-57234]},"impl":true},
    {"code":1110811,"left":1110810,"right":1110812,"id":"448fbe","name":"浜中","name_kana":"はまなか","lat":43.15754,"lng":145.099657,"prefecture":1,"lines":[11108],"attr":"cool","postal_code":"088-1500","address":"厚岸郡浜中町大字後静村字浜中市街","next":[1110814,1112317,1110816,1112318,1110812,1110810],"voronoi":{"lat":43.287623,"lng":145.00692,"delta_lat":[0,-10395,-10030,-421410,-528628,-11127],"delta_lng":[0,89720,13810,171390,111363,1081]},"impl":true},
    {"code":1110810,"left":1110809,"id":"2741f6","name":"茶内","name_kana":"ちゃない","lat":43.129266,"lng":145.02801,"prefecture":1,"lines":[11108],"attr":"cool","postal_code":"088-1500","address":"厚岸郡浜中町大字琵琶瀬村字茶内市街","next":[1112317,1110816,1112316,1112305,1110809,1110808,1110811],"voronoi":{"lat":41.700239,"lng":145.479425,"delta_lat":[0,1049842,553878,4652,-8585,-12402,-981590],"delta_lng":[0,-410689,-139118,5051,39182,33069,387364]},"impl":true},
    {"code":1110809,"id":"371853","name":"糸魚沢","name_kana":"いといざわ","lat":43.103506,"lng":144.92545,"prefecture":1,"lines":[11108],"attr":"cool","postal_code":"088-1101","address":"厚岸郡厚岸町大字別寒辺牛村ベカンベウシ","next":[1110807,1112305,1110810,1110808,1112304],"voronoi":{"lat":43.223574,"lng":144.808049,"delta_lat":[0,-22456,-451037,553878,-10828],"delta_lng":[0,7222,253465,-139118,-20935]},"impl":true},
    {"code":1110812,"id":"332e9e","name":"姉別","name_kana":"あねべつ","lat":43.196201,"lng":145.194716,"prefecture":1,"lines":[11108],"attr":"eco","postal_code":"088-1500","address":"厚岸郡浜中町大字後静村字姉別市街","next":[1112318,1110811,1110813,1110814],"voronoi":{"lat":43.267199,"lng":145.110449,"delta_lat":[0,-12954,-112152,-296304],"delta_lng":[0,89499,62591,19300]},"impl":true},
    {"code":1110815,"left":1110816,"right":1110817,"id":"801881","name":"別当賀","name_kana":"べっとが","lat":43.218427,"lng":145.423593,"prefecture":1,"lines":[11108],"attr":"eco","postal_code":"086-0075","address":"根室市別当賀","next":[1110821,1112318,1110818,1110814,1110816],"voronoi":{"lat":42.926476,"lng":145.412432,"delta_lat":[0,422374,86561,-37638,-148374],"delta_lng":[0,-58167,37920,25665,62269]},"impl":true},
    {"code":1110816,"left":1110814,"id":"5c28c9","name":"落石","name_kana":"おちいし","lat":43.198335,"lng":145.519449,"prefecture":1,"lines":[11108],"attr":"eco","postal_code":"088-1782","address":"根室市落石東","next":[1110810,9933509,1110818,9920804,1110808,1110811,1110817,9920816,1110815,9933507,1110814],"voronoi":{"lat":42.31716,"lng":145.393203,"delta_lat":[0,-11127,-605795,-2511463,-3302322,-1189160,-441800,-19734135,28726071,1969,-322923],"delta_lng":[0,1081,85141,526249,3508682,1324265,709354,31737515,-37799237,-6134,-67687]},"impl":true},
    {"code":1110814,"id":"98c115","name":"初田牛","name_kana":"はったうし","closed":true,"lat":43.204542,"lng":145.32277,"prefecture":1,"lines":[11108],"attr":"unknown","postal_code":"086-0076","address":"根室市初田牛","open_date":"1920-11-10","closed_date":"2019-03-16","next":[1110811,1110815,1110816,1110813,1110812,1112318],"voronoi":{"lat":43.312895,"lng":145.319773,"delta_lat":[0,-170803,-296304,-528628,609315,422374],"delta_lng":[0,-57234,19300,111363,19229,-58167]},"impl":true},
    {"code":1110817,"id":"d90843","name":"昆布盛","name_kana":"こんぶもり","lat":43.228593,"lng":145.542444,"prefecture":1,"lines":[11108],"attr":"eco","postal_code":"088-1784","address":"根室市昆布盛","next":[9933510,1110819,1110820,9933509,1110816,1110818],"voronoi":{"enclosed":false,"lat":-6.78718,"lng":232.430904,"delta_lat":[0,49935683,100500,-1575,-28726071,-5447745,-52832117],"delta_lng":[0,-86639642,-205912,-99098,37799237,8753538,84904460]},"impl":true},
    {"code":1112318,"left":1112317,"right":1110820,"id":"6cdc39","name":"奥行臼","name_kana":"おくゆきうす","closed":true,"lat":43.311389,"lng":145.211389,"prefecture":1,"lines":[11123],"postal_code":"086-0213","address":"北海道野付郡別海町奥行１６","open_date":"1933-12-01","closed_date":"1989-04-30","next":[1112317,1110815,1110821,1110811,1110812,1110813,1112313,1110814],"voronoi":{"lat":43.312895,"lng":145.319773,"delta_lat":[0,-58651,12954,10030,248472,11905,-102195,-86561],"delta_lng":[0,-119825,-89499,-13810,240298,50972,4275,-37920]},"impl":false},
    {"code":1112317,"left":1112304,"right":1112305,"id":"8bdf19","name":"別海","name_kana":"べっかい","closed":true,"lat":43.393056,"lng":145.126944,"prefecture":1,"lines":[11123],"postal_code":"086-0202","address":"北海道野付郡別海町別海旭町６７−１","open_date":"1933-12-01","closed_date":"1989-04-30","next":[1112318,1112316,1110810,1110811,1112313],"voronoi":{"lat":43.526519,"lng":145.248738,"delta_lat":[0,-226494,-12402,-10395,248472],"delta_lng":[0,-274887,33069,89720,240298]},"impl":false},
    {"code":1112304,"left":1112303,"id":"2462a3","name":"光進","name_kana":"こうしん","closed":true,"lat":43.375833,"lng":144.737222,"prefecture":1,"lines":[11123],"postal_code":"088-2578","address":"北海道野付郡別海町泉川","open_date":"1962-05-01","closed_date":"1989-04-30","next":[1112303,1112305,1110807,1110809],"voronoi":{"lat":43.456148,"lng":144.658149,"delta_lat":[0,-233417,843,69557],"delta_lng":[0,143991,5909,100634]},"impl":false},
    {"code":1112303,"id":"ff052a","name":"泉川","name_kana":"いずみかわ","closed":true,"lat":43.349444,"lng":144.694444,"prefecture":1,"lines":[11123],"postal_code":"088-2578","address":"北海道野付郡別海町泉川","open_date":"1944-05-01","closed_date":"1989-04-30","next":[1111719,1112302,1111720,1112304,1112305,1110807],"voronoi":{"lat":43.199483,"lng":144.725206,"delta_lat":[0,99836,100743,68071,-11986,-233417],"delta_lng":[0,-59166,-34040,14548,11600,143991]},"impl":false},
    {"code":1112305,"id":"8040c1","name":"西春別","name_kana":"にししゅんべつ","closed":true,"lat":43.416389,"lng":144.763611,"prefecture":1,"lines":[11123],"postal_code":"088-2564","address":"北海道野付郡別海町西春別駅前西町２７４−１","open_date":"1936-10-29","closed_date":"1989-04-30","next":[1112306,1112309,1110810,1110809,1112303,1111718,1111719,1112308,1112304,1112316],"voronoi":{"lat":43.303959,"lng":144.929617,"delta_lat":[0,-10828,163017,11986,22691,16435,-125978,-36517,-29622,-6532],"delta_lng":[0,-20935,-250534,-11600,-4012,810,239661,32585,18758,318]},"impl":false},
    {"code":1110820,"left":1110819,"right":1110821,"id":"1480a3","name":"東根室","name_kana":"ひがしねむろ","lat":43.323655,"lng":145.597234,"prefecture":1,"lines":[11108],"attr":"eco","postal_code":"087-0004","address":"根室市光洋町２丁目","next":[1110817,1112313,1110821,1110819],"voronoi":{"enclosed":false,"lat":125.031715,"lng":204.377723,"delta_lat":[0,-81008810,-713572,-160828,-49935683],"delta_lng":[0,-58630817,-160526,204882,86639642]},"impl":true},
    {"code":1110819,"id":"8901af","name":"花咲","name_kana":"はなさき","closed":true,"lat":43.295388,"lng":145.575045,"prefecture":1,"lines":[11108],"attr":"unknown","postal_code":"087-0032","address":"根室市花咲港","open_date":"1921-08-05","closed_date":"2016-03-26","next":[1110818,1110817,1110821,1110820],"voronoi":{"lat":43.309332,"lng":145.586381,"delta_lat":[0,15390,-75718,-100500],"delta_lng":[0,-63342,62312,205912]},"impl":true},
    {"code":1110821,"id":"d32d49","name":"根室","name_kana":"ねむろ","lat":43.326923,"lng":145.582707,"prefecture":1,"lines":[11108],"attr":"eco","postal_code":"087-0027","address":"根室市光和町２丁目","next":[1110815,1112318,1110819,1110820,1110818,1112313],"voronoi":{"lat":43.537606,"lng":145.387909,"delta_lat":[0,-102195,-37638,-73050,-15390,713572],"delta_lng":[0,4275,25665,105189,63342,160526]},"impl":true},
    {"code":1010104,"left":9910928,"right":1111715,"id":"43b1e8","name":"豊幌(国鉄)","original_name":"豊幌","name_kana":"とよほろ","closed":true,"lat":43.774056,"lng":144.0755,"prefecture":1,"lines":[10101],"postal_code":"092-0183","address":"北海道網走郡美幌町字豊幌","open_date":"1955-08-20","closed_date":"1985-04-01","next":[1111715,1010105,1111636,1111716,1111637,1010103],"voronoi":{"lat":43.818829,"lng":144.025856,"delta_lat":[0,-16115,-1232,-163595,13552,10789],"delta_lng":[0,-22670,-714,237920,8186,4453]},"impl":false},
    {"code":9910928,"left":1010110,"right":1111632,"id":"3d86fb","name":"穂波","name_kana":"ほなみ","closed":true,"lat":43.730417,"lng":143.761572,"prefecture":1,"lines":[10118,99109],"postal_code":"099-1402","address":"北海道常呂郡訓子府町字穂波","closed_date":"2006-04-21","next":[1111630,9910927,9910921,9910929,9910920],"voronoi":{"lat":43.633095,"lng":143.765915,"delta_lat":[0,5385,123797,1396,-138923],"delta_lng":[0,-9331,-9155,17862,38471]},"impl":false},
    {"code":1010110,"left":1010112,"right":1010107,"id":"c9e650","name":"本岐","name_kana":"ほんき","closed":true,"lat":43.64875,"lng":143.991861,"prefecture":1,"lines":[10101],"postal_code":"092-0351","address":"北海道網走郡津別町字本岐２０９−１","open_date":"1925-11-15","closed_date":"1985-04-01","next":[1010108,9910931,1010109,1010111,9910932],"voronoi":{"lat":43.68796,"lng":143.979601,"delta_lat":[0,-67918,37381,25305,30229],"delta_lng":[0,65204,-162615,17808,31445]},"impl":false},
    {"code":1010112,"left":1010114,"right":1010111,"id":"8f8c88","name":"開拓","name_kana":"かいたく","closed":true,"lat":43.603278,"lng":143.979667,"prefecture":1,"lines":[10101],"postal_code":"092-0362","address":"北海道網走郡津別町字布川","open_date":"1956-05-01","closed_date":"1985-04-01","next":[1010111,9910931,1010113,9910930,1010114],"voronoi":{"lat":43.575917,"lng":144.053957,"delta_lat":[0,46603,25438,669,-72093],"delta_lng":[0,-201719,20863,723,203794]},"impl":false},
    {"code":1010114,"left":1010113,"id":"ffd6d2","name":"北見相生","name_kana":"きたみあいおい","closed":true,"lat":43.544722,"lng":143.981194,"prefecture":1,"lines":[10101],"postal_code":"092-0361","address":"北海道網走郡津別町字相生５７２","open_date":"1925-11-15","closed_date":"1985-04-01","next":[9911914,9910918,1010113,9910920,1111716,1010111,1010908,1010109,1010112],"voronoi":{"lat":43.575917,"lng":144.053957,"delta_lat":[0,-31051,-5463,-180606,-5464,77422,118558,25126,2095],"delta_lng":[0,-202841,-40,58429,24627,278060,-2751,-87668,-44155]},"impl":false},
    {"code":1010113,"id":"11241b","name":"布川","name_kana":"ぬのかわ","closed":true,"lat":43.583917,"lng":143.975194,"prefecture":1,"lines":[10101],"postal_code":"092-0362","address":"北海道網走郡津別町字布川９３−１","open_date":"1947-09-20","closed_date":"1985-04-01","next":[9910930,1010114,1010112,9910920],"voronoi":{"lat":43.611191,"lng":143.841383,"delta_lat":[0,11329,-46603,-31051],"delta_lng":[0,10855,201719,-202841]},"impl":false},
    {"code":1010111,"id":"ec0382","name":"大昭","name_kana":"たいしょう","closed":true,"lat":43.617333,"lng":143.984639,"prefecture":1,"lines":[10101],"postal_code":"092-0357","address":"北海道網走郡津別町字大昭","open_date":"1956-05-01","closed_date":"1985-04-01","next":[1010112,1010110,1010114,9910931,1010109],"voronoi":{"lat":43.620041,"lng":144.044804,"delta_lat":[0,37381,-8795,-72093,-2095],"delta_lng":[0,-162615,-8365,203794,44155]},"impl":false},
    {"code":1010107,"left":1010108,"right":1010106,"id":"4d8a99","name":"津別","name_kana":"つべつ","closed":true,"lat":43.71025,"lng":144.020028,"prefecture":1,"lines":[10101],"postal_code":"092-0218","address":"北海道網走郡津別町字東４条５２−１","open_date":"1924-11-17","closed_date":"1985-04-01","next":[1010108,9910932,1111633,1010106],"voronoi":{"lat":43.751422,"lng":143.954052,"delta_lat":[0,-16080,-18454,-16488],"delta_lng":[0,-12569,-8053,123088]},"impl":false},
    {"code":1010108,"left":1010109,"id":"b5f2a5","name":"高校前(北海道)","original_name":"高校前","name_kana":"こうこうまえ","closed":true,"lat":43.7005,"lng":144.018722,"prefecture":1,"lines":[10101],"postal_code":"092-0225","address":"北海道網走郡津別町字共和７−１","open_date":"1955-08-20","closed_date":"1985-04-01","next":[1010107,1010105,9910932,1010110,1010106,1010109],"voronoi":{"lat":43.68796,"lng":143.979601,"delta_lat":[0,24997,3931,-16488,-3312,-10802],"delta_lng":[0,-48158,1987,123088,9624,12965]},"impl":false},
    {"code":1010109,"id":"aef41c","name":"恩根","name_kana":"おんね","closed":true,"lat":43.674111,"lng":144.018278,"prefecture":1,"lines":[10101],"postal_code":"092-0225","address":"北海道網走郡津別町字共和相生津別(停)線","open_date":"1956-09-20","closed_date":"1985-04-01","next":[1111716,1010105,1010110,1010108,1010114,1010111],"voronoi":{"lat":43.549313,"lng":144.209441,"delta_lat":[0,60195,76777,1674,-67918,-45602],"delta_lng":[0,17051,-147386,-99506,65204,76969]},"impl":false},
    {"code":1010106,"id":"a9670e","name":"達美","name_kana":"たつみ","closed":true,"lat":43.723583,"lng":144.026667,"prefecture":1,"lines":[10101],"postal_code":"092-0203","address":"北海道網走郡津別町字達美１４７","open_date":"1956-05-01","closed_date":"1985-04-01","next":[1111633,1111636,1010105,1010108,1111635,1111634,1010107],"voronoi":{"lat":43.751422,"lng":143.954052,"delta_lat":[0,11923,17668,12009,2301,-98235,3312],"delta_lng":[0,7601,16285,15103,3482,69619,-9624]},"impl":false},
    {"code":1111632,"left":9910931,"right":1111633,"id":"f7c7e4","name":"西北見","name_kana":"にしきたみ","lat":43.803114,"lng":143.841586,"prefecture":1,"lines":[11116],"attr":"cool","postal_code":"090-0055","address":"北見市緑町６丁目","next":[1111631,1011711,9910931,1111633,9910932,1111634,1111635],"voronoi":{"lat":43.853136,"lng":143.867814,"delta_lat":[0,-48962,-24443,2244,128980,2551,-9930],"delta_lng":[0,2068,-23725,-22251,9455,15660,4163]},"impl":true},
    {"code":9910931,"left":9910930,"right":1111631,"id":"2b27d3","name":"上常呂","name_kana":"かみところ","closed":true,"lat":43.757731,"lng":143.837008,"prefecture":1,"lines":[10118,99109],"postal_code":"099-1585","address":"北海道北見市上ところ６８２−２","open_date":"1911-09-25","closed_date":"2006-04-21","next":[1111631,1010112,9910932,1010110,1111632,9910930,1010111],"voronoi":{"lat":43.648627,"lng":143.873825,"delta_lat":[0,-669,126597,7419,-2244,-97003,-25305],"delta_lng":[0,-723,-62069,12874,22251,53840,-17808]},"impl":false},
    {"code":9910930,"left":9910929,"id":"f2c3e4","name":"広郷","name_kana":"ひろさと","closed":true,"lat":43.743717,"lng":143.808425,"prefecture":1,"lines":[10118,99109],"postal_code":"099-1585","address":"北海道北見市上ところ５７９","closed_date":"2006-04-21","next":[1010113,1111631,9910920,9910931,9910929,1010112,1111630],"voronoi":{"lat":43.774459,"lng":143.787086,"delta_lat":[0,-159828,-3440,11329,25438,126597,408],"delta_lng":[0,46536,7761,10855,20863,-62069,-23440]},"impl":false},
    {"code":9910929,"id":"6f129c","name":"日ノ出","name_kana":"ひので","closed":true,"lat":43.737067,"lng":143.785586,"prefecture":1,"lines":[10118,99109],"postal_code":"099-1401","address":"北海道常呂郡訓子府町字日出２８−８７","open_date":"1947-02-11","closed_date":"2006-04-21","next":[9910928,9910920,9910930,1111630],"voronoi":{"lat":43.763673,"lng":143.76529,"delta_lat":[0,-138923,-10119,159828],"delta_lng":[0,38471,29861,-46536]},"impl":false},
    {"code":1111631,"id":"6ade48","name":"東相内","name_kana":"ひがしあいのない","lat":43.805466,"lng":143.809499,"prefecture":1,"lines":[11116],"attr":"cool","postal_code":"099-0878","address":"北見市東相内町","next":[1111632,9910930,9910931,1111630,1011710,1011711],"voronoi":{"lat":43.910302,"lng":143.779629,"delta_lat":[0,-2298,-133041,-408,7419,128980],"delta_lng":[0,-15905,23869,23440,12874,9455]},"impl":true},
    {"code":1111633,"left":1010105,"right":1111634,"id":"8705c2","name":"北見","name_kana":"きたみ","lat":43.805504,"lng":143.898167,"prefecture":1,"lines":[11116,10118,99109],"attr":"cool","postal_code":"090-0040","address":"北見市大通西１丁目","next":[1010106,9910932,1111632,1010107,1111634],"voronoi":{"lat":43.853136,"lng":143.867814,"delta_lat":[0,-48962,-68832,16080,11923],"delta_lng":[0,2068,71600,12569,7601]},"impl":true},
    {"code":1010105,"left":9910932,"id":"019424","name":"活汲","name_kana":"かっくみ","closed":true,"lat":43.743111,"lng":144.054222,"prefecture":1,"lines":[10101],"postal_code":"092-0206","address":"北海道網走郡津別町字活汲８１３−３１","open_date":"1924-11-17","closed_date":"1985-04-01","next":[1010108,1010104,1010109,1111636,1010106,1111716],"voronoi":{"lat":43.801483,"lng":144.002472,"delta_lat":[0,-6160,-98235,-10802,-76777,28379],"delta_lng":[0,-5949,69619,12965,147386,13899]},"impl":false},
    {"code":9910932,"id":"3d933d","name":"北光社","name_kana":"ほっこうしゃ","closed":true,"lat":43.775858,"lng":143.869667,"prefecture":1,"lines":[10118,99109],"postal_code":"099-1583","address":"北海道北見市北上１２","closed_date":"2006-04-21","next":[1010108,1111633,9910931,1010110,1111632,1010107],"voronoi":{"lat":43.804173,"lng":143.869882,"delta_lat":[0,-24443,-97003,30229,3931,18454],"delta_lng":[0,-23725,53840,31445,1987,8053]},"impl":false},
    {"code":1111634,"id":"4ec5b7","name":"柏陽","name_kana":"はくよう","lat":43.824911,"lng":143.916737,"prefecture":1,"lines":[11116],"attr":"cool","postal_code":"090-0012","address":"北見市並木町","next":[1111632,1111633,1111635,1010106],"voronoi":{"lat":43.903575,"lng":143.853185,"delta_lat":[0,-50440,-89791,17668],"delta_lng":[0,14630,93838,16285]},"impl":true},
    {"code":1111715,"left":1112308,"right":1111713,"id":"af16ce","name":"川湯温泉","name_kana":"かわゆおんせん","lat":43.616258,"lng":144.457749,"prefecture":1,"lines":[11117],"attr":"eco","postal_code":"088-3462","address":"川上郡弟子屈町字川湯駅前","next":[1010104,1111718,1010102,1112306,1111717,1111716,1111714,1010103,1111639],"voronoi":{"lat":43.589954,"lng":144.64682,"delta_lat":[0,-21890,-9230,-3228,95834,10789,32486,39520,15842],"delta_lng":[0,-10427,-30388,-66762,-290666,4453,15015,23143,13508]},"impl":true},
    {"code":1112308,"left":1112307,"right":1112314,"id":"2b1d94","name":"開栄","name_kana":"かいえい","closed":true,"lat":43.503889,"lng":144.861667,"prefecture":1,"lines":[11123],"postal_code":"088-2681","address":"北海道標津郡中標津町字当幌","open_date":"1961-10-01","closed_date":"1989-04-30","next":[1112311,1112306,1010607,1112307,1112309,1112305],"voronoi":{"lat":43.381281,"lng":144.883007,"delta_lat":[0,32816,250492,10625,-39760,-290690],"delta_lng":[0,-19254,-78092,49256,32971,47704]},"impl":false},
    {"code":1112307,"left":1112306,"right":1111716,"id":"a94a57","name":"計根別","name_kana":"けねべつ","closed":true,"lat":43.489167,"lng":144.814444,"prefecture":1,"lines":[11123],"postal_code":"088-2682","address":"北海道標津郡中標津町計根別本通東２丁目２１","open_date":"1936-10-29","closed_date":"1989-04-30","next":[1111714,1112306,1112308,1010607],"voronoi":{"lat":43.414097,"lng":144.863754,"delta_lat":[0,192284,51993,6215],"delta_lng":[0,-201811,38557,85162]},"impl":false},
    {"code":1112306,"left":1111717,"id":"847744","name":"上春別","name_kana":"かみしゅんべつ","closed":true,"lat":43.459722,"lng":144.786389,"prefecture":1,"lines":[11123],"postal_code":"088-2601","address":"北海道野付郡別海町大成８","open_date":"1963-07-01","closed_date":"1989-04-30","next":[1112305,1112307,1111718,1111715,1112308,1111714],"voronoi":{"lat":43.589954,"lng":144.64682,"delta_lat":[0,-21890,-60804,-125978,32816,192284],"delta_lng":[0,-10427,6953,239661,-19254,-201811]},"impl":false},
    {"code":1111717,"id":"dbecb2","name":"摩周","name_kana":"ましゅう","lat":43.487373,"lng":144.463981,"prefecture":1,"lines":[11117],"attr":"eco","postal_code":"088-3204","address":"川上郡弟子屈町字朝日１丁目","next":[9911912,1111716,1111718,1111715,9911911,1111722,9911914],"voronoi":{"lat":43.324098,"lng":144.288366,"delta_lat":[0,-5934,5672,234998,-3228,-126221,-95588],"delta_lng":[0,5091,40649,271900,-66762,-325766,66939]},"impl":true},
    {"code":1111716,"id":"5be483","name":"美留和","name_kana":"びるわ","lat":43.555316,"lng":144.437656,"prefecture":1,"lines":[11117],"attr":"eco","postal_code":"088-3331","address":"川上郡弟子屈町字美留和","next":[1010109,1111717,1010114,9911914,1010104,1111715,1010105],"voronoi":{"lat":43.65144,"lng":144.248577,"delta_lat":[0,-95834,-126221,1371,118558,60195,28379],"delta_lng":[0,290666,-325766,-1285,-2751,17051,13899]},"impl":true},
    {"code":1112314,"left":1112315,"right":1112310,"id":"460db4","name":"協和","name_kana":"きょうわ","closed":true,"lat":43.516028,"lng":145.003056,"prefecture":1,"lines":[11123],"postal_code":"086-1136","address":"北海道標津郡中標津町字協和４０","open_date":"1957-12-25","closed_date":"1989-04-30","next":[1112309,1112311,1112310,1112315],"voronoi":{"lat":43.568157,"lng":145.03351,"delta_lat":[0,-60414,-116605,179114],"delta_lng":[0,-73817,4345,114367]},"impl":false},
    {"code":1112315,"left":1112309,"id":"0bb523","name":"春別","name_kana":"しゅんべつ","closed":true,"lat":43.479083,"lng":145.060917,"prefecture":1,"lines":[11123],"postal_code":"086-0651","address":"北海道野付郡別海町中春別東町１７４","open_date":"1934-10-01","closed_date":"1989-04-30","next":[1112313,1112311,1112316,1112309,1112314],"voronoi":{"lat":43.573909,"lng":145.086477,"delta_lat":[0,-38238,-165112,20578,179114],"delta_lng":[0,102191,-229409,4779,114367]},"impl":false},
    {"code":1112309,"id":"9db990","name":"当幌","name_kana":"とうほろ","closed":true,"lat":43.512778,"lng":144.915833,"prefecture":1,"lines":[11123],"postal_code":"086-1144","address":"北海道標津郡中標津町東当幌","open_date":"1937-10-30","closed_date":"1989-04-30","next":[1112316,1112311,1112305,1112310,1112308,1112314,1112315],"voronoi":{"lat":43.507742,"lng":144.959693,"delta_lat":[0,103637,24075,-290690,-29622,55417,20578],"delta_lng":[0,-61326,-30478,47704,18758,24908,4779]},"impl":false},
    {"code":1112310,"id":"da26cb","name":"中標津","name_kana":"なかしべつ","closed":true,"lat":43.548611,"lng":144.976389,"prefecture":1,"lines":[11123],"postal_code":"086-1003","address":"北海道標津郡中標津町東３条南１丁目４−３","open_date":"1934-10-01","closed_date":"1989-04-30","next":[1112311,1112309,1112314],"voronoi":{"lat":43.507742,"lng":144.959693,"delta_lat":[0,103637,-43223],"delta_lng":[0,-61326,135143]},"impl":false},
    {"code":1111713,"left":1010102,"right":1112312,"id":"07a497","name":"札弦","name_kana":"さっつる","lat":43.786574,"lng":144.531526,"prefecture":1,"lines":[11117],"attr":"cool","postal_code":"099-4521","address":"斜里郡清里町札弦町","next":[1111708,1111707,1111714,1111706,1111712],"voronoi":{"lat":43.801236,"lng":144.390446,"delta_lat":[0,16582,31573,4875,-154679],"delta_lng":[0,21872,59449,56205,129191]},"impl":true},
    {"code":1010102,"left":1111714,"right":1111638,"id":"c08402","name":"旭通","name_kana":"あさひどおり","closed":true,"lat":43.821778,"lng":144.106806,"prefecture":1,"lines":[10101],"postal_code":"092-0043","address":"北海道網走郡美幌町字東３条南１丁目５−３","open_date":"1955-08-20","closed_date":"1985-04-01","next":[1111715,1010103,1111638,1111639],"voronoi":{"lat":43.832975,"lng":144.152746,"delta_lat":[0,-6919,-131341,39520],"delta_lng":[0,-89365,204664,23143]},"impl":false},
    {"code":1111714,"left":1010103,"id":"71096e","name":"緑","name_kana":"みどり","lat":43.718282,"lng":144.505499,"prefecture":1,"lines":[11117],"attr":"eco","postal_code":"099-4525","address":"斜里郡清里町緑町","next":[1010607,1111706,1111639,1112307,1111705,1111713,1111712,1111715,1112306],"voronoi":{"lat":43.589954,"lng":144.64682,"delta_lat":[0,160123,12918,15584,22657,-101649,-27378,-13834,-51993],"delta_lng":[0,-342124,5852,24480,55418,266717,37276,6060,-38557]},"impl":true},
    {"code":1010103,"id":"93352f","name":"上美幌","name_kana":"かみびほろ","closed":true,"lat":43.788361,"lng":144.085361,"prefecture":1,"lines":[10101],"postal_code":"092-0030","address":"北海道網走郡美幌町字美富","open_date":"1924-11-17","closed_date":"1985-04-01","next":[1010102,1111637,1010104,1111638,1111715],"voronoi":{"lat":43.662228,"lng":144.253031,"delta_lat":[0,156601,15784,-8558,-131341],"delta_lng":[0,-227175,17003,20523,204664]},"impl":false},
    {"code":1111638,"id":"c145da","name":"美幌","name_kana":"びほろ","lat":43.836967,"lng":144.10563,"prefecture":1,"lines":[11116,10101],"attr":"cool","postal_code":"092-0015","address":"網走郡美幌町字新町３丁目","next":[1010102,1010103,1111639,1111637],"voronoi":{"lat":43.834614,"lng":144.042859,"delta_lat":[0,-8558,6919,77905],"delta_lng":[0,20523,89365,-78540]},"impl":true},
    {"code":1112312,"left":1112311,"right":1112313,"id":"b8b746","name":"川北","name_kana":"かわきた","closed":true,"lat":43.656389,"lng":145.024722,"prefecture":1,"lines":[11123],"postal_code":"086-1451","address":"北海道標津郡標津町字川北","open_date":"1937-10-30","closed_date":"1989-04-30","next":[1112313,1010607,1112311],"voronoi":{"lat":43.721973,"lng":144.885121,"delta_lat":[0,223463,-355398],"delta_lng":[0,176025,19796]},"impl":false},
    {"code":1112311,"id":"c63c89","name":"上武佐","name_kana":"かみむさ","closed":true,"lat":43.617222,"lng":144.998333,"prefecture":1,"lines":[11123],"postal_code":"086-1271","address":"北海道標津郡中標津町字武佐９５７−６","open_date":"1937-10-30","closed_date":"1989-04-30","next":[1112315,1112309,1112310,1010607,1112308,1112312,1112313,1112314],"voronoi":{"lat":43.573909,"lng":145.086477,"delta_lat":[0,16128,131935,-46758,-39760,-24075,-43223,2095],"delta_lng":[0,-5535,-195821,-50203,32971,30478,135143,44895]},"impl":false},
    {"code":1112313,"id":"d7e636","name":"根室標津","name_kana":"ねむろしべつ","closed":true,"lat":43.662222,"lng":145.129444,"prefecture":1,"lines":[11123],"postal_code":"086-1633","address":"北海道標津郡標津町北３条西２丁目２","open_date":"1937-10-30","closed_date":"1989-04-30","next":[1112315,1111709,1112312,1112317,1110820,1010607,1112311,1112221,1112318,1112316,1110821],"voronoi":{"enclosed":false,"lat":195.957259,"lng":227.93652,"delta_lat":[0,-87383880,-35016648,-29611295,-355398,-16128,-38238,-9152,-819,11905,485299,81008810],"delta_lng":[0,-48621575,-18603331,-15650469,19796,5535,102191,60070,88200,50972,358997,58630817]},"impl":false}
  ]
}