{
  "name":"segment40",
  "root":9930609,
  "east":139.617796,
  "west":139.201816,
  "south":35.873993,
  "north":36.642513,
  "station_size":155,
  "node_list":[
    {"code":9930609,"left":2102004,"right":2100236,"id":"c6bfd7","name":"上熊谷","name_kana":"かみくまがや","lat":36.142657,"lng":139.38134,"prefecture":11,"lines":[99306,21020],"attr":"cool","postal_code":"360-0822","address":"熊谷市宮本町","next":[100504,9930611,9930610,2102003,2100130],"voronoi":{"lat":36.158275,"lng":139.391774,"delta_lat":[0,-2125,-41195,-19859,-496],"delta_lng":[0,-12266,-16410,-2434,7546]},"impl":true},
    {"code":2102004,"left":9930613,"right":9932819,"id":"17d9bb","name":"妻沼","name_kana":"めぬま","closed":true,"lat":36.221611,"lng":139.380583,"prefecture":11,"lines":[21020],"postal_code":"360-0203","address":"埼玉県熊谷市弥藤吾","open_date":"1943-12-05","closed_date":"1983-06-01","next":[2100250,1132317,2102003,2100249,9930606,2101204,9930636,2101205,2101207,9930607],"voronoi":{"lat":36.192867,"lng":139.429327,"delta_lat":[0,-967,5317,27320,15779,16151,-35765,-11118,-11253,-4112],"delta_lng":[0,-1880,-71282,-25556,11620,30674,47488,8845,6044,-4091]},"impl":false},
    {"code":9930613,"left":2100135,"right":2100707,"id":"27f5cf","name":"明戸","name_kana":"あけと","lat":36.142958,"lng":139.303306,"prefecture":11,"lines":[99306],"attr":"cool","postal_code":"369-1102","address":"深谷市瀬山字中里前","next":[1132318,1132317,1131805,9930612,9930614,2100132],"voronoi":{"lat":36.090229,"lng":139.302923,"delta_lat":[0,4459,72175,4618,-12730,-64102],"delta_lng":[0,-8725,-2543,10140,14921,3713]},"impl":true},
    {"code":2100135,"left":2200129,"right":1132319,"id":"33800b","name":"みなみ寄居","name_kana":"みなみよりい","lat":36.091113,"lng":139.236394,"prefecture":11,"lines":[21001],"attr":"cool","postal_code":"369-1216","address":"埼玉県大里郡寄居町大字富田","open_date":"2020-10-31","next":[9930615,1131806,2100134,2100136,9930637,1131807,1131805,2100137],"voronoi":{"lat":36.103056,"lng":139.26709,"delta_lat":[0,-350,-5320,-12235,-2135,7586,3710,2895],"delta_lng":[0,951,10169,-16343,-28030,-18428,466,2366]},"impl":true},
    {"code":2200129,"left":2100134,"right":1131804,"id":"bea9ea","name":"東吾野","name_kana":"ひがしあがの","lat":35.892439,"lng":139.260281,"prefecture":11,"lines":[22001],"attr":"cool","postal_code":"357-0211","address":"飯能市平戸２２０","next":[1131518,2200130,1131517,1131802,1131513,1131803,2200128],"voronoi":{"lat":35.93478,"lng":139.26682,"delta_lat":[0,3009,-80905,-4655,-10586,-53,78388],"delta_lng":[0,-5388,-38800,7492,21233,2467,27620]},"impl":true},
    {"code":2100134,"left":2200130,"right":1131806,"id":"947453","name":"東武竹沢","name_kana":"とうぶたけざわ","lat":36.0754,"lng":139.237591,"prefecture":11,"lines":[21001],"attr":"cool","postal_code":"355-0331","address":"比企郡小川町大字靱負６８７-１","next":[1131805,2100135,1131806],"voronoi":{"lat":36.045624,"lng":139.233514,"delta_lat":[0,39527,-2135],"delta_lng":[0,28354,-28030]},"impl":true},
    {"code":2200130,"left":2200207,"id":"26e62c","name":"吾野","name_kana":"あがの","lat":35.908502,"lng":139.226787,"prefecture":11,"lines":[22001,22002],"attr":"cool","postal_code":"357-0213","address":"飯能市坂石町分３２６-１","next":[2200207,1131518,2200129,1131521,1131519,1131803],"voronoi":{"lat":35.856885,"lng":139.222631,"delta_lat":[0,5347,567,8904,87042,-20955],"delta_lng":[0,-27934,-1736,-13507,66385,15592]},"impl":true},
    {"code":2200207,"id":"576c09","name":"西吾野","name_kana":"にしあがの","lat":35.927082,"lng":139.202425,"prefecture":11,"lines":[22002],"attr":"cool","postal_code":"357-0216","address":"飯能市吾野下ノ平５７９","next":[2200130,1131521,1131804,2200208,1131522,1131803],"voronoi":{"lat":35.96931,"lng":139.241975,"delta_lat":[0,21342,-112377,-3623,-2950,87042],"delta_lng":[0,-18838,-60435,7980,8772,66385]},"impl":true},
    {"code":1131806,"id":"541f58","name":"竹沢","name_kana":"たけざわ","lat":36.075466,"lng":139.229952,"prefecture":11,"lines":[11318],"attr":"heat","postal_code":"355-0336","address":"比企郡小川町大字勝呂","next":[1131807,1131805,2100135,2200209,2200208,2100134],"voronoi":{"lat":36.045624,"lng":139.233514,"delta_lat":[0,-40770,3539,21401,60808,-7586],"delta_lng":[0,-21999,-10021,-22538,36454,18428]},"impl":true},
    {"code":1131804,"left":1131803,"right":1131805,"id":"50b4e3","name":"明覚","name_kana":"みょうかく","lat":36.003309,"lng":139.288789,"prefecture":11,"lines":[11318],"attr":"heat","postal_code":"355-0354","address":"比企郡ときがわ町番匠","next":[2200208,1131805,2200207,2100131,1131803,2100132],"voronoi":{"lat":36.03992,"lng":139.291784,"delta_lat":[0,-38333,-10935,-21342,25030,3025],"delta_lng":[0,-75270,6624,18838,95790,-2144]},"impl":true},
    {"code":1131803,"left":2200128,"id":"906fba","name":"越生","name_kana":"おごせ","lat":35.962559,"lng":139.299437,"prefecture":11,"lines":[11318,21007],"attr":"heat","postal_code":"350-0416","address":"入間郡越生町字越生","next":[1131802,2100131,2200129,2100707,1131804,2200130,2200207],"voronoi":{"lat":35.937789,"lng":139.261431,"delta_lat":[0,-3009,11512,45799,2249,-25030,-10566],"delta_lng":[0,5388,25554,49341,-3949,-95790,3864]},"impl":true},
    {"code":2200128,"id":"d309de","name":"武蔵横手","name_kana":"むさしよこて","lat":35.885256,"lng":139.280667,"prefecture":11,"lines":[22001],"attr":"cool","postal_code":"350-1257","address":"日高市横手字山下７５０","next":[2200127,1131513,1131802,2200125,2200129,1131512],"voronoi":{"lat":35.855867,"lng":139.288714,"delta_lat":[0,56375,7737,-78388,-3352,-388],"delta_lng":[0,7772,-15043,-27620,14072,4733]},"impl":true},
    {"code":1131805,"id":"e90f34","name":"小川町(埼玉)","original_name":"小川町","name_kana":"おがわまち","lat":36.05903,"lng":139.260412,"prefecture":11,"lines":[11318,21001],"attr":"heat","postal_code":"355-0328","address":"比企郡小川町大字大塚","next":[9930614,2100134,1131806,1131804,2200208,9930615,9930613,2100135,2100132],"voronoi":{"lat":36.03992,"lng":139.291784,"delta_lat":[0,-38333,3267,40770,39527,12235,61,-2760,-4459],"delta_lng":[0,-75270,-4999,21999,28354,16343,5213,10774,8725]},"impl":true},
    {"code":1132319,"left":9930617,"right":9930614,"id":"f789bf","name":"岡部","name_kana":"おかべ","lat":36.205645,"lng":139.237622,"prefecture":11,"lines":[11323],"attr":"eco","postal_code":"369-0201","address":"深谷市岡","next":[9930615,1132318,2100251,1132320,1131809,9930637,100505,1131810,2100252],"voronoi":{"lat":36.246163,"lng":139.228603,"delta_lat":[0,-31392,-17506,-12985,-16925,919,2794,61174,5030],"delta_lng":[0,-19465,-3963,7653,23776,4881,8975,20044,-7621]},"impl":true},
    {"code":9930617,"left":2100136,"right":9930616,"id":"7413ad","name":"桜沢(埼玉)","original_name":"桜沢","name_kana":"さくらざわ","lat":36.128672,"lng":139.206981,"prefecture":11,"lines":[99306],"attr":"cool","postal_code":"369-1202","address":"大里郡寄居町大字桜沢","next":[1131809,1131808,2100138,9930616,2100137],"voronoi":{"lat":36.12108,"lng":139.206515,"delta_lat":[0,4796,11653,6340,-21860],"delta_lng":[0,-8030,-9736,25662,395]},"impl":true},
    {"code":2100136,"left":2100137,"id":"dd3d3b","name":"男衾","name_kana":"おぶすま","lat":36.107415,"lng":139.234442,"prefecture":11,"lines":[21001],"attr":"cool","postal_code":"369-1216","address":"大里郡寄居町大字富田１７９２-１","next":[9930616,9930637,2100135,2100137],"voronoi":{"lat":36.123376,"lng":139.23769,"delta_lat":[0,-20319,-5849,17729],"delta_lng":[0,29400,-48849,4375]},"impl":true},
    {"code":2100137,"id":"7000b1","name":"鉢形","name_kana":"はちがた","lat":36.11378,"lng":139.208649,"prefecture":11,"lines":[21001],"attr":"cool","postal_code":"369-1224","address":"大里郡寄居町大字鉢形１６-１","next":[2100138,9930616,2100136,9930617,2100135,1131807],"voronoi":{"lat":36.105961,"lng":139.200727,"delta_lat":[0,15120,929,-7073,-17729,-2895],"delta_lng":[0,5788,8291,7810,-4375,-2366]},"impl":true},
    {"code":9930616,"id":"e31996","name":"小前田","name_kana":"おまえだ","lat":36.12895,"lng":139.222386,"prefecture":11,"lines":[99306],"attr":"cool","postal_code":"369-1246","address":"深谷市小前田","next":[2100136,2100137,9930617,1131809,9930637],"voronoi":{"lat":36.160628,"lng":139.233712,"delta_lat":[0,-16759,-21860,-7073,8439],"delta_lng":[0,-19300,395,7810,15074]},"impl":true},
    {"code":9930614,"left":9930615,"right":1132318,"id":"c1f3c2","name":"武川","name_kana":"たけかわ","lat":36.142197,"lng":139.281714,"prefecture":11,"lines":[99306],"attr":"cool","postal_code":"369-1108","address":"深谷市田中","next":[1131805,1132318,9930613,9930615],"voronoi":{"lat":36.094688,"lng":139.294198,"delta_lat":[0,72175,-268,-69147],"delta_lng":[0,-2543,-29672,21441]},"impl":true},
    {"code":9930615,"left":9930637,"id":"ddc330","name":"永田(埼玉)","original_name":"永田","name_kana":"ながた","lat":36.135314,"lng":139.259516,"prefecture":11,"lines":[99306],"attr":"cool","postal_code":"369-1243","address":"深谷市永田","next":[1132319,1132318,9930637,1131805,2100135,9930614],"voronoi":{"lat":36.097386,"lng":139.278211,"delta_lat":[0,5320,65568,2794,-4474,-69147],"delta_lng":[0,-10169,-26557,8975,11523,21441]},"impl":true},
    {"code":9930637,"id":"8e1c69","name":"ふかや花園","name_kana":"ふかやはなぞの","lat":36.132056,"lng":139.251472,"prefecture":11,"lines":[99306],"attr":"cool","postal_code":"369-1244","address":"深谷市黒田113","open_date":"2018-10-20","next":[9930615,1132319,2100136,9930616,2100135,1131809],"voronoi":{"lat":36.168274,"lng":139.241485,"delta_lat":[0,-65568,350,20319,37253,6727],"delta_lng":[0,26557,-951,-29400,-3979,2892]},"impl":true},
    {"code":1132318,"id":"c25921","name":"深谷","name_kana":"ふかや","lat":36.191344,"lng":139.28127,"prefecture":11,"lines":[11323],"attr":"eco","postal_code":"366-0824","address":"深谷市西島町１丁目","next":[1132319,9930615,9930613,1132317,2100250,2100251,9930614],"voronoi":{"lat":36.166594,"lng":139.261983,"delta_lat":[0,4474,61174,-236,-9460,-51066,-4618],"delta_lng":[0,-11523,20044,25014,23877,-17600,-10140]},"impl":true},
    {"code":2100707,"left":1131709,"right":9930611,"id":"c22720","name":"武州唐沢","name_kana":"ぶしゅうからさわ","lat":35.952127,"lng":139.30912,"prefecture":11,"lines":[21007],"attr":"heat","postal_code":"350-0415","address":"入間郡越生町大字上野５１-６","next":[2100705,2100706,1131803,2100131,1131802],"voronoi":{"lat":35.982117,"lng":139.338876,"delta_lat":[0,8921,1054,-45799,179],"delta_lng":[0,5483,-2644,-49341,17279]},"impl":true},
    {"code":1131709,"left":2100705,"right":2100704,"id":"e40432","name":"高麗川","name_kana":"こまがわ","lat":35.896328,"lng":139.33809,"prefecture":11,"lines":[11317,11318,11322],"attr":"heat","postal_code":"350-1205","address":"日高市原宿","next":[1131802,1132209,2100704,2200124,2200127,1131708,2100705,2100703,2200123],"voronoi":{"lat":35.87068,"lng":139.358876,"delta_lat":[0,-1126,6529,34891,4771,3329,-1983,-5864,-40417],"delta_lng":[0,-8686,-23369,-14863,7355,12142,9780,11378,6608]},"impl":true},
    {"code":2100705,"left":1131802,"right":2100706,"id":"79a3b8","name":"武州長瀬","name_kana":"ぶしゅうながせ","lat":35.942023,"lng":139.325561,"prefecture":11,"lines":[21007],"attr":"cool","postal_code":"350-0443","address":"入間郡毛呂山町大字長瀬９１７-１","next":[2100707,2100128,2100704,1131802,1131709,2100131,2100706],"voronoi":{"lat":35.991038,"lng":139.344358,"delta_lat":[0,-371,-888,-70705,-3329,23019,43353],"delta_lng":[0,1888,745,-15537,-12142,-1716,21279]},"impl":true},
    {"code":1131802,"left":2200127,"id":"c9097d","name":"毛呂","name_kana":"もろ","lat":35.940806,"lng":139.309237,"prefecture":11,"lines":[11318],"attr":"heat","postal_code":"350-0441","address":"入間郡毛呂山町字岩井","next":[1131709,1131803,2200129,2200127,2200128,2100705,2100706,2100707],"voronoi":{"lat":35.946293,"lng":139.292374,"delta_lat":[0,-11512,-14802,-7737,-1268,4771,23019,7708],"delta_lng":[0,-25554,14624,15043,15471,7355,-1716,-7944]},"impl":true},
    {"code":2200127,"id":"205ed3","name":"高麗","name_kana":"こま","lat":35.881982,"lng":139.304414,"prefecture":11,"lines":[22001],"attr":"heat","postal_code":"350-1255","address":"日高市武蔵台１-１-１","next":[1131708,2200128,1131709,1131802,2200125],"voronoi":{"lat":35.876083,"lng":139.326821,"delta_lat":[0,34891,1268,-56375,13760],"delta_lng":[0,-14863,-15471,-7772,29402]},"impl":true},
    {"code":2100706,"id":"f25bc3","name":"東毛呂","name_kana":"ひがしもろ","lat":35.947058,"lng":139.315303,"prefecture":11,"lines":[21007],"attr":"cool","postal_code":"350-0441","address":"入間郡毛呂山町大字岩井２３５６","next":[2100707,1131802,2100705],"voronoi":{"lat":35.938764,"lng":139.317597,"delta_lat":[0,7708,35645],"delta_lng":[0,-7944,29223]},"impl":true},
    {"code":2100704,"left":1132209,"right":2100702,"id":"9aabd5","name":"川角","name_kana":"かわかど","lat":35.937438,"lng":139.346426,"prefecture":11,"lines":[21007],"attr":"eco","postal_code":"350-0435","address":"入間郡毛呂山町大字下川原２９３-４","next":[1131709,2100128,2100127,2100705,2100703,2100702],"voronoi":{"lat":35.981269,"lng":139.353492,"delta_lat":[0,7373,1136,-70705,-1983,28085],"delta_lng":[0,-5060,-1441,-15537,9780,16292]},"impl":true},
    {"code":1132209,"left":2100703,"id":"6eee46","name":"武蔵高萩","name_kana":"むさしたかはぎ","lat":35.901729,"lng":139.371123,"prefecture":11,"lines":[11322],"attr":"heat","postal_code":"350-1213","address":"日高市高萩","next":[2200122,1132208,1131709,2200123,2200726,2100702,2100703,2200121],"voronoi":{"lat":35.879981,"lng":139.392762,"delta_lat":[0,41348,-377,-9725,-40417,-1898,5188,292],"delta_lng":[0,-6859,-13600,-19691,6608,11040,15920,606]},"impl":true},
    {"code":2100703,"id":"5a1637","name":"西大家","name_kana":"にしおおや","lat":35.931698,"lng":139.356321,"prefecture":11,"lines":[21007],"attr":"eco","postal_code":"350-0244","address":"坂戸市大字森戸６２３-７","next":[1132209,2100704,1131709,2100702],"voronoi":{"lat":35.945175,"lng":139.357527,"delta_lat":[0,-28085,-5864,9725],"delta_lng":[0,-16292,11378,19691]},"impl":true},
    {"code":2100702,"id":"8bc8df","name":"一本松(埼玉)","original_name":"一本松","name_kana":"いっぽんまつ","lat":35.94008,"lng":139.370062,"prefecture":11,"lines":[21007],"attr":"eco","postal_code":"350-2226","address":"鶴ヶ島市中新田８０-３","next":[2100125,1132209,1132208,2100703,2100127,2100126,2100704],"voronoi":{"lat":35.981269,"lng":139.353492,"delta_lat":[0,-11020,-34877,-6235,-7809,-377,24224],"delta_lng":[0,13130,24883,1423,-7025,-13600,-14777]},"impl":true},
    {"code":9930611,"left":9930612,"right":9930610,"id":"bf767d","name":"ひろせ野鳥の森","name_kana":"ひろせやちょうのもり","lat":36.146242,"lng":139.352086,"prefecture":11,"lines":[99306],"attr":"cool","postal_code":"360-0833","address":"熊谷市広瀬１０４０-１","next":[2102003,9930609,2100131,9930610,2100130,9930612,1132317],"voronoi":{"lat":36.163407,"lng":139.359151,"delta_lat":[0,-48452,-19859,-757,720,65030,9620],"delta_lng":[0,3948,-2434,-3341,-11292,-5241,12412]},"impl":true},
    {"code":9930612,"left":2100131,"right":1132317,"id":"4553db","name":"大麻生","name_kana":"おおあそう","lat":36.144612,"lng":139.331859,"prefecture":11,"lines":[99306],"attr":"cool","postal_code":"360-0835","address":"熊谷市大字大麻生","next":[2100132,9930613,2100131,9930611,1132317],"voronoi":{"lat":36.15875,"lng":139.316716,"delta_lat":[0,-64102,-634,1044,65030],"delta_lng":[0,3713,17888,7715,-5241]},"impl":true},
    {"code":2100131,"left":2100132,"id":"8693e3","name":"つきのわ","name_kana":"つきのわ","lat":36.04352,"lng":139.345541,"prefecture":11,"lines":[21001],"attr":"heat","postal_code":"355-0813","address":"比企郡滑川町月輪字中丸１２４７-２","next":[2100132,1131803,9930611,1131804,2100128,9930612,2100707,2100705,2100130],"voronoi":{"lat":35.990666,"lng":139.346247,"delta_lat":[0,371,1054,2249,3025,96649,1044,-720,-83339],"delta_lng":[0,-1888,-2644,-3949,-2144,2695,7715,11292,4872]},"impl":true},
    {"code":2100132,"id":"0806bf","name":"武蔵嵐山","name_kana":"むさしらんざん","lat":36.044001,"lng":139.32829,"prefecture":11,"lines":[21001],"attr":"heat","postal_code":"355-0221","address":"比企郡嵐山町大字菅谷１３５-６","next":[2100131,9930612,1131804,1131805,9930613],"voronoi":{"lat":36.090229,"lng":139.302923,"delta_lat":[0,-50308,-42555,96649,634],"delta_lng":[0,-11139,43838,2695,-17888]},"impl":true},
    {"code":1132317,"id":"3f024c","name":"籠原","name_kana":"かごはら","lat":36.17448,"lng":139.330199,"prefecture":11,"lines":[11323],"attr":"eco","postal_code":"360-0841","address":"熊谷市大字新堀","next":[2102004,1132318,2102003,9930613,2100250,9930611,9930612],"voronoi":{"lat":36.15875,"lng":139.316716,"delta_lat":[0,12730,51066,1991,-27320,-27509,-9620],"delta_lng":[0,-14921,17600,11215,25556,-2963,-12412]},"impl":true},
    {"code":9930610,"left":2100130,"right":2102003,"id":"2b182c","name":"石原(埼玉)","original_name":"石原","name_kana":"いしわら","lat":36.147612,"lng":139.368901,"prefecture":11,"lines":[99306],"attr":"cool","postal_code":"360-0816","address":"熊谷市大字石原","next":[9930611,9930609,2102003],"voronoi":{"lat":36.163407,"lng":139.359151,"delta_lat":[0,-48452,41195],"delta_lng":[0,3948,16410]},"impl":true},
    {"code":2100130,"id":"f25571","name":"森林公園(埼玉)","original_name":"森林公園","name_kana":"しんりんこうえん","lat":36.045239,"lng":139.374947,"prefecture":11,"lines":[21001],"attr":"heat","postal_code":"355-0811","address":"比企郡滑川町大字羽尾３９７７","next":[2100128,100504,1132315,9930611,2100129,9930609,2100131],"voronoi":{"lat":36.020902,"lng":139.380726,"delta_lat":[0,58311,12114,3272,496,-757,-83339],"delta_lng":[0,23214,-14549,-21181,-7546,-3341,4872]},"impl":true},
    {"code":2102003,"id":"444d2a","name":"大幡","name_kana":"おおはた","closed":true,"lat":36.169472,"lng":139.376694,"prefecture":11,"lines":[21020],"postal_code":"360-0803","address":"埼玉県熊谷市柿沼６４−１１","open_date":"1943-12-05","closed_date":"1983-06-01","next":[2102004,100504,9930611,1132317,9930610,9930609,9930636],"voronoi":{"lat":36.165867,"lng":139.409428,"delta_lat":[0,-7592,-2125,7257,6302,27509,-5317],"delta_lng":[0,-17654,-12266,-20358,-5948,2963,71282]},"impl":false},
    {"code":9932819,"left":9932815,"right":9931202,"id":"0ef7a6","name":"天王宿","name_kana":"てんのうじゅく","lat":36.414975,"lng":139.308054,"prefecture":10,"lines":[99328],"attr":"cool","postal_code":"376-0011","address":"桐生市相生町２-４７７-３","next":[2101107,9931202,9931204,9932821,9932820],"voronoi":{"lat":36.428853,"lng":139.31284,"delta_lat":[0,-13458,-5779,1735,14071],"delta_lng":[0,-10100,7028,1777,1780]},"impl":true},
    {"code":9932815,"left":2100252,"right":9931205,"id":"424808","name":"新里(群馬)","original_name":"新里","name_kana":"にいさと","lat":36.418543,"lng":139.236949,"prefecture":10,"lines":[99328],"attr":"eco","postal_code":"376-0124","address":"桐生市新里町小林１２６-１","next":[1134109,9932814,9931206,9932816],"voronoi":{"lat":36.453134,"lng":139.225384,"delta_lat":[0,-64989,1300,54756],"delta_lng":[0,7472,14028,678]},"impl":true},
    {"code":2100252,"left":9932813,"right":2101107,"id":"a95c36","name":"境町","name_kana":"さかいまち","lat":36.277191,"lng":139.256177,"prefecture":10,"lines":[21002],"attr":"cool","postal_code":"370-0117","address":"伊勢崎市境百々","next":[2100253,2100251,1134109,1132320,1132319],"voronoi":{"lat":36.246163,"lng":139.228603,"delta_lat":[0,9622,63905,3047,-85465],"delta_lng":[0,-5807,35987,18179,-14079]},"impl":true},
    {"code":9932813,"left":1134109,"right":9932814,"id":"bd1e7e","name":"粕川","name_kana":"かすかわ","lat":36.416818,"lng":139.210943,"prefecture":10,"lines":[99328],"attr":"eco","postal_code":"371-0217","address":"前橋市粕川町西田面２９３-２","next":[1134109,9932811,9931206,9932814,9932812],"voronoi":{"lat":36.382335,"lng":139.216466,"delta_lat":[0,76798,23440,-5969,-96988],"delta_lng":[0,-21,-26689,711,21013]},"impl":true},
    {"code":1134109,"left":2100253,"id":"4bcaa3","name":"国定","name_kana":"くにさだ","lat":36.359018,"lng":139.242463,"prefecture":10,"lines":[11341],"attr":"heat","postal_code":"379-2221","address":"伊勢崎市国定町","next":[9932816,9932813,2100253,9932815,2100254,1134108,9932812,2100252,9932814,2100251,2101104,1134110],"voronoi":{"lat":36.323658,"lng":139.278965,"delta_lat":[0,-921,-3047,7360,14800,28260,9506,2719,5810,1300,-4536,-21336],"delta_lng":[0,-2003,-18179,-25069,-14915,-18645,11326,4986,16390,14028,17836,14399]},"impl":true},
    {"code":2100253,"id":"cbed89","name":"剛志","name_kana":"ごうし","lat":36.295428,"lng":139.223792,"prefecture":10,"lines":[21002],"attr":"heat","postal_code":"370-0128","address":"伊勢崎市境保泉","next":[1134109,1132320,2100252,2100254],"voronoi":{"lat":36.31969,"lng":139.258782,"delta_lat":[0,-63905,23152,48113],"delta_lng":[0,-35987,-38614,49532]},"impl":true},
    {"code":9932814,"id":"b89ce3","name":"膳","name_kana":"ぜん","lat":36.416821,"lng":139.22197,"prefecture":10,"lines":[99328],"attr":"eco","postal_code":"371-0204","address":"前橋市粕川町膳５６８-３","next":[9932815,9931206,1134109,9932813],"voronoi":{"lat":36.459134,"lng":139.216445,"delta_lat":[0,-5999,-64989,-5810],"delta_lng":[0,8939,7472,-16390]},"impl":true},
    {"code":2101107,"left":1134110,"right":9932816,"id":"3c9d62","name":"相老","name_kana":"あいおい","lat":36.410261,"lng":139.304178,"prefecture":10,"lines":[21011,99312,11345],"attr":"eco","postal_code":"376-0011","address":"桐生市相生町２丁目","next":[9932819,9931204,9932823,1134110,9931202],"voronoi":{"lat":36.399658,"lng":139.3075,"delta_lat":[0,8133,7090,513,-5779],"delta_lng":[0,-16448,10128,1560,7028]},"impl":true},
    {"code":1134110,"left":2100251,"id":"3833b6","name":"岩宿","name_kana":"いわじゅく","lat":36.395861,"lng":139.297058,"prefecture":10,"lines":[11341],"attr":"cool","postal_code":"379-2311","address":"みどり市笠懸町阿左美","next":[9932823,2101104,2101108,9932816,2101107,9931202,2101105,9932817,1134109],"voronoi":{"lat":36.38491,"lng":139.264719,"delta_lat":[0,11591,9080,2488,-277,-8133,-923,-32323,-2839],"delta_lng":[0,6577,8055,3651,8049,16448,610,-23348,-5643]},"impl":true},
    {"code":2100251,"id":"4ff40b","name":"世良田","name_kana":"せらだ","lat":36.272931,"lng":139.282038,"prefecture":10,"lines":[21002],"attr":"cool","postal_code":"370-0426","address":"太田市世良田町","next":[2101104,1132319,2100252,1132318,2101103,2100250,1134109],"voronoi":{"lat":36.315985,"lng":139.298504,"delta_lat":[0,-1116,-82862,236,5030,85465,921],"delta_lng":[0,1131,-4118,-25014,-7621,14079,2003]},"impl":true},
    {"code":9932816,"id":"646048","name":"新川(群馬)","original_name":"新川","name_kana":"にっかわ","lat":36.418288,"lng":139.257536,"prefecture":10,"lines":[99328],"attr":"eco","postal_code":"376-0121","address":"桐生市新里町新川２０４２-３","next":[9931205,1134109,1134110,9932817,9932815,9931206],"voronoi":{"lat":36.442846,"lng":139.254179,"delta_lat":[0,-46345,-11591,4536,54756,-17],"delta_lng":[0,17118,-6577,-17836,678,5525]},"impl":true},
    {"code":9931205,"left":9931206,"right":9931208,"id":"95516f","name":"大間々","name_kana":"おおまま","lat":36.434617,"lng":139.277559,"prefecture":10,"lines":[99312,11345],"attr":"cool","postal_code":"376-0101","address":"みどり市大間々町大間々","open_date":"1911-04-15","next":[9932816,9931206,9931208,9931204,9932823,2101108,9932817],"voronoi":{"lat":36.429071,"lng":139.289314,"delta_lat":[0,5912,32248,6,-23052,-1339,-12064],"delta_lng":[0,4465,19711,-19279,-41125,1092,15269]},"impl":true},
    {"code":9931206,"left":2101108,"right":9931207,"id":"cd33d3","name":"上神梅","name_kana":"かみかんばい","lat":36.470053,"lng":139.257696,"prefecture":10,"lines":[99312,11345],"attr":"cool","postal_code":"376-0104","address":"みどり市大間々町上神梅","open_date":"1912-12-31","next":[9932811,9931207,9931205,9931208,9932815,9932814,9932813,9932810,9932816],"voronoi":{"lat":36.467236,"lng":139.294212,"delta_lat":[0,4338,14206,-3104,-103,-23440,-5999,-8933,-17],"delta_lng":[0,-6505,-100039,2008,80,26689,8939,22178,5525]},"impl":true},
    {"code":2101108,"left":9932817,"id":"178230","name":"赤城","name_kana":"あかぎ","lat":36.425615,"lng":139.276784,"prefecture":10,"lines":[21011,99328],"attr":"eco","postal_code":"376-0101","address":"みどり市大間々町大間々２４４５","next":[1134110,9931205,9932823,9932817],"voronoi":{"lat":36.408068,"lng":139.283003,"delta_lat":[0,21002,1711,-25201],"delta_lng":[0,6312,-19867,9904]},"impl":true},
    {"code":9932817,"id":"4a7acd","name":"東新川(群馬)","original_name":"東新川","name_kana":"ひがしにっかわ","lat":36.422002,"lng":139.267591,"prefecture":10,"lines":[99328],"attr":"eco","postal_code":"376-0121","address":"桐生市新里町新川３９０６","next":[1134110,9932816,2101108,9931205],"voronoi":{"lat":36.442846,"lng":139.254179,"delta_lat":[0,-46345,9080,25201],"delta_lng":[0,17118,8055,-9904]},"impl":true},
    {"code":9931207,"id":"3c09c3","name":"本宿(群馬)","original_name":"本宿","name_kana":"もとじゅく","lat":36.481391,"lng":139.259306,"prefecture":10,"lines":[99312],"attr":"cool","postal_code":"376-0143","address":"桐生市黒保根町宿廻","open_date":"1989-03-29","next":[9931206,9932810,9931208,1134209,1134210],"voronoi":{"lat":36.567762,"lng":139.168181,"delta_lat":[0,-38218,-43763,-14206,110275],"delta_lng":[0,-14064,33551,100039,-111494]},"impl":true},
    {"code":9931208,"left":9931204,"right":9931209,"id":"8be736","name":"水沼","name_kana":"みずぬま","lat":36.499866,"lng":139.277579,"prefecture":10,"lines":[99312,11345],"attr":"heat","postal_code":"376-0141","address":"桐生市黒保根町水沼","open_date":"1912-09-05","next":[9932821,1134210,9931207,9931205,9931206,9931204,9931209],"voronoi":{"lat":36.640338,"lng":139.202216,"delta_lat":[0,-58488,-110275,-4338,-6,1849,587],"delta_lng":[0,-26003,111494,6505,19279,6316,1115]},"impl":true},
    {"code":9931204,"left":9932823,"id":"333078","name":"運動公園(群馬)","original_name":"運動公園","name_kana":"うんどうこうえん","lat":36.42038,"lng":139.300852,"prefecture":10,"lines":[99312],"attr":"cool","postal_code":"376-0011","address":"桐生市相生町３丁目","open_date":"1989-03-29","next":[2101107,9932823,9931205,9931208,9932819,9932821],"voronoi":{"lat":36.46723,"lng":139.31349,"delta_lat":[0,-32248,-20101,513,13458,40227],"delta_lng":[0,-19711,7400,1560,10100,6967]},"impl":true},
    {"code":9932823,"id":"938b8d","name":"桐生球場前","name_kana":"きりゅうきゅうじょうまえ","lat":36.41928,"lng":139.297864,"prefecture":10,"lines":[99328],"attr":"cool","postal_code":"376-0011","address":"桐生市相生町２-５３２-３","next":[1134110,9931204,2101107,9931205,2101108],"voronoi":{"lat":36.408068,"lng":139.283003,"delta_lat":[0,-277,7090,20101,-5912],"delta_lng":[0,8049,10128,-7400,-4465]},"impl":true},
    {"code":9931209,"id":"c4663a","name":"花輪","name_kana":"はなわ","lat":36.520809,"lng":139.30769,"prefecture":10,"lines":[99312,11345],"attr":"heat","postal_code":"376-0307","address":"みどり市東町花輪","open_date":"1912-12-31","next":[9931210,9931211,9932821,1134211,1134210,9931208],"voronoi":{"lat":36.640338,"lng":139.202216,"delta_lat":[0,31485,42634,-92289,-151180,-1321],"delta_lng":[0,9845,19079,45407,54481,-10106]},"impl":true},
    {"code":9931202,"left":2101103,"right":1134111,"id":"0cad90","name":"下新田","name_kana":"しもしんでん","lat":36.407776,"lng":139.315086,"prefecture":10,"lines":[99312],"attr":"cool","postal_code":"376-0011","address":"桐生市相生町２丁目","open_date":"1992-03-14","next":[9932820,9932821,2101106,1134111,1134110,2101107,9932819,2101105],"voronoi":{"lat":36.398735,"lng":139.30811,"delta_lat":[0,923,9957,1735,-1162,-2118,-3721,-6068],"delta_lng":[0,-610,2268,1777,9743,3100,681,-15470]},"impl":true},
    {"code":2101103,"left":2101105,"right":2101102,"id":"e0863f","name":"治良門橋","name_kana":"じろえんばし","lat":36.333039,"lng":139.341328,"prefecture":10,"lines":[21011],"attr":"cool","postal_code":"373-0006","address":"太田市成塚町１０２４","next":[1134112,2100251,2101104,2101102,2100250],"voronoi":{"lat":36.314869,"lng":139.299635,"delta_lat":[0,1116,47347,-22151,-36380],"delta_lng":[0,-1131,47544,28065,-52578]},"impl":true},
    {"code":2101105,"left":2101104,"right":2101106,"id":"010761","name":"阿左美","name_kana":"あざみ","lat":36.38734,"lng":139.308854,"prefecture":10,"lines":[21011],"attr":"heat","postal_code":"379-2311","address":"みどり市笠懸町阿左美１０５７-４","next":[2101104,2101106,1134110,9931202],"voronoi":{"lat":36.398735,"lng":139.30811,"delta_lat":[0,-32323,9650,22219],"delta_lng":[0,-23348,40100,-15263]},"impl":true},
    {"code":2101104,"left":2100250,"id":"02fbf3","name":"藪塚","name_kana":"やぶづか","lat":36.358737,"lng":139.315737,"prefecture":10,"lines":[21011],"attr":"cool","postal_code":"379-2301","address":"群馬県太田市藪塚町字八石379-2","next":[1134110,2100251,2101105,2101103,1134112,2101106,1134109],"voronoi":{"lat":36.366413,"lng":139.284761,"delta_lat":[0,9650,-2185,-10546,-47347,7674,39915],"delta_lng":[0,40100,18272,2915,-47544,-19540,154]},"impl":true},
    {"code":2100250,"id":"fff3ed","name":"木崎","name_kana":"きざき","lat":36.271393,"lng":139.312988,"prefecture":10,"lines":[21002],"attr":"cool","postal_code":"370-0321","address":"太田市新田木崎町","next":[2102004,2100249,1132318,2101102,2100251,1132317,2101103],"voronoi":{"lat":36.314869,"lng":139.299635,"delta_lat":[0,-82862,-9460,1991,15779,63773,711],"delta_lng":[0,-4118,23877,11215,11620,-19982,-712]},"impl":true},
    {"code":2101106,"id":"a819b0","name":"新桐生","name_kana":"しんきりゅう","lat":36.39505,"lng":139.320078,"prefecture":10,"lines":[21011],"attr":"heat","postal_code":"376-0013","address":"桐生市広沢町２-２９９０-４","next":[1134111,9931202,2101105,2101104,1134112],"voronoi":{"lat":36.373878,"lng":139.343133,"delta_lat":[0,2185,22219,6068,-18412],"delta_lng":[0,-18272,-15263,15470,22523]},"impl":true},
    {"code":2101102,"left":2100248,"right":1134112,"id":"03c02a","name":"三枚橋","name_kana":"さんまいばし","lat":36.313369,"lng":139.354938,"prefecture":10,"lines":[21011],"attr":"cool","postal_code":"373-0063","address":"太田市鳥山下町６４２-１","next":[1134112,2100248,2100247,2100250,2101103,2100249,1134113],"voronoi":{"lat":36.31934,"lng":139.379336,"delta_lat":[0,-23257,8007,711,36380,-976,-6351],"delta_lng":[0,-18672,-38416,-712,52578,3086,3830]},"impl":true},
    {"code":2100248,"left":2100249,"id":"9fa174","name":"太田(群馬)","original_name":"太田","name_kana":"おおた","lat":36.294228,"lng":139.378779,"prefecture":10,"lines":[21002,21011,21012],"attr":"eco","postal_code":"373-0026","address":"太田市東本町","next":[2101209,2100249,2101102,2100247,2101207],"voronoi":{"lat":36.2911,"lng":139.396193,"delta_lat":[0,28240,-23257,-35684,8962],"delta_lng":[0,-16858,-18672,13799,10701]},"impl":true},
    {"code":2100249,"id":"233c5a","name":"細谷(群馬)","original_name":"細谷","name_kana":"ほそや","lat":36.282523,"lng":139.348509,"prefecture":10,"lines":[21002],"attr":"eco","postal_code":"373-0842","address":"太田市細谷町","next":[2100250,2102004,2100248,2101207,2101102],"voronoi":{"lat":36.30409,"lng":139.322247,"delta_lat":[0,-63773,16151,3931,35684],"delta_lng":[0,19982,30674,1559,-13799]},"impl":true},
    {"code":1134112,"id":"ebfc76","name":"小俣(栃木)","original_name":"小俣","name_kana":"おまた","lat":36.37496,"lng":139.374416,"prefecture":9,"lines":[11341],"attr":"cool","postal_code":"326-0141","address":"足利市小俣町","next":[2101102,2101103,1134113,1134111,2101104,9932822,9931212,9931213,2101106],"voronoi":{"lat":36.373878,"lng":139.343133,"delta_lat":[0,-10546,-22151,-976,124991,496,-3834,-41966,-33954],"delta_lng":[0,2915,28065,3086,93444,-19052,-34835,-39408,-29757]},"impl":true},
    {"code":1134111,"left":9932821,"right":9931212,"id":"5d17f9","name":"桐生","name_kana":"きりゅう","lat":36.41109,"lng":139.33319,"prefecture":10,"lines":[11341,99312,11345],"attr":"cool","postal_code":"376-0045","address":"桐生市末広町","next":[2101106,9932821,9931202,1134112,9932822],"voronoi":{"lat":36.411485,"lng":139.326037,"delta_lat":[0,-3415,-3721,-18412,33954],"delta_lng":[0,-1649,681,22523,29757]},"impl":true},
    {"code":9932821,"left":9932822,"right":9931210,"id":"0d88a0","name":"丸山下","name_kana":"まるやました","lat":36.416842,"lng":139.32128,"prefecture":10,"lines":[99328],"attr":"cool","postal_code":"376-0042","address":"桐生市堤町３-９-１","next":[9931208,9931202,1134111,9931209,9932820,9932819,9932822,9931210,9931204],"voronoi":{"lat":36.469667,"lng":139.320922,"delta_lat":[0,1321,347,-59849,-3415,2118,15233,3431,40227],"delta_lng":[0,10106,9172,-14163,-1649,-3100,-7963,-485,6967]},"impl":true},
    {"code":9932822,"left":9932820,"id":"8f75f7","name":"西桐生","name_kana":"にしきりゅう","lat":36.414142,"lng":139.33269,"prefecture":10,"lines":[99328],"attr":"cool","postal_code":"376-0046","address":"桐生市宮前町２-１-３３","next":[9931210,9931212,1134112,1134111,9932821],"voronoi":{"lat":36.473575,"lng":139.356143,"delta_lat":[0,-11718,-41966,-8406,59849],"delta_lng":[0,60613,-39408,-51312,14163]},"impl":true},
    {"code":9932820,"id":"fa0390","name":"富士山下","name_kana":"ふじやました","lat":36.413992,"lng":139.315828,"prefecture":10,"lines":[99328],"attr":"cool","postal_code":"376-0011","address":"桐生市相生町２-２７４-７","next":[9931202,9932821,9932819],"voronoi":{"lat":36.411351,"lng":139.311545,"delta_lat":[0,-1162,15233],"delta_lng":[0,9743,-7963]},"impl":true},
    {"code":9931210,"id":"e840a3","name":"中野(群馬)","original_name":"中野","name_kana":"なかの","lat":36.524243,"lng":139.317219,"prefecture":10,"lines":[99312],"attr":"heat","postal_code":"376-0307","address":"みどり市東町花輪","open_date":"1989-03-29","next":[9931211,9931209,9932822,9931212,9932821],"voronoi":{"lat":36.470988,"lng":139.331027,"delta_lat":[0,151180,-136813,-11779,-2241],"delta_lng":[0,-54481,75634,3963,-15944]},"impl":true},
    {"code":9931212,"left":9931211,"right":9931213,"id":"ef37b3","name":"神戸(群馬)","original_name":"神戸","name_kana":"ごうど","lat":36.537467,"lng":139.35653,"prefecture":10,"lines":[99312,11345],"attr":"eco","postal_code":"376-0304","address":"みどり市東町神戸","open_date":"1912-09-05","next":[9931213,9931210,9932822,9931211,1134112],"voronoi":{"lat":36.461858,"lng":139.416756,"delta_lat":[0,11718,11779,87646,-107309],"delta_lng":[0,-60613,-3963,-8550,107961]},"impl":true},
    {"code":9931211,"id":"b2d972","name":"小中","name_kana":"こなか","lat":36.535644,"lng":139.337842,"prefecture":10,"lines":[99312,11345],"attr":"eco","postal_code":"376-0308","address":"みどり市東町小中","open_date":"1912-12-31","next":[9931210,9931214,9931209,1134211,9931215,9931212,9931213],"voronoi":{"lat":36.642214,"lng":139.302382,"delta_lat":[0,55143,26007,-8907,-92289,-136813,87646],"delta_lng":[0,-42434,-25658,-3151,45407,75634,-8550]},"impl":true},
    {"code":9931213,"id":"b9aa08","name":"草木","name_kana":"くさき","closed":true,"lat":36.560317,"lng":139.379242,"prefecture":10,"lines":[11345],"postal_code":"376-0302","address":"群馬県みどり市東町草木","open_date":"1959-09-08","closed_date":"1973-06-27","next":[9931214,1134114,9931212,1134113,2101008,2101010,9931211,1134112,2101009],"voronoi":{"lat":36.47209,"lng":139.488574,"delta_lat":[0,-3101,-2778,-1016,496,107309,69213,-161873,-3595],"delta_lng":[0,-2956,-8236,-6738,-19052,-107961,-41248,192699,-2539]},"impl":false},
    {"code":2100236,"left":2100122,"right":2100241,"id":"567d15","name":"南羽生","name_kana":"みなみはにゅう","lat":36.14959,"lng":139.55696,"prefecture":11,"lines":[21002],"attr":"cool","postal_code":"348-0024","address":"羽生市大字神戸","next":[1132312,2100307,9930604,1132313,9930603,2100235,2100238,2100237,2100308],"voronoi":{"lat":36.203421,"lng":139.588866,"delta_lat":[0,-4047,-66938,-8536,-4823,-9443,-13350,84450,153],"delta_lng":[0,-7869,-60376,-3990,-918,7556,25452,58155,-85]},"impl":true},
    {"code":2100122,"left":2100128,"right":1132308,"id":"5be080","name":"川越市","name_kana":"かわごえし","lat":35.914146,"lng":139.476989,"prefecture":11,"lines":[21001],"attr":"eco","postal_code":"350-0041","address":"川越市六軒町１-４-４","next":[1132311,2200728,2200729,1132205,1132206],"voronoi":{"lat":35.980878,"lng":139.489139,"delta_lat":[0,-71829,-8918,2832,78905],"delta_lng":[0,-10802,-10844,-3041,22624]},"impl":true},
    {"code":2100128,"left":2100124,"right":9930607,"id":"a4751f","name":"高坂","name_kana":"たかさか","lat":36.002572,"lng":139.397747,"prefecture":11,"lines":[21001],"attr":"heat","postal_code":"355-0047","address":"東松山市大字高坂１３３４","next":[2100130,1132312,2100704,2100705,2100131,2100129,2100127,2100123,1132311,2100124],"voronoi":{"lat":35.985882,"lng":139.451688,"delta_lat":[0,2761,1136,888,20333,9903,-10128,-11284,-5762,-834],"delta_lng":[0,-103255,-1441,-745,15949,18531,83109,5715,1253,-1422]},"impl":true},
    {"code":2100124,"left":2100126,"right":1132206,"id":"e2d6f1","name":"鶴ヶ島","name_kana":"つるがしま","lat":35.936771,"lng":139.423825,"prefecture":11,"lines":[21001],"attr":"eco","postal_code":"350-2203","address":"埼玉県鶴ヶ島市大字上広谷18-5","next":[1132208,1132207,2100123,2100125,2100127,2100128],"voronoi":{"lat":35.985882,"lng":139.451688,"delta_lat":[0,-1245,-56225,-8139,8121,64501],"delta_lng":[0,-1635,-45405,13509,13564,37661]},"impl":true},
    {"code":2100126,"left":2100125,"right":2100127,"id":"abd609","name":"坂戸","name_kana":"さかど","lat":35.957181,"lng":139.394032,"prefecture":11,"lines":[21001,21007],"attr":"heat","postal_code":"350-0225","address":"坂戸市日の出町１-１","next":[2100127,2100125,2100702],"voronoi":{"lat":35.97025,"lng":139.366623,"delta_lat":[0,-7787,-27090],"delta_lng":[0,40057,-15174]},"impl":true},
    {"code":2100125,"left":1132208,"id":"c29f16","name":"若葉","name_kana":"わかば","lat":35.948919,"lng":139.408782,"prefecture":11,"lines":[21001],"attr":"eco","postal_code":"350-0215","address":"坂戸市関間４-１３-１","next":[2100702,2100124,1132208,2100127,2100126],"voronoi":{"lat":35.935373,"lng":139.391505,"delta_lat":[0,-6235,-726,56225,-22174],"delta_lng":[0,1423,11719,45405,-43373]},"impl":true},
    {"code":1132208,"id":"f3b431","name":"笠幡","name_kana":"かさはた","lat":35.907551,"lng":139.40622,"prefecture":11,"lines":[11322],"attr":"heat","postal_code":"350-1175","address":"川越市笠幡上野","next":[1132209,2100124,1132207,2200726,2200727,2100702,2100125],"voronoi":{"lat":35.929137,"lng":139.392929,"delta_lat":[0,-7809,-41348,2223,13879,24190,8139],"delta_lng":[0,-7025,6859,16556,17074,-8236,-13509]},"impl":true},
    {"code":2100127,"id":"4b5428","name":"北坂戸","name_kana":"きたさかど","lat":35.972098,"lng":139.396932,"prefecture":11,"lines":[21001],"attr":"heat","postal_code":"350-0272","address":"坂戸市末広町１","next":[2100704,2100128,2100126,2100125,2100124,2100702],"voronoi":{"lat":35.962463,"lng":139.406679,"delta_lat":[0,22174,1245,2761,-7373,-11020],"delta_lng":[0,43373,1635,-103255,5060,13130]},"impl":true},
    {"code":1132206,"left":2200728,"right":2100123,"id":"0f639a","name":"西川越","name_kana":"にしかわごえ","lat":35.91909,"lng":139.459746,"prefecture":11,"lines":[11322],"attr":"heat","postal_code":"350-1104","address":"川越市小ケ谷","next":[1132207,1132311,2100123,2100122,2200728],"voronoi":{"lat":35.981868,"lng":139.487076,"delta_lat":[0,6586,-74958,-7497,-3036],"delta_lng":[0,-10081,-29118,496,16079]},"impl":true},
    {"code":2200728,"left":1132207,"id":"229e57","name":"南大塚","name_kana":"みなみおおつか","lat":35.889663,"lng":139.454189,"prefecture":11,"lines":[22007],"attr":"cool","postal_code":"350-1165","address":"川越市南台３-１４","next":[2100122,1132207,2100120,2100119,1132205,2200724,2200727,1132206],"voronoi":{"lat":35.900131,"lng":139.467493,"delta_lat":[0,-14131,-27360,-10257,-155,47557,10214,-3036],"delta_lng":[0,8354,793,-2816,-4533,-36019,15101,16079]},"impl":true},
    {"code":1132207,"id":"0f8d3a","name":"的場","name_kana":"まとば","lat":35.917478,"lng":139.435376,"prefecture":11,"lines":[11322],"attr":"heat","postal_code":"350-1101","address":"川越市的場","next":[2100123,1132206,1132208,2200728,2100124,2200727],"voronoi":{"lat":35.896083,"lng":139.426393,"delta_lat":[0,24190,8121,-14897,-7497,-10214],"delta_lng":[0,-8236,13564,16157,496,-15101]},"impl":true},
    {"code":2100123,"id":"575d00","name":"霞ヶ関","name_kana":"かすみがせき","lat":35.925635,"lng":139.442897,"prefecture":11,"lines":[21001],"attr":"eco","postal_code":"350-1103","address":"埼玉県川越市霞ケ関東一丁目1-4","next":[1132207,1132311,2100124,2100128,1132206],"voronoi":{"lat":35.993728,"lng":139.470804,"delta_lat":[0,-834,-64501,-14897,74958],"delta_lng":[0,-1422,-37661,16157,29118]},"impl":true},
    {"code":9930607,"left":9930636,"right":9930606,"id":"114cfe","name":"持田","name_kana":"もちだ","lat":36.137615,"lng":139.44155,"prefecture":11,"lines":[99306],"attr":"cool","postal_code":"361-0057","address":"行田市城西４丁目","next":[9930636,1132314,1132315,2102004,9930606],"voronoi":{"lat":36.194219,"lng":139.43119,"delta_lat":[0,-1352,-65833,-6136,2460],"delta_lng":[0,-1862,4263,15418,7346]},"impl":true},
    {"code":9930636,"left":1132315,"right":100504,"id":"11b2c8","name":"ソシオ流通センター","name_kana":"そしおりゅうつうせんたー","lat":36.1365,"lng":139.424333,"prefecture":11,"lines":[99306],"attr":"cool","postal_code":"360-0022","address":"埼玉県熊谷市戸出102番地1","open_date":"2017-04-01","next":[100504,9930607,2102004,2102003,1132315],"voronoi":{"lat":36.117235,"lng":139.405059,"delta_lat":[0,48632,26034,967,-65833],"delta_lng":[0,4369,18019,1880,4263]},"impl":true},
    {"code":1132315,"left":2100129,"id":"26ea4e","name":"行田","name_kana":"ぎょうだ","lat":36.113879,"lng":139.432103,"prefecture":11,"lines":[11323],"attr":"cool","postal_code":"361-0046","address":"行田市壱里山町","next":[100504,1132314,2100130,9930607,2100129,9930636],"voronoi":{"lat":36.120899,"lng":139.449008,"delta_lat":[0,-49259,7574,12114,25907,9800],"delta_lng":[0,-25353,-19715,-14549,15668,28531]},"impl":true},
    {"code":2100129,"id":"5014b4","name":"東松山","name_kana":"ひがしまつやま","lat":36.034608,"lng":139.401651,"prefecture":11,"lines":[21001],"attr":"heat","postal_code":"355-0028","address":"東松山市箭弓町１-１２-１１","next":[1132313,2100128,2100130,1132312,1132314,1132315],"voronoi":{"lat":36.05972,"lng":139.439508,"delta_lat":[0,-29348,-19598,10128,58311,-7574],"delta_lng":[0,19861,4466,-83109,23214,19715]},"impl":true},
    {"code":100504,"id":"483c88","name":"熊谷","name_kana":"くまがや","lat":36.139627,"lng":139.389528,"prefecture":11,"lines":[1005,11323,99306,21020],"attr":"cool","postal_code":"360-0037","address":"熊谷市筑波２丁目","next":[9930609,9930636,2102003,1132315,2100130],"voronoi":{"lat":36.0946,"lng":139.368211,"delta_lat":[0,63675,7592,-48632,-25907],"delta_lng":[0,23564,17654,-4369,-15668]},"impl":true},
    {"code":9930606,"left":1132313,"right":9930605,"id":"ecc0f2","name":"行田市","name_kana":"ぎょうだし","lat":36.143759,"lng":139.458851,"prefecture":11,"lines":[99306],"attr":"cool","postal_code":"361-0078","address":"行田市中央","next":[2102004,9930607,1132314,2101204,9930605],"voronoi":{"lat":36.123359,"lng":139.456354,"delta_lat":[0,70861,4112,970,-78231],"delta_lng":[0,-25165,4091,8580,28742]},"impl":true},
    {"code":1132313,"left":1132314,"id":"cb8cdb","name":"北鴻巣","name_kana":"きたこうのす","lat":36.085529,"lng":139.476894,"prefecture":11,"lines":[11323],"attr":"cool","postal_code":"365-0000","address":"鴻巣市赤見台１丁目","next":[2100129,9930605,1132312,2100236,1132314,9930604],"voronoi":{"lat":36.120779,"lng":139.504471,"delta_lat":[0,-3054,-58004,-29348,79261,9443],"delta_lng":[0,-22185,-42777,19861,63900,-7556]},"impl":true},
    {"code":1132314,"id":"2cd36d","name":"吹上(埼玉)","original_name":"吹上","name_kana":"ふきあげ","lat":36.103062,"lng":139.45312,"prefecture":11,"lines":[11323],"attr":"cool","postal_code":"369-0115","address":"鴻巣市吹上本町１丁目","next":[1132313,9930605,1132315,9930607,9930606,2100129],"voronoi":{"lat":36.117724,"lng":139.482286,"delta_lat":[0,3346,2288,-2460,-49259,-11919],"delta_lng":[0,-9683,-16248,-7346,-25353,15853]},"impl":true},
    {"code":9930605,"id":"40aeb9","name":"東行田","name_kana":"ひがしぎょうだ","lat":36.147265,"lng":139.468394,"prefecture":11,"lines":[99306],"attr":"cool","postal_code":"361-0022","address":"行田市桜町２丁目","next":[1132313,2101204,1132314,9930606,9930604],"voronoi":{"lat":36.199455,"lng":139.444615,"delta_lat":[0,-153,-78231,-3346,3054],"delta_lng":[0,-754,28742,9683,22185]},"impl":true},
    {"code":1132308,"left":1132203,"right":2100235,"id":"61141d","name":"上尾","name_kana":"あげお","lat":35.973522,"lng":139.588434,"prefecture":11,"lines":[11323],"attr":"heat","postal_code":"362-0075","address":"上尾市柏座１丁目","next":[9932111,9932112,9932106,9932107,9932110,1132307,1132211,9932109,1132309,1132203,9932108],"voronoi":{"lat":35.969924,"lng":139.605795,"delta_lat":[0,-5223,-6474,-10395,3953,2357,37721,-2378,-3990,-3858,-3606],"delta_lng":[0,-1447,-3286,-16451,-23586,-5671,40746,3982,3622,2004,632]},"impl":true},
    {"code":1132203,"left":1132205,"right":9932103,"id":"e0baf4","name":"指扇","name_kana":"さしおうぎ","lat":35.917023,"lng":139.564951,"prefecture":11,"lines":[11322],"attr":"eco","postal_code":"331-0074","address":"さいたま市西区宝来","next":[2100118,1132310,1132117,1132211,2100117,2100116,1132308,1132309,1132204],"voronoi":{"lat":35.879894,"lng":139.556339,"delta_lat":[0,-3986,-2352,8706,69523,2357,3326,-74,-72491],"delta_lng":[0,11093,13075,5136,-24618,-5671,-18592,-8824,21618]},"impl":true},
    {"code":1132205,"left":1132204,"right":2200729,"id":"27a528","name":"川越","name_kana":"かわごえ","lat":35.906742,"lng":139.483078,"prefecture":11,"lines":[11322,21001],"attr":"eco","postal_code":"350-1122","address":"川越市脇田町","next":[1132204,2100120,2200729,2200728,2100122],"voronoi":{"lat":35.900131,"lng":139.467493,"delta_lat":[0,-14131,22928,6965,-6844],"delta_lng":[0,8354,25599,658,-23767]},"impl":true},
    {"code":1132204,"left":2100120,"id":"66f0f7","name":"南古谷","name_kana":"みなみふるや","lat":35.903344,"lng":139.519082,"prefecture":11,"lines":[11322],"attr":"eco","postal_code":"350-0023","address":"川越市並木","next":[1132205,2200729,1132310,2100118,2100120,2100119,1132203],"voronoi":{"lat":35.883525,"lng":139.535931,"delta_lat":[0,5768,19636,6965,47701,-6201,-72491],"delta_lng":[0,-23299,-11186,658,12793,13040,21618]},"impl":true},
    {"code":2100120,"id":"b23940","name":"新河岸","name_kana":"しんがし","lat":35.890911,"lng":139.497257,"prefecture":11,"lines":[21001],"attr":"eco","postal_code":"350-1133","address":"川越市大字砂９１４-５","next":[2100119,1132205,2200728,1132204],"voronoi":{"lat":35.908929,"lng":139.501447,"delta_lat":[0,-22928,-27360,30652],"delta_lng":[0,-25599,793,35992]},"impl":true},
    {"code":2200729,"id":"2772c5","name":"本川越","name_kana":"ほんかわごえ","lat":35.913524,"lng":139.481125,"prefecture":11,"lines":[22007],"attr":"cool","postal_code":"350-0043","address":"川越市新富町１-２２","next":[1132204,1132205,2100122,1132311,1132310],"voronoi":{"lat":35.974328,"lng":139.503945,"delta_lat":[0,6550,-71829,6844,47701],"delta_lng":[0,-14805,-10802,23767,12793]},"impl":true},
    {"code":9932103,"left":1132202,"right":1132307,"id":"88e3a2","name":"加茂宮","name_kana":"かものみや","lat":35.93568,"lng":139.616688,"prefecture":11,"lines":[99321],"attr":"cool","postal_code":"331-0812","address":"さいたま市北区宮原町１-３０５","next":[1132307,1131907,9932104,1132202,9932102],"voronoi":{"lat":35.927721,"lng":139.613699,"delta_lat":[0,6953,5098,-2184,-9190],"delta_lng":[0,-2712,3225,11095,-2190]},"impl":true},
    {"code":1132202,"left":1132211,"id":"3220fc","name":"日進(埼玉)","original_name":"日進","name_kana":"にっしん","lat":35.931555,"lng":139.606111,"prefecture":11,"lines":[11322],"attr":"cool","postal_code":"331-0823","address":"さいたま市北区日進町２丁目","next":[9932102,9932103,1132307,1132211],"voronoi":{"lat":35.927721,"lng":139.613699,"delta_lat":[0,6953,9220,-32104],"delta_lng":[0,-2712,-23988,11315]},"impl":true},
    {"code":1132211,"id":"cb92e9","name":"西大宮","name_kana":"にしおおみや","lat":35.922298,"lng":139.579848,"prefecture":11,"lines":[11322],"attr":"eco","postal_code":"331-0000","address":"さいたま市西区大字指扇3582-4","open_date":"2009-03-14","next":[100403,1132307,1132117,1132308,1132202,9932102,1132203],"voronoi":{"lat":35.891205,"lng":139.593638,"delta_lat":[0,11713,8871,32104,3938,3953,-69523],"delta_lng":[0,4202,474,-11315,-2389,-23586,24618]},"impl":true},
    {"code":1132307,"id":"47c51e","name":"宮原","name_kana":"みやはら","lat":35.940256,"lng":139.609455,"prefecture":11,"lines":[11323],"attr":"heat","postal_code":"331-0812","address":"さいたま市北区宮原町３丁目","next":[9932103,9932105,9932104,1132211,1132308,1132202,9932106],"voronoi":{"lat":35.958227,"lng":139.601062,"delta_lat":[0,-10395,-3938,-9220,5098,7775,9376],"delta_lng":[0,-16451,2389,23988,3225,-2137,-9092]},"impl":true},
    {"code":2100235,"left":1132311,"right":9932112,"id":"f64ced","name":"加須","name_kana":"かぞ","lat":36.122992,"lng":139.595584,"prefecture":11,"lines":[21002],"attr":"cool","postal_code":"347-0055","address":"加須市中央１丁目","next":[9932113,2100307,1132311,2100236,1132312,2100234],"voronoi":{"lat":36.180734,"lng":139.606877,"delta_lat":[0,-84450,-16003,-12448,757,94068],"delta_lng":[0,-58155,11866,18249,19192,32484]},"impl":true},
    {"code":1132311,"left":1132309,"right":1132312,"id":"2cd8ed","name":"北本","name_kana":"きたもと","lat":36.032112,"lng":139.533591,"prefecture":11,"lines":[11323],"attr":"heat","postal_code":"364-0006","address":"北本市北本１丁目","next":[2100122,2100235,2100123,1132312,1132310,1132206,9932113,2200729,2100128],"voronoi":{"lat":35.988455,"lng":139.476995,"delta_lat":[0,-6586,-990,-6550,59816,33688,12448,-80790,-5762],"delta_lng":[0,10081,2063,14805,65770,9122,-18249,-91037,1253]},"impl":true},
    {"code":1132309,"left":1132310,"id":"408b9a","name":"北上尾","name_kana":"きたあげお","lat":35.985632,"lng":139.577223,"prefecture":11,"lines":[11323],"attr":"heat","postal_code":"362-0016","address":"上尾市原新町","next":[9932112,1132308,9932113,1132203,1132310],"voronoi":{"lat":35.996383,"lng":139.592977,"delta_lat":[0,-4520,-37721,3326,46902],"delta_lng":[0,3123,-40746,-18592,46157]},"impl":true},
    {"code":1132310,"id":"f51e0d","name":"桶川","name_kana":"おけがわ","lat":35.998375,"lng":139.564274,"prefecture":11,"lines":[11323],"attr":"heat","postal_code":"363-0015","address":"桶川市南１丁目","next":[9932113,1132203,1132204,1132311,2200729,1132309],"voronoi":{"lat":35.957467,"lng":139.536762,"delta_lat":[0,-74,6201,10734,59816,-29775],"delta_lng":[0,-8824,-13040,-10953,65770,13204]},"impl":true},
    {"code":1132312,"id":"9f57b1","name":"鴻巣","name_kana":"こうのす","lat":36.0592,"lng":139.509552,"prefecture":11,"lines":[11323],"attr":"heat","postal_code":"365-0038","address":"鴻巣市本町１丁目","next":[2100236,1132313,2100128,1132311,2100235,2100129],"voronoi":{"lat":36.030373,"lng":139.459369,"delta_lat":[0,79261,-13350,-16003,-80790,11284],"delta_lng":[0,63900,25452,11866,-91037,-5715]},"impl":true},
    {"code":9932112,"left":9932111,"right":9932113,"id":"5131d9","name":"羽貫","name_kana":"はぬき","lat":36.007311,"lng":139.608608,"prefecture":11,"lines":[99321],"attr":"eco","postal_code":"362-0802","address":"北足立郡伊奈町大字羽貫８７２","next":[1131911,1132308,1132309,1131910,9932113,9932111],"voronoi":{"lat":35.989485,"lng":139.600081,"delta_lat":[0,2378,4520,47312,-6405,-9673],"delta_lng":[0,-3982,-3123,37134,3170,1733]},"impl":true},
    {"code":9932111,"id":"b7a77e","name":"伊奈中央","name_kana":"いなちゅうおう","lat":35.999537,"lng":139.617094,"prefecture":11,"lines":[99321],"attr":"heat","postal_code":"362-0806","address":"北足立郡伊奈町大字小室９７４４","next":[1132308,1131910,9932112,9932110],"voronoi":{"lat":36.027616,"lng":139.635014,"delta_lat":[0,-38132,-3990,23445],"delta_lng":[0,-34932,3622,38146]},"impl":true},
    {"code":9932113,"id":"59632f","name":"内宿","name_kana":"うちじゅく","lat":36.014163,"lng":139.599878,"prefecture":11,"lines":[99321],"attr":"eco","postal_code":"362-0808","address":"北足立郡伊奈町大字小針新宿１４６１","next":[2100235,1132310,2100234,1131911,9932112,1132311,1132309,2100233],"voronoi":{"lat":36.043694,"lng":139.63011,"delta_lat":[0,-47312,7987,29775,33688,757,-7918,-3438],"delta_lng":[0,-37134,-10058,-13204,9122,19192,22528,4947]},"impl":true},
    {"code":2100241,"left":2100247,"right":2101004,"id":"67a177","name":"多々良","name_kana":"たたら","lat":36.273732,"lng":139.500179,"prefecture":10,"lines":[21002],"attr":"eco","postal_code":"374-0076","address":"館林市日向町","next":[2100242,1134122,2101202,2101203,2101002],"voronoi":{"lat":36.264806,"lng":139.5179,"delta_lat":[0,-6529,15367,26304,-12499],"delta_lng":[0,-29140,-7675,15950,28097]},"impl":true},
    {"code":2100247,"left":2101204,"right":9931216,"id":"0b335f","name":"韮川","name_kana":"にらがわ","lat":36.307913,"lng":139.401704,"prefecture":10,"lines":[21002],"attr":"eco","postal_code":"373-0801","address":"太田市大字台之郷町","next":[2100248,2101102,2101209,2100246,1134113],"voronoi":{"lat":36.333853,"lng":139.381029,"delta_lat":[0,-14514,-28240,7957,27460],"delta_lng":[0,-1694,16858,31638,-16704]},"impl":true},
    {"code":2101204,"left":2101206,"right":2100242,"id":"26d24f","name":"篠塚","name_kana":"しのづか","lat":36.256788,"lng":139.446077,"prefecture":10,"lines":[21012],"attr":"cool","postal_code":"370-0615","address":"邑楽郡邑楽町大字篠塚３９９５-３","next":[9930605,2102004,2101203,2100243,2101205,9930604,2100242,9930606],"voronoi":{"lat":36.199455,"lng":139.444615,"delta_lat":[0,7552,68764,6220,1826,-74232,-11253,970],"delta_lng":[0,16737,-4811,-8012,-7041,-12251,6044,8580]},"impl":true},
    {"code":2101206,"left":2101205,"right":2101209,"id":"38f6bf","name":"小泉町(群馬)","original_name":"小泉町","name_kana":"こいずみまち","lat":36.261562,"lng":139.42021,"prefecture":10,"lines":[21012],"attr":"heat","postal_code":"370-0518","address":"邑楽郡大泉町城之内２-４-１","next":[2101209,2101207,2101205],"voronoi":{"lat":36.239179,"lng":139.419479,"delta_lat":[0,29541,10521],"delta_lng":[0,-7205,16270]},"impl":true},
    {"code":2101205,"left":2101207,"id":"a0da83","name":"東小泉","name_kana":"ひがしこいずみ","lat":36.259696,"lng":139.428456,"prefecture":10,"lines":[21012],"attr":"cool","postal_code":"370-0513","address":"邑楽郡大泉町東小泉１-１８-１","next":[2102004,2101207,2101206,2101204,2101209,2100243],"voronoi":{"lat":36.287194,"lng":139.436393,"delta_lat":[0,-7953,-40062,-18477,-11118,74232],"delta_lng":[0,-7848,-9065,912,8845,12251]},"impl":true},
    {"code":2101207,"id":"811e19","name":"西小泉","name_kana":"にしこいずみ","lat":36.258712,"lng":139.408525,"prefecture":10,"lines":[21012],"attr":"heat","postal_code":"370-0517","address":"邑楽郡大泉町西小泉４-３１-１０","next":[2100248,2101209,2101205,2101206,2100249,2102004],"voronoi":{"lat":36.256468,"lng":139.372903,"delta_lat":[0,3931,8962,-640,-29541,-18477],"delta_lng":[0,1559,10701,27111,7205,912]},"impl":true},
    {"code":2101209,"id":"3d2459","name":"竜舞","name_kana":"りゅうまい","lat":36.278894,"lng":139.409002,"prefecture":10,"lines":[21012],"attr":"eco","postal_code":"373-0806","address":"太田市龍舞町１８３８","next":[2100246,2100248,2100247,2101206,2101207,2101205,2100243],"voronoi":{"lat":36.279242,"lng":139.428545,"delta_lat":[0,-10521,640,21739,7957,-1481,-10381],"delta_lng":[0,-16270,-27111,11030,31638,3058,5503]},"impl":true},
    {"code":2100242,"left":9930604,"right":2100243,"id":"7180fe","name":"県","name_kana":"あがた","lat":36.290615,"lng":139.472336,"prefecture":9,"lines":[21002],"attr":"eco","postal_code":"326-0328","address":"足利市県町","next":[2100241,2101203,1134122,2100243,2101204],"voronoi":{"lat":36.273643,"lng":139.481085,"delta_lat":[0,26304,18414,-36371,-6220],"delta_lng":[0,15950,-9770,-38737,8012]},"impl":true},
    {"code":9930604,"left":2101203,"id":"d65287","name":"武州荒木","name_kana":"ぶしゅうあらき","lat":36.162614,"lng":139.488569,"prefecture":11,"lines":[99306],"attr":"cool","postal_code":"361-0011","address":"行田市荒木","next":[2101203,2100236,2101202,1132313,9930603,2100238,2101204,9930605],"voronoi":{"lat":36.199455,"lng":139.444615,"delta_lat":[0,7552,2986,-417,-4999,-80677,-4823,1702],"delta_lng":[0,16737,15038,2108,6081,32053,-918,-11243]},"impl":true},
    {"code":2101203,"id":"04c1ad","name":"本中野","name_kana":"ほんなかの","lat":36.25843,"lng":139.469546,"prefecture":10,"lines":[21012],"attr":"cool","postal_code":"370-0603","address":"邑楽郡邑楽町中野４８５８-５","next":[9930604,2100242,2101204,2100241,2101202],"voronoi":{"lat":36.273643,"lng":139.481085,"delta_lat":[0,2127,-68764,2986,48284],"delta_lng":[0,-24545,4811,15038,12371]},"impl":true},
    {"code":2100243,"id":"435a22","name":"福居","name_kana":"ふくい","lat":36.305208,"lng":139.458634,"prefecture":9,"lines":[21002],"attr":"eco","postal_code":"326-0338","address":"足利市福居町","next":[2100244,2100242,2101204,2100246,2101209,1134122,2101205],"voronoi":{"lat":36.287194,"lng":139.436393,"delta_lat":[0,10381,5433,17637,-2284,-36371,1826],"delta_lng":[0,-5503,4306,51690,380,-38737,-7041]},"impl":true},
    {"code":9931216,"left":9931214,"right":1134114,"id":"f2760f","name":"通洞","name_kana":"つうどう","lat":36.636837,"lng":139.439671,"prefecture":9,"lines":[99312,11345],"attr":"cool","postal_code":"321-1523","address":"日光市足尾町松原","open_date":"1912-12-31","next":[9931218,9931215,9931217],"voronoi":{"lat":36.702902,"lng":139.352402,"delta_lat":[0,-52886,-75187],"delta_lng":[0,84713,46549]},"impl":true},
    {"code":9931214,"left":2100246,"right":9931215,"id":"782340","name":"沢入","name_kana":"そうり","lat":36.58064,"lng":139.396314,"prefecture":10,"lines":[99312,11345],"attr":"eco","postal_code":"376-0301","address":"みどり市東町沢入","open_date":"1912-12-31","next":[9931213,9931211,9931215,2101010],"voronoi":{"lat":36.697356,"lng":139.259948,"delta_lat":[0,-55143,-161873,39031],"delta_lng":[0,42434,192699,33496]},"impl":true},
    {"code":2100246,"left":1134113,"id":"c2c4e9","name":"野州山辺","name_kana":"やしゅうやまべ","lat":36.32633,"lng":139.431981,"prefecture":9,"lines":[21002],"attr":"eco","postal_code":"326-0824","address":"足利市八幡町","next":[1134113,2101209,2100245,2100244,2100247,2100243],"voronoi":{"lat":36.297575,"lng":139.430889,"delta_lat":[0,1481,27460,24051,-32838,-14721],"delta_lng":[0,-3058,-16704,24494,6412,-6838]},"impl":true},
    {"code":1134113,"id":"487050","name":"山前","name_kana":"やままえ","lat":36.347369,"lng":139.411322,"prefecture":9,"lines":[11341],"attr":"cool","postal_code":"326-0844","address":"足利市鹿島町２丁目","next":[2100246,9931213,2100247,1134112,2101102,1134114,2100245],"voronoi":{"lat":36.466211,"lng":139.477382,"delta_lat":[0,-1016,-124991,-6351,-7337,24051,13747],"delta_lng":[0,-6738,-93444,3830,30098,24494,6685]},"impl":true},
    {"code":9931215,"id":"441c9c","name":"原向","name_kana":"はらむこう","lat":36.617284,"lng":139.420593,"prefecture":9,"lines":[99312,11345],"attr":"cool","postal_code":"321-1511","address":"日光市足尾町３０６６番地","open_date":"1912-12-31","next":[1134211,9931218,1134215,9931214,9931211,9931217,9931216,2101010],"voronoi":{"lat":36.519372,"lng":139.528578,"delta_lat":[0,177985,26007,69698,1679,-91839,-128073,-52933],"delta_lng":[0,-268629,-25658,4569,717,112826,131262,47848]},"impl":true},
    {"code":1134114,"left":2100244,"right":9931217,"id":"926956","name":"足利","name_kana":"あしかが","lat":36.331888,"lng":139.456295,"prefecture":9,"lines":[11341],"attr":"cool","postal_code":"326-0053","address":"足利市伊勢町","next":[9931213,2100244,2100245,1134122,2101008,1134113],"voronoi":{"lat":36.468989,"lng":139.485618,"delta_lat":[0,-74496,-73059,2416,40464,101897],"delta_lng":[0,20878,-19604,-32676,-11909,35075]},"impl":true},
    {"code":2100244,"left":2100245,"id":"bc6a3b","name":"東武和泉","name_kana":"とうぶいずみ","lat":36.315595,"lng":139.45509,"prefecture":9,"lines":[21002],"attr":"eco","postal_code":"326-0338","address":"足利市福居町","next":[2100246,2100243,1134122,1134114,2100245],"voronoi":{"lat":36.321434,"lng":139.486891,"delta_lat":[0,-789,-17637,14721,6121],"delta_lng":[0,-6,-51690,6838,12182]},"impl":true},
    {"code":2100245,"id":"f605f0","name":"足利市","name_kana":"あしかがし","lat":36.32948,"lng":139.448113,"prefecture":9,"lines":[21002],"attr":"eco","postal_code":"326-0821","address":"足利市南町","next":[2100246,1134114,2100244,1134113],"voronoi":{"lat":36.350568,"lng":139.435622,"delta_lat":[0,-32838,6121,40464],"delta_lng":[0,6412,12182,-11909]},"impl":true},
    {"code":9931217,"id":"526d06","name":"足尾","name_kana":"あしお","lat":36.641853,"lng":139.447773,"prefecture":9,"lines":[99312,11345],"attr":"cool","postal_code":"321-1512","address":"日光市足尾町掛水","open_date":"1912-12-31","next":[2100321,9931218,9931215,2101010,9931216],"voronoi":{"lat":36.521895,"lng":139.531513,"delta_lat":[0,25884,74561,27675,-75187],"delta_lng":[0,39109,6418,-139924,46549]},"impl":true},
    {"code":2101004,"left":2100239,"right":2101006,"id":"0782ff","name":"佐野市","name_kana":"さのし","lat":36.306153,"lng":139.57583,"prefecture":9,"lines":[21010],"attr":"cool","postal_code":"327-0006","address":"佐野市上台町２１６４","next":[2101003,1134117,1134115,1134116,2100309],"voronoi":{"lat":36.298763,"lng":139.621265,"delta_lat":[0,19446,-7537,-36638,22287],"delta_lng":[0,-67527,-1606,53589,16151]},"impl":true},
    {"code":2100239,"left":2100238,"right":2101002,"id":"fded2a","name":"茂林寺前","name_kana":"もりんじまえ","lat":36.226331,"lng":139.527058,"prefecture":10,"lines":[21002],"attr":"eco","postal_code":"374-0033","address":"館林市堀工町","next":[2100238,2101202,2101002,2100240,2100308],"voronoi":{"lat":36.235167,"lng":139.562488,"delta_lat":[0,1746,-18408,-2811,11988],"delta_lng":[0,-47014,-19670,91691,387]},"impl":true},
    {"code":2100238,"left":9930602,"right":2101202,"id":"a9d378","name":"川俣","name_kana":"かわまた","lat":36.208778,"lng":139.52652,"prefecture":10,"lines":[21002],"attr":"eco","postal_code":"370-0713","address":"邑楽郡明和町大字中谷３２８-３","next":[9930603,2100239,2100237,9930602,2100236,9930604,2101202,2100308],"voronoi":{"lat":36.215694,"lng":139.587495,"delta_lat":[0,2811,-8929,-4999,-10805,-2349,7951,4047],"delta_lng":[0,-91691,-17307,6081,25225,30058,41136,7869]},"impl":true},
    {"code":9930602,"left":9930603,"id":"9a9c9e","name":"西羽生","name_kana":"にしはにゅう","lat":36.17635,"lng":139.523986,"prefecture":11,"lines":[99306],"attr":"cool","postal_code":"348-0054","address":"羽生市西５丁目","next":[2100238,2100237,9930603],"voronoi":{"lat":36.193771,"lng":139.509804,"delta_lat":[0,-2349,-29925],"delta_lng":[0,30058,-18036]},"impl":true},
    {"code":9930603,"id":"67692f","name":"新郷(埼玉)","original_name":"新郷","name_kana":"しんごう","lat":36.171317,"lng":139.510474,"prefecture":11,"lines":[99306],"attr":"cool","postal_code":"348-0041","address":"羽生市大字上新郷","next":[2100238,2100236,9930604,9930602,2100237],"voronoi":{"lat":36.132435,"lng":139.520622,"delta_lat":[0,-8536,80677,-10805,-32274],"delta_lng":[0,-3990,-32053,25225,12022]},"impl":true},
    {"code":2101202,"id":"1d326d","name":"成島(群馬)","original_name":"成島","name_kana":"なるしま","lat":36.249171,"lng":139.505682,"prefecture":10,"lines":[21012],"attr":"cool","postal_code":"374-0055","address":"館林市成島町７１５","next":[2100239,2100240,2100241,9930604,2101203,2101002,2100238],"voronoi":{"lat":36.236913,"lng":139.515474,"delta_lat":[0,26319,1574,-6529,-48284,-417,8929],"delta_lng":[0,3050,-624,-29140,-12371,2108,17307]},"impl":true},
    {"code":2101002,"left":2100237,"right":2101003,"id":"faa7ac","name":"渡瀬(群馬)","original_name":"渡瀬","name_kana":"わたらせ","lat":36.261807,"lng":139.537515,"prefecture":10,"lines":[21010],"attr":"cool","postal_code":"374-0073","address":"館林市足次町６５","next":[2101003,2100240,1134122,2100239,1134115,2100309,2101202,2100241,2100308],"voronoi":{"lat":36.227681,"lng":139.587883,"delta_lat":[0,7485,28065,1574,22643,489,1724,-51408,-4278],"delta_lng":[0,-25394,-43964,-624,7232,1378,10581,53271,-245]},"impl":true},
    {"code":2100237,"left":2100240,"id":"67871f","name":"羽生","name_kana":"はにゅう","lat":36.170345,"lng":139.533949,"prefecture":11,"lines":[21002,99306],"attr":"cool","postal_code":"348-0053","address":"羽生市南１","next":[2100238,2100236,9930602,9930603],"voronoi":{"lat":36.191422,"lng":139.539862,"delta_lat":[0,7951,-66938,29062],"delta_lng":[0,41136,-60376,1204]},"impl":true},
    {"code":2100240,"id":"efc14f","name":"館林","name_kana":"たてばやし","lat":36.246606,"lng":139.527811,"prefecture":10,"lines":[21002,21010,21012],"attr":"eco","postal_code":"374-0024","address":"館林市本町２丁目","next":[2101202,2101002,2100239],"voronoi":{"lat":36.236913,"lng":139.515474,"delta_lat":[0,26319,-28065],"delta_lng":[0,3050,43964]},"impl":true},
    {"code":2101003,"id":"8d4550","name":"田島","name_kana":"たじま","lat":36.290229,"lng":139.564943,"prefecture":9,"lines":[21010],"attr":"cool","postal_code":"327-0031","address":"佐野市田島町１８４","next":[2101002,2101004,2100309,1134115],"voronoi":{"lat":36.289661,"lng":139.537091,"delta_lat":[0,-51408,35780,36638],"delta_lng":[0,53271,15358,-53589]},"impl":true},
    {"code":2101006,"left":1134116,"right":2101009,"id":"e59ec6","name":"堀米","name_kana":"ほりごめ","lat":36.328467,"lng":139.580279,"prefecture":9,"lines":[21010],"attr":"cool","postal_code":"327-0843","address":"佐野市堀米町１２７４","next":[1134115,1134116,1134117,2101007],"voronoi":{"lat":36.335481,"lng":139.551344,"delta_lat":[0,-9794,-7853,21385],"delta_lng":[0,2325,65210,525]},"impl":true},
    {"code":1134116,"left":1134115,"right":2101007,"id":"74da3d","name":"佐野","name_kana":"さの","lat":36.316668,"lng":139.578858,"prefecture":9,"lines":[11341,21010],"attr":"eco","postal_code":"327-0846","address":"佐野市若松町","next":[1134117,1134115,2101006,2101004],"voronoi":{"lat":36.318208,"lng":139.553738,"delta_lat":[0,7478,-7853,-19071],"delta_lng":[0,-68,65210,2385]},"impl":true},
    {"code":1134115,"left":1134122,"id":"ca8997","name":"富田(栃木)","original_name":"富田","name_kana":"とみた","lat":36.316209,"lng":139.52865,"prefecture":9,"lines":[11341],"attr":"eco","postal_code":"329-4217","address":"足利市駒場町","next":[2101008,2101006,2101003,2101007,1134122,2101002,1134116,2101004],"voronoi":{"lat":36.310672,"lng":139.552131,"delta_lat":[0,-21010,-1724,94056,-20285,-26228,-9794,-7478],"delta_lng":[0,-15040,-10581,-9762,19376,15220,2325,68]},"impl":true},
    {"code":1134122,"id":"85b2fc","name":"あしかがフラワーパーク","name_kana":"あしかがふらわーぱーく","lat":36.315167,"lng":139.518611,"prefecture":9,"lines":[11341],"attr":"eco","postal_code":"329-4216","address":"栃木県足利市迫間町","open_date":"2018-04-01","next":[2100241,2101002,1134115,2100244,2100242,2101008,1134114,2100243],"voronoi":{"lat":36.299948,"lng":139.497035,"delta_lat":[0,-12499,489,94056,12500,-73059,-789,-2284],"delta_lng":[0,28097,1378,-9762,-10253,-19604,-6,380]},"impl":true},
    {"code":2101007,"id":"3aa088","name":"吉水","name_kana":"よしみず","lat":36.345621,"lng":139.579337,"prefecture":9,"lines":[21010],"attr":"eco","postal_code":"327-0314","address":"佐野市新吉水町６０-１","next":[1134117,1134115,2101008,2101009,2101006],"voronoi":{"lat":36.347082,"lng":139.621311,"delta_lat":[0,6141,8486,-26228,3738],"delta_lng":[0,-14610,-70576,15220,68060]},"impl":true},
    {"code":2101009,"left":2101008,"right":2101010,"id":"782628","name":"多田(栃木)","original_name":"多田","name_kana":"ただ","lat":36.37809,"lng":139.592984,"prefecture":9,"lines":[21010],"attr":"heat","postal_code":"327-0311","address":"佐野市多田町１２７２-２","next":[2101010,1134117,2101008,2101007,9931213],"voronoi":{"lat":36.36189,"lng":139.633055,"delta_lat":[0,-14808,6141,118868,4655],"delta_lng":[0,-11744,-14610,-118127,3969]},"impl":true},
    {"code":2101008,"id":"2f5559","name":"田沼","name_kana":"たぬま","lat":36.367094,"lng":139.581919,"prefecture":9,"lines":[21010],"attr":"eco","postal_code":"327-0312","address":"佐野市栃本町１７６６","next":[1134115,2101007,9931213,1134122,2101009,1134114],"voronoi":{"lat":36.381993,"lng":139.516748,"delta_lat":[0,-20285,-8486,118868,-3101,-74496],"delta_lng":[0,19376,70576,-118127,-2956,20878]},"impl":true},
    {"code":2101010,"id":"59628a","name":"葛生","name_kana":"くずう","lat":36.397937,"lng":139.609207,"prefecture":9,"lines":[21010],"attr":"heat","postal_code":"327-0501","address":"佐野市葛生東１-１-５","next":[2100318,2101009,1134119,1134118,2100314,2100316,1134117,2100317,2100315,9931213,9931214,9931217,9931215,2100321],"voronoi":{"lat":36.505822,"lng":139.634391,"delta_lat":[0,-28339,-24847,-13546,-32145,-561,-27475,-17020,114856,3595,39031,2524,25884,-17164],"delta_lng":[0,22836,12109,3122,2368,-120,-16731,-24921,-140512,2539,33496,2935,39109,38590]},"impl":true}
  ]
}