{
  "name":"segment29",
  "root":9953221,
  "east":136.820942,
  "west":135.816602,
  "south":35.222478,
  "north":35.947308,
  "station_size":155,
  "node_list":[
    {"code":9953221,"left":1141506,"right":1150304,"id":"2a0741","name":"東赤坂","name_kana":"ひがしあかさか","lat":35.39414,"lng":136.600971,"prefecture":21,"lines":[99532],"attr":"cool","postal_code":"503-2326","address":"安八郡神戸町大字中沢字村西１２４-６","next":[1150304,9952605,9952602,9953220,1150306,9952604,9953222],"voronoi":{"lat":35.407637,"lng":136.584726,"delta_lat":[0,-23295,1258,5882,10170,3658,305],"delta_lng":[0,9227,23455,9187,4184,-98,-97]},"impl":true},
    {"code":1141506,"left":9960102,"right":1141510,"id":"59d022","name":"河毛","name_kana":"かわけ","lat":35.448425,"lng":136.249519,"prefecture":25,"lines":[11415],"attr":"eco","postal_code":"529-0317","address":"滋賀県長浜市湖北町山脇560","next":[1160521,1141505,9953227,1150310,1141507],"voronoi":{"lat":35.53526,"lng":136.405885,"delta_lat":[0,-63602,-66335,10667,130391],"delta_lng":[0,-45616,-201434,4230,242067]},"impl":true},
    {"code":9960102,"left":1160102,"right":1150309,"id":"29be5a","name":"フジテック前","name_kana":"ふじてっくまえ","lat":35.294672,"lng":136.285465,"prefecture":25,"lines":[99601],"attr":"heat","postal_code":"522-0012","address":"彦根市甲田町３５６","next":[9960103,1160102,1150311,100215],"voronoi":{"lat":35.314922,"lng":136.242447,"delta_lat":[0,-19864,-17559,19095],"delta_lng":[0,20168,71300,-10557]},"impl":true},
    {"code":1160102,"left":9960105,"right":1160519,"id":"32d58b","name":"彦根","name_kana":"ひこね","lat":35.272216,"lng":136.263347,"prefecture":25,"lines":[11601,99601],"attr":"cool","postal_code":"522-0007","address":"彦根市古沢町","next":[1160103,1141504,9960103,9960102,1160517,100215,1160104,9960125,1141502],"voronoi":{"lat":35.326199,"lng":136.2177,"delta_lat":[0,923,-4022,-12827,-34867,-13384,33036,19864,4576],"delta_lng":[0,-63324,-1479,15783,59341,55694,-21099,-20168,-7289]},"impl":true},
    {"code":9960105,"left":1160103,"right":9960106,"id":"1e369b","name":"彦根口","name_kana":"ひこねぐち","lat":35.254741,"lng":136.25826,"prefecture":25,"lines":[99601],"attr":"heat","postal_code":"522-0038","address":"彦根市西沼波町６５５","next":[1160103,9960203,9960106,9960125],"voronoi":{"lat":35.265299,"lng":136.240594,"delta_lat":[0,-20031,1474,4375],"delta_lng":[0,16876,12023,10563]},"impl":true},
    {"code":1160103,"left":1160104,"right":1160514,"id":"fb731f","name":"南彦根","name_kana":"みなみひこね","lat":35.246097,"lng":136.248,"prefecture":25,"lines":[11601],"attr":"cool","postal_code":"522-0043","address":"彦根市小泉町","next":[9960107,1160102,9960106,9960125,9960105,1160104],"voronoi":{"lat":35.230118,"lng":136.245578,"delta_lat":[0,15149,20031,10107,34867,-79923],"delta_lng":[0,11892,-16876,-12573,-59341,72878]},"impl":true},
    {"code":1160104,"left":1160513,"id":"972179","name":"河瀬","name_kana":"かわせ","lat":35.225384,"lng":136.225285,"prefecture":25,"lines":[11601],"attr":"cool","postal_code":"522-0222","address":"彦根市南川瀬町","next":[9960107,9960108,1160102,1160517,1160103,1160105],"voronoi":{"lat":35.212364,"lng":136.231715,"delta_lat":[0,17986,79923,12827,-14884,-99512],"delta_lng":[0,9842,-72878,-15783,-10252,71275]},"impl":true},
    {"code":1160513,"id":"a37c09","name":"近江舞子","name_kana":"おうみまいこ","lat":35.236342,"lng":135.959294,"prefecture":25,"lines":[11605],"attr":"eco","postal_code":"520-0502","address":"大津市南小松","next":[1160109,1160108,1160512,1160514],"voronoi":{"lat":35.312591,"lng":135.859855,"delta_lat":[0,-143983,13612,12274],"delta_lng":[0,156650,16610,9721]},"impl":true},
    {"code":1160514,"id":"a55fee","name":"北小松","name_kana":"きたこまつ","lat":35.253384,"lng":135.970293,"prefecture":25,"lines":[11605],"attr":"eco","postal_code":"520-0501","address":"大津市北小松","next":[1160515,1160108,1160513,1160512,1160516,1142213],"voronoi":{"lat":35.332686,"lng":135.931871,"delta_lat":[0,-125761,-12431,118097,9982,29902],"delta_lng":[0,123226,-12261,-182981,-12801,54877]},"impl":true},
    {"code":9960106,"left":9960202,"right":9960125,"id":"e753a2","name":"高宮(滋賀)","original_name":"高宮","name_kana":"たかみや","lat":35.236266,"lng":136.260524,"prefecture":25,"lines":[99601,99602],"attr":"heat","postal_code":"522-0201","address":"彦根市高宮町８７６-１","next":[9960107,9960203,1160103,9960105],"voronoi":{"lat":35.245268,"lng":136.25747,"delta_lat":[0,-15149,-7997,24620],"delta_lng":[0,-11892,12405,11510]},"impl":true},
    {"code":9960202,"left":9960203,"id":"f9724d","name":"多賀大社前","name_kana":"たがたいしゃまえ","lat":35.226442,"lng":136.284077,"prefecture":25,"lines":[99602],"attr":"cool","postal_code":"522-0341","address":"犬上郡多賀町多賀１３２２","next":[9960109,9960119,9960107,9960203,9960125,9952815,9960103,9960108,3100810,1150311,9960112],"voronoi":{"lat":35.09068,"lng":136.346727,"delta_lat":[0,3885,136644,25565,-1041,-3661,-41126,-47836,-45973,-4776,-18029],"delta_lng":[0,4404,39474,-42382,-58077,-5657,-16332,15733,24729,3400,22598]},"impl":true},
    {"code":9960203,"id":"fcc438","name":"スクリーン","name_kana":"すくりーん","lat":35.233142,"lng":136.267206,"prefecture":25,"lines":[99602],"attr":"eco","postal_code":"522-0201","address":"彦根市高宮町樋ノ戸４５８-１","next":[9960106,9960107,9960125,9960202,9960105],"voronoi":{"lat":35.252073,"lng":136.28449,"delta_lat":[0,-41126,11175,24620,4375],"delta_lng":[0,-16332,-10175,11510,10563]},"impl":true},
    {"code":9960125,"id":"ad802b","name":"ひこね芹川","name_kana":"ひこねせりかわ","lat":35.262195,"lng":136.260939,"prefecture":25,"lines":[99601],"attr":"heat","postal_code":"522-0033","address":"滋賀県彦根市芹川町字矢立564-1","next":[9960203,1160103,9960103,9960202,1160102,9960105],"voronoi":{"lat":35.252073,"lng":136.28449,"delta_lat":[0,3661,6288,13384,-10107,-14182],"delta_lng":[0,5657,-6432,-55694,12573,39462]},"impl":true},
    {"code":1160519,"left":1160517,"right":1141504,"id":"81d234","name":"近江中庄","name_kana":"おうみなかしょう","lat":35.441648,"lng":136.038374,"prefecture":25,"lines":[11605],"attr":"heat","postal_code":"520-1823","address":"高島市マキノ町中庄","next":[1142216,1142214,1142217,1160518,1160520],"voronoi":{"lat":35.432279,"lng":135.945291,"delta_lat":[0,8229,42797,30977,-102357],"delta_lng":[0,2124,22428,21234,94625]},"impl":true},
    {"code":1160517,"left":1160516,"right":1160518,"id":"f56fe8","name":"新旭","name_kana":"しんあさひ","lat":35.355902,"lng":136.035796,"prefecture":25,"lines":[11605],"attr":"eco","postal_code":"520-1501","address":"高島市新旭町旭","next":[1141504,1160518,1160521,1160516,1160102,1160520,1141505,1160104,1160105],"voronoi":{"lat":35.28733,"lng":136.122559,"delta_lat":[0,83713,15836,-837,-395,-2441,-56084,-4022,-14884],"delta_lng":[0,-144610,165726,3679,653,756,5612,-1479,-10252]},"impl":true},
    {"code":1160516,"left":1160515,"id":"a9d0f9","name":"安曇川","name_kana":"あどがわ","lat":35.32842,"lng":136.019887,"prefecture":25,"lines":[11605],"attr":"eco","postal_code":"520-1212","address":"高島市安曇川町西万木","next":[1142213,1160105,1160517,1160518,1160514,1160515],"voronoi":{"lat":35.332686,"lng":135.931871,"delta_lat":[0,19789,27868,-9300,-83713,-4508],"delta_lng":[0,-29940,22955,53063,144610,-3231]},"impl":true},
    {"code":1160515,"id":"258a49","name":"近江高島","name_kana":"おうみたかしま","lat":35.292657,"lng":136.010374,"prefecture":25,"lines":[11605],"attr":"eco","postal_code":"520-1121","address":"高島市勝野","next":[1160108,1160514,1160107,1160106,1160105,1160516],"voronoi":{"lat":35.332686,"lng":135.931871,"delta_lat":[0,-125761,6234,9818,49068,10777],"delta_lng":[0,123226,11469,11976,35556,5230]},"impl":true},
    {"code":1160518,"id":"9e64b5","name":"近江今津","name_kana":"おうみいまづ","lat":35.396864,"lng":136.031882,"prefecture":25,"lines":[11605],"attr":"eco","postal_code":"520-1631","address":"高島市今津町名小路","next":[1160517,1142214,1160516,1160519,1142213,1160520],"voronoi":{"lat":35.411925,"lng":136.085702,"delta_lat":[0,20354,-4396,-47540,-9300,15836],"delta_lng":[0,-140411,-2384,-18021,53063,165726]},"impl":true},
    {"code":1141504,"left":9960103,"right":1141505,"id":"767ed7","name":"長浜","name_kana":"ながはま","lat":35.378828,"lng":136.264901,"prefecture":25,"lines":[11415],"attr":"cool","postal_code":"526-0057","address":"長浜市北船町","next":[1160517,1150310,1160102,1141502,1141505,1141503],"voronoi":{"lat":35.412534,"lng":136.327131,"delta_lat":[0,-29328,-56084,-923,1027,80010],"delta_lng":[0,-178368,5612,63324,1936,106546]},"impl":true},
    {"code":9960103,"left":1141503,"id":"c358b7","name":"鳥居本","name_kana":"とりいもと","lat":35.284788,"lng":136.283031,"prefecture":25,"lines":[99601],"attr":"heat","postal_code":"522-0004","address":"彦根市鳥居本町６５７","next":[9960102,1160102,9960125,9960202,1150311],"voronoi":{"lat":35.255733,"lng":136.290146,"delta_lat":[0,6288,33036,-17559,-20724],"delta_lng":[0,-6432,-21099,71300,14308]},"impl":true},
    {"code":1141503,"id":"059e7b","name":"田村","name_kana":"たむら","lat":35.356307,"lng":136.281813,"prefecture":25,"lines":[11415],"attr":"cool","postal_code":"526-0829","address":"長浜市田村町","next":[1150311,1150310,1141502,1141504],"voronoi":{"lat":35.327226,"lng":136.219636,"delta_lat":[0,28961,16391,34658],"delta_lng":[0,100262,7415,-1131]},"impl":true},
    {"code":1141505,"id":"cdb391","name":"虎姫","name_kana":"とらひめ","lat":35.424539,"lng":136.257385,"prefecture":25,"lines":[11415],"attr":"cool","postal_code":"529-0144","address":"滋賀県長浜市大寺町細田1043","next":[1141506,1160521,1160517,1141504,1150310],"voronoi":{"lat":35.412534,"lng":136.327131,"delta_lat":[0,-29328,2441,19677,66335],"delta_lng":[0,-178368,-756,10827,201434]},"impl":true},
    {"code":1150309,"left":9953212,"right":9953224,"id":"7f8c01","name":"柏原(滋賀)","original_name":"柏原","name_kana":"かしわばら","lat":35.344593,"lng":136.402767,"prefecture":25,"lines":[11503],"attr":"cool","postal_code":"521-0202","address":"米原市柏原","next":[1150310,1150308,9953211,1150311,9952815],"voronoi":{"lat":35.240806,"lng":136.401951,"delta_lat":[0,87473,85634,-147284,-132],"delta_lng":[0,-25694,43461,41634,-49]},"impl":true},
    {"code":9953212,"left":1150311,"right":9953214,"id":"e3a103","name":"美濃高田","name_kana":"みのたかだ","lat":35.309074,"lng":136.563602,"prefecture":21,"lines":[99532],"attr":"heat","postal_code":"503-1314","address":"養老郡養老町高田字古宮８４２-４","next":[1150305,1150307,1150308,9953216,9953213,9953214,9953211,9953215],"voronoi":{"lat":35.318338,"lng":136.579378,"delta_lat":[0,-25269,22155,1764,28632,-3294,-1636,-13787],"delta_lng":[0,-3287,-71488,1034,53550,10779,1405,6481]},"impl":true},
    {"code":1150311,"left":9953211,"right":1141502,"id":"e7f106","name":"醒ヶ井","name_kana":"さめがい","lat":35.327664,"lng":136.345135,"prefecture":25,"lines":[11503],"attr":"eco","postal_code":"521-0035","address":"滋賀県米原市醒井619","next":[1141503,1141502,1150309,1150310,9960102,9952815,9960103,9960202,100215],"voronoi":{"lat":35.328098,"lng":136.315927,"delta_lat":[0,28088,16391,-44299,-87473,-9596,25565,20724,19095],"delta_lng":[0,3971,7415,48945,25694,-11346,-42382,-14308,-10557]},"impl":true},
    {"code":9953211,"left":100215,"id":"f50eae","name":"養老","name_kana":"ようろう","lat":35.28693,"lng":136.556739,"prefecture":21,"lines":[99532],"attr":"eco","postal_code":"503-1261","address":"養老郡養老町鷲巣白石道１２００","next":[9953210,1150309,9953213,1150308,9953212,9952815],"voronoi":{"lat":35.275773,"lng":136.585057,"delta_lat":[0,17296,22155,-48595,-132,-17928],"delta_lng":[0,-8967,-71488,-43250,-49,26601]},"impl":true},
    {"code":100215,"id":"85e377","name":"米原","name_kana":"まいばら","lat":35.314657,"lng":136.289992,"prefecture":25,"lines":[1002,11415,11503,11601,99601],"attr":"cool","postal_code":"521-0012","address":"米原市米原","next":[1141502,1160102,9960102,1150311],"voronoi":{"lat":35.314922,"lng":136.242447,"delta_lat":[0,4576,8601,-31505],"delta_lng":[0,-7289,80768,7432]},"impl":true},
    {"code":1141502,"id":"710631","name":"坂田","name_kana":"さかた","lat":35.335777,"lng":136.287743,"prefecture":25,"lines":[11415],"attr":"cool","postal_code":"521-0062","address":"米原市宇賀野","next":[100215,1150311,1141504,1141503,1160102],"voronoi":{"lat":35.328098,"lng":136.315927,"delta_lat":[0,28088,-28961,-1027,-6701],"delta_lng":[0,3971,-100262,-1936,17459]},"impl":true},
    {"code":9953214,"left":9953213,"right":9953215,"id":"2134f7","name":"大外羽","name_kana":"おおとば","lat":35.315092,"lng":136.597382,"prefecture":21,"lines":[99532],"attr":"heat","postal_code":"503-0963","address":"大垣市西大外羽３-２８","next":[9953212,9953213,9953215,100214],"voronoi":{"lat":35.30855,"lng":136.641497,"delta_lat":[0,18353,-8565,-32756],"delta_lng":[0,-63645,1526,62304]},"impl":true},
    {"code":9953213,"left":9953210,"id":"525b4c","name":"烏江","name_kana":"からすえ","lat":35.305346,"lng":136.592258,"prefecture":21,"lines":[99532],"attr":"heat","postal_code":"503-1315","address":"養老郡養老町烏江１０７４-１","next":[9953209,100214,9953211,9953210,9953212,9953214],"voronoi":{"lat":35.318338,"lng":136.579378,"delta_lat":[0,-25269,-17296,-10037,5079,14767],"delta_lng":[0,-3287,8967,21094,37186,-1656]},"impl":true},
    {"code":9953210,"id":"c7a638","name":"美濃津屋","name_kana":"みのつや","lat":35.251532,"lng":136.566651,"prefecture":21,"lines":[99532],"attr":"eco","postal_code":"503-0401","address":"海津市南濃町津屋借畑２６９３-５","next":[9953211,9953209,9952814,9953213,9952913,9952815],"voronoi":{"lat":35.248568,"lng":136.487904,"delta_lat":[0,27204,-10037,-71292,9363,14288],"delta_lng":[0,97153,21094,-53718,-20613,-15959]},"impl":true},
    {"code":9953215,"id":"b8d017","name":"友江","name_kana":"ともえ","lat":35.326501,"lng":136.600672,"prefecture":21,"lines":[99532],"attr":"heat","postal_code":"503-0955","address":"大垣市友江町２２１","next":[100214,9953216,9953214,9953212],"voronoi":{"lat":35.30855,"lng":136.641497,"delta_lat":[0,18882,13258,-13787],"delta_lng":[0,2382,-72508,6481]},"impl":true},
    {"code":9953224,"left":1150307,"right":1150306,"id":"a79c2a","name":"池野","name_kana":"いけの","lat":35.436512,"lng":136.578712,"prefecture":21,"lines":[99532],"attr":"cool","postal_code":"503-2424","address":"揖斐郡池田町池野２５９-４","next":[1150306,9953226,1150307,9953223,9953225],"voronoi":{"lat":35.413471,"lng":136.540286,"delta_lat":[0,-4220,2144,41889,-921],"delta_lng":[0,5950,31272,17342,-1787]},"impl":true},
    {"code":1150307,"left":1150308,"right":9953225,"id":"195864","name":"垂井","name_kana":"たるい","lat":35.369587,"lng":136.531246,"prefecture":21,"lines":[11503],"attr":"eco","postal_code":"503-2100","address":"不破郡垂井町東町","next":[1150308,9953212,9953224,9953226,1150306,1150305,9953225],"voronoi":{"lat":35.429521,"lng":136.512381,"delta_lat":[0,9347,-121881,28632,32199,31432,4220],"delta_lng":[0,-18494,11750,53550,-2394,-10557,-5950]},"impl":true},
    {"code":1150308,"left":1150310,"id":"ca3ea0","name":"関ヶ原","name_kana":"せきがはら","lat":35.363726,"lng":136.470451,"prefecture":21,"lines":[11503],"attr":"eco","postal_code":"503-1501","address":"岐阜県不破郡関ケ原町関ヶ原","next":[1150307,1150310,1150309,9953226,9953212,9953211,9953227],"voronoi":{"lat":35.438869,"lng":136.493887,"delta_lat":[0,-121881,-1764,-48595,147284,105188,-55559],"delta_lng":[0,11750,-1034,-43250,-41634,-4809,58010]},"impl":true},
    {"code":1150310,"id":"99939f","name":"近江長岡","name_kana":"おうみながおか","lat":35.359307,"lng":136.373775,"prefecture":25,"lines":[11503],"attr":"cool","postal_code":"521-0242","address":"米原市長岡","next":[1150308,1150309,1141504,1150311,1141503,1141506,1141505,9953227],"voronoi":{"lat":35.413912,"lng":136.419718,"delta_lat":[0,-85634,44299,34658,5298,59125,63602,-16160],"delta_lng":[0,-43461,-48945,-1131,950,33137,45616,9025]},"impl":true},
    {"code":9953225,"id":"6946a6","name":"北池野","name_kana":"きたいけの","lat":35.44335,"lng":136.573673,"prefecture":21,"lines":[99532],"attr":"cool","postal_code":"503-2417","address":"揖斐郡池田町本郷１５１５","next":[9953226,1150307,9953224],"voronoi":{"lat":35.413471,"lng":136.540286,"delta_lat":[0,16051,22841],"delta_lng":[0,-27905,80682]},"impl":true},
    {"code":1150306,"left":1150305,"right":9953223,"id":"a9ee3b","name":"美濃赤坂","name_kana":"みのあかさか","lat":35.386677,"lng":136.582129,"prefecture":21,"lines":[11503],"attr":"eco","postal_code":"503-2213","address":"大垣市赤坂町","next":[1150305,9953222,9953223,9953224,9953220,9953221,1150307],"voronoi":{"lat":35.38087,"lng":136.591972,"delta_lat":[0,3472,23295,3219,539,-2144,-31432],"delta_lng":[0,1981,-9227,-5316,-1903,-31272,10557]},"impl":true},
    {"code":1150305,"id":"9abeda","name":"荒尾(岐阜)","original_name":"荒尾","name_kana":"あらお","lat":35.373454,"lng":136.583276,"prefecture":21,"lines":[11503],"attr":"eco","postal_code":"503-0034","address":"大垣市荒尾町","next":[1150306,9953212,9953220,9953217,9953216,1150307],"voronoi":{"lat":35.377818,"lng":136.556793,"delta_lat":[0,3051,-13900,-15555,-9089,3294],"delta_lng":[0,35180,1408,-10187,-13228,-10779]},"impl":true},
    {"code":9953223,"id":"1883a1","name":"北神戸","name_kana":"きたごうど","lat":35.430013,"lng":136.59441,"prefecture":21,"lines":[99532],"attr":"cool","postal_code":"503-2306","address":"安八郡神戸町大字北一色字別当野５７５-２","next":[1150306,9953222,9953224,9952607,9953226,9953227,9952608],"voronoi":{"lat":35.47077,"lng":136.621438,"delta_lat":[0,-11641,-5845,-41889,-539,37603,10405],"delta_lng":[0,-21449,-5140,-17342,1903,50694,-3467]},"impl":true},
    {"code":1141510,"left":1141511,"right":1141517,"id":"d87339","name":"近江塩津","name_kana":"おうみしおつ","lat":35.53978,"lng":136.151236,"prefecture":25,"lines":[11415,11605],"attr":"heat","postal_code":"529-0706","address":"滋賀県長浜市西浅井町余245","next":[1141509,1160521,1141511],"voronoi":{"lat":35.54427,"lng":136.101461,"delta_lat":[0,-47868,125997],"delta_lng":[0,67758,16200]},"impl":true},
    {"code":1141511,"left":1142217,"right":1142223,"id":"41f63b","name":"新疋田","name_kana":"しんひきだ","lat":35.594239,"lng":136.100558,"prefecture":18,"lines":[11415],"attr":"heat","postal_code":"914-0302","address":"敦賀市疋田","next":[1142222,1141513,1141509,1142223,1160521,1141512,1141510,1160520],"voronoi":{"lat":35.539239,"lng":136.04304,"delta_lat":[0,17773,66384,36555,-13808,-23743,-78129,-9794],"delta_lng":[0,5573,48082,76737,26772,-14784,-83958,-42913]},"impl":true},
    {"code":1142217,"left":1142215,"right":1142218,"id":"277241","name":"藤井","name_kana":"ふじい","lat":35.532198,"lng":135.906274,"prefecture":18,"lines":[11422],"attr":"eco","postal_code":"919-1311","address":"三方上中郡若狭町藤井","next":[1142221,1142218,1142215,1160519,1160520,1142216],"voronoi":{"lat":35.543102,"lng":135.869503,"delta_lat":[0,6136,-15717,-8816,-10424,-30977],"delta_lng":[0,-4261,121547,9093,-4805,-21234]},"impl":true},
    {"code":1142215,"left":1142214,"right":1142216,"id":"8d2d75","name":"大鳥羽","name_kana":"おおとば","lat":35.504839,"lng":135.866872,"prefecture":18,"lines":[11422],"attr":"eco","postal_code":"919-1504","address":"三方上中郡若狭町大鳥羽","next":[1142218,1142211,1142214,1142217,1142219,1142216,1142212],"voronoi":{"lat":35.527392,"lng":135.816571,"delta_lat":[0,63358,-20024,-21487,-6136,-46416,-4037],"delta_lng":[0,-14474,37575,25570,4261,17353,-51789]},"impl":true},
    {"code":1142214,"left":1142213,"id":"52162f","name":"若狭有田","name_kana":"わかさありた","lat":35.485536,"lng":135.868377,"prefecture":18,"lines":[11422],"attr":"eco","postal_code":"919-1507","address":"三方上中郡若狭町有田","next":[1160519,1142213,1160518,1142212,1142215,1142216],"voronoi":{"lat":35.496687,"lng":135.886856,"delta_lat":[0,-4037,-2805,-61962,4396,8229],"delta_lng":[0,-51789,572,107268,2384,2124]},"impl":true},
    {"code":1142213,"id":"6e80da","name":"上中","name_kana":"かみなか","lat":35.463638,"lng":135.855728,"prefecture":18,"lines":[11422],"attr":"heat","postal_code":"919-1542","address":"三方上中郡若狭町井ノ口","next":[1160511,1142212,1160516,1160512,1142214,1160518,1160514],"voronoi":{"lat":35.380342,"lng":135.924886,"delta_lat":[0,47540,61962,-180661,9469,3920,29902],"delta_lng":[0,18021,-107268,-35109,35727,10797,54877]},"impl":true},
    {"code":1142216,"id":"02cb24","name":"十村","name_kana":"とむら","lat":35.51595,"lng":135.896591,"prefecture":18,"lines":[11422],"attr":"eco","postal_code":"919-1316","address":"三方上中郡若狭町井崎","next":[1160519,1142214,1142215,1142217],"voronoi":{"lat":35.543102,"lng":135.869503,"delta_lat":[0,-46416,-56179,42797],"delta_lng":[0,17353,60559,22428]},"impl":true},
    {"code":1142218,"left":1160521,"right":1142219,"id":"7473bb","name":"三方","name_kana":"みかた","lat":35.555282,"lng":135.909259,"prefecture":18,"lines":[11422],"attr":"eco","postal_code":"919-1303","address":"三方上中郡若狭町三方","next":[1142215,1142217,1142221,1142219,1142220],"voronoi":{"lat":35.569785,"lng":135.941959,"delta_lat":[0,940,-21487,-15717,20312],"delta_lng":[0,-102287,25570,121547,-15631]},"impl":true},
    {"code":1160521,"left":1160520,"id":"cb9cd9","name":"永原","name_kana":"ながはら","lat":35.498857,"lng":136.122326,"prefecture":25,"lines":[11605],"attr":"heat","postal_code":"529-0721","address":"滋賀県長浜市西浅井町大浦字羽部1098-4","next":[1141510,1141506,1160517,1141509,1141508,1141511,1141505,1141507,1160520],"voronoi":{"lat":35.534477,"lng":136.058549,"delta_lat":[0,9794,-47868,-8195,-24774,-47443,-10667,-19677,395],"delta_lng":[0,42913,67758,3807,1764,-11726,-4230,-10827,-653]},"impl":true},
    {"code":1160520,"id":"abc73c","name":"マキノ","name_kana":"まきの","lat":35.461437,"lng":136.05978,"prefecture":25,"lines":[11605],"attr":"heat","postal_code":"520-1812","address":"高島市マキノ町西浜","next":[1142221,1142222,1160517,1142217,1160519,1160518,1141511,1160521],"voronoi":{"lat":35.386878,"lng":136.143675,"delta_lat":[0,25046,102357,10424,8208,6325,-4762,-148435],"delta_lng":[0,-57973,-94625,4805,16889,30268,15509,88806]},"impl":true},
    {"code":1142219,"id":"7eedd0","name":"気山","name_kana":"きやま","lat":35.584887,"lng":135.909531,"prefecture":18,"lines":[11422],"attr":"eco","postal_code":"919-1301","address":"三方上中郡若狭町気山","next":[1142206,9942812,1142218,1142211,1142208,1142210,1142220,1142215],"voronoi":{"lat":35.569785,"lng":135.941959,"delta_lat":[0,310796,29897,-72659,-593,-225363,-21114,-20024],"delta_lng":[0,-233412,-72642,21318,254,128243,16377,37575]},"impl":true},
    {"code":1142223,"left":1142222,"right":9942809,"id":"3a4dae","name":"西敦賀","name_kana":"にしつるが","lat":35.617975,"lng":136.067787,"prefecture":18,"lines":[11422],"attr":"eco","postal_code":"914-0035","address":"敦賀市山泉","next":[1142222,1141512,1141511],"voronoi":{"lat":35.6395,"lng":136.047106,"delta_lat":[0,-82489,66384],"delta_lng":[0,1506,48082]},"impl":true},
    {"code":1142222,"left":1142221,"right":9942811,"id":"3cee9e","name":"粟野","name_kana":"あわの","lat":35.617234,"lng":136.027225,"prefecture":18,"lines":[11422],"attr":"eco","postal_code":"914-0145","address":"敦賀市野坂","next":[1142223,1141512,1141511,1142221,1160520],"voronoi":{"lat":35.532914,"lng":136.012771,"delta_lat":[0,194779,-88192,-82489,-17773],"delta_lng":[0,-14956,49291,1506,-5573]},"impl":true},
    {"code":1142221,"left":1142220,"id":"3deafc","name":"東美浜","name_kana":"ひがしみはま","lat":35.614039,"lng":135.985614,"prefecture":18,"lines":[11422],"attr":"eco","postal_code":"919-1206","address":"三方郡美浜町太田","next":[9942811,1160520,1142220,1142217,1142218,1142222,1141512],"voronoi":{"lat":35.532914,"lng":136.012771,"delta_lat":[0,-8208,8816,20312,246584,-12249,-60476],"delta_lng":[0,-16889,-9093,-15631,-44685,50893,20449]},"impl":true},
    {"code":1142220,"id":"a6b8d0","name":"美浜","name_kana":"みはま","lat":35.605138,"lng":135.936496,"prefecture":18,"lines":[11422],"attr":"eco","postal_code":"919-1122","address":"三方郡美浜町松原","next":[1142221,9942811,1142219,1142218,9942812],"voronoi":{"lat":35.800418,"lng":135.926474,"delta_lat":[0,-246584,15952,310796,-43679],"delta_lng":[0,44685,-29199,-233412,122214]},"impl":true},
    {"code":9942811,"id":"1ee9ae","name":"江波(福井)","original_name":"江波","name_kana":"えなみ","closed":true,"lat":35.939474,"lng":136.063943,"prefecture":18,"lines":[99428],"attr":"unknown","postal_code":"916-0255","address":"福井県丹生郡越前町江波２４−４４−１","next":[1142221,9942812,1142220,9942809,1141517,1141512,9942810],"voronoi":{"lat":35.947158,"lng":136.067819,"delta_lat":[0,-110256,-36485,-12249,2406,65565,44212],"delta_lng":[0,-237057,95712,50893,56524,47224,-2901]},"impl":true},
    {"code":9942809,"left":9942807,"right":9942810,"id":"c19bb0","name":"樫津","name_kana":"かしづ","closed":true,"lat":35.941003,"lng":136.087252,"prefecture":18,"lines":[99428],"attr":"unknown","postal_code":"916-0272","address":"福井県丹生郡越前町樫津４−５","next":[9942813,9942807,9942806,9942811,9942810,1141517],"voronoi":{"lat":35.85614,"lng":136.081114,"delta_lat":[0,44212,64737,14953,-26065,-84475],"delta_lng":[0,-2901,4262,9228,10073,-7914]},"impl":true},
    {"code":9942807,"left":1141512,"id":"598078","name":"陶の谷","name_kana":"すえのたに","closed":true,"lat":35.938531,"lng":136.113638,"prefecture":18,"lines":[99428],"attr":"unknown","postal_code":"916-0266","address":"福井県丹生郡越前町寺３−５−３","next":[9942124,9942804,9942809,9942806,9942102,1141517,9942103],"voronoi":{"lat":35.934134,"lng":136.142469,"delta_lat":[0,19842,-84475,19675,30530,12459,1935],"delta_lng":[0,-40692,-7914,27367,16392,4447,426]},"impl":true},
    {"code":1141512,"id":"0c82ef","name":"敦賀","name_kana":"つるが","lat":35.644767,"lng":136.076488,"prefecture":18,"lines":[11415,11422],"attr":"heat","postal_code":"914-0055","address":"敦賀市鉄輪町１丁目","next":[1142223,1142222,1142221,1141511,1141513,9942811,1141517],"voronoi":{"lat":35.790574,"lng":136.03389,"delta_lat":[0,-2406,-60476,-88192,-16105,36555,128145],"delta_lng":[0,-56524,20449,49291,49588,76737,-133381]},"impl":true},
    {"code":9942810,"id":"726303","name":"下江波","name_kana":"しもえなみ","closed":true,"lat":35.941837,"lng":136.074583,"prefecture":18,"lines":[99428],"attr":"unknown","postal_code":"916-0255","address":"福井県丹生郡越前町江波７７−８","next":[9942812,9942809,9942813,9942811],"voronoi":{"lat":35.947158,"lng":136.067819,"delta_lat":[0,7530,10400,-64737],"delta_lng":[0,3635,11022,-4262]},"impl":true},
    {"code":1141517,"left":1141514,"right":1141518,"id":"74f1cd","name":"王子保","name_kana":"おうしお","lat":35.866259,"lng":136.165595,"prefecture":18,"lines":[11415],"attr":"cool","postal_code":"915-0857","address":"越前市四郎丸町","next":[1141516,1141518,1141515,9942811,9942809,1141513,9942807,9942102,1141512],"voronoi":{"lat":35.797532,"lng":136.093743,"delta_lat":[0,20763,59718,10739,424,-19675,-13362,-65565,-2479],"delta_lng":[0,47725,73698,-74706,-19230,-27367,-12748,-47224,6160]},"impl":true},
    {"code":1141514,"left":1141515,"right":1141507,"id":"6b869e","name":"今庄","name_kana":"いまじょう","lat":35.772947,"lng":136.199279,"prefecture":18,"lines":[11415],"attr":"heat","postal_code":"919-0131","address":"南条郡南越前町今庄","next":[1141513,9952619,1141516,1142112,1142116,1141508,1141509,1141515,1142113,1142110],"voronoi":{"lat":35.819952,"lng":136.371726,"delta_lat":[0,-4177,-32522,-130672,-358,2395,110678,14750,15925,7645],"delta_lng":[0,-41861,-157132,139353,50612,28505,36621,-10425,-15192,-8252]},"impl":true},
    {"code":1141515,"left":1141509,"right":1141516,"id":"02698d","name":"湯尾","name_kana":"ゆのお","lat":35.803251,"lng":136.193007,"prefecture":18,"lines":[11415],"attr":"heat","postal_code":"919-0101","address":"南条郡南越前町湯尾","next":[1141516,1141513,1141517,1141514],"voronoi":{"lat":35.783254,"lng":136.172732,"delta_lat":[0,14279,20763,-2520],"delta_lng":[0,-78990,47725,188397]},"impl":true},
    {"code":1141509,"left":1141513,"id":"28d2d7","name":"余呉","name_kana":"よご","lat":35.53382,"lng":136.197591,"prefecture":25,"lines":[11415],"attr":"heat","postal_code":"529-0521","address":"滋賀県長浜市余呉町下余呉1727","next":[1141510,1141508,1141511,1160521,1141514,1141513],"voronoi":{"lat":35.652224,"lng":136.362697,"delta_lat":[0,-164016,8195,125997,23743,6439],"delta_lng":[0,-189671,-3807,16200,14784,111882]},"impl":true},
    {"code":1141513,"id":"749058","name":"南今庄","name_kana":"みなみいまじょう","lat":35.757424,"lng":136.184723,"prefecture":18,"lines":[11415],"attr":"heat","postal_code":"919-0132","address":"南条郡南越前町南今庄","next":[1141514,1141511,1141515,1141509,1141512,1141517],"voronoi":{"lat":35.783254,"lng":136.172732,"delta_lat":[0,-130672,-6439,13808,128145,9437],"delta_lng":[0,139353,-111882,-26772,-133381,53692]},"impl":true},
    {"code":1141516,"id":"9d7997","name":"南条","name_kana":"なんじょう","lat":35.831956,"lng":136.193391,"prefecture":18,"lines":[11415],"attr":"cool","postal_code":"919-0224","address":"南条郡南越前町西大道","next":[1141518,1141514,1141515,1142106,1141517,1142110,1141519],"voronoi":{"lat":35.888691,"lng":136.305021,"delta_lat":[0,-68738,-4177,2520,59718,12198,1845],"delta_lng":[0,66705,-41861,-188397,73698,38693,45282]},"impl":true},
    {"code":1141507,"left":9953227,"right":1141508,"id":"2466b5","name":"高月","name_kana":"たかつき","lat":35.470337,"lng":136.237716,"prefecture":25,"lines":[11415],"attr":"eco","postal_code":"529-0241","address":"滋賀県長浜市高月町落川33-26","next":[1160521,1141508,1141506,9953227],"voronoi":{"lat":35.546381,"lng":136.405131,"delta_lat":[0,-130391,47443,103601],"delta_lng":[0,-242067,11726,230342]},"impl":true},
    {"code":9953227,"left":9953226,"id":"6c6f9b","name":"揖斐","name_kana":"いび","lat":35.470314,"lng":136.572536,"prefecture":21,"lines":[99532],"attr":"cool","postal_code":"501-0622","address":"揖斐郡揖斐川町脛永字山王元４３４","next":[9952617,9953226,9952612,9952609,9952615,9952608,9952613,1141506,9952618,1141508,9953223,9952616,9952619,9952611,1141507,1150308,1150310],"voronoi":{"lat":35.53526,"lng":136.405885,"delta_lat":[0,11121,20653,34423,-16713,-11489,-9483,-13830,-10359,-6445,-38908,-16982,-1288,-5191,-11641,4413,55559],"delta_lng":[0,-753,1,3495,63628,35130,23404,26287,15454,6722,31973,10381,228,-396,-21449,-127070,-58010]},"impl":true},
    {"code":9953226,"id":"53fb6e","name":"美濃本郷","name_kana":"みのほんごう","lat":35.449874,"lng":136.571826,"prefecture":21,"lines":[99532],"attr":"cool","postal_code":"503-2417","address":"揖斐郡池田町本郷５５０","next":[9953227,1150308,9953224,1150307,9953223,9953225],"voronoi":{"lat":35.429521,"lng":136.512381,"delta_lat":[0,9347,24673,-4413,-5845,-921],"delta_lng":[0,-18494,-20967,127070,-5140,-1787]},"impl":true},
    {"code":1141508,"id":"0132bd","name":"木ノ本","name_kana":"きのもと","lat":35.505933,"lng":136.221706,"prefecture":25,"lines":[11415],"attr":"eco","postal_code":"529-0425","address":"滋賀県長浜市木之本町木之本1543","next":[1141509,1160521,9952619,1141514,9953227,1141507],"voronoi":{"lat":35.463433,"lng":136.17479,"delta_lat":[0,24774,164016,2395,-53161,-34423],"delta_lng":[0,-1764,189671,28505,17425,-3495]},"impl":true},
    {"code":1141518,"left":9942124,"right":1141519,"id":"4a2571","name":"武生","name_kana":"たけふ","lat":35.903254,"lng":136.170913,"prefecture":18,"lines":[11415],"attr":"cool","postal_code":"915-0071","address":"越前市府中１丁目","next":[9942104,1141516,1141519,9942102,1141517,9942101],"voronoi":{"lat":35.910147,"lng":136.209295,"delta_lat":[0,-19935,-12198,10739,14681,8183],"delta_lng":[0,44564,-38693,-74706,23153,40619]},"impl":true},
    {"code":9942124,"left":9942101,"right":9942103,"id":"88d072","name":"スポーツ公園","name_kana":"すぽーつこうえん","lat":35.919093,"lng":136.168105,"prefecture":18,"lines":[99421],"attr":"cool","postal_code":"915-0801","address":"福井県越前市家久町99-15","open_date":"2010-03-25","next":[9942807,9942101,9942102,9942103],"voronoi":{"lat":35.913521,"lng":136.173637,"delta_lat":[0,6185,12459,-16197],"delta_lng":[0,-36016,4447,45863]},"impl":true},
    {"code":9942101,"left":9942102,"id":"3cf20e","name":"越前武生","name_kana":"えちぜんたけふ","lat":35.906426,"lng":136.170274,"prefecture":18,"lines":[99421],"attr":"heat","postal_code":"915-0071","address":"福井県越前市府中3丁目","open_date":"1924-02-23","next":[9942102,9942104,9942124,9942103,1141518],"voronoi":{"lat":35.903434,"lng":136.163612,"delta_lat":[0,10088,2447,-50,-4302],"delta_lng":[0,10025,14294,3721,12579]},"impl":true},
    {"code":9942102,"id":"2887b1","name":"北府","name_kana":"きたご","lat":35.910114,"lng":136.166563,"prefecture":18,"lines":[99421],"attr":"heat","postal_code":"915-0802","address":"福井県越前市北府2丁目","open_date":"1924-02-23","next":[9942101,9942124,1141518,9942807,1141517],"voronoi":{"lat":35.903434,"lng":136.163612,"delta_lat":[0,10088,6185,-30530,-424],"delta_lng":[0,10025,-36016,-16392,19230]},"impl":true},
    {"code":9942103,"id":"c344b1","name":"家久","name_kana":"いえひさ","lat":35.925988,"lng":136.17054,"prefecture":18,"lines":[99421],"attr":"heat","postal_code":"915-0801","address":"越前市家久町","next":[9942101,9942803,9942104,9942124,9942804,9942807],"voronoi":{"lat":35.932165,"lng":136.142068,"delta_lat":[0,-16197,-50,27170,-1563,-7425],"delta_lng":[0,45863,3721,-28531,-9413,-11214]},"impl":true},
    {"code":1141519,"left":9942104,"right":9942105,"id":"36de74","name":"鯖江","name_kana":"さばえ","lat":35.943355,"lng":136.188852,"prefecture":18,"lines":[11415,99428],"attr":"cool","postal_code":"916-0053","address":"鯖江市日の出町","next":[1142106,9942105,1141518,1141520,1141516,9942104,9942802],"voronoi":{"lat":35.929776,"lng":136.274704,"delta_lat":[0,-37719,-1845,19935,30944,4046,2261],"delta_lng":[0,24437,-45282,-44564,-25541,1745,37549]},"impl":true},
    {"code":9942104,"id":"54aba5","name":"サンドーム西","name_kana":"さんどーむにし","lat":35.936514,"lng":136.180564,"prefecture":18,"lines":[99421],"attr":"eco","postal_code":"916-0054","address":"福井県鯖江市舟津町","open_date":"1929-08-13","next":[1141518,9942105,9942101,9942803,1141519,9942103],"voronoi":{"lat":35.911616,"lng":136.204231,"delta_lat":[0,-1470,30944,2660,-662,-27170],"delta_lng":[0,5063,-25541,-19589,-1043,28531]},"impl":true},
    {"code":9942105,"id":"59f08e","name":"西鯖江","name_kana":"にしさばえ","lat":35.946352,"lng":136.1819,"prefecture":18,"lines":[99421],"attr":"eco","postal_code":"916-0027","address":"鯖江市桜町１-３-１３","next":[9942104,1141519,9942802,9942106,9942803,9942107],"voronoi":{"lat":35.95501,"lng":136.174142,"delta_lat":[0,-11259,-2660,4046,3528,6250],"delta_lng":[0,-9978,19589,1745,-503,-9669]},"impl":true},
    {"code":1150304,"left":3001422,"right":9952608,"id":"a172c9","name":"大垣","name_kana":"おおがき","lat":35.367096,"lng":136.618288,"prefecture":21,"lines":[11503,99526,99532],"attr":"cool","postal_code":"503-0901","address":"大垣市高屋町１丁目","next":[9953221,9953219,9953216,9953217,9953220,9952602],"voronoi":{"lat":35.352268,"lng":136.616031,"delta_lat":[0,8510,14868,9954,5882,-55697],"delta_lng":[0,-3876,216,5037,9187,16173]},"impl":true},
    {"code":3001422,"left":100214,"right":1150237,"id":"7498e6","name":"奥町","name_kana":"おくちょう","lat":35.32434,"lng":136.761092,"prefecture":23,"lines":[30014],"attr":"eco","postal_code":"491-0201","address":"一宮市奥町字南目草３０-１","next":[3002006,3001421,3001415,3000153,3001416,3001423],"voronoi":{"lat":35.331875,"lng":136.77153,"delta_lat":[0,-28113,-1984,671,21518,8914],"delta_lng":[0,-10979,-15473,-9346,4732,30095]},"impl":true},
    {"code":100214,"left":3001411,"right":3002006,"id":"229258","name":"岐阜羽島","name_kana":"ぎふはしま","lat":35.3158,"lng":136.685501,"prefecture":21,"lines":[1002],"attr":"cool","postal_code":"501-6257","address":"岐阜県羽島市福寿町平方","next":[9953215,9953213,9952602,9953214,3002102,3002008,9953216,9953209],"voronoi":{"lat":35.270814,"lng":136.643337,"delta_lat":[0,14767,22968,18882,4696,21331,-26686,-76365],"delta_lng":[0,-1656,-185,2382,1598,32707,11248,-23242]},"impl":true},
    {"code":3001411,"left":3002009,"right":3001414,"id":"1b3a73","name":"上丸渕","name_kana":"かみまるぶち","lat":35.233809,"lng":136.732521,"prefecture":23,"lines":[30014],"attr":"cool","postal_code":"495-0021","address":"稲沢市祖父江町三丸渕郷前４８-３","next":[3001412,9953209,9953208,3001305,3001410,3002102],"voronoi":{"lat":35.231092,"lng":136.764898,"delta_lat":[0,-10336,27651,1742,160,7386],"delta_lng":[0,-10509,-87527,-552,-12,13130]},"impl":true},
    {"code":3002009,"left":3001410,"right":3002102,"id":"98f5a7","name":"江吉良","name_kana":"えぎら","lat":35.31543,"lng":136.699686,"prefecture":21,"lines":[30020,30021],"attr":"heat","postal_code":"501-6236","address":"羽島市江吉良町江東８３９","next":[3002008,3001413,3002102,3001415,3002006,3002007,3001414],"voronoi":{"lat":35.284562,"lng":136.717412,"delta_lat":[0,-16463,50933,-776,-8581,-10541,-4648],"delta_lng":[0,-24427,160,14655,14450,8318,-3066]},"impl":true},
    {"code":3001410,"left":9953209,"id":"cc4917","name":"丸渕","name_kana":"まるぶち","lat":35.222635,"lng":136.728991,"prefecture":23,"lines":[30014],"attr":"cool","postal_code":"495-0021","address":"稲沢市祖父江町三丸渕八嶋２０-３","next":[3001306,3001305,3001409,3001411,9953208],"voronoi":{"lat":35.21454,"lng":136.746903,"delta_lat":[0,5304,911,27651,-18722],"delta_lng":[0,6913,573,-87527,4180]},"impl":true},
    {"code":9953209,"id":"086d46","name":"駒野","name_kana":"こまの","lat":35.22385,"lng":136.603389,"prefecture":21,"lines":[99532],"attr":"eco","postal_code":"503-0411","address":"海津市南濃町駒野横道上６１７-５","next":[9952912,9953210,9953213,3002102,3001411,9953208,9952913,100214],"voronoi":{"lat":35.270814,"lng":136.643337,"delta_lat":[0,-5079,-71292,-8950,-5970,70625,160,99],"delta_lng":[0,-37186,-53718,8218,7934,97725,-12,-109]},"impl":true},
    {"code":3002102,"id":"b10d41","name":"新羽島","name_kana":"しんはしま","lat":35.315471,"lng":136.686582,"prefecture":21,"lines":[30021],"attr":"heat","postal_code":"501-6301","address":"羽島市舟橋町宮北１-１-１","next":[3002008,9953209,3001412,3001413,3002009,100214,3001411],"voronoi":{"lat":35.250308,"lng":136.666299,"delta_lat":[0,99,76365,-7740,-50933,-2488,-7917],"delta_lng":[0,-109,23242,3714,-160,-2776,-10781]},"impl":true},
    {"code":3001414,"left":3001413,"right":3001415,"id":"27cc8a","name":"玉野","name_kana":"たまの","lat":35.266327,"lng":136.747982,"prefecture":23,"lines":[30014],"attr":"heat","postal_code":"494-0013","address":"一宮市玉野字河瑞１９","next":[3001413,3001412,3000147,3002009,3001415],"voronoi":{"lat":35.294487,"lng":136.727503,"delta_lat":[0,-9924,-39692,-5012,13030],"delta_lng":[0,-10090,45081,8483,2870]},"impl":true},
    {"code":3001413,"left":3001412,"id":"b088a1","name":"山崎(愛知)","original_name":"山崎","name_kana":"やまざき","lat":35.256548,"lng":136.739372,"prefecture":23,"lines":[30014],"attr":"heat","postal_code":"495-0002","address":"稲沢市祖父江町山崎中屋敷１０５-１","next":[3001414,3002009,3002102,3001412],"voronoi":{"lat":35.265612,"lng":136.690209,"delta_lat":[0,2488,16463,-39692],"delta_lng":[0,2776,24427,45081]},"impl":true},
    {"code":3001412,"id":"964b17","name":"森上","name_kana":"もりかみ","lat":35.247229,"lng":136.736698,"prefecture":23,"lines":[30014],"attr":"cool","postal_code":"495-0011","address":"稲沢市祖父江町森上本郷７１８-１","next":[3001411,3000147,3002102,3001414,3001413,3001305],"voronoi":{"lat":35.239858,"lng":136.770976,"delta_lat":[0,5012,20741,-7917,-26603,4111],"delta_lng":[0,-8483,-72284,-10781,85470,6569]},"impl":true},
    {"code":3001415,"id":"7ec90a","name":"萩原(愛知)","original_name":"萩原","name_kana":"はぎわら","lat":35.277157,"lng":136.757703,"prefecture":23,"lines":[30014],"attr":"heat","postal_code":"491-0376","address":"一宮市萩原町串作字荒神田面１４１４","next":[3000147,3001416,3001422,3000148,3002006,3002009,3001414],"voronoi":{"lat":35.259543,"lng":136.777219,"delta_lat":[0,1622,40612,671,-3314,-4648,-41598],"delta_lng":[0,240,-32380,-9346,-5164,-3066,46344]},"impl":true},
    {"code":3002006,"left":9953216,"right":3002004,"id":"54d4a6","name":"不破一色","name_kana":"ふわいしき","lat":35.332959,"lng":136.721897,"prefecture":21,"lines":[30020],"attr":"eco","postal_code":"501-6216","address":"羽島市正木町須賀字道下２２２１-５","next":[3001423,3001422,3001415,3002007,3002005,3002009],"voronoi":{"lat":35.309675,"lng":136.72225,"delta_lat":[0,38938,-22909,-1738,-21518,-3314],"delta_lng":[0,-15641,33762,93,-4732,-5164]},"impl":true},
    {"code":9953216,"left":3002007,"right":9953217,"id":"ac0e7c","name":"美濃青柳","name_kana":"みのやなぎ","lat":35.343591,"lng":136.603797,"prefecture":21,"lines":[99532],"attr":"heat","postal_code":"503-0961","address":"大垣市青柳町４２５-１","next":[9952602,1150304,9953215,9953212,1150305,9953217,100214],"voronoi":{"lat":35.327431,"lng":136.643879,"delta_lat":[0,13258,1636,9089,853,-16483,-3657],"delta_lng":[0,-72508,-1405,13228,32838,26737,2708]},"impl":true},
    {"code":3002007,"left":3002008,"id":"b25c40","name":"竹鼻","name_kana":"たけはな","lat":35.326734,"lng":136.706399,"prefecture":21,"lines":[30020],"attr":"eco","postal_code":"501-6232","address":"羽島市竹鼻町狐穴字栄町３３０５","next":[9952603,3002004,3002006,3002008,3002005,3002009,1150303],"voronoi":{"lat":35.34904,"lng":136.706329,"delta_lat":[0,-426,-38938,8581,36502,4155,1750],"delta_lng":[0,280,15641,-14450,-27567,5337,9694]},"impl":true},
    {"code":3002008,"id":"9559a9","name":"羽島市役所前","name_kana":"はしましやくしょまえ","lat":35.321924,"lng":136.70003,"prefecture":21,"lines":[30020],"attr":"eco","postal_code":"501-6241","address":"羽島市竹鼻町字宮町７６１","next":[3002102,3002009,9952602,9952603,3002007,100214],"voronoi":{"lat":35.319033,"lng":136.693145,"delta_lat":[0,-776,36502,-1241,-59,-26686],"delta_lng":[0,14655,-27567,-1992,-58,11248]},"impl":true},
    {"code":9953217,"id":"f275a1","name":"西大垣","name_kana":"にしおおがき","lat":35.360298,"lng":136.603363,"prefecture":21,"lines":[99532],"attr":"cool","postal_code":"503-0973","address":"大垣市木戸町９１０","next":[9953220,1150305,1150304,9953219,9953216],"voronoi":{"lat":35.351415,"lng":136.583193,"delta_lat":[0,15555,270,-6462,-8510],"delta_lng":[0,10187,2940,15835,3876]},"impl":true},
    {"code":3002004,"left":3001423,"right":3002003,"id":"4548b8","name":"南宿","name_kana":"みなみじゅく","lat":35.347869,"lng":136.728604,"prefecture":21,"lines":[30020],"attr":"heat","postal_code":"501-6203","address":"羽島市足近町南宿字北出９１６-１","next":[3001423,3002007,1150303,3002005,3002003],"voronoi":{"lat":35.37161,"lng":136.710526,"delta_lat":[0,-10947,-11624,-8567,8111],"delta_lng":[0,-15262,11065,36556,3586]},"impl":true},
    {"code":3001423,"left":3002005,"id":"88e866","name":"玉ノ井","name_kana":"たまのい","lat":35.334887,"lng":136.757968,"prefecture":23,"lines":[30014],"attr":"eco","postal_code":"493-0004","address":"一宮市木曽川町玉ノ井古井田１４０","next":[3002002,3002006,3000155,3000154,3000153,3002004,3002003,3002005,3001422],"voronoi":{"lat":35.323966,"lng":136.740465,"delta_lat":[0,1738,14768,8111,3378,15,-574,-7958,-10564],"delta_lng":[0,-93,2514,3586,5575,7360,1383,6244,3526]},"impl":true},
    {"code":3002005,"id":"45bb29","name":"須賀","name_kana":"すか","lat":35.340192,"lng":136.726805,"prefecture":21,"lines":[30020],"attr":"eco","postal_code":"501-6217","address":"羽島市正木町須賀小松２１９","next":[3002006,3002004,3001423,3002007],"voronoi":{"lat":35.325704,"lng":136.740372,"delta_lat":[0,14768,8567,-426],"delta_lng":[0,2514,-36556,280]},"impl":true},
    {"code":3002003,"id":"eb7979","name":"柳津(岐阜)","original_name":"柳津","name_kana":"やないづ","lat":35.365114,"lng":136.739651,"prefecture":21,"lines":[30020],"attr":"heat","postal_code":"501-6111","address":"岐阜市柳津町宮東","next":[3002002,1150303,1150302,3001423,1141601,3002004],"voronoi":{"lat":35.37161,"lng":136.710526,"delta_lat":[0,6462,11346,-573,-36884,-3378],"delta_lng":[0,4405,27630,1510,7975,-5575]},"impl":true},
    {"code":1150237,"left":3000149,"right":1150238,"id":"10e51a","name":"尾張一宮","name_kana":"おわりいちのみや","lat":35.301765,"lng":136.797567,"prefecture":23,"lines":[11502],"attr":"eco","postal_code":"491-0858","address":"一宮市栄３丁目","next":[3001420,3000149,3000151,3001512,3001511,3001513,3000150],"voronoi":{"lat":35.305064,"lng":136.795152,"delta_lat":[0,12199,11235,-4560,-14457,-13359,-1463],"delta_lng":[0,12675,22480,2018,2946,-1129,-32144]},"impl":true},
    {"code":3000149,"left":3001418,"right":3000147,"id":"1a4b72","name":"妙興寺","name_kana":"みょうこうじ","lat":35.287178,"lng":136.798231,"prefecture":23,"lines":[30001],"attr":"heat","postal_code":"491-0922","address":"一宮市大和町大字妙興寺徳法寺浦","next":[1150237,3000148,1150236,3001511,3000150,3001418],"voronoi":{"lat":35.294658,"lng":136.801998,"delta_lat":[0,1463,-9033,-2856,-6892,16715],"delta_lng":[0,32144,1036,-4299,-41009,3524]},"impl":true},
    {"code":3001418,"left":3001417,"right":3000150,"id":"9fcaab","name":"観音寺(愛知)","original_name":"観音寺","name_kana":"かんのんじ","lat":35.289716,"lng":136.786191,"prefecture":23,"lines":[30014],"attr":"heat","postal_code":"491-0916","address":"一宮市観音寺２-５-２","next":[3000150,3000148,3001417,3001420,3000149],"voronoi":{"lat":35.277341,"lng":136.78987,"delta_lat":[0,-2562,27499,-3318,-4904],"delta_lng":[0,-3279,-8761,10309,5255]},"impl":true},
    {"code":3001417,"left":3001416,"id":"25c322","name":"苅安賀","name_kana":"かりやすか","lat":35.287194,"lng":136.778275,"prefecture":23,"lines":[30014],"attr":"heat","postal_code":"491-0934","address":"一宮市大和町苅安賀字上西之杁１３０","next":[3001420,3001421,3001418,3001416,3000148],"voronoi":{"lat":35.263233,"lng":136.778245,"delta_lat":[0,38908,1110,-974,-27499],"delta_lng":[0,-10395,8526,1454,8761]},"impl":true},
    {"code":3001416,"id":"f273f7","name":"二子","name_kana":"ふたご","lat":35.283986,"lng":136.766268,"prefecture":23,"lines":[30014],"attr":"heat","postal_code":"491-0353","address":"一宮市萩原町萩原字大日２９０３-３","next":[3000148,3001421,3001415,3001422,3001417],"voronoi":{"lat":35.302141,"lng":136.767849,"delta_lat":[0,1620,-1984,-40612,2068],"delta_lng":[0,-7298,-15473,32380,786]},"impl":true},
    {"code":3000150,"id":"663d6a","name":"名鉄一宮","name_kana":"めいてついちのみや","lat":35.30154,"lng":136.797225,"prefecture":23,"lines":[30001,30014],"attr":"heat","postal_code":"491-0912","address":"一宮市新生１丁目","next":[3001418,3001420,1150237,3000149],"voronoi":{"lat":35.305064,"lng":136.795152,"delta_lat":[0,-6104,-4904,603],"delta_lng":[0,-7013,5255,8604]},"impl":true},
    {"code":3000147,"left":3000145,"right":3000148,"id":"115c1e","name":"国府宮","name_kana":"こうのみや","lat":35.254218,"lng":136.802963,"prefecture":23,"lines":[30001],"attr":"heat","postal_code":"492-8208","address":"稲沢市松下１丁目","next":[3001412,3001415,1150236,3001305,3000146,3000148,3001414],"voronoi":{"lat":35.239858,"lng":136.770976,"delta_lat":[0,-4656,-3258,14793,17033,-4227,-6655],"delta_lng":[0,491,5043,34974,1160,-35426,-3372]},"impl":true},
    {"code":3000145,"left":3000146,"id":"a57666","name":"大里","name_kana":"おおさと","lat":35.226216,"lng":136.818428,"prefecture":23,"lines":[30001],"attr":"heat","postal_code":"492-8233","address":"稲沢市奥田町三十番神","next":[1150236,3001303,1150235,3000146,3001302,3000144],"voronoi":{"lat":35.210614,"lng":136.819944,"delta_lat":[0,-962,7201,22267,-215,-21263],"delta_lng":[0,-4121,-18244,27263,2295,-1070]},"impl":true},
    {"code":3000146,"id":"2f3bb1","name":"奥田","name_kana":"おくだ","lat":35.235412,"lng":136.810917,"prefecture":23,"lines":[30001],"attr":"heat","postal_code":"492-8233","address":"稲沢市奥田町木之内","next":[3000145,1150236,3000147,3001304,3001303,3001305],"voronoi":{"lat":35.216962,"lng":136.796623,"delta_lat":[0,-108,22267,7617,-14793,-6594],"delta_lng":[0,956,27263,-13358,-34974,5526]},"impl":true},
    {"code":3000148,"id":"5f625b","name":"島氏永","name_kana":"しまうじなが","lat":35.270777,"lng":136.800987,"prefecture":23,"lines":[30001],"attr":"heat","postal_code":"492-8205","address":"稲沢市島町","next":[3001416,3000149,1150236,3001415,3000147,3001418,3001417],"voronoi":{"lat":35.277341,"lng":136.78987,"delta_lat":[0,6892,-20462,-4227,1622,2068,11545],"delta_lng":[0,41009,-18234,-35426,240,786,8346]},"impl":true},
    {"code":1150238,"left":3000154,"right":3000151,"id":"f6a233","name":"木曽川","name_kana":"きそがわ","lat":35.349319,"lng":136.780726,"prefecture":23,"lines":[11502],"attr":"eco","postal_code":"493-0001","address":"一宮市木曽川町黒田","next":[3000155,3000154,3001612,3001614,3001513,3000152,3001613,3000153],"voronoi":{"lat":35.346041,"lng":136.778081,"delta_lat":[0,15569,9812,-5343,-7891,-6055,-5442,-5014],"delta_lng":[0,4318,15090,11015,12586,6938,-868,-24760]},"impl":true},
    {"code":3000154,"left":3000153,"right":3000155,"id":"8c90e3","name":"黒田(愛知)","original_name":"黒田","name_kana":"くろだ","lat":35.350213,"lng":136.777502,"prefecture":23,"lines":[30001],"attr":"heat","postal_code":"493-0001","address":"一宮市木曽川町黒田字西針口北ノ切１２-４","next":[1150238,3001423,3000155,3000153],"voronoi":{"lat":35.36161,"lng":136.782398,"delta_lat":[0,-10207,-7958,2596],"delta_lng":[0,-21609,6244,11047]},"impl":true},
    {"code":3000153,"left":3001421,"id":"17f7b0","name":"新木曽川","name_kana":"しんきそがわ","lat":35.342047,"lng":136.779421,"prefecture":23,"lines":[30001],"attr":"heat","postal_code":"493-0001","address":"一宮市木曽川町黒田下市場南１２１-４","next":[3000152,3001421,3001423,3001422,3000154,1150238],"voronoi":{"lat":35.346041,"lng":136.778081,"delta_lat":[0,-2596,-10564,-1006,-711,10513],"delta_lng":[0,-11047,3526,971,3045,27824]},"impl":true},
    {"code":3001421,"id":"9c5094","name":"開明","name_kana":"かいめい","lat":35.31926,"lng":136.7741,"prefecture":23,"lines":[30014],"attr":"eco","postal_code":"494-0001","address":"一宮市開明名古羅４７-１","next":[3001420,3000153,3001416,3001422,3001417,3000151,3000152],"voronoi":{"lat":35.331164,"lng":136.774575,"delta_lat":[0,711,-28113,-1620,1110,7390,8875],"delta_lng":[0,-3045,-10979,7298,8526,4826,527]},"impl":true},
    {"code":3000155,"id":"0c0f3e","name":"木曽川堤","name_kana":"きそがわづつみ","lat":35.365067,"lng":136.770486,"prefecture":23,"lines":[30001],"attr":"heat","postal_code":"493-8001","address":"一宮市北方町大字北方字倉骨","next":[1150238,3002002,3001423,3000156,3001614,3001615,3000154,3000157],"voronoi":{"lat":35.377988,"lng":136.780962,"delta_lat":[0,-9999,-16013,-574,10207,9812,3078,3920],"delta_lng":[0,-16475,-5081,1383,21609,15090,-3006,-5484]},"impl":true},
    {"code":3000151,"left":3001420,"right":3000152,"id":"d3df27","name":"今伊勢","name_kana":"いまいせ","lat":35.31836,"lng":136.789273,"prefecture":23,"lines":[30001],"attr":"heat","postal_code":"491-0057","address":"一宮市今伊勢町大字宮後字一丁野","next":[3001420,3001421,3000152,1150237,3001513],"voronoi":{"lat":35.342129,"lng":136.827609,"delta_lat":[0,-22613,-8875,6621,11235],"delta_lng":[0,-45881,-527,26625,22480]},"impl":true},
    {"code":3001420,"id":"52425a","name":"西一宮","name_kana":"にしいちのみや","lat":35.307603,"lng":136.791948,"prefecture":23,"lines":[30014],"attr":"eco","postal_code":"491-0046","address":"一宮市天王１-３-１","next":[3001421,1150237,3001417,3000151,3000150,3001418],"voronoi":{"lat":35.302277,"lng":136.777829,"delta_lat":[0,974,7390,6621,-12199,-6104],"delta_lng":[0,-1454,4826,26625,-12675,-7013]},"impl":true},
    {"code":3000152,"id":"4b0248","name":"石刀","name_kana":"いわと","lat":35.326204,"lng":136.785407,"prefecture":23,"lines":[30001],"attr":"heat","postal_code":"491-0051","address":"一宮市今伊勢町大字馬寄字西切声","next":[3000153,3001513,3000151,1150238,3001421],"voronoi":{"lat":35.331164,"lng":136.774575,"delta_lat":[0,10513,5014,-4561,-22613],"delta_lng":[0,27824,24760,450,-45881]},"impl":true},
    {"code":9952608,"left":9952612,"right":3000158,"id":"e44772","name":"糸貫","name_kana":"いとぬき","lat":35.462891,"lng":136.669704,"prefecture":21,"lines":[99526],"attr":"heat","postal_code":"501-0400","address":"本巣市糸貫石田","next":[9952609,9952607,1150302,3000160,9953227,1141601,9952606,9953223],"voronoi":{"lat":35.47077,"lng":136.621438,"delta_lat":[0,5191,-1703,-6632,-1781,-3805,-2901,-275],"delta_lng":[0,396,114382,-3798,-1095,-4125,-14816,-85745]},"impl":true},
    {"code":9952612,"left":9952611,"right":1142122,"id":"1d91c0","name":"谷汲口","name_kana":"たにぐみぐち","lat":35.527552,"lng":136.642187,"prefecture":21,"lines":[99526],"attr":"cool","postal_code":"501-1303","address":"揖斐郡揖斐川町谷汲長瀬","next":[9952611,9953227,9952613],"voronoi":{"lat":35.533138,"lng":136.579252,"delta_lat":[0,-38908,41393],"delta_lng":[0,31973,50887]},"impl":true},
    {"code":9952611,"left":9953220,"right":9952605,"id":"0e2b3e","name":"木知原","name_kana":"こちぼら","lat":35.517759,"lng":136.650153,"prefecture":21,"lines":[99526],"attr":"cool","postal_code":"501-1234","address":"本巣市木知原字川端","next":[9952609,9952612,9953227,9952610,9952613],"voronoi":{"lat":35.535624,"lng":136.662113,"delta_lat":[0,-41393,-16982,7035,65702],"delta_lng":[0,-50887,10381,10653,72062]},"impl":true},
    {"code":9953220,"left":9952602,"right":9953222,"id":"33f392","name":"北大垣","name_kana":"きたおおがき","lat":35.375349,"lng":136.601979,"prefecture":21,"lines":[99532],"attr":"cool","postal_code":"503-0023","address":"大垣市笠木町７６-３","next":[1150305,1150306,9953217,9953221,1150304,9953219],"voronoi":{"lat":35.385599,"lng":136.617409,"delta_lat":[0,-1258,-3472,-13900,270,8406],"delta_lng":[0,-23455,-1981,1408,2940,16051]},"impl":true},
    {"code":9952602,"left":9953219,"id":"b4cc61","name":"東大垣","name_kana":"ひがしおおがき","lat":35.375338,"lng":136.646671,"prefecture":21,"lines":[99526],"attr":"eco","postal_code":"503-0005","address":"大垣市和合本町","next":[9953221,9952603,9953216,100214,3002008,1150304,9952604],"voronoi":{"lat":35.353517,"lng":136.678242,"delta_lat":[0,-59,-21331,3657,55697,10170,-7035],"delta_lng":[0,-58,-32707,-2708,-16173,4184,10053]},"impl":true},
    {"code":9953219,"id":"9309f3","name":"室","name_kana":"むろ","lat":35.367272,"lng":136.606209,"prefecture":21,"lines":[99532],"attr":"cool","postal_code":"503-0973","address":"大垣市木戸町１３４-３","next":[1150304,9953217,9953220],"voronoi":{"lat":35.36724,"lng":136.596321,"delta_lat":[0,-6462,14868],"delta_lng":[0,15835,216]},"impl":true},
    {"code":9953222,"id":"3598b1","name":"広神戸","name_kana":"ひろごうど","lat":35.419651,"lng":136.602096,"prefecture":21,"lines":[99532],"attr":"cool","postal_code":"503-2305","address":"安八郡神戸町大字神戸字西浦１２２","next":[1150306,9952607,9953223,9952605,9953221],"voronoi":{"lat":35.44051,"lng":136.634272,"delta_lat":[0,7948,-37603,-3219,-2022],"delta_lng":[0,-4168,-50694,5316,45858]},"impl":true},
    {"code":9952605,"left":9952604,"right":9952610,"id":"ccb8c8","name":"美江寺","name_kana":"みえじ","lat":35.413387,"lng":136.661378,"prefecture":21,"lines":[99526],"attr":"eco","postal_code":"501-0312","address":"瑞穂市大字美江寺字榎前","next":[9953221,1150303,9953222,9952606,9952604,9952607],"voronoi":{"lat":35.44051,"lng":136.634272,"delta_lat":[0,-34896,-305,-1142,14042,20596],"delta_lng":[0,-3688,97,46558,7373,-41821]},"impl":true},
    {"code":9952604,"left":9952603,"id":"cda74f","name":"十九条","name_kana":"じゅうくじょう","lat":35.395737,"lng":136.660945,"prefecture":21,"lines":[99526],"attr":"eco","postal_code":"501-0235","address":"瑞穂市十九条字河原","next":[9952603,9952605,1150303,9953221,9952602],"voronoi":{"lat":35.388462,"lng":136.67753,"delta_lat":[0,15705,1142,-3658,-7035],"delta_lng":[0,-290,-46558,98,10053]},"impl":true},
    {"code":9952603,"id":"1a0402","name":"横屋","name_kana":"よこや","lat":35.386996,"lng":136.659479,"prefecture":21,"lines":[99526],"attr":"eco","postal_code":"501-0200","address":"瑞穂市大跡","next":[1150303,9952602,3002007,9952604,3002008],"voronoi":{"lat":35.353517,"lng":136.678242,"delta_lat":[0,41099,-6154,-29549,-4155],"delta_lng":[0,-37409,36697,8041,-5337]},"impl":true},
    {"code":9952610,"id":"b26eef","name":"織部","name_kana":"おりべ","lat":35.499017,"lng":136.667241,"prefecture":21,"lines":[99526],"attr":"cool","postal_code":"501-1201","address":"本巣市山口森本","next":[9952613,9952513,9952614,3001617,9952512,9952609,9952611],"voronoi":{"lat":35.552657,"lng":136.708874,"delta_lat":[0,33386,-5593,-43124,-18064,-34978,65702],"delta_lng":[0,71397,1115,7052,-15105,-141074,72062]},"impl":true},
    {"code":1142122,"left":9952618,"right":9952615,"id":"2883a4","name":"越前下山","name_kana":"えちぜんしもやま","lat":35.920356,"lng":136.634832,"prefecture":18,"lines":[11421],"attr":"eco","postal_code":"912-0207","address":"大野市下山","next":[1142116,1142119,1142120,1142123,1142121,9952619],"voronoi":{"lat":35.786719,"lng":136.49053,"delta_lat":[0,33622,61627,27344,112304,-240198],"delta_lng":[0,15339,44510,22285,140544,-143119]},"impl":true},
    {"code":9952618,"left":9952616,"right":9952619,"id":"3714dd","name":"水鳥","name_kana":"みどり","lat":35.617813,"lng":136.620771,"prefecture":21,"lines":[99526],"attr":"cool","postal_code":"501-1529","address":"本巣市根尾水鳥字下島","next":[9952619,9952517,9953227,9952617],"voronoi":{"lat":35.573256,"lng":136.507385,"delta_lat":[0,11489,88435,-13532],"delta_lng":[0,-35130,309559,-487]},"impl":true},
    {"code":9952616,"left":9952617,"id":"7fdff8","name":"日当","name_kana":"ひなた","lat":35.582304,"lng":136.631456,"prefecture":21,"lines":[99526],"attr":"cool","postal_code":"501-1231","address":"本巣市日当字前沖","next":[9952617,9952513,9952615,9953227,9952517],"voronoi":{"lat":35.620272,"lng":136.781093,"delta_lat":[0,-70329,13830,72516,-6597],"delta_lng":[0,-224016,-26287,250881,518]},"impl":true},
    {"code":9952617,"id":"5fb03b","name":"高尾(岐阜)","original_name":"高尾","name_kana":"たかお","lat":35.601806,"lng":136.625819,"prefecture":21,"lines":[99526],"attr":"cool","postal_code":"501-1528","address":"本巣市根尾高尾字吉尾","next":[9952616,9953227,9952618,9952517],"voronoi":{"lat":35.659647,"lng":136.781328,"delta_lat":[0,-86392,-9483,72516],"delta_lng":[0,-273942,23404,250881]},"impl":true},
    {"code":9952619,"id":"495e1d","name":"樽見","name_kana":"たるみ","lat":35.635119,"lng":136.615827,"prefecture":21,"lines":[99526],"attr":"cool","postal_code":"501-1522","address":"本巣市根尾樽見字下川原","next":[9952528,9952530,1141514,1142123,1142116,9952517,9952531,9952533,9952618,1141508,9953227,1142122],"voronoi":{"lat":35.753621,"lng":136.734174,"delta_lat":[0,-8251,-10205,-22758,-35657,-3571,-88435,16713,53161,110678,21423,-5301],"delta_lng":[0,7142,7583,14688,18545,-318,-309559,-63628,-17425,36621,62706,79559]},"impl":true},
    {"code":9952615,"left":9952613,"right":1142123,"id":"0f7ca5","name":"鍋原","name_kana":"なべら","lat":35.5659,"lng":136.636606,"prefecture":21,"lines":[99526],"attr":"cool","postal_code":"501-1236","address":"本巣市佐原字家佐畑","next":[9952616,9952613,9952513,9953227,9952614],"voronoi":{"lat":35.546714,"lng":136.605055,"delta_lat":[0,-7130,10359,70329,-1708],"delta_lng":[0,-32524,-15454,224016,-102]},"impl":true},
    {"code":9952613,"left":9952614,"id":"247d7b","name":"神海","name_kana":"こうみ","lat":35.542487,"lng":136.641739,"prefecture":21,"lines":[99526],"attr":"cool","postal_code":"501-1235","address":"本巣市神海字西之上","next":[9952615,9952610,9952614,9952612,9953227,9952611],"voronoi":{"lat":35.535624,"lng":136.662113,"delta_lat":[0,-2485,6445,7130,5943,-2671],"delta_lng":[0,-82860,-6722,32524,103820,-4553]},"impl":true},
    {"code":9952614,"id":"4a9436","name":"高科","name_kana":"たかしな","lat":35.555099,"lng":136.641017,"prefecture":21,"lines":[99526],"attr":"cool","postal_code":"501-1301","address":"揖斐郡揖斐川町谷汲高科","next":[9952613,9952513,9952610,9952615],"voronoi":{"lat":35.546714,"lng":136.605055,"delta_lat":[0,5943,33386,32521],"delta_lng":[0,103820,71397,719]},"impl":true},
    {"code":1142123,"id":"00c288","name":"九頭竜湖","name_kana":"くずりゅうこ","lat":35.90449,"lng":136.66146,"prefecture":18,"lines":[11421],"attr":"eco","postal_code":"912-0205","address":"大野市朝日","next":[9952534,9952619,9952537,1142121,9952533,1142122,9952538],"voronoi":{"lat":36.036322,"lng":136.727619,"delta_lat":[0,-14706,-240198,-27797,29244,62821,58568],"delta_lng":[0,-14411,-143119,164086,7166,11467,-5222]},"impl":true},
    {"code":3000158,"left":3001616,"right":1141601,"id":"92c35e","name":"茶所","name_kana":"ちゃじょ","lat":35.402048,"lng":136.768917,"prefecture":21,"lines":[30001],"attr":"cool","postal_code":"500-8431","address":"岐阜市加納八幡町","next":[3001616,3000159,3000157,3001617],"voronoi":{"lat":35.406614,"lng":136.770668,"delta_lat":[0,-10936,362,8293],"delta_lng":[0,-11786,18000,211]},"impl":true},
    {"code":3001616,"left":3000157,"right":3001615,"id":"8a07ba","name":"細畑","name_kana":"ほそばた","lat":35.401637,"lng":136.785141,"prefecture":21,"lines":[30016],"attr":"eco","postal_code":"500-8247","address":"岐阜市長森細畑","next":[3000158,1141602,3000157,3001615,3001617],"voronoi":{"lat":35.425041,"lng":136.793557,"delta_lat":[0,-43659,14657,8293,22118],"delta_lng":[0,-5739,-10937,211,16434]},"impl":true},
    {"code":3000157,"left":3000156,"right":1150303,"id":"ad4f60","name":"岐南","name_kana":"ぎなん","lat":35.389716,"lng":136.769165,"prefecture":21,"lines":[30001],"attr":"heat","postal_code":"501-6018","address":"羽島郡岐南町下印食","next":[1141601,3000159,3000156,3002002,3000158,3001615,3001616,3000155],"voronoi":{"lat":35.377988,"lng":136.780962,"delta_lat":[0,9835,1091,6090,673,362,-14657,-2963],"delta_lng":[0,-32898,-2001,9541,3277,18000,10937,1180]},"impl":true},
    {"code":3000156,"left":3002002,"id":"81a081","name":"笠松","name_kana":"かさまつ","lat":35.37466,"lng":136.764664,"prefecture":21,"lines":[30001,30020],"attr":"heat","postal_code":"501-6037","address":"羽島郡笠松町西金池町","next":[3002002,3000155,3000157],"voronoi":{"lat":35.387823,"lng":136.748064,"delta_lat":[0,-19834,9999],"delta_lng":[0,16423,16475]},"impl":true},
    {"code":3002002,"id":"a19290","name":"西笠松","name_kana":"にしかさまつ","lat":35.36906,"lng":136.757901,"prefecture":21,"lines":[30020],"attr":"cool","postal_code":"501-6077","address":"羽島郡笠松町天王町４５","next":[3000156,3001423,3000155,3002003,3000157,1141601],"voronoi":{"lat":35.387823,"lng":136.748064,"delta_lat":[0,-19834,-16013,-15,36884,69],"delta_lng":[0,16423,-5081,-7360,-7975,1992]},"impl":true},
    {"code":1150303,"id":"b7b2b7","name":"穂積","name_kana":"ほづみ","lat":35.396345,"lng":136.693834,"prefecture":21,"lines":[11503],"attr":"cool","postal_code":"501-0222","address":"瑞穂市別府","next":[9952603,9952605,3002003,1150302,3002004,9952604,9952606,3002007],"voronoi":{"lat":35.37161,"lng":136.710526,"delta_lat":[0,6462,47777,-7640,-14042,-15705,-29549,1750],"delta_lng":[0,4405,-13439,-16880,-7373,290,8041,9694]},"impl":true},
    {"code":3001615,"left":3001613,"right":1141602,"id":"8c04c8","name":"切通","name_kana":"きりどおし","lat":35.400257,"lng":136.79564,"prefecture":21,"lines":[30016],"attr":"eco","postal_code":"500-0000","address":"岐阜市南長森切通","next":[3001614,3000157,3000155,1141602,3001616],"voronoi":{"lat":35.381383,"lng":136.787819,"delta_lat":[0,-2963,-3920,24133,26409],"delta_lng":[0,1180,5484,5432,-6357]},"impl":true},
    {"code":3001613,"left":3001614,"id":"034de1","name":"高田橋","name_kana":"たかだばし","lat":35.398383,"lng":136.811488,"prefecture":21,"lines":[30016],"attr":"eco","postal_code":"500-8224","address":"岐阜市高田２丁目","next":[3001612,3001614,1141602,1150238],"voronoi":{"lat":35.366078,"lng":136.808504,"delta_lat":[0,35734,19404,-63029],"delta_lng":[0,-580,8305,4861]},"impl":true},
    {"code":3001614,"id":"ec4b49","name":"手力","name_kana":"てぢから","lat":35.398269,"lng":136.804472,"prefecture":21,"lines":[30016],"attr":"eco","postal_code":"500-8233","address":"岐阜市蔵前７丁目","next":[3001613,3001615,1150238,3000155,1141602],"voronoi":{"lat":35.366078,"lng":136.808504,"delta_lat":[0,5343,3078,24133,3180],"delta_lng":[0,-11015,-3006,5432,8009]},"impl":true},
    {"code":1141602,"id":"69ec6e","name":"長森","name_kana":"ながもり","lat":35.402024,"lng":136.802981,"prefecture":21,"lines":[11416],"attr":"cool","postal_code":"500-8233","address":"岐阜市蔵前２","next":[9952509,3001613,3001616,3001617,9952508,1141603,3001614,3001615,3001612],"voronoi":{"lat":35.421217,"lng":136.816228,"delta_lat":[0,-19404,-3180,26409,1409,72356,-3987,-5604,-17659],"delta_lng":[0,-8305,-8009,-6357,-31,21706,3521,4492,-807]},"impl":true},
    {"code":1141601,"left":9952607,"right":3000160,"id":"b0ddaa","name":"岐阜","name_kana":"ぎふ","lat":35.409532,"lng":136.756514,"prefecture":21,"lines":[11416,11502,11503],"attr":"heat","postal_code":"500-8856","address":"岐阜市橋本町１丁目","next":[3000157,1150302,3000159,9952608,3002003,3000160,3002002],"voronoi":{"lat":35.395005,"lng":136.755604,"delta_lat":[0,10581,62040,-1781,-76426,-573,69],"delta_lng":[0,4830,-28016,-1095,11238,1510,1992]},"impl":true},
    {"code":9952607,"left":1150302,"right":9952609,"id":"703976","name":"モレラ岐阜","name_kana":"もれらぎふ","lat":35.455112,"lng":136.669729,"prefecture":21,"lines":[99526],"attr":"heat","postal_code":"501-0419","address":"本巣市早野１７５","next":[9952608,9953222,9953223,9952605,9952606],"voronoi":{"lat":35.438805,"lng":136.642791,"delta_lat":[0,1705,7948,10405,275],"delta_lng":[0,-8519,-4168,-3467,85745]},"impl":true},
    {"code":1150302,"left":9952606,"id":"821850","name":"西岐阜","name_kana":"にしぎふ","lat":35.404664,"lng":136.72341,"prefecture":21,"lines":[11503],"attr":"heat","postal_code":"500-8381","address":"岐阜市市橋３丁目","next":[9952608,1141601,3002003,9952606,1150303],"voronoi":{"lat":35.42585,"lng":136.701493,"delta_lat":[0,36190,3805,-76426,-11346],"delta_lng":[0,25706,4125,11238,-27630]},"impl":true},
    {"code":9952606,"id":"c60b59","name":"北方真桑","name_kana":"きたがたまくわ","lat":35.439567,"lng":136.674271,"prefecture":21,"lines":[99526],"attr":"heat","postal_code":"501-0461","address":"本巣市上真桑","next":[9952605,1150302,1150303,9952607,9952608],"voronoi":{"lat":35.459139,"lng":136.712382,"delta_lat":[0,-20333,-20596,7640,36190],"delta_lng":[0,-69591,41821,16880,25706]},"impl":true},
    {"code":9952609,"id":"a92016","name":"本巣","name_kana":"もとす","lat":35.487599,"lng":136.670072,"prefecture":21,"lines":[99526],"attr":"heat","postal_code":"501-1205","address":"本巣市曽井中島","next":[9952611,9952608,9953227,9952610,3001617,3000160],"voronoi":{"lat":35.474257,"lng":136.736216,"delta_lat":[0,1703,1288,7035,34978,-10978],"delta_lng":[0,-114382,-228,10653,141074,-8207]},"impl":true},
    {"code":3000160,"left":3000159,"right":3001617,"id":"80de5b","name":"名鉄岐阜","name_kana":"めいてつぎふ","lat":35.411136,"lng":136.760066,"prefecture":21,"lines":[30001,30016],"attr":"eco","postal_code":"500-8833","address":"岐阜市神田町９丁目","next":[3001617,9952608,9952609,3000159,1141601],"voronoi":{"lat":35.467626,"lng":136.732418,"delta_lat":[0,6632,34026,-97014,-5684],"delta_lng":[0,3798,28910,1000,-5692]},"impl":true},
    {"code":3000159,"id":"75147b","name":"加納(岐阜)","original_name":"加納","name_kana":"かのう","lat":35.405209,"lng":136.765984,"prefecture":21,"lines":[30001],"attr":"eco","postal_code":"500-8402","address":"岐阜市竜田町９丁目","next":[3000157,3001617,3000158,1141601,3000160],"voronoi":{"lat":35.405586,"lng":136.760434,"delta_lat":[0,-10581,673,10936,4656],"delta_lng":[0,-4830,3277,11786,-4541]},"impl":true},
    {"code":3001617,"id":"0dfda8","name":"田神","name_kana":"たがみ","lat":35.411261,"lng":136.772189,"prefecture":21,"lines":[30016],"attr":"eco","postal_code":"500-8152","address":"岐阜市入舟町１丁目","next":[9952512,9952509,3000159,3000160,9952610,3000158,9952510,1141602,9952609,9952511,3001616],"voronoi":{"lat":35.404332,"lng":136.777092,"delta_lat":[0,2281,4656,97014,10978,18064,-2574,-7439,-7311,-21195,-72356],"delta_lng":[0,-6425,-4541,-1000,8207,15105,2305,6003,5259,13227,-21706]},"impl":true}
  ]
}