{
  "name":"segment47",
  "root":2100434,
  "east":180.0,
  "west":139.791412,
  "south":35.691273,
  "north":35.784472,
  "station_size":145,
  "node_list":[
    {"code":2100434,"left":2100206,"right":9933806,"id":"c09dd6","name":"新船橋","name_kana":"しんふなばし","lat":35.710993,"lng":139.979765,"prefecture":12,"lines":[21004],"attr":"cool","postal_code":"273-0045","address":"船橋市山手１-３-１","next":[1130523,2100433,1131331,9933802,2300121,2300120],"voronoi":{"lat":35.719354,"lng":139.971234,"delta_lat":[0,-6414,-3656,-1290,10174,43],"delta_lng":[0,23029,-6752,-11395,-6593,1]}},
    {"code":2100206,"left":1131325,"right":2300205,"id":"72ef72","name":"鐘ヶ淵","name_kana":"かねがふち","lat":35.733712,"lng":139.820344,"prefecture":13,"lines":[21002],"attr":"heat","postal_code":"131-0031","address":"東京都墨田区墨田5丁目","next":[1132004,2300107,2300106,2100205,2300203,2100207,2300204],"voronoi":{"lat":35.73544,"lng":139.827944,"delta_lat":[0,-6781,1466,3594,3094,3254,-1638],"delta_lng":[0,-4867,-13262,55,3741,11522,3170]}},
    {"code":1131325,"left":2300201,"right":2300118,"id":"00567c","name":"新小岩","name_kana":"しんこいわ","lat":35.716903,"lng":139.857777,"prefecture":13,"lines":[11313,11314],"attr":"heat","postal_code":"124-0024","address":"葛飾区新小岩１丁目","next":[1131326,2300205,9930416,9930417,9930418,1131324,2300109,2300204],"voronoi":{"lat":35.731681,"lng":139.862649,"delta_lat":[0,130,-22231,-7182,-2290,1296,19315,4019],"delta_lng":[0,2524,15116,-8807,-11698,-2913,-12970,2648]}},
    {"code":2300201,"left":1131323,"right":2100205,"id":"ed5340","name":"押上（スカイツリー前）","name_kana":"おしあげ","lat":35.710702,"lng":139.812935,"prefecture":13,"lines":[21002,23002,28008,99302],"attr":"heat","postal_code":"131-0045","address":"墨田区押上一丁目","next":[1131322,2300202,1131323,2100202,2100204,2100502],"voronoi":{"lat":35.712845,"lng":139.818361,"delta_lat":[0,3680,-12936,710,232,6559],"delta_lng":[0,-7678,977,8215,232,173]}},
    {"code":1131323,"left":9930219,"right":2100503,"id":"f34421","name":"亀戸","name_kana":"かめいど","lat":35.697345,"lng":139.826262,"prefecture":13,"lines":[11313,21005],"attr":"heat","postal_code":"136-0071","address":"江東区亀戸５丁目","next":[2100503,2300201,1131322,9930415,2100504,2100502,9930414,2800814],"voronoi":{"lat":35.694022,"lng":139.820336,"delta_lat":[0,10277,232,-618,-1316,-8338,-944,69],"delta_lng":[0,-460,232,6011,2277,3064,-749,-9876]}},
    {"code":9930219,"left":1131322,"right":2100202,"id":"864287","name":"本所吾妻橋","name_kana":"ほんじょあづまばし","lat":35.70858,"lng":139.804624,"prefecture":13,"lines":[99302],"attr":"heat","postal_code":"130-0001","address":"墨田区吾妻橋３-７-１６","next":[1131321,1131322,2100201,9930112,9930412,2100202],"voronoi":{"lat":35.716038,"lng":139.804411,"delta_lat":[0,-11691,-2500,-3504,50,4467],"delta_lng":[0,-6024,976,3970,725,5532]}},
    {"code":1131322,"left":1131321,"id":"887b30","name":"錦糸町","name_kana":"きんしちょう","lat":35.696802,"lng":139.814136,"prefecture":13,"lines":[11313,11314,28008],"attr":"heat","postal_code":"130-0022","address":"墨田区江東橋３丁目","next":[2300201,9930219,2800814,1131323,2100202,9930412],"voronoi":{"lat":35.698393,"lng":139.804057,"delta_lat":[0,4467,730,710,-10277,-1945],"delta_lng":[0,5532,2071,8215,460,-9728]}},
    {"code":1131321,"id":"b83349","name":"両国","name_kana":"りょうごく","lat":35.69579,"lng":139.793334,"prefecture":13,"lines":[11313,99301],"attr":"heat","postal_code":"130-0015","address":"墨田区横網１丁目","next":[9930219,9930412,9930112,9930410,1131320,9930114,9930215],"voronoi":{"lat":35.695062,"lng":139.788603,"delta_lat":[0,3518,3267,-3504,-3610,-4010,2344],"delta_lng":[0,637,10123,3970,-2110,-8469,-3292]}},
    {"code":2100202,"id":"76c77a","name":"とうきょうスカイツリー","name_kana":"とうきょうすかいつりー","lat":35.71043,"lng":139.809332,"prefecture":13,"lines":[21002],"attr":"heat","postal_code":"131-0045","address":"墨田区押上１丁目","open_date":"1902-04-01","next":[2100201,2300201,9930219,1131322,2100204],"voronoi":{"lat":35.70359,"lng":139.81166,"delta_lat":[0,-730,13178,5558,-5070],"delta_lng":[0,-2071,-5179,727,5546]}},
    {"code":2100503,"left":1131324,"right":2100502,"id":"f004b8","name":"東あずま","name_kana":"ひがしあずま","lat":35.707067,"lng":139.831883,"prefecture":13,"lines":[21005],"attr":"heat","postal_code":"131-0043","address":"墨田区立花４-２３-８","next":[2100504,1131323,2100502,2300203,1131324],"voronoi":{"lat":35.718413,"lng":139.837105,"delta_lat":[0,-14500,-1316,1844,14072],"delta_lng":[0,-10987,2277,8494,870]}},
    {"code":1131324,"left":2100504,"id":"a10473","name":"平井(東京)","name_kana":"ひらい","lat":35.70643,"lng":139.842181,"prefecture":13,"lines":[11313],"attr":"heat","postal_code":"132-0035","address":"江戸川区平井３丁目","next":[9930416,2300203,2100503,2100504,1131325,2300204],"voronoi":{"lat":35.719346,"lng":139.839077,"delta_lat":[0,-832,-14072,-6596,3558,19315],"delta_lng":[0,-1317,-870,4859,15122,-12970]}},
    {"code":2100504,"id":"46b5c4","name":"亀戸水神","name_kana":"かめいどすいじん","lat":35.699976,"lng":139.833422,"prefecture":13,"lines":[21005],"attr":"heat","postal_code":"136-0071","address":"江東区亀戸８-５-１","next":[2100503,9930416,1131323,9930415,1131324],"voronoi":{"lat":35.696268,"lng":139.840539,"delta_lat":[0,-2009,8338,1844,-6596],"delta_lng":[0,-9079,-3064,8494,4859]}},
    {"code":2100502,"id":"48a2bb","name":"小村井","name_kana":"おむらい","lat":35.710316,"lng":139.827595,"prefecture":13,"lines":[21005],"attr":"heat","postal_code":"131-0044","address":"墨田区文花２-２０-１","next":[2100503,1131323,2300202,2300203,2300201],"voronoi":{"lat":35.704531,"lng":139.820108,"delta_lat":[0,-618,14500,552,-7875],"delta_lng":[0,6011,10987,-8387,-8438]}},
    {"code":2100205,"left":2100204,"right":2300203,"id":"d98fe7","name":"東向島","name_kana":"ひがしむこうじま","lat":35.724324,"lng":139.819306,"prefecture":13,"lines":[21002],"attr":"heat","postal_code":"131-0032","address":"墨田区東向島４丁目","next":[2300203,2100206,1132004,2300202,2100204],"voronoi":{"lat":35.725976,"lng":139.807791,"delta_lat":[0,4148,-1466,-6584,-855],"delta_lng":[0,2023,13262,2347,-7119]}},
    {"code":2100204,"left":2100201,"right":2800303,"id":"e1efbf","name":"曳舟","name_kana":"ひきふね","lat":35.718418,"lng":139.816634,"prefecture":13,"lines":[21002,21005],"attr":"heat","postal_code":"131-0032","address":"墨田区東向島２丁目","next":[2100201,2300202,2300201,2100205,1132004,2100202],"voronoi":{"lat":35.712845,"lng":139.818361,"delta_lat":[0,8374,4757,-3338,-1043,-5070],"delta_lng":[0,-57,-10513,-3024,370,5546]}},
    {"code":2100201,"left":9930903,"id":"6e2d5c","name":"浅草(その他)","name_kana":"あさくさ","lat":35.711883,"lng":139.798214,"prefecture":13,"lines":[21002,28001,99302],"attr":"heat","postal_code":"111-0033","address":"東京都台東区花川戸一丁目4-1","next":[2100202,9930219,2800102,2100204,9930903,2800303,1132004,9930112],"voronoi":{"lat":35.716038,"lng":139.804411,"delta_lat":[0,5558,1043,232,-783,-11355,-4141,-2245],"delta_lng":[0,727,-370,-4334,-2065,-3770,1124,2664]}},
    {"code":9930903,"id":"e22ab5","name":"浅草(つくばエクスプレス)","name_kana":"あさくさ","lat":35.713817,"lng":139.792389,"prefecture":13,"lines":[99309],"attr":"heat","postal_code":"111-0035","address":"東京都台東区西浅草三丁目1-11","next":[2800103,2800102,2100201,2800304,2800303],"voronoi":{"lat":35.721702,"lng":139.791629,"delta_lat":[0,-6692,-1475,-2803,11355],"delta_lng":[0,-4779,383,7365,3770]}},
    {"code":2800303,"id":"b0682e","name":"三ノ輪","name_kana":"みのわ","lat":35.729623,"lng":139.791485,"prefecture":13,"lines":[28003],"attr":"eco","postal_code":"110-0011","address":"台東区三ノ輪２-１４-７","next":[9930503,9930502,9930903,9930501,2100201,2800304,1132004],"voronoi":{"lat":35.722088,"lng":139.798369,"delta_lat":[0,-385,5889,598,2678,191,-8188],"delta_lng":[0,-6739,-7603,631,4328,6886,4562]}},
    {"code":2300203,"left":2300202,"right":2300204,"id":"7279d1","name":"八広","name_kana":"やひろ","lat":35.727687,"lng":139.828738,"prefecture":13,"lines":[23002],"attr":"heat","postal_code":"131-0041","address":"墨田区八広６-２５-２０","next":[2100503,2100205,1131324,2300204,2100206,2100502,2300202],"voronoi":{"lat":35.718413,"lng":139.837105,"delta_lat":[0,100,832,16094,-6781,-6584,-3109],"delta_lng":[0,654,1317,-11133,-4867,2347,3295]}},
    {"code":2300202,"id":"0411d3","name":"京成曳舟","name_kana":"けいせいひきふね","lat":35.718441,"lng":139.820012,"prefecture":13,"lines":[23002],"attr":"heat","postal_code":"131-0046","address":"墨田区京島１-３９-１","next":[2300201,2100204,2100205,2100502,2300203],"voronoi":{"lat":35.722074,"lng":139.825424,"delta_lat":[0,-855,-8374,-1755,7875],"delta_lng":[0,-7119,57,1919,8438]}},
    {"code":2300204,"id":"005b38","name":"四ツ木","name_kana":"よつぎ","lat":35.731962,"lng":139.834918,"prefecture":13,"lines":[23002],"attr":"heat","postal_code":"124-0011","address":"葛飾区四つ木１-１-１","next":[2300108,2300203,2300107,1131324,1131325,2300205,2100206],"voronoi":{"lat":35.740955,"lng":139.833678,"delta_lat":[0,-1995,-14223,-4019,-1373,16094,2989],"delta_lng":[0,6282,6589,-2648,-4824,-11133,359]}},
    {"code":2300118,"left":2300119,"right":1131328,"id":"ee6ab3","name":"京成中山","name_kana":"けいせいなかやま","lat":35.716998,"lng":139.944203,"prefecture":12,"lines":[23001],"attr":"heat","postal_code":"273-0035","address":"船橋市本中山１-９-１","next":[1131329,2300119,2300117,1130523],"voronoi":{"lat":35.735329,"lng":139.948573,"delta_lat":[0,-18380,-3045,14871],"delta_lng":[0,-8142,7462,4582]}},
    {"code":2300119,"left":9930420,"right":1130524,"id":"0d99e9","name":"東中山","name_kana":"ひがしなかやま","lat":35.714385,"lng":139.952683,"prefecture":12,"lines":[23001],"attr":"heat","postal_code":"273-0036","address":"船橋市東中山２-２-２２","next":[1130523,2300118,2300120,1130524,1131329,2800422],"voronoi":{"lat":35.708363,"lng":139.947955,"delta_lat":[0,5541,14871,-6519,-13636,-2977],"delta_lng":[0,-63,4582,7427,-6085,-3086]}},
    {"code":9930420,"left":2800422,"right":1131329,"id":"acd147","name":"篠崎","name_kana":"しのざき","lat":35.706017,"lng":139.903698,"prefecture":13,"lines":[99304],"attr":"eco","postal_code":"133-0061","address":"江戸川区篠崎町７-２７-１","next":[2300115,1131326,2800421,9930418,2800420,1131327,1131328,9930419],"voronoi":{"lat":35.709297,"lng":139.880567,"delta_lat":[0,282,10363,-3872,-1062,-8460,-10878,-675],"delta_lng":[0,-271,12840,19941,1504,5309,-7999,-1491]}},
    {"code":2800422,"left":9930419,"id":"963e23","name":"原木中山","name_kana":"ばらきなかやま","lat":35.703517,"lng":139.942029,"prefecture":12,"lines":[28004],"attr":"cool","postal_code":"273-0035","address":"船橋市本中山７-７-１","next":[1132611,2300117,2800421,1131329,1130524,2300119,1131328],"voronoi":{"lat":35.705781,"lng":139.927079,"delta_lat":[0,-21031,14534,6360,2720,1491,-341],"delta_lng":[0,14849,10171,-1368,-2775,-15088,-1351]}},
    {"code":9930419,"id":"2cc587","name":"瑞江","name_kana":"みずえ","lat":35.693318,"lng":139.89761,"prefecture":13,"lines":[99304],"attr":"eco","postal_code":"132-0011","address":"江戸川区瑞江２-２-１","next":[2800420,2800419,9930418,9930420],"voronoi":{"lat":35.709297,"lng":139.880567,"delta_lat":[0,-27602,2048,11252],"delta_lng":[0,13660,8985,7188]}},
    {"code":1131329,"id":"904883","name":"下総中山","name_kana":"しもうさなかやま","lat":35.714276,"lng":139.943092,"prefecture":12,"lines":[11313],"attr":"heat","postal_code":"273-0035","address":"船橋市本中山２丁目","next":[2300118,2300119,2800422,2300117],"voronoi":{"lat":35.713904,"lng":139.947892,"delta_lat":[0,-5541,1491,7095],"delta_lng":[0,63,-15088,7563]}},
    {"code":1130524,"left":2300121,"right":2300120,"id":"c67257","name":"西船橋","name_kana":"にしふなばし","lat":35.707283,"lng":139.959536,"prefecture":12,"lines":[11305,11313,28004,99338],"attr":"eco","postal_code":"273-0031","address":"船橋市西船４丁目","next":[2300121,2300119,2300120,1132611,2800422],"voronoi":{"lat":35.699274,"lng":139.964886,"delta_lat":[0,11259,-1913,-2977,-6360],"delta_lng":[0,1271,-12341,-3086,1368]}},
    {"code":2300121,"id":"e70822","name":"海神","name_kana":"かいじん","lat":35.705888,"lng":139.971888,"prefecture":12,"lines":[23001],"attr":"heat","postal_code":"273-0021","address":"船橋市海神５-１-２２","next":[1132611,1130524,2300122,9933802,2300120,2100434],"voronoi":{"lat":35.718168,"lng":139.969522,"delta_lat":[0,-7635,-11259,-7604,5305,11019],"delta_lng":[0,-3365,-1271,8989,2240,0]}},
    {"code":2300120,"id":"289900","name":"京成西船","name_kana":"けいせいにしふな","lat":35.711627,"lng":139.958863,"prefecture":12,"lines":[23001],"attr":"heat","postal_code":"273-0031","address":"船橋市西船４-１５-２７","next":[1130523,2300119,1130524,2300121,2100434],"voronoi":{"lat":35.718168,"lng":139.969522,"delta_lat":[0,-7635,-1913,13636,-4045],"delta_lng":[0,-3365,-12341,6085,9622]}},
    {"code":1131328,"left":2300114,"right":2300116,"id":"9860cd","name":"本八幡","name_kana":"もとやわた","lat":35.720898,"lng":139.92741,"prefecture":12,"lines":[11313,99304],"attr":"cool","postal_code":"272-0021","address":"市川市八幡２丁目","next":[2800421,2300115,2300117,9930420,2300116,2800422],"voronoi":{"lat":35.721076,"lng":139.93275,"delta_lat":[0,2616,-8684,-8460,-768,3733],"delta_lng":[0,-10161,-8008,5309,7189,4438]}},
    {"code":2300114,"left":2300115,"right":1131326,"id":"a8aaf1","name":"市川真間","name_kana":"いちかわまま","lat":35.73121,"lng":139.911717,"prefecture":12,"lines":[23001],"attr":"heat","postal_code":"272-0826","address":"市川市真間１-１１-１","next":[2300113,1131327,2300115,9934004],"voronoi":{"lat":35.724452,"lng":139.913546,"delta_lat":[0,9362,13061,-526],"delta_lng":[0,-6041,7825,6576]}},
    {"code":2300115,"left":1131327,"id":"ff3d26","name":"菅野","name_kana":"すがの","lat":35.728272,"lng":139.919413,"prefecture":12,"lines":[23001],"attr":"heat","postal_code":"272-0824","address":"市川市菅野２-７-１","next":[9930420,2300116,9934005,1131327,9934004,1131328,2300114],"voronoi":{"lat":35.724452,"lng":139.913546,"delta_lat":[0,-8382,-1062,8684,20636,2481,-460],"delta_lng":[0,-469,1504,8008,10524,-8122,-3085]}},
    {"code":1131327,"id":"0d325f","name":"市川","name_kana":"いちかわ","lat":35.728903,"lng":139.908142,"prefecture":12,"lines":[11313,11314],"attr":"cool","postal_code":"272-0034","address":"市川市市川１丁目","next":[2300113,2300112,2300115,1131326,9930420,2300114],"voronoi":{"lat":35.71607,"lng":139.913077,"delta_lat":[0,3872,1470,5916,6486,-9362],"delta_lng":[0,-19941,240,4379,9750,6041]}},
    {"code":1131326,"id":"48fc17","name":"小岩","name_kana":"こいわ","lat":35.733207,"lng":139.881755,"prefecture":13,"lines":[11313],"attr":"heat","postal_code":"133-0056","address":"江戸川区南小岩７丁目","next":[1131325,2300109,9930420,1131327,9930418,2300111,2300112,2300110],"voronoi":{"lat":35.736251,"lng":139.867383,"delta_lat":[0,-4440,-22231,0,10363,1470,14965,3670],"delta_lng":[0,-2211,15116,7,12840,240,-4670,-16800]}},
    {"code":2300116,"left":2300117,"right":1130523,"id":"15f601","name":"京成八幡","name_kana":"けいせいやわた","lat":35.723811,"lng":139.92816,"prefecture":12,"lines":[23001],"attr":"heat","postal_code":"272-0021","address":"市川市八幡３-２-１","next":[2300115,2300117,9934005,1130522,1131328],"voronoi":{"lat":35.723692,"lng":139.922588,"delta_lat":[0,20636,-9,-5098,-18145],"delta_lng":[0,10524,141,6989,-7493]}},
    {"code":2300117,"id":"cd31da","name":"鬼越","name_kana":"おにごえ","lat":35.719776,"lng":139.937932,"prefecture":12,"lines":[23001],"attr":"heat","postal_code":"272-0022","address":"市川市鬼越１-４-５","next":[1130523,2300116,2800422,1131328,2300118,1130522,1131329],"voronoi":{"lat":35.709854,"lng":139.932868,"delta_lat":[0,-341,11563,18145,-2981,-911,-18380],"delta_lng":[0,-1351,1233,7493,7993,337,-8142]}},
    {"code":1130523,"id":"97c9bf","name":"船橋法典","name_kana":"ふなばしほうてん","lat":35.730435,"lng":139.966771,"prefecture":12,"lines":[11305],"attr":"eco","postal_code":"273-0047","address":"船橋市藤原１丁目","next":[2300120,2100434,2300119,2100433,2300117,2100432,2300118,1130522],"voronoi":{"lat":35.736241,"lng":139.948236,"delta_lat":[0,-911,-6554,-6519,-4045,1143,16263,15842],"delta_lng":[0,337,3902,7427,9622,1710,8424,-6947]}},
    {"code":2300205,"left":2300107,"right":9934003,"id":"8c3f27","name":"京成立石","name_kana":"けいせいたていし","lat":35.738281,"lng":139.848558,"prefecture":13,"lines":[23002],"attr":"cool","postal_code":"124-0012","address":"葛飾区立石４-２４-１","next":[1131325,2300108,2300109,2300204],"voronoi":{"lat":35.731681,"lng":139.862649,"delta_lat":[0,14839,-7559,-14223],"delta_lng":[0,-14585,-8104,6589]}},
    {"code":2300107,"left":2100208,"right":9930906,"id":"45ef17","name":"堀切菖蒲園","name_kana":"ほりきりしょうぶえん","lat":35.747649,"lng":139.827545,"prefecture":13,"lines":[23001],"attr":"eco","postal_code":"124-0006","address":"葛飾区堀切５-１-１","next":[2100206,2300108,2100210,1132006,2300204,2100207],"voronoi":{"lat":35.738429,"lng":139.828302,"delta_lat":[0,2527,15276,-2258,-1765,-12142],"delta_lng":[0,5375,80,-13027,-1376,5778]}},
    {"code":2100208,"left":2300144,"right":2300106,"id":"1290e7","name":"牛田(東京)","name_kana":"うしだ","lat":35.744555,"lng":139.811816,"prefecture":13,"lines":[21002],"attr":"heat","postal_code":"120-0023","address":"足立区千住曙町","next":[2100256,2300106,2100210,1132005,2100207],"voronoi":{"lat":35.744361,"lng":139.81493,"delta_lat":[0,-173,3774,3877,-386],"delta_lng":[0,-6748,786,2859,4996]}},
    {"code":2300144,"left":1132004,"right":2100256,"id":"024cd8","name":"西千住","name_kana":"にしせんじゅ","closed":true,"lat":35.744336,"lng":139.793168,"prefecture":13,"lines":[23001],"attr":"unknown","postal_code":"120-0044","address":"東京都足立区１２ 千住緑町２丁目１５−３","next":[9930506,9930504,9934205,2300105,9930502,2100212,1132005,9934206,9930505],"voronoi":{"lat":35.739249,"lng":139.790436,"delta_lat":[0,-824,10800,9476,1131,-1261,-1215,-3000,-13305],"delta_lng":[0,2105,5466,-4324,-6696,-1103,-550,396,3491]}},
    {"code":1132004,"left":2300105,"id":"a02091","name":"南千住","name_kana":"みなみせんじゅ","lat":35.734033,"lng":139.7994,"prefecture":13,"lines":[11320,28003,99309],"attr":"heat","postal_code":"116-0003","address":"荒川区南千住４丁目","next":[2100206,9930501,2100256,2300105,2100205,2300106,2100201,2100204,2800303],"voronoi":{"lat":35.722639,"lng":139.804767,"delta_lat":[0,3338,4148,3594,4313,1611,-2485,-6099,-8188],"delta_lng":[0,3024,2023,55,-3461,-3437,-8463,1363,4562]}},
    {"code":2300105,"id":"59da0a","name":"千住大橋","name_kana":"せんじゅおおはし","lat":35.74243,"lng":139.796934,"prefecture":13,"lines":[23001],"attr":"eco","postal_code":"120-0038","address":"足立区千住橋戸町１１-１","next":[2100256,1132004,1132005,2300144,9930502,9930501],"voronoi":{"lat":35.737924,"lng":139.793094,"delta_lat":[0,500,10800,-1583,-7999,-2485],"delta_lng":[0,-552,5466,1446,3518,-8463]}},
    {"code":2100256,"id":"985bf0","name":"中千住","name_kana":"なかせんじゅ","closed":true,"lat":35.745976,"lng":139.804997,"prefecture":13,"lines":[21002],"attr":"unknown","postal_code":"120-0025","address":"東京都足立区千住東１丁目２３","next":[2100208,2300105,1132004,1132005,2300106],"voronoi":{"lat":35.747963,"lng":139.808969,"delta_lat":[0,-321,-7999,-1611,6157],"delta_lng":[0,-9515,3518,3437,1774]}},
    {"code":2300106,"left":2100207,"right":2300108,"id":"2fa681","name":"京成関屋","name_kana":"けいせいせきや","lat":35.744008,"lng":139.81183,"prefecture":13,"lines":[23001],"attr":"eco","postal_code":"120-0023","address":"足立区千住曙町２-２","next":[2100207,2100208,2100206,1132004,2100256],"voronoi":{"lat":35.738031,"lng":139.806409,"delta_lat":[0,-4313,3094,7549,-173],"delta_lng":[0,3461,3741,1320,-6748]}},
    {"code":2100207,"id":"65f971","name":"堀切","name_kana":"ほりきり","lat":35.742977,"lng":139.817727,"prefecture":13,"lines":[21002],"attr":"heat","postal_code":"120-0023","address":"足立区千住曙町","next":[2300106,2100206,2100208,2300107,2100210],"voronoi":{"lat":35.740067,"lng":139.825133,"delta_lat":[0,-3254,7549,7092,755],"delta_lng":[0,-11522,1320,1893,2531]}},
    {"code":2300108,"id":"2aeb93","name":"お花茶屋","name_kana":"おはなぢゃや","lat":35.747585,"lng":139.83988,"prefecture":13,"lines":[23001],"attr":"cool","postal_code":"124-0005","address":"葛飾区宝町２-３７-１","next":[2300107,2300204,2300109,1132006,1132007,2300205],"voronoi":{"lat":35.73896,"lng":139.83996,"delta_lat":[0,1995,15276,3481,-4773,-8420],"delta_lng":[0,-6282,80,3428,11751,-873]}},
    {"code":9930906,"left":2100211,"right":1132007,"id":"c96901","name":"青井","name_kana":"あおい","lat":35.771782,"lng":139.82038,"prefecture":13,"lines":[99309],"attr":"heat","postal_code":"120-0012","address":"足立区青井三丁目","next":[9930907,2100212,2800501,1132006,2100211,2100210],"voronoi":{"lat":35.765207,"lng":139.817005,"delta_lat":[0,13859,584,-1658,-8244,-5070],"delta_lng":[0,-7655,17,15218,3774,-10449]}},
    {"code":2100211,"left":2100210,"right":2100212,"id":"02d03f","name":"五反野","name_kana":"ごたんの","lat":35.765852,"lng":139.809643,"prefecture":13,"lines":[21002],"attr":"cool","postal_code":"120-0015","address":"足立区足立３丁目","next":[1132005,9930906,2100210,2100212],"voronoi":{"lat":35.760262,"lng":139.798792,"delta_lat":[0,-1461,6407,13859],"delta_lng":[0,4954,13260,-7655]}},
    {"code":2100210,"left":1132005,"id":"bb15c2","name":"小菅","name_kana":"こすげ","lat":35.759039,"lng":139.812935,"prefecture":13,"lines":[21002],"attr":"cool","postal_code":"120-0015","address":"足立区足立２丁目","next":[2300107,2100208,1132006,9930906,1132005,2100211,2100207],"voronoi":{"lat":35.753973,"lng":139.820731,"delta_lat":[0,10705,529,-6407,-6961,-386,755],"delta_lng":[0,-2820,-905,-13260,8082,4996,2531]}},
    {"code":1132005,"id":"6a369b","name":"北千住","name_kana":"きたせんじゅ","lat":35.749677,"lng":139.804872,"prefecture":13,"lines":[11320,21002,28003,28005,99309],"attr":"cool","postal_code":"120-0026","address":"足立区千住旭町","next":[2100211,2100212,2300105,2100256,2100208,2100210,2300144],"voronoi":{"lat":35.758701,"lng":139.793684,"delta_lat":[0,1561,-1461,-6961,-3877,-321,1583],"delta_lng":[0,5108,4954,8082,-2859,-9515,-1446]}},
    {"code":2100212,"id":"02a6aa","name":"梅島","name_kana":"うめじま","lat":35.772437,"lng":139.797916,"prefecture":13,"lines":[21002],"attr":"cool","postal_code":"123-0851","address":"足立区梅田７丁目","next":[1132005,9930906,9934206,2100214,2100211,9930907,2100213,2300144],"voronoi":{"lat":35.760262,"lng":139.798792,"delta_lat":[0,18805,584,7376,-1437,-23067,-2691,-1131],"delta_lng":[0,10559,17,-3865,-4422,-14940,847,6696]}},
    {"code":1132007,"left":1132006,"right":2800501,"id":"389b50","name":"亀有","name_kana":"かめあり","lat":35.766527,"lng":139.847573,"prefecture":13,"lines":[11320],"attr":"eco","postal_code":"125-0061","address":"葛飾区亀有３","next":[1132006,2800501,2300303,2300109,2300110,2300108,9930908,1132008],"voronoi":{"lat":35.78784,"lng":139.856389,"delta_lat":[0,-365,-21303,-6459,-4773,3350,3243,8492],"delta_lng":[0,-5918,-14519,1233,11751,7932,2620,-724]}},
    {"code":1132006,"id":"059265","name":"綾瀬","name_kana":"あやせ","lat":35.762222,"lng":139.825019,"prefecture":13,"lines":[11320,28005],"attr":"eco","postal_code":"120-0005","address":"足立区綾瀬３丁目","next":[1132007,9930906,2300107,2300108,2100210,2800501],"voronoi":{"lat":35.759712,"lng":139.837186,"delta_lat":[0,-3481,-2258,10705,5070,-3577],"delta_lng":[0,-3428,-13027,-2820,10449,7593]}},
    {"code":2800501,"id":"5c5b3c","name":"北綾瀬","name_kana":"きたあやせ","lat":35.777117,"lng":139.832035,"prefecture":13,"lines":[28005],"attr":"eco","postal_code":"120-0006","address":"足立区谷中２丁目","next":[1132007,9930908,9930906,9930907,1132006],"voronoi":{"lat":35.787474,"lng":139.850472,"delta_lat":[0,5926,-15408,-8244,-3577],"delta_lng":[0,-14056,-11830,3774,7593]}},
    {"code":9934003,"left":2300111,"right":1130521,"id":"efbbef","name":"矢切","name_kana":"やぎり","lat":35.757503,"lng":139.899742,"prefecture":12,"lines":[99340],"attr":"eco","postal_code":"271-0096","address":"松戸市下矢切字入山津１２０","next":[2300302,2300113,2300111,2300112,1132008,9934002,9934004,1132009],"voronoi":{"lat":35.771445,"lng":139.888374,"delta_lat":[0,-3488,-6438,-10504,-2516,-1554,1578,22359],"delta_lng":[0,-1440,309,3349,2408,8742,9615,-8342]}},
    {"code":2300111,"left":9934002,"right":2300112,"id":"31292c","name":"京成小岩","name_kana":"けいせいこいわ","lat":35.742158,"lng":139.88371,"prefecture":13,"lines":[23001],"attr":"cool","postal_code":"133-0051","address":"江戸川区北小岩２-１０-９","next":[2300112,9934003,1131326,9934002,2300110],"voronoi":{"lat":35.740047,"lng":139.871906,"delta_lat":[0,-3670,12121,2516,-8526],"delta_lng":[0,16800,4295,-2408,-17414]}},
    {"code":9934002,"left":2300110,"right":2300302,"id":"a66967","name":"新柴又","name_kana":"しんしばまた","lat":35.75101,"lng":139.879376,"prefecture":13,"lines":[99340],"attr":"heat","postal_code":"125-0052","address":"葛飾区柴又５-７-１","next":[2300110,2300302,9934003,2300111],"voronoi":{"lat":35.761519,"lng":139.887244,"delta_lat":[0,-11126,-7904,8526],"delta_lng":[0,-14114,49,17414]}},
    {"code":2300110,"left":2300109,"id":"74a83b","name":"京成高砂","name_kana":"けいせいたかさご","lat":35.750932,"lng":139.866875,"prefecture":13,"lines":[23001,23002,23003,23006,99340],"attr":"cool","postal_code":"125-0054","address":"東京都葛飾区高砂五丁目28-1","next":[2300109,1132007,9934002,2300302,2300303,1131326,2300111],"voronoi":{"lat":35.750393,"lng":139.873129,"delta_lat":[0,9663,1477,-3243,-22039,3797,2441],"delta_lng":[0,-6267,-7374,-2620,10515,4522,1273]}},
    {"code":2300109,"id":"5f4d37","name":"青砥","name_kana":"あおと","lat":35.745883,"lng":139.856292,"prefecture":13,"lines":[23001,23002,23006],"attr":"cool","postal_code":"125-0062","address":"東京都葛飾区青戸三丁目36番1号","open_date":"1928-11-01","next":[2300110,2300108,1131326,1132007,2300205,1131325],"voronoi":{"lat":35.731681,"lng":139.862649,"delta_lat":[0,14839,8420,3350,-22039,-4440],"delta_lng":[0,-14585,873,7932,10515,-2211]}},
    {"code":2300302,"id":"ff44f0","name":"柴又","name_kana":"しばまた","lat":35.756323,"lng":139.875188,"prefecture":13,"lines":[23003],"attr":"cool","postal_code":"125-0052","address":"葛飾区柴又４-８-１４","next":[2300303,9934003,1132008,9934002,2300110],"voronoi":{"lat":35.760056,"lng":139.866863,"delta_lat":[0,7626,275,-6438,-11126],"delta_lng":[0,19297,775,309,-14114]}},
    {"code":2300112,"left":2300113,"right":1130522,"id":"0e0bda","name":"江戸川","name_kana":"えどがわ","lat":35.737723,"lng":139.896226,"prefecture":13,"lines":[23001],"attr":"cool","postal_code":"133-0051","address":"江戸川区北小岩３-２４-１５","next":[2300111,1131327,2300113,9934003,1131326],"voronoi":{"lat":35.736378,"lng":139.888706,"delta_lat":[0,12121,-1554,-19616,-5916],"delta_lng":[0,4295,8742,-3988,-4379]}},
    {"code":2300113,"id":"b540aa","name":"国府台","name_kana":"こうのだい","lat":35.736301,"lng":139.90322,"prefecture":12,"lines":[23001],"attr":"heat","postal_code":"272-0034","address":"市川市市川３-３０-１","next":[1131327,9934004,2300114,9934003,2300112],"voronoi":{"lat":35.727328,"lng":139.897754,"delta_lat":[0,6486,13061,1647,-1578],"delta_lng":[0,9750,7825,-3972,-9615]}},
    {"code":1130522,"id":"72a126","name":"市川大野","name_kana":"いちかわおおの","lat":35.755432,"lng":139.951227,"prefecture":12,"lines":[11305],"attr":"eco","postal_code":"272-0805","address":"市川市大野町３丁目","next":[2100432,9934007,9934005,2300116,1130521,9934008,2300117,1130523],"voronoi":{"lat":35.752974,"lng":139.973222,"delta_lat":[0,8860,3970,-6135,-15349,-5098,-2981,15219],"delta_lng":[0,-7801,-12160,-12621,-7386,6989,7993,24475]}},
    {"code":1130521,"left":2300303,"right":9934007,"id":"9f5c62","name":"東松戸","name_kana":"ひがしまつど","lat":35.770611,"lng":139.943848,"prefecture":12,"lines":[11305,23006,99340],"attr":"eco","postal_code":"270-2221","address":"千葉県松戸市紙敷","open_date":"1991-03-31","next":[9932921,1130520,1130522,9934007,9932920,9934005],"voronoi":{"lat":35.777497,"lng":139.933424,"delta_lat":[0,2131,2347,936,-17107,-6135],"delta_lng":[0,2777,7518,3673,5869,-12621]}},
    {"code":2300303,"left":9934005,"right":1132008,"id":"53a7c3","name":"京成金町","name_kana":"けいせいかなまち","lat":35.768471,"lng":139.870387,"prefecture":13,"lines":[23003],"attr":"cool","postal_code":"125-0042","address":"葛飾区金町５-３７-９","next":[2300302,1132007,2300110,1132008],"voronoi":{"lat":35.770024,"lng":139.858765,"delta_lat":[0,-8492,-1477,7626],"delta_lng":[0,724,7374,19297]}},
    {"code":9934005,"left":9934004,"id":"0ab083","name":"秋山","name_kana":"あきやま","lat":35.765299,"lng":139.930723,"prefecture":12,"lines":[99340],"attr":"eco","postal_code":"270-2223","address":"松戸市秋山字前原１１２","next":[9932923,9934004,2300115,9932921,2300116,9932922,1130522,1130521],"voronoi":{"lat":35.74432,"lng":139.933253,"delta_lat":[0,9,2481,29033,554,586,514,-17828],"delta_lng":[0,-141,-8122,-4201,913,1884,9837,7216]}},
    {"code":9934004,"id":"d86d6f","name":"北国分","name_kana":"きたこくぶん","lat":35.762916,"lng":139.914252,"prefecture":12,"lines":[99340],"attr":"eco","postal_code":"272-0837","address":"市川市堀之内３-２１-１","next":[9934005,2300113,9932923,2300115,1132009,2300114,9934003],"voronoi":{"lat":35.770882,"lng":139.903016,"delta_lat":[0,5555,-594,-29033,-460,526,1647],"delta_lng":[0,8888,8886,4201,-3085,-6576,-3972]}},
    {"code":1132008,"id":"d4669f","name":"金町","name_kana":"かなまち","lat":35.769582,"lng":139.870482,"prefecture":13,"lines":[11320],"attr":"eco","postal_code":"125-0042","address":"葛飾区金町６丁目","next":[2300302,1132009,9934003,9930909,2300303,9930908,1132007],"voronoi":{"lat":35.767682,"lng":139.88616,"delta_lat":[0,275,3488,25391,703,-9699,-17815],"delta_lng":[0,775,1440,-12479,-4910,-14596,2375]}},
    {"code":9934007,"left":9934008,"right":9932916,"id":"a31281","name":"松飛台","name_kana":"まつひだい","lat":35.775377,"lng":139.957739,"prefecture":12,"lines":[99340],"attr":"eco","postal_code":"270-2221","address":"松戸市紙敷１-２９-５","next":[9934008,1130520,1130522,9932919,9932916,1130521,9932918],"voronoi":{"lat":35.789301,"lng":139.953688,"delta_lat":[0,-317,-6073,-17107,-3970,19514,4098],"delta_lng":[0,-1074,-5222,5869,12160,338,-1589]}},
    {"code":9934008,"id":"f5d2be","name":"大町(千葉)","name_kana":"おおまち","lat":35.775103,"lng":139.973567,"prefecture":12,"lines":[99340],"attr":"eco","postal_code":"272-0801","address":"市川市大町１７５","next":[2100431,2100432,9934007,9932915,9932916,1130522],"voronoi":{"lat":35.756245,"lng":139.979107,"delta_lat":[0,10311,9714,5077,-19514,-8860],"delta_lng":[0,4933,-1105,-17176,-338,7801]}},
    {"code":9932916,"id":"57894f","name":"くぬぎ山","name_kana":"くぬぎやま","lat":35.782343,"lng":139.975707,"prefecture":12,"lines":[99329],"attr":"cool","postal_code":"273-0128","address":"鎌ケ谷市くぬぎ山５-１-６","next":[9932918,9932915,9932917,9934008,9934007],"voronoi":{"lat":35.785445,"lng":139.96417,"delta_lat":[0,999,-319,-9855,5077],"delta_lng":[0,1507,20286,-3028,-17176]}},
    {"code":9933806,"left":2300131,"right":2300137,"id":"7c0cb6","name":"八千代緑が丘","name_kana":"やちよみどりがおか","lat":35.728884,"lng":140.073461,"prefecture":12,"lines":[99338],"attr":"heat","postal_code":"276-0049","address":"八千代市緑が丘１-１１０４-３","next":[9933805,9933807,9934011,9934012,2300129,2300128],"voronoi":{"lat":35.719034,"lng":140.088256,"delta_lat":[0,38242,974,-1931,-48206,-232],"delta_lng":[0,1361,-21663,-5569,6493,1885]}},
    {"code":2300131,"left":2300130,"right":1131425,"id":"e9d73a","name":"勝田台","name_kana":"かつただい","lat":35.715445,"lng":140.126053,"prefecture":12,"lines":[23001],"attr":"eco","postal_code":"276-0023","address":"八千代市勝田台１-８-１","next":[2300132,9933207,2300130,9933809,1131413,9933808],"voronoi":{"lat":35.695845,"lng":140.13765,"delta_lat":[0,-11684,-5198,70,35829,5562],"delta_lng":[0,1210,-7027,-8264,-6430,5987]}},
    {"code":2300130,"left":1131332,"right":9932905,"id":"2e73f3","name":"京成大和田","name_kana":"けいせいおおわだ","lat":35.712309,"lng":140.108578,"prefecture":12,"lines":[23001],"attr":"eco","postal_code":"276-0045","address":"八千代市大和田字小板橋３０８","next":[9933206,9933207,9933808,2300129,9933807,2300131],"voronoi":{"lat":35.714863,"lng":140.117139,"delta_lat":[0,6333,-4949,-37965,617,135],"delta_lng":[0,-7370,-15764,23344,5661,559]}},
    {"code":1131332,"left":1131331,"right":2300129,"id":"906609","name":"東船橋","name_kana":"ひがしふなばし","lat":35.699811,"lng":140.00393,"prefecture":12,"lines":[11313],"attr":"eco","postal_code":"273-0002","address":"船橋市東船橋２丁目","next":[1131333,2300123,9933803,2300124,2100433,9932903,2300122,1131331,2300125],"voronoi":{"lat":35.702515,"lng":140.015654,"delta_lat":[0,1212,16282,-6944,-7811,-2131,-6603,-4179,1574],"delta_lng":[0,-44,-12638,-7347,-834,-41,3099,7189,6147]}},
    {"code":1131331,"left":2300123,"right":9933802,"id":"d88909","name":"船橋","name_kana":"ふなばし","lat":35.701865,"lng":139.984707,"prefecture":12,"lines":[11313,11314,21004],"attr":"cool","postal_code":"273-0005","address":"船橋市本町７丁目","next":[2100433,2300122,9933802,2100434,1131332],"voronoi":{"lat":35.705253,"lng":139.99479,"delta_lat":[0,-8036,12067,3656,124],"delta_lng":[0,-18404,11124,6752,1362]}},
    {"code":2300123,"left":2300122,"id":"276f3d","name":"大神宮下","name_kana":"だいじんぐうした","lat":35.693945,"lng":139.991431,"prefecture":12,"lines":[23001],"attr":"heat","postal_code":"273-0003","address":"船橋市宮本２-９-９","next":[2300124,1131332,1132611,2300122,1132612],"voronoi":{"lat":35.696519,"lng":139.997849,"delta_lat":[0,6603,-17942,-3462,5470],"delta_lng":[0,-3099,-18649,289,15294]}},
    {"code":2300122,"id":"34aa3a","name":"京成船橋","name_kana":"けいせいふなばし","lat":35.700161,"lng":139.985451,"prefecture":12,"lines":[23001],"attr":"heat","postal_code":"273-0005","address":"船橋市本町１-５-１","next":[1131331,1132611,2300123,2300121,1131332,9933802],"voronoi":{"lat":35.705253,"lng":139.99479,"delta_lat":[0,-2131,-17942,6490,5305,242],"delta_lng":[0,-41,-18649,-2225,2240,271]}},
    {"code":9933802,"id":"b4205a","name":"東海神","name_kana":"ひかしかいじん","lat":35.705888,"lng":139.980343,"prefecture":12,"lines":[99338],"attr":"eco","postal_code":"273-0021","address":"船橋市海神２-１５地下１号","next":[2300121,1131331,2100434,2300122],"voronoi":{"lat":35.709285,"lng":139.987511,"delta_lat":[0,-1290,-11019,242],"delta_lng":[0,-11395,0,271]}},
    {"code":2300129,"left":9932903,"right":9932904,"id":"8ee0a2","name":"八千代台","name_kana":"やちよだい","lat":35.701465,"lng":140.090942,"prefecture":12,"lines":[23001],"attr":"eco","postal_code":"276-0031","address":"八千代市八千代台北１","next":[9933807,2300128,1131336,9933806,2300130,9933206],"voronoi":{"lat":35.670411,"lng":140.099116,"delta_lat":[0,1960,35511,11153,-2788,-37965],"delta_lng":[0,-5445,-22908,17493,5749,23344]}},
    {"code":9932903,"left":1131333,"id":"7e7db4","name":"前原","name_kana":"まえばら","lat":35.700666,"lng":140.027542,"prefecture":12,"lines":[99329],"attr":"eco","postal_code":"274-0825","address":"船橋市前原西７-１７-２１","next":[9932904,9932902,9933803,1131332,2300127,1131333],"voronoi":{"lat":35.702515,"lng":140.015654,"delta_lat":[0,1212,5303,-12011,-5613,4711],"delta_lng":[0,-44,13560,11471,-3900,-13007]}},
    {"code":1131333,"id":"f55fa3","name":"津田沼","name_kana":"つだぬま","lat":35.691367,"lng":140.020179,"prefecture":12,"lines":[11313,11314],"attr":"cool","postal_code":"275-0016","address":"習志野市津田沼１丁目","next":[1131332,9932902,9932903,2300125,2300126],"voronoi":{"lat":35.683698,"lng":140.01617,"delta_lat":[0,10216,8600,-6398,-9832],"delta_lng":[0,-4985,4469,8080,-3262]}},
    {"code":9932904,"id":"7e7aa6","name":"薬園台","name_kana":"やくえんだい","lat":35.710271,"lng":140.037599,"prefecture":12,"lines":[99329],"attr":"eco","postal_code":"274-0077","address":"船橋市薬円台６-１-１","next":[9932903,9933803,9932907,9932906,9932905,2300127],"voronoi":{"lat":35.717625,"lng":140.035505,"delta_lat":[0,501,-489,-8608,-12011,4677],"delta_lng":[0,-1206,-2991,-2138,11471,10284]}},
    {"code":9932905,"left":2100433,"right":9933805,"id":"a0c1bf","name":"習志野","name_kana":"ならしの","lat":35.715293,"lng":140.042787,"prefecture":12,"lines":[99329],"attr":"eco","postal_code":"274-0063","address":"船橋市習志野台４-１-９","next":[9933805,9932906,9932904,2300128,2300127],"voronoi":{"lat":35.701695,"lng":140.050925,"delta_lat":[0,15930,1638,-12874,-3332],"delta_lng":[0,-15420,16700,9263,-3715]}},
    {"code":2100433,"left":9932906,"right":9932907,"id":"e29a12","name":"塚田","name_kana":"つかだ","lat":35.722102,"lng":139.982859,"prefecture":12,"lines":[21004],"attr":"cool","postal_code":"273-0042","address":"船橋市前貝塚町５６４","next":[1131331,1130523,2100434,2100432,1131332,9933803],"voronoi":{"lat":35.735617,"lng":139.979657,"delta_lat":[0,-16263,-6414,124,6944,4039],"delta_lng":[0,-8424,23029,1362,7347,822]}},
    {"code":9932906,"left":9933803,"id":"786b49","name":"北習志野","name_kana":"きたならしの","lat":35.721328,"lng":140.042195,"prefecture":12,"lines":[99329,99338],"attr":"eco","postal_code":"274-0063","address":"船橋市習志野台３-１-１","next":[9933805,9932907,9932904,9932905],"voronoi":{"lat":35.717625,"lng":140.035505,"delta_lat":[0,501,17210,-16073],"delta_lng":[0,-1206,12535,5371]}},
    {"code":9933803,"id":"8bc0a4","name":"飯山満","name_kana":"はさま","lat":35.71407,"lng":140.0223,"prefecture":12,"lines":[99338],"attr":"eco","postal_code":"274-0822","address":"船橋市飯山満町３-１０５３-５","next":[1131332,9932904,9932908,9932909,2100433,9932903,9932907,2100432],"voronoi":{"lat":35.724047,"lng":140.003793,"delta_lat":[0,-4039,-16282,5303,8608,3951,6304,785],"delta_lng":[0,-822,12638,13560,2138,-3930,-14570,-4781]}},
    {"code":9932907,"id":"bef792","name":"高根木戸","name_kana":"たかねきど","lat":35.726625,"lng":140.034923,"prefecture":12,"lines":[99329],"attr":"eco","postal_code":"274-0063","address":"船橋市習志野台１-１-３","next":[9933805,9932908,9932906,9932904,9932909,9933803,9932910],"voronoi":{"lat":35.735336,"lng":140.046834,"delta_lat":[0,-17210,-489,3951,17487,1627,1482],"delta_lng":[0,-12535,-2991,-3930,12027,2120,5222]}},
    {"code":9933805,"left":9933808,"right":9933807,"id":"497f98","name":"船橋日大前","name_kana":"ふなばしにちだいまえ","lat":35.726931,"lng":140.058962,"prefecture":12,"lines":[99338],"attr":"eco","postal_code":"274-0062","address":"船橋市坪井町６８１-３","next":[9933806,9932906,9932907,9932910,9934011,2300128,9932905],"voronoi":{"lat":35.719263,"lng":140.052205,"delta_lat":[0,16073,6848,13661,474,-48206,-1724],"delta_lng":[0,-5371,-87,9999,5639,6493,-7410]}},
    {"code":9933808,"id":"6835b5","name":"村上(千葉)","name_kana":"むらかみ","lat":35.72371,"lng":140.118375,"prefecture":12,"lines":[99338],"attr":"cool","postal_code":"276-0028","address":"八千代市村上字辺田前４０８９-２","next":[9933809,2300130,9931306,9933807,9931305,2300131],"voronoi":{"lat":35.729637,"lng":140.132999,"delta_lat":[0,6525,20730,-35697,-6333,5562],"delta_lng":[0,-1927,-11329,-9975,7370,5987]}},
    {"code":9933807,"id":"e3e498","name":"八千代中央","name_kana":"やちよちゅうおう","lat":35.727807,"lng":140.103713,"prefecture":12,"lines":[99338],"attr":"heat","postal_code":"276-0042","address":"八千代市ゆりのき台１-３８","next":[9934012,2300129,9933806,9934013,9933808,2300130,9931305],"voronoi":{"lat":35.721195,"lng":140.109769,"delta_lat":[0,-4949,2788,38242,7461,-2164,-5681],"delta_lng":[0,-15764,-5749,1361,15979,12583,1565]}},
    {"code":1131425,"left":1131424,"right":9933502,"id":"086572","name":"干潟","name_kana":"ひがた","lat":35.718308,"lng":140.603304,"prefecture":12,"lines":[11314],"attr":"heat","postal_code":"289-2504","address":"旭市ニ","next":[1132713,1131426,1132714,1131424],"voronoi":{"lat":35.78467,"lng":140.549551,"delta_lat":[0,-667,-3037,-242832],"delta_lng":[0,68438,7037,16536]}},
    {"code":1131424,"left":9933809,"right":9933509,"id":"2ac69f","name":"八日市場","name_kana":"ようかいちば","lat":35.699317,"lng":140.552419,"prefecture":12,"lines":[11314],"attr":"heat","postal_code":"289-2144","address":"匝瑳市八日市場イ","next":[1132713,1131423,1131422,9932402,1132710,1131426,1131425],"voronoi":{"lat":35.452876,"lng":140.660266,"delta_lat":[0,90364,240067,6154,6004,-10795,-246536],"delta_lng":[0,-55050,-109132,2206,20088,31173,92011]}},
    {"code":9933809,"left":1131416,"right":2300132,"id":"e298c9","name":"東葉勝田台","name_kana":"とうようかつただい","lat":35.715458,"lng":140.126075,"prefecture":12,"lines":[99338],"attr":"cool","postal_code":"276-0028","address":"八千代市村上字下市場台北側４５０３-２４","next":[9933808,2300132,9931306,2300131],"voronoi":{"lat":35.720424,"lng":140.123126,"delta_lat":[0,9213,-1767,-32025],"delta_lng":[0,9874,1350,3300]}},
    {"code":1131416,"left":1131415,"id":"cca655","name":"南酒々井","name_kana":"みなみしすい","lat":35.704217,"lng":140.267828,"prefecture":12,"lines":[11314],"attr":"cool","postal_code":"285-0914","address":"印旛郡酒々井町馬橋","next":[1131414,1132702,1131417,1131415,2300136],"voronoi":{"lat":35.709287,"lng":140.247585,"delta_lat":[0,-42731,-6828,51805,8530],"delta_lng":[0,-5745,1876,51657,-31539]}},
    {"code":1131415,"id":"d82403","name":"佐倉","name_kana":"さくら","lat":35.709743,"lng":140.226722,"prefecture":12,"lines":[11314,11327,11328],"attr":"heat","postal_code":"285-0812","address":"佐倉市六崎","next":[2300134,1131414,2300136,2300135,1131416],"voronoi":{"lat":35.666556,"lng":140.241841,"delta_lat":[0,45590,9757,-7234,-5382],"delta_lng":[0,-41496,4308,38424,4509]}},
    {"code":2300132,"id":"6fd8c3","name":"志津","name_kana":"しづ","lat":35.717406,"lng":140.144982,"prefecture":12,"lines":[23001],"attr":"eco","postal_code":"285-0846","address":"佐倉市上志津１６６９","next":[1131413,2300131,9933809,2300133,9931302,9931306],"voronoi":{"lat":35.727871,"lng":140.13435,"delta_lat":[0,-32025,-11684,8192,29867,2647],"delta_lng":[0,3300,1210,22340,-11543,-2321]}},
    {"code":9933509,"left":9933510,"right":9933508,"id":"7ff992","name":"犬吠","name_kana":"いぬぼう","lat":35.706258,"lng":140.860935,"prefecture":12,"lines":[99335],"attr":"heat","postal_code":"288-0012","address":"銚子市犬吠埼町９５９５-１","next":[9933507,1110816,1110817,9933510,9933508],"voronoi":{"lat":34.255494,"lng":151.547974,"delta_lat":[0,-19734135,-5447745,26635814,1900],"delta_lng":[0,31737515,8753538,-51192663,36497]}},
    {"code":9933510,"id":"5cb658","name":"外川","name_kana":"とかわ","lat":35.699314,"lng":140.857322,"prefecture":12,"lines":[99335],"attr":"heat","postal_code":"288-0014","address":"銚子市外川町２-１０６３６","next":[1131430,1132418,1110817,9933503,1132419,1131427,9933509,9933508,1131426,1132417,1131428,1132420,9933502,1131431],"voronoi":{"enclosed":false,"lat":-37.011359,"lng":213.910466,"delta_lat":[0,70296750,1644543,326852,127474,103421,81178,43065,49711,38255,7709,2736,-908,-26635814,-52832117],"delta_lng":[0,-71122197,-1640228,-314070,-114113,11513,14054,11577,32036,38731,9697,4711,4188,51192663,84904460]}},
    {"code":9933508,"id":"45700a","name":"君ヶ浜","name_kana":"きみがはま","lat":35.714093,"lng":140.860527,"prefecture":12,"lines":[99335],"attr":"cool","postal_code":"288-0011","address":"千葉県銚子市君ケ浜8987-4","next":[9933504,9933506,9933503,9933507,9933510,9933509,9933505],"voronoi":{"lat":35.719525,"lng":140.85735,"delta_lat":[0,-8197,-1900,908,7152,1363,494],"delta_lng":[0,25512,-36497,-4188,5206,1823,1951]}},
    {"code":9933502,"left":2300135,"right":9933506,"id":"e5bfd9","name":"仲ノ町","name_kana":"なかのちょう","lat":35.728813,"lng":140.833871,"prefecture":12,"lines":[99335],"attr":"eco","postal_code":"288-0056","address":"銚子市新生町２-２９７","next":[1131431,9933503,9933504,9933510],"voronoi":{"lat":35.699891,"lng":140.827769,"delta_lat":[0,68571,-10380,-50482],"delta_lng":[0,6907,1666,1124]}},
    {"code":2300135,"left":1131426,"right":9931302,"id":"98ff24","name":"京成佐倉","name_kana":"けいせいさくら","lat":35.725205,"lng":140.229633,"prefecture":12,"lines":[23001],"attr":"cool","postal_code":"285-0014","address":"佐倉市栄町１００１-５","next":[9934015,2300136,2300134,1131415],"voronoi":{"lat":35.721903,"lng":140.204652,"delta_lat":[0,30756,10479,-48469],"delta_lng":[0,3030,24619,10775]}},
    {"code":1131426,"left":2300133,"id":"cc042e","name":"旭(千葉)","name_kana":"あさひ","lat":35.721831,"lng":140.655041,"prefecture":12,"lines":[11314],"attr":"eco","postal_code":"289-2516","address":"旭市ロ","next":[1131427,1132417,1131422,1131425,9933510,1132414,1131424,1132714],"voronoi":{"lat":35.487682,"lng":140.73137,"delta_lat":[0,-103421,5666,27614,35335,85258,242832,-172],"delta_lng":[0,-11513,-9449,-37219,-12924,-18704,-16536,30078]}},
    {"code":2300133,"id":"5d976d","name":"ユーカリが丘","name_kana":"ゆーかりがおか","lat":35.721801,"lng":140.156354,"prefecture":12,"lines":[23001,99313],"attr":"eco","postal_code":"285-0858","address":"佐倉市ユーカリが丘４-８-２","next":[9931302,2300134,1131413,2300132,1131414],"voronoi":{"lat":35.693647,"lng":140.170009,"delta_lat":[0,-1293,29867,5440,-25895],"delta_lng":[0,-8809,-11543,18330,8704]}},
    {"code":9931302,"id":"a82ba3","name":"地区センター","name_kana":"ちくせんたー","lat":35.726225,"lng":140.155041,"prefecture":12,"lines":[99313],"attr":"eco","postal_code":"285-0858","address":"佐倉市ユーカリが丘４-３-１","next":[2300133,9931303,2300134,2300132,9931306],"voronoi":{"lat":35.724868,"lng":140.147336,"delta_lat":[0,-2647,5440,4498,-5051],"delta_lng":[0,2321,18330,-662,-17805]}},
    {"code":9933506,"left":9933507,"right":9933505,"id":"9c0a55","name":"西海鹿島","name_kana":"にしあしかじま","lat":35.725131,"lng":140.860207,"prefecture":12,"lines":[99335],"attr":"cool","postal_code":"288-0005","address":"銚子市海鹿島町５２１２","next":[9933505,9933508,1122926,1122923,9933507,9931502],"voronoi":{"lat":36.316326,"lng":141.452818,"delta_lat":[0,5637,-602438,-180,592456,4386],"delta_lng":[0,38874,-634343,-6193,589237,11818]}},
    {"code":9933507,"id":"df76ea","name":"海鹿島","name_kana":"あしかじま","lat":35.722089,"lng":140.863096,"prefecture":12,"lines":[99335],"attr":"cool","postal_code":"288-0021","address":"銚子市小畑新町８５０５-１","next":[1123004,1122932,9933509,1123003,9933508,1110816,9920804,9933506,1122926],"voronoi":{"lat":36.345031,"lng":141.709099,"delta_lat":[0,-153380,-288851,-1205506,-441800,1455834,8197,602438,22602],"delta_lng":[0,1796970,3093046,4239505,709354,-10665113,-25512,634343,153285]}},
    {"code":9933505,"id":"8323e8","name":"笠上黒生","name_kana":"かさがみくろはえ","lat":35.728427,"lng":140.856893,"prefecture":12,"lines":[99335],"attr":"eco","postal_code":"288-0004","address":"銚子市笠上町６０１５","next":[9934702,9933506,1132907,9933508,9933504,9931502],"voronoi":{"lat":35.719345,"lng":140.851156,"delta_lat":[0,-494,246813,167220,77715,101202],"delta_lng":[0,-1951,71679,151485,93005,275019]}},
    {"code":2300137,"left":2100432,"right":2300138,"id":"3aad37","name":"京成酒々井","name_kana":"けいせいしすい","lat":35.736867,"lng":140.270132,"prefecture":12,"lines":[23001],"attr":"cool","postal_code":"285-0921","address":"印旛郡酒々井町中川５６０-１","next":[2300138,1132702,2300136],"voronoi":{"lat":35.76225,"lng":140.250077,"delta_lat":[0,-20575,-16628],"delta_lng":[0,29985,-16599]}},
    {"code":2100432,"left":9931303,"right":9932912,"id":"e94c2e","name":"馬込沢","name_kana":"まごめざわ","lat":35.741586,"lng":139.992199,"prefecture":12,"lines":[21004],"attr":"cool","postal_code":"273-0047","address":"船橋市藤原７-２-１","next":[1130522,9934008,9932912,2100433,1130523,2100431,9933803,9932909],"voronoi":{"lat":35.728678,"lng":140.008026,"delta_lat":[0,-4630,11570,15842,1514,3272,-5238,-9763],"delta_lng":[0,-4233,-24136,-6947,511,5885,22927,7333]}},
    {"code":9931303,"left":9932909,"right":2300134,"id":"0d0b78","name":"公園","name_kana":"こうえん","lat":35.730758,"lng":140.153755,"prefecture":12,"lines":[99313],"attr":"eco","postal_code":"285-0858","address":"佐倉市ユーカリが丘６-５-５","next":[2300134,9931302,9931306,9931304],"voronoi":{"lat":35.734923,"lng":140.152265,"delta_lat":[0,-7816,5051,190],"delta_lng":[0,-2745,17805,5]}},
    {"code":9932909,"left":9931306,"right":9931305,"id":"b56eee","name":"滝不動","name_kana":"たきふどう","lat":35.737957,"lng":140.02622,"prefecture":12,"lines":[99329],"attr":"eco","postal_code":"274-0813","address":"船橋市南三咲３-２３-１","next":[9932911,9933803,9932907,9932908,9932910,9932912,2100432],"voronoi":{"lat":35.744181,"lng":140.014073,"delta_lat":[0,920,-4398,-1627,-11183,785,12567],"delta_lng":[0,5864,21587,-2120,-26597,-4781,1340]}},
    {"code":9931306,"left":9932908,"id":"799ea8","name":"井野(千葉)","name_kana":"いの","lat":35.732605,"lng":140.148497,"prefecture":12,"lines":[99313],"attr":"heat","postal_code":"285-0858","address":"佐倉市ユーカリが丘７-２４-１","next":[9931305,9933808,9931304,9931303,2300132,9933809,9931302],"voronoi":{"lat":35.724868,"lng":140.147336,"delta_lat":[0,3003,1767,6525,231,-1470,-7816],"delta_lng":[0,-12986,-1350,-1927,19903,1289,-2745]}},
    {"code":9932908,"id":"19777e","name":"高根公団","name_kana":"たかねこうだん","lat":35.730436,"lng":140.029382,"prefecture":12,"lines":[99329],"attr":"eco","postal_code":"274-0065","address":"船橋市高根台１-６-１","next":[9932907,9933803,9932909],"voronoi":{"lat":35.727893,"lng":140.012808,"delta_lat":[0,-6304,17487],"delta_lng":[0,14570,12027]}},
    {"code":9931305,"id":"03e3d3","name":"中学校","name_kana":"ちゅうがっこう","lat":35.740123,"lng":140.14841,"prefecture":12,"lines":[99313],"attr":"cool","postal_code":"285-0857","address":"佐倉市宮ノ台３-１-１","next":[9934014,9934013,9931306,9931304,9933807,9933808],"voronoi":{"lat":35.756893,"lng":140.119744,"delta_lat":[0,5681,13482,-4932,-34730,-231],"delta_lng":[0,-1565,25104,16924,-9231,-19903]}},
    {"code":2300134,"left":2300136,"right":9931304,"id":"1cd2de","name":"京成臼井","name_kana":"けいせいうすい","lat":35.730017,"lng":140.180796,"prefecture":12,"lines":[23001],"attr":"cool","postal_code":"285-0837","address":"佐倉市王子台３-３０-３","next":[2300133,9931303,9931302,1131415,9934015,1131414,2300135,9931304],"voronoi":{"lat":35.732348,"lng":140.167329,"delta_lat":[0,-190,-4498,-25895,10381,9757,30756,11644],"delta_lng":[0,-5,662,8704,23654,4308,3030,-30000]}},
    {"code":2300136,"id":"bad671","name":"大佐倉","name_kana":"おおさくら","lat":35.729908,"lng":140.25079,"prefecture":12,"lines":[23001],"attr":"cool","postal_code":"285-0041","address":"佐倉市大佐倉松山２７７","next":[2300138,1132702,2300137,2300135,1131415,9934015,1131416],"voronoi":{"lat":35.709287,"lng":140.247585,"delta_lat":[0,5382,48469,8717,-9606,-37203,-4983],"delta_lng":[0,-4509,-10775,10532,7243,13386,372]}},
    {"code":9931304,"id":"3107c0","name":"女子大","name_kana":"じょしだい","lat":35.738357,"lng":140.155054,"prefecture":12,"lines":[99313],"attr":"cool","postal_code":"285-0858","address":"佐倉市ユーカリが丘５-１-１","next":[9931305,9931306,9934015,9931303,2300134,9934014],"voronoi":{"lat":35.764304,"lng":140.177682,"delta_lat":[0,-31955,2575,1470,34730,-2344],"delta_lng":[0,-10353,-15065,-1289,9231,12898]}},
    {"code":9932912,"left":9932915,"right":9932911,"id":"c042cf","name":"鎌ヶ谷大仏","name_kana":"かまがやだいぶつ","lat":35.757827,"lng":140.013823,"prefecture":12,"lines":[99329],"attr":"eco","postal_code":"273-0105","address":"千葉県鎌ケ谷市鎌ケ谷1丁目8番1号","next":[2100432,9934010,2100431,9932911,9932913,9932909],"voronoi":{"lat":35.769907,"lng":140.024464,"delta_lat":[0,4686,-9879,-13706,-9763,2936],"delta_lng":[0,-7017,-10498,-4916,7333,4707]}},
    {"code":9932915,"left":9932913,"right":2100430,"id":"1092e6","name":"北初富","name_kana":"きたはつとみ","lat":35.777237,"lng":139.992325,"prefecture":12,"lines":[99329],"attr":"cool","postal_code":"273-0111","address":"鎌ケ谷市北中沢１-１８-２５","next":[9932913,2100429,2100431,9932917,9934008,2100430,9932916],"voronoi":{"lat":35.77627,"lng":139.982935,"delta_lat":[0,-9714,3451,5741,11088,1875,-2586],"delta_lng":[0,1105,9411,3687,-4641,-4497,-2037]}},
    {"code":9932913,"left":2100431,"id":"9038f7","name":"初富","name_kana":"はつとみ","lat":35.771992,"lng":140.000493,"prefecture":12,"lines":[99329],"attr":"eco","postal_code":"273-0124","address":"鎌ケ谷市中央１-２-１９","next":[2100431,9932915,9934010,9932912,2100430],"voronoi":{"lat":35.775749,"lng":139.997137,"delta_lat":[0,-5741,-5294,9879,3540],"delta_lng":[0,-3687,13499,10498,-1410]}},
    {"code":2100431,"id":"37fef2","name":"鎌ヶ谷","name_kana":"かまがや","lat":35.763765,"lng":139.997266,"prefecture":12,"lines":[21004],"attr":"cool","postal_code":"273-0113","address":"千葉県鎌ケ谷市道野辺中央2-1-10","next":[9934008,9932913,9932915,9932912,2100432],"voronoi":{"lat":35.756245,"lng":139.979107,"delta_lat":[0,10311,3451,-5294,-13706],"delta_lng":[0,4933,9411,13499,-4916]}},
    {"code":2100430,"id":"a3a320","name":"新鎌ヶ谷","name_kana":"しんかまがや","lat":35.780221,"lng":139.999455,"prefecture":12,"lines":[21004,23006,99329,99340],"attr":"cool","postal_code":"273-0107","address":"千葉県鎌ケ谷市新鎌ケ谷一丁目13-1","open_date":"1991-03-31","next":[9934010,2100429,9932915,9932913],"voronoi":{"lat":35.775749,"lng":139.997137,"delta_lat":[0,11088,431,-9135],"delta_lng":[0,-4641,22361,1180]}},
    {"code":9932911,"left":9932910,"right":9934010,"id":"65a262","name":"二和向台","name_kana":"ふたわむこうだい","lat":35.753825,"lng":140.023731,"prefecture":12,"lines":[99329],"attr":"eco","postal_code":"274-0805","address":"船橋市二和東５-３８-１","next":[9934010,9932909,9932910,9932912],"voronoi":{"lat":35.76593,"lng":140.040005,"delta_lat":[0,-20830,-920,25726],"delta_lng":[0,-20067,-5864,10391]}},
    {"code":9932910,"id":"b1447b","name":"三咲","name_kana":"みさき","lat":35.749217,"lng":140.028514,"prefecture":12,"lines":[99329],"attr":"eco","postal_code":"274-0813","address":"船橋市南三咲２-２-１","next":[9933805,9932911,9932909,9932907,9934011,9934010],"voronoi":{"lat":35.76593,"lng":140.040005,"delta_lat":[0,-20830,-4398,1482,13661,9816],"delta_lng":[0,-20067,21587,5222,9999,-13622]}},
    {"code":9934010,"id":"9fe51e","name":"西白井","name_kana":"にししろい","lat":35.784364,"lng":140.031545,"prefecture":12,"lines":[99340],"attr":"heat","postal_code":"270-1431","address":"白井市根字清水口１０５９-２","next":[9932911,2100430,9934011,9932913,9932912,2100428,1132721,2100429,9932910],"voronoi":{"lat":35.826173,"lng":140.04216,"delta_lat":[0,851,-25707,-14050,-9135,-3540,-4686,-3976,-269],"delta_lng":[0,-4441,-18799,-4062,1180,1410,7017,15540,3119]}},
    {"code":2300138,"left":1131430,"right":2300141,"id":"fc3e36","name":"宗吾参道","name_kana":"そうごさんどう","lat":35.752669,"lng":140.280975,"prefecture":12,"lines":[23001],"attr":"cool","postal_code":"285-0907","address":"印旛郡酒々井町下岩橋字仲田４３２-３","next":[1132728,2300139,2300137,2300136,1132702,9934015,2300609],"voronoi":{"lat":35.736472,"lng":140.299154,"delta_lat":[0,5202,20575,9606,6258,1531,-1270],"delta_lng":[0,-19092,-29985,-7243,2800,24220,5905]}},
    {"code":1131430,"left":1131428,"right":1131431,"id":"2fc4b0","name":"松岸","name_kana":"まつぎし","lat":35.739386,"lng":140.795143,"prefecture":12,"lines":[11314,11327],"attr":"cool","postal_code":"288-0837","address":"銚子市長塚町","next":[1132717,9933510,1131431,9933504,1131428,1131429],"voronoi":{"lat":35.837497,"lng":140.837661,"delta_lat":[0,-35620,-140241,-49711,56699,67097],"delta_lng":[0,-5631,-42993,-32036,-1084,9293]}},
    {"code":1131428,"left":1131427,"right":1131429,"id":"a8a925","name":"倉橋","name_kana":"くらはし","lat":35.737836,"lng":140.714018,"prefecture":12,"lines":[11314],"attr":"eco","postal_code":"289-2611","address":"旭市倉橋","next":[1131429,1132716,1131430,9933510,1131427],"voronoi":{"lat":35.768993,"lng":140.68897,"delta_lat":[0,-3478,-96891,-56699,-43065],"delta_lng":[0,27387,39561,1084,-11577]}},
    {"code":1131427,"left":1132702,"id":"f48afa","name":"飯岡","name_kana":"いいおか","lat":35.729339,"lng":140.683896,"prefecture":12,"lines":[11314],"attr":"eco","postal_code":"289-2613","address":"旭市後草","next":[1131426,9933510,1132714,1132715,1132716,1131428],"voronoi":{"lat":35.768993,"lng":140.68897,"delta_lat":[0,9047,3322,-568,-293112,81178],"delta_lng":[0,-15493,-16148,-2225,76267,14054]}},
    {"code":1132702,"id":"ea7669","name":"酒々井","name_kana":"しすい","lat":35.731737,"lng":140.275271,"prefecture":12,"lines":[11327],"attr":"heat","postal_code":"285-0927","address":"印旛郡酒々井町酒々井","next":[2300139,2300138,2300137,2300136,1131417,1131416],"voronoi":{"lat":35.720064,"lng":140.263834,"delta_lat":[0,4983,16628,-5202,-17162,-7777],"delta_lng":[0,-372,16599,19092,25096,-28876]}},
    {"code":1131429,"id":"190b0b","name":"猿田","name_kana":"さるだ","lat":35.747383,"lng":140.7374,"prefecture":12,"lines":[11314],"attr":"eco","postal_code":"288-0855","address":"銚子市猿田町","next":[1132717,1131428,1131430,1132716],"voronoi":{"lat":35.73572,"lng":140.76521,"delta_lat":[0,-67097,96891,6689],"delta_lng":[0,-9293,-39561,18578]}},
    {"code":1131431,"left":9933503,"right":9933504,"id":"ecc941","name":"銚子","name_kana":"ちょうし","lat":35.729449,"lng":140.827557,"prefecture":12,"lines":[11314,11327,99335],"attr":"cool","postal_code":"288-0044","address":"銚子市西芝町１丁目","next":[1131430,9933502,9933504,9933510],"voronoi":{"lat":35.661635,"lng":140.789037,"delta_lat":[0,140241,-33415,-68571],"delta_lng":[0,42993,2645,-6907]}},
    {"code":9933503,"id":"9c6e9e","name":"観音","name_kana":"かんのん","lat":35.728952,"lng":140.840112,"prefecture":12,"lines":[99335],"attr":"eco","postal_code":"288-0031","address":"銚子市前宿町３６-１","next":[9933510,9933502,9933508,9933504],"voronoi":{"lat":35.758081,"lng":140.836341,"delta_lat":[0,-50482,2736,7152],"delta_lng":[0,1124,4711,5206]}},
    {"code":9933504,"id":"09123f","name":"本銚子","name_kana":"もとちょうし","lat":35.731055,"lng":140.847844,"prefecture":12,"lines":[99335],"attr":"eco","postal_code":"288-0063","address":"銚子市清水町２９１７","next":[9934702,1131430,9933508,9933502,1131431,9933505,9933503,1132717],"voronoi":{"lat":35.965663,"lng":140.920885,"delta_lat":[0,-246813,-1363,40594,10380,33415,35620,67139],"delta_lng":[0,-71679,-1823,-11041,-1666,-2645,5631,25770]}},
    {"code":2300141,"left":2300140,"right":1132717,"id":"579aa2","name":"東成田","name_kana":"ひがしなりた","lat":35.770091,"lng":140.387225,"prefecture":12,"lines":[23001,99324],"attr":"cool","postal_code":"286-0104","address":"成田市古込字込前１２４","next":[1132813,9932402,1132705],"voronoi":{"lat":35.776503,"lng":140.363533,"delta_lat":[0,-7682,-5504],"delta_lng":[0,38478,-7274]}},
    {"code":2300140,"left":1132705,"right":1132703,"id":"056004","name":"京成成田","name_kana":"けいせいなりた","lat":35.776308,"lng":140.315473,"prefecture":12,"lines":[23001],"attr":"cool","postal_code":"286-0033","address":"成田市花崎町８１４","next":[2300139,1132706,1132703,1132813,1132705],"voronoi":{"lat":35.79368,"lng":140.352449,"delta_lat":[0,6816,-33011,-46041,59074],"delta_lng":[0,-16251,-30322,35505,10526]}},
    {"code":1132705,"left":2300139,"id":"4b73cf","name":"成田空港（成田第１ターミナル）","name_kana":"なりたくうこう（なりただいいちたーみなる）","lat":35.763983,"lng":140.384644,"prefecture":12,"lines":[11327,11328,23001,23006],"attr":"cool","postal_code":"282-0011","address":"千葉県成田市三里塚御料牧場1-1","open_date":"1991-03-19","next":[2300139,2300141,1132813,9932402,2300140,1131418],"voronoi":{"lat":35.763317,"lng":140.394737,"delta_lat":[0,13186,4015,-59074,-1466,-11247],"delta_lng":[0,-31204,-11626,-10526,58,16829]}},
    {"code":2300139,"id":"051874","name":"公津の杜","name_kana":"こうづのもり","lat":35.760446,"lng":140.294904,"prefecture":12,"lines":[23001],"attr":"cool","postal_code":"286-0048","address":"成田市公津の杜４-１１-２","next":[1132703,1132702,2300138,1132705,2300140,1131418,1131417,2300609],"voronoi":{"lat":35.767485,"lng":140.305876,"delta_lat":[0,-46041,-1466,-1582,914,17162,41902,1802],"delta_lng":[0,35505,58,-6866,-10323,-25096,-23395,18497]}},
    {"code":1132703,"id":"463aee","name":"成田","name_kana":"なりた","lat":35.777796,"lng":140.313853,"prefecture":12,"lines":[11327,11328],"attr":"heat","postal_code":"286-0033","address":"成田市花崎町","next":[2300139,1132706,2300609,2300140],"voronoi":{"lat":35.80766,"lng":140.320648,"delta_lat":[0,-27483,-12691,33011],"delta_lng":[0,-26392,11620,30322]}},
    {"code":1132717,"left":9932402,"right":1132813,"id":"9f3a44","name":"椎柴","name_kana":"しいしば","lat":35.765204,"lng":140.758875,"prefecture":12,"lines":[11327],"attr":"cool","postal_code":"288-0863","address":"銚子市野尻町","next":[1131430,9934702,1131429,1132716,9933504],"voronoi":{"lat":35.871057,"lng":140.807239,"delta_lat":[0,-98854,-36483,101776,67139],"delta_lng":[0,-72305,30276,72451,25770]}},
    {"code":9932402,"id":"d6f4cb","name":"芝山千代田","name_kana":"しばやまちよだ","lat":35.754248,"lng":140.399215,"prefecture":12,"lines":[99324],"attr":"eco","postal_code":"289-1601","address":"山武郡芝山町香山新田橋松１４８-１","next":[1131422,1131423,1131421,2300141,1131424,1132813,1132709,1132705,1132710,1131419,1131418],"voronoi":{"lat":35.684013,"lng":140.405859,"delta_lat":[0,14667,29461,55166,6154,7034,9839,-37512,-5504,-54586,-16013],"delta_lng":[0,29702,29778,30744,2206,-10401,-22789,-63089,-7274,-36469,17792]}},
    {"code":1132813,"id":"c54383","name":"空港第２ビル（成田第２・第３ターミナル）","name_kana":"くうこうだいにびる（なりただいに・だいさんたーみなる）","lat":35.773327,"lng":140.387871,"prefecture":12,"lines":[11327,11328,23001,23006],"attr":"cool","postal_code":"282-0004","address":"千葉県成田市古込字古込1-1","open_date":"1992-12-03","next":[1132706,1132709,2300141,1132708,1132705,9932402,2300140],"voronoi":{"lat":35.83379,"lng":140.400723,"delta_lat":[0,-5073,-22383,-37512,7682,4015,13162],"delta_lng":[0,27044,37332,-63089,-38478,-11626,542]}}
  ]
}