{
  "name":"segment62",
  "root":1111307,
  "east":142.384789,
  "west":140.998611,
  "south":43.78475,
  "north":90.0,
  "station_size":155,
  "node_list":[
    {"code":1111307,"left":9911303,"right":1111528,"id":"edcd5a","name":"恵比島","name_kana":"えびしま","lat":43.851296,"lng":141.88144,"prefecture":1,"lines":[11113,99121],"attr":"heat","postal_code":"078-2224","address":"雨竜郡沼田町字恵比島","next":[1111306,1111241,9912103,1111308,1111239],"voronoi":{"lat":43.821983,"lng":141.87951,"delta_lat":[0,27032,50902,-89318,-313],"delta_lng":[0,19574,-49320,724,7169]},"impl":true},
    {"code":9911303,"left":1011313,"right":1011331,"id":"a181f6","name":"七線沢","closed":true,"lat":44.386444,"lng":141.764694,"prefecture":1,"lines":[99113],"postal_code":"078-4142","address":"北海道苫前郡羽幌町字上築","open_date":"1958-08-01","closed_date":"1970-12-15","next":[1011319,9911304,9911302,1011316],"voronoi":{"lat":44.36192,"lng":141.74041,"delta_lat":[0,57223,1086,-99973],"delta_lng":[0,36132,11724,-29643]},"impl":false},
    {"code":1011313,"left":9911202,"right":1011305,"id":"1d5435","name":"上平","name_kana":"うえひら","closed":true,"lat":44.27625,"lng":141.665417,"prefecture":1,"lines":[10113],"postal_code":"078-3631","address":"北海道苫前郡苫前町字香川２６４","open_date":"1932-09-01","closed_date":"1987-03-30","next":[1011311,1011314,1011312,1011310],"voronoi":{"lat":44.251002,"lng":141.682883,"delta_lat":[0,47626,-34876,-10325],"delta_lng":[0,15420,-189884,78277]},"impl":false},
    {"code":9911202,"left":1111317,"right":1011309,"id":"24dfd3","name":"春日町(北海道)","original_name":"春日町","name_kana":"かすがちょう","closed":true,"lat":43.956194,"lng":141.665361,"prefecture":1,"lines":[99112],"postal_code":"077-0000","address":"北海道留萌市大字留萌村マサリベツ２０１","open_date":"1949-07-25","closed_date":"1967-07-31","next":[1011302,1111312,1011303,9911203,1111311],"voronoi":{"lat":43.931182,"lng":141.67597,"delta_lat":[0,24150,23068,1390,-34891],"delta_lng":[0,-23141,10731,6599,24637]},"impl":false},
    {"code":1111317,"left":1111319,"right":1111313,"id":"ae95bb","name":"信砂","name_kana":"のぶしゃ","closed":true,"lat":43.874479,"lng":141.589039,"prefecture":1,"lines":[11113],"attr":"unknown","postal_code":"077-0200","address":"増毛郡増毛町大字舎熊村字信砂","open_date":"1963-12-01","closed_date":"2016-12-05","next":[1111309,1111310,1111316,1111318],"voronoi":{"lat":43.781215,"lng":141.664351,"delta_lat":[0,51410,85566,-173051],"delta_lng":[0,-4924,-102624,103510]},"impl":true},
    {"code":1111319,"left":1111320,"right":1111318,"id":"75b0a2","name":"朱文別","name_kana":"しゅもんべつ","closed":true,"lat":43.860678,"lng":141.564328,"prefecture":1,"lines":[11113],"attr":"unknown","postal_code":"077-0200","address":"増毛郡増毛町大字朱文別","open_date":"1963-12-01","closed_date":"2016-12-05","next":[1111309,1111320,1111221,1111318,1111233],"voronoi":{"lat":43.706032,"lng":141.657333,"delta_lat":[0,194717,-302004,3299,65823],"delta_lng":[0,-104348,36965,10885,55484]},"impl":true},
    {"code":1111320,"left":1111321,"id":"146929","name":"箸別","name_kana":"はしべつ","closed":true,"lat":43.859125,"lng":141.55164,"prefecture":1,"lines":[11113],"attr":"unknown","postal_code":"077-0200","address":"増毛郡増毛町増毛村大字箸別","open_date":"1963-12-01","closed_date":"2016-12-05","next":[1111318,1111321,1111315,1111319,1111221,1111316],"voronoi":{"lat":43.900749,"lng":141.552984,"delta_lat":[0,-302004,-7114,358022,-11959,-3882],"delta_lng":[0,36965,-21576,-38700,9161,2534]},"impl":true},
    {"code":1111321,"id":"b30956","name":"増毛","name_kana":"ましけ","closed":true,"lat":43.856522,"lng":141.527559,"prefecture":1,"lines":[11113],"attr":"unknown","postal_code":"077-0205","address":"増毛郡増毛町弁天町１丁目","open_date":"1921-11-05","closed_date":"2016-12-05","next":[1111320,1011308,1011307,1011302,1110218,1011103,1111221,1110216,1110217,1011303,1110304,1111217,1111212,1011314,1111315,1111218,1011310],"voronoi":{"lat":44.104144,"lng":141.361009,"delta_lat":[0,-43771,-18949,-31099,-60672,-358022,-3061,-37406,-5690,6437,17104,259206,65390,150847,415167,-178669,-94189],"delta_lng":[0,83866,21045,28748,35006,38700,-8043,-219720,-41819,-54674,-25073,-317067,-70932,-147954,-379529,610671,258305]},"impl":true},
    {"code":1111318,"id":"f87a3f","name":"舎熊","name_kana":"しゃぐま","closed":true,"lat":43.869113,"lng":141.580068,"prefecture":1,"lines":[11113],"attr":"unknown","postal_code":"077-0200","address":"増毛郡増毛町大字舎熊村字舎熊","open_date":"1921-11-05","closed_date":"2016-12-05","next":[1111320,1111316,1111309,1111319,1111317],"voronoi":{"lat":43.918191,"lng":141.556803,"delta_lat":[0,15621,-33063,-194717,39108],"delta_lng":[0,-15434,11616,104348,2980]},"impl":true},
    {"code":1111313,"left":1111315,"right":1111312,"id":"db5872","name":"瀬越","name_kana":"せごし","closed":true,"lat":43.934987,"lng":141.634535,"prefecture":1,"lines":[11113],"attr":"unknown","postal_code":"077-0047","address":"留萌市瀬越町","open_date":"1926-07-01","closed_date":"2016-12-05","next":[1111311,1111312,1111315,1011302],"voronoi":{"lat":43.98778,"lng":141.534781,"delta_lat":[0,-92799,9911,46303],"delta_lng":[0,120583,3448,-21540]},"impl":true},
    {"code":1111315,"left":1111316,"id":"9cebb9","name":"礼受","name_kana":"れうけ","closed":true,"lat":43.904871,"lng":141.611358,"prefecture":1,"lines":[11113],"attr":"unknown","postal_code":"077-0035","address":"留萌市礼受町","open_date":"1921-11-05","closed_date":"2016-12-05","next":[1111320,1011302,1111316,1111313,1111321,1111311],"voronoi":{"lat":43.89498,"lng":141.655364,"delta_lat":[0,92799,22545,-60672,-11959,-64951],"delta_lng":[0,-120583,-40114,35006,9161,118762]},"impl":true},
    {"code":1111316,"id":"5a26f2","name":"阿分","name_kana":"あふん","closed":true,"lat":43.894339,"lng":141.605598,"prefecture":1,"lines":[11113],"attr":"unknown","postal_code":"077-0200","address":"増毛郡増毛町大字阿分村","open_date":"1963-12-01","closed_date":"2016-12-05","next":[1111310,1111318,1111311,1111320,1111315,1111317],"voronoi":{"lat":43.856758,"lng":141.66095,"delta_lat":[0,15984,64951,-3882,-15621,-85566],"delta_lng":[0,-3353,-118762,2534,15434,102624]},"impl":true},
    {"code":1111312,"id":"0b8d3a","name":"留萌","name_kana":"るもい","lat":43.942848,"lng":141.651433,"prefecture":1,"lines":[11113,10113,99112,99121],"attr":"cool","postal_code":"077-0005","address":"留萌市船場町２丁目","next":[1111313,9911202,1111311,1011302],"voronoi":{"lat":43.951194,"lng":141.637273,"delta_lat":[0,-46303,26290,24150],"delta_lng":[0,21540,17158,-23141]},"impl":true},
    {"code":1011309,"left":1011308,"right":1011311,"id":"22b82d","name":"千松","name_kana":"せんまつ","closed":true,"lat":44.180167,"lng":141.659167,"prefecture":1,"lines":[10113],"postal_code":"078-3452","address":"北海道留萌郡小平町字鬼鹿千松５１−３","open_date":"1963-06-01","closed_date":"1987-03-30","next":[1011308,9911208,9911207,1011311,1011312,1011310],"voronoi":{"lat":44.182498,"lng":141.487438,"delta_lat":[0,-30646,1493,2498,41076,2080],"delta_lng":[0,294686,1527,1657,-63218,-19345]},"impl":false},
    {"code":1011308,"left":1011303,"right":1011310,"id":"d6e5db","name":"鬼鹿","name_kana":"おにしか","closed":true,"lat":44.149444,"lng":141.655972,"prefecture":1,"lines":[10113],"postal_code":"078-3441","address":"北海道留萌郡小平町字鬼鹿港町３４６−５","open_date":"1928-10-01","closed_date":"1987-03-30","next":[1111321,1011309,9911207,1011310,1011307],"voronoi":{"lat":44.151853,"lng":141.782125,"delta_lat":[0,30646,4268,-82623,34804],"delta_lng":[0,-294686,-314900,188470,410817]},"impl":false},
    {"code":1011303,"left":1011302,"id":"aca49f","name":"臼谷","name_kana":"うすや","closed":true,"lat":43.999444,"lng":141.65625,"prefecture":1,"lines":[10113],"postal_code":"078-3302","address":"北海道留萌郡小平町字臼谷５６−１","open_date":"1947-12-25","closed_date":"1987-03-30","next":[1011306,9911203,1011302,1111321,1011307,1011304,9911202],"voronoi":{"lat":43.978399,"lng":141.663561,"delta_lat":[0,63024,18949,-2935,-1611,-57342,-18695],"delta_lng":[0,-197641,-21045,102528,8999,125161,-11403]},"impl":false},
    {"code":1011302,"id":"cf83f6","name":"三泊","name_kana":"さんとまり","closed":true,"lat":43.965472,"lng":141.645417,"prefecture":1,"lines":[10113],"postal_code":"077-0002","address":"北海道留萌市塩見町８８−３","open_date":"1927-10-25","closed_date":"1987-03-30","next":[1111321,1011303,1111315,9911202,1111312,1111313],"voronoi":{"lat":43.955331,"lng":141.65283,"delta_lat":[0,23068,63024,-31099,-22545,-36585],"delta_lng":[0,10731,-197641,28748,40114,102491]},"impl":false},
    {"code":1011310,"id":"5171c1","name":"力昼","name_kana":"りきびる","closed":true,"lat":44.210972,"lng":141.656806,"prefecture":1,"lines":[10113],"postal_code":"078-3541","address":"北海道苫前郡苫前町字力昼","open_date":"1931-08-15","closed_date":"1987-03-30","next":[1011314,1011313,1011311,1011308,1111321,1011309],"voronoi":{"lat":44.182498,"lng":141.487438,"delta_lat":[0,4268,94189,-17203,-10325,-54428],"delta_lng":[0,-314900,-258305,594186,78277,116049]},"impl":false},
    {"code":1011311,"left":1011304,"right":1011314,"id":"2c9b31","name":"番屋ノ沢","name_kana":"ばんやのさわ","closed":true,"lat":44.226667,"lng":141.664167,"prefecture":1,"lines":[10113],"postal_code":"078-3541","address":"北海道苫前郡苫前町字力昼６４４−１","open_date":"1955-03-26","closed_date":"1987-03-30","next":[1011313,1011312,1011309,1011310],"voronoi":{"lat":44.253427,"lng":141.586696,"delta_lat":[0,-2425,-54083,2080],"delta_lng":[0,96187,39207,-19345]},"impl":false},
    {"code":1011304,"left":1011307,"id":"d1dadd","name":"小平(北海道)","original_name":"小平","name_kana":"おびら","closed":true,"lat":44.017028,"lng":141.664306,"prefecture":1,"lines":[10113],"postal_code":"078-3301","address":"北海道留萌郡字小平町小平町","open_date":"1927-10-25","closed_date":"1987-03-30","next":[1011305,1011303,1011306,9911204,9911203],"voronoi":{"lat":43.998485,"lng":141.681563,"delta_lat":[0,57342,-8711,-34744,-9786],"delta_lng":[0,-125161,93640,41097,-3967]},"impl":false},
    {"code":1011307,"id":"869750","name":"富岡(北海道)","original_name":"富岡","name_kana":"とみおか","closed":true,"lat":44.109111,"lng":141.659389,"prefecture":1,"lines":[10113],"postal_code":"078-3456","address":"北海道留萌郡小平町字鬼鹿富岡","open_date":"1956-05-13","closed_date":"1987-03-30","next":[1111321,9911206,9911207,1011303,1011306,1011308],"voronoi":{"lat":44.104144,"lng":141.361009,"delta_lat":[0,-43771,-2935,61469,17764,2277],"delta_lng":[0,83866,102528,210800,12382,1241]},"impl":false},
    {"code":1011314,"id":"dd3db9","name":"苫前","name_kana":"とままえ","closed":true,"lat":44.307861,"lng":141.659611,"prefecture":1,"lines":[10113],"postal_code":"078-3701","address":"北海道苫前郡苫前町字苫前３９４−１","open_date":"1932-09-01","closed_date":"1987-03-30","next":[1111551,1011310,1011333,1011313,1110216,1011312,1111321,1011321,1011315],"voronoi":{"lat":44.298629,"lng":141.698303,"delta_lat":[0,-34876,17203,178669,326341,8022,-117222,-33661,-344255],"delta_lng":[0,-189884,-594186,-610671,-423074,538377,764073,69722,445840]},"impl":false},
    {"code":1011305,"left":9911205,"right":9911304,"id":"b48339","name":"花岡(北海道)","original_name":"花岡","name_kana":"はなおか","closed":true,"lat":44.038056,"lng":141.682083,"prefecture":1,"lines":[10113],"postal_code":"078-3311","address":"北海道留萌郡小平町字花岡","open_date":"1956-08-20","closed_date":"1987-03-30","next":[9911204,1011304,9911206,1011306,9911205],"voronoi":{"lat":44.078229,"lng":141.739848,"delta_lat":[0,-31113,-34744,29553,15115],"delta_lng":[0,-89806,41097,38424,7089]},"impl":false},
    {"code":9911205,"left":9911203,"right":9911206,"id":"60d3c1","name":"沖内","name_kana":"おきない","closed":true,"lat":44.002944,"lng":141.756944,"prefecture":1,"lines":[99112],"postal_code":"078-3309","address":"北海道留萌郡小平町字沖内８９９","open_date":"1942-08-01","closed_date":"1967-07-31","next":[1111311,9911203,9911204,1111309,9911206,1111310,1011305,9911207,1111308],"voronoi":{"lat":43.959853,"lng":141.810188,"delta_lat":[0,97187,-15115,-91662,-3409,-6231,-11086,65,10372],"delta_lng":[0,-73537,-7089,12522,1436,9234,35331,6546,25480]},"impl":false},
    {"code":9911203,"left":1111310,"right":9911204,"id":"d5a3bf","name":"桜山(北海道)","original_name":"桜山","closed":true,"lat":43.976417,"lng":141.694,"prefecture":1,"lines":[99112],"postal_code":"078-3303","address":"北海道留萌郡小平町字豊平","open_date":"1941-12-18","closed_date":"1967-07-31","next":[1011303,9911205,9911202,1111311,9911204,1011304],"voronoi":{"lat":43.950262,"lng":141.742084,"delta_lat":[0,-3409,-1955,34891,18695,4101],"delta_lng":[0,1436,-48724,-24637,11403,5609]},"impl":false},
    {"code":1111310,"left":1111311,"id":"161f5a","name":"藤山","name_kana":"ふじやま","lat":43.88708,"lng":141.720588,"prefecture":1,"lines":[11113],"attr":"cool","postal_code":"078-3165","address":"留萌市藤山町藤山","next":[1111316,1111309,1111317,9911205,1111311],"voronoi":{"lat":43.929536,"lng":141.788085,"delta_lat":[0,-148322,51410,24134,83864],"delta_lng":[0,-123735,-4924,1523,91805]},"impl":true},
    {"code":1111311,"id":"062a92","name":"大和田(北海道)","original_name":"大和田","name_kana":"おおわだ","lat":43.913418,"lng":141.696528,"prefecture":1,"lines":[11113],"attr":"cool","postal_code":"077-0012","address":"留萌市大和田","next":[1111313,9911205,1111316,1111312,1111310,9911203,9911202,1111315],"voronoi":{"lat":43.89498,"lng":141.655364,"delta_lat":[0,9911,26290,13717,1955,-6231,-83864,15984],"delta_lng":[0,3448,17158,18826,48724,9234,-91805,-3353]},"impl":true},
    {"code":9911204,"id":"5c4db0","name":"天塩本郷","name_kana":"てしおほんごう","closed":true,"lat":43.997028,"lng":141.713639,"prefecture":1,"lines":[99112],"postal_code":"078-3304","address":"北海道留萌郡小平町字本郷１２６−１２","open_date":"1941-12-18","closed_date":"1967-07-31","next":[1011305,9911205,9911203,1011304],"voronoi":{"lat":44.041924,"lng":141.729562,"delta_lat":[0,-91662,52323,9786],"delta_lng":[0,12522,-54913,3967]},"impl":false},
    {"code":9911206,"left":1111308,"right":9911207,"id":"32201a","name":"寧楽","name_kana":"ねいらく","closed":true,"lat":44.022806,"lng":141.783194,"prefecture":1,"lines":[99112],"postal_code":"077-0465","address":"北海道留萌郡小平町字寧楽１１１","open_date":"1942-08-01","closed_date":"1967-07-31","next":[1011307,9911207,1011305,9911205,1011306],"voronoi":{"lat":44.13667,"lng":141.770585,"delta_lat":[0,-176818,97187,21189,40678],"delta_lng":[0,39604,-73537,3196,18355]},"impl":false},
    {"code":1111308,"left":1111309,"id":"bef1f5","name":"峠下","name_kana":"とうげした","lat":43.850789,"lng":141.818879,"prefecture":1,"lines":[11113],"attr":"heat","postal_code":"078-3161","address":"留萌市留萌村峠下","next":[9911207,1111239,1111309,9912103,1111238,1111307,9912106,9911205],"voronoi":{"lat":43.94091,"lng":141.835052,"delta_lat":[0,-10581,-30412,-89318,-45343,-2741,167086,10372],"delta_lng":[0,8537,6174,724,-64226,-4707,13077,25480]},"impl":true},
    {"code":1111309,"id":"74be81","name":"幌糠","name_kana":"ほろぬか","lat":43.855521,"lng":141.758418,"prefecture":1,"lines":[11113],"attr":"cool","postal_code":"078-3168","address":"留萌市幌糠町幌糠","next":[1111319,1111308,1111310,1111238,1111318,9911205,1111317,1111233],"voronoi":{"lat":43.667866,"lng":141.656318,"delta_lat":[0,38165,39108,36075,148322,65,-167086,-66560],"delta_lng":[0,1014,2980,4038,123735,6546,-13077,-58557]},"impl":true},
    {"code":9911207,"id":"f13eb6","name":"天塩住吉","name_kana":"てしおすみよし","closed":true,"lat":44.028306,"lng":141.80775,"prefecture":1,"lines":[99112],"postal_code":"077-0464","address":"北海道留萌郡小平町字住吉５９０","open_date":"1942-08-01","closed_date":"1967-07-31","next":[1111308,9912106,9911206,1011308,1011307,1011309,9911205,9911208],"voronoi":{"lat":44.153346,"lng":141.783651,"delta_lat":[0,-1493,-12905,-2277,-176818,-19879,937,32538],"delta_lng":[0,-1527,-10299,-1241,39604,9923,14941,24823]},"impl":false},
    {"code":9911304,"left":1011315,"right":9911306,"id":"208909","name":"上築別","closed":true,"lat":44.379056,"lng":141.789611,"prefecture":1,"lines":[99113],"postal_code":"078-4142","address":"北海道苫前郡羽幌町字上築９３８−２","closed_date":"1970-12-15","next":[9911306,9911303,1011312,1011316,1011319],"voronoi":{"lat":44.42023,"lng":141.788265,"delta_lat":[0,-99973,-6232,-23580,148463],"delta_lng":[0,-29643,1364,35723,35146]},"impl":false},
    {"code":1011315,"left":1011312,"right":1011316,"id":"c4d56e","name":"興津(北海道)","original_name":"興津","name_kana":"おこつ","closed":true,"lat":44.334194,"lng":141.679944,"prefecture":1,"lines":[10113],"postal_code":"078-3713","address":"北海道苫前郡苫前町字興津","open_date":"1956-09-01","closed_date":"1987-03-30","next":[1011312,1011316,1011321,1011317,1011314],"voronoi":{"lat":44.312183,"lng":141.729012,"delta_lat":[0,98049,211477,21396,-344255],"delta_lng":[0,-100249,-327962,-48140,445840]},"impl":false},
    {"code":1011312,"left":1011306,"id":"33464e","name":"古丹別","name_kana":"こたんべつ","closed":true,"lat":44.261222,"lng":141.711833,"prefecture":1,"lines":[10113],"postal_code":"078-3621","address":"北海道苫前郡苫前町字古丹別１８８−４１","open_date":"1931-08-15","closed_date":"1987-03-30","next":[9911306,9911208,1011315,1011311,1011313,1011314,9911304,1011316,1011309],"voronoi":{"lat":44.19692,"lng":141.72209,"delta_lat":[0,54083,47626,221,13333,1842,-23580,-81767,-52834],"delta_lng":[0,-39207,15420,197,30511,30975,35723,66966,-77367]},"impl":false},
    {"code":1011306,"id":"3a9724","name":"大椴","name_kana":"おおとど","closed":true,"lat":44.074056,"lng":141.669611,"prefecture":1,"lines":[10113],"postal_code":"078-3457","address":"北海道留萌郡小平町字大椴６７","open_date":"1927-10-25","closed_date":"1987-03-30","next":[1011303,1011305,9911206,1011307,1011304],"voronoi":{"lat":44.078229,"lng":141.739848,"delta_lat":[0,40678,-61469,-1611,-8711],"delta_lng":[0,18355,-210800,8999,93640]},"impl":false},
    {"code":1011316,"id":"a97f2c","name":"羽幌","name_kana":"はぼろ","closed":true,"lat":44.36075,"lng":141.705917,"prefecture":1,"lines":[10113],"postal_code":"078-4107","address":"北海道苫前郡羽幌町南７条４丁目","open_date":"1932-09-01","closed_date":"1987-03-30","next":[1011315,1011317,9911302,1011312,9911304,9911303],"voronoi":{"lat":44.36192,"lng":141.74041,"delta_lat":[0,7203,41108,-98049,1842,6232],"delta_lng":[0,-5245,-106402,100249,30975,-1364]},"impl":false},
    {"code":9911306,"left":9911208,"right":9911307,"id":"a5e9c3","name":"曙","name_kana":"あけぼの","closed":true,"lat":44.366917,"lng":141.840889,"prefecture":1,"lines":[99113],"postal_code":"078-4144","address":"北海道苫前郡羽幌町字曙","open_date":"1941-12-14","closed_date":"1970-12-15","next":[1011312,9911208,1011319,9911307,9911304],"voronoi":{"lat":44.290444,"lng":141.79571,"delta_lat":[0,-81767,1837,229726,-1333],"delta_lng":[0,66966,36886,-67370,-1336]},"impl":false},
    {"code":9911208,"id":"d19a5f","name":"達布","name_kana":"たっぷ","closed":true,"lat":44.049056,"lng":141.856722,"prefecture":1,"lines":[99112],"postal_code":"077-0463","address":"北海道留萌郡小平町字達布３４８−９","open_date":"1941-12-18","closed_date":"1967-07-31","next":[1112417,9911306,9911307,9912106,1011312,1011309,1112414,1112416,9912109,9911207],"voronoi":{"lat":44.153346,"lng":141.783651,"delta_lat":[0,2498,52834,1837,-1266,-17173,-47826,-20012,-137905,-12884],"delta_lng":[0,1657,77367,36886,53081,10000,22005,4602,-108822,-20552]},"impl":false},
    {"code":9911307,"id":"b1bc74","name":"桜ケ丘","closed":true,"lat":44.373833,"lng":141.864472,"prefecture":1,"lines":[99113],"postal_code":"078-4144","address":"北海道苫前郡羽幌町字曙２２０","closed_date":"1970-12-15","next":[1112417,9911308,9911208,1011319,9911306],"voronoi":{"lat":44.209248,"lng":141.952643,"delta_lat":[0,33462,198706,-1176,-229726],"delta_lng":[0,19508,-139121,-838,67370]},"impl":false},
    {"code":1011331,"left":1011336,"right":1011330,"id":"b5c453","name":"更岸","name_kana":"さらきし","closed":true,"lat":44.832778,"lng":141.768056,"prefecture":1,"lines":[10113],"postal_code":"098-3314","address":"北海道天塩郡天塩町字サラキシ","open_date":"1936-10-23","closed_date":"1987-03-30","next":[1011332,1011329,1111541,1111542,1011330],"voronoi":{"lat":44.770016,"lng":141.566224,"delta_lat":[0,105003,-9730,-30812,-15323],"delta_lng":[0,279998,9027,14496,-41464]},"impl":false},
    {"code":1011336,"left":1011334,"right":1111549,"id":"28e7a0","name":"西振老","name_kana":"にしふらおい","closed":true,"lat":44.967317,"lng":141.761772,"prefecture":1,"lines":[10113],"postal_code":"098-3300","address":"北海道天塩郡天塩町字下サロベツ","open_date":"1956-05-01","closed_date":"1970-09-07","next":[1011335,1011337,1111546],"voronoi":{"lat":44.990969,"lng":141.538705,"delta_lat":[0,-38739,50348],"delta_lng":[0,242788,-14696]},"impl":false},
    {"code":1011334,"left":1011318,"right":1011332,"id":"dc6c82","name":"中川口","name_kana":"なかかわぐち","closed":true,"lat":44.914306,"lng":141.752306,"prefecture":1,"lines":[10113],"postal_code":"098-3312","address":"北海道天塩郡天塩町字川口","open_date":"1956-05-01","closed_date":"1987-03-30","next":[1111542,1011335,1011337,1011333,1111549,1011332,1111546],"voronoi":{"lat":44.917433,"lng":141.815836,"delta_lat":[0,-8053,-15050,-2756,84023,20591,-5038],"delta_lng":[0,13086,3766,-22375,-594505,114312,104671]},"impl":false},
    {"code":1011318,"left":9911302,"right":1011333,"id":"d77b3c","name":"築別","name_kana":"ちくべつ","closed":true,"lat":44.412361,"lng":141.738333,"prefecture":1,"lines":[10113,99113],"postal_code":"078-4141","address":"北海道苫前郡羽幌町字築別９９０","open_date":"1941-12-09","closed_date":"1987-03-30","next":[1011319,9911302,1011317],"voronoi":{"lat":44.481031,"lng":141.658694,"delta_lat":[0,-60740,-24252],"delta_lng":[0,108592,-31635]},"impl":false},
    {"code":9911302,"left":1011317,"id":"223176","name":"五線","closed":true,"lat":44.394389,"lng":141.752111,"prefecture":1,"lines":[99113],"postal_code":"078-4141","address":"北海道苫前郡羽幌町字築別６７０","open_date":"1948-06-01","closed_date":"1970-12-15","next":[1011319,1011318,1011316,1011317,9911303],"voronoi":{"lat":44.36192,"lng":141.74041,"delta_lat":[0,7203,26915,24252,-1147],"delta_lng":[0,-5245,487,31635,9255]},"impl":false},
    {"code":1011317,"id":"d2b332","name":"下ノ滝","name_kana":"しものたき","closed":true,"lat":44.394986,"lng":141.719144,"prefecture":1,"lines":[10113],"postal_code":"078-4140","address":"北海道苫前郡羽幌町字汐見","open_date":"1956-11-01","closed_date":"1972-02-08","next":[1011320,1011321,1011319,1011316,1011315,9911302,1011318],"voronoi":{"lat":44.369123,"lng":141.735165,"delta_lat":[0,41108,211477,-106225,-26086,-8367,-84992],"delta_lng":[0,-106402,-327962,298257,48243,11394,76957]},"impl":false},
    {"code":1011333,"id":"bf0ccd","name":"天塩","name_kana":"てしお","closed":true,"lat":44.885806,"lng":141.748278,"prefecture":1,"lines":[10113],"postal_code":"098-3312","address":"北海道天塩郡天塩町字川口５６９９−１３","open_date":"1935-06-30","closed_date":"1987-03-30","next":[1011321,1111549,1011332,1111551,1011314,1011330,1011334],"voronoi":{"lat":44.975597,"lng":141.215807,"delta_lat":[0,-17586,-164023,-117222,1642,29906,183260],"delta_lng":[0,-115145,-681797,764073,28975,105037,493362]},"impl":false},
    {"code":1011332,"left":1011320,"right":1011335,"id":"aa11f6","name":"干拓","name_kana":"かんたく","closed":true,"lat":44.855444,"lng":141.759556,"prefecture":1,"lines":[10113],"postal_code":"098-3314","address":"北海道天塩郡天塩町字サラキシ","open_date":"1955-12-02","closed_date":"1987-03-30","next":[1011333,1111542,1011330,1011331,1011334],"voronoi":{"lat":44.875018,"lng":141.846223,"delta_lat":[0,-105003,-61702,183260,2756],"delta_lng":[0,-279998,-249274,493362,22375]},"impl":false},
    {"code":1011320,"left":1011319,"id":"565365","name":"天塩栄","name_kana":"てしおさかえ","closed":true,"lat":44.480972,"lng":141.765639,"prefecture":1,"lines":[10113],"postal_code":"078-4412","address":"北海道苫前郡初山別村字栄１６３","open_date":"1957-11-06","closed_date":"1987-03-30","next":[9911309,1011317,1011319,1011321],"voronoi":{"lat":44.515484,"lng":141.599058,"delta_lat":[0,-26086,-40115,52303],"delta_lng":[0,48243,189348,36112]},"impl":false},
    {"code":1011319,"id":"654f39","name":"天塩有明","name_kana":"てしおありあけ","closed":true,"lat":44.449111,"lng":141.758889,"prefecture":1,"lines":[10113],"postal_code":"078-4411","address":"北海道苫前郡初山別村字有明４８−９","open_date":"1957-11-06","closed_date":"1987-03-30","next":[1011318,9911303,9911306,9911307,1011320,9911309,1011317,9911302,9911304,9911308],"voronoi":{"lat":44.449283,"lng":141.836648,"delta_lat":[0,40115,-8367,-60740,-1147,1086,18678,1333,1176,5827],"delta_lng":[0,-189348,11394,108592,9255,11724,42590,1336,838,2773]},"impl":false},
    {"code":1011335,"id":"2b351f","name":"北川口","name_kana":"きたかわぐち","closed":true,"lat":44.944028,"lng":141.758056,"prefecture":1,"lines":[10113],"postal_code":"098-3312","address":"北海道天塩郡天塩町字川口","open_date":"1935-06-30","closed_date":"1987-03-30","next":[1011334,1011336,1011337,1111546],"voronoi":{"lat":44.99115,"lng":141.434791,"delta_lat":[0,-73717,34797,38739],"delta_lng":[0,381045,-34343,-242788]},"impl":false},
    {"code":1111549,"left":1111552,"right":1112229,"id":"bcd162","name":"兜沼","name_kana":"かぶとぬま","lat":45.220236,"lng":141.6972,"prefecture":1,"lines":[11115],"attr":"eco","postal_code":"098-4451","address":"天塩郡豊富町字兜沼","next":[1112225,1011333,1111548,1111550,1011334,1112226,1111551,1111546],"voronoi":{"lat":44.996187,"lng":141.330119,"delta_lat":[0,-20591,-17586,229897,71529,-26800,-12690,-139867],"delta_lng":[0,-114312,-115145,422145,232135,17613,2567,-193275]},"impl":true},
    {"code":1111552,"left":1111550,"right":1111553,"id":"975c91","name":"南稚内","name_kana":"みなみわっかない","lat":45.398166,"lng":141.683026,"prefecture":1,"lines":[11115,11122],"attr":"eco","postal_code":"097-0005","address":"稚内市大黒１丁目","next":[1111551,1111553,1112229],"voronoi":{"lat":45.384278,"lng":141.607214,"delta_lat":[0,-35908,65219],"delta_lng":[0,75925,15648]},"impl":true},
    {"code":1111550,"left":1111551,"id":"a6c845","name":"勇知","name_kana":"ゆうち","lat":45.259339,"lng":141.685151,"prefecture":1,"lines":[11115],"attr":"eco","postal_code":"098-4581","address":"稚内市字抜海村上勇知","next":[1112226,1111551,1111549,1112229],"voronoi":{"lat":45.259436,"lng":141.754942,"delta_lat":[0,-71529,135169,-3561],"delta_lng":[0,-232135,191642,22961]},"impl":true},
    {"code":1111551,"id":"23728c","name":"抜海","name_kana":"ばっかい","lat":45.316866,"lng":141.644576,"prefecture":1,"lines":[11115],"attr":"eco","postal_code":"097-0036","address":"稚内市字抜海村クトネベツ","next":[1111552,1011314,9911105,1011333,1111550,1010306,1110216,1112229,1111549,1111553,1011011,1010305],"voronoi":{"lat":45.049209,"lng":139.220888,"delta_lat":[0,212108,1308868,1007506,-2193412,-35908,-25294,-135169,-229897,-164023,-8022,262656],"delta_lng":[0,-438695,-2335915,-1612779,6773715,75925,31311,-191642,-422145,-681797,-538377,-658366]},"impl":true},
    {"code":1111553,"id":"945f52","name":"稚内","name_kana":"わっかない","lat":45.416995,"lng":141.676999,"prefecture":1,"lines":[11115],"attr":"eco","postal_code":"097-0022","address":"稚内市中央３丁目","next":[1112228,1011011,1111552,1170223,9991120,1111551,1112229],"voronoi":{"enclosed":false,"lat":144.706056,"lng":30.661305,"delta_lat":[0,-70827533,-15454053,-10846779,-2193412,29311,33123,98761763],"delta_lng":[0,70593630,15928722,17649842,6773715,91573,27916,15688028]},"impl":true},
    {"code":1112229,"left":1111546,"right":1112228,"id":"53aae7","name":"宇遠内","name_kana":"うえんない","closed":true,"lat":45.392694,"lng":141.705833,"prefecture":1,"lines":[11122],"postal_code":"097-0002","address":"北海道稚内市潮見４丁目１-２１","open_date":"1955-12-02","closed_date":"1989-05-01","next":[1112226,1112228,1111551,1111550,1111552,1111553],"voronoi":{"lat":45.41359,"lng":141.698787,"delta_lat":[0,-65219,-25294,-3561,10971,116226],"delta_lng":[0,-15648,31311,22961,9733,-20441]},"impl":false},
    {"code":1111546,"left":1111548,"id":"3b9263","name":"下沼","name_kana":"しもぬま","lat":45.037146,"lng":141.758218,"prefecture":1,"lines":[11115],"attr":"eco","postal_code":"098-3228","address":"天塩郡幌延町字下沼","next":[1111548,1111545,1011338,1011335,1111547,1011336,1011337,1111549,1011334],"voronoi":{"lat":44.996187,"lng":141.330119,"delta_lat":[0,83892,6927,-25580,-33951,-10262,-14636,-11609,181],"delta_lng":[0,251728,104873,124449,-8788,-7223,-28362,-228092,-103914]},"impl":true},
    {"code":1111548,"id":"9fbda9","name":"徳満","name_kana":"とくみつ","lat":45.145838,"lng":141.751039,"prefecture":1,"lines":[11115],"attr":"eco","postal_code":"098-4137","address":"天塩郡豊富町字徳満","next":[1111547,1111549,1111546,1112225],"voronoi":{"lat":45.219946,"lng":141.775123,"delta_lat":[0,-139867,6927,76598],"delta_lng":[0,-193275,104873,149977]},"impl":true},
    {"code":1112228,"id":"f3eebc","name":"声問","name_kana":"こえとい","closed":true,"lat":45.403056,"lng":141.76475,"prefecture":1,"lines":[11122],"postal_code":"098-6642","address":"北海道稚内市声問４丁目１３","open_date":"1922-11-01","closed_date":"1989-05-01","next":[1111553,1112227,1112222,1112229,1112226],"voronoi":{"enclosed":false,"lat":143.582257,"lng":163.216128,"delta_lat":[0,-97732879,-512698,-6193,116226,98761763],"delta_lng":[0,-21172725,-282864,-13396,-20441,15688028]},"impl":false},
    {"code":1011330,"left":1011326,"right":1011338,"id":"823ece","name":"北里","name_kana":"きたさと","closed":true,"lat":44.784636,"lng":141.777083,"prefecture":1,"lines":[10113],"postal_code":"098-3501","address":"北海道天塩郡遠別町字北里","open_date":"1956-05-01","closed_date":"1970-09-07","next":[1011329,1011326,1011332,1011333,1011321,1011331,1011328,1011327],"voronoi":{"lat":44.750686,"lng":141.756507,"delta_lat":[0,68467,-49138,-61702,-29906,-7557,47568,14929],"delta_lng":[0,71774,-262057,-249274,-105037,216009,261124,41082]},"impl":false},
    {"code":1011326,"left":1011323,"right":1011327,"id":"28da70","name":"天塩金浦","name_kana":"てしおかなうら","closed":true,"lat":44.6875,"lng":141.794778,"prefecture":1,"lines":[10113],"postal_code":"098-3533","address":"北海道天塩郡遠別町字金浦","open_date":"1958-10-18","closed_date":"1987-03-30","next":[1011330,1011325,1011321,1011327,1011324,1111536],"voronoi":{"lat":44.667371,"lng":141.875484,"delta_lat":[0,-6321,9801,47568,-27792,-14614],"delta_lng":[0,-390397,-57165,261124,238214,3253]},"impl":false},
    {"code":1011323,"left":1011322,"right":1011329,"id":"ec96f5","name":"天塩大沢","name_kana":"てしおおおさわ","closed":true,"lat":44.5945,"lng":141.791667,"prefecture":1,"lines":[10113],"postal_code":"078-4400","address":"北海道苫前郡初山別村字大沢","open_date":"1958-10-18","closed_date":"1987-03-30","next":[1011324,1011322,1011325,1011321],"voronoi":{"lat":44.634797,"lng":141.592915,"delta_lat":[0,-13532,-55772,39095],"delta_lng":[0,178316,122727,-221536]},"impl":false},
    {"code":1011322,"left":1011321,"id":"1342b5","name":"豊岬","name_kana":"とよさき","closed":true,"lat":44.57325,"lng":141.787917,"prefecture":1,"lines":[10113],"postal_code":"078-4432","address":"北海道苫前郡初山別村字明里２０","open_date":"1958-10-18","closed_date":"1987-03-30","next":[9911309,1011323,1011324,1011321],"voronoi":{"lat":44.546918,"lng":141.949104,"delta_lat":[0,18574,39095,-99525],"delta_lng":[0,-55147,-221536,204258]},"impl":false},
    {"code":1011321,"id":"1a8d80","name":"初山別","name_kana":"しょさんべつ","closed":true,"lat":44.532944,"lng":141.768278,"prefecture":1,"lines":[10113],"postal_code":"078-4421","address":"北海道苫前郡初山別村字初山別１２２−１１","open_date":"1957-11-06","closed_date":"1987-03-30","next":[1011333,1011317,1011326,1011330,1011320,1011325,1011315,1011322,9911309,1011323,1011314],"voronoi":{"lat":44.676765,"lng":141.182938,"delta_lat":[0,1642,-7557,-9801,-26253,-30209,-99525,-3477,13898,106225,21396],"delta_lng":[0,28975,216009,57165,107827,79507,204258,-3919,-273703,-298257,-48140]},"impl":false},
    {"code":1011329,"id":"cb2e95","name":"丸松","name_kana":"まるまつ","closed":true,"lat":44.769639,"lng":141.791389,"prefecture":1,"lines":[10113],"postal_code":"098-3504","address":"北海道天塩郡遠別町字丸松５５","open_date":"1936-10-23","closed_date":"1987-03-30","next":[1111541,1011330,1011331,1011328],"voronoi":{"lat":44.750686,"lng":141.756507,"delta_lat":[0,68467,15323,-35215],"delta_lng":[0,71774,41464,34630]},"impl":false},
    {"code":1011327,"left":1011324,"right":1011328,"id":"ee986f","name":"遠別","name_kana":"えんべつ","closed":true,"lat":44.724167,"lng":141.799056,"prefecture":1,"lines":[10113],"postal_code":"098-3543","address":"北海道天塩郡遠別町字本町６丁目２６−２","open_date":"1936-10-23","closed_date":"1987-03-30","next":[1011326,1011330,1011328,1111536],"voronoi":{"lat":44.752739,"lng":141.922327,"delta_lat":[0,-19392,-14929,-27792],"delta_lng":[0,-192198,-41082,238214]},"impl":false},
    {"code":1011324,"left":1011325,"id":"825b7c","name":"共成","name_kana":"きょうせい","closed":true,"lat":44.623472,"lng":141.804833,"prefecture":1,"lines":[10113],"postal_code":"078-4433","address":"北海道苫前郡初山別村字共成","open_date":"1958-10-18","closed_date":"1987-03-30","next":[1011323,1111536,1011326,1011322,1011325,9911309],"voronoi":{"lat":44.676012,"lng":141.930513,"delta_lat":[0,-8642,-46106,-55772,-18574,14395],"delta_lng":[0,-55029,-104254,122727,55147,38122]},"impl":false},
    {"code":1011325,"id":"639f6d","name":"歌越","name_kana":"うたこし","closed":true,"lat":44.644639,"lng":141.795472,"prefecture":1,"lines":[10113],"postal_code":"098-3532","address":"北海道天塩郡遠別町字歌越","open_date":"1958-10-18","closed_date":"1987-03-30","next":[1011326,1011323,1011321,1011324],"voronoi":{"lat":44.621265,"lng":141.77123,"delta_lat":[0,13532,26253,6321],"delta_lng":[0,-178316,-107827,390397]},"impl":false},
    {"code":1011328,"id":"88145e","name":"啓明","name_kana":"けいめい","closed":true,"lat":44.756111,"lng":141.795833,"prefecture":1,"lines":[10113],"postal_code":"098-3503","address":"北海道天塩郡遠別町字啓明１","open_date":"1956-05-01","closed_date":"1987-03-30","next":[1111536,1011330,1011329,1011327,1111541],"voronoi":{"lat":44.799261,"lng":141.904375,"delta_lat":[0,-48575,-17339,19392,29110],"delta_lng":[0,-147868,-26379,192198,1397]},"impl":false},
    {"code":1011338,"left":1112226,"right":1111545,"id":"aa907e","name":"作返","name_kana":"さくかえし","closed":true,"lat":44.989167,"lng":141.826389,"prefecture":1,"lines":[10113],"postal_code":"098-3313","address":"北海道天塩郡天塩町字サツカヘシ","open_date":"1955-12-02","closed_date":"1987-03-30","next":[1111545,1111544,1111542,1111546,1111543,1011337],"voronoi":{"lat":45.017213,"lng":141.795159,"delta_lat":[0,10262,-39097,-18790,-46241,-3388],"delta_lng":[0,7223,51321,-1165,-19035,-1967]},"impl":false},
    {"code":1112226,"left":1011337,"right":1112227,"id":"29e281","name":"樺岡","name_kana":"かばおか","closed":true,"lat":45.296889,"lng":141.813833,"prefecture":1,"lines":[11122],"postal_code":"098-6561","address":"北海道稚内市大字声問村樺岡","open_date":"1922-11-01","closed_date":"1989-05-01","next":[1111550,1112229,1112225,1111549,1112227,1112224,1112228],"voronoi":{"lat":45.330487,"lng":141.747143,"delta_lat":[0,-10971,-60079,-26800,65415,37686,942],"delta_lng":[0,-9733,17532,17613,92031,17380,-121427]},"impl":false},
    {"code":1011337,"left":1111547,"id":"d9f0ff","name":"振老","name_kana":"ふらおい","closed":true,"lat":44.975556,"lng":141.79,"prefecture":1,"lines":[10113],"postal_code":"098-3300","address":"北海道天塩郡字下サロベツ天塩町","open_date":"1935-06-30","closed_date":"1987-03-30","next":[1011334,1011335,1011336,1111542,1011338,1111546],"voronoi":{"lat":45.002578,"lng":141.766797,"delta_lat":[0,-50348,-34797,-8053,10580,97254],"delta_lng":[0,14696,34343,13086,2614,-36377]},"impl":false},
    {"code":1111547,"id":"fa21b1","name":"豊富","name_kana":"とよとみ","lat":45.104624,"lng":141.772088,"prefecture":1,"lines":[11115],"attr":"eco","postal_code":"098-4100","address":"天塩郡豊富町字上サロベツ","next":[1111545,1111548,1112224,1111546,1112225],"voronoi":{"lat":45.163604,"lng":141.836698,"delta_lat":[0,-76598,-25580,69846,4373],"delta_lng":[0,-149977,124449,85522,-5408]},"impl":true},
    {"code":1112227,"id":"1490f9","name":"恵北","name_kana":"けいほく","closed":true,"lat":45.375639,"lng":141.814444,"prefecture":1,"lines":[11122],"postal_code":"098-6645","address":"北海道稚内市大字声問村恵北５６９１−１","open_date":"1922-11-01","closed_date":"1989-05-01","next":[1112228,1112224,1112222,1112223,1112226],"voronoi":{"lat":45.33668,"lng":141.760539,"delta_lat":[0,512698,-250811,-218526,-44303],"delta_lng":[0,282864,-40317,-58098,-63022]},"impl":false},
    {"code":1111545,"left":1111544,"right":1112225,"id":"a37100","name":"幌延","name_kana":"ほろのべ","lat":45.014503,"lng":141.84569,"prefecture":1,"lines":[11115,10113],"attr":"eco","postal_code":"098-3211","address":"天塩郡幌延町１条南１丁目","next":[1011338,1111547,1111546,1112224,1111544],"voronoi":{"lat":45.131272,"lng":141.896692,"delta_lat":[0,-69846,-33951,-39097,129779],"delta_lng":[0,-85522,-8788,51321,105828]},"impl":true},
    {"code":1111544,"id":"d62b10","name":"上幌延","name_kana":"かみほろのべ","lat":44.985787,"lng":141.880905,"prefecture":1,"lines":[11115],"attr":"eco","postal_code":"098-3225","address":"天塩郡幌延町字上幌延","next":[1111543,1111542,1111540,1011338,1112224,1111545],"voronoi":{"lat":44.988379,"lng":141.853703,"delta_lat":[0,-18790,16047,10418,118149,3955],"delta_lng":[0,-1165,83327,28219,63993,-68546]},"impl":true},
    {"code":1112225,"id":"349fd9","name":"沼川","name_kana":"ぬまかわ","closed":true,"lat":45.2505,"lng":141.846806,"prefecture":1,"lines":[11122],"postal_code":"097-0000","address":"北海道稚内市大字声問村沼川３９６３","open_date":"1922-11-01","closed_date":"1989-05-01","next":[1111549,1112226,1112224,1111548,1111547],"voronoi":{"lat":45.298051,"lng":141.864586,"delta_lat":[0,-65415,-12690,-56342,-27959],"delta_lng":[0,-92031,2567,61575,54586]},"impl":false},
    {"code":1111528,"left":1112416,"right":1112205,"id":"0d983c","name":"初野","name_kana":"はつの","lat":44.512808,"lng":142.336129,"prefecture":1,"lines":[11115],"attr":"cool","postal_code":"098-2211","address":"中川郡美深町字富岡","next":[1112423,1111527,1112422,1111529,1011402],"voronoi":{"lat":44.512227,"lng":142.19735,"delta_lat":[0,-46475,-8451,54793,18248],"delta_lng":[0,45794,16476,113076,8365]},"impl":true},
    {"code":1112416,"left":9912103,"right":1111514,"id":"b050c0","name":"新富","name_kana":"しんとみ","closed":true,"lat":44.179472,"lng":142.140167,"prefecture":1,"lines":[11124],"postal_code":"074-0747","address":"北海道雨竜郡幌加内町字新富","open_date":"1955-09-02","closed_date":"1990-09-01","next":[1111514,1112418,1112414,1112417,1112415,9911208,1111515],"voronoi":{"lat":44.199294,"lng":142.248879,"delta_lat":[0,-7219,-47826,2160,43370,3008,3411],"delta_lng":[0,-286236,22005,123208,156314,507,95]},"impl":false},
    {"code":9912103,"left":1112404,"right":9912105,"id":"e5d7f3","name":"本通(北海道)","original_name":"本通","closed":true,"lat":43.866722,"lng":141.897361,"prefecture":1,"lines":[99121],"postal_code":"078-2225","address":"北海道雨竜郡沼田町字幌新","open_date":"1952-05-01","closed_date":"1971-04-15","next":[1111306,9912104,1111307,1111308,9912105,9912106],"voronoi":{"lat":43.930329,"lng":141.843589,"delta_lat":[0,-30412,-50902,6528,61645,2534],"delta_lng":[0,6174,49320,23456,-49879,-3295]},"impl":false},
    {"code":1112404,"left":1111305,"right":1112406,"id":"1cb5a0","name":"多度志","name_kana":"たどし","closed":true,"lat":43.814306,"lng":142.0325,"prefecture":1,"lines":[11124],"postal_code":"074-0141","address":"北海道深川市多度志","open_date":"1924-10-25","closed_date":"1995-09-04","next":[1111303,9912105,1112405,1112403,1111304,9912108,1111302,9912104,1112402,1112408,1111305],"voronoi":{"lat":43.791389,"lng":142.000348,"delta_lat":[0,-9059,-6267,4628,47249,65213,10022,-204,-37297,-6017,-15570],"delta_lng":[0,6326,25478,8785,13950,-27487,-9471,-307,-32757,-3548,678]},"impl":false},
    {"code":1111305,"left":1111304,"right":1111306,"id":"044f0c","name":"石狩沼田","name_kana":"いしかりぬまた","lat":43.810032,"lng":141.934266,"prefecture":1,"lines":[11112,11113],"attr":"heat","postal_code":"078-2222","address":"雨竜郡沼田町沼田","next":[1111240,9912104,1111306,1111304,1111241,1112404],"voronoi":{"lat":43.859657,"lng":141.981317,"delta_lat":[0,-8708,-31689,-22543,-14714,62084],"delta_lng":[0,-36255,-26417,2077,13148,48125]},"impl":true},
    {"code":1111304,"left":1111241,"id":"6ddf89","name":"北秩父別","name_kana":"きたちっぷべつ","lat":43.789375,"lng":141.960915,"prefecture":1,"lines":[11113],"attr":"heat","postal_code":"078-2106","address":"雨竜郡秩父別町６条１丁目","next":[1112404,1111240,1111303,1111305],"voronoi":{"lat":43.791389,"lng":142.000348,"delta_lat":[0,-22072,12686,62084],"delta_lng":[0,-65410,-1068,48125]},"impl":true},
    {"code":1111241,"id":"65d710","name":"五ヶ山","name_kana":"ごかやま","closed":true,"lat":43.807333,"lng":141.904972,"prefecture":1,"lines":[11112],"postal_code":"078-2223","address":"北海道雨竜郡沼田町字北竜","open_date":"1956-11-16","closed_date":"1972-06-19","next":[1111306,1111307,1111240,1111239,1111305],"voronoi":{"lat":43.794924,"lng":141.880238,"delta_lat":[0,15362,11697,-2724,-22543],"delta_lng":[0,-22581,21853,39135,2077]},"impl":false},
    {"code":1111306,"id":"fb1d9c","name":"真布","name_kana":"まっぷ","lat":43.832965,"lng":141.906756,"prefecture":1,"lines":[11113],"attr":"heat","postal_code":"078-2221","address":"雨竜郡沼田町字真布","next":[1111307,9912103,1111241,9912104,1111305],"voronoi":{"lat":43.819259,"lng":141.918644,"delta_lat":[0,2724,27032,6528,-4595],"delta_lng":[0,-39135,19574,23456,22522]},"impl":true},
    {"code":1112406,"left":1112405,"right":1112407,"id":"cc6972","name":"幌成","name_kana":"ほろなり","closed":true,"lat":43.846944,"lng":142.10125,"prefecture":1,"lines":[11124],"postal_code":"074-0145","address":"北海道深川市幌内１２６","open_date":"1926-11-10","closed_date":"1995-09-04","next":[1112403,1112407,1112405,1110344,1112408],"voronoi":{"lat":43.868982,"lng":142.073903,"delta_lat":[0,-69008,-7961,7029,67526],"delta_lng":[0,41131,9701,27911,-59423]},"impl":false},
    {"code":1112405,"left":1112403,"id":"792beb","name":"宇摩","name_kana":"うま","closed":true,"lat":43.834444,"lng":142.080278,"prefecture":1,"lines":[11124],"postal_code":"074-0142","address":"北海道深川市宇摩１２６５","open_date":"1955-08-20","closed_date":"1995-09-04","next":[1112404,1112403,1112406,1112408],"voronoi":{"lat":43.893153,"lng":142.0274,"delta_lat":[0,-65213,-27966,69008],"delta_lng":[0,27487,60148,-41131]},"impl":false},
    {"code":1112403,"id":"cc3d0c","name":"上多度志","name_kana":"かみたどし","closed":true,"lat":43.804333,"lng":142.066278,"prefecture":1,"lines":[11124],"postal_code":"074-0141","address":"北海道深川市多度志１５８０","open_date":"1946-06-01","closed_date":"1995-09-04","next":[1112406,1112404,1112402,1112405,1110344],"voronoi":{"lat":43.777445,"lng":142.108335,"delta_lat":[0,3246,47249,-27966,-7961],"delta_lng":[0,-67398,13950,60148,9701]},"impl":false},
    {"code":1112407,"id":"edd1f9","name":"下幌成","name_kana":"しもほろなり","closed":true,"lat":43.856111,"lng":142.111667,"prefecture":1,"lines":[11124],"postal_code":"074-0145","address":"北海道深川市幌内６３１","open_date":"1955-08-20","closed_date":"1995-09-04","next":[1112408,1112409,1110345,1110344,1112406,1110346],"voronoi":{"lat":43.827605,"lng":142.202049,"delta_lat":[0,-26598,-1965,67526,19242,-18467],"delta_lng":[0,-36209,-13194,-59423,90705,41170]},"impl":false},
    {"code":9912105,"left":9911308,"right":9912109,"id":"6a3876","name":"袋地","closed":true,"lat":43.906278,"lng":141.927778,"prefecture":1,"lines":[99121],"postal_code":"078-2225","address":"北海道雨竜郡沼田町字幌新","open_date":"1952-05-01","closed_date":"1971-04-15","next":[9912108,1112404,9912104,9912106,9912103],"voronoi":{"lat":43.919722,"lng":141.869365,"delta_lat":[0,3273,-20025,-37297,51515],"delta_lng":[0,84066,64190,-32757,-112204]},"impl":false},
    {"code":9911308,"left":9912106,"right":9911309,"id":"f78eef","name":"古賀町","closed":true,"lat":44.38875,"lng":141.885778,"prefecture":1,"lines":[99113],"postal_code":"078-4145","address":"北海道苫前郡羽幌町字築別炭砿","open_date":"1958-06-10","closed_date":"1970-12-15","next":[9911307,1112417,9911309,1011319],"voronoi":{"lat":44.441416,"lng":141.83303,"delta_lat":[0,-198706,34927,169606],"delta_lng":[0,139121,24128,-160476]},"impl":false},
    {"code":9912106,"left":9912104,"id":"501fbd","name":"新雨竜","closed":true,"lat":43.937667,"lng":141.926556,"prefecture":1,"lines":[99121],"postal_code":"078-2200","address":"北海道雨竜郡沼田町字浅野","open_date":"1930-07-01","closed_date":"1971-04-15","next":[9912105,9911207,9911208,9912108,1111308,9912103,9912109],"voronoi":{"lat":43.986333,"lng":141.880428,"delta_lat":[0,-12884,-32538,-10581,-10607,3273,48159],"delta_lng":[0,-20552,-24823,8537,25776,84066,-43081]},"impl":false},
    {"code":9912104,"id":"39d3d6","name":"幌新","name_kana":"ほろしん","closed":true,"lat":43.8825,"lng":141.916861,"prefecture":1,"lines":[99121],"postal_code":"078-2225","address":"北海道雨竜郡沼田町字幌新","open_date":"1930-07-01","closed_date":"1971-04-15","next":[9912105,9912103,1111305,1111306,1112404],"voronoi":{"lat":43.859657,"lng":141.981317,"delta_lat":[0,-8708,4595,61645,-51515],"delta_lng":[0,-36255,-22522,-49879,112204]},"impl":false},
    {"code":9911309,"id":"2961ba","name":"築別炭砿","name_kana":"ちくべつたんこう","closed":true,"lat":44.394111,"lng":141.891444,"prefecture":1,"lines":[99113],"postal_code":"078-4145","address":"北海道苫前郡羽幌町字築別炭砿","open_date":"1941-12-14","closed_date":"1970-12-15","next":[1011320,1112421,1111536,1011322,1112418,1011319,1011321,9911308,1112417,1011324],"voronoi":{"lat":44.539699,"lng":142.035359,"delta_lat":[0,-233249,-18402,-10410,169606,2039,52303,3477,41856,14395],"delta_lng":[0,-22049,-9451,-7581,-160476,846,36112,3919,72425,38122]},"impl":false},
    {"code":9912109,"left":1112408,"right":1112417,"id":"39da5f","name":"昭和(北海道)","original_name":"昭和","name_kana":"しょうわ","closed":true,"lat":43.977861,"lng":141.946944,"prefecture":1,"lines":[99121],"postal_code":"078-2200","address":"北海道雨竜郡沼田町","open_date":"1930-10-01","closed_date":"1971-04-15","next":[1112410,1112414,1112408,1112412,1112413,9912108,9912106,1112411,9911208],"voronoi":{"lat":43.986333,"lng":141.880428,"delta_lat":[0,-15178,-24209,28745,11752,12860,34019,55530,34386],"delta_lng":[0,29923,125653,17051,5,-2036,-10134,-27466,-24174]},"impl":false},
    {"code":1112408,"left":9912108,"id":"3bc819","name":"鷹泊","name_kana":"たかどまり","closed":true,"lat":43.883611,"lng":142.105833,"prefecture":1,"lines":[11124],"postal_code":"074-0144","address":"北海道深川市鷹泊８４","open_date":"1926-11-10","closed_date":"1995-09-04","next":[9912108,1112407,1112410,9912109,1112409,1112406,1112404,1112405],"voronoi":{"lat":43.893153,"lng":142.0274,"delta_lat":[0,10022,43771,28745,-685,-89196,-19242,2414],"delta_lng":[0,-9471,18075,17051,1210,129664,-90705,-19320]},"impl":false},
    {"code":9912108,"id":"27a744","name":"太刀別","name_kana":"たちべつ","closed":true,"lat":43.951333,"lng":141.941833,"prefecture":1,"lines":[99121],"postal_code":"078-2200","address":"北海道雨竜郡沼田町字浅野","open_date":"1963-07-15","closed_date":"1971-04-15","next":[9912105,1112408,1112404,9912109,9912106],"voronoi":{"lat":43.902971,"lng":142.017622,"delta_lat":[0,204,43771,24209,-48159],"delta_lng":[0,307,18075,-125653,43081]},"impl":false},
    {"code":1112417,"id":"08fab9","name":"添牛内","name_kana":"そえうしない","closed":true,"lat":44.213611,"lng":142.139306,"prefecture":1,"lines":[11124],"postal_code":"074-0746","address":"北海道雨竜郡幌加内町字添牛内","open_date":"1931-09-15","closed_date":"1995-09-04","next":[9911307,9911208,9911308,1112416,1112418,9911309],"voronoi":{"lat":44.199294,"lng":142.248879,"delta_lat":[0,-7219,17173,33462,34927,10410],"delta_lng":[0,-286236,-10000,19508,24128,7581]},"impl":false},
    {"code":1111514,"left":1112411,"right":1112422,"id":"720553","name":"北剣淵","name_kana":"きたけんぶち","lat":44.139423,"lng":142.377955,"prefecture":1,"lines":[11115],"attr":"cool","postal_code":"098-0300","address":"上川郡剣淵町第１３区","next":[1112416,1111515,1111512,1111513,1112415],"voronoi":{"lat":44.189779,"lng":142.26417,"delta_lat":[0,3008,-72341,-13107,43247],"delta_lng":[0,507,232747,-91588,-140848]},"impl":true},
    {"code":1112411,"left":1112414,"right":1112410,"id":"c9e65c","name":"幌加内","name_kana":"ほろかない","closed":true,"lat":44.011111,"lng":142.156944,"prefecture":1,"lines":[11124],"postal_code":"074-0411","address":"北海道雨竜郡幌加内町字幌加内","open_date":"1929-11-08","closed_date":"1995-09-04","next":[1111512,1111513,1112412,1112410,9912109],"voronoi":{"lat":44.000302,"lng":142.051023,"delta_lat":[0,50359,-47767,-198,-15254],"delta_lng":[0,211102,19611,50,-228727]},"impl":false},
    {"code":1112414,"left":1112412,"right":1112415,"id":"074c1b","name":"政和温泉","name_kana":"せいわおんせん","closed":true,"lat":44.1145,"lng":142.141306,"prefecture":1,"lines":[11124],"postal_code":"074-0425","address":"北海道雨竜郡幌加内町字政和第一","open_date":"1961-12-01","closed_date":"1990-03-10","next":[9912109,1112416,1112413,9911208,1112415],"voronoi":{"lat":44.14641,"lng":142.107855,"delta_lat":[0,-2160,-20012,-34386,6796],"delta_lng":[0,-123208,4602,24174,183664]},"impl":false},
    {"code":1112412,"left":1112413,"id":"23f3c5","name":"上幌加内","name_kana":"かみほろかない","closed":true,"lat":44.038472,"lng":142.150417,"prefecture":1,"lines":[11124],"postal_code":"074-0423","address":"北海道雨竜郡幌加内町字上幌加内","open_date":"1955-08-20","closed_date":"1995-09-04","next":[1112413,9912109,1112411,1111513],"voronoi":{"lat":44.000302,"lng":142.051023,"delta_lat":[0,34019,44988,-28648],"delta_lng":[0,-10134,213489,7747]},"impl":false},
    {"code":1112413,"id":"bfbd73","name":"雨煙別","name_kana":"うえんべつ","closed":true,"lat":44.074722,"lng":142.142778,"prefecture":1,"lines":[11124],"postal_code":"074-0424","address":"北海道雨竜郡幌加内町字雨煙別","open_date":"1931-09-15","closed_date":"1990-03-10","next":[1112415,1112412,1112414,9912109,1111513],"voronoi":{"lat":44.034321,"lng":142.04089,"delta_lat":[0,55530,6796,-9232,-8106],"delta_lng":[0,-27466,183664,56499,792]},"impl":false},
    {"code":1112415,"id":"fc91ae","name":"政和","name_kana":"せいわ","closed":true,"lat":44.134722,"lng":142.152583,"prefecture":1,"lines":[11124],"postal_code":"074-0426","address":"北海道雨竜郡幌加内町字政和第二","open_date":"1931-09-15","closed_date":"1995-09-04","next":[1112413,1111513,1112416,1112414,1111514],"voronoi":{"lat":44.189779,"lng":142.26417,"delta_lat":[0,-43370,-49762,-9232,63171],"delta_lng":[0,-156314,89232,56499,11401]},"impl":false},
    {"code":1112410,"left":1110347,"right":1111513,"id":"f5a797","name":"新成生","name_kana":"しんなりう","closed":true,"lat":43.977778,"lng":142.159167,"prefecture":1,"lines":[11124],"postal_code":"074-0402","address":"北海道雨竜郡幌加内町字新成生","open_date":"1955-08-20","closed_date":"1995-09-04","next":[1111512,1112409,9912109,1112408,1111511,1112411],"voronoi":{"lat":43.976473,"lng":142.292205,"delta_lat":[0,-16142,14674,685,11752,15254],"delta_lng":[0,3098,-241038,-1210,5,228727]},"impl":false},
    {"code":1110347,"left":1112409,"id":"7b3ef7","name":"近文","name_kana":"ちかぶみ","lat":43.789193,"lng":142.325327,"prefecture":1,"lines":[11103],"attr":"heat","postal_code":"070-0821","address":"旭川市近文町１９丁目","next":[1111510,1110348,1111402,1112409,1111511,1111503,1111504,1110346],"voronoi":{"lat":43.880671,"lng":142.248118,"delta_lat":[0,53155,-9449,-21398,-42924,-64598,-42046,-7623],"delta_lng":[0,54130,24966,29450,9827,-9798,-33275,-10223]},"impl":true},
    {"code":1112409,"id":"7e5953","name":"沼牛","name_kana":"ぬまうし","closed":true,"lat":43.959528,"lng":142.158056,"prefecture":1,"lines":[11124],"postal_code":"074-0403","address":"北海道雨竜郡幌加内町字下幌加内","open_date":"1929-11-08","closed_date":"1995-09-04","next":[1112410,1112407,1110346,1110347,1112408,1111511],"voronoi":{"lat":43.880671,"lng":142.248118,"delta_lat":[0,-13329,18467,89196,-14674,-26505],"delta_lng":[0,-23019,-41170,-129664,241038,6945]},"impl":false},
    {"code":1111513,"id":"5ffc00","name":"剣淵","name_kana":"けんぶち","lat":44.09643,"lng":142.364754,"prefecture":1,"lines":[11115],"attr":"heat","postal_code":"098-0300","address":"上川郡剣淵町栄町","next":[1112411,1111514,1112415,1112412,1112413,1111512],"voronoi":{"lat":44.150587,"lng":142.264987,"delta_lat":[0,-63171,-8106,-28648,-47767,104445],"delta_lng":[0,-11401,792,7747,19611,124099]},"impl":true},
    {"code":1112422,"left":1112420,"right":1111526,"id":"08c283","name":"白樺","name_kana":"しらかば","closed":true,"lat":44.373472,"lng":142.194722,"prefecture":1,"lines":[11124],"postal_code":"074-0400","address":"北海道雨竜郡幌加内町字蕗の台","open_date":"1941-10-10","closed_date":"1990-03-10","next":[1112423,1111531,1112420,1111529,1111528,1112421,1111530],"voronoi":{"lat":44.519767,"lng":142.185815,"delta_lat":[0,7570,-188661,-12889,139965,46475,4220],"delta_lng":[0,-26631,15625,45109,23226,-45794,-5024]},"impl":false},
    {"code":1112420,"left":1112419,"right":1112421,"id":"f54c9a","name":"湖畔","name_kana":"こはん","closed":true,"lat":44.298611,"lng":142.173333,"prefecture":1,"lines":[11124],"postal_code":"074-0742","address":"北海道雨竜郡幌加内町字朱鞠内","open_date":"1956-05-01","closed_date":"1995-09-04","next":[1112421,1112419,1111517,1112423,1112422,1112418],"voronoi":{"lat":44.249781,"lng":142.229384,"delta_lat":[0,71745,17150,-12889,-78893,-17095],"delta_lng":[0,-105624,51049,45109,58978,-4394]},"impl":false},
    {"code":1112419,"left":1112418,"id":"bc95b2","name":"朱鞠内","name_kana":"しゅまりない","closed":true,"lat":44.283889,"lng":142.163333,"prefecture":1,"lines":[11124],"postal_code":"074-0742","address":"北海道雨竜郡幌加内町字朱鞠内","open_date":"1932-10-25","closed_date":"1995-09-04","next":[1112420,1112418,1112421],"voronoi":{"lat":44.249781,"lng":142.229384,"delta_lat":[0,58107,13638],"delta_lng":[0,-189907,84283]},"impl":false},
    {"code":1112418,"id":"af87bb","name":"共栄(JR)","original_name":"共栄","name_kana":"きょうえい","closed":true,"lat":44.258472,"lng":142.155556,"prefecture":1,"lines":[11124],"postal_code":"074-0743","address":"北海道雨竜郡幌加内町字共栄","open_date":"1955-08-20","closed_date":"1995-09-04","next":[1111516,1112419,1112421,9911309,1111517,1112416,1112417,1112420,1111515],"voronoi":{"lat":44.225582,"lng":142.274202,"delta_lat":[0,4217,19982,58107,-1438,-18402,-88753,-3096,21045],"delta_lng":[0,301,-45118,-189907,-26167,-9451,245019,15893,7772]},"impl":false},
    {"code":1112421,"id":"446ff2","name":"蕗ノ台","name_kana":"ふきのだい","closed":true,"lat":44.369722,"lng":142.149444,"prefecture":1,"lines":[11124],"postal_code":"074-0400","address":"北海道雨竜郡幌加内町字蕗の台","open_date":"1941-10-10","closed_date":"1990-03-10","next":[1112420,9911309,1112418,1112419,1111536,1111531,1112422],"voronoi":{"lat":44.527337,"lng":142.159184,"delta_lat":[0,28561,-16199,-233249,1438,13638,17150],"delta_lng":[0,-63732,-60093,-22049,26167,84283,51049]},"impl":false},
    {"code":1111526,"left":1112423,"right":1111527,"id":"759eaa","name":"南美深","name_kana":"みなみびふか","lat":44.462604,"lng":142.367822,"prefecture":1,"lines":[11115],"attr":"cool","postal_code":"098-2205","address":"中川郡美深町字美深","next":[1011402,1111525,1112424,1112423,1111527],"voronoi":{"lat":44.474746,"lng":142.381692,"delta_lat":[0,-76042,-6332,32348,60410],"delta_lng":[0,-4571,-44958,-29720,71359]},"impl":true},
    {"code":1112423,"id":"fefd77","name":"北母子里","name_kana":"きたもしり","closed":true,"lat":44.362778,"lng":142.259167,"prefecture":1,"lines":[11124],"postal_code":"074-0741","address":"北海道雨竜郡幌加内町字母子里８７８７","open_date":"1941-10-10","closed_date":"1995-09-04","next":[1111527,1112422,1111528,1112420,1111518,1112424,1111526,1111517],"voronoi":{"lat":44.246894,"lng":142.278897,"delta_lat":[0,78893,139965,-8451,-32580,-32348,-104320,-34546],"delta_lng":[0,-58978,23226,16476,42822,29720,-23107,-24302]},"impl":false},
    {"code":1111527,"id":"3fe000","name":"美深","name_kana":"びふか","lat":44.482951,"lng":142.350597,"prefecture":1,"lines":[11115,10114],"attr":"cool","postal_code":"098-2238","address":"中川郡美深町字開運町","next":[1112423,1011402,1111528,1111526],"voronoi":{"lat":44.512094,"lng":142.372697,"delta_lat":[0,-54793,-32580,60410],"delta_lng":[0,-113076,42822,71359]},"impl":true},
    {"code":1112205,"left":1112208,"right":1112210,"id":"c3f9d7","name":"恵野","name_kana":"めぐみの","closed":true,"lat":44.863333,"lng":142.25125,"prefecture":1,"lines":[11122],"postal_code":"098-5111","address":"北海道枝幸郡中頓別町字上頓別","open_date":"1956-05-01","closed_date":"1989-05-01","next":[1112202,1112207,1112204,1112206,1112209,1112210,1112208],"voronoi":{"lat":44.90575,"lng":142.251939,"delta_lat":[0,-7854,-80534,1223,93394,631,-1057],"delta_lng":[0,-9663,-31527,34647,44373,-1695,-19958]},"impl":false},
    {"code":1112208,"left":1111538,"right":1112222,"id":"22510f","name":"松音知","name_kana":"まつねしり","closed":true,"lat":44.938056,"lng":142.224444,"prefecture":1,"lines":[11122],"postal_code":"098-5565","address":"北海道枝幸郡中頓別町字松音知","open_date":"1916-10-01","closed_date":"1989-05-01","next":[1112209,1112207,1111539,1112219,1112205],"voronoi":{"lat":44.90575,"lng":142.251939,"delta_lat":[0,78427,93667,-39,-166252],"delta_lng":[0,-134566,-12116,12923,149936]},"impl":false},
    {"code":1111538,"left":1111539,"right":1112206,"id":"f56bc6","name":"歌内","name_kana":"うたない","lat":44.880493,"lng":142.052162,"prefecture":1,"lines":[11115],"attr":"cool","postal_code":"098-2801","address":"中川郡中川町字歌内","next":[1111540,1112206,1111539,1112207,1111541,1111537],"voronoi":{"lat":44.815304,"lng":141.972312,"delta_lat":[0,24852,18166,103827,-70335,-22570],"delta_lng":[0,6678,14285,124268,14794,-266]},"impl":true},
    {"code":1111539,"left":1111536,"right":1111540,"id":"94f056","name":"問寒別","name_kana":"といかんべつ","lat":44.91233,"lng":142.025562,"prefecture":1,"lines":[11115],"attr":"cool","postal_code":"098-2943","address":"天塩郡幌延町字問寒別","next":[1112207,1112208,1111540,1111538,1112219],"voronoi":{"lat":44.984178,"lng":142.117373,"delta_lat":[0,-22028,-103827,239163,-19641],"delta_lng":[0,169,-124268,82028,29955]},"impl":true},
    {"code":1111536,"left":1111541,"id":"babcad","name":"佐久","name_kana":"さく","lat":44.743986,"lng":142.048562,"prefecture":1,"lines":[11115],"attr":"cool","postal_code":"098-2622","address":"中川郡中川町字佐久","next":[9911309,1111531,1011324,1111532,1011328,1111535,1111537,1112421,1111541,1011326,1011327],"voronoi":{"lat":44.676012,"lng":141.930513,"delta_lat":[0,-114699,-21615,16199,24444,31306,141963,60116,-31877,-29110,-62113],"delta_lng":[0,56713,48133,60093,11516,11762,4855,-152404,-47458,-1397,4934]},"impl":true},
    {"code":1111541,"id":"e5576c","name":"雄信内","name_kana":"おのっぷない","lat":44.911735,"lng":141.935888,"prefecture":1,"lines":[11115],"attr":"cool","postal_code":"098-3251","address":"天塩郡幌延町字雄興","next":[1011329,1111542,1111540,1111537,1111538,1011331,1111536,1011328],"voronoi":{"lat":44.813726,"lng":141.971182,"delta_lat":[0,1578,24852,139428,-114296,-30812,-35215,-17412],"delta_lng":[0,1130,6678,-19385,-104355,14496,34630,19348]},"impl":true},
    {"code":1111540,"id":"c30d20","name":"糠南","name_kana":"ぬかなん","lat":44.920778,"lng":142.000931,"prefecture":1,"lines":[11115],"attr":"cool","postal_code":"098-3200","address":"天塩郡幌延町字糠南","next":[1112223,1111538,1111541,1112224,1111544,1112219,1111542,1111539],"voronoi":{"lat":44.858323,"lng":141.993274,"delta_lat":[0,-18166,139428,16469,118149,1333,-3312,-14738],"delta_lng":[0,-14285,-19385,4479,63993,4321,23451,19454]},"impl":true},
    {"code":1112206,"left":1111535,"right":1112207,"id":"65d1c7","name":"敏音知","name_kana":"ぴんねしり","closed":true,"lat":44.878611,"lng":142.212222,"prefecture":1,"lines":[11122],"postal_code":"098-5113","address":"北海道枝幸郡中頓別町字敏音知１４３","open_date":"1916-10-01","closed_date":"1989-05-01","next":[1112202,1111537,1112207,1111538,1111535,1112205],"voronoi":{"lat":44.891815,"lng":142.132336,"delta_lat":[0,-22570,-55770,-3447,7335,80534],"delta_lng":[0,-266,27196,33348,18135,31527]},"impl":false},
    {"code":1111535,"left":1111537,"id":"14e305","name":"筬島","name_kana":"おさしま","lat":44.738883,"lng":142.197777,"prefecture":1,"lines":[11115],"attr":"cool","postal_code":"098-2500","address":"中川郡音威子府村字物満内","next":[1111534,1111533,1112206,1111536,1111537,1111532,1112202],"voronoi":{"lat":44.810027,"lng":142.192615,"delta_lat":[0,3447,-59864,-141963,81766,9365,45934],"delta_lng":[0,-33348,-35681,-4855,99134,6197,6978]},"impl":true},
    {"code":1111537,"id":"930c71","name":"天塩中川","name_kana":"てしおなかがわ","lat":44.81186,"lng":142.075335,"prefecture":1,"lines":[11115],"attr":"cool","postal_code":"098-2802","address":"中川郡中川町字中川","next":[1112206,1111541,1111536,1111535,1111538],"voronoi":{"lat":44.813475,"lng":142.159266,"delta_lat":[0,-59864,60116,1578,53940],"delta_lng":[0,-35681,-152404,1130,159759]},"impl":true},
    {"code":1112207,"id":"e959b5","name":"周磨","name_kana":"しゅうまろ","closed":true,"lat":44.91375,"lng":142.210278,"prefecture":1,"lines":[11122],"postal_code":"098-5565","address":"北海道枝幸郡中頓別町字松音知","open_date":"1956-05-01","closed_date":"1989-05-01","next":[1111539,1112208,1112205,1112206,1111538],"voronoi":{"lat":44.897897,"lng":142.242276,"delta_lat":[0,7854,78427,-22028,-70335],"delta_lng":[0,9663,-134566,169,14794]},"impl":false},
    {"code":1112222,"left":1112224,"right":1112220,"id":"b41dad","name":"鬼志別","name_kana":"おにしべつ","closed":true,"lat":45.32775,"lng":142.112361,"prefecture":1,"lines":[11122],"postal_code":"098-6233","address":"北海道宗谷郡猿払村鬼志別南町２４３","open_date":"1920-11-01","closed_date":"1989-05-01","next":[1112221,1112220,1112228,1112223,1112227],"voronoi":{"enclosed":false,"lat":-48.880499,"lng":108.417408,"delta_lat":[0,94146702,-26039,358401,250811,97732879],"delta_lng":[0,33710507,-20584,-104245,40317,21172725]},"impl":false},
    {"code":1112224,"left":1111542,"right":1112223,"id":"1510b8","name":"曲淵","name_kana":"まがりふち","closed":true,"lat":45.258694,"lng":141.896653,"prefecture":1,"lines":[11122],"postal_code":"098-6571","address":"北海道稚内市大字声問村曲渕５４７９","open_date":"1922-11-01","closed_date":"1989-05-01","next":[1111540,1112223,1111545,1112227,1111544,1111547,1112225,1112226],"voronoi":{"lat":45.298051,"lng":141.864586,"delta_lat":[0,-162406,-4373,-13115,-3955,1333,264505,-44303],"delta_lng":[0,26697,5408,62839,68546,4321,-87409,-63022]},"impl":false},
    {"code":1111542,"left":1111543,"id":"da9e14","name":"安牛","name_kana":"やすうし","lat":44.949809,"lng":141.894187,"prefecture":1,"lines":[11115],"attr":"cool","postal_code":"098-3226","address":"天塩郡幌延町字開進","next":[1111544,1111541,1011332,1011334,1111540,1011338,1011337,1011331,1111543],"voronoi":{"lat":44.996053,"lng":141.964084,"delta_lat":[0,-16469,-114296,9730,19311,15050,10580,3388,62288],"delta_lng":[0,-4479,-104355,-9027,-13535,-3766,2614,1967,102362]},"impl":true},
    {"code":1111543,"id":"87174b","name":"南幌延","name_kana":"みなみほろのべ","lat":44.965084,"lng":141.884892,"prefecture":1,"lines":[11115],"attr":"eco","postal_code":"098-3200","address":"天塩郡幌延町字南幌延","next":[1111544,1011338,1111542],"voronoi":{"lat":44.923347,"lng":141.833503,"delta_lat":[0,46241,16047],"delta_lng":[0,19035,83327]},"impl":true},
    {"code":1112223,"id":"17d1e4","name":"小石","name_kana":"こいし","closed":true,"lat":45.311389,"lng":142.056111,"prefecture":1,"lines":[11122],"postal_code":"098-6228","address":"北海道宗谷郡猿払村小石２９１−１３","open_date":"1922-11-01","closed_date":"1989-05-01","next":[1111540,1112224,1112220,1112222,1112227,1112219],"voronoi":{"lat":45.240166,"lng":142.107332,"delta_lat":[0,358401,-218526,-264505,-3312,36178],"delta_lng":[0,-104245,-58098,87409,23451,20204]},"impl":false},
    {"code":1112220,"left":1112209,"right":1112221,"id":"ffef8e","name":"猿払","name_kana":"さるふつ","closed":true,"lat":45.265278,"lng":142.191389,"prefecture":1,"lines":[11122],"postal_code":"098-6104","address":"北海道宗谷郡猿払村猿払","open_date":"1920-11-01","closed_date":"1989-05-01","next":[1112222,1112223,1112221,1112219],"voronoi":{"lat":45.148402,"lng":142.076053,"delta_lat":[0,91764,26039,68805],"delta_lng":[0,31279,20584,214434]},"impl":false},
    {"code":1112209,"left":1112219,"id":"9630f7","name":"上駒","name_kana":"かみこま","closed":true,"lat":44.957722,"lng":142.24625,"prefecture":1,"lines":[11122],"postal_code":"098-5564","address":"北海道枝幸郡中頓別町字上駒","open_date":"1955-12-02","closed_date":"1989-05-01","next":[1112219,1112208,1112213,1112211,1112212,1112205,1112218,1112210],"voronoi":{"lat":44.911553,"lng":142.268117,"delta_lat":[0,166252,1154,-1977,-308,-32842,-44012,-87210],"delta_lng":[0,-149936,14256,48890,414,34883,40772,30679]},"impl":false},
    {"code":1112219,"id":"11a067","name":"浅茅野","name_kana":"あさじの","closed":true,"lat":45.216917,"lng":142.225278,"prefecture":1,"lines":[11122],"postal_code":"098-6101","address":"北海道宗谷郡猿払村浅茅野３３６−１１","open_date":"1919-11-01","closed_date":"1989-05-01","next":[1112209,1111540,1112218,1112221,1112220,1112208,1111539,1112223],"voronoi":{"lat":45.112223,"lng":142.055849,"delta_lat":[0,-14738,-19641,-39,1154,267626,-11576,-186608],"delta_lng":[0,19454,29955,12923,14256,231668,-21755,-266297]},"impl":false},
    {"code":1112221,"id":"71a37e","name":"芦野","name_kana":"あしの","closed":true,"lat":45.303889,"lng":142.179,"prefecture":1,"lines":[11122],"postal_code":"098-6225","address":"北海道宗谷郡猿払村芦野１７５−２２９","open_date":"1920-11-01","closed_date":"1989-05-01","next":[1010502,1011722,1112219,1112222,1112220,1111709,1112216,1010503,1112313,1112218,1112217],"voronoi":{"enclosed":false,"lat":-48.880499,"lng":108.417408,"delta_lat":[0,94146702,68805,11576,3923,49343,47719,304197,5286162,32741,57502708,87383880],"delta_lng":[0,33710507,214434,21755,5797,62501,54030,263401,4277296,20110,32267706,48621575]},"impl":false},
    {"code":1112210,"left":1111531,"right":1112216,"id":"2c86a8","name":"中頓別","name_kana":"なかとんべつ","closed":true,"lat":44.973972,"lng":142.292444,"prefecture":1,"lines":[11122],"postal_code":"098-5551","address":"北海道枝幸郡中頓別町字中頓別９５１","open_date":"1916-10-01","closed_date":"1989-05-01","next":[1010508,1112211,1112204,1010506,1112203,1112205,1010505,1112209],"voronoi":{"lat":44.99982,"lng":142.257396,"delta_lat":[0,-35409,-8186,-8705,-36215,-6308,6982,631],"delta_lng":[0,153646,4001,2457,3175,-77597,-53308,-1695]},"impl":false},
    {"code":1111531,"left":1111534,"right":1112203,"id":"06c3fa","name":"豊清水","name_kana":"とよしみず","lat":44.639503,"lng":142.270342,"prefecture":1,"lines":[11115],"attr":"cool","postal_code":"098-2368","address":"中川郡美深町字清水","next":[1111532,1111533,1111536,1112422,1112421,1111530],"voronoi":{"lat":44.519767,"lng":142.185815,"delta_lat":[0,7570,28561,24444,87282,2358],"delta_lng":[0,-26631,-63732,11516,191167,45239]},"impl":true},
    {"code":1111534,"left":1111533,"right":1112202,"id":"c43c2f","name":"音威子府","name_kana":"おといねっぷ","lat":44.729448,"lng":142.259883,"prefecture":1,"lines":[11115,11122],"attr":"cool","postal_code":"098-2501","address":"中川郡音威子府村字音威子府","next":[1111535,1112203,1111533,1112202],"voronoi":{"lat":44.735379,"lng":142.379921,"delta_lat":[0,-32600,45934,11431],"delta_lng":[0,-155859,6978,93452]},"impl":true},
    {"code":1111533,"left":1111532,"id":"0c931f","name":"咲来","name_kana":"さっくる","lat":44.692702,"lng":142.267569,"prefecture":1,"lines":[11115],"attr":"cool","postal_code":"098-2502","address":"中川郡音威子府村字咲来","next":[1111530,1111531,1112203,1111535,1111534,1111532],"voronoi":{"lat":44.669982,"lng":142.343375,"delta_lat":[0,46839,18558,-32600,-9365,-25790],"delta_lng":[0,105377,-68831,-155859,-6197,80271]},"impl":true},
    {"code":1111532,"id":"85ab7b","name":"天塩川温泉","name_kana":"てしおがわおんせん","lat":44.665041,"lng":142.258682,"prefecture":1,"lines":[11115],"attr":"cool","postal_code":"098-2502","address":"中川郡音威子府村字咲来","next":[1111531,1111536,1111533,1111535],"voronoi":{"lat":44.611647,"lng":142.118731,"delta_lat":[0,-31306,87282,25790],"delta_lng":[0,-11762,191167,-80271]},"impl":true},
    {"code":1112202,"id":"c4dee8","name":"上音威子府","name_kana":"かみおといねっぷ","closed":true,"lat":44.774361,"lng":142.254389,"prefecture":1,"lines":[11122],"postal_code":"098-2500","address":"北海道中川郡音威子府村字上音威子府","open_date":"1914-11-07","closed_date":"1989-05-01","next":[1112205,1112206,1112203,1111534,1112204,1111535],"voronoi":{"lat":44.810027,"lng":142.192615,"delta_lat":[0,7335,1223,-6367,-52075,-11431],"delta_lng":[0,18135,34647,22292,56803,-93452]},"impl":false},
    {"code":1112203,"left":1111529,"right":1112204,"id":"50844f","name":"小頓別","name_kana":"しょうとんべつ","closed":true,"lat":44.82875,"lng":142.30425,"prefecture":1,"lines":[11122],"postal_code":"098-5102","address":"北海道枝幸郡中頓別町字小頓別","open_date":"1914-11-07","closed_date":"1989-05-01","next":[1112202,1111533,1111534,1111530,1112210,1010508,1011404,1112204,1010509],"voronoi":{"lat":44.882313,"lng":142.441511,"delta_lat":[0,28993,-6308,-92779,-52075,-24765,-18558,428,27725],"delta_lng":[0,-20837,-77597,-75389,56803,55429,68831,18933,29450]},"impl":false},
    {"code":1111529,"left":1111530,"id":"84db5f","name":"紋穂内","name_kana":"もんぽない","lat":44.538761,"lng":142.33357,"prefecture":1,"lines":[11115],"attr":"cool","postal_code":"098-2366","address":"中川郡美深町字紋穂内","next":[1011402,1111530,1112422,1011403,1111528],"voronoi":{"lat":44.561203,"lng":142.407245,"delta_lat":[0,55675,-100432,-4220,18115],"delta_lng":[0,33735,-248654,5024,183711]},"impl":true},
    {"code":1111530,"id":"10f875","name":"恩根内","name_kana":"おんねない","lat":44.598486,"lng":142.309447,"prefecture":1,"lines":[11115],"attr":"cool","postal_code":"098-2361","address":"中川郡美深町字恩根内","next":[1111533,1011403,1112203,1111529,1011404,1112422,1111531],"voronoi":{"lat":44.716821,"lng":142.448752,"delta_lat":[0,428,-91803,-8567,-100432,3320,150215],"delta_lng":[0,18933,-18062,-8642,-248654,-6511,157559]},"impl":true},
    {"code":1112204,"id":"095d7f","name":"上頓別","name_kana":"かみとんべつ","closed":true,"lat":44.851389,"lng":142.276389,"prefecture":1,"lines":[11122],"postal_code":"098-5111","address":"北海道枝幸郡中頓別町字上頓別","open_date":"1916-10-01","closed_date":"1989-05-01","next":[1112210,1112205,1112202,1112203],"voronoi":{"lat":44.812218,"lng":142.267688,"delta_lat":[0,6367,93394,-6982],"delta_lng":[0,-22292,44373,53308]},"impl":false},
    {"code":1112216,"left":1112217,"right":1112214,"id":"5152d2","name":"山軽","name_kana":"やまがる","closed":true,"lat":45.16025,"lng":142.305861,"prefecture":1,"lines":[11122],"postal_code":"098-5761","address":"北海道枝幸郡浜頓別町字山軽","open_date":"1919-11-01","closed_date":"1989-05-01","next":[1112214,1010502,1112221,1112217,1112215],"voronoi":{"lat":45.447571,"lng":142.486433,"delta_lat":[0,-47719,-298595,16658,98425],"delta_lng":[0,-54030,-179418,64691,63439]},"impl":false},
    {"code":1112217,"left":1112212,"right":1112218,"id":"3a2df0","name":"安別","name_kana":"やすべつ","closed":true,"lat":45.175639,"lng":142.28025,"prefecture":1,"lines":[11122],"postal_code":"098-5764","address":"北海道枝幸郡浜頓別町字安別","open_date":"1956-11-19","closed_date":"1989-05-01","next":[1112218,1112213,1112216,1112214,1112221],"voronoi":{"lat":45.101256,"lng":142.252984,"delta_lat":[0,-1764,-10346,261362,49343],"delta_lng":[0,-3731,-38532,159180,62501]},"impl":false},
    {"code":1112212,"left":1112211,"id":"b0e32e","name":"新弥生","name_kana":"しんやよい","closed":true,"lat":45.019444,"lng":142.304361,"prefecture":1,"lines":[11122],"postal_code":"098-5553","address":"北海道枝幸郡中頓別町字弥生","open_date":"1959-11-01","closed_date":"1989-05-01","next":[1010504,1112211,1112213,1112209,1010505],"voronoi":{"lat":45.043832,"lng":142.216623,"delta_lat":[0,32842,-72052,-11465,-16608],"delta_lng":[0,-34883,216770,4374,4289]},"impl":false},
    {"code":1112211,"id":"109349","name":"寿(北海道)","original_name":"寿","name_kana":"ことぶき","closed":true,"lat":45.007722,"lng":142.300222,"prefecture":1,"lines":[11122],"postal_code":"098-5553","address":"北海道枝幸郡中頓別町字弥生８０","open_date":"1955-12-02","closed_date":"1989-05-01","next":[1112210,1112209,1112212,1010505],"voronoi":{"lat":44.97655,"lng":142.407173,"delta_lat":[0,67283,-44012,-35409],"delta_lng":[0,-190550,40772,153646]},"impl":false},
    {"code":1112218,"id":"e91b62","name":"飛行場前","name_kana":"ひこうじょうまえ","closed":true,"lat":45.190611,"lng":142.255667,"prefecture":1,"lines":[11122],"postal_code":"098-6102","address":"北海道宗谷郡猿払村浅茅野台地３４２−３０１","open_date":"1955-12-02","closed_date":"1989-05-01","next":[1112217,1112219,1112209,1112213,1112221],"voronoi":{"lat":45.346585,"lng":142.364105,"delta_lat":[0,-267626,-1977,12164,261362],"delta_lng":[0,-231668,48890,29395,159180]},"impl":false},
    {"code":1112214,"left":1112213,"right":1112215,"id":"fd206c","name":"常盤(北海道)","original_name":"常盤","name_kana":"ときわ","closed":true,"lat":45.075139,"lng":142.327778,"prefecture":1,"lines":[11122],"postal_code":"098-5752","address":"北海道枝幸郡浜頓別町字下頓別","open_date":"1955-12-02","closed_date":"1989-05-01","next":[1112216,1010502,1112215,1010503,1112213,1010504,1112217],"voronoi":{"lat":45.117915,"lng":142.317676,"delta_lat":[0,-36387,-16656,-40511,-585,75717,1764],"delta_lng":[0,54036,13126,9781,15,-145380,3731]},"impl":false},
    {"code":1112213,"id":"80638a","name":"下頓別","name_kana":"しもとんべつ","closed":true,"lat":45.049111,"lng":142.314222,"prefecture":1,"lines":[11122],"postal_code":"098-5752","address":"北海道枝幸郡浜頓別町字下頓別３３３−３９","open_date":"1918-08-25","closed_date":"1989-05-01","next":[1112209,1010504,1112212,1112214,1112217,1112218],"voronoi":{"lat":45.076982,"lng":142.181326,"delta_lat":[0,-308,-72052,19153,75717,-10346],"delta_lng":[0,414,216770,-3877,-145380,-38532]},"impl":false},
    {"code":1112215,"id":"db2e33","name":"浜頓別","name_kana":"はまとんべつ","closed":true,"lat":45.124639,"lng":142.361111,"prefecture":1,"lines":[11122,10105],"postal_code":"098-5705","address":"北海道枝幸郡浜頓別町中央南１１","open_date":"1918-08-25","closed_date":"1989-05-01","next":[1112214,1010502,1112216],"voronoi":{"lat":45.117915,"lng":142.317676,"delta_lat":[0,-36387,134812],"delta_lng":[0,54036,9403]},"impl":false}
  ]
}