{
  "name":"segment57",
  "root":9921323,
  "east":141.02465,
  "west":140.490448,
  "south":36.298547,
  "north":38.268816,
  "station_size":145,
  "node_list":[
    {"code":9921323,"left":1122808,"right":1123137,"id":"746650","name":"東船岡","name_kana":"ひがしふなおか","lat":38.050095,"lng":140.789824,"prefecture":4,"lines":[99213],"attr":"cool","postal_code":"989-1611","address":"柴田郡柴田町大字上名生字横橋","next":[9921322,1123136,1123027,1123026,1123135],"voronoi":{"lat":38.038001,"lng":140.771754,"delta_lat":[0,-11715,19678,206,27703],"delta_lng":[0,51125,2840,-55,-39210]}},
    {"code":1122808,"left":9931505,"right":9921313,"id":"22c542","name":"神俣","name_kana":"かんまた","lat":37.324186,"lng":140.659487,"prefecture":7,"lines":[11228],"attr":"heat","postal_code":"963-3602","address":"田村市滝根町神俣","next":[1122807,1123010,1122809,1122805,1123011,1122806],"voronoi":{"lat":37.356355,"lng":140.824314,"delta_lat":[0,1783,67573,-109625,-27005,2989],"delta_lng":[0,-223,-17728,-192270,56972,69330]}},
    {"code":9931505,"left":1133805,"right":1122925,"id":"9e76a8","name":"那珂湊","name_kana":"なかみなと","lat":36.345453,"lng":140.587716,"prefecture":8,"lines":[99315],"attr":"eco","postal_code":"311-1225","address":"ひたちなか市釈迦町２２-２","next":[9932304,9931504,9932303,9931510],"voronoi":{"lat":36.338453,"lng":140.574123,"delta_lat":[0,-8311,-26822,53894],"delta_lng":[0,1380,32253,-16300]}},
    {"code":1133805,"left":1122919,"right":1133810,"id":"dba81f","name":"下菅谷","name_kana":"しもすがや","lat":36.435394,"lng":140.494021,"prefecture":8,"lines":[11338],"attr":"eco","postal_code":"311-0105","address":"那珂市菅谷","next":[1133804,1133806,1122919],"voronoi":{"lat":36.437361,"lng":140.470013,"delta_lat":[0,-16296,22874],"delta_lng":[0,45965,2455]}},
    {"code":1122919,"left":9931508,"right":9931510,"id":"2417cf","name":"佐和","name_kana":"さわ","lat":36.430409,"lng":140.540477,"prefecture":8,"lines":[11229],"attr":"cool","postal_code":"312-0062","address":"ひたちなか市大字高場","next":[1133807,1122920,1133809,1133806,9931501,1133804,1133808,1122918,9931506,1133805,9931507],"voronoi":{"lat":36.404763,"lng":140.549441,"delta_lat":[0,14617,1686,22874,6486,8217,5178,213,-40747,-15495,-4818],"delta_lng":[0,-33241,-222,2455,2067,4291,5787,320,56190,-10094,-13994]}},
    {"code":9931508,"left":9931507,"right":1122918,"id":"f4131a","name":"工機前","name_kana":"こうきまえ","lat":36.388099,"lng":140.524542,"prefecture":8,"lines":[99315],"attr":"cool","postal_code":"312-0025","address":"ひたちなか市武田字大塚前１０９２-１５","next":[1122918,9931507,9932302,1133802],"voronoi":{"lat":36.390858,"lng":140.503953,"delta_lat":[0,292,-17003,5655],"delta_lng":[0,28966,-10248,-17471]}},
    {"code":9931507,"left":9932302,"id":"967047","name":"金上","name_kana":"かねあげ","lat":36.382319,"lng":140.534132,"prefecture":8,"lines":[99315],"attr":"eco","postal_code":"312-0023","address":"ひたちなか市大平４-３４３３","next":[9932302,9931508,9931506,1122918,1122919],"voronoi":{"lat":36.404763,"lng":140.549441,"delta_lat":[0,-13612,-17003,-15054,43880],"delta_lng":[0,-16523,-10248,17092,23238]}},
    {"code":9932302,"id":"23c75c","name":"東水戸","name_kana":"ひがしみと","lat":36.361746,"lng":140.516012,"prefecture":8,"lines":[99323],"attr":"eco","postal_code":"310-0827","address":"水戸市吉沼町","next":[1122917,9931507,9932305,9931506,1133802,9932303,9932304,9931508],"voronoi":{"lat":36.359094,"lng":140.539763,"delta_lat":[0,-2608,-33895,-9611,-3656,58141,12338,-5655],"delta_lng":[0,325,-16609,-9557,-30846,13576,8548,17471]}},
    {"code":1122918,"id":"7c1f97","name":"勝田","name_kana":"かつた","lat":36.394033,"lng":140.524482,"prefecture":8,"lines":[11229,99315],"attr":"cool","postal_code":"312-0045","address":"ひたちなか市勝田中央","next":[1133804,9931508,1133802,1133803,1122919,9931507],"voronoi":{"lat":36.391151,"lng":140.532918,"delta_lat":[0,-292,4483,11768,12270,-14617],"delta_lng":[0,-28966,-1172,2870,10550,33241]}},
    {"code":9931510,"left":9932304,"right":9931506,"id":"f12c45","name":"高田の鉄橋","name_kana":"たかだのてっきょう","lat":36.352556,"lng":140.580028,"prefecture":8,"lines":[99315],"attr":"eco","postal_code":"312-0000","address":"茨城県ひたちなか市横堰","open_date":"2014-10-01","next":[9931506,9931504,9931503,9931505,9932303,9931501],"voronoi":{"lat":36.363199,"lng":140.592326,"delta_lat":[0,-5985,-18761,15039,24860,-4129],"delta_lng":[0,-869,-17333,-8491,20750,3946]}},
    {"code":9932304,"left":9932303,"id":"60d597","name":"大洗","name_kana":"おおあらい","lat":36.315342,"lng":140.562675,"prefecture":8,"lines":[99323],"attr":"eco","postal_code":"311-1307","address":"東茨城郡大洗町桜道","next":[9931504,9931505,9932310,9932303,9932302,9932305],"voronoi":{"lat":36.31298,"lng":140.513921,"delta_lat":[0,9611,7551,-26822,-83986,-2298],"delta_lng":[0,9557,52025,32253,74678,-34623]}},
    {"code":9932303,"id":"0135f7","name":"常澄","name_kana":"つねずみ","lat":36.340683,"lng":140.558997,"prefecture":8,"lines":[99323],"attr":"eco","postal_code":"311-1114","address":"水戸市塩崎町","next":[9932304,9931505,9931510,9932302,9931506],"voronoi":{"lat":36.356485,"lng":140.540087,"delta_lat":[0,-33895,7551,8311,15039],"delta_lng":[0,-16609,52025,-1380,-8491]}},
    {"code":9931506,"id":"6d5e7f","name":"中根","name_kana":"なかね","lat":36.367488,"lng":140.562138,"prefecture":8,"lines":[99315],"attr":"eco","postal_code":"312-0021","address":"ひたちなか市三反田中丸４４５８","next":[9931510,9932302,9931507,9932303,1122919,9931501],"voronoi":{"lat":36.407791,"lng":140.576994,"delta_lat":[0,-4818,-43880,-2608,-2994,24860],"delta_lng":[0,-13994,-23238,325,25545,20750]}},
    {"code":1133810,"left":1133808,"right":1133811,"id":"f29851","name":"河合","name_kana":"かわい","lat":36.508241,"lng":140.517118,"prefecture":8,"lines":[11338],"attr":"eco","postal_code":"313-0046","address":"常陸太田市上河合町","next":[1133814,1122920,1133812,1133809,1133811],"voronoi":{"lat":36.533691,"lng":140.492327,"delta_lat":[0,6671,-26274,-32975,13953],"delta_lng":[0,-14393,4112,54418,12276]}},
    {"code":1133808,"left":1133807,"right":1133809,"id":"558ac8","name":"南酒出","name_kana":"みなみさかいで","lat":36.477361,"lng":140.498471,"prefecture":8,"lines":[11338],"attr":"eco","postal_code":"311-0132","address":"那珂市南酒出","next":[1133807,1122919,1133813,1133809],"voronoi":{"lat":36.494139,"lng":140.479892,"delta_lat":[0,-24666,-10830,5178],"delta_lng":[0,3934,40965,5787]}},
    {"code":1133807,"left":1133806,"id":"cacb9c","name":"上菅谷","name_kana":"かみすがや","lat":36.455378,"lng":140.492659,"prefecture":8,"lines":[11338],"attr":"eco","postal_code":"311-0105","address":"那珂市菅谷","next":[1122919,1133806,1133808,1133813],"voronoi":{"lat":36.450593,"lng":140.471065,"delta_lat":[0,-168,8217,10830],"delta_lng":[0,49435,4291,-40965]}},
    {"code":1133806,"id":"54af66","name":"中菅谷","name_kana":"なかすがや","lat":36.445662,"lng":140.492626,"prefecture":8,"lines":[11338],"attr":"eco","postal_code":"311-0105","address":"那珂市菅谷","next":[1122919,1133813,1133807,1133805,1133804],"voronoi":{"lat":36.443939,"lng":140.518433,"delta_lat":[0,6486,168,-11801,-1431],"delta_lng":[0,2067,-49435,-12542,11490]}},
    {"code":1133809,"id":"82b36d","name":"額田(茨城)","original_name":"額田","name_kana":"ぬかだ","lat":36.485705,"lng":140.503462,"prefecture":8,"lines":[11338],"attr":"eco","postal_code":"311-0100","address":"那珂市額田南郷","next":[1122920,1133813,1122919,1133810,1133808,1133814],"voronoi":{"lat":36.498154,"lng":140.47841,"delta_lat":[0,-4016,-30318,213,17079,32975],"delta_lng":[0,1482,50686,320,5566,-54418]}},
    {"code":1133811,"left":1122920,"right":1133812,"id":"80122e","name":"谷河原","name_kana":"やがわら","lat":36.519782,"lng":140.52502,"prefecture":8,"lines":[11338],"attr":"eco","postal_code":"313-0042","address":"常陸太田市磯部町","next":[1122920,1133812,1133810,1122921],"voronoi":{"lat":36.533691,"lng":140.492327,"delta_lat":[0,-38625,17381,2084],"delta_lng":[0,56413,23167,149]}},
    {"code":1122920,"id":"de7b96","name":"東海","name_kana":"とうかい","lat":36.465378,"lng":140.565835,"prefecture":8,"lines":[11229],"attr":"cool","postal_code":"319-1111","address":"那珂郡東海村大字舟石川","next":[1133809,1122919,1122921,9931501,1133811,1133810],"voronoi":{"lat":36.512446,"lng":140.571908,"delta_lat":[0,-64894,-24266,40747,17079,13953],"delta_lng":[0,57798,-42617,-56190,5566,12276]}},
    {"code":1133812,"id":"b10785","name":"常陸太田","name_kana":"ひたちおおた","lat":36.531225,"lng":140.52777,"prefecture":8,"lines":[11338],"attr":"eco","postal_code":"313-0013","address":"常陸太田市山下町","next":[1133814,1122923,1133819,1133816,1122921,1122924,1133815,1122922,1133810,1133811],"voronoi":{"lat":36.548677,"lng":140.578832,"delta_lat":[0,88271,8776,29481,-78770,-40499,-8214,-7361,-6671,-19160],"delta_lng":[0,-17602,-3872,-21049,-58132,-5733,2309,3182,14393,79729]}},
    {"code":1122925,"left":1122921,"right":1122928,"id":"ea3e19","name":"十王","name_kana":"じゅうおう","lat":36.671385,"lng":140.68623,"prefecture":8,"lines":[11229],"attr":"heat","postal_code":"319-1304","address":"日立市十王町友部","next":[1133822,1133828,1133824,1122927,1122926,1122924],"voronoi":{"lat":36.699015,"lng":140.537602,"delta_lat":[0,44466,14624,27987,-5081,-170829],"delta_lng":[0,3574,3974,21171,9749,243758]}},
    {"code":1122921,"left":9931502,"right":1122923,"id":"fdb18c","name":"大甕","name_kana":"おおみか","lat":36.513052,"lng":140.619362,"prefecture":8,"lines":[11229],"attr":"cool","postal_code":"319-1221","address":"日立市大みか町２","next":[1122923,9931501,1133812,1122920,9931502,1122922,1133811],"voronoi":{"lat":36.548677,"lng":140.578832,"delta_lat":[0,-60362,-45203,1651,2789,64894,2084],"delta_lng":[0,177158,82234,-156318,-52200,-57798,149]}},
    {"code":9931502,"left":9931503,"right":9931501,"id":"937073","name":"磯崎","name_kana":"いそざき","lat":36.37781,"lng":140.617934,"prefecture":8,"lines":[99315],"attr":"heat","postal_code":"311-1202","address":"ひたちなか市磯崎町西ノ三３８４７-４","next":[9932312,9932313,1132907,1122923,9931501,1122921,9932314,9933505,9933506,9931503],"voronoi":{"lat":36.205496,"lng":140.968025,"delta_lat":[0,185,805,4112,101202,4386,126926,1651,-73385,-164896],"delta_lng":[0,69942,40029,87379,275019,11818,-613988,-156318,-76390,322565]}},
    {"code":9931503,"left":9931504,"id":"302829","name":"平磯","name_kana":"ひらいそ","lat":36.357546,"lng":140.607575,"prefecture":8,"lines":[99315],"attr":"heat","postal_code":"312-0000","address":"ひたちなか市平磯町字根本の上２６５-７","next":[9931501,9931504,9931510,9932311,9932312,9931502],"voronoi":{"lat":36.206094,"lng":140.875721,"delta_lat":[0,3554,153551,11024,-2844,-164896],"delta_lng":[0,-92900,-190495,-1997,15187,322565]}},
    {"code":9931504,"id":"b05cae","name":"殿山","name_kana":"とのやま","lat":36.349497,"lng":140.601087,"prefecture":8,"lines":[99315],"attr":"eco","postal_code":"311-1213","address":"ひたちなか市牛久保２-１０３-２","next":[9932310,9932304,9931503,9931510,9931505,9932311],"voronoi":{"lat":36.363199,"lng":140.592326,"delta_lat":[0,-5985,-53894,-83986,-9580,-106],"delta_lng":[0,-869,16300,74678,93635,6751]}},
    {"code":9931501,"id":"fa4efc","name":"阿字ヶ浦","name_kana":"あじがうら","lat":36.383529,"lng":140.61244,"prefecture":8,"lines":[99315],"attr":"heat","postal_code":"311-1201","address":"茨城県ひたちなか市阿字ヶ浦町","next":[9931503,1122921,9931502,1122919,1122920,9931506,9931510],"voronoi":{"lat":36.371379,"lng":140.605516,"delta_lat":[0,73385,2789,-24266,-15495,-29440,-4129],"delta_lng":[0,76390,-52200,-42617,-10094,9388,3946]}},
    {"code":1122923,"left":1122922,"right":1122924,"id":"eb7f84","name":"日立","name_kana":"ひたち","lat":36.590408,"lng":140.661883,"prefecture":8,"lines":[11229],"attr":"cool","postal_code":"317-0073","address":"日立市幸町１","next":[1122926,1122921,1133812,9931502,1122922,1122924,9933506],"voronoi":{"lat":36.316187,"lng":141.452212,"delta_lat":[0,126926,45203,148633,8776,-125350,-204049],"delta_lng":[0,-613988,-82234,-194760,-3872,432216,463245]}},
    {"code":1122922,"id":"801c57","name":"常陸多賀","name_kana":"ひたちたが","lat":36.552145,"lng":140.632682,"prefecture":8,"lines":[11229],"attr":"cool","postal_code":"316-0003","address":"日立市多賀町１","next":[1122923,1133812,1122921],"voronoi":{"lat":36.548677,"lng":140.578832,"delta_lat":[0,88271,-148633],"delta_lng":[0,-17602,194760]}},
    {"code":1122924,"id":"8ec400","name":"小木津","name_kana":"おぎつ","lat":36.636533,"lng":140.67526,"prefecture":8,"lines":[11229],"attr":"cool","postal_code":"319-1414","address":"日立市日高町１","next":[1122926,1133822,1133812,1133819,1122923,1122925],"voronoi":{"lat":36.520375,"lng":140.989573,"delta_lat":[0,125350,29481,14400,9409,-88833],"delta_lng":[0,-432216,-21049,-628,1921,282226]}},
    {"code":1122928,"left":1122806,"right":1122930,"id":"ff59f8","name":"磯原","name_kana":"いそはら","lat":36.790684,"lng":140.746366,"prefecture":8,"lines":[11229],"attr":"heat","postal_code":"319-1541","address":"北茨城市磯原町磯原","next":[1122926,1122927,1133828,1122930,1122929],"voronoi":{"lat":36.902741,"lng":140.614454,"delta_lat":[0,4600,-65301,-204892,-65202],"delta_lng":[0,-10678,-16086,439410,166662]}},
    {"code":1122806,"left":1122927,"right":1122807,"id":"518cf2","name":"夏井","name_kana":"なつい","lat":37.253108,"lng":140.662552,"prefecture":7,"lines":[11228],"attr":"heat","postal_code":"963-3312","address":"田村郡小野町大字夏井字町屋","next":[1122807,1133837,1122805,1122808],"voronoi":{"lat":37.068444,"lng":140.619344,"delta_lat":[0,101607,119030,2989],"delta_lng":[0,-52282,104004,69330]}},
    {"code":1122927,"left":1122926,"id":"c469cb","name":"南中郷","name_kana":"みなみなかごう","lat":36.753501,"lng":140.729028,"prefecture":8,"lines":[11229],"attr":"heat","postal_code":"319-1555","address":"北茨城市中郷町小野矢指","next":[1122925,1122928,1122926,1133828],"voronoi":{"lat":36.786092,"lng":140.566321,"delta_lat":[0,-5081,-143863,204892],"delta_lng":[0,9749,451030,-439410]}},
    {"code":1122926,"id":"f6eaa1","name":"高萩","name_kana":"たかはぎ","lat":36.714873,"lng":140.716707,"prefecture":8,"lines":[11229],"attr":"heat","postal_code":"318-0034","address":"高萩市大字高萩","next":[1122923,1122924,1122932,1122928,1122929,9933506,1122927,1122925,9933507],"voronoi":{"lat":36.435946,"lng":141.484895,"delta_lat":[0,135999,65202,143863,-170829,-89807,-204049,5637,22602],"delta_lng":[0,-291133,-166662,-451030,243758,169746,463245,38874,153285]}},
    {"code":1122807,"id":"205b19","name":"小野新町","name_kana":"おのにいまち","lat":37.275819,"lng":140.63656,"prefecture":7,"lines":[11228],"attr":"heat","postal_code":"963-3402","address":"田村郡小野町大字谷津作字平館","next":[1133837,1133842,1122808,1122806,1133838,1122809,1133843],"voronoi":{"lat":37.299643,"lng":140.534738,"delta_lat":[0,-72148,-4693,-52752,119030,27005,7597],"delta_lng":[0,-6894,2190,37028,104004,-56972,-74921]}},
    {"code":1122930,"left":1122929,"right":1122805,"id":"b77dcb","name":"勿来","name_kana":"なこそ","lat":36.883883,"lng":140.786506,"prefecture":7,"lines":[11229],"attr":"eco","postal_code":"979-0146","address":"いわき市勿来町関田寺下","next":[1122929,1133830,1133828,1122928,1133831,1122932,1122931],"voronoi":{"lat":36.952648,"lng":140.605544,"delta_lat":[0,-9597,-12817,-22894,-4600,-66170,47686],"delta_lng":[0,-1915,-713,859,10678,294078,-50578]}},
    {"code":1122929,"id":"fe8574","name":"大津港","name_kana":"おおつこう","lat":36.846085,"lng":140.778001,"prefecture":8,"lines":[11229],"attr":"heat","postal_code":"319-1704","address":"北茨城市大津町北町","next":[1122932,1122930,1122926,1122928],"voronoi":{"lat":36.902741,"lng":140.614454,"delta_lat":[0,-66170,-400624,135999],"delta_lng":[0,294078,576363,-291133]}},
    {"code":1122805,"id":"73fcc4","name":"川前","name_kana":"かわまえ","lat":37.20559,"lng":140.750335,"prefecture":7,"lines":[11228],"attr":"heat","postal_code":"979-3201","address":"いわき市川前町大字川前字中の萱","next":[1122933,1122931,1122802,1123010,1122808,1122806,1122934,1133837,1122804],"voronoi":{"lat":37.356355,"lng":140.824314,"delta_lat":[0,-64285,-223626,-29262,9735,1455,36415,5514,243658],"delta_lng":[0,-83919,-121052,6204,60131,2903,59037,5942,84273]}},
    {"code":9921313,"left":9921309,"right":9921320,"id":"b020f3","name":"やながわ希望の森公園前","name_kana":"やながわきぼうのもりこうえんまえ","lat":37.857867,"lng":140.615552,"prefecture":7,"lines":[99213],"attr":"heat","postal_code":"960-0726","address":"伊達市梁川町北町頭","next":[9921312,1123129,1123020,9921314,9921316,1123019],"voronoi":{"lat":37.751781,"lng":140.756629,"delta_lat":[0,45047,85948,-7728,-161559,32153],"delta_lng":[0,-35658,-123061,-11283,158649,10256]}},
    {"code":9921309,"left":9921307,"right":9921310,"id":"bf9129","name":"大泉(福島)","original_name":"大泉","name_kana":"おおいずみ","lat":37.819966,"lng":140.566805,"prefecture":7,"lines":[99213],"attr":"cool","postal_code":"960-0634","address":"伊達市保原町大泉字大地内","next":[9921308,9921310,1123127,1123121,1123128],"voronoi":{"lat":37.84775,"lng":140.549414,"delta_lat":[0,-2971,-160439,-17402,184665],"delta_lng":[0,-2128,84312,35094,-108873]}},
    {"code":9921307,"left":9921305,"right":1122812,"id":"5c1fbb","name":"上保原","name_kana":"かみほばら","lat":37.809628,"lng":140.542749,"prefecture":7,"lines":[99213],"attr":"cool","postal_code":"960-0684","address":"伊達市保原町上保原字下当築","next":[1123123,9921306,9921308,1123121,1123127],"voronoi":{"lat":37.834244,"lng":140.533384,"delta_lat":[0,-109609,-5092,-15958,134516],"delta_lng":[0,7695,5050,42626,-48399]}},
    {"code":9921305,"left":1122813,"right":9921306,"id":"0a35c4","name":"向瀬上","name_kana":"むかいせのうえ","lat":37.806683,"lng":140.510532,"prefecture":7,"lines":[99213],"attr":"cool","postal_code":"960-0101","address":"福島市瀬上町字瀬上","next":[9921304,9921306,1123126],"voronoi":{"lat":37.814321,"lng":140.500917,"delta_lat":[0,-69376,85068],"delta_lng":[0,25040,-9387]}},
    {"code":1122813,"left":9921304,"id":"e181d4","name":"要田","name_kana":"かなめた","lat":37.453969,"lng":140.520773,"prefecture":7,"lines":[11228],"attr":"eco","postal_code":"963-4323","address":"田村市船引町要田","next":[1133843,1122812,1123120,1122815,1122814,1123119],"voronoi":{"lat":37.530665,"lng":140.492189,"delta_lat":[0,-166166,-2224,-11449,208774,-25018],"delta_lng":[0,16529,967,17909,42927,-72109]}},
    {"code":9921304,"id":"cc5b85","name":"瀬上","name_kana":"せのうえ","lat":37.802303,"lng":140.498397,"prefecture":7,"lines":[99213],"attr":"cool","postal_code":"960-0101","address":"福島市瀬上町字桜町","next":[9921305,9921306,9921303,1123126,100409],"voronoi":{"lat":37.752683,"lng":140.510809,"delta_lat":[0,58999,2640,-69376,-5361],"delta_lng":[0,-20987,11096,25040,1151]}},
    {"code":9921306,"id":"027d46","name":"高子","name_kana":"たかこ","lat":37.808561,"lng":140.52755,"prefecture":7,"lines":[99213],"attr":"cool","postal_code":"960-0684","address":"伊達市保原町上保原字向台","next":[1123127,1123123,9921307,9921304,9921305,1123126,100409],"voronoi":{"lat":37.739585,"lng":140.527108,"delta_lat":[0,5361,85068,680,3550,-109609,5131],"delta_lng":[0,-1151,-9387,304,16509,7695,-6094]}},
    {"code":1122812,"left":1122811,"right":9921308,"id":"f8a23f","name":"船引","name_kana":"ふねひき","lat":37.44291,"lng":140.574558,"prefecture":7,"lines":[11228],"attr":"cool","postal_code":"963-4312","address":"田村市船引町船引","next":[1123120,1122813,1123019,1123017,1133843,1122811,1123121],"voronoi":{"lat":37.628042,"lng":140.729773,"delta_lat":[0,-1148,-278719,2652,208774,18806,53951],"delta_lng":[0,565,-200354,-2389,42927,29257,126241]}},
    {"code":1122811,"id":"bfc388","name":"磐城常葉","name_kana":"いわきときわ","lat":37.420611,"lng":140.605579,"prefecture":7,"lines":[11228],"attr":"cool","postal_code":"963-4311","address":"田村市船引町今泉字田中","next":[1123014,1133843,1122810,1122812,1123017],"voronoi":{"lat":37.524306,"lng":140.780796,"delta_lat":[0,-182918,6786,278719,-68569],"delta_lng":[0,-246655,-4158,200354,40755]}},
    {"code":9921308,"id":"e16bdf","name":"保原","name_kana":"ほばら","lat":37.81463,"lng":140.556651,"prefecture":7,"lines":[99213],"attr":"cool","postal_code":"960-0671","address":"伊達市保原町東野崎","next":[9921309,1123127,1123121,9921307],"voronoi":{"lat":37.8381,"lng":140.540355,"delta_lat":[0,6678,-160439,19245],"delta_lng":[0,6931,84312,-42844]}},
    {"code":9921310,"left":1123128,"right":9921312,"id":"803f55","name":"二井田","name_kana":"にいだ","lat":37.828424,"lng":140.581151,"prefecture":7,"lines":[99213],"attr":"eco","postal_code":"960-0633","address":"伊達市保原町二井田字前原","next":[1123128,9921309,9921311,1123121,1123019],"voronoi":{"lat":37.634316,"lng":140.725574,"delta_lat":[0,32621,184665,7283,-206152],"delta_lng":[0,-58882,-108873,8902,162622]}},
    {"code":1123128,"left":1123127,"right":1123129,"id":"3b6758","name":"藤田","name_kana":"ふじた","lat":37.879062,"lng":140.539722,"prefecture":7,"lines":[11231],"attr":"eco","postal_code":"969-1771","address":"伊達郡国見町大字山崎字北町田","next":[9921310,1121616,9921512,1123129,9921309,1121615,1123127,9921311,1123131,9921312],"voronoi":{"lat":38.017769,"lng":140.47282,"delta_lat":[0,23701,-15161,-13355,-68278,-96927,3853,7283,11573,857],"delta_lng":[0,-34141,-18339,-13976,39185,103865,8405,8902,8974,448]}},
    {"code":1123127,"left":1123126,"id":"152ac7","name":"桑折","name_kana":"こおり","lat":37.855258,"lng":140.517508,"prefecture":7,"lines":[11231],"attr":"eco","postal_code":"969-1641","address":"伊達郡桑折町大字南半田字六角","next":[9921512,9921309,9921308,9921306,1123126,9921307,1123128],"voronoi":{"lat":37.944677,"lng":140.44555,"delta_lat":[0,-84944,-29039,3550,3857,6678,2971],"delta_lng":[0,33800,37525,16509,6972,6931,2128]}},
    {"code":1123126,"id":"7e17ff","name":"伊達","name_kana":"だて","lat":37.823917,"lng":140.493255,"prefecture":7,"lines":[11231],"attr":"eco","postal_code":"960-0478","address":"伊達市細谷","next":[9921303,1123127,9921512,9921306,9921304,1123125,9921305],"voronoi":{"lat":37.830694,"lng":140.516875,"delta_lat":[0,29039,-39279,-8009,-763,2640,15692],"delta_lng":[0,-37525,-6467,12369,4570,11096,15653]}},
    {"code":1123129,"id":"ac5ca9","name":"貝田","name_kana":"かいだ","lat":37.908226,"lng":140.58106,"prefecture":7,"lines":[11231],"attr":"eco","postal_code":"969-1711","address":"伊達郡国見町大字貝田字竹ノ根","next":[9921312,1123131,9921313,1123130,1123128,9921314],"voronoi":{"lat":38.002868,"lng":140.504323,"delta_lat":[0,14901,-146454,3732,7728,20033],"delta_lng":[0,-31503,103323,10484,11283,14465]}},
    {"code":9921312,"left":9921311,"right":1123130,"id":"7da863","name":"梁川(福島)","original_name":"梁川","name_kana":"やながわ","lat":37.845815,"lng":140.603279,"prefecture":7,"lines":[99213],"attr":"eco","postal_code":"960-0773","address":"伊達市梁川町五反田","next":[9921311,1123129,9921313,1123019,1123128],"voronoi":{"lat":37.870458,"lng":140.575696,"delta_lat":[0,-201342,44372,161559,-3732],"delta_lng":[0,157565,12016,-158649,-10484]}},
    {"code":9921311,"id":"9a6f0e","name":"新田(福島)","original_name":"新田","name_kana":"にった","lat":37.83776,"lng":140.592986,"prefecture":7,"lines":[99213],"attr":"eco","postal_code":"960-0767","address":"伊達市梁川町新田字台","next":[9921312,9921310,1123128,1123019],"voronoi":{"lat":37.652734,"lng":140.729344,"delta_lat":[0,206152,11573,-201342],"delta_lng":[0,-162622,8974,157565]}},
    {"code":1123130,"id":"fc3470","name":"越河","name_kana":"こすごう","lat":37.933616,"lng":140.604572,"prefecture":4,"lines":[11231],"attr":"cool","postal_code":"989-0111","address":"白石市越河五賀字海道下","next":[9921315,9921316,1123131,1123129,9921314,100410],"voronoi":{"lat":37.973654,"lng":140.598987,"delta_lat":[0,29215,-100060,1485,36397,8786],"delta_lng":[0,-94664,108052,3831,33224,2183]}},
    {"code":9921320,"left":9921316,"right":1123134,"id":"3ff903","name":"角田","name_kana":"かくだ","lat":37.979282,"lng":140.772388,"prefecture":4,"lines":[99213],"attr":"eco","postal_code":"981-1505","address":"角田市角田字流","next":[9921321,1123024,9921319,1123133],"voronoi":{"lat":37.976403,"lng":140.831079,"delta_lat":[0,-15715,21958,15219],"delta_lng":[0,-1726,-112425,10173]}},
    {"code":9921316,"left":9921314,"right":9921318,"id":"ef1984","name":"あぶくま","name_kana":"あぶくま","lat":37.913443,"lng":140.68576,"prefecture":4,"lines":[99213],"attr":"heat","postal_code":"981-2185","address":"伊具郡丸森町字滝の上","next":[100410,1123130,9921314,1123133,9921315,9921317,9921313,1123020,9921319],"voronoi":{"lat":37.759992,"lng":140.760428,"delta_lat":[0,-8212,45047,26659,117204,8786,23599,-1106,-12471],"delta_lng":[0,-3798,-35658,-17649,-53892,2183,36703,19218,7655]}},
    {"code":9921314,"left":1122809,"right":9921315,"id":"7d64f5","name":"富野","name_kana":"とみの","lat":37.874788,"lng":140.62737,"prefecture":7,"lines":[99213],"attr":"heat","postal_code":"960-0704","address":"伊達市梁川町舟生字原田","next":[1123130,9921316,1123129,9921315,9921313],"voronoi":{"lat":37.882776,"lng":140.597911,"delta_lat":[0,20033,1485,-80807,-26659],"delta_lng":[0,14465,3831,87116,17649]}},
    {"code":1122809,"left":1122810,"id":"81da08","name":"菅谷","name_kana":"すがや","lat":37.351024,"lng":140.644185,"prefecture":7,"lines":[11228],"attr":"cool","postal_code":"963-3601","address":"田村市滝根町菅谷","next":[1122810,1123011,1122808,1133843,1122807],"voronoi":{"lat":37.323682,"lng":140.539172,"delta_lat":[0,7586,100994,-6552,-109625],"delta_lng":[0,-1328,267394,1125,-192270]}},
    {"code":1122810,"id":"5cf5d4","name":"大越","name_kana":"おおごえ","lat":37.386746,"lng":140.630693,"prefecture":7,"lines":[11228],"attr":"cool","postal_code":"963-4111","address":"田村市大越町上大越","next":[1122809,1122811,1123011,1123014,1133843,1123013],"voronoi":{"lat":37.483505,"lng":140.797169,"delta_lat":[0,40802,-182918,-10120,100994,30426],"delta_lng":[0,-16373,-246655,3703,267394,-1947]}},
    {"code":9921315,"id":"e387b5","name":"兜","name_kana":"かぶと","lat":37.895375,"lng":140.646466,"prefecture":7,"lines":[99213],"attr":"heat","postal_code":"960-0704","address":"伊達市梁川町舟生字桂野山","next":[1123130,9921316,9921314],"voronoi":{"lat":37.904293,"lng":140.616206,"delta_lat":[0,36397,-117204],"delta_lng":[0,33224,53892]}},
    {"code":9921318,"left":9921317,"right":9921319,"id":"cc27c0","name":"北丸森","name_kana":"きたまるもり","lat":37.943103,"lng":140.771832,"prefecture":4,"lines":[99213],"attr":"heat","postal_code":"981-2106","address":"伊具郡丸森町木沼","next":[1123024,1123023,9921319,9921317],"voronoi":{"lat":37.951716,"lng":140.74863,"delta_lat":[0,8350,-31478,-43124],"delta_lng":[0,80731,6279,-6271]}},
    {"code":9921317,"id":"c4e4e1","name":"丸森","name_kana":"まるもり","lat":37.930641,"lng":140.761606,"prefecture":4,"lines":[99213],"attr":"heat","postal_code":"981-2103","address":"伊具郡丸森町舘矢間字山田土手下","next":[9921319,1123020,1123021,9921316,9921318,1123023],"voronoi":{"lat":37.858354,"lng":140.828141,"delta_lat":[0,-37831,-60530,199506,-7783,-66252],"delta_lng":[0,-20432,-47281,-45238,33440,80739]}},
    {"code":9921319,"id":"d880ec","name":"南角田","name_kana":"みなみかくだ","lat":37.964895,"lng":140.769578,"prefecture":4,"lines":[99213],"attr":"heat","postal_code":"981-1500","address":"角田市摺鉢","next":[9921317,1123133,1123024,9921318,9921320,9921316],"voronoi":{"lat":37.951716,"lng":140.74863,"delta_lat":[0,8350,623,21958,-10677,-12471],"delta_lng":[0,80731,-8,-112425,-9393,7655]}},
    {"code":1123134,"left":1123133,"right":9921322,"id":"4621db","name":"大河原(宮城)","original_name":"大河原","name_kana":"おおがわら","lat":38.047491,"lng":140.740142,"prefecture":4,"lines":[11231],"attr":"cool","postal_code":"989-1201","address":"柴田郡大河原町大谷字向","next":[1123133,9921321,1123135,1121709,9921322],"voronoi":{"lat":38.160518,"lng":140.707295,"delta_lat":[0,-4467,-154825,15615,17431],"delta_lng":[0,-27244,48484,21959,11554]}},
    {"code":1123133,"left":100410,"right":1123132,"id":"561176","name":"北白川","name_kana":"きたしらかわ","lat":38.032607,"lng":140.692613,"prefecture":4,"lines":[11231],"attr":"cool","postal_code":"989-1102","address":"白石市白川津田字下谷地","next":[9921319,1123134,9921316,1123132,1121709,9921320,9921321,100410],"voronoi":{"lat":37.97197,"lng":140.707534,"delta_lat":[0,10677,15219,3361,154825,53,-153763,-29266],"delta_lng":[0,9393,10173,1434,-48484,-1328,-8624,18218]}},
    {"code":100410,"left":1123131,"id":"4f14a1","name":"白石蔵王","name_kana":"しろいしざおう","lat":37.995499,"lng":140.633002,"prefecture":4,"lines":[1004],"attr":"eco","postal_code":"989-0213","address":"宮城県白石市大鷹沢三沢桜田１１−１","next":[1123131,9921316,1123132,1123130,1123133],"voronoi":{"lat":37.949477,"lng":140.651613,"delta_lat":[0,24177,39761,-11073,-29266],"delta_lng":[0,-52626,46994,24117,18218]}},
    {"code":1123131,"id":"ea23eb","name":"白石(宮城)","original_name":"白石","name_kana":"しろいし","lat":38.003581,"lng":140.626164,"prefecture":4,"lines":[11231],"attr":"cool","postal_code":"989-0243","address":"白石市字沢目","next":[100410,1123129,1123130,1121716,1123132,1121616,1123128],"voronoi":{"lat":38.002868,"lng":140.504323,"delta_lat":[0,-29215,39761,120596,-7739,-84801,-23701],"delta_lng":[0,94664,46994,-151581,-12372,-43349,34141]}},
    {"code":1123132,"id":"296dc2","name":"東白石","name_kana":"ひがししろいし","lat":38.034935,"lng":140.651109,"prefecture":4,"lines":[11231],"attr":"cool","postal_code":"989-1104","address":"白石市白川内親字阿久土","next":[1121714,1121712,100410,1121716,1123131,1123133,1121709,1121715],"voronoi":{"lat":38.172342,"lng":140.581195,"delta_lat":[0,1026,-17264,-153763,11073,120596,25615,3418],"delta_lng":[0,15568,81960,-8624,-24117,-151581,32517,6618]}},
    {"code":9921322,"left":9921321,"right":1123135,"id":"1b78c3","name":"岡","name_kana":"おか","lat":38.019246,"lng":140.782755,"prefecture":4,"lines":[99213],"attr":"eco","postal_code":"981-1524","address":"角田市岡字白岩","next":[9921323,1123026,9921321,1123135,1123134],"voronoi":{"lat":38.038001,"lng":140.771754,"delta_lat":[0,-11715,-33954,24509,17431],"delta_lng":[0,51125,8873,-81258,11554]}},
    {"code":9921321,"id":"32f29e","name":"横倉(宮城)","original_name":"横倉","name_kana":"よこくら","lat":37.996999,"lng":140.776045,"prefecture":4,"lines":[99213],"attr":"eco","postal_code":"981-1512","address":"角田市横倉字宮下","next":[9921320,1123134,1123024,1123025,1123026,9921322,1123133],"voronoi":{"lat":37.997866,"lng":140.7271,"delta_lat":[0,-21462,9631,2695,3603,24509,-15615],"delta_lng":[0,103978,2603,-122,-1808,-81258,-21959]}},
    {"code":1123135,"id":"30a715","name":"船岡(宮城)","original_name":"船岡","name_kana":"ふなおか","lat":38.059298,"lng":140.767366,"prefecture":4,"lines":[11231],"attr":"cool","postal_code":"989-1606","address":"柴田郡柴田町船岡中央１丁目","next":[1123134,9921322,1121708,9921323,1121709,1123136],"voronoi":{"lat":38.165444,"lng":140.744903,"delta_lat":[0,-635,-4290,-126246,3729,35872],"delta_lng":[0,-23172,-14436,54753,9706,14700]}},
    {"code":1123137,"left":1123002,"right":1123140,"id":"688b2f","name":"岩沼","name_kana":"いわぬま","lat":38.11205,"lng":140.863783,"prefecture":4,"lines":[11231,11230],"attr":"cool","postal_code":"989-2441","address":"岩沼市館下１丁目","next":[9921801,1123027,9921704,1123136,1123139,1123138],"voronoi":{"lat":38.078557,"lng":140.914164,"delta_lat":[0,15701,73562,13,-3084,-52722],"delta_lng":[0,-76600,-45690,86,9912,99304]}},
    {"code":1123002,"left":1123020,"right":1123010,"id":"56255d","name":"草野(福島)","original_name":"草野","name_kana":"くさの","lat":37.073863,"lng":140.947243,"prefecture":7,"lines":[11230],"attr":"cool","postal_code":"970-0112","address":"いわき市平泉崎","next":[1123003,1122802,1122801,1122932,1122803],"voronoi":{"lat":36.718967,"lng":141.27631,"delta_lat":[0,261623,123324,3327,26328],"delta_lng":[0,-332265,-35047,278,16339]}},
    {"code":1123020,"left":1122934,"right":1123025,"id":"9d2470","name":"相馬","name_kana":"そうま","lat":37.802455,"lng":140.925713,"prefecture":7,"lines":[11230],"attr":"heat","postal_code":"976-0042","address":"相馬市中村字曲田","next":[9921313,1123019,9921317,1123021,1123018,9921316],"voronoi":{"lat":37.820522,"lng":140.807708,"delta_lat":[0,4854,-19803,-59932,6139,8212],"delta_lng":[0,303576,-44487,-311265,1097,3798]}},
    {"code":1122934,"left":1122933,"right":1122803,"id":"e7c171","name":"内郷","name_kana":"うちごう","lat":37.035895,"lng":140.855005,"prefecture":7,"lines":[11229],"attr":"heat","postal_code":"973-8403","address":"いわき市内郷綴町榎下","next":[1122801,1122802,1122805,1122933],"voronoi":{"lat":37.050371,"lng":140.688582,"delta_lat":[0,36415,-30390,-42220],"delta_lng":[0,59037,120427,25315]}},
    {"code":1122933,"left":1122932,"right":1122804,"id":"51da2a","name":"湯本","name_kana":"ゆもと","lat":37.006922,"lng":140.849884,"prefecture":7,"lines":[11229],"attr":"heat","postal_code":"972-8321","address":"いわき市常磐湯本町天王崎","next":[1122931,1122805,1122934,1122932,1122801],"voronoi":{"lat":37.014177,"lng":140.893361,"delta_lat":[0,36195,-1455,-71814,10260],"delta_lng":[0,-204779,-2903,115989,124156]}},
    {"code":1122932,"left":1122931,"id":"28f062","name":"泉(JR)","original_name":"泉","name_kana":"いずみ","lat":36.955602,"lng":140.854125,"prefecture":7,"lines":[11229],"attr":"eco","postal_code":"971-8182","address":"福島県いわき市泉町滝尻上谷地30","next":[1123003,1122929,9933507,1122926,1122801,1122933,1123002,1122931,1122930],"voronoi":{"lat":36.884257,"lng":140.857953,"delta_lat":[0,92846,10260,-6773,-261623,-373936,-466,91382,400624],"delta_lng":[0,-56286,124156,18222,332265,432789,-64122,-160083,-576363]}},
    {"code":1122931,"id":"72edbb","name":"植田(福島)","original_name":"植田","name_kana":"うえだ","lat":36.920649,"lng":140.796468,"prefecture":7,"lines":[11229],"attr":"eco","postal_code":"974-8261","address":"いわき市植田町金畑","next":[1133835,1122933,1122805,1133837,1122932,1133831,1122930],"voronoi":{"lat":36.952648,"lng":140.605544,"delta_lat":[0,62820,4818,18895,9735,-71814,-92846],"delta_lng":[0,6205,2006,11792,60131,115989,56286]}},
    {"code":1122804,"id":"193ff6","name":"江田(福島)","original_name":"江田","name_kana":"えだ","lat":37.179389,"lng":140.82609,"prefecture":7,"lines":[11228],"attr":"heat","postal_code":"979-3124","address":"いわき市小川町上小川字江田","next":[1122803,1123010,1122805,1123007,1123008,1123006,1122802],"voronoi":{"lat":37.199299,"lng":140.911718,"delta_lat":[0,43173,29311,35737,28439,-243658,2625],"delta_lng":[0,-8046,-13042,-20848,-31948,-84273,6449]}},
    {"code":1122803,"left":1122801,"right":1123019,"id":"3af310","name":"小川郷","name_kana":"おがわごう","lat":37.126446,"lng":140.862514,"prefecture":7,"lines":[11228],"attr":"heat","postal_code":"979-3122","address":"いわき市小川町高萩","next":[1122804,1123005,1123003,1123004,1123006,1122802,1123002],"voronoi":{"lat":37.107241,"lng":140.909276,"delta_lat":[0,-12315,104373,-515,-41883,-12158,-11174],"delta_lng":[0,-149267,151708,322,14389,1462,-2275]}},
    {"code":1122801,"left":1122802,"id":"5984ad","name":"いわき","name_kana":"いわき","lat":37.058241,"lng":140.892273,"prefecture":7,"lines":[11228,11229,11230],"attr":"heat","postal_code":"970-8026","address":"いわき市平字田町","next":[1122802,1122934,1122932,1123002,1122933],"voronoi":{"lat":37.014177,"lng":140.893361,"delta_lat":[0,42220,47517,-123324,6773],"delta_lng":[0,-25315,40953,35047,-18222]}},
    {"code":1122802,"id":"58a2fd","name":"赤井","name_kana":"あかい","lat":37.080631,"lng":140.866294,"prefecture":7,"lines":[11228],"attr":"heat","postal_code":"979-3131","address":"いわき市平赤井","next":[1123002,1122805,1122801,1122934,1122803,1122804],"voronoi":{"lat":37.0923,"lng":140.75356,"delta_lat":[0,-5514,-30390,47517,3327,-12315],"delta_lng":[0,-5942,120427,40953,278,-149267]}},
    {"code":1123019,"id":"09985e","name":"日立木","name_kana":"にったき","lat":37.756081,"lng":140.934642,"prefecture":7,"lines":[11230],"attr":"heat","postal_code":"979-2521","address":"相馬市赤木字上原田","next":[1123018,1123017,1123020,1122812,9921310,1123121,9921313,9921312,9921311],"voronoi":{"lat":37.652734,"lng":140.729344,"delta_lat":[0,-18417,-1959,-4316,40462,137070,-59932,-32153,-44372],"delta_lng":[0,-3769,445,3753,130940,206085,-311265,-10256,-12016]}},
    {"code":1123025,"left":1123027,"right":1123022,"id":"699d32","name":"浜吉田","name_kana":"はまよしだ","lat":38.002195,"lng":140.890083,"prefecture":4,"lines":[11230],"attr":"cool","postal_code":"989-2331","address":"亘理郡亘理町吉田字流","next":[1123024,9921704,1123023,9921321,1123022,1123026],"voronoi":{"lat":37.988729,"lng":140.833559,"delta_lat":[0,-2695,-5628,7147,18223,57711],"delta_lng":[0,122,184804,51272,62995,-201526]}},
    {"code":1123027,"left":1123024,"right":1123136,"id":"99e2f9","name":"逢隈","name_kana":"おおくま","lat":38.067584,"lng":140.854669,"prefecture":4,"lines":[11230],"attr":"cool","postal_code":"989-2382","address":"亘理郡亘理町逢隈下郡字椿山","next":[1123137,9921704,1123136,9921323,1123026],"voronoi":{"lat":38.045964,"lng":140.825719,"delta_lat":[0,206,48087,-15701,-9346],"delta_lng":[0,-55,11900,76600,8791]}},
    {"code":1123024,"left":1123026,"id":"00c7c3","name":"山下(宮城)","original_name":"山下","name_kana":"やました","lat":37.966472,"lng":140.888995,"prefecture":4,"lines":[11230],"attr":"cool","postal_code":"989-2200","address":"亘理郡山元町寺字頭無","next":[9921318,9921320,1123025,1123023,9921319,9921321],"voronoi":{"lat":37.976403,"lng":140.831079,"delta_lat":[0,-15715,-623,-31478,51819,5628],"delta_lng":[0,-1726,8,6279,182846,-184804]}},
    {"code":1123026,"id":"1da9d5","name":"亘理","name_kana":"わたり","lat":38.039776,"lng":140.861317,"prefecture":4,"lines":[11230],"attr":"cool","postal_code":"989-2351","address":"亘理郡亘理町道田西","next":[9921322,9921321,9921323,9921704,1123025,1123027],"voronoi":{"lat":38.045964,"lng":140.825719,"delta_lat":[0,-19678,-33954,-3603,74758,5723],"delta_lng":[0,-2840,8873,1808,97667,-8272]}},
    {"code":1123136,"id":"5d3f17","name":"槻木","name_kana":"つきのき","lat":38.07864,"lng":140.809992,"prefecture":4,"lines":[11231,99213],"attr":"cool","postal_code":"989-1756","address":"柴田郡柴田町大字槻木字畑中","next":[9921801,1121708,1123027,9921323,1123137,1123135],"voronoi":{"lat":38.165444,"lng":140.744903,"delta_lat":[0,6583,-4207,-73562,-48087,27703],"delta_lng":[0,26346,20625,45690,-11900,-39210]}},
    {"code":1123022,"left":1123021,"right":1123023,"id":"c06685","name":"新地","name_kana":"しんち","lat":37.87925,"lng":140.925648,"prefecture":7,"lines":[11230],"attr":"heat","postal_code":"979-2702","address":"相馬郡新地町大字谷地小屋","next":[1123018,1123023,1122223,1122310,9921704,1123025,1123021],"voronoi":{"lat":37.913823,"lng":141.435585,"delta_lat":[0,76154,13630,2169,-18223,-125440,-5694],"delta_lng":[0,-93713,-29438,-179682,-62995,-228850,366654]}},
    {"code":1123021,"id":"7d1a09","name":"駒ヶ嶺","name_kana":"こまがみね","lat":37.842353,"lng":140.925075,"prefecture":7,"lines":[11230],"attr":"heat","postal_code":"979-2611","address":"福島県相馬郡新地町駒ケ嶺字深町21","next":[1123023,1123020,9921317,1123018,1123022],"voronoi":{"lat":37.825377,"lng":141.111285,"delta_lat":[0,-4854,37831,3760,-5694],"delta_lng":[0,-303576,20432,12767,366654]}},
    {"code":1123023,"id":"1832ec","name":"坂元","name_kana":"さかもと","lat":37.92433,"lng":140.900938,"prefecture":4,"lines":[11230],"attr":"cool","postal_code":"989-2111","address":"亘理郡山元町坂元字二又","next":[9921318,1123021,1123022,1123024,1123025,9921317],"voronoi":{"lat":37.928588,"lng":140.835639,"delta_lat":[0,51819,7147,-125440,-3760,27110],"delta_lng":[0,182846,51272,-228850,-12767,1228]}},
    {"code":1123010,"left":1123007,"right":1123013,"id":"486ec3","name":"夜ノ森","name_kana":"よのもり","lat":37.365761,"lng":140.991988,"prefecture":7,"lines":[11230],"attr":"cool","postal_code":"979-1151","address":"双葉郡富岡町大字本岡","next":[1122804,1122808,1122805,1123009,1123008,1123011],"voronoi":{"lat":37.358137,"lng":140.824092,"delta_lat":[0,-1783,-20396,-28439,14081,78309],"delta_lng":[0,223,13519,31948,108236,78855]}},
    {"code":1123007,"left":1123005,"right":1123008,"id":"650492","name":"木戸","name_kana":"きど","lat":37.257875,"lng":141.00247,"prefecture":7,"lines":[11230],"attr":"cool","postal_code":"979-0513","address":"双葉郡楢葉町大字山田岡","next":[1122804,1123006,1123008,1123035],"voronoi":{"lat":37.271782,"lng":140.890629,"delta_lat":[0,-29311,-4998,31843],"delta_lng":[0,13042,62534,96809]}},
    {"code":1123005,"left":1123004,"right":1123006,"id":"3d3c97","name":"末続","name_kana":"すえつぎ","lat":37.172156,"lng":140.995565,"prefecture":7,"lines":[11230],"attr":"cool","postal_code":"979-0331","address":"いわき市久之浜町大字末続","next":[1123004,1123006,1122803,1123035],"voronoi":{"lat":37.176885,"lng":141.181417,"delta_lat":[0,21898,-41883,2135],"delta_lng":[0,-269377,14389,360314]}},
    {"code":1123004,"left":1123003,"id":"127021","name":"久ノ浜","name_kana":"ひさのはま","lat":37.142465,"lng":140.995741,"prefecture":7,"lines":[11230],"attr":"cool","postal_code":"979-0333","address":"いわき市久之浜町久之浜字北荒蒔","next":[1123005,9933507,1122314,9920804,1123009,1122803,1123003,1123035],"voronoi":{"lat":36.819232,"lng":144.05822,"delta_lat":[0,-689790,-226642,288851,953092,12158,2135,-242295],"delta_lng":[0,2007292,533603,-3093046,-2578179,-1462,360314,2062939]}},
    {"code":1123003,"id":"cf9bbf","name":"四ツ倉","name_kana":"よつくら","lat":37.102338,"lng":140.980907,"prefecture":7,"lines":[11230],"attr":"cool","postal_code":"979-0201","address":"いわき市四倉町鬼越","next":[1123002,1122932,9933507,1122803,1123004],"voronoi":{"lat":37.144742,"lng":140.927891,"delta_lat":[0,-11174,-414602,-373936,-153380],"delta_lng":[0,-2275,350695,432789,1796970]}},
    {"code":1123006,"id":"e42cc8","name":"広野(福島)","original_name":"広野","name_kana":"ひろの","lat":37.21157,"lng":140.998769,"prefecture":7,"lines":[11230],"attr":"cool","postal_code":"979-0403","address":"双葉郡広野町大字下浅見川","next":[1123005,1122803,1123007,1122804,1123035],"voronoi":{"lat":37.237473,"lng":140.966205,"delta_lat":[0,4998,-43173,-515,-21898],"delta_lng":[0,-62534,8046,322,269377]}},
    {"code":1123008,"left":1123035,"right":1123009,"id":"a91215","name":"竜田","name_kana":"たつた","lat":37.282485,"lng":141.002822,"prefecture":7,"lines":[11230],"attr":"cool","postal_code":"979-0603","address":"双葉郡楢葉町大字井出","next":[1123009,1123035,1123010,1122804,1123007],"voronoi":{"lat":37.271782,"lng":140.890629,"delta_lat":[0,35737,14081,-47226,-5058],"delta_lng":[0,-20848,108236,128139,-43142]}},
    {"code":1123035,"id":"4ea041","name":"Jヴィレッジ","name_kana":"じぇいゔぃれっじ","lat":37.242583,"lng":141.0075,"prefecture":7,"lines":[11230],"attr":"cool","postal_code":"979-0513","address":"双葉郡楢葉町大字山田岡字下岩沢1番地2","open_date":"2019-04-20","next":[1123008,1123009,1123005,1123006,1123004,1123007],"voronoi":{"lat":37.274374,"lng":141.106157,"delta_lat":[0,-357634,242295,17850,60588,31843],"delta_lng":[0,2243525,-2062939,-105326,-215211,96809]}},
    {"code":1123009,"id":"6571d6","name":"富岡","name_kana":"とみおか","lat":37.335264,"lng":141.022274,"prefecture":7,"lines":[11230],"attr":"cool","postal_code":"979-1121","address":"双葉郡富岡町大字仏浜","next":[1122314,1123008,1123010,1123011,1123004,1123035,1123012],"voronoi":{"lat":36.819232,"lng":144.05822,"delta_lat":[0,97509,357634,47226,78309,777,149142],"delta_lng":[0,-708539,-2243525,-128139,78855,1510,1074063]}},
    {"code":1123013,"left":1123017,"right":1123015,"id":"ce455e","name":"浪江","name_kana":"なみえ","lat":37.492291,"lng":140.989521,"prefecture":7,"lines":[11230],"attr":"eco","postal_code":"979-1521","address":"双葉郡浪江町大字権現堂","next":[1123011,1123012,1123015,1122810,1123014],"voronoi":{"lat":37.483505,"lng":140.797169,"delta_lat":[0,-20816,-9524,63924,3934],"delta_lng":[0,6122,147411,151026,-40581]}},
    {"code":1123017,"left":1123014,"right":1123018,"id":"8c2579","name":"原ノ町","name_kana":"はらのまち","lat":37.6379,"lng":140.971161,"prefecture":7,"lines":[11230],"attr":"heat","postal_code":"975-0004","address":"南相馬市原町区旭町２","next":[1123019,1123018,1122812,1123016,1122811,1123014],"voronoi":{"lat":37.558325,"lng":140.771092,"delta_lat":[0,68569,1148,40462,3423,-97409],"delta_lng":[0,-40755,-565,130940,202219,-157742]}},
    {"code":1123014,"left":1123011,"id":"0f5f1a","name":"桃内","name_kana":"ももうち","lat":37.52866,"lng":140.984352,"prefecture":7,"lines":[11230],"attr":"eco","postal_code":"979-2151","address":"南相馬市小高区耳谷","next":[1122811,1123016,1122810,1123017,1123013,1123015],"voronoi":{"lat":37.57411,"lng":140.90961,"delta_lat":[0,408,-16193,-34018,-40802,37518],"delta_lng":[0,-4421,-134097,9704,16373,263978]}},
    {"code":1123011,"id":"6fba73","name":"大野","name_kana":"おおの","lat":37.409367,"lng":140.984163,"prefecture":7,"lines":[11230],"attr":"cool","postal_code":"979-1308","address":"双葉郡大熊町大字下野上","next":[1122809,1123013,1123009,1123012,1122810,1123010,1122808],"voronoi":{"lat":37.399909,"lng":141.056872,"delta_lat":[0,777,52478,9524,-30426,-6552,-67573],"delta_lng":[0,1510,-107680,-147411,1947,1125,17728]}},
    {"code":1123018,"id":"dd7175","name":"鹿島","name_kana":"かしま","lat":37.702827,"lng":140.970062,"prefecture":7,"lines":[11230],"attr":"heat","postal_code":"979-2335","address":"南相馬市鹿島区鹿島","next":[1123022,1123019,1122313,1123020,1123021,1123017,1122310,1123016],"voronoi":{"lat":37.671926,"lng":141.062932,"delta_lat":[0,-3423,137070,19803,31043,57404,-71299,-44953],"delta_lng":[0,-202219,206085,44487,96277,228024,129441,73085]}},
    {"code":1123015,"left":1123012,"right":1123016,"id":"241bb5","name":"小高","name_kana":"おだか","lat":37.56298,"lng":140.996375,"prefecture":7,"lines":[11230],"attr":"eco","postal_code":"979-2121","address":"南相馬市小高区東町１","next":[1123016,1123013,1122314,1123012,1123014],"voronoi":{"lat":37.57411,"lng":140.90961,"delta_lat":[0,111053,-88196,-79878,3934],"delta_lng":[0,941853,174152,-923887,-40581]}},
    {"code":1123012,"id":"443c6f","name":"双葉","name_kana":"ふたば","lat":37.453795,"lng":141.005815,"prefecture":7,"lines":[11230],"attr":"eco","postal_code":"979-1471","address":"双葉郡双葉町大字長塚","next":[1123013,1123011,1123009,1122314,1123015],"voronoi":{"lat":37.549829,"lng":142.132446,"delta_lat":[0,-149142,52478,63924,79878],"delta_lng":[0,-1074063,-107680,151026,923887]}},
    {"code":1123016,"id":"e99ecd","name":"磐城太田","name_kana":"いわきおおた","lat":37.605114,"lng":140.991407,"prefecture":7,"lines":[11230],"attr":"heat","postal_code":"975-0054","address":"南相馬市原町区高字金井神","next":[1122313,1123015,1123014,1122314,1123017,1123018],"voronoi":{"lat":37.739542,"lng":141.750328,"delta_lat":[0,-54380,-111053,408,97409,125645],"delta_lng":[0,101136,-941853,-4421,157742,575180]}},
    {"code":1123140,"left":9921805,"right":9921810,"id":"db00b6","name":"南仙台","name_kana":"みなみせんだい","lat":38.197384,"lng":140.883296,"prefecture":4,"lines":[11231,11230],"attr":"cool","postal_code":"981-1103","address":"仙台市太白区中田町５丁目","next":[9921417,1123141,9921813,9921703,9921702,1123139],"voronoi":{"lat":38.185912,"lng":140.851083,"delta_lat":[0,21366,-336,-3020,-12845,-6217],"delta_lng":[0,27804,47374,2196,-14211,-15941]}},
    {"code":9921805,"left":1123138,"right":9921409,"id":"b3f6e4","name":"大町西公園","name_kana":"おおまちにしこうえん","lat":38.258889,"lng":140.864167,"prefecture":4,"lines":[99218],"attr":"heat","postal_code":"980-0804","address":"仙台市青葉区大町","open_date":"2015-12-06","next":[9921412,9921407,9921416,9921801,9921411,9921408,9921806,9921804],"voronoi":{"lat":38.245393,"lng":140.858055,"delta_lat":[0,-6309,495,7196,936,14752,4208,580],"delta_lng":[0,4911,1366,4672,390,-1526,-4379,-1567]}},
    {"code":1123138,"left":9921801,"right":9921412,"id":"9cf8ce","name":"館腰","name_kana":"たてこし","lat":38.142987,"lng":140.880208,"prefecture":4,"lines":[11231,11230],"attr":"heat","postal_code":"981-1226","address":"名取市植松４丁目","next":[9921704,9921703,9921702,1123137,1123139],"voronoi":{"lat":38.164749,"lng":140.801871,"delta_lat":[0,-52722,26923,5763,13189],"delta_lng":[0,99304,3171,-2581,-19105]}},
    {"code":9921801,"left":9921416,"right":9921802,"id":"f34c03","name":"八木山動物公園","name_kana":"やぎやまどうぶつこうえん","lat":38.242778,"lng":140.843472,"prefecture":4,"lines":[99218],"attr":"heat","postal_code":"982-0801","address":"仙台市太白区八木山本町","open_date":"2015-12-06","next":[9921804,1123137,1123136,9921416,9921417,9921803,1123139,1121708,9921805,1121707,9921802],"voronoi":{"lat":38.249419,"lng":140.852859,"delta_lat":[0,-4025,-6309,-10335,-60099,-818,-13,4207,17986,28076,34355],"delta_lng":[0,5196,4911,-5663,-63891,-1452,-86,-20625,6558,16037,50778]}},
    {"code":9921416,"left":9921417,"id":"3c3a20","name":"長町南","name_kana":"ながまちみなみ","lat":38.224642,"lng":140.87657,"prefecture":4,"lines":[99214],"attr":"cool","postal_code":"982-0012","address":"仙台市太白区長町南３-１-６０","next":[9921801,9921417,9921412,1123142,1123141,9921805,9921414],"voronoi":{"lat":38.222674,"lng":140.881975,"delta_lat":[0,-5019,11095,10335,495,-2674,-5144],"delta_lng":[0,-5506,-19167,5663,1366,11080,4484]}},
    {"code":9921417,"id":"526da7","name":"富沢","name_kana":"とみざわ","lat":38.214087,"lng":140.87046,"prefecture":4,"lines":[99214],"attr":"cool","postal_code":"982-0032","address":"仙台市太白区富沢４-２-２２","next":[9921416,9921801,1123141,1123140,1123139],"voronoi":{"lat":38.16865,"lng":140.793411,"delta_lat":[0,60099,-11095,-10376,-21366],"delta_lng":[0,63891,19167,2417,-27804]}},
    {"code":9921802,"id":"6bc2b2","name":"青葉山","name_kana":"あおばやま","lat":38.254972,"lng":140.835222,"prefecture":4,"lines":[99218],"attr":"heat","postal_code":"981-0945","address":"仙台市青葉区荒巻","open_date":"2015-12-06","next":[1121705,9921803,1121707,9921801,1121706],"voronoi":{"lat":38.265346,"lng":140.839746,"delta_lat":[0,-12902,-34355,7954,38369],"delta_lng":[0,4875,-50778,3229,31924]}},
    {"code":9921412,"left":1123139,"right":9921411,"id":"51bc62","name":"愛宕橋","name_kana":"あたごばし","lat":38.24729,"lng":140.882036,"prefecture":4,"lines":[99214],"attr":"eco","postal_code":"984-0065","address":"仙台市若林区土樋１-１１-１０","next":[9921805,9921413,9921809,9921416,9921414,9921411],"voronoi":{"lat":38.24727,"lng":140.888215,"delta_lat":[0,-9269,-1096,2674,7196,4022],"delta_lng":[0,-10106,-2698,-11080,4672,17989]}},
    {"code":1123139,"id":"66f4e8","name":"名取","name_kana":"なとり","lat":38.173017,"lng":140.882753,"prefecture":4,"lines":[11231,11230,99217],"attr":"cool","postal_code":"981-1224","address":"名取市増田２丁目５番地１","next":[9921702,9921801,1123137,1123140,1123138,9921417],"voronoi":{"lat":38.16865,"lng":140.793411,"delta_lat":[0,-818,-3084,-6847,26959,1052],"delta_lng":[0,-1452,9912,80789,15644,-47222]}},
    {"code":9921411,"id":"4874d9","name":"五橋","name_kana":"いつつばし","lat":38.251861,"lng":140.881014,"prefecture":4,"lines":[99214],"attr":"eco","postal_code":"980-0022","address":"仙台市青葉区五橋２-１-１０","next":[1122201,100411,9921410,9921809,9921808,9921805,9921806,9921412],"voronoi":{"lat":38.246776,"lng":140.869003,"delta_lat":[0,936,7584,10,683,-165,-3456,-1570],"delta_lng":[0,390,6781,36,5057,1181,4641,-97]}},
    {"code":9921409,"left":9921803,"right":100411,"id":"45ffed","name":"広瀬通","name_kana":"ひろせどおり","lat":38.262971,"lng":140.875736,"prefecture":4,"lines":[99214],"attr":"eco","postal_code":"980-0021","address":"仙台市青葉区中央２-１０-２２","next":[9921408,100411,1122201,1121702,9921806],"voronoi":{"lat":38.263098,"lng":140.872359,"delta_lat":[0,8810,-2719,-1508,-7921],"delta_lng":[0,6608,3505,-691,-6336]}},
    {"code":9921803,"left":9921806,"right":9921408,"id":"3dd2dc","name":"川内(宮城)","original_name":"川内","name_kana":"かわうち","lat":38.260556,"lng":140.85,"prefecture":4,"lines":[99218],"attr":"heat","postal_code":"980-0861","address":"仙台市青葉区川内元支倉","open_date":"2015-12-06","next":[9921802,9921801,1121705,1121722,1121704,9921804],"voronoi":{"lat":38.272743,"lng":140.852412,"delta_lat":[0,-3382,-4015,-12902,-3025,23191],"delta_lng":[0,-9203,-3462,4875,8237,1300]}},
    {"code":9921806,"left":9921804,"id":"fd912a","name":"青葉通一番町","name_kana":"あおばどおりいちばんちょう","lat":38.259722,"lng":140.872222,"prefecture":4,"lines":[99218],"attr":"heat","postal_code":"980-0811","address":"仙台市青葉区一番町","open_date":"2015-12-06","next":[9921408,1122201,9921411,9921409,9921805],"voronoi":{"lat":38.262463,"lng":140.867868,"delta_lat":[0,635,-3338,-4465,-7584],"delta_lng":[0,4492,3086,729,-6781]}},
    {"code":9921804,"id":"8aed1d","name":"国際センター(宮城)","original_name":"国際センター","name_kana":"こくさいせんたー","lat":38.260167,"lng":140.856944,"prefecture":4,"lines":[99218],"attr":"heat","postal_code":"980-0854","address":"仙台市青葉区川内中ノ瀬町","open_date":"2015-12-06","next":[9921801,9921407,1121704,9921805,9921803],"voronoi":{"lat":38.249419,"lng":140.852859,"delta_lat":[0,-4025,21858,5776,-418],"delta_lng":[0,5196,3867,-5702,-2061]}},
    {"code":9921408,"id":"e780d0","name":"勾当台公園","name_kana":"こうとうだいこうえん","lat":38.266304,"lng":140.871292,"prefecture":4,"lines":[99214],"attr":"heat","postal_code":"980-0014","address":"仙台市青葉区本町３-９-２","next":[9921409,9921806,1121702,9921407,9921805],"voronoi":{"lat":38.263098,"lng":140.872359,"delta_lat":[0,8810,519,-5756,-4208],"delta_lng":[0,6608,-367,-15112,4379]}},
    {"code":100411,"left":9921410,"right":1122201,"id":"2c0bce","name":"仙台(JR)","original_name":"仙台","name_kana":"せんだい","lat":38.260027,"lng":140.882158,"prefecture":4,"lines":[1004,11231,11217,11222,11230,11232],"attr":"eco","postal_code":"980-0021","address":"仙台市青葉区中央一丁目1-1","next":[9921409,1121702,9921411,1122201,9921410,9921808],"voronoi":{"lat":38.255823,"lng":140.882448,"delta_lat":[0,165,7082,4611,1508,-1476],"delta_lng":[0,-1181,-400,914,691,5457]}},
    {"code":9921410,"id":"65dec4","name":"仙台(仙台市交通局)","original_name":"仙台","name_kana":"せんだい","lat":38.259901,"lng":140.879928,"prefecture":4,"lines":[99214,99218],"attr":"eco","postal_code":"980-0021","address":"仙台市青葉区中央一丁目10-10","open_date":"2015-12-06","next":[1122201,9921411,100411],"voronoi":{"lat":38.255306,"lng":140.876211,"delta_lat":[0,7765,-7082],"delta_lng":[0,4657,400]}},
    {"code":1122201,"id":"73f4d2","name":"あおば通","name_kana":"あおばどおり","lat":38.260749,"lng":140.878514,"prefecture":4,"lines":[11222],"attr":"eco","postal_code":"980-0021","address":"仙台市青葉区中央３丁目２番１号","next":[9921410,9921411,9921409,100411,9921806],"voronoi":{"lat":38.255306,"lng":140.876211,"delta_lat":[0,7765,4611,-7921,-4465],"delta_lng":[0,4657,914,-6336,729]}},
    {"code":9921810,"left":9921702,"right":1122205,"id":"ee8d3a","name":"薬師堂(宮城)","original_name":"薬師堂","name_kana":"やくしどう","lat":38.249583,"lng":140.906111,"prefecture":4,"lines":[99218],"attr":"eco","postal_code":"984-0042","address":"仙台市若林区大和町","open_date":"2015-12-06","next":[9921413,1122204,9921811,1122203,9921809,9921414,1123142],"voronoi":{"lat":38.255955,"lng":140.912759,"delta_lat":[0,-1012,-619,-12601,-4688,-11110,-6791],"delta_lng":[0,-12248,-461,-1475,2157,9203,7689]}},
    {"code":9921702,"left":9921414,"right":9921703,"id":"519658","name":"杜せきのした","name_kana":"もりせきのした","lat":38.165482,"lng":140.895738,"prefecture":4,"lines":[99217],"attr":"heat","postal_code":"981-1224","address":"名取市増田字関下２００番地１","next":[1123139,9921703,1123138,1123140],"voronoi":{"lat":38.144713,"lng":140.901765,"delta_lat":[0,13189,26959,6217],"delta_lng":[0,-19105,15644,15941]}},
    {"code":9921414,"left":1123142,"right":9921413,"id":"79b48d","name":"長町一丁目","name_kana":"ながまちいっちょうめ","lat":38.234085,"lng":140.887402,"prefecture":4,"lines":[99214],"attr":"cool","postal_code":"982-0011","address":"仙台市太白区長町１-２-１２","next":[9921412,9921810,1123142,9921413,9921416],"voronoi":{"lat":38.236905,"lng":140.875411,"delta_lat":[0,1096,-966,-11110,5836],"delta_lng":[0,2698,22622,9203,-30039]}},
    {"code":1123142,"left":1123141,"id":"b4f86b","name":"長町","name_kana":"ながまち","lat":38.226797,"lng":140.885986,"prefecture":4,"lines":[11231,11230,99214],"attr":"eco","postal_code":"982-0011","address":"仙台市太白区長町５丁目","next":[9921811,9921416,9921810,9921414,1123141],"voronoi":{"lat":38.222674,"lng":140.881975,"delta_lat":[0,9088,-5836,-6791,-7188],"delta_lng":[0,-2080,30039,7689,5101]}},
    {"code":1123141,"id":"562738","name":"太子堂","name_kana":"たいしどう","lat":38.21711,"lng":140.883436,"prefecture":4,"lines":[11231,11230],"attr":"eco","postal_code":"982-0013","address":"仙台市太白区太子堂１丁目２０番地","next":[9921811,9921417,9921416,9921813,1123140,1123142],"voronoi":{"lat":38.209105,"lng":140.92534,"delta_lat":[0,-2162,336,10376,5019,-10727],"delta_lng":[0,920,-47374,-2417,5506,40749]}},
    {"code":9921413,"id":"c5ada8","name":"河原町(宮城)","original_name":"河原町","name_kana":"かわらまち","lat":38.241112,"lng":140.887702,"prefecture":4,"lines":[99214],"attr":"cool","postal_code":"984-0816","address":"仙台市若林区河原町１-５-１０","next":[9921412,9921810,9921809,9921414],"voronoi":{"lat":38.238002,"lng":140.878109,"delta_lat":[0,9269,-5547,-4688],"delta_lng":[0,10106,10359,2157]}},
    {"code":9921703,"left":9921704,"right":9921813,"id":"12a2d9","name":"美田園","name_kana":"みたぞの","lat":38.15965,"lng":140.917404,"prefecture":4,"lines":[99217],"attr":"heat","postal_code":"981-1201","address":"名取市下増田字大橋本５４番地","next":[9921813,1123138,9921702,9921704,1123140],"voronoi":{"lat":38.181817,"lng":140.988816,"delta_lat":[0,-42867,5763,46365,12845],"delta_lng":[0,-84469,-2581,12480,14211]}},
    {"code":9921704,"id":"dbf914","name":"仙台空港","name_kana":"せんだいくうこう","lat":38.137267,"lng":140.928763,"prefecture":4,"lines":[99217],"attr":"heat","postal_code":"981-1200","address":"名取市","next":[1123137,1123138,9921813,1123027,1123025,1123022,1122211,1122222,1122223,1123026,9921703],"voronoi":{"lat":38.13895,"lng":140.904347,"delta_lat":[0,-26923,-33470,-9346,-5723,-57711,-2169,56236,28111,80931,12931],"delta_lng":[0,-3171,12988,8791,8272,201526,179682,-59552,-30876,-163093,-70098]}},
    {"code":9921813,"id":"667aa2","name":"荒井(宮城)","original_name":"荒井","name_kana":"あらい","lat":38.244861,"lng":140.948611,"prefecture":4,"lines":[99218],"attr":"cool","postal_code":"984-0032","address":"仙台市若林区荒井東","open_date":"2015-12-06","next":[9921703,9921704,1122208,1123141,1122211,1123140,1122210,9921812,9921811,1122209],"voronoi":{"lat":38.257733,"lng":140.960241,"delta_lat":[0,3777,-46162,-6244,-2162,-3020,-22106,-12931,1165,65361],"delta_lng":[0,-11795,-21608,-1498,920,2196,60359,70098,-960,-64129]}},
    {"code":1122205,"left":1122203,"right":9921811,"id":"b10b30","name":"陸前原ノ町","name_kana":"りくぜんはらのまち","lat":38.266017,"lng":140.910638,"prefecture":4,"lines":[11222],"attr":"eco","postal_code":"983-0842","address":"仙台市宮城野区五輪２","next":[9921811,1122204,1121702,1122206,1123144],"voronoi":{"lat":38.282014,"lng":140.903627,"delta_lat":[0,-8892,-15896,2599,13975],"delta_lng":[0,-4198,14109,3694,-4594]}},
    {"code":1122203,"left":9921809,"right":1122204,"id":"d63fde","name":"榴ヶ岡","name_kana":"つつじがおか","lat":38.258792,"lng":140.893782,"prefecture":4,"lines":[11222],"attr":"eco","postal_code":"983-0852","address":"仙台市宮城野区榴岡五丁目11-1","next":[9921808,9921809,9921810,1121702,1122204],"voronoi":{"lat":38.270648,"lng":140.897255,"delta_lat":[0,-3005,-12369,-950,619],"delta_lng":[0,-7971,714,10052,461]}},
    {"code":9921809,"left":9921808,"id":"86490b","name":"連坊","name_kana":"れんぼう","lat":38.251111,"lng":140.893056,"prefecture":4,"lines":[99218],"attr":"eco","postal_code":"984-0052","address":"仙台市若林区連坊","open_date":"2015-12-06","next":[9921808,9921413,9921412,9921411,1122203,9921810],"voronoi":{"lat":38.241723,"lng":140.898574,"delta_lat":[0,5547,3527,1570,2907,-950],"delta_lng":[0,-10359,-1223,97,2908,10052]}},
    {"code":9921808,"id":"c783db","name":"宮城野通","name_kana":"みやぎのどおり","lat":38.258333,"lng":140.885833,"prefecture":4,"lines":[99218],"attr":"eco","postal_code":"983-0852","address":"仙台市宮城野区榴岡","open_date":"2015-12-06","next":[1122203,9921809,1121702,9921411,100411],"voronoi":{"lat":38.267643,"lng":140.889283,"delta_lat":[0,-12369,-2907,3456,11890],"delta_lng":[0,714,-2908,-4641,5481]}},
    {"code":1122204,"id":"044341","name":"宮城野原","name_kana":"みやぎのはら","lat":38.26115,"lng":140.905155,"prefecture":4,"lines":[11222],"attr":"eco","postal_code":"983-0045","address":"仙台市宮城野区宮城野２丁目","next":[1122205,9921810,9921811,1121702,1122203],"voronoi":{"lat":38.270648,"lng":140.897255,"delta_lat":[0,2474,-15896,-1271,-1012],"delta_lng":[0,2175,14109,-780,-12248]}},
    {"code":9921811,"left":9921812,"right":1122206,"id":"9ec0e7","name":"卸町(宮城)","original_name":"卸町","name_kana":"おろしまち","lat":38.251528,"lng":140.920833,"prefecture":4,"lines":[99218],"attr":"cool","postal_code":"984-0015","address":"仙台市若林区卸町","open_date":"2015-12-06","next":[1122205,1123141,1122206,1123142,9921810,9921812,1122204,9921813],"voronoi":{"lat":38.209105,"lng":140.92534,"delta_lat":[0,2842,7188,36821,1271,2599,1296,-45773],"delta_lng":[0,-2616,-5101,-4865,780,3694,11335,-1729]}},
    {"code":9921812,"id":"f17d35","name":"六丁の目","name_kana":"ろくちょうのめ","lat":38.250972,"lng":140.935556,"prefecture":4,"lines":[99218],"attr":"cool","postal_code":"984-0011","address":"仙台市若林区六丁の目西町","open_date":"2015-12-06","next":[1122206,9921811,1122207,1122208,9921813],"voronoi":{"lat":38.215349,"lng":140.926839,"delta_lat":[0,45773,1064,87,-762],"delta_lng":[0,1729,1131,17942,806]}},
    {"code":1122206,"id":"2a36fa","name":"苦竹","name_kana":"にがたけ","lat":38.268722,"lng":140.918867,"prefecture":4,"lines":[11222],"attr":"eco","postal_code":"983-0036","address":"仙台市宮城野区苦竹１丁目","next":[9921812,9921811,1123144,1122205,1122207],"voronoi":{"lat":38.27132,"lng":140.92709,"delta_lat":[0,2480,-13975,1296,1064],"delta_lng":[0,-14452,4594,11335,1131]}}
  ]
}