{
  "name":"segment54",
  "root":1110135,
  "east":140.497616,
  "west":137.400288,
  "south":39.911567,
  "north":90.0,
  "station_size":155,
  "node_list":[
    {"code":1110135,"left":1120429,"right":9920101,"id":"499770","name":"北豊津","name_kana":"きたとよつ","closed":true,"lat":42.400969,"lng":140.297868,"prefecture":1,"lines":[11101],"attr":"unknown","postal_code":"049-3464","address":"山越郡長万部町字豊津","open_date":"1944-07-01","closed_date":"2017-03-04","next":[1011002,1110134,1011003,1110129,1110136],"voronoi":{"lat":42.345862,"lng":140.42368,"delta_lat":[0,58569,3141,25023,-84382],"delta_lng":[0,-197382,2313,60020,140593]},"impl":true},
    {"code":1120429,"left":1120407,"right":1111905,"id":"2fc916","name":"陸奥柳田","name_kana":"むつやなぎた","lat":40.740616,"lng":140.123243,"prefecture":2,"lines":[11204],"attr":"heat","postal_code":"038-2501","address":"西津軽郡深浦町大字柳田","next":[1120431,9920313,1120414,1120430,9920312,1120415,1120408,1120428,1120423,1120413],"voronoi":{"lat":40.556194,"lng":140.129865,"delta_lat":[0,28798,5561,19251,185120,-216352,-28377,-20368,-18924,17896],"delta_lng":[0,-33528,-5802,-6860,35322,116743,10098,-8711,-8567,-62723]},"impl":true},
    {"code":1120407,"left":1120416,"right":1120240,"id":"cd1680","name":"東八森","name_kana":"ひがしはちもり","lat":40.332086,"lng":140.032462,"prefecture":5,"lines":[11204],"attr":"cool","postal_code":"018-2678","address":"山本郡八峰町八森八森","next":[1120410,1120243,1120406,1120408,1120242,1120409],"voronoi":{"lat":40.425669,"lng":140.224324,"delta_lat":[0,-3901,-91038,-31265,25561,13492],"delta_lng":[0,-2295,-74120,-210822,31185,21354]},"impl":true},
    {"code":1120416,"left":1120413,"right":1120421,"id":"cb5ff7","name":"陸奥岩崎","name_kana":"むついわさき","lat":40.583333,"lng":139.924183,"prefecture":2,"lines":[11204],"attr":"cool","postal_code":"038-2202","address":"西津軽郡深浦町岩崎","next":[1120420,1120417,1120415,1120421,1120422],"voronoi":{"lat":40.552521,"lng":139.906449,"delta_lat":[0,57292,7322,-5155,-5103],"delta_lng":[0,5578,10245,66461,14790]},"impl":true},
    {"code":1120413,"left":1120414,"right":1120410,"id":"e865bb","name":"白神岳登山口","name_kana":"しらかみだけとざんぐち","lat":40.513551,"lng":139.950318,"prefecture":2,"lines":[11204],"attr":"cool","postal_code":"038-2207","address":"西津軽郡深浦町黒崎","next":[1120412,1120417,1120408,1120414,1120429],"voronoi":{"lat":40.556194,"lng":140.129865,"delta_lat":[0,-45590,-6563,-2966,27724],"delta_lng":[0,-258743,-8615,244979,58351]},"impl":true},
    {"code":1120414,"left":1120412,"right":1120415,"id":"a7a3ad","name":"松神","name_kana":"まつかみ","lat":40.534902,"lng":139.946556,"prefecture":2,"lines":[11204],"attr":"cool","postal_code":"038-2206","address":"西津軽郡深浦町松神","next":[1120417,1120415,1120429,1120413],"voronoi":{"lat":40.510604,"lng":139.871121,"delta_lat":[0,17230,57158,-28798],"delta_lng":[0,17132,208083,33528]},"impl":true},
    {"code":1120412,"left":1121507,"id":"1682d8","name":"大間越","name_kana":"おおまごし","lat":40.492407,"lng":139.950062,"prefecture":2,"lines":[11204],"attr":"cool","postal_code":"038-2208","address":"西津軽郡深浦町大間越","next":[1120408,1120418,1120413,1120409,1120417,1120411],"voronoi":{"lat":40.478015,"lng":140.066325,"delta_lat":[0,23059,2966,-2539,-93309,55765],"delta_lng":[0,41160,-244979,-4322,-118855,296685]},"impl":true},
    {"code":1121507,"id":"24721d","name":"脇本","name_kana":"わきもと","lat":39.915172,"lng":139.902657,"prefecture":5,"lines":[11215],"attr":"heat","postal_code":"010-0500","address":"男鹿市脇本字曲田","next":[1121509,1121508,1120238,1120236,1120239,1121506,1120237,1120402],"voronoi":{"lat":40.124198,"lng":139.82639,"delta_lat":[0,-254813,-27656,191786,445,13351,42893,7422],"delta_lng":[0,66535,15670,45363,-207,-9603,-47933,-10458]},"impl":true},
    {"code":1120415,"id":"72f4bc","name":"十二湖","name_kana":"じゅうにこ","lat":40.551539,"lng":139.941986,"prefecture":2,"lines":[11204],"attr":"cool","postal_code":"038-2206","address":"西津軽郡深浦町松神","next":[1120423,1120414,1120416,1120422,1120417,1120429],"voronoi":{"lat":40.527833,"lng":139.888253,"delta_lat":[0,24688,54356,-2202,-14123,-5561],"delta_lng":[0,18195,97074,19883,67129,5802]},"impl":true},
    {"code":1120410,"left":1120408,"right":1120411,"id":"a6a45a","name":"あきた白神","name_kana":"あきたしらかみ","lat":40.386583,"lng":139.987793,"prefecture":5,"lines":[11204],"attr":"eco","postal_code":"018-2617","address":"山本郡八峰町八森御所の台","next":[1120406,1120409,1120404,1120411,1120405,1120407],"voronoi":{"lat":40.449293,"lng":140.025297,"delta_lat":[0,-181490,17457,2829,11377,25561],"delta_lng":[0,-165672,50215,6631,20615,31185]},"impl":true},
    {"code":1120408,"left":1120409,"id":"99a2f8","name":"八森","name_kana":"はちもり","lat":40.37135,"lng":140.017882,"prefecture":5,"lines":[11204],"attr":"cool","postal_code":"018-2641","address":"山本郡八峰町八森中浜","next":[1120412,1120409,1120243,9920312,1120407,1120413,1120429,9920311],"voronoi":{"lat":40.425669,"lng":140.224324,"delta_lat":[0,-87151,139497,23059,27724,-17896,-9492,-39387],"delta_lng":[0,-234698,76700,41160,58351,62723,4445,17827]},"impl":true},
    {"code":1120409,"id":"f70986","name":"滝ノ間","name_kana":"たきのま","lat":40.379967,"lng":140.00221,"prefecture":5,"lines":[11204],"attr":"cool","postal_code":"018-2623","address":"山本郡八峰町八森滝ノ間","next":[1120410,1120411,1120412,1120408,1120407],"voronoi":{"lat":40.325026,"lng":139.968271,"delta_lat":[0,124266,14665,14058,-139497],"delta_lng":[0,57026,10717,30311,-76700]},"impl":true},
    {"code":1120411,"id":"dd6c4a","name":"岩館","name_kana":"いわだて","lat":40.406241,"lng":139.966258,"prefecture":5,"lines":[11204],"attr":"eco","postal_code":"018-2606","address":"山本郡八峰町八森釜の上","next":[1120409,1120410,1120402,1120412,1121508,1120404,1120418],"voronoi":{"lat":40.254418,"lng":139.43749,"delta_lat":[0,-52146,32021,33509,181490,14665,-55765],"delta_lng":[0,251038,95674,75423,165672,10717,-296685]},"impl":true},
    {"code":1120421,"left":1120419,"right":1120424,"id":"bc85ab","name":"深浦","name_kana":"ふかうら","lat":40.650239,"lng":139.929372,"prefecture":2,"lines":[11204],"attr":"cool","postal_code":"038-2324","address":"西津軽郡深浦町大字深浦","next":[1120422,1120420,1120416],"voronoi":{"lat":40.617135,"lng":139.922272,"delta_lat":[0,158118,-163273],"delta_lng":[0,-83651,150112]},"impl":true},
    {"code":1120419,"left":1120417,"right":1120420,"id":"84bc6b","name":"艫作","name_kana":"へなし","lat":40.608534,"lng":139.864856,"prefecture":2,"lines":[11204],"attr":"cool","postal_code":"038-2327","address":"西津軽郡深浦町大字舮作","next":[9941807,1112612,1011011,1121509,1120418,1120420],"voronoi":{"lat":41.180956,"lng":139.41741,"delta_lat":[0,336637,-18840,-1183526,-50289,343373],"delta_lng":[0,-1168131,-2811373,1351546,2246099,851267]},"impl":true},
    {"code":1120417,"left":1120418,"id":"355b99","name":"陸奥沢辺","name_kana":"むつさわべ","lat":40.586175,"lng":139.894991,"prefecture":2,"lines":[11204],"attr":"cool","postal_code":"038-2201","address":"西津軽郡深浦町沢辺","next":[1120414,1120416,1120420,1120415,1120412,1120413,1120418],"voronoi":{"lat":40.501502,"lng":139.858184,"delta_lat":[0,2539,6563,17230,24688,57292,-2226],"delta_lng":[0,4322,8615,17132,18195,5578,-23852]},"impl":true},
    {"code":1120418,"id":"beaae7","name":"ウェスパ椿山","name_kana":"うぇすぱつばきやま","lat":40.592913,"lng":139.871157,"prefecture":2,"lines":[11204],"attr":"cool","postal_code":"038-2327","address":"西津軽郡深浦町大字舮作字鍋石２２６-１","next":[1120412,1120420,1121509,1120419,1120411,1121508,1120417],"voronoi":{"lat":40.608312,"lng":139.886819,"delta_lat":[0,-343373,-8913,-1607,153774,93309,106086],"delta_lng":[0,-851267,280486,121453,301839,118855,29990]},"impl":true},
    {"code":1120420,"id":"66069d","name":"横磯","name_kana":"よこいそ","lat":40.629891,"lng":139.89091,"prefecture":2,"lines":[11204],"attr":"cool","postal_code":"038-2325","address":"西津軽郡深浦町大字横磯","next":[1120416,1120417,1120418,1120425,1120421,1120422,1112612,1120419],"voronoi":{"lat":40.607587,"lng":139.888175,"delta_lat":[0,2226,7322,158118,36672,357570,11461,-572645],"delta_lng":[0,23852,10245,-83651,-25203,-352470,-43537,469408]},"impl":true},
    {"code":1120424,"left":1120423,"right":1120425,"id":"26139d","name":"驫木","name_kana":"とどろき","lat":40.707218,"lng":139.982954,"prefecture":2,"lines":[11204],"attr":"cool","postal_code":"038-2412","address":"西津軽郡深浦町大字驫木","next":[1120425,1120422,1120423,1120428],"voronoi":{"lat":40.727616,"lng":139.925017,"delta_lat":[0,47832,-84959,-48858],"delta_lng":[0,-57461,183942,16900]},"impl":true},
    {"code":1120423,"left":1120422,"id":"b9fa25","name":"追良瀬","name_kana":"おいらせ","lat":40.686114,"lng":139.970298,"prefecture":2,"lines":[11204],"attr":"cool","postal_code":"038-2413","address":"西津軽郡深浦町大字追良瀬","next":[1120415,1120422,1120424,1120428,1120429],"voronoi":{"lat":40.609804,"lng":140.083675,"delta_lat":[0,31827,85985,-122940,-14123],"delta_lng":[0,-15277,-143381,98389,67129]},"impl":true},
    {"code":1120422,"id":"8019b8","name":"広戸","name_kana":"ひろと","lat":40.67434,"lng":139.955586,"prefecture":2,"lines":[11204],"attr":"cool","postal_code":"038-2321","address":"西津軽郡深浦町大字広戸","next":[1120421,1120415,1120424,1120423,1120416,1120420,1120425],"voronoi":{"lat":40.811925,"lng":139.813418,"delta_lat":[0,-36672,-163273,-5103,-2202,122940,47832],"delta_lng":[0,25203,150112,14790,19883,-98389,-57461]},"impl":true},
    {"code":1120425,"id":"8765b1","name":"風合瀬","name_kana":"かそせ","lat":40.731826,"lng":139.99432,"prefecture":2,"lines":[11204],"attr":"cool","postal_code":"038-2411","address":"西津軽郡深浦町大字風合瀬","next":[1120424,1120426,1120420,1120428,1112612,1120422],"voronoi":{"lat":40.690488,"lng":140.051497,"delta_lat":[0,1841,433215,43951,-357570,-36478],"delta_lng":[0,-259,-303315,-286976,352470,54138]},"impl":true},
    {"code":1120240,"left":1120235,"right":1120403,"id":"a127ac","name":"東能代","name_kana":"ひがしのしろ","lat":40.191579,"lng":140.065746,"prefecture":5,"lines":[11202,11204],"attr":"heat","postal_code":"016-0121","address":"能代市鰄渕","next":[1120402,1120239,1120403,1120241],"voronoi":{"lat":40.168032,"lng":140.035159,"delta_lat":[0,42262,22889,-67984],"delta_lng":[0,19406,29297,15849]},"impl":true},
    {"code":1120235,"left":1120238,"right":9922704,"id":"facd68","name":"八郎潟","name_kana":"はちろうがた","lat":39.947366,"lng":140.078382,"prefecture":5,"lines":[11202,99227],"attr":"eco","postal_code":"018-1614","address":"南秋田郡八郎潟町字中田","next":[1120234,9922702,1121504,1120236,1121505],"voronoi":{"lat":39.933512,"lng":140.019135,"delta_lat":[0,-4361,43004,-1719,-28286],"delta_lng":[0,65482,9053,-92724,11974]},"impl":true},
    {"code":1120238,"left":1120236,"right":1120239,"id":"04d007","name":"森岳","name_kana":"もりたけ","lat":40.103164,"lng":140.070886,"prefecture":5,"lines":[11202],"attr":"eco","postal_code":"018-2303","address":"山本郡三種町森岳","next":[1120237,1121507,1120241,1120242,1120239],"voronoi":{"lat":40.090205,"lng":139.896215,"delta_lat":[0,-42893,49922,20813,17044],"delta_lng":[0,47933,249056,-23479,-36047]},"impl":true},
    {"code":1120236,"left":1120234,"id":"35c862","name":"鯉川","name_kana":"こいかわ","lat":39.996361,"lng":140.077474,"prefecture":5,"lines":[11202],"attr":"eco","postal_code":"018-2103","address":"山本郡三種町鯉川","next":[1121505,1120237,9922704,9922702,1121507,1120235,1121506,9922703],"voronoi":{"lat":40.012704,"lng":140.153045,"delta_lat":[0,21256,-445,-45380,-17699,1719,2181,6850],"delta_lng":[0,-199294,207,31822,15167,92724,5730,12063]},"impl":true},
    {"code":1120234,"id":"c3436c","name":"井川さくら","name_kana":"いかわさくら","lat":39.911925,"lng":140.076022,"prefecture":5,"lines":[11202],"attr":"eco","postal_code":"018-1516","address":"南秋田郡井川町浜井川","next":[9922704,1120235,9922703,1120233,9922702,1121504],"voronoi":{"lat":39.933512,"lng":140.019135,"delta_lat":[0,-4361,-14180,-7045,-12521,20464],"delta_lng":[0,65482,20558,7326,9937,-97309]},"impl":true},
    {"code":1120239,"id":"694c96","name":"北金岡","name_kana":"きたかなおか","lat":40.141895,"lng":140.063565,"prefecture":5,"lines":[11202],"attr":"eco","postal_code":"018-2301","address":"山本郡三種町志戸橋","next":[1120240,1120241,1120238,1121507,1120402],"voronoi":{"lat":40.165198,"lng":140.09971,"delta_lat":[0,-30108,-44886,7422,70405],"delta_lng":[0,33967,-237463,-10458,149402]},"impl":true},
    {"code":9922704,"left":9922703,"right":1120237,"id":"a6d82c","name":"五城目","name_kana":"ごじょうのめ","closed":true,"lat":39.944361,"lng":140.116889,"prefecture":5,"lines":[99227],"postal_code":"018-1722","address":"秋田県南秋田郡五城目町字鵜ノ木","open_date":"1922-04-21","closed_date":"1969-07-11","next":[9920912,1120233,9920911,1120236,9920905,1120228,1120234,9920913,9922703,1120232,1120237,1120225,9920915],"voronoi":{"lat":39.841011,"lng":140.261909,"delta_lat":[0,-2808,-3832,12405,48630,12521,73260,31518,28187,-10289,-14981,-31831,-59928],"delta_lng":[0,-5020,-66884,-16938,-50629,-9937,-1038,41581,82468,10454,4714,6309,7496]},"impl":false},
    {"code":9922703,"left":9922702,"id":"1b2bd6","name":"高校前(秋田)","original_name":"高校前","name_kana":"こうこうまえ","closed":true,"lat":39.944222,"lng":140.107083,"prefecture":5,"lines":[99227],"postal_code":"018-1605","address":"秋田県南秋田郡八郎潟町川崎嘉美１２０−８","closed_date":"1969-07-11","next":[9922702,9922704,1120234,1120236],"voronoi":{"lat":39.974336,"lng":140.099401,"delta_lat":[0,-59365,-7045,73260],"delta_lng":[0,5775,7326,-1038]},"impl":false},
    {"code":9922702,"id":"b112c7","name":"川崎(秋田)","original_name":"川崎","name_kana":"かわさき","closed":true,"lat":39.943306,"lng":140.097667,"prefecture":5,"lines":[99227],"postal_code":"018-1605","address":"秋田県南秋田郡八郎潟町川崎嘉美１−２","open_date":"1950-01-20","closed_date":"1969-07-11","next":[9922703,1120236,1120235,1120234],"voronoi":{"lat":39.929152,"lng":140.084617,"delta_lat":[0,43004,2181,-59365],"delta_lng":[0,9053,5730,5775]},"impl":false},
    {"code":1120237,"id":"28fcaa","name":"鹿渡","name_kana":"かど","lat":40.044619,"lng":140.082621,"prefecture":5,"lines":[11202],"attr":"eco","postal_code":"018-2104","address":"山本郡三種町鹿渡","next":[1120236,1120238,9920905,1120242,1121507,9922704,1120243],"voronoi":{"lat":40.096841,"lng":140.193958,"delta_lat":[0,392,-49922,-13351,-21256,28187,31612],"delta_lng":[0,-755,-249056,9603,199294,82468,-14867]},"impl":true},
    {"code":1120403,"left":1120405,"right":1120243,"id":"37e013","name":"向能代","name_kana":"むかいのしろ","lat":40.225669,"lng":140.039111,"prefecture":5,"lines":[11204],"attr":"heat","postal_code":"016-0014","address":"能代市落合","next":[1120402,1120240,1120241,1120404],"voronoi":{"lat":40.231063,"lng":139.988771,"delta_lat":[0,-20770,22889,16334],"delta_lng":[0,65794,29297,4482]},"impl":true},
    {"code":1120405,"left":1120404,"right":1120406,"id":"4e774a","name":"鳥形","name_kana":"とりがた","lat":40.271433,"lng":140.036931,"prefecture":5,"lines":[11204],"attr":"heat","postal_code":"016-0011","address":"能代市坂形","next":[1120406,1120404,1120410,1120241],"voronoi":{"lat":40.252941,"lng":140.090377,"delta_lat":[0,32318,2829,-7184],"delta_lng":[0,-180536,6631,197062]},"impl":true},
    {"code":1120404,"left":1120402,"id":"3a3570","name":"北能代","name_kana":"きたのしろ","lat":40.254138,"lng":140.033835,"prefecture":5,"lines":[11204],"attr":"heat","postal_code":"016-0016","address":"能代市竹生","next":[1120410,1120405,1120402,1120241,1120403,1120411],"voronoi":{"lat":40.285259,"lng":139.909841,"delta_lat":[0,-32318,-3425,-18453,3230,33509],"delta_lng":[0,180536,-2033,-99573,-204568,75423]},"impl":true},
    {"code":1120402,"id":"5f15dd","name":"能代","name_kana":"のしろ","lat":40.206577,"lng":140.033084,"prefecture":5,"lines":[11204],"attr":"heat","postal_code":"016-0831","address":"秋田県能代市元町14-40","next":[1120403,1120240,1120404,1120411,1121508,1120239,1121507],"voronoi":{"lat":40.124198,"lng":139.82639,"delta_lat":[0,78074,32021,-3230,-20770,-42262,-70405],"delta_lng":[0,-137861,95674,204568,65794,-19406,-149402]},"impl":true},
    {"code":1120406,"id":"3ac0c5","name":"沢目","name_kana":"さわめ","lat":40.295929,"lng":140.037824,"prefecture":5,"lines":[11204],"attr":"heat","postal_code":"018-2501","address":"山本郡八峰町峰浜水沢","next":[1120410,1120405,1120241,1120407,1120242],"voronoi":{"lat":40.290786,"lng":140.124807,"delta_lat":[0,-9881,7184,11377,31265],"delta_lng":[0,-11273,-197062,20615,210822]},"impl":true},
    {"code":1120243,"left":1120241,"right":1120242,"id":"ef21d8","name":"二ツ井","name_kana":"ふたつい","lat":40.212506,"lng":140.235729,"prefecture":5,"lines":[11202],"attr":"cool","postal_code":"018-3143","address":"能代市二ツ井町太田面","next":[1120242,9920905,1120244,1120408,1120407,9920311,1120246,1120237],"voronoi":{"lat":40.096841,"lng":140.193958,"delta_lat":[0,324927,3901,36354,-8563,-13979,-266777,-100201],"delta_lng":[0,28070,2295,26508,13179,3328,7932,-54625]},"impl":true},
    {"code":1120241,"id":"a1957c","name":"鶴形","name_kana":"つるがた","lat":40.203879,"lng":140.118507,"prefecture":5,"lines":[11202],"attr":"cool","postal_code":"016-0131","address":"能代市字鶴形","next":[1120239,1120240,1120238,1120406,1120404,1120403,1120405,1120242],"voronoi":{"lat":40.290786,"lng":140.124807,"delta_lat":[0,-9881,-27963,-3425,-16334,-67984,-30108,-17044],"delta_lng":[0,-11273,-23157,-2033,-4482,15849,33967,36047]},"impl":true},
    {"code":1120242,"id":"2a3bc7","name":"富根","name_kana":"とみね","lat":40.217956,"lng":140.172643,"prefecture":5,"lines":[11202],"attr":"cool","postal_code":"018-3122","address":"能代市二ツ井町飛根","next":[1120243,1120238,1120406,1120407,1120237,1120241],"voronoi":{"lat":40.097233,"lng":140.193203,"delta_lat":[0,-392,324927,-91038,-39945,-172739],"delta_lng":[0,755,28070,-74120,-23102,44918]},"impl":true},
    {"code":1111905,"left":1111902,"right":1110132,"id":"211167","name":"宮越","name_kana":"みやこし","closed":true,"lat":41.762404,"lng":140.184998,"prefecture":1,"lines":[11119],"attr":"unknown","postal_code":"049-0564","address":"檜山郡上ノ国町字早瀬","open_date":"1964-12-30","closed_date":"2014-05-12","next":[1111907,1111906,1112612,1111901,1112606,1111904],"voronoi":{"lat":41.609241,"lng":140.085992,"delta_lat":[0,-1948,37905,12965,198981,-8341],"delta_lng":[0,7752,95891,4486,40989,-13787]},"impl":true},
    {"code":1111902,"left":1112611,"right":1011007,"id":"462359","name":"上ノ国","name_kana":"かみのくに","closed":true,"lat":41.805567,"lng":140.124106,"prefecture":1,"lines":[11119],"attr":"unknown","postal_code":"049-0611","address":"檜山郡上ノ国町字大留","open_date":"1936-11-10","closed_date":"2014-05-12","next":[1111901,1111903,1011010,1112612],"voronoi":{"lat":41.686959,"lng":138.966735,"delta_lat":[0,195189,-53555,-205796],"delta_lng":[0,477494,715924,-149790]},"impl":true},
    {"code":1112611,"left":1120427,"right":1111904,"id":"e05cbc","name":"及部","name_kana":"およべ","closed":true,"lat":41.430722,"lng":140.131917,"prefecture":1,"lines":[11126],"postal_code":"049-1521","address":"北海道松前郡松前町字上川６","open_date":"1957-01-25","closed_date":"1988-02-01","next":[1112610,1112606,1112612,1112607],"voronoi":{"lat":41.541334,"lng":140.154515,"delta_lat":[0,60036,-252174,159065],"delta_lng":[0,-56155,26390,44421]},"impl":false},
    {"code":1120427,"left":1120428,"right":1112612,"id":"b2f97f","name":"千畳敷","name_kana":"せんじょうじき","lat":40.767769,"lng":140.054832,"prefecture":2,"lines":[11204],"attr":"cool","postal_code":"038-2504","address":"西津軽郡深浦町大字北金ケ沢","next":[1120428,1120426,1112612,1120431,1120430,1111803],"voronoi":{"lat":41.099089,"lng":140.056795,"delta_lat":[0,10477,-382586,98266,226365,6780],"delta_lng":[0,-150167,152126,53199,13108,-306]},"impl":true},
    {"code":1120428,"left":1120426,"id":"acd8c3","name":"北金ヶ沢","name_kana":"きたかねがさわ","lat":40.745995,"lng":140.095052,"prefecture":2,"lines":[11204],"attr":"cool","postal_code":"038-2503","address":"青森県西津軽郡深浦町大字関字栃沢92","next":[1120427,1120430,1120426,1120425,1120429,1120423,1120424],"voronoi":{"lat":40.690488,"lng":140.051497,"delta_lat":[0,1841,34651,98266,-30323,-185120,31827],"delta_lng":[0,-259,7515,53199,7044,-35322,-15277]},"impl":true},
    {"code":1120426,"id":"b35125","name":"大戸瀬","name_kana":"おおどせ","lat":40.759325,"lng":140.033596,"prefecture":2,"lines":[11204],"attr":"cool","postal_code":"038-2505","address":"西津軽郡深浦町大字田野沢","next":[1120427,1112612,1120428,1120425],"voronoi":{"lat":41.125544,"lng":139.747924,"delta_lat":[0,-15978,-382586,-34651],"delta_lng":[0,158704,152126,-7515]},"impl":true},
    {"code":1112612,"id":"d8564a","name":"松前(北海道)","original_name":"松前","name_kana":"まつまえ","closed":true,"lat":41.427472,"lng":140.100861,"prefecture":1,"lines":[11126],"postal_code":"049-1505","address":"北海道松前郡松前町字博多１７４","open_date":"1953-11-08","closed_date":"1988-02-01","next":[1120427,1011011,1120419,1112610,1120426,1111903,1111904,1011010,1111905,1112606,1111803,1112611,1120425,1120420,1111902],"voronoi":{"lat":41.686959,"lng":138.966735,"delta_lat":[0,-79341,-90025,-336637,-11461,-43951,-15978,-10477,78575,171532,252174,5923,1948,11778,1778],"delta_lng":[0,-347413,-370042,1168131,43537,286976,158704,150167,54139,13817,-26390,-4617,-7752,-62426,-13203]},"impl":false},
    {"code":1111904,"left":1120430,"right":1111903,"id":"f5d7d2","name":"桂岡","name_kana":"かつらおか","closed":true,"lat":41.773096,"lng":140.166071,"prefecture":1,"lines":[11119],"attr":"unknown","postal_code":"049-0626","address":"檜山郡上ノ国町字桂岡","open_date":"1936-11-10","closed_date":"2014-05-12","next":[1111903,1112612,1111901,1111905],"voronoi":{"lat":41.609241,"lng":140.085992,"delta_lat":[0,11778,223514,4270],"delta_lng":[0,-62426,188393,9364]},"impl":true},
    {"code":1120430,"left":1112610,"id":"865d88","name":"陸奥赤石","name_kana":"むつあかいし","lat":40.76156,"lng":140.162057,"prefecture":2,"lines":[11204],"attr":"heat","postal_code":"038-2731","address":"西津軽郡鰺ヶ沢町赤石町","next":[1120428,1120429,1120427,1120431],"voronoi":{"lat":41.051611,"lng":140.125061,"delta_lat":[0,-226365,-30323,-216352],"delta_lng":[0,-13108,7044,116743]},"impl":true},
    {"code":1112610,"id":"5a529d","name":"渡島大沢","name_kana":"おしまおおさわ","closed":true,"lat":41.422639,"lng":140.160861,"prefecture":1,"lines":[11126],"postal_code":"049-1523","address":"北海道松前郡松前町字荒谷５４９−７","open_date":"1946-12-15","closed_date":"1988-02-01","next":[1112609,1112612,1112611,1111803,1112607],"voronoi":{"lat":41.315313,"lng":140.232636,"delta_lat":[0,-137649,171532,159065,-4255],"delta_lng":[0,-121702,13817,44421,2866]},"impl":false},
    {"code":1111903,"id":"4606c9","name":"中須田","name_kana":"なかすだ","closed":true,"lat":41.787214,"lng":140.149321,"prefecture":1,"lines":[11119],"attr":"unknown","postal_code":"049-0624","address":"檜山郡上ノ国町字中須田","closed_date":"2014-05-12","next":[1112612,1111904,1111902,1111901],"voronoi":{"lat":41.828594,"lng":140.160153,"delta_lat":[0,-205796,-1778,223514],"delta_lng":[0,-149790,13203,188393]},"impl":true},
    {"code":1011007,"left":1011009,"right":1011005,"id":"feb36b","name":"今金","name_kana":"いまがね","closed":true,"lat":42.427806,"lng":140.013944,"prefecture":1,"lines":[10110],"postal_code":"049-4308","address":"北海道瀬棚郡今金町字今金７４０−５","open_date":"1930-10-30","closed_date":"1987-03-16","next":[1011003,1011006,1011008,9911105,1011005,1011009],"voronoi":{"lat":42.64463,"lng":140.062254,"delta_lat":[0,-33951,-16494,-301206,218750,180913],"delta_lng":[0,7944,-964,-48088,-44193,4320]},"impl":false},
    {"code":1011009,"left":1011008,"right":1011011,"id":"b7717c","name":"丹羽","name_kana":"にわ","closed":true,"lat":42.429667,"lng":139.936,"prefecture":1,"lines":[10110],"postal_code":"049-4433","address":"北海道久遠郡せたな町北檜山区丹羽３８−１","open_date":"1932-11-01","closed_date":"1987-03-16","next":[9911105,1011011,1011008,1011007,1011010],"voronoi":{"lat":42.452546,"lng":139.897287,"delta_lat":[0,261146,-21049,-180913,-184526],"delta_lng":[0,58050,25936,-4320,-45093]},"impl":false},
    {"code":1011008,"left":1011010,"id":"39bc59","name":"神丘","name_kana":"かみおか","closed":true,"lat":42.420028,"lng":139.975444,"prefecture":1,"lines":[10110],"postal_code":"049-4327","address":"北海道瀬棚郡今金町字神丘３６７−２","open_date":"1961-04-01","closed_date":"1987-03-16","next":[1110131,1011006,1011007,1011010,1011009,1111901],"voronoi":{"lat":42.148957,"lng":140.019369,"delta_lat":[0,144023,218750,-184526,-217152,16128],"delta_lng":[0,1778,-44193,-45093,15191,59576]},"impl":false},
    {"code":1011010,"id":"2db5a3","name":"北檜山","name_kana":"きたひやま","closed":true,"lat":42.413056,"lng":139.875778,"prefecture":1,"lines":[10110],"postal_code":"049-4501","address":"北海道久遠郡せたな町北檜山区北檜山４５１−２","open_date":"1932-11-01","closed_date":"1987-03-16","next":[1111901,1112612,1011008,1111902,1011011,1011009],"voronoi":{"lat":42.452546,"lng":139.897287,"delta_lat":[0,-844927,79341,195189,227903,217152],"delta_lng":[0,-1277966,347413,477494,502823,-15191]},"impl":false},
    {"code":1011011,"id":"3cdc56","name":"瀬棚","name_kana":"せたな","closed":true,"lat":42.448222,"lng":139.852528,"prefecture":1,"lines":[10110],"postal_code":"049-4816","address":"北海道久遠郡せたな町瀬棚区本町７９２−２","open_date":"1932-11-01","closed_date":"1987-03-16","next":[9941807,1111553,1011009,1112612,1120419,9911105,9970213,9970305,1170223,1170516,1111551,1011010],"voronoi":{"lat":42.713692,"lng":139.955338,"delta_lat":[0,3856493,1007506,10846779,-1554263,-10261298,-2255727,-790692,-2063736,18840,90025,844927],"delta_lng":[0,-3509060,-1612779,-17649842,1412518,10103733,2260229,823305,3654465,2811373,370042,1277966]},"impl":false},
    {"code":1011005,"left":1111901,"right":1011004,"id":"98ff7c","name":"北住吉","name_kana":"きたすみよし","closed":true,"lat":42.4225,"lng":140.104778,"prefecture":1,"lines":[10110],"postal_code":"049-4156","address":"北海道瀬棚郡今金町字住吉","open_date":"1956-12-25","closed_date":"1987-03-16","next":[1110133,1110132,1011003,1011006,1011007,1011004],"voronoi":{"lat":42.594151,"lng":140.078593,"delta_lat":[0,16528,-16494,-338532,56176,25470],"delta_lng":[0,-8394,-964,35394,49023,16177]},"impl":false},
    {"code":1111901,"left":1011006,"id":"17cdf2","name":"江差","name_kana":"えさし","closed":true,"lat":41.856727,"lng":140.127933,"prefecture":1,"lines":[11119],"attr":"unknown","postal_code":"043-0056","address":"檜山郡江差町字陣屋町","open_date":"1936-11-10","closed_date":"2014-05-12","next":[1110131,1111902,1011010,1110130,1111904,1110126,1110128,1111906,1011008,1111905,1111903],"voronoi":{"lat":41.828594,"lng":140.160153,"delta_lat":[0,53555,227903,16128,-77865,-34136,-45311,-1795,-109928,-8341,-4270],"delta_lng":[0,-715924,502823,59576,212407,64342,51202,1580,-101049,-13787,-9364]},"impl":true},
    {"code":1011006,"id":"6bb918","name":"種川","name_kana":"たねかわ","closed":true,"lat":42.418861,"lng":140.069972,"prefecture":1,"lines":[10110],"postal_code":"049-4324","address":"北海道瀬棚郡今金町字種川２８６","open_date":"1930-10-30","closed_date":"1987-03-16","next":[1110132,1011008,1011007,1011005,1110131],"voronoi":{"lat":42.255653,"lng":140.104629,"delta_lat":[0,338532,-301206,-144023,92721],"delta_lng":[0,-35394,-48088,-1778,75442]},"impl":false},
    {"code":1011004,"id":"77cd1f","name":"花石","name_kana":"はないし","closed":true,"lat":42.444444,"lng":140.166556,"prefecture":1,"lines":[10110],"postal_code":"049-4153","address":"北海道瀬棚郡今金町字花石３８５","open_date":"1929-12-13","closed_date":"1987-03-16","next":[1110134,1011003,1110133,1011005],"voronoi":{"lat":42.362135,"lng":140.199668,"delta_lat":[0,42039,189977,-256852],"delta_lng":[0,26322,-147397,91236]},"impl":false},
    {"code":1110132,"left":1112607,"right":1110133,"id":"5e7ea0","name":"鷲ノ巣","name_kana":"わしのす","closed":true,"lat":42.278389,"lng":140.269919,"prefecture":1,"lines":[11101],"attr":"unknown","postal_code":"049-3122","address":"二海郡八雲町花浦","open_date":"1987-04-01","closed_date":"2016-03-26","next":[1011005,1110131,1011006,1110130,1110133],"voronoi":{"lat":42.271436,"lng":140.312132,"delta_lat":[0,-29758,13976,56176,-22403],"delta_lng":[0,-217322,9818,49023,173470]},"impl":true},
    {"code":1112607,"left":1112608,"right":1111907,"id":"081f9b","name":"渡島福島","name_kana":"おしまふくしま","closed":true,"lat":41.483778,"lng":140.251639,"prefecture":1,"lines":[11126],"postal_code":"049-1312","address":"北海道松前郡福島町字福島８２０","open_date":"1942-11-01","closed_date":"1988-02-01","next":[1112604,1112606,1111803,1112610,1112603,1111805,1112611,1112608,1112609],"voronoi":{"lat":41.504006,"lng":140.172038,"delta_lat":[0,4255,33073,-39843,-18512,-23150,-36571,-2960,71323],"delta_lng":[0,-2866,-14656,196435,26072,21026,25844,-6962,-223796]},"impl":false},
    {"code":1112608,"left":1112609,"right":1111906,"id":"9b8afd","name":"白符","name_kana":"しらふ","closed":true,"lat":41.464167,"lng":140.245389,"prefecture":1,"lines":[11126],"postal_code":"049-1301","address":"北海道松前郡福島町字白符６１１","open_date":"1957-01-25","closed_date":"1988-02-01","next":[1111803,1112609,1112607],"voronoi":{"lat":41.491622,"lng":140.193134,"delta_lat":[0,-115251,43928],"delta_lng":[0,135157,88639]},"impl":false},
    {"code":1112609,"left":1120431,"id":"fc6a7e","name":"渡島吉岡","name_kana":"おしまよしおか","closed":true,"lat":41.444361,"lng":140.2285,"prefecture":1,"lines":[11126],"postal_code":"049-1453","address":"北海道松前郡字吉岡福島町","open_date":"1942-11-01","closed_date":"1988-02-01","next":[1112610,1111803,1112608,1112607],"voronoi":{"lat":41.504006,"lng":140.172038,"delta_lat":[0,-188693,61057,115251],"delta_lng":[0,60598,95656,-135157]},"impl":false},
    {"code":1120431,"id":"9f2df5","name":"鰺ヶ沢","name_kana":"あじがさわ","lat":40.775255,"lng":140.220589,"prefecture":2,"lines":[11204],"attr":"heat","postal_code":"038-2761","address":"青森県西津軽郡鰺ヶ沢町大字舞戸町字下富田36-2","next":[1120429,1111803,1120432,1120427,9920112,9920313,1120430],"voronoi":{"lat":40.550195,"lng":140.245837,"delta_lat":[0,36190,424222,32719,15066,-6780,-473040],"delta_lng":[0,26625,-62549,-28142,-57017,306,110679]},"impl":true},
    {"code":1111906,"id":"f3550a","name":"湯ノ岱","name_kana":"ゆのたい","closed":true,"lat":41.750312,"lng":140.243698,"prefecture":1,"lines":[11119],"attr":"unknown","postal_code":"049-0562","address":"檜山郡上ノ国町字湯ノ岱","open_date":"1935-12-10","closed_date":"2014-05-12","next":[1111907,1111905,1110125,1111901,1110126],"voronoi":{"lat":41.967073,"lng":140.336159,"delta_lat":[0,-109928,-198981,273854,24232],"delta_lng":[0,-101049,-40989,196964,-35515]},"impl":true},
    {"code":1111907,"left":1120432,"right":1110131,"id":"46bf22","name":"神明(北海道)","original_name":"神明","name_kana":"しんめい","closed":true,"lat":41.734481,"lng":140.265709,"prefecture":1,"lines":[11119],"attr":"unknown","postal_code":"049-0561","address":"檜山郡上ノ国町字神明","open_date":"1957-01-25","closed_date":"2014-05-12","next":[1111905,1111906,1110107,1110125,1111911,1112605,1112606,1111908],"voronoi":{"lat":41.673523,"lng":140.30659,"delta_lat":[0,-28127,-198,12965,273854,-5776,-3732,-53687],"delta_lng":[0,-65118,-51837,4486,196964,9618,1975,-9340]},"impl":true},
    {"code":1120432,"left":1112606,"id":"eec91d","name":"鳴沢","name_kana":"なるさわ","lat":40.782189,"lng":140.267617,"prefecture":2,"lines":[11204],"attr":"heat","postal_code":"038-2701","address":"西津軽郡鰺ヶ沢町北浮田町","next":[1120431,9920110,9920112,1120434,1120433,9920313],"voronoi":{"lat":40.665624,"lng":140.30259,"delta_lat":[0,302289,13945,28749,-424222,31639],"delta_lng":[0,-49412,-12982,-30283,62549,29827]},"impl":true},
    {"code":1112606,"id":"b54df8","name":"千軒","name_kana":"せんげん","closed":true,"lat":41.5565,"lng":140.266389,"prefecture":1,"lines":[11126],"postal_code":"049-1332","address":"北海道松前郡福島町字千軒","open_date":"1938-10-21","closed_date":"1988-02-01","next":[1111805,1112607,1112605,1111907,1112612,1112611,1111905],"voronoi":{"lat":41.645397,"lng":140.241471,"delta_lat":[0,-103362,-40543,39843,60036,5923,37905],"delta_lng":[0,83106,26373,-196435,-56155,-4617,95891]},"impl":false},
    {"code":1110131,"id":"ec2998","name":"八雲","name_kana":"やくも","lat":42.253391,"lng":140.273342,"prefecture":1,"lines":[11101],"attr":"eco","postal_code":"049-3107","address":"二海郡八雲町本町","next":[1011008,1111901,1110132,1110130,1011006],"voronoi":{"lat":42.271436,"lng":140.312132,"delta_lat":[0,-223121,77865,22777,92721],"delta_lng":[0,-93098,-212407,12741,75442]},"impl":true},
    {"code":1110133,"left":9911104,"right":9911102,"id":"6e0de2","name":"山崎(北海道)","original_name":"山崎","name_kana":"やまさき","lat":42.314635,"lng":140.2746,"prefecture":1,"lines":[11101],"attr":"eco","postal_code":"049-3342","address":"二海郡八雲町山崎","next":[1011005,1011004,1110130,1110134,1110132],"voronoi":{"lat":42.31183,"lng":140.153651,"delta_lat":[0,25470,24836,-43925,-28784],"delta_lng":[0,16177,29839,173659,-46205]},"impl":true},
    {"code":9911104,"left":1011002,"right":9911105,"id":"16a803","name":"樽岸","name_kana":"たるきし","closed":true,"lat":42.766306,"lng":140.248222,"prefecture":1,"lines":[99111],"postal_code":"048-0413","address":"北海道寿都郡寿都町字樽岸町樽岸１４４","open_date":"1920-10-24","closed_date":"1972-05-11","next":[1011003,9911102,9911105,9911103],"voronoi":{"lat":42.644544,"lng":140.063257,"delta_lat":[0,-8321,84112,102558],"delta_lng":[0,52746,131352,49256]},"impl":false},
    {"code":1011002,"left":1011003,"id":"6cfae2","name":"茶屋川","name_kana":"ちゃやがわ","closed":true,"lat":42.461417,"lng":140.272667,"prefecture":1,"lines":[10110],"postal_code":"049-3465","address":"北海道山越郡長万部町字茶屋川５４","open_date":"1929-12-13","closed_date":"1987-03-16","next":[1110137,1110136,1011003,1110135,1110202],"voronoi":{"lat":42.47516,"lng":140.308138,"delta_lat":[0,-42564,-25023,131665,-21344],"delta_lng":[0,-19507,-60020,19184,50732]},"impl":false},
    {"code":1011003,"id":"91582a","name":"美利河","name_kana":"ぴりか","closed":true,"lat":42.47175,"lng":140.20175,"prefecture":1,"lines":[10110],"postal_code":"049-4151","address":"北海道瀬棚郡今金町字美利河１９６−１","open_date":"1929-12-13","closed_date":"1987-03-16","next":[1011007,1011002,1011005,9911104,1110202,1110134,1011004,1110135,1110203,9911105,9911102],"voronoi":{"lat":42.636222,"lng":140.116003,"delta_lat":[0,8321,87,-33951,-16528,-189977,257,3141,131665,45710,34483],"delta_lng":[0,-52746,-1002,7944,8394,147397,308,2313,19184,-39970,-47769]},"impl":false},
    {"code":9911105,"id":"e6c3e1","name":"寿都","name_kana":"すっつ","closed":true,"lat":42.791056,"lng":140.229306,"prefecture":1,"lines":[99111],"postal_code":"048-0406","address":"北海道寿都郡寿都町字渡島町１４０","open_date":"1920-10-24","closed_date":"1972-05-11","next":[1011009,1111551,1010306,1011007,1011011,9911103,9911104,1011003],"voronoi":{"lat":42.822892,"lng":140.296611,"delta_lat":[0,82636,2355788,1308868,-3856493,-21049,-48012,-87],"delta_lng":[0,63935,-1578353,-2335915,3509060,25936,80981,1002]},"impl":false},
    {"code":9911102,"left":1110134,"right":9911103,"id":"41a9fa","name":"中の川","name_kana":"なかのがわ","closed":true,"lat":42.701889,"lng":140.289472,"prefecture":1,"lines":[99111],"postal_code":"048-0123","address":"北海道寿都郡黒松内町字中ノ川２３−２","open_date":"1920-10-24","closed_date":"1972-05-11","next":[1110205,1110204,9911103,9911104,1110203,1011003],"voronoi":{"lat":42.624237,"lng":140.175258,"delta_lat":[0,81582,28521,-14005,-84112,-16792],"delta_lng":[0,162244,8740,-98888,-131352,44053]},"impl":false},
    {"code":1110134,"id":"1478f7","name":"黒岩","name_kana":"くろいわ","lat":42.368296,"lng":140.288173,"prefecture":1,"lines":[11101],"attr":"eco","postal_code":"049-3341","address":"二海郡八雲町黒岩","next":[1110130,1011003,1011004,1110135,1110133,1110129],"voronoi":{"lat":42.404431,"lng":140.226297,"delta_lat":[0,-257,-42039,-43925,1450,26202],"delta_lng":[0,-308,-26322,173659,5176,45177]},"impl":true},
    {"code":9911103,"id":"c0276f","name":"湯別","name_kana":"ゆべつ","closed":true,"lat":42.74975,"lng":140.282694,"prefecture":1,"lines":[99111],"postal_code":"048-0414","address":"北海道寿都郡寿都町字湯別町上湯別１０３","open_date":"1920-10-24","closed_date":"1972-05-11","next":[9911102,1110205,1010306,9911105,9911104,1110206],"voronoi":{"lat":42.901144,"lng":140.364929,"delta_lat":[0,4384,-82636,-102558,14005,33877],"delta_lng":[0,-4383,-63935,-49256,98888,27170]},"impl":false},
    {"code":9920101,"left":9920909,"right":9920110,"id":"127657","name":"津軽五所川原","name_kana":"つがるごしょがわら","lat":40.809684,"lng":140.448489,"prefecture":2,"lines":[99201],"attr":"eco","postal_code":"037-0063","address":"五所川原市字大町７-５","next":[1120438,9920103,1120437,1120436,9920102],"voronoi":{"lat":40.858123,"lng":140.411959,"delta_lat":[0,-1938,-80769,-1271,18008],"delta_lng":[0,230,62045,5018,-6820]},"impl":true},
    {"code":9920909,"left":9920904,"right":9920202,"id":"7a79c8","name":"阿仁前田","name_kana":"あにまえだ","lat":40.061322,"lng":140.417731,"prefecture":5,"lines":[99209,10207],"attr":"eco","postal_code":"018-4513","address":"北秋田市小又","open_date":"1935-11-15","next":[1121224,9920911,9920912,1121225,9920919,9920908,9920910],"voronoi":{"lat":40.081556,"lng":140.392259,"delta_lat":[0,-526,-767,-14669,-56892,9236,23050],"delta_lng":[0,172561,832,9813,-82268,-34533,-38282]},"impl":true},
    {"code":9920904,"left":9920912,"right":9920902,"id":"b64929","name":"大野台","name_kana":"おおのだい","lat":40.186975,"lng":140.340777,"prefecture":5,"lines":[99209,10207],"attr":"eco","postal_code":"018-4231","address":"北秋田市上杉","open_date":"1965-04-20","next":[9920903,9920905,1120244,9920906],"voronoi":{"lat":40.167887,"lng":140.350392,"delta_lat":[0,16410,19131,-27486],"delta_lng":[0,-40053,18734,58689]},"impl":true},
    {"code":9920912,"left":9920906,"right":9920913,"id":"8ab524","name":"阿仁合","name_kana":"あにあい","lat":40.000782,"lng":140.401538,"prefecture":5,"lines":[99209,10207],"attr":"eco","postal_code":"018-4613","address":"北秋田市阿仁銀山","open_date":"1936-09-25","next":[9920919,9922704,9920909,9920911,9920913,9920914],"voronoi":{"lat":40.008701,"lng":140.493196,"delta_lat":[0,9236,-2316,-31831,9238,7448],"delta_lng":[0,-34533,-207983,6309,201675,28682]},"impl":true},
    {"code":9920906,"left":9920911,"right":9920905,"id":"3bf4a7","name":"上杉","name_kana":"かみすぎ","lat":40.146533,"lng":140.349495,"prefecture":5,"lines":[99209,10207],"attr":"eco","postal_code":"018-4231","address":"北秋田市上杉","open_date":"1965-11-21","next":[9920910,9920907,9920905,9920904,9920903,9920911],"voronoi":{"lat":40.056737,"lng":140.299846,"delta_lat":[0,119221,-16,-8055,-135810,17644],"delta_lng":[0,91143,-3227,-37370,-101786,38487]},"impl":true},
    {"code":9920911,"left":9920907,"id":"d37f3b","name":"小渕","name_kana":"こぶち","lat":40.033817,"lng":140.40117,"prefecture":5,"lines":[99209,10207],"attr":"eco","postal_code":"018-4602","address":"北秋田市阿仁小渕","open_date":"1936-09-25","next":[9920909,9922704,9920905,9920912,9920910,9920906],"voronoi":{"lat":40.040988,"lng":140.420382,"delta_lat":[0,-23050,-2316,14981,1475,17644],"delta_lng":[0,38282,-207983,-4714,2640,38487]},"impl":true},
    {"code":9920907,"id":"e68df1","name":"米内沢","name_kana":"よないざわ","lat":40.128199,"lng":140.373477,"prefecture":5,"lines":[99209,10207],"attr":"eco","postal_code":"018-4301","address":"北秋田市米内沢","open_date":"1934-12-10","next":[9920906,1120246,9920910,9920903,9920908,1120245],"voronoi":{"lat":40.179949,"lng":140.434595,"delta_lat":[0,-94117,-29095,119221,5461,566],"delta_lng":[0,-56340,-78409,91143,17274,16053]},"impl":true},
    {"code":9920905,"id":"383db2","name":"合川","name_kana":"あいかわ","lat":40.161033,"lng":140.330148,"prefecture":5,"lines":[99209,10207],"attr":"eco","postal_code":"018-4221","address":"北秋田市下杉","open_date":"1934-12-10","next":[1120243,1120244,1120237,9922704,9920911,9920904,9920906],"voronoi":{"lat":40.032077,"lng":140.248607,"delta_lat":[0,-1475,10289,31612,100201,11593,-16410],"delta_lng":[0,-2640,-10454,-14867,54625,35069,40053]},"impl":true},
    {"code":9920913,"left":9920915,"right":9920910,"id":"3069c8","name":"荒瀬","name_kana":"あらせ","lat":39.980085,"lng":140.402486,"prefecture":5,"lines":[99209,10207],"attr":"eco","postal_code":"018-4621","address":"北秋田市阿仁荒瀬","open_date":"1963-10-15","next":[9920914,9920915,9922704,9920912],"voronoi":{"lat":39.983791,"lng":140.25699,"delta_lat":[0,-59928,21627,47539],"delta_lng":[0,7496,91805,102374]},"impl":true},
    {"code":9920915,"left":9920914,"id":"bfa46b","name":"笑内","name_kana":"おかしない","lat":39.935151,"lng":140.413071,"prefecture":5,"lines":[99209,10207],"attr":"eco","postal_code":"018-4743","address":"北秋田市阿仁笑内","open_date":"1963-10-15","next":[1120225,9920916,9920913,9920914,9922704],"voronoi":{"lat":39.841011,"lng":140.261909,"delta_lat":[0,-33110,139469,-1880,-21627],"delta_lng":[0,64743,110374,-80736,-91805]},"impl":true},
    {"code":9920914,"id":"6aad41","name":"萱草","name_kana":"かやくさ","lat":39.95846,"lng":140.412528,"prefecture":5,"lines":[99209,10207],"attr":"eco","postal_code":"018-4745","address":"北秋田市阿仁萱草","open_date":"1963-10-15","next":[9920913,9920919,9920915,9920918,9920912,9920916],"voronoi":{"lat":39.94737,"lng":140.437026,"delta_lat":[0,-1880,47539,7448,-15272,-22957],"delta_lng":[0,-80736,102374,28682,-5759,-13994]},"impl":true},
    {"code":9920910,"id":"a553fc","name":"前田南","name_kana":"まえだみなみ","lat":40.050604,"lng":140.40227,"prefecture":5,"lines":[99209,10207],"attr":"eco","postal_code":"018-4514","address":"北秋田市五味堀","open_date":"1963-12-10","next":[9920906,9920907,9920911,9920908,9920909],"voronoi":{"lat":40.049722,"lng":140.287094,"delta_lat":[0,7016,29095,-4277,-40568],"delta_lng":[0,12753,78409,14003,28123]},"impl":true},
    {"code":9920902,"left":1120434,"right":1120435,"id":"6023db","name":"西鷹巣","name_kana":"にしたかのす","lat":40.224615,"lng":140.357918,"prefecture":5,"lines":[99209],"attr":"eco","postal_code":"018-3331","address":"北秋田市鷹巣","open_date":"1989-04-01","next":[9920903,1120245,1120244],"voronoi":{"lat":40.203266,"lng":140.379553,"delta_lat":[0,99701,-79661],"delta_lng":[0,-62378,17195]},"impl":true},
    {"code":1120434,"left":9920903,"right":1120433,"id":"c3f0ce","name":"陸奥森田","name_kana":"むつもりた","lat":40.781738,"lng":140.339033,"prefecture":2,"lines":[11204],"attr":"heat","postal_code":"038-2817","address":"つがる市森田町床舞","next":[1120439,1120440,1120433,1120436,1120432,9920313,1120435],"voronoi":{"lat":40.857911,"lng":140.3354,"delta_lat":[0,11632,-203920,-47600,18802,8815,68376],"delta_lng":[0,-4950,-27859,-301,27459,6067,31705]},"impl":true},
    {"code":9920903,"left":1120244,"id":"1b8f2d","name":"縄文小ヶ田","name_kana":"じょうもんおがた","lat":40.204973,"lng":140.349206,"prefecture":5,"lines":[99209,10207],"attr":"eco","postal_code":"018-3454","address":"秋田県北秋田市脇神字小ヶ田","open_date":"1963-12-10","next":[9920904,1120245,9920902,9920907,1120244,9920906],"voronoi":{"lat":40.18142,"lng":140.408264,"delta_lat":[0,21847,20040,-19878,-27486,16],"delta_lng":[0,-28711,-45183,-5296,58689,3227]},"impl":true},
    {"code":1120244,"id":"f534d7","name":"前山","name_kana":"まえやま","lat":40.214785,"lng":140.312378,"prefecture":5,"lines":[11202],"attr":"cool","postal_code":"018-3342","address":"北秋田市前山","next":[9920905,1120246,1120243,9920904,9920903,9920902,1120245],"voronoi":{"lat":40.368775,"lng":140.297383,"delta_lat":[0,70707,-266777,11593,19131,19878,79661],"delta_lng":[0,-30045,7932,35069,18734,5296,-17195]},"impl":true},
    {"code":1120433,"id":"9a6550","name":"越水","name_kana":"こしみず","lat":40.787258,"lng":140.298628,"prefecture":2,"lines":[11204],"attr":"heat","postal_code":"038-2818","address":"つがる市森田町大館","next":[1120434,9920110,1120432,1120436],"voronoi":{"lat":40.903006,"lng":140.324735,"delta_lat":[0,64906,-302289,203920],"delta_lng":[0,-71556,49412,27859]},"impl":true},
    {"code":1120435,"left":1120246,"right":1120436,"id":"25bbe9","name":"中田(青森)","original_name":"中田","name_kana":"なかた","lat":40.787424,"lng":140.364505,"prefecture":2,"lines":[11204],"attr":"heat","postal_code":"038-2814","address":"つがる市森田町中田","next":[1120439,1120438,1120436,1120434],"voronoi":{"lat":40.741382,"lng":140.386759,"delta_lat":[0,22489,94041,-143895],"delta_lng":[0,9495,-60854,32121]},"impl":true},
    {"code":1120246,"left":1120245,"id":"6b63bc","name":"糠沢","name_kana":"ぬかざわ","lat":40.251094,"lng":140.397827,"prefecture":5,"lines":[11202],"attr":"cool","postal_code":"018-3301","address":"北秋田市綴子","next":[1120244,9920907,9920310,1120247,9920908,9920311,1120245,1120243],"voronoi":{"lat":40.368775,"lng":140.297383,"delta_lat":[0,-186789,-2036,2685,248922,11487,10417,-13979],"delta_lng":[0,126933,10279,20042,-101185,-44064,-45378,3328]},"impl":true},
    {"code":1120245,"id":"c8613d","name":"鷹ノ巣(鷹巣)","name_kana":"たかのす","lat":40.232059,"lng":140.369816,"prefecture":5,"lines":[11202,99209,10207],"attr":"cool","postal_code":"018-3321","address":"北秋田市松葉町","next":[9920903,1120246,9920907,9920902,1120244],"voronoi":{"lat":40.203266,"lng":140.379553,"delta_lat":[0,-21847,566,186789,-65807],"delta_lng":[0,28711,16053,-126933,19791]},"impl":true},
    {"code":1120436,"id":"bc03d3","name":"木造","name_kana":"きづくり","lat":40.802482,"lng":140.387775,"prefecture":2,"lines":[11204],"attr":"eco","postal_code":"038-3158","address":"つがる市木造房松","next":[9920102,1120438,1120434,9920106,1120435,9920108,9920109,9920110,9920101,1120433,1120437],"voronoi":{"lat":40.76387,"lng":140.396254,"delta_lat":[0,94041,11632,33463,-9799,-12478,-15117,-6380,-1110,-1938,-67563],"delta_lng":[0,-60854,-4950,-5715,27204,27649,25982,6148,241,230,7481]},"impl":true},
    {"code":9920202,"left":9920311,"right":9920313,"id":"a9df15","name":"弘前東高前","name_kana":"ひろさきひがしこうまえ","lat":40.592301,"lng":140.488529,"prefecture":2,"lines":[99202],"attr":"eco","postal_code":"036-8103","address":"弘前市大字川先４-１１-１","next":[9920313,9920314,9920309,1120257,9920312,9920203,9920310,9920311],"voronoi":{"lat":40.583599,"lng":140.481708,"delta_lat":[0,6846,343,1512,8877,-23252,242,1250],"delta_lng":[0,-3424,13,634,18755,-4496,-3721,-3775]},"impl":true},
    {"code":9920311,"left":1120247,"right":9920309,"id":"5493fe","name":"聖愛中高前","name_kana":"せいあいちゅうこうまえ","lat":40.577202,"lng":140.47269,"prefecture":2,"lines":[99203],"attr":"cool","postal_code":"036-8155","address":"青森県弘前市大字中野3-5-11","next":[9920312,9920310,1120243,1120246,1120408,9920202],"voronoi":{"lat":40.443043,"lng":140.309389,"delta_lat":[0,10417,8563,39387,82189,-4182],"delta_lng":[0,-45378,-13179,-17827,248704,3986]},"impl":true},
    {"code":1120247,"left":9920916,"right":9920312,"id":"0e03fd","name":"早口","name_kana":"はやぐち","lat":40.271315,"lng":140.447572,"prefecture":5,"lines":[11202],"attr":"cool","postal_code":"018-3505","address":"大館市早口","next":[1120248,9920310,9920309,9922903,1120246,9920908],"voronoi":{"lat":40.182635,"lng":140.454638,"delta_lat":[0,248922,-6816,-2331,-59086,-185493],"delta_lng":[0,-101185,61692,17451,30214,19260]},"impl":true},
    {"code":9920916,"left":9920908,"id":"f93e17","name":"岩野目","name_kana":"いわのめ","lat":39.921248,"lng":140.430639,"prefecture":5,"lines":[99209,10207],"attr":"eco","postal_code":"018-4742","address":"北秋田市阿仁幸屋渡","open_date":"1963-10-15","next":[9920918,9920915,1120225,9920917,9920914],"voronoi":{"lat":39.94737,"lng":140.437026,"delta_lat":[0,-139469,-15799,152405,17741],"delta_lng":[0,-110374,26025,111997,2919]},"impl":true},
    {"code":9920908,"id":"2872e1","name":"桂瀬","name_kana":"かつらせ","lat":40.101634,"lng":140.417854,"prefecture":5,"lines":[99209,10207],"attr":"eco","postal_code":"018-4516","address":"北秋田市桂瀬","open_date":"1935-11-15","next":[1121225,1120246,9920909,1120248,9920907,1120247,9920910],"voronoi":{"lat":40.085832,"lng":140.378255,"delta_lat":[0,94117,2685,-4804,-2056,-94745,526],"delta_lng":[0,56340,20042,27432,4560,78190,-172561]},"impl":true},
    {"code":9920312,"id":"0ba85d","name":"弘前学院大前","name_kana":"ひろさきがくいんだいまえ","lat":40.583363,"lng":140.470654,"prefecture":2,"lines":[99203],"attr":"eco","postal_code":"036-8155","address":"青森県弘前市大字中野1-13-1","next":[9920313,9920311,9920202,1120408,1120429],"voronoi":{"lat":40.590445,"lng":140.478285,"delta_lat":[0,-6846,-82189,9492,18924],"delta_lng":[0,3424,-248704,-4445,8567]},"impl":true},
    {"code":9920309,"left":9920308,"right":9920310,"id":"b72b66","name":"小栗山","name_kana":"こぐりやま","lat":40.564276,"lng":140.486704,"prefecture":2,"lines":[99203],"attr":"cool","postal_code":"036-8127","address":"弘前市大字小栗山字川合２１","next":[9920202,1120247,9920310,9922903,9920203,9920308],"voronoi":{"lat":40.425313,"lng":140.444402,"delta_lat":[0,-2903,2331,153427,-242,-2128],"delta_lng":[0,-11806,-17451,74325,3721,3323]},"impl":true},
    {"code":9920308,"left":1120248,"id":"c312be","name":"松木平","name_kana":"まつきたい","lat":40.560677,"lng":140.497097,"prefecture":2,"lines":[99203],"attr":"cool","postal_code":"036-8127","address":"弘前市大字小栗山字長田３１-３","next":[9920203,9922903,9920302,9920309,9920307],"voronoi":{"lat":40.49093,"lng":140.496785,"delta_lat":[0,-62375,-3243,150485,-2460],"delta_lng":[0,-36648,-15735,52112,12281]},"impl":true},
    {"code":1120248,"id":"1e9b4c","name":"下川沿","name_kana":"しもかわぞい","lat":40.276408,"lng":140.496625,"prefecture":5,"lines":[11202],"attr":"cool","postal_code":"017-0878","address":"大館市川口","next":[1120247,1121226,1121225,1120249,9920908,9922903,9922902],"voronoi":{"lat":40.303351,"lng":140.517601,"delta_lat":[0,59972,-185493,-2056,49608,53220,13373],"delta_lng":[0,-54792,19260,4560,30853,9526,-2641]},"impl":true},
    {"code":9920310,"id":"8a6e65","name":"千年","name_kana":"ちとせ","lat":40.567387,"lng":140.480282,"prefecture":2,"lines":[99203],"attr":"cool","postal_code":"036-8142","address":"弘前市大字松原西３-３-８","next":[1120247,9920311,1120246,9920309,9920202],"voronoi":{"lat":40.579417,"lng":140.485694,"delta_lat":[0,-136374,-11487,-6816,153427],"delta_lng":[0,-176306,44064,61692,74325]},"impl":true},
    {"code":9920313,"left":1120438,"right":1120257,"id":"4740d0","name":"弘高下","name_kana":"ひろこうした","lat":40.593078,"lng":140.468212,"prefecture":2,"lines":[99203],"attr":"eco","postal_code":"036-8222","address":"弘前市大字桜林町９-７","next":[9920312,1120429,9920202,9920314,1120434,1120432,1120440,1120431],"voronoi":{"lat":40.550195,"lng":140.245837,"delta_lat":[0,-20368,60619,343,50469,-4432,-18802,-31639],"delta_lng":[0,-8711,241158,13,-76709,-71840,-27459,-29827]},"impl":true},
    {"code":1120438,"left":1120440,"right":1120437,"id":"ca724d","name":"陸奥鶴田","name_kana":"むつつるだ","lat":40.757544,"lng":140.435276,"prefecture":2,"lines":[11204],"attr":"eco","postal_code":"038-3503","address":"北津軽郡鶴田町大字鶴田","next":[9920101,1120436,1120439,1120435,1120437,9920103],"voronoi":{"lat":40.741382,"lng":140.386759,"delta_lat":[0,22489,24751,-13206,-1271,-19588],"delta_lng":[0,9495,23416,54564,5018,28655]},"impl":true},
    {"code":1120440,"left":1120439,"id":"7b0efb","name":"板柳","name_kana":"いたやなぎ","lat":40.69726,"lng":140.461785,"prefecture":2,"lines":[11204],"attr":"eco","postal_code":"038-3661","address":"北津軽郡板柳町大字福野田","next":[1120260,1120434,9920314,9920103,1120262,1120261,9920313,1120441,1120439],"voronoi":{"lat":40.64564,"lng":140.335815,"delta_lat":[0,-8815,4432,2001,81150,6994,12367,9677,400],"delta_lng":[0,-6067,71840,18850,95487,2285,-1347,-4569,-2920]},"impl":true},
    {"code":1120439,"id":"83d731","name":"鶴泊","name_kana":"つるどまり","lat":40.736026,"lng":140.437616,"prefecture":2,"lines":[11204],"attr":"eco","postal_code":"038-3522","address":"北津軽郡鶴田町大字鶴泊","next":[1120434,1120435,1120438,9920103,1120440],"voronoi":{"lat":40.64564,"lng":140.335815,"delta_lat":[0,68376,27365,13175,-710],"delta_lng":[0,31705,19238,121148,1468]},"impl":true},
    {"code":1120437,"id":"504892","name":"五所川原","name_kana":"ごしょがわら","lat":40.809124,"lng":140.44776,"prefecture":2,"lines":[11204],"attr":"eco","postal_code":"037-0063","address":"五所川原市字大町","next":[9920101,1120438,1120436],"voronoi":{"lat":40.856184,"lng":140.412189,"delta_lat":[0,-80769,13206],"delta_lng":[0,62045,-54564]},"impl":true},
    {"code":1120257,"left":9920314,"right":1120441,"id":"e0e87e","name":"弘前","name_kana":"ひろさき","lat":40.599723,"lng":140.485016,"prefecture":2,"lines":[11202,99202],"attr":"eco","postal_code":"036-8096","address":"弘前市表町","next":[9920202,9920203,1120258,9920314],"voronoi":{"lat":40.601178,"lng":140.497687,"delta_lat":[0,4209,13046,-26132],"delta_lng":[0,2403,-22339,1181]},"impl":true},
    {"code":9920314,"id":"43c509","name":"中央弘前","name_kana":"ちゅうおうひろさき","lat":40.599144,"lng":140.472203,"prefecture":2,"lines":[99203],"attr":"eco","postal_code":"036-8188","address":"弘前市大字吉野町１-６","next":[9920202,1120258,1120440,1120441,9920313,1120257],"voronoi":{"lat":40.618433,"lng":140.477751,"delta_lat":[0,20592,4234,-2001,-50469,1512],"delta_lng":[0,-17951,-39361,-18850,76709,634]},"impl":true},
    {"code":1120441,"id":"09ecff","name":"林崎","name_kana":"はやしざき","lat":40.675355,"lng":140.480401,"prefecture":2,"lines":[11204],"attr":"eco","postal_code":"038-3806","address":"南津軽郡藤崎町大字林崎","next":[1120258,1120260,9920314,1120440,1120442],"voronoi":{"lat":40.724408,"lng":140.515925,"delta_lat":[0,-81150,-4234,773,45530],"delta_lng":[0,-95487,39361,2428,50714]},"impl":true},
    {"code":9920110,"left":1110128,"right":9920112,"id":"611b7c","name":"大沢内","name_kana":"おおざわない","lat":40.940243,"lng":140.437396,"prefecture":2,"lines":[99201],"attr":"heat","postal_code":"037-0311","address":"北津軽郡中泊町大沢内海原４８-２","next":[9920112,9920111,9920109,1120432,1120433,1120436],"voronoi":{"lat":40.903006,"lng":140.324735,"delta_lat":[0,64906,13945,-23897,-17755,-46998],"delta_lng":[0,-71556,-12982,162247,53357,-103862]},"impl":true},
    {"code":1110128,"left":1112604,"right":1110130,"id":"c198fd","name":"落部","name_kana":"おとしべ","lat":42.187617,"lng":140.420755,"prefecture":1,"lines":[11101],"attr":"eco","postal_code":"049-2562","address":"二海郡八雲町落部","next":[1110127,1110130,1110129,1111901,1110126,1110137],"voronoi":{"lat":42.363895,"lng":140.504403,"delta_lat":[0,-305100,-44616,-45311,144088,252990],"delta_lng":[0,-200389,-20637,51202,78651,99146]},"impl":true},
    {"code":1112604,"left":1112605,"right":1111909,"id":"8d4913","name":"重内","name_kana":"おもない","closed":true,"lat":41.607861,"lng":140.38825,"prefecture":1,"lines":[11126],"postal_code":"049-1103","address":"北海道上磯郡知内町字重内７７","open_date":"1962-12-25","closed_date":"1988-02-01","next":[1112607,1111805,1112603,1112602,1111909,1111908],"voronoi":{"lat":41.642762,"lng":140.356734,"delta_lat":[0,-159782,-23150,161004,20873,4097],"delta_lng":[0,20289,21026,9042,-13477,-11194]},"impl":false},
    {"code":1112605,"left":1111803,"right":1111908,"id":"d1ec6e","name":"湯ノ里","name_kana":"ゆのさと","closed":true,"lat":41.601972,"lng":140.322944,"prefecture":1,"lines":[11126],"postal_code":"049-1221","address":"北海道上磯郡知内町字湯ノ里１４３","open_date":"1938-10-21","closed_date":"1988-02-01","next":[1111907,1112606,1111805,1111908],"voronoi":{"lat":41.542035,"lng":140.324577,"delta_lat":[0,103362,28127,-18040],"delta_lng":[0,-83106,65118,26310]},"impl":false},
    {"code":1111803,"left":1111805,"id":"2f5a87","name":"竜飛海底","name_kana":"たっぴかいてい","closed":true,"lat":41.257228,"lng":140.347946,"prefecture":2,"lines":[11118],"attr":"unknown","postal_code":"030-1400","address":"東津軽郡外ヶ浜町三厩宇鉄立浜","open_date":"1988-03-13","closed_date":"2014-03-14","next":[1120517,1112603,1120516,1120431,1112607,1112610,1120427,9920112,1112609,1112608,1120518,1112612],"voronoi":{"lat":41.099089,"lng":140.056795,"delta_lat":[0,-40698,-15066,34210,265414,2195,57225,20889,-2960,-43928,-61057,-137649],"delta_lng":[0,67960,57017,107468,197471,1359,31117,-95294,-6962,-88639,-95656,-121702]},"impl":true},
    {"code":1111805,"id":"4f0ce8","name":"知内","name_kana":"しりうち","closed":true,"lat":41.601092,"lng":140.33494,"prefecture":1,"lines":[11118],"attr":"unknown","postal_code":"049-1221","address":"上磯郡知内町湯ノ里","open_date":"1990-07-01","closed_date":"2014-03-14","next":[1112606,1112604,1112605,1111908,1112607],"voronoi":{"lat":41.642762,"lng":140.356734,"delta_lat":[0,12722,-113449,-40543,-18512],"delta_lng":[0,-23834,-8322,26373,26072]},"impl":true},
    {"code":1111908,"id":"f51a2a","name":"吉堀","name_kana":"よしぼり","closed":true,"lat":41.684059,"lng":140.379226,"prefecture":1,"lines":[11119],"attr":"unknown","postal_code":"049-0453","address":"上磯郡木古内町字大川","open_date":"1935-12-10","closed_date":"2014-05-12","next":[101103,1111909,1112604,1111805,1112605,1111911,1111907],"voronoi":{"lat":41.673523,"lng":140.30659,"delta_lat":[0,-18040,-12722,3042,69590,31002,122427],"delta_lng":[0,26310,23834,25686,28242,3632,-20956]},"impl":true},
    {"code":1111909,"left":1112602,"right":101103,"id":"c4c12a","name":"渡島鶴岡","name_kana":"おしまつるおか","closed":true,"lat":41.671014,"lng":140.41137,"prefecture":1,"lines":[11119],"attr":"unknown","postal_code":"049-0455","address":"上磯郡木古内町字鶴岡","open_date":"1964-12-30","closed_date":"2014-05-12","next":[101103,1112602,1111908,1112604],"voronoi":{"lat":41.645804,"lng":140.38242,"delta_lat":[0,69590,-59891,-13796],"delta_lng":[0,28242,17538,-34586]},"impl":true},
    {"code":1112602,"left":1112603,"id":"1ae21e","name":"森越","name_kana":"もりこし","closed":true,"lat":41.632667,"lng":140.426667,"prefecture":1,"lines":[11126],"postal_code":"049-1102","address":"北海道上磯郡知内町字森越１０３−１２９","open_date":"1937-10-12","closed_date":"1988-02-01","next":[1112603,1111909,1112604,1111912,1111911,101103],"voronoi":{"lat":41.655503,"lng":140.4282,"delta_lat":[0,-13796,-20873,-9155,27815,8047],"delta_lng":[0,-34586,13477,106528,-23673,-12937]},"impl":false},
    {"code":1112603,"id":"eef1e3","name":"渡島知内","name_kana":"おしましりうち","closed":true,"lat":41.605833,"lng":140.424361,"prefecture":1,"lines":[11126],"postal_code":"049-1103","address":"北海道上磯郡知内町字重内６６−７２６","open_date":"1937-10-12","closed_date":"1988-02-01","next":[1120516,1112602,1111803,1112604,1111912,1111913,1112607,9910523],"voronoi":{"lat":41.430459,"lng":140.69614,"delta_lat":[0,125426,55794,9155,-161004,-36571,-20889,27492],"delta_lng":[0,-118200,-64321,-106528,-9042,25844,95294,177255]},"impl":false},
    {"code":101103,"id":"95d372","name":"木古内","name_kana":"きこない","lat":41.677642,"lng":140.434004,"prefecture":1,"lines":[1011,11118,11119,99108,11126],"attr":"eco","postal_code":"049-0422","address":"上磯郡木古内町本町","open_date":"1930-10-25","next":[1111909,1111908,1112602,1111911],"voronoi":{"lat":41.746396,"lng":140.414293,"delta_lat":[0,-31002,-59891,-7962],"delta_lng":[0,-3632,17538,48809]},"impl":true},
    {"code":1110130,"left":1110203,"right":1110138,"id":"27a9f0","name":"山越","name_kana":"やまこし","lat":42.231172,"lng":140.326593,"prefecture":1,"lines":[11101],"attr":"eco","postal_code":"049-2671","address":"二海郡八雲町山越","next":[1110134,1110129,1111901,1110128,1110133,1110131,1110132],"voronoi":{"lat":42.31821,"lng":140.373326,"delta_lat":[0,1450,-260866,-44616,34136,223121,17991],"delta_lng":[0,5176,-74489,-20637,-64342,93098,14989]},"impl":true},
    {"code":1110203,"left":1110136,"right":1110204,"id":"8fa7af","name":"蕨岱","name_kana":"わらびたい","closed":true,"lat":42.626353,"lng":140.313353,"prefecture":1,"lines":[11102],"attr":"unknown","postal_code":"049-3503","address":"山越郡長万部町字蕨岱","open_date":"1904-10-15","closed_date":"2017-03-04","next":[1110205,1110202,1011003,1110204,9911102],"voronoi":{"lat":42.65373,"lng":140.342041,"delta_lat":[0,-43758,-25024,34483,4806],"delta_lng":[0,34947,-169163,-47769,15203]},"impl":true},
    {"code":1110136,"left":1110202,"id":"ae2ac1","name":"国縫","name_kana":"くんぬい","lat":42.439319,"lng":140.320885,"prefecture":1,"lines":[11101,10110],"attr":"eco","postal_code":"049-3462","address":"山越郡長万部町字国縫","next":[1110137,1110129,1011002,1110135],"voronoi":{"lat":42.432595,"lng":140.288631,"delta_lat":[0,42564,-113767,-13179],"delta_lng":[0,19507,174358,-53272]},"impl":true},
    {"code":1110202,"id":"0b37b6","name":"二股","name_kana":"ふたまた","lat":42.575869,"lng":140.320821,"prefecture":1,"lines":[11102],"attr":"eco","postal_code":"049-3501","address":"山越郡長万部町字双葉","next":[1110138,1110137,1011003,1110203,1110402,1011002,1110205],"voronoi":{"lat":42.609972,"lng":140.376987,"delta_lat":[0,-25024,-45710,-21344,6905,55699,22919],"delta_lng":[0,-169163,39970,50732,26779,65086,-1349]},"impl":true},
    {"code":1110204,"id":"887391","name":"黒松内","name_kana":"くろまつない","lat":42.669608,"lng":140.305704,"prefecture":1,"lines":[11102,99111],"attr":"eco","postal_code":"048-0101","address":"寿都郡黒松内町字黒松内","next":[9911102,1110203,1110205],"voronoi":{"lat":42.624237,"lng":140.175258,"delta_lat":[0,81582,-52089],"delta_lng":[0,162244,4538]},"impl":true},
    {"code":1110138,"left":1110129,"right":1110205,"id":"b99741","name":"長万部","name_kana":"おしゃまんべ","lat":42.512477,"lng":140.37507,"prefecture":1,"lines":[11101,11102,11104],"attr":"eco","postal_code":"049-3521","address":"山越郡長万部町字長万部","open_date":"1903-11-03","next":[1110202,1110403,1110402,1110404,1110137,1110127],"voronoi":{"lat":42.366515,"lng":140.513922,"delta_lat":[0,158284,55699,-141372,-51924,-14593],"delta_lng":[0,-188616,65086,119128,24717,4508]},"impl":true},
    {"code":1110129,"left":1110137,"id":"5a3001","name":"野田生","name_kana":"のだおい","lat":42.217104,"lng":140.37586,"prefecture":1,"lines":[11101],"attr":"eco","postal_code":"049-2672","address":"二海郡八雲町野田生","next":[1110136,1110130,1110135,1110128,1110134,1110137],"voronoi":{"lat":42.058794,"lng":140.304013,"delta_lat":[0,260866,26202,2351,13179,2502],"delta_lng":[0,74489,45177,5544,53272,21907]},"impl":true},
    {"code":1110137,"id":"d88a29","name":"中ノ沢","name_kana":"なかのさわ","lat":42.477928,"lng":140.346077,"prefecture":1,"lines":[11101],"attr":"eco","postal_code":"049-3512","address":"山越郡長万部町字中の沢","next":[1110136,1011002,1110202,1110127,1110129,1110138,1110128],"voronoi":{"lat":42.366515,"lng":140.513922,"delta_lat":[0,158284,-6905,-42734,-113767,2502,2051],"delta_lng":[0,-188616,-26779,9611,174358,21907,7973]},"impl":true},
    {"code":1110205,"id":"42a126","name":"熱郛","name_kana":"ねっぷ","lat":42.675653,"lng":140.375084,"prefecture":1,"lines":[11102],"attr":"eco","postal_code":"048-0134","address":"寿都郡黒松内町字白井川","next":[9911102,1110203,1110402,9911103,1110204,1110202,1110206],"voronoi":{"lat":42.603416,"lng":140.389042,"delta_lat":[0,6555,43758,52089,28521,33877,-95497],"delta_lng":[0,-12055,-34947,-4538,8740,27170,90357]},"impl":true},
    {"code":9920112,"left":9920107,"right":1111911,"id":"ffeb69","name":"津軽中里","name_kana":"つがるなかさと","lat":40.964848,"lng":140.44102,"prefecture":2,"lines":[99201],"attr":"heat","postal_code":"037-0305","address":"北津軽郡中泊町中里亀山２２５-１","next":[9920110,1111801,9920107,1120514,101102,1120513,1111803,1120432,1120518,1120431,9920111],"voronoi":{"lat":40.962574,"lng":140.54439,"delta_lat":[0,2903,96983,2495,10399,2182,-34210,-32719,-28749,-23897,215],"delta_lng":[0,-1618,-82776,-6022,-25722,-139012,-107468,28142,30283,162247,127563]},"impl":true},
    {"code":9920107,"left":9920109,"right":9920105,"id":"4d0359","name":"金木","name_kana":"かなぎ","lat":40.902875,"lng":140.459971,"prefecture":2,"lines":[99201],"attr":"cool","postal_code":"037-0202","address":"五所川原市金木町朝日山３６０-２","next":[9920111,9920112,9920108,9920106,1120508,1120507,1111801],"voronoi":{"lat":40.950231,"lng":140.552398,"delta_lat":[0,-18784,-61506,76320,11914,4398,-5097],"delta_lng":[0,4418,-143592,86362,30420,14383,5545]},"impl":true},
    {"code":9920109,"left":9920102,"right":9920111,"id":"f7b10e","name":"川倉","name_kana":"かわくら","lat":40.926356,"lng":140.44368,"prefecture":2,"lines":[99201],"attr":"cool","postal_code":"037-0201","address":"五所川原市金木町川倉林下１７-７","next":[9920111,9920108,9920110,1120436],"voronoi":{"lat":40.893207,"lng":140.351938,"delta_lat":[0,46998,3750,-63226],"delta_lng":[0,103862,35331,-111544]},"impl":true},
    {"code":9920102,"left":9920108,"id":"bd8fc4","name":"十川(青森)","original_name":"十川","name_kana":"とがわ","lat":40.817526,"lng":140.457044,"prefecture":2,"lines":[99201],"attr":"eco","postal_code":"037-0017","address":"五所川原市大字漆川字鍋懸８５-３","next":[1120436,9920105,9920103,9920104,9920101,9920106],"voronoi":{"lat":40.859233,"lng":140.411718,"delta_lat":[0,-1110,-65970,34554,15852,12403],"delta_lng":[0,241,60473,-5762,-8691,-24150]},"impl":true},
    {"code":9920108,"id":"8e3e91","name":"芦野公園","name_kana":"あしのこうえん","lat":40.912283,"lng":140.451657,"prefecture":2,"lines":[99201],"attr":"cool","postal_code":"037-0202","address":"五所川原市金木町８４-１７１","next":[9920111,9920106,9920109,9920107,1120436],"voronoi":{"lat":40.880729,"lng":140.379588,"delta_lat":[0,63226,2306,-76320,-4329],"delta_lng":[0,111544,8455,-86362,-7655]},"impl":true},
    {"code":9920111,"id":"d98fe3","name":"深郷田","name_kana":"ふこうだ","lat":40.951203,"lng":140.441043,"prefecture":2,"lines":[99201],"attr":"heat","postal_code":"037-0308","address":"北津軽郡中泊町深郷田字甘木７-３","next":[9920109,9920107,9920110,9920108,9920112],"voronoi":{"lat":40.95796,"lng":140.402443,"delta_lat":[0,-17755,3750,2306,11914],"delta_lng":[0,53357,35331,8455,30420]},"impl":true},
    {"code":9920105,"left":9920104,"right":9920106,"id":"bbcc97","name":"毘沙門","name_kana":"びしゃもん","lat":40.857903,"lng":140.47778,"prefecture":2,"lines":[99201],"attr":"cool","postal_code":"037-0096","address":"五所川原市大字毘沙門字熊石１１３-２３","next":[9920102,9920104,9920106,1120506,1120505,1120503,1120263],"voronoi":{"lat":40.874996,"lng":140.575815,"delta_lat":[0,27653,896,-48584,-12403,7024,22067],"delta_lng":[0,-8717,-357,-132912,24150,108968,9366]},"impl":true},
    {"code":9920104,"left":9920103,"id":"78fe84","name":"津軽飯詰","name_kana":"つがるいいづめ","lat":40.829884,"lng":140.479586,"prefecture":2,"lines":[99201],"attr":"cool","postal_code":"037-0002","address":"五所川原市大字飯詰字清野２２-３","next":[1120263,9920105,9920102,1120262,9920103],"voronoi":{"lat":40.838392,"lng":140.564161,"delta_lat":[0,11191,-7024,-15852,-8024],"delta_lng":[0,2786,-108968,8691,84166]},"impl":true},
    {"code":9920103,"id":"62a44b","name":"五農校前","name_kana":"ごのうこうまえ","lat":40.821146,"lng":140.478753,"prefecture":2,"lines":[99201],"attr":"cool","postal_code":"037-0093","address":"五所川原市大字一野坪字朝日田崎９１","next":[9920101,9920102,1120440,1120439,9920104,1120262,1120438],"voronoi":{"lat":40.753847,"lng":140.509374,"delta_lat":[0,-400,65236,8024,-34554,-18008,-19588],"delta_lng":[0,2920,38541,-84166,5762,6820,28655]},"impl":true},
    {"code":9920106,"id":"f4aa5a","name":"嘉瀬","name_kana":"かせ","lat":40.881058,"lng":140.469316,"prefecture":2,"lines":[99201],"attr":"cool","postal_code":"037-0204","address":"五所川原市金木町嘉瀬端山崎２６９-３","next":[1120507,9920108,1120506,9920107,1120436,9920105,9920102],"voronoi":{"lat":40.859233,"lng":140.411718,"delta_lat":[0,6380,4329,61506,-25724,-2178,-48584],"delta_lng":[0,-6148,7655,143592,9356,568,-132912]},"impl":true},
    {"code":1111911,"left":1110402,"right":1120517,"id":"7b484e","name":"札苅","name_kana":"さつかり","lat":41.699271,"lng":140.468097,"prefecture":1,"lines":[11119,99108],"attr":"eco","postal_code":"049-0411","address":"上磯郡木古内町字札苅","next":[1111912,1111907,1111913,1111915,1112602,1111908,101103,1110107],"voronoi":{"lat":41.847178,"lng":140.476259,"delta_lat":[0,-35262,-172423,8047,98855,122427,53687,-40440],"delta_lng":[0,6575,7111,-12937,-62715,-20956,9340,55846]},"impl":true},
    {"code":1110402,"left":1110127,"right":1110206,"id":"78e04a","name":"静狩","name_kana":"しずかり","lat":42.584065,"lng":140.460025,"prefecture":1,"lines":[11104],"attr":"eco","postal_code":"049-5141","address":"山越郡長万部町字静狩","next":[1110205,1110138,1110202,1110206,1110403],"voronoi":{"lat":42.580497,"lng":140.390392,"delta_lat":[0,22919,69303,-925,-232669],"delta_lng":[0,-1349,74727,28704,17046]},"impl":true},
    {"code":1110127,"left":1120518,"id":"3a1576","name":"石倉","name_kana":"いしくら","lat":42.17285,"lng":140.458436,"prefecture":1,"lines":[11101],"attr":"eco","postal_code":"049-2463","address":"茅部郡森町字石倉町","next":[1110125,1110128,1110126,1110404,1110137,1110138,1110120],"voronoi":{"lat":42.372608,"lng":140.538745,"delta_lat":[0,-6094,-569,-252990,187504,713,47500],"delta_lng":[0,-24823,-1546,-99146,182803,553,13587]},"impl":true},
    {"code":1120518,"id":"4ecee6","name":"三厩","name_kana":"みんまや","lat":41.185404,"lng":140.444482,"prefecture":2,"lines":[11205],"attr":"eco","postal_code":"030-1737","address":"東津軽郡外ヶ浜町三厩東町","next":[1120517,1111803,9920112,1120514],"voronoi":{"lat":41.34295,"lng":140.486711,"delta_lat":[0,-265414,-2182,27658],"delta_lng":[0,-197471,139012,15650]},"impl":true},
    {"code":1110206,"id":"e7eb78","name":"目名","name_kana":"めな","lat":42.761432,"lng":140.465742,"prefecture":1,"lines":[11102],"attr":"eco","postal_code":"048-1261","address":"磯谷郡蘭越町目名町","next":[1110403,1110207,1110402,1110208,9911103,1010306,1110205],"voronoi":{"lat":42.671795,"lng":140.492473,"delta_lat":[0,25659,4231,185474,13986,-132928,-95497],"delta_lng":[0,61514,-1187,-126519,-61353,8484,90357]},"impl":true},
    {"code":1120517,"left":1120516,"right":1110126,"id":"51fce4","name":"津軽浜名","name_kana":"つがるはまな","lat":41.180521,"lng":140.47185,"prefecture":2,"lines":[11205],"attr":"eco","postal_code":"030-1501","address":"東津軽郡今別町大字浜名","next":[1120516,1111803,1120515,1120514,1120518],"voronoi":{"lat":41.103011,"lng":140.443901,"delta_lat":[0,37588,11110,193435,-2195],"delta_lng":[0,30672,5384,8112,-1359]},"impl":true},
    {"code":1120516,"id":"32f9fc","name":"今別","name_kana":"いまべつ","lat":41.179741,"lng":140.490448,"prefecture":2,"lines":[11205],"attr":"eco","postal_code":"030-1502","address":"東津軽郡今別町大字今別","next":[1120517,1112603,1111803,9910523,1120515],"voronoi":{"lat":41.15171,"lng":140.479957,"delta_lat":[0,193435,57225,27492,-14794],"delta_lng":[0,8112,31117,177255,37549]},"impl":true},
    {"code":1110126,"id":"200bac","name":"本石倉","name_kana":"ほんいしくら","lat":42.159668,"lng":140.471957,"prefecture":1,"lines":[11101],"attr":"eco","postal_code":"049-2463","address":"茅部郡森町字石倉町","next":[1110125,1110127,1111901,1111906,1110128],"voronoi":{"lat":41.968868,"lng":140.334578,"delta_lat":[0,-1795,-10823,344210,-187504],"delta_lng":[0,1580,19411,240463,-182803]},"impl":true}
  ]
}