{
  "name":"segment13",
  "root":1171608,
  "east":135.444629,
  "west":132.440572,
  "south":34.319718,
  "north":34.439354,
  "station_size":155,
  "node_list":[
    {"code":1171608,"left":9971007,"right":9980409,"id":"a99429","name":"竹原","name_kana":"たけはら","lat":34.33945,"lng":132.909705,"prefecture":34,"lines":[11716],"attr":"cool","postal_code":"725-0026","address":"竹原市中央一丁目","next":[1161103,1161102,1171609,1161105,1171607],"voronoi":{"lat":34.38587,"lng":132.863802,"delta_lat":[0,16324,5035,-7180,-171647],"delta_lng":[0,21829,33358,6487,5814]},"impl":true},
    {"code":9971007,"left":9971019,"right":9970905,"id":"e0dfd4","name":"八丁堀(広島)","original_name":"八丁堀","name_kana":"はっちょうぼり","lat":34.393897,"lng":132.463403,"prefecture":34,"lines":[99710,99711,99714,99717],"attr":"cool","postal_code":"730-0021","address":"広島市中区胡町","next":[9971011,9971012,9971006,9971702,9971008],"voronoi":{"lat":34.389616,"lng":132.460912,"delta_lat":[0,-1559,-1156,8706,742],"delta_lng":[0,588,739,2581,-2121]},"impl":true},
    {"code":9971019,"left":9971016,"right":9971305,"id":"9bbb73","name":"広大附属学校前","name_kana":"ひろだいふぞくがっこうまえ","lat":34.371654,"lng":132.464583,"prefecture":34,"lines":[99710,99712,99713],"attr":"heat","postal_code":"734-0007","address":"広島市南区皆実町６","next":[9971017,9971308,9971020,9971018],"voronoi":{"lat":34.371308,"lng":132.479704,"delta_lat":[0,-1497,2948,483],"delta_lng":[0,-20319,2172,9408]},"impl":true},
    {"code":9971016,"left":9971024,"right":9971013,"id":"85fad4","name":"広電本社前","name_kana":"ひろでんほんしゃまえ","lat":34.377375,"lng":132.45821,"prefecture":34,"lines":[99710,99712,99715],"attr":"heat","postal_code":"730-0052","address":"広島市中区千田町３","next":[9971419,9971308,9971307,9971017,9971015],"voronoi":{"lat":34.373277,"lng":132.448038,"delta_lat":[0,-4015,9207,2222,1428],"delta_lng":[0,435,13556,0,-471]},"impl":true},
    {"code":9971024,"left":9971025,"right":9971021,"id":"2cabb5","name":"宇品五丁目","name_kana":"うじなごちょうめ","lat":34.358131,"lng":132.463786,"prefecture":34,"lines":[99710,99712,99713],"attr":"eco","postal_code":"734-0004","address":"広島市南区宇品神田５","next":[9971026,1161113,9971025,1171627,9971023],"voronoi":{"lat":34.359493,"lng":132.458422,"delta_lat":[0,-2367,-6051,4376,1832],"delta_lng":[0,2210,27746,1817,-799]},"impl":true},
    {"code":9971025,"left":9971026,"right":9971017,"id":"de9100","name":"海岸通","name_kana":"かいがんどおり","lat":34.354898,"lng":132.463081,"prefecture":34,"lines":[99710,99712,99713],"attr":"eco","postal_code":"734-0011","address":"広島市南区宇品海岸３","next":[9971026,9971024,1171627,1171626],"voronoi":{"lat":34.351075,"lng":132.488379,"delta_lat":[0,6051,-32742,16934],"delta_lng":[0,-27746,7585,16832]},"impl":true},
    {"code":9971026,"left":9971027,"id":"182e47","name":"元宇品口","name_kana":"もとうじなぐち","lat":34.354048,"lng":132.459412,"prefecture":34,"lines":[99710,99712,99713],"attr":"eco","postal_code":"734-0011","address":"広島市南区宇品海岸１","next":[9971023,9971024,9971025,1171626,9971027],"voronoi":{"lat":34.362391,"lng":132.454549,"delta_lat":[0,-2899,-2367,-32742,-1725],"delta_lng":[0,3874,2210,7585,-1518]},"impl":true},
    {"code":9971027,"id":"7fd37a","name":"広島港（宇品）","name_kana":"ひろしまこう(うじな)","lat":34.352755,"lng":132.455184,"prefecture":34,"lines":[99710,99712,99713],"attr":"eco","postal_code":"734-0011","address":"広島市南区宇品海岸一丁目","next":[1171625,9971139,9971420,9971017,1171622,1171626,9971026,9971023,9971128,9971138,9971127,9971022],"voronoi":{"lat":34.365202,"lng":132.451455,"delta_lat":[0,519,-36117,-31655,-20808,-24446,-2102,2479,27015,42572,39733,983],"delta_lng":[0,-2649,-37251,-8668,-3992,4701,461,3534,26557,32551,-12151,-823]},"impl":true},
    {"code":9971017,"id":"2c4c0f","name":"御幸橋","name_kana":"みゆきばし","lat":34.375321,"lng":132.459605,"prefecture":34,"lines":[99710,99712],"attr":"heat","postal_code":"730-0052","address":"広島市中区千田町３","next":[9971420,9971019,9971018,9971022,9971419,9971027,9971020,9971021,9971016,9971308],"voronoi":{"lat":34.378468,"lng":132.46203,"delta_lat":[0,-9207,-835,-2706,-519,629,2407,1574,2948,4147],"delta_lng":[0,-13556,8,325,2649,1454,4485,1991,2172,986]},"impl":true},
    {"code":9971021,"left":9971022,"right":9971018,"id":"12da79","name":"宇品二丁目","name_kana":"うじなにちょうめ","lat":34.366164,"lng":132.464519,"prefecture":34,"lines":[99710,99712,99713],"attr":"heat","postal_code":"734-0004","address":"広島市南区宇品神田２","next":[9971020,9971022,1161113,9971017],"voronoi":{"lat":34.365061,"lng":132.486948,"delta_lat":[0,-1133,1903,2407],"delta_lng":[0,284,-34323,4485]},"impl":true},
    {"code":9971022,"left":9971023,"id":"d1cffc","name":"宇品三丁目","name_kana":"うじなさんちょうめ","lat":34.364216,"lng":132.464411,"prefecture":34,"lines":[99710,99712,99713],"attr":"heat","postal_code":"734-0004","address":"広島市南区宇品神田３","next":[9971023,9971017,1161113,9971021,9971027],"voronoi":{"lat":34.359275,"lng":132.488616,"delta_lat":[0,4652,1903,-629,-1827],"delta_lng":[0,-1383,-34323,-1454,2270]},"impl":true},
    {"code":9971023,"id":"4b6d16","name":"宇品四丁目","name_kana":"うじなよんちょうめ","lat":34.360079,"lng":132.463925,"prefecture":34,"lines":[99710,99712,99713],"attr":"eco","postal_code":"734-0004","address":"広島市南区宇品神田５","next":[9971026,9971022,1161113,9971027,9971024],"voronoi":{"lat":34.359275,"lng":132.488616,"delta_lat":[0,4099,-983,-2899,-2210],"delta_lng":[0,-34890,823,3874,30974]},"impl":true},
    {"code":9971018,"id":"9171e7","name":"皆実町六丁目","name_kana":"みなみまちろくちょうめ","lat":34.374169,"lng":132.464454,"prefecture":34,"lines":[99710,99712,99713],"attr":"heat","postal_code":"734-0007","address":"広島市南区皆実町６","next":[9971017,9971308,9971019],"voronoi":{"lat":34.37276,"lng":132.461558,"delta_lat":[0,4147,-3664],"delta_lng":[0,986,8422]},"impl":true},
    {"code":9971013,"left":9971416,"right":9971011,"id":"8fddb4","name":"市役所前(広島)","original_name":"市役所前","name_kana":"しやくしょまえ","lat":34.385875,"lng":132.454455,"prefecture":34,"lines":[99710,99712,99715],"attr":"cool","postal_code":"730-0051","address":"広島市中区大手町４","next":[9971415,9971014,9971012,9971015],"voronoi":{"lat":34.383995,"lng":132.457183,"delta_lat":[0,1783,3100,-3663],"delta_lng":[0,-8114,1089,11267]},"impl":true},
    {"code":9971416,"left":9971014,"right":9971415,"id":"69c076","name":"舟入本町","name_kana":"ふないりほんまち","lat":34.385556,"lng":132.442632,"prefecture":34,"lines":[99714,99716],"attr":"heat","postal_code":"730-0843","address":"広島市中区舟入本町","next":[9971014,9971417,9971415,9971118],"voronoi":{"lat":34.387599,"lng":132.436585,"delta_lat":[0,-6744,3710,5279],"delta_lng":[0,11006,698,-8429]},"impl":true},
    {"code":9971014,"left":9971417,"id":"116a82","name":"鷹野橋","name_kana":"たかのばし","lat":34.383431,"lng":132.453918,"prefecture":34,"lines":[99710,99712,99715],"attr":"cool","postal_code":"730-0052","address":"広島市中区千田町１","next":[9971417,9971015,9971418,9971415,9971416,9971013],"voronoi":{"lat":34.385777,"lng":132.449069,"delta_lat":[0,-1212,-3710,-3452,-774,7365],"delta_lng":[0,-781,-698,79,165,9349]},"impl":true},
    {"code":9971417,"id":"814450","name":"舟入幸町","name_kana":"ふないりさいわいちょう","lat":34.383139,"lng":132.441151,"prefecture":34,"lines":[99714,99716],"attr":"heat","postal_code":"730-0844","address":"広島市中区舟入幸町","next":[9971014,9971418,9971416,9971118],"voronoi":{"lat":34.380856,"lng":132.44759,"delta_lat":[0,-3452,8730,1466],"delta_lng":[0,79,-14786,3701]},"impl":true},
    {"code":9971415,"id":"1a9f68","name":"舟入町","name_kana":"ふないりまち","lat":34.389222,"lng":132.444928,"prefecture":34,"lines":[99714,99716],"attr":"heat","postal_code":"730-0841","address":"広島市中区舟入町","next":[9971115,9971012,9971013,9971014,9971118,9971114,9971416,9971116],"voronoi":{"lat":34.392018,"lng":132.445595,"delta_lat":[0,-1161,-1980,-3100,-1212,5279,480,1185],"delta_lng":[0,4647,-84,-1089,-781,-8429,283,1632]},"impl":true},
    {"code":9971011,"left":9971015,"right":9970901,"id":"3f3a08","name":"袋町","name_kana":"ふくろまち","lat":34.391187,"lng":132.456214,"prefecture":34,"lines":[99710,99712,99715],"attr":"cool","postal_code":"730-0051","address":"広島市中区大手町２","next":[9971007,9970901,9971112,9971012,9971008,9971111],"voronoi":{"lat":34.391127,"lng":132.459814,"delta_lat":[0,-1512,-1559,3583,223,1342],"delta_lng":[0,1097,588,-10586,224,2910]},"impl":true},
    {"code":9971015,"left":9971012,"id":"5cb433","name":"日赤病院前","name_kana":"にっせきびょういんまえ","lat":34.380952,"lng":132.455871,"prefecture":34,"lines":[99710,99712,99715],"attr":"heat","postal_code":"730-0052","address":"広島市中区千田町１","next":[9971012,9971014,9971307,9971306,9971419,9971013,9971418,9971016],"voronoi":{"lat":34.373277,"lng":132.448038,"delta_lat":[0,282,3071,7365,1220,17,-125,-2988],"delta_lng":[0,-89,-115,9349,4242,285,23,-175]},"impl":true},
    {"code":9971012,"id":"ae895e","name":"中電前","name_kana":"ちゅうでんまえ","lat":34.388779,"lng":132.455399,"prefecture":34,"lines":[99710,99712,99715],"attr":"cool","postal_code":"730-0051","address":"広島市中区大手町３","next":[9971015,9971007,9971011,9971306,9971415,9971114,9971112,9971006,9971013],"voronoi":{"lat":34.385232,"lng":132.461711,"delta_lat":[0,1485,184,1156,3583,-153,-629,-1980,-3663],"delta_lng":[0,616,-88,-739,-10586,-254,-417,-84,11267]},"impl":true},
    {"code":9970901,"id":"fafc81","name":"本通","name_kana":"ほんどおり","lat":34.393377,"lng":132.457003,"prefecture":34,"lines":[99709,99710,99712,99715],"attr":"heat","postal_code":"730-0035","address":"広島市中区本通６-３０","next":[9971011,9971009,9971111,9971110,9971008],"voronoi":{"lat":34.393156,"lng":132.459189,"delta_lat":[0,1266,-41,-1177,-2077],"delta_lng":[0,-1875,-2204,-1062,5767]},"impl":true},
    {"code":9971305,"left":1161113,"right":9971003,"id":"e77b5c","name":"比治山下","name_kana":"ひじやました","lat":34.386963,"lng":132.471005,"prefecture":34,"lines":[99713],"attr":"eco","postal_code":"732-0817","address":"広島市南区比治山町","next":[9971006,9971304,9971004,9971306,1161114,9971005],"voronoi":{"lat":34.389775,"lng":132.471294,"delta_lat":[0,-13481,-1445,12999,452,1721],"delta_lng":[0,14698,159,-20645,491,3385]},"impl":true},
    {"code":1161113,"left":9971307,"right":1171628,"id":"2801b9","name":"向洋","name_kana":"むかいなだ","lat":34.376636,"lng":132.506191,"prefecture":34,"lines":[11611,11716],"attr":"heat","postal_code":"735-0017","address":"安芸郡府中町青崎南","next":[1161112,9971307,9971020,9971023,1171627,1171628,9971022,9971024,9971306,9971021,1161114,9971308],"voronoi":{"lat":34.370552,"lng":132.485902,"delta_lat":[0,-5492,-1133,-4652,-1993,-1832,2750,2818,34103,-21220,-1932,-1272],"delta_lng":[0,1047,284,1383,781,799,22991,2688,6368,-35877,-342,-119]},"impl":true},
    {"code":9971307,"left":9971308,"right":9971306,"id":"0660a4","name":"南区役所前","name_kana":"みなみくやくしょまえ","lat":34.380297,"lng":132.467072,"prefecture":34,"lines":[99713],"attr":"eco","postal_code":"732-0816","address":"広島市南区比治山本町","next":[1161113,9971015,9971306,9971308,9971016],"voronoi":{"lat":34.370698,"lng":132.485904,"delta_lat":[0,1272,13137,-2988,-1428],"delta_lng":[0,119,-24290,-175,471]},"impl":true},
    {"code":9971308,"left":9971020,"id":"16b355","name":"皆実町二丁目","name_kana":"みなみまちにちょうめ","lat":34.377375,"lng":132.465849,"prefecture":34,"lines":[99713],"attr":"eco","postal_code":"734-0007","address":"広島市南区皆実町２","next":[9971020,9971019,1161113,9971018,9971016,9971307,9971017],"voronoi":{"lat":34.373242,"lng":132.470966,"delta_lat":[0,-1934,-756,145,9993,-2222,-1562],"delta_lng":[0,8739,6197,3,-23875,0,514]},"impl":true},
    {"code":9971020,"id":"e0fe8b","name":"県病院前","name_kana":"けんびょういんまえ","lat":34.36875,"lng":132.464797,"prefecture":34,"lines":[99710,99712,99713],"attr":"heat","postal_code":"734-0004","address":"広島市南区宇品神田１","next":[1161113,9971021,9971017,9971308,9971019],"voronoi":{"lat":34.370552,"lng":132.485902,"delta_lat":[0,-5492,3177,1574,1497],"delta_lng":[0,1047,-29554,1991,20319]},"impl":true},
    {"code":9971306,"id":"721266","name":"比治山橋","name_kana":"ひじやまばし","lat":34.383272,"lng":132.468681,"prefecture":34,"lines":[99713],"attr":"eco","postal_code":"732-0816","address":"広島市南区比治山本町","next":[9971307,9971012,1161114,1161113,9971305,9971015,9971006],"voronoi":{"lat":34.386716,"lng":132.462326,"delta_lat":[0,-1485,-125,-13137,1932,948,12999],"delta_lng":[0,-616,23,24290,342,-214,-20645]},"impl":true},
    {"code":1171628,"left":1171609,"right":1161112,"id":"b17648","name":"矢野","name_kana":"やの","lat":34.352081,"lng":132.531931,"prefecture":34,"lines":[11716],"attr":"heat","postal_code":"736-0085","address":"広島市安芸区矢野西１丁目","next":[1161113,1171627,1161111,1171625,1171624,1171618,1171623,1161112,1171619],"voronoi":{"lat":34.307251,"lng":132.581971,"delta_lat":[0,5107,3953,542,41347,2818,2869,-43423,-10526],"delta_lng":[0,-28970,-12528,-1057,-26230,2688,41333,54050,-18030]},"impl":true},
    {"code":1171609,"left":1171627,"id":"4c1adc","name":"吉名","name_kana":"よしな","lat":34.320616,"lng":132.86576,"prefecture":34,"lines":[11716],"attr":"cool","postal_code":"725-0013","address":"竹原市吉名町","next":[1180644,1171607,1171611,1171608,1161105,1171610],"voronoi":{"lat":34.192909,"lng":132.86034,"delta_lat":[0,25133,10360,157468,-6837,-124510],"delta_lng":[0,73559,-2610,-67488,-24974,6207]},"impl":true},
    {"code":1171627,"id":"df96d2","name":"坂","name_kana":"さか","lat":34.338635,"lng":132.510736,"prefecture":34,"lines":[11716],"attr":"heat","postal_code":"731-4300","address":"安芸郡坂町","next":[1161113,1171626,1171628,9971025,1171625,9971024],"voronoi":{"lat":34.3582,"lng":132.513186,"delta_lat":[0,-41347,2208,22256,9757,4376],"delta_lng":[0,26230,-18674,-35693,3329,1817]},"impl":true},
    {"code":1161112,"id":"e5e7dd","name":"海田市","name_kana":"かいたいち","lat":34.372089,"lng":132.530542,"prefecture":34,"lines":[11611,11716],"attr":"heat","postal_code":"736-0068","address":"安芸郡海田町新町","next":[1161113,1171445,1161111,1161114,1171628],"voronoi":{"lat":34.361019,"lng":132.515875,"delta_lat":[0,34103,949,11150,-43333],"delta_lng":[0,6368,527,9263,25175]},"impl":true},
    {"code":9971003,"left":9971005,"right":1161114,"id":"500f85","name":"的場町","name_kana":"まとばちょう","lat":34.393277,"lng":132.475076,"prefecture":34,"lines":[99710,99711,99713,99714],"attr":"cool","postal_code":"732-0824","address":"広島市南区的場町１","next":[9971004,1161114,9971002,9971001,9971304],"voronoi":{"lat":34.38869,"lng":132.486275,"delta_lat":[0,6225,118,-2902,-4259],"delta_lng":[0,-12230,-1090,614,12589]},"impl":true},
    {"code":9971005,"left":9971304,"right":9971006,"id":"799db5","name":"銀山町","name_kana":"かなやまちょう","lat":34.393135,"lng":132.467866,"prefecture":34,"lines":[99710,99711,99714],"attr":"cool","postal_code":"730-0022","address":"広島市中区銀山町","next":[9971006,9971004,9971702,100312,9971305,9971703,9971001],"voronoi":{"lat":34.390022,"lng":132.469382,"delta_lat":[0,-1721,7434,1891,264,-172,-238],"delta_lng":[0,-3385,709,2871,702,96,100]},"impl":true},
    {"code":9971304,"left":9971004,"id":"755614","name":"段原一丁目","name_kana":"だんばらいっちょうめ","lat":34.390306,"lng":132.474071,"prefecture":34,"lines":[99713],"attr":"eco","postal_code":"732-0811","address":"広島市南区段原１","next":[1161114,9971305,9971004,9971003],"voronoi":{"lat":34.392131,"lng":132.473569,"delta_lat":[0,-2356,-13481,11578],"delta_lng":[0,-2275,14698,166]},"impl":true},
    {"code":9971004,"id":"26f8c7","name":"稲荷町(広島)","original_name":"稲荷町","name_kana":"いなりまち","lat":34.392569,"lng":132.471728,"prefecture":34,"lines":[99710,99711,99714],"attr":"cool","postal_code":"732-0827","address":"広島市南区稲荷町","next":[9971005,9971001,9971003,9971305,9971304],"voronoi":{"lat":34.389775,"lng":132.471294,"delta_lat":[0,246,7458,-2446,-2902],"delta_lng":[0,-1912,1093,2480,614]},"impl":true},
    {"code":9971006,"id":"c74e14","name":"胡町","name_kana":"えびすちょう","lat":34.393401,"lng":132.465076,"prefecture":34,"lines":[99710,99711,99714],"attr":"cool","postal_code":"730-0021","address":"広島市中区胡町","next":[9971005,9971007,9971305,9971012,9971702,9971306],"voronoi":{"lat":34.3883,"lng":132.465997,"delta_lat":[0,7434,-128,-8706,-184,1132],"delta_lng":[0,709,-1887,-2581,88,3180]},"impl":true},
    {"code":1161114,"left":100311,"right":1161111,"id":"ab30bc","name":"天神川","name_kana":"てんじんがわ","lat":34.389959,"lng":132.498311,"prefecture":34,"lines":[11611,11716],"attr":"heat","postal_code":"732-0801","address":"広島市南区東駅町２８７","next":[9971304,1171445,9971003,1161112,9971306,1161113,9971305,9971002],"voronoi":{"lat":34.396071,"lng":132.522769,"delta_lat":[0,-949,-21220,948,1445,11578,818,5338],"delta_lng":[0,-527,-35877,-214,-159,166,117,1216]},"impl":true},
    {"code":100311,"id":"9046b9","name":"東広島","name_kana":"ひがしひろしま","lat":34.3893,"lng":132.759702,"prefecture":34,"lines":[1003],"attr":"cool","postal_code":"739-0026","address":"広島県東広島市三永１丁目４","next":[1161131,1171611,1161105,1171610,1171612,1161107,1161106,1161108],"voronoi":{"lat":34.398254,"lng":132.719574,"delta_lat":[0,20006,-17209,-20079,-33106,-11532,12465,30582],"delta_lng":[0,53324,34267,14869,-40472,-27506,-83940,23972]},"impl":true},
    {"code":1161111,"id":"771a90","name":"安芸中野","name_kana":"あきなかの","lat":34.391115,"lng":132.563291,"prefecture":34,"lines":[11611],"attr":"cool","postal_code":"739-0321","address":"広島市安芸区中野２丁目","next":[1171444,1161112,1171445,1171439,1171628,1171440,9970803,1171618,1161110],"voronoi":{"lat":34.320464,"lng":132.611257,"delta_lat":[0,43423,43333,18215,7616,280,18,-219,-108677],"delta_lng":[0,-54050,-25175,2281,4977,861,2281,328,85469]},"impl":true},
    {"code":9970905,"left":9971504,"right":1161109,"id":"4a7e80","name":"牛田(広島)","original_name":"牛田","name_kana":"うした","lat":34.417142,"lng":132.464585,"prefecture":34,"lines":[99709],"attr":"heat","postal_code":"732-0068","address":"広島市東区牛田新町２-４-４４","next":[1171704,9970906,9971705,1161116,1171703,9970904,100312],"voronoi":{"lat":34.411762,"lng":132.478083,"delta_lat":[0,-414,5092,321,2730,4778,-9881],"delta_lng":[0,-5692,-16244,-159,22,6302,20469]},"impl":true},
    {"code":9971504,"left":9971111,"right":9971501,"id":"62a4fe","name":"寺町","name_kana":"てらまち","lat":34.401129,"lng":132.448125,"prefecture":34,"lines":[99715,99716],"attr":"eco","postal_code":"730-0804","address":"広島市中区広瀬町","next":[9971503,9971113,9971116,9971112,9971117],"voronoi":{"lat":34.406263,"lng":132.4387,"delta_lat":[0,-5130,-2232,1788,2270],"delta_lng":[0,14325,-3960,-6685,-1778]},"impl":true},
    {"code":9971111,"left":9971112,"right":9971110,"id":"9ca2ba","name":"原爆ドーム前","name_kana":"げんばくどーむまえ","lat":34.396163,"lng":132.453918,"prefecture":34,"lines":[99711,99712,99714,99715],"attr":"cool","postal_code":"730-0051","address":"広島市中区大手町１","next":[9971503,9970902,9971112,9970901,9971110,9971011,9970903],"voronoi":{"lat":34.397702,"lng":132.455881,"delta_lat":[0,-3321,-1177,-1342,9308,686,-458],"delta_lng":[0,-772,-1062,-2910,2112,1185,847]},"impl":true},
    {"code":9971112,"left":9971114,"right":9971113,"id":"c76b9e","name":"本川町","name_kana":"ほんかわちょう","lat":34.396942,"lng":132.450485,"prefecture":34,"lines":[99711,99712,99714,99715],"attr":"cool","postal_code":"730-0802","address":"広島市中区本川町１","next":[9971503,9971011,9971113,9971012,9971111,9971114,9971504],"voronoi":{"lat":34.40117,"lng":132.453249,"delta_lat":[0,-9308,-223,-153,4064,3350,2232],"delta_lng":[0,-2112,-224,-254,-2091,496,3960]},"impl":true},
    {"code":9971114,"left":9971115,"id":"41e3ec","name":"土橋(広島)","original_name":"土橋","name_kana":"どばし","lat":34.3948,"lng":132.446322,"prefecture":34,"lines":[99711,99712,99714,99716],"attr":"cool","postal_code":"730-0853","address":"広島市中区堺町２","next":[9971113,9971012,9971112,9971415,9971115],"voronoi":{"lat":34.396645,"lng":132.44503,"delta_lat":[0,-1094,-4064,-629,1161],"delta_lng":[0,3539,2091,-417,-4647]},"impl":true},
    {"code":9971115,"id":"46f23f","name":"小網町","name_kana":"こあみちょう","lat":34.394543,"lng":132.44422,"prefecture":34,"lines":[99711,99712],"attr":"cool","postal_code":"730-0855","address":"広島市中区小網町","next":[9971415,9971116,9971113,9971114],"voronoi":{"lat":34.396645,"lng":132.44503,"delta_lat":[0,1962,-7097,509],"delta_lng":[0,-1946,-1309,3821]},"impl":true},
    {"code":9971113,"id":"b08eac","name":"十日市町","name_kana":"とうかいちまち","lat":34.397438,"lng":132.447138,"prefecture":34,"lines":[99711,99712,99714,99715,99716],"attr":"cool","postal_code":"730-0805","address":"広島市中区十日市町１","next":[9971112,9971114,9971504,9971115,9971116],"voronoi":{"lat":34.396645,"lng":132.44503,"delta_lat":[0,-1094,3350,1788,-2082],"delta_lng":[0,3539,496,-6685,704]},"impl":true},
    {"code":9971110,"left":9971008,"right":9970902,"id":"27ea6b","name":"紙屋町西","name_kana":"かみやちょうにし","lat":34.395455,"lng":132.456965,"prefecture":34,"lines":[99711,99712,99714,99715],"attr":"cool","postal_code":"730-0031","address":"広島市中区紙屋町","next":[9971009,9970902,9971111,9970901],"voronoi":{"lat":34.395997,"lng":132.457778,"delta_lat":[0,1705,-3321,41],"delta_lng":[0,-1896,-772,2204]},"impl":true},
    {"code":9971008,"left":9971009,"id":"e4a8ad","name":"立町","name_kana":"たてまち","lat":34.394569,"lng":132.460871,"prefecture":34,"lines":[99710,99711,99714],"attr":"cool","postal_code":"730-0032","address":"広島市中区立町","next":[9971011,9971009,9971702,9970902,9971007,9970901],"voronoi":{"lat":34.389616,"lng":132.460912,"delta_lat":[0,6733,1525,-1947,-2770,-2029],"delta_lng":[0,1787,-1273,-1692,-545,626]},"impl":true},
    {"code":9971009,"id":"db8f16","name":"紙屋町東","name_kana":"かみやちょうひがし","lat":34.395101,"lng":132.458167,"prefecture":34,"lines":[99710,99711,99714],"attr":"cool","postal_code":"730-0031","address":"広島市中区紙屋町","next":[9971110,9970901,9971008,9970902],"voronoi":{"lat":34.393156,"lng":132.459189,"delta_lat":[0,1266,1575,-71],"delta_lng":[0,-1875,464,1956]},"impl":true},
    {"code":9970902,"id":"90fc64","name":"県庁前(広島)","original_name":"県庁前","name_kana":"けんちょうまえ","lat":34.396863,"lng":132.458231,"prefecture":34,"lines":[99709],"attr":"heat","postal_code":"730-0011","address":"広島市中区基町１０-９０","next":[9970903,9971111,9971702,9971009,9971110,9971703,9971008],"voronoi":{"lat":34.395926,"lng":132.459734,"delta_lat":[0,71,1705,3696,-432,-1045,-2048],"delta_lng":[0,-1956,-1896,-600,5399,443,302]},"impl":true},
    {"code":9971501,"left":1161116,"right":9970904,"id":"3be35a","name":"横川駅","name_kana":"よこがわえき","lat":34.409512,"lng":132.450496,"prefecture":34,"lines":[99715,99716],"attr":"eco","postal_code":"733-0011","address":"広島市西区横川町３","next":[9970903,1161116,9971502],"voronoi":{"lat":34.410231,"lng":132.456057,"delta_lat":[0,-823,-2131],"delta_lng":[0,-11818,10378]},"impl":true},
    {"code":1161116,"left":9971502,"right":1171703,"id":"e557b0","name":"横川(広島)","original_name":"横川","name_kana":"よこがわ","lat":34.410173,"lng":132.45045,"prefecture":34,"lines":[11611,11717],"attr":"heat","postal_code":"733-0011","address":"広島市西区横川町３丁目","next":[9970904,9971502,1161130,9971501,9970905,1171703,9970903],"voronoi":{"lat":34.410231,"lng":132.456057,"delta_lat":[0,-823,598,6754,-321,-4326,-1657],"delta_lng":[0,-11818,-3969,15718,159,308,-271]},"impl":true},
    {"code":9971502,"left":9971503,"id":"0af1ff","name":"横川一丁目","name_kana":"よこがわいっちょうめ","lat":34.406848,"lng":132.449949,"prefecture":34,"lines":[99715,99716],"attr":"eco","postal_code":"733-0011","address":"広島市西区横川町１","next":[9971503,9970903,1161116,1171703,9971501],"voronoi":{"lat":34.409409,"lng":132.444239,"delta_lat":[0,598,-911,-4785,2967],"delta_lng":[0,-3969,-3724,17594,477]},"impl":true},
    {"code":9971503,"id":"ef136d","name":"別院前","name_kana":"べついんまえ","lat":34.404245,"lng":132.449241,"prefecture":34,"lines":[99715,99716],"attr":"eco","postal_code":"730-0803","address":"広島市中区広瀬北町","next":[9971111,9971112,9971504,9971502,1171703,9971117,9970903],"voronoi":{"lat":34.40431,"lng":132.454139,"delta_lat":[0,4785,-15,-2818,-5130,38,686],"delta_lng":[0,-17594,-111,2265,14325,225,1185]},"impl":true},
    {"code":1171703,"id":"81b6dc","name":"三滝","name_kana":"みたき","lat":34.417278,"lng":132.447397,"prefecture":34,"lines":[11717],"attr":"heat","postal_code":"733-0802","address":"広島市西区三滝本町２丁目","next":[9971503,9971117,1171704,9970905,9971502,9970921,9970920,1161117,1161116],"voronoi":{"lat":34.41949,"lng":132.456009,"delta_lat":[0,19922,-10937,-5655,-13547,-193,15,911,6754],"delta_lng":[0,-25527,-5918,-2164,13567,467,111,3724,15718]},"impl":true},
    {"code":9970904,"left":1161130,"right":1171704,"id":"bd958b","name":"白島(広島高速交通)","original_name":"白島","name_kana":"はくしま","lat":34.411045,"lng":132.462674,"prefecture":34,"lines":[99709],"attr":"heat","postal_code":"730-0001","address":"広島県広島市中区白島北町2","next":[1161116,1161130,9971705,9970905],"voronoi":{"lat":34.416439,"lng":132.456146,"delta_lat":[0,-4326,-3801,3035],"delta_lng":[0,308,8904,7032]},"impl":true},
    {"code":1161130,"left":9970903,"id":"454a78","name":"新白島","name_kana":"しんはくしま","lat":34.408361,"lng":132.461528,"prefecture":34,"lines":[11611,11717,99709],"attr":"cool","postal_code":"730-0005","address":"広島市中区西白島町154-1","next":[9970903,9970904,1161116,9971705],"voronoi":{"lat":34.412114,"lng":132.456455,"delta_lat":[0,-1657,-5352,3208],"delta_lng":[0,-271,6049,3126]},"impl":true},
    {"code":9970903,"id":"0d99a7","name":"城北","name_kana":"じょうほく","lat":34.405407,"lng":132.458914,"prefecture":34,"lines":[99709],"attr":"heat","postal_code":"730-0005","address":"広島市中区西白島町２５-８０","next":[1161130,9970902,9971502,9971705,9971703,9971501,9971503,9971111,1161116],"voronoi":{"lat":34.405104,"lng":132.462232,"delta_lat":[0,-2788,-1350,432,458,2454,2967,2954,225],"delta_lng":[0,-391,-1161,-5399,-847,-295,477,1440,127]},"impl":true},
    {"code":1171704,"id":"577b0e","name":"安芸長束","name_kana":"あきながつか","lat":34.428382,"lng":132.456063,"prefecture":34,"lines":[11717],"attr":"heat","postal_code":"731-0135","address":"広島市安佐南区長束４丁目","next":[9970905,1171703,9970918,9970906,9970920,1171705,9970916],"voronoi":{"lat":34.44513,"lng":132.433824,"delta_lat":[0,-3568,-2149,-19922,4778,7357,15120],"delta_lng":[0,-2815,-527,25527,6302,811,-26480]},"impl":true},
    {"code":1161109,"left":9971001,"right":9970802,"id":"1b4d08","name":"瀬野","name_kana":"せの","lat":34.421994,"lng":132.59674,"prefecture":34,"lines":[11611],"attr":"cool","postal_code":"739-0311","address":"広島市安芸区瀬野１丁目","next":[1161110,1161108,1171612,9970801,9970802],"voronoi":{"lat":34.425865,"lng":132.598763,"delta_lat":[0,-15018,-68262,4338,93166],"delta_lng":[0,-9156,71040,4062,-23949]},"impl":true},
    {"code":9971001,"left":9971704,"right":1171445,"id":"da83b7","name":"広島駅","name_kana":"ひろしまえき","lat":34.396296,"lng":132.475403,"prefecture":34,"lines":[99710,99711,99713,99714],"attr":"heat","postal_code":"732-0822","address":"広島市南区松原町","next":[9971004,100312,9971002,9971003,9971005],"voronoi":{"lat":34.395034,"lng":132.472956,"delta_lat":[0,-118,1615,1187,-238],"delta_lng":[0,1090,3514,-7184,100]},"impl":true},
    {"code":9971704,"left":9971703,"right":9971705,"id":"1903bf","name":"家庭裁判所前","name_kana":"かていさいばんしょまえ","lat":34.402289,"lng":132.466106,"prefecture":34,"lines":[99717],"attr":"cool","postal_code":"730-0012","address":"広島市中区上八丁堀","next":[9971703,9971705,100312],"voronoi":{"lat":34.402315,"lng":132.461885,"delta_lat":[0,-2814,6059],"delta_lng":[0,8778,3093]},"impl":true},
    {"code":9971703,"left":9971702,"id":"615146","name":"縮景園前","name_kana":"しゅっけいえんまえ","lat":34.399881,"lng":132.465334,"prefecture":34,"lines":[99717],"attr":"eco","postal_code":"730-0012","address":"広島市中区上八丁堀","next":[100312,9971704,9970903,9970902,9971702,9971705,9971005],"voronoi":{"lat":34.399501,"lng":132.470662,"delta_lat":[0,2814,2,-1350,-1045,-2296,264],"delta_lng":[0,-8778,-43,-1161,443,8454,702]},"impl":true},
    {"code":9971702,"id":"2a6c37","name":"女学院前","name_kana":"じょがくいんまえ","lat":34.397827,"lng":132.464776,"prefecture":34,"lines":[99717],"attr":"eco","postal_code":"730-0012","address":"広島市中区上八丁堀","next":[9971005,9970902,9971008,9971007,9971703,9971006],"voronoi":{"lat":34.397625,"lng":132.469577,"delta_lat":[0,2296,-2048,-1525,-742,128],"delta_lng":[0,-8454,302,1273,2121,1887]},"impl":true},
    {"code":9971705,"id":"82c7f4","name":"白島(広島電鉄)","original_name":"白島","name_kana":"はくしま","lat":34.404484,"lng":132.465506,"prefecture":34,"lines":[99717],"attr":"cool","postal_code":"730-0012","address":"広島市中区東白島町","next":[9970903,9970904,9971704,9970905,100312,9971703,1161130],"voronoi":{"lat":34.411347,"lng":132.472391,"delta_lat":[0,414,-6202,-3245,2,2788,3208],"delta_lng":[0,5692,-4327,-11871,-43,391,3126]},"impl":true},
    {"code":1171445,"left":9971002,"right":1161110,"id":"a60b9b","name":"矢賀","name_kana":"やが","lat":34.399319,"lng":132.497769,"prefecture":34,"lines":[11714],"attr":"heat","postal_code":"732-0042","address":"広島市東区矢賀５丁目","next":[1161112,100312,1161114,9970906,1161111,1171444,9971002],"voronoi":{"lat":34.396071,"lng":132.522769,"delta_lat":[0,11150,18215,-7783,-2731,-16926,-3967],"delta_lng":[0,9263,2281,-46380,-2649,1429,778]},"impl":true},
    {"code":9971002,"left":100312,"id":"99731b","name":"猿猴橋町","name_kana":"えんこうばしちょう","lat":34.395047,"lng":132.475977,"prefecture":34,"lines":[99710,99711,99713,99714],"attr":"cool","postal_code":"732-0823","address":"広島市南区猿猴橋町","next":[100312,9971003,1171445,9971001,1161114],"voronoi":{"lat":34.38869,"lng":132.486275,"delta_lat":[0,6225,1615,1465,-3967],"delta_lng":[0,-12230,3514,9154,778]},"impl":true},
    {"code":100312,"id":"1f0cee","name":"広島","name_kana":"ひろしま","lat":34.397446,"lng":132.475593,"prefecture":34,"lines":[1003,11611,11714,11716,11717],"attr":"heat","postal_code":"732-0822","address":"広島市南区松原町","next":[9971703,9970906,9971002,1171445,9971001,9971005,9971704,9971705,9970905],"voronoi":{"lat":34.414921,"lng":132.485284,"delta_lat":[0,-16926,-1465,1187,172,1611,6059,6202,2626],"delta_lng":[0,1429,-9154,-7184,-96,383,3093,4327,4698]},"impl":true},
    {"code":1161110,"id":"ad1d56","name":"中野東","name_kana":"なかのひがし","lat":34.403275,"lng":132.578753,"prefecture":34,"lines":[11611],"attr":"cool","postal_code":"739-0321","address":"広島市安芸区中野５丁目","next":[1171616,1161109,1171617,9970801,1161111,1171618,9970803,1171612],"voronoi":{"lat":34.410848,"lng":132.589606,"delta_lat":[0,6552,15731,-108677,276,3207,1544,13105],"delta_lng":[0,-7123,-39723,85469,2195,15336,5432,9454]},"impl":true},
    {"code":9970802,"left":9970907,"right":1161107,"id":"264750","name":"みどり中街","name_kana":"みどりなかまち","lat":34.42771,"lng":132.594804,"prefecture":34,"lines":[99708],"attr":"heat","postal_code":"739-0313","address":"広島市安芸区瀬野西一丁目","next":[9970801,1171436,9970803,1161109,1171438,1161108],"voronoi":{"lat":34.464913,"lng":132.636032,"delta_lat":[0,2097,-4156,-39465,2476,14224],"delta_lng":[0,-12403,-15496,-18656,9285,41997]},"impl":true},
    {"code":9970907,"left":9970803,"right":1171444,"id":"7bb208","name":"祇園新橋北","name_kana":"ぎおんしんばしきた","lat":34.435148,"lng":132.47075,"prefecture":34,"lines":[99709],"attr":"heat","postal_code":"731-0113","address":"広島市安佐南区西原４-４３-２８","next":[1171705,9970906,1171444,9970908],"voronoi":{"lat":34.428907,"lng":132.482151,"delta_lat":[0,3192,9197,-6295],"delta_lng":[0,-18186,4594,12687]},"impl":true},
    {"code":9970803,"left":9970906,"id":"e3d579","name":"みどり中央","name_kana":"みどりちゅうおう","lat":34.430248,"lng":132.589435,"prefecture":34,"lines":[99708],"attr":"heat","postal_code":"739-0313","address":"広島市安芸区瀬野西四丁目","next":[1171438,9970801,9970802,1161111,1171439,1161110],"voronoi":{"lat":34.433131,"lng":132.542761,"delta_lat":[0,219,25330,4175,-39465,-5990],"delta_lng":[0,-328,43131,22570,-18656,-6994]},"impl":true},
    {"code":9970906,"id":"242ab5","name":"不動院前","name_kana":"ふどういんまえ","lat":34.426921,"lng":132.469306,"prefecture":34,"lines":[99709],"attr":"heat","postal_code":"732-0068","address":"広島市東区牛田新町３-３-１２","next":[100312,1171445,9970907,1171444,1171705,9970905,1171704],"voronoi":{"lat":34.424269,"lng":132.462311,"delta_lat":[0,-9881,534,2731,11254,3192,-473],"delta_lng":[0,20469,2504,2649,-5782,-18186,-843]},"impl":true},
    {"code":1171444,"id":"8b42a0","name":"戸坂","name_kana":"へさか","lat":34.438193,"lng":132.491246,"prefecture":34,"lines":[11714],"attr":"heat","postal_code":"732-0001","address":"広島市東区戸坂惣田１丁目","next":[1161111,9970906,1171445,9970907,9970909,1171440,1171443,9970908],"voronoi":{"lat":34.435001,"lng":132.481246,"delta_lat":[0,-6094,-11254,7783,7616,12789,5493,-6011],"delta_lng":[0,905,5782,46380,4977,-12837,-36235,-5790]},"impl":true},
    {"code":1161107,"left":9970801,"right":1161131,"id":"0cd9eb","name":"西条(広島)","original_name":"西条","name_kana":"さいじょう","lat":34.431394,"lng":132.743909,"prefecture":34,"lines":[11611],"attr":"cool","postal_code":"739-0001","address":"東広島市西条町大字西条","next":[1161131,100311,1161106],"voronoi":{"lat":34.398254,"lng":132.719574,"delta_lat":[0,85292,-65286],"delta_lng":[0,31612,21712]},"impl":true},
    {"code":9970801,"id":"f5403f","name":"みどり口","name_kana":"みどりぐち","lat":34.422294,"lng":132.596248,"prefecture":34,"lines":[99708],"attr":"heat","postal_code":"739-0311","address":"広島市安芸区瀬野一丁目","next":[9970802,9970803,1161109,1161110],"voronoi":{"lat":34.417399,"lng":132.582484,"delta_lat":[0,5990,2476,-15018],"delta_lng":[0,6994,9285,-9156]},"impl":true},
    {"code":1161131,"id":"60a7a0","name":"寺家","name_kana":"じけ","lat":34.439249,"lng":132.722715,"prefecture":34,"lines":[11611],"attr":"cool","postal_code":"739-0041","address":"広島県東広島市西条町寺家","open_date":"2017-03-04","next":[1171433,1161107,1171434,100311,1161108,1161106],"voronoi":{"lat":34.398254,"lng":132.719574,"delta_lat":[0,-18873,132792,14244,1053,-43924],"delta_lng":[0,-25486,23814,25412,3254,4618]},"impl":true},
    {"code":9980409,"left":9980407,"right":3200129,"id":"79097f","name":"八栗","name_kana":"やくり","lat":34.344582,"lng":134.122439,"prefecture":37,"lines":[99804],"attr":"cool","postal_code":"761-0121","address":"高松市牟礼町牟礼２２１６-２","next":[1180207,9980410,9980201,1163115,9980406,9980408,9980407,1170915,1163116],"voronoi":{"lat":34.505993,"lng":134.11492,"delta_lat":[0,-19183,-30294,-28218,-68944,-14878,-3439,170294,-1998],"delta_lng":[0,-17105,-2579,3753,12229,5562,11056,28170,-20604]},"impl":true},
    {"code":9980407,"left":1171604,"right":1180206,"id":"79f436","name":"琴電屋島","name_kana":"ことでんやしま","lat":34.341624,"lng":134.105763,"prefecture":37,"lines":[99804],"attr":"cool","postal_code":"761-0112","address":"高松市屋島中町２７０-１","next":[9980408,9980409,9980406,1180206],"voronoi":{"lat":34.359354,"lng":134.111218,"delta_lat":[0,68944,-92675,4555],"delta_lng":[0,-12229,3211,6778]},"impl":true},
    {"code":1171604,"left":9980204,"right":9980402,"id":"2facd0","name":"安芸幸崎","name_kana":"あきさいざき","lat":34.338165,"lng":133.040096,"prefecture":34,"lines":[11716],"attr":"cool","postal_code":"729-2252","address":"三原市幸崎町能地","next":[1171605,100310,1180642,1171603,1180643,1161102,1180640],"voronoi":{"lat":34.384307,"lng":133.039835,"delta_lat":[0,4275,-13956,-160816,-30298,-10516,-148],"delta_lng":[0,-6203,-18909,4201,102238,62708,10560]},"impl":true},
    {"code":9980204,"left":1171605,"right":1180204,"id":"96bc75","name":"栗林公園","name_kana":"りつりんこうえん","lat":34.328586,"lng":134.051063,"prefecture":37,"lines":[99802],"attr":"heat","postal_code":"760-0073","address":"高松市栗林町３-８３０","next":[1180204,9980305,9980205,9980304,1180203],"voronoi":{"lat":34.325643,"lng":134.059112,"delta_lat":[0,-3198,-246,3282,8163],"delta_lng":[0,2140,-57,-18364,4812]},"impl":true},
    {"code":1171605,"left":1180203,"right":1171606,"id":"d1c99c","name":"忠海","name_kana":"ただのうみ","lat":34.33689,"lng":132.991289,"prefecture":34,"lines":[11716],"attr":"cool","postal_code":"729-2311","address":"竹原市忠海町徳浜","next":[1171604,1161102,1171606,1180643],"voronoi":{"lat":34.218094,"lng":132.973175,"delta_lat":[0,154553,1979,-160816],"delta_lng":[0,4938,36611,4201]},"impl":true},
    {"code":1180203,"left":1180603,"id":"922d86","name":"栗林公園北口","name_kana":"りつりんこうえんきたぐち","lat":34.334188,"lng":134.041561,"prefecture":37,"lines":[11802],"attr":"cool","postal_code":"760-0008","address":"高松市中野町","next":[9980205,1180202,1180204,9980203,9980206,1180602,9980204,1180201],"voronoi":{"lat":34.343381,"lng":134.041324,"delta_lat":[0,-17755,-9687,2126,7416,8163,1039,7666],"delta_lng":[0,-18271,-2053,8276,13555,4812,174,-3242]},"impl":true},
    {"code":1180603,"id":"c460c0","name":"鬼無","name_kana":"きなし","lat":34.325455,"lng":133.99385,"prefecture":37,"lines":[11806],"attr":"heat","postal_code":"761-8023","address":"高松市鬼無町佐藤","next":[9980206,1180607,1180602,1180604,1180605,9980211,1170915,9980210],"voronoi":{"lat":34.314671,"lng":134.019967,"delta_lat":[0,86387,-725,-21899,-17941,-59142,10167,81],"delta_lng":[0,-84996,-3063,4600,8579,46881,26991,120]},"impl":true},
    {"code":1171606,"id":"a58103","name":"安芸長浜","name_kana":"あきながはま","lat":34.337804,"lng":132.962681,"prefecture":34,"lines":[11716],"attr":"cool","postal_code":"729-2311","address":"竹原市忠海町西長浜","next":[1161102,1180643,1180644,1171605,1171607],"voronoi":{"lat":34.372648,"lng":132.978113,"delta_lat":[0,-154553,-786,731,160668],"delta_lng":[0,-4938,-30178,-8899,26380]},"impl":true},
    {"code":1180204,"left":1180205,"right":9980304,"id":"1ec4a8","name":"栗林","name_kana":"りつりん","lat":34.332181,"lng":134.053571,"prefecture":37,"lines":[11802],"attr":"cool","postal_code":"760-0071","address":"高松市藤塚町３丁目","next":[9980204,9980203,1180203,9980304],"voronoi":{"lat":34.335902,"lng":134.055586,"delta_lat":[0,-1218,-1039,-8001],"delta_lng":[0,-7770,-174,11469]},"impl":true},
    {"code":1180205,"left":9980305,"id":"b65f5b","name":"木太町","name_kana":"きたちょう","lat":34.331928,"lng":134.079889,"prefecture":37,"lines":[11802],"attr":"cool","postal_code":"760-0080","address":"高松市木太町","next":[9980305,9980404,9980405,9980306,9980406],"voronoi":{"lat":34.332625,"lng":134.091128,"delta_lat":[0,5403,-5789,-6392,-419],"delta_lng":[0,-13286,-7044,7998,16034]},"impl":true},
    {"code":9980305,"id":"54a939","name":"林道","name_kana":"はやしみち","lat":34.32344,"lng":134.073106,"prefecture":37,"lines":[99803],"attr":"cool","postal_code":"760-0080","address":"高松市木太町１６０９-２","next":[1180205,9980204,9980206,9980403,9980307,9980404,9980306,9980205,9980304],"voronoi":{"lat":34.332191,"lng":134.069799,"delta_lat":[0,48,-6392,-16264,-2942,5763,9795,246,9009],"delta_lng":[0,998,7998,-9365,-3599,-3094,-1543,57,7109]},"impl":true},
    {"code":9980304,"id":"0a7754","name":"花園(香川)","original_name":"花園","name_kana":"はなぞの","lat":34.334206,"lng":134.059463,"prefecture":37,"lines":[99803],"attr":"cool","postal_code":"760-0072","address":"高松市花園町１-１３１１-１０","next":[9980403,9980402,9980204,9980203,1180204,9980305],"voronoi":{"lat":34.322445,"lng":134.061252,"delta_lat":[0,3198,10258,1772,388,-6607],"delta_lng":[0,-2140,-3525,1181,4196,7397]},"impl":true},
    {"code":9980402,"left":1180602,"right":9980404,"id":"9ae8ee","name":"今橋","name_kana":"いまばし","lat":34.341577,"lng":134.058782,"prefecture":37,"lines":[99804],"attr":"eco","postal_code":"760-0068","address":"高松市松島町１-３-２１","next":[9980202,9980304,9980203,9980403],"voronoi":{"lat":34.338062,"lng":134.060964,"delta_lat":[0,-388,4468,9556],"delta_lng":[0,-4196,-1965,9873]},"impl":true},
    {"code":1180602,"left":9980203,"right":1180202,"id":"60946c","name":"香西","name_kana":"こうざい","lat":34.34096,"lng":134.009609,"prefecture":37,"lines":[11806],"attr":"heat","postal_code":"760-0093","address":"高松市鶴市町","next":[9980206,1180603,1170915,1180201,1180203,1180202],"voronoi":{"lat":34.404171,"lng":134.012867,"delta_lat":[0,22958,-26070,-86387,1268,9687],"delta_lng":[0,-6043,-71853,84996,1032,2053]},"impl":true},
    {"code":9980203,"left":1171607,"id":"f7d4e0","name":"瓦町","name_kana":"かわらまち","lat":34.338827,"lng":134.052529,"prefecture":37,"lines":[99802,99803,99804],"attr":"cool","postal_code":"760-0054","address":"高松市常磐町１-３-１","next":[9980202,1180204,1180203,9980402,9980304,1180201],"voronoi":{"lat":34.342142,"lng":134.054802,"delta_lat":[0,-4468,-1772,-1218,7666,1550],"delta_lng":[0,1965,-1181,-7770,-3242,3239]},"impl":true},
    {"code":1171607,"id":"e4ea48","name":"大乗","name_kana":"おおのり","lat":34.340656,"lng":132.945311,"prefecture":34,"lines":[11716],"attr":"cool","postal_code":"729-2313","address":"竹原市高崎町","next":[1180644,1161102,1171609,1171608,1171606],"voronoi":{"lat":34.400049,"lng":132.925476,"delta_lat":[0,-171647,-10360,-2,160668],"delta_lng":[0,5814,2610,198,26380]},"impl":true},
    {"code":1180202,"id":"dfb06d","name":"昭和町(香川)","original_name":"昭和町","name_kana":"しょうわちょう","lat":34.343882,"lng":134.032141,"prefecture":37,"lines":[11802],"attr":"cool","postal_code":"760-0014","address":"高松市昭和町１丁目","next":[1180203,1180201,1180602],"voronoi":{"lat":34.343381,"lng":134.041324,"delta_lat":[0,60789,-78544],"delta_lng":[0,-28456,10185]},"impl":true},
    {"code":9980404,"left":9980405,"right":9980406,"id":"1ec8a1","name":"沖松島","name_kana":"おきまつしま","lat":34.341219,"lng":134.072253,"prefecture":37,"lines":[99804],"attr":"eco","postal_code":"760-0066","address":"高松市福岡町４-３２-１","next":[9980202,1180205,9980201,9980305,9980405,9980403],"voronoi":{"lat":34.354285,"lng":134.066228,"delta_lat":[0,12786,21921,-50963,-5789,-48],"delta_lng":[0,3517,9223,-1126,-7044,-998]},"impl":true},
    {"code":9980405,"left":9980403,"id":"d5f984","name":"春日川","name_kana":"かすががわ","lat":34.340969,"lng":134.083566,"prefecture":37,"lines":[99804],"attr":"eco","postal_code":"760-0080","address":"高松市木太町２７０８","next":[9980201,9980406,1180205,9980404],"voronoi":{"lat":34.422764,"lng":134.088706,"delta_lat":[0,-90138,5403,50963],"delta_lng":[0,2421,-13286,1126]},"impl":true},
    {"code":9980403,"id":"81ab41","name":"松島二丁目","name_kana":"まつしまにちょうめ","lat":34.339986,"lng":134.064626,"prefecture":37,"lines":[99804],"attr":"eco","postal_code":"760-0067","address":"高松市松福町２-１５-２","next":[9980305,9980304,9980402,9980404,9980202],"voronoi":{"lat":34.351697,"lng":134.064676,"delta_lat":[0,-13636,-6607,737,22093],"delta_lng":[0,-3712,7397,1439,-3572]},"impl":true},
    {"code":9980406,"id":"01ffc9","name":"潟元","name_kana":"かたもと","lat":34.341363,"lng":134.098231,"prefecture":37,"lines":[99804],"attr":"eco","postal_code":"761-0113","address":"高松市屋島西町１７２３-５","next":[9980306,9980405,9980409,1180206,9980407,1180205,9980201],"voronoi":{"lat":34.422764,"lng":134.088706,"delta_lat":[0,-90138,-7197,-1855,12050,92675,28218],"delta_lng":[0,2421,3702,2152,5219,-3211,-3753]},"impl":true},
    {"code":1180206,"left":9980416,"right":9980411,"id":"f5287a","name":"屋島","name_kana":"やしま","lat":34.336655,"lng":134.109102,"prefecture":37,"lines":[11802],"attr":"cool","postal_code":"761-0104","address":"高松市高松町帰来","next":[9980306,9980408,9980308,1180207,9980307,9980406,9980309,9980407],"voronoi":{"lat":34.335624,"lng":134.1022,"delta_lat":[0,-12050,-1291,-1768,-4358,-1719,19199,6542],"delta_lng":[0,-5219,740,1830,8926,15785,-7075,-8209]},"impl":true},
    {"code":9980416,"left":9980413,"right":1162631,"id":"8620f6","name":"琴電志度","name_kana":"ことでんしど","lat":34.32246,"lng":134.172528,"prefecture":37,"lines":[99804],"attr":"heat","postal_code":"769-2101","address":"さぬき市志度４９５-７","next":[9980414,1163108,9980413,1180214,1180210,9980415],"voronoi":{"lat":34.385767,"lng":134.206666,"delta_lat":[0,123962,-547,-145982,-46519,25762],"delta_lng":[0,93567,2171,-65872,-71893,11467]},"impl":true},
    {"code":9980413,"left":9980415,"right":1180209,"id":"e2286c","name":"塩屋(香川)","original_name":"塩屋","name_kana":"しおや","lat":34.335583,"lng":134.155142,"prefecture":37,"lines":[99804],"attr":"cool","postal_code":"761-0122","address":"高松市牟礼町大町１５０２-５","next":[9980414,9980416,9980410,9980412,1180209,1163115,1163108],"voronoi":{"lat":34.525908,"lng":134.246955,"delta_lat":[0,-8153,-142201,-33886,-14378,58476,123962],"delta_lng":[0,-42336,-47765,-4845,-1630,56288,93567]},"impl":true},
    {"code":9980415,"left":9980414,"id":"7d7f37","name":"原(香川)","original_name":"原","name_kana":"はら","lat":34.32641,"lng":134.163654,"prefecture":37,"lines":[99804],"attr":"heat","postal_code":"761-0123","address":"高松市牟礼町原３５５-２","next":[9980310,9980313,9980411,1180209,9980314,1180211,9980414,9980416,1180210],"voronoi":{"lat":34.342442,"lng":134.176106,"delta_lat":[0,-25785,-10037,-1317,-2255,-880,-3550,5754,12308],"delta_lng":[0,-29704,-6267,-645,1660,1477,7435,8219,6358]},"impl":true},
    {"code":9980414,"id":"7b328e","name":"房前","name_kana":"ふさざき","lat":34.332367,"lng":134.158483,"prefecture":37,"lines":[99804],"attr":"heat","postal_code":"761-0123","address":"高松市牟礼町原６２２-１","next":[9980413,9980416,9980415,1180209],"voronoi":{"lat":34.385767,"lng":134.206666,"delta_lat":[0,-43324,-25785,10633],"delta_lng":[0,-30560,-29704,3976]},"impl":true},
    {"code":1180209,"id":"c4ed09","name":"讃岐牟礼","name_kana":"さぬきむれ","lat":34.336439,"lng":134.147592,"prefecture":37,"lines":[11802],"attr":"cool","postal_code":"761-0122","address":"高松市牟礼町大町","next":[9980415,9980412,9980411,9980413,9980414],"voronoi":{"lat":34.341669,"lng":134.152008,"delta_lat":[0,-9105,-25943,10037,10633],"delta_lng":[0,-8155,-3718,6267,3976]},"impl":true},
    {"code":1162631,"left":3200137,"right":3200136,"id":"447d5f","name":"山中渓","name_kana":"やまなかだに","lat":34.325534,"lng":135.269741,"prefecture":27,"lines":[11626],"attr":"cool","postal_code":"599-0214","address":"阪南市山中渓","next":[1163630,1162630,1163632,3200135,1162632,1163629,3200134,1162628,1162629],"voronoi":{"lat":34.340391,"lng":135.283107,"delta_lat":[0,-16014,-6305,-10672,-20477,2565,14214,17123,9028],"delta_lng":[0,-41874,-4292,-2950,48949,11537,19471,15428,-14425]},"impl":true},
    {"code":3200137,"left":1180210,"id":"db468a","name":"みさき公園","name_kana":"みさきこうえん","lat":34.323986,"lng":135.160977,"prefecture":27,"lines":[32001,32006],"attr":"heat","postal_code":"599-0301","address":"泉南郡岬町淡輪３７１４","next":[3200602,3200136,3200138,3200604,1162803,3200603],"voronoi":{"lat":34.305715,"lng":135.161318,"delta_lat":[0,-5967,138627,9414,-53534,-40871],"delta_lng":[0,19994,-58438,-12790,16380,13707]},"impl":true},
    {"code":1180210,"id":"732396","name":"志度","name_kana":"しど","lat":34.321508,"lng":134.173144,"prefecture":37,"lines":[11802],"attr":"eco","postal_code":"769-2101","address":"さぬき市大字志度","next":[1180214,1180213,9980416,9980415,1180211],"voronoi":{"lat":34.331287,"lng":134.222418,"delta_lat":[0,31912,-46519,-12308,23780],"delta_lng":[0,14114,-71893,-6358,60756]},"impl":true},
    {"code":3200136,"id":"7dd582","name":"淡輪","name_kana":"たんのわ","lat":34.331229,"lng":135.178159,"prefecture":27,"lines":[32001],"attr":"heat","postal_code":"599-0301","address":"泉南郡岬町淡輪１１９７","next":[3200137,3200135,3200138,1162803,1162633],"voronoi":{"lat":34.4059,"lng":135.175011,"delta_lat":[0,32475,-138627,-4712,7161],"delta_lng":[0,-52137,58438,7051,17011]},"impl":true},
    {"code":9980411,"left":1180207,"right":3200135,"id":"e4d9a2","name":"大町(香川)","original_name":"大町","name_kana":"おおまち","lat":34.337333,"lng":134.141354,"prefecture":37,"lines":[99804],"attr":"cool","postal_code":"761-0122","address":"高松市牟礼町大町１５３２-５","next":[9980310,9980309,9980415,1180207,9980410,9980412,1180208,1180209],"voronoi":{"lat":34.351032,"lng":134.145806,"delta_lat":[0,-8021,-29045,-330,-1604,-6728,1317,25943],"delta_lng":[0,-5875,-13434,-64,1807,11251,645,3718]},"impl":true},
    {"code":1180207,"left":1180208,"right":9980410,"id":"f207bf","name":"古高松南","name_kana":"ふるたかまつみなみ","lat":34.34118,"lng":134.121381,"prefecture":37,"lines":[11802],"attr":"cool","postal_code":"761-0104","address":"高松市高松町","next":[9980411,9980409,9980408,1180206,1180208,9980410,9980309],"voronoi":{"lat":34.313966,"lng":134.126496,"delta_lat":[0,25869,1203,3439,-10840,-19199,-802],"delta_lng":[0,1480,-140,-11056,407,7075,2170]},"impl":true},
    {"code":1180208,"left":9980408,"id":"63ca53","name":"八栗口","name_kana":"やくりぐち","lat":34.340419,"lng":134.134682,"prefecture":37,"lines":[11802],"attr":"cool","postal_code":"761-0122","address":"高松市牟礼町大町","next":[9980410,1180207,9980411],"voronoi":{"lat":34.313966,"lng":134.126496,"delta_lat":[0,25869,3176],"delta_lng":[0,1480,11954]},"impl":true},
    {"code":9980408,"id":"715601","name":"古高松","name_kana":"ふるたかまつ","lat":34.340844,"lng":134.11244,"prefecture":37,"lines":[99804],"attr":"cool","postal_code":"761-0104","address":"高松市高松町１５-２","next":[1180206,1180207,9980409,9980407],"voronoi":{"lat":34.340178,"lng":134.108978,"delta_lat":[0,-6542,10840,14878],"delta_lng":[0,8209,-407,-5562]},"impl":true},
    {"code":9980410,"id":"a83b5e","name":"六万寺","name_kana":"ろくまんじ","lat":34.342655,"lng":134.134088,"prefecture":37,"lines":[99804],"attr":"cool","postal_code":"761-0121","address":"高松市牟礼町牟礼１０９７-２","next":[9980412,1180208,9980411,1163115,9980409,1180207,9980413],"voronoi":{"lat":34.511332,"lng":134.156007,"delta_lat":[0,-170294,-1203,3176,8021,24523,142201],"delta_lng":[0,-28170,140,11954,5875,11048,47765]},"impl":true},
    {"code":3200135,"left":9980412,"right":1162630,"id":"aa9a8b","name":"箱作","name_kana":"はこつくり","lat":34.341323,"lng":135.212634,"prefecture":27,"lines":[32001],"attr":"heat","postal_code":"599-0232","address":"阪南市箱作３２０","next":[3200134,3200136,1162631,3200133,1162803,1162633,1162632],"voronoi":{"lat":34.301136,"lng":135.220525,"delta_lat":[0,1060,103703,-5182,-15346,-67299,-10672],"delta_lng":[0,-15151,-30363,15939,10982,35009,-2950]},"impl":true},
    {"code":9980412,"id":"419cba","name":"八栗新道","name_kana":"やくりしんみち","lat":34.336705,"lng":134.147295,"prefecture":37,"lines":[99804],"attr":"cool","postal_code":"761-0122","address":"高松市牟礼町大町１３８９-７","next":[9980410,9980411,1180209,9980413],"voronoi":{"lat":34.341669,"lng":134.152008,"delta_lat":[0,-9105,18468,24523],"delta_lng":[0,-8155,1952,11048]},"impl":true},
    {"code":1162630,"id":"843b28","name":"和泉鳥取","name_kana":"いずみとっとり","lat":34.342538,"lng":135.263238,"prefecture":27,"lines":[11626],"attr":"cool","postal_code":"599-0204","address":"阪南市鳥取","next":[3200132,3200134,1162631,1162629,3200133],"voronoi":{"lat":34.358534,"lng":135.265219,"delta_lat":[0,-18143,-16014,22042,11610],"delta_lng":[0,17888,-41874,6171,9308]},"impl":true},
    {"code":3200129,"left":3200131,"right":1162624,"id":"05fc8c","name":"羽倉崎","name_kana":"はぐらざき","lat":34.399346,"lng":135.299484,"prefecture":27,"lines":[32001],"attr":"heat","postal_code":"598-0046","address":"泉佐野市羽倉崎１-１-２４","next":[3200130,1162627,3200128,1162802,1162628],"voronoi":{"lat":34.396139,"lng":135.314344,"delta_lat":[0,8172,1299,-19782,-44],"delta_lng":[0,-5596,-22495,16171,2910]},"impl":true},
    {"code":3200131,"left":3200134,"right":1161018,"id":"a2283d","name":"岡田浦","name_kana":"おかだうら","lat":34.384569,"lng":135.276939,"prefecture":27,"lines":[32001],"attr":"heat","postal_code":"590-0531","address":"泉南市岡田５-２４-３","next":[3200130,1162803,1162629,1162628,3200132,1162802],"voronoi":{"lat":34.378856,"lng":135.28821,"delta_lat":[0,-5329,-1939,33411,10611,-497],"delta_lng":[0,-2929,-10938,-22275,16281,552]},"impl":true},
    {"code":3200134,"left":9980201,"right":1162628,"id":"50f3dd","name":"鳥取ノ荘","name_kana":"とっとりのしょう","lat":34.351323,"lng":135.231857,"prefecture":27,"lines":[32001],"attr":"heat","postal_code":"599-0204","address":"阪南市鳥取６６５","next":[1162630,3200135,3200133,1162631],"voronoi":{"lat":34.34642,"lng":135.247405,"delta_lat":[0,38952,-67299,6305],"delta_lng":[0,-45472,35009,4292]},"impl":true},
    {"code":9980201,"left":9980202,"right":1171603,"id":"6e6c73","name":"高松築港","name_kana":"たかまつちっこう","lat":34.35079,"lng":134.049507,"prefecture":37,"lines":[99802,99803],"attr":"cool","postal_code":"760-0000","address":"高松市多玉藻町９７-２","next":[9980405,9980202,1180201,9980404,9980409,1170915,9980406],"voronoi":{"lat":34.48681,"lng":134.097815,"delta_lat":[0,-33886,-108317,22463,21921,33772,33753],"delta_lng":[0,-51021,1452,21498,9223,9739,6530]},"impl":true},
    {"code":9980202,"left":1180201,"id":"ae7727","name":"片原町(香川)","original_name":"片原町","name_kana":"かたはらまち","lat":34.346138,"lng":134.054368,"prefecture":37,"lines":[99802,99803],"attr":"cool","postal_code":"760-0035","address":"高松市鶴屋町９-１","next":[9980203,9980201,9980402,1180201,9980404,9980403],"voronoi":{"lat":34.367071,"lng":134.069744,"delta_lat":[0,-22463,-708,-1758,9556,2587],"delta_lng":[0,-21498,-433,6989,9873,1552]},"impl":true},
    {"code":1180201,"id":"a3a37a","name":"高松(香川)","original_name":"高松","name_kana":"たかまつ","lat":34.350754,"lng":134.046821,"prefecture":37,"lines":[11802,11806],"attr":"cool","postal_code":"760-0011","address":"高松市浜ノ町","next":[1170915,9980202,9980201,1180202,1180602,1180203,9980203],"voronoi":{"lat":34.342349,"lng":134.044574,"delta_lat":[0,1032,60789,22958,25796,-108317,-708],"delta_lng":[0,-3251,-28456,-6043,39970,1452,-433]},"impl":true},
    {"code":1171603,"id":"610656","name":"須波","name_kana":"すなみ","lat":34.370061,"lng":133.083724,"prefecture":34,"lines":[11716],"attr":"cool","postal_code":"723-0031","address":"三原市須波町","next":[100310,1180640,1161019,1161018,1171604,1180630],"voronoi":{"lat":34.171285,"lng":133.206044,"delta_lat":[0,1563,211459,1102,-64418,-149149],"delta_lng":[0,-11614,-154595,49662,69970,47500]},"impl":true},
    {"code":1162628,"left":1162629,"right":3200132,"id":"117853","name":"新家","name_kana":"しんげ","lat":34.372405,"lng":135.299076,"prefecture":27,"lines":[11626],"attr":"cool","postal_code":"590-0503","address":"泉南市新家","next":[3200130,3200131,1163629,3200129,1162629,1162631,1162627],"voronoi":{"lat":34.320826,"lng":135.329376,"delta_lat":[0,9028,43673,5329,6972,-44,-63069],"delta_lng":[0,-14425,-29670,2929,14213,2910,29107]},"impl":true},
    {"code":1162629,"left":3200133,"id":"bfbd0e","name":"和泉砂川","name_kana":"いずみすながわ","lat":34.360289,"lng":135.281242,"prefecture":27,"lines":[11626],"attr":"cool","postal_code":"590-0522","address":"泉南市信達牧野","next":[3200132,3200131,1162630,1162628,1162631],"voronoi":{"lat":34.340391,"lng":135.283107,"delta_lat":[0,18143,13053,1939,-43673],"delta_lng":[0,-17888,9124,10938,29670]},"impl":true},
    {"code":3200133,"id":"2ceccd","name":"尾崎","name_kana":"おざき","lat":34.36103,"lng":135.240172,"prefecture":27,"lines":[32001],"attr":"heat","postal_code":"599-0201","address":"阪南市尾崎町９５-１","next":[3200134,3200135,3200132,1162630,1162803],"voronoi":{"lat":34.400717,"lng":135.19095,"delta_lat":[0,-15346,-38952,11610,40940],"delta_lng":[0,10982,45472,9308,-25414]},"impl":true},
    {"code":3200132,"id":"3987f3","name":"樽井","name_kana":"たるい","lat":34.374184,"lng":135.261362,"prefecture":27,"lines":[32001],"attr":"heat","postal_code":"590-0521","address":"泉南市樽井５-４１-１","next":[1162630,1162629,1162803,3200133,3200131],"voronoi":{"lat":34.404999,"lng":135.252069,"delta_lat":[0,-6029,-40940,505,13053],"delta_lng":[0,-20770,25414,8507,9124]},"impl":true},
    {"code":1161018,"left":1161102,"right":1162803,"id":"7b0a3f","name":"尾道","name_kana":"おのみち","lat":34.404826,"lng":133.192884,"prefecture":34,"lines":[11610],"attr":"cool","postal_code":"722-0036","address":"尾道市東御所町","next":[1180630,100309,1161017,1171603,1161019],"voronoi":{"lat":34.171843,"lng":133.206968,"delta_lat":[0,47481,200308,-6833,-91807],"delta_lng":[0,155969,-149724,-66596,12851]},"impl":true},
    {"code":1161102,"left":1161019,"right":100309,"id":"5e758c","name":"本郷(広島)","original_name":"本郷","name_kana":"ほんごう","lat":34.409617,"lng":132.987358,"prefecture":34,"lines":[11611],"attr":"eco","postal_code":"729-0412","address":"三原市本郷町本郷","next":[1171606,1161103,100310,1171607,1171608,1172019,1171605,1171604],"voronoi":{"lat":34.52127,"lng":133.046293,"delta_lat":[0,23806,-137847,-7180,-21341,-6060,1979,13956],"delta_lng":[0,-42777,-84528,6487,35002,17635,36611,18909]},"impl":true},
    {"code":1161019,"left":100310,"id":"df3be8","name":"糸崎","name_kana":"いとざき","lat":34.392429,"lng":133.104317,"prefecture":34,"lines":[11610,11716],"attr":"eco","postal_code":"729-0324","address":"三原市糸崎町","next":[100309,1171603,100310,1161018],"voronoi":{"lat":34.385409,"lng":133.089498,"delta_lat":[0,84687,-57298,-91807],"delta_lng":[0,32082,25037,12851]},"impl":true},
    {"code":100310,"id":"4d901a","name":"三原","name_kana":"みはら","lat":34.400486,"lng":133.083049,"prefecture":34,"lines":[1003,11610,11611,11716],"attr":"eco","postal_code":"723-0014","address":"三原市城町","next":[1171604,1161102,1172018,1171603,1161019,1172019,100309],"voronoi":{"lat":34.500334,"lng":133.113259,"delta_lat":[0,17794,3142,-132687,-4275,1102,84687],"delta_lng":[0,-40302,-26663,-12661,6203,49662,32082]},"impl":true},
    {"code":100309,"id":"81053f","name":"新尾道","name_kana":"しんおのみち","lat":34.430001,"lng":133.190301,"prefecture":34,"lines":[1003],"attr":"cool","postal_code":"722-0022","address":"広島県尾道市栗原町","next":[1172016,1161019,1172018,1161018,1161017,100310],"voronoi":{"lat":34.500334,"lng":133.113259,"delta_lat":[0,1107,-10149,-71660,-6833,57298],"delta_lng":[0,7494,84209,8251,-66596,-25037]},"impl":true},
    {"code":1162803,"left":3200130,"right":9971901,"id":"ae8df6","name":"関西空港","name_kana":"かんさいくうこう","lat":34.436,"lng":135.243419,"prefecture":27,"lines":[11628,32002],"attr":"heat","postal_code":"549-0011","address":"泉南郡田尻町泉州空港中１番","next":[3200124,1160806,3200131,9963709,3200132,1162802,3200137,9963710,3200135,3200136,3200126,9964702,1160805,3200123,3200604,9964809,9963707,3200125,3200133,1160822],"voronoi":{"lat":34.531729,"lng":135.168111,"delta_lat":[0,8829,-6044,-42695,-11290,-5475,-59445,-10611,-6029,1748,5182,32475,9414,21711,11404,11418,12117,15762,8028,1664],"delta_lng":[0,123560,973,3556,-364,-549,-26937,-16281,-20770,-40348,-15939,-52137,-12790,-24380,12257,13068,14953,22210,12680,3010]},"impl":true},
    {"code":3200130,"left":1161017,"id":"fa783b","name":"吉見ノ里","name_kana":"よしみのさと","lat":34.391397,"lng":135.28976,"prefecture":27,"lines":[32001],"attr":"heat","postal_code":"598-0092","address":"泉南郡田尻町大字吉見６０３","next":[3200131,3200129,1162628,1162802],"voronoi":{"lat":34.415112,"lng":135.268901,"delta_lat":[0,-36257,6972,19782],"delta_lng":[0,19309,14213,-16171]},"impl":true},
    {"code":1161017,"id":"08ceb5","name":"東尾道","name_kana":"ひがしおのみち","lat":34.434937,"lng":133.233168,"prefecture":34,"lines":[11610],"attr":"cool","postal_code":"729-0141","address":"尾道市高須町字東新涯","next":[1161018,100309,1161016,1172016,1180630],"voronoi":{"lat":34.493399,"lng":133.213982,"delta_lat":[0,-2108,-71660,-200308,4252],"delta_lng":[0,-9021,8251,149724,21478]},"impl":true},
    {"code":9971901,"id":"be42a8","name":"下津井","name_kana":"しもつい","closed":true,"lat":34.439004,"lng":133.789556,"prefecture":33,"lines":[99719],"attr":"unknown","postal_code":"711-0927","address":"岡山県倉敷市下津井４丁目４-２４","next":[9971908,1161008,9970410,1171006,1161009,1180101,1180614,1180612,9971906,1180611,9971903,9971902],"voronoi":{"lat":34.372725,"lng":133.802104,"delta_lat":[0,-7992,-157,3567,6465,8805,24968,4431,58788,-1567,-20845,-24192],"delta_lng":[0,-43962,-6856,-45485,-33558,-27241,10922,2676,89100,6355,40055,4828]},"impl":true},
    {"code":1162624,"left":1162625,"right":9961703,"id":"072f71","name":"東佐野","name_kana":"ひがしさの","lat":34.416744,"lng":135.350138,"prefecture":27,"lines":[11626],"attr":"cool","postal_code":"598-0072","address":"泉佐野市泉ケ丘","next":[1162623,3200127,9961710,1162625,9961706,3200125,9961708,9961707,9961705,3200126],"voronoi":{"lat":34.425495,"lng":135.350216,"delta_lat":[0,-10590,-590,-9051,-998,-2645,-4838,19289,624,7679],"delta_lng":[0,13059,216,1718,-79,-446,-1804,-22793,99,6350]},"impl":true},
    {"code":1162625,"left":1162802,"right":9961708,"id":"0fb349","name":"熊取","name_kana":"くまとり","lat":34.406048,"lng":135.341086,"prefecture":27,"lines":[11626],"attr":"cool","postal_code":"590-0401","address":"泉南郡熊取町大字大久保","next":[9961710,1162624,3200128,1162626,3200127],"voronoi":{"lat":34.407506,"lng":135.328676,"delta_lat":[0,-3792,-21829,14897,19289],"delta_lng":[0,-794,34155,844,-22793]},"impl":true},
    {"code":1162802,"left":1162626,"right":3200128,"id":"a00757","name":"りんくうタウン","name_kana":"りんくうたうん","lat":34.410308,"lng":135.300117,"prefecture":27,"lines":[11628,32002],"attr":"heat","postal_code":"598-0048","address":"泉佐野市りんくう往来北１番","next":[3200127,3200126,1162803,3200128,3200131,3200129,3200130],"voronoi":{"lat":34.415112,"lng":135.268901,"delta_lat":[0,497,59445,-13342,-18841,-38561,1299],"delta_lng":[0,-552,26937,5640,5859,1962,-22495]},"impl":true},
    {"code":1162626,"left":1162627,"id":"c6d191","name":"日根野","name_kana":"ひねの","lat":34.39075,"lng":135.331309,"prefecture":27,"lines":[11626,11628],"attr":"cool","postal_code":"598-0021","address":"泉佐野市日根野","next":[1163627,9961710,3200128,1163628,1162627,1162625],"voronoi":{"lat":34.403714,"lng":135.327881,"delta_lat":[0,-7245,-63727,1140,1319,46684],"delta_lng":[0,-10134,48250,4347,2683,-10991]},"impl":true},
    {"code":1162627,"id":"100155","name":"長滝","name_kana":"ながたき","lat":34.381865,"lng":135.319574,"prefecture":27,"lines":[11626],"attr":"cool","postal_code":"598-0034","address":"泉佐野市長滝","next":[3200128,3200129,1163628,1163629,1162626,1162628],"voronoi":{"lat":34.385784,"lng":135.305333,"delta_lat":[0,10355,331,-63727,-8346,-1682],"delta_lng":[0,9010,3404,48250,-21812,-9745]},"impl":true},
    {"code":3200128,"id":"92983c","name":"泉佐野","name_kana":"いずみさの","lat":34.411153,"lng":135.316724,"prefecture":27,"lines":[32001,32002],"attr":"heat","postal_code":"598-0007","address":"泉佐野市上町３-１１-４１","next":[3200127,1162627,1162626,1162625,1162802,3200129],"voronoi":{"lat":34.40431,"lng":135.308747,"delta_lat":[0,38561,-35365,-3792,-7245,-331],"delta_lng":[0,-1962,21890,-794,-10134,-3404]},"impl":true},
    {"code":9961708,"left":9961710,"right":9961707,"id":"8d5e34","name":"三ツ松","name_kana":"みつまつ","lat":34.411135,"lng":135.383387,"prefecture":27,"lines":[99617],"attr":"heat","postal_code":"597-0105","address":"貝塚市三ツ松８３２","next":[9961707,1162620,1162624,9961709,9961710],"voronoi":{"lat":34.401621,"lng":135.364684,"delta_lat":[0,2645,23209,-2447,-21978],"delta_lng":[0,446,48232,8411,-52135]},"impl":true},
    {"code":9961710,"left":9961709,"id":"f6252e","name":"水間観音","name_kana":"みずまかんのん","lat":34.403528,"lng":135.385581,"prefecture":27,"lines":[99617],"attr":"cool","postal_code":"597-0104","address":"大阪府貝塚市水間","next":[1162625,9961606,1162624,1163623,1163622,1162626,1163626,1163627,1163624,9961708,9961709,1163625],"voronoi":{"lat":34.339775,"lng":135.413818,"delta_lat":[0,-4051,-522,46684,14897,4838,1429,9998,-35327,-12158,-13678,-10461],"delta_lng":[0,-28921,-11870,-10991,844,1804,4954,66996,28913,-11805,-16155,-19274]},"impl":true},
    {"code":9961709,"id":"e29833","name":"三ヶ山口","name_kana":"みけやまぐち","lat":34.407247,"lng":135.385026,"prefecture":27,"lines":[99617],"attr":"cool","postal_code":"597-0045","address":"大阪府貝塚市三ツ松","next":[1162620,9961708,9961606,9961710],"voronoi":{"lat":34.40305,"lng":135.369638,"delta_lat":[0,21978,-1653,-10327],"delta_lng":[0,52135,7017,7844]},"impl":true},
    {"code":9961707,"id":"dd2e9a","name":"森(大阪)","original_name":"森","name_kana":"もり","lat":34.414246,"lng":135.38189,"prefecture":27,"lines":[99617],"attr":"heat","postal_code":"597-0044","address":"貝塚市森５４８","next":[1162620,9961708,9961706,1162621,1162624],"voronoi":{"lat":34.430859,"lng":135.392139,"delta_lat":[0,-1923,-1461,-23209,998],"delta_lng":[0,17009,4214,-48232,79]},"impl":true},
    {"code":9961703,"left":1162623,"right":9961705,"id":"b38782","name":"近義の里","name_kana":"こぎのさと","lat":34.436903,"lng":135.362892,"prefecture":27,"lines":[99617],"attr":"eco","postal_code":"597-0084","address":"貝塚市鳥羽２７６","next":[1162622,9961704,9961702,1162623],"voronoi":{"lat":34.433796,"lng":135.35701,"delta_lat":[0,9009,-6458,-5012],"delta_lng":[0,9622,2000,-5949]},"impl":true},
    {"code":1162623,"left":3200126,"right":3200125,"id":"881530","name":"和泉橋本","name_kana":"いずみはしもと","lat":34.427379,"lng":135.358762,"prefecture":27,"lines":[11626],"attr":"cool","postal_code":"597-0043","address":"貝塚市橋本","next":[1162624,9961702,3200125,9961705,9961704,9961703],"voronoi":{"lat":34.433796,"lng":135.35701,"delta_lat":[0,476,-8778,-10590,9361,7070],"delta_lng":[0,-3320,-3474,13059,1817,-2409]},"impl":true},
    {"code":3200126,"left":3200127,"id":"29ad14","name":"鶴原","name_kana":"つるはら","lat":34.426479,"lng":135.338366,"prefecture":27,"lines":[32001],"attr":"heat","postal_code":"598-0071","address":"泉佐野市鶴原１-１-２６","next":[3200127,1162802,1162803,3200125,1162624],"voronoi":{"lat":34.48053,"lng":135.295835,"delta_lat":[0,-5475,-13342,-45017,7679],"delta_lng":[0,-549,5640,39260,6350]},"impl":true},
    {"code":3200127,"id":"a722cb","name":"井原里","name_kana":"いはらのさと","lat":34.41983,"lng":135.330742,"prefecture":27,"lines":[32001],"attr":"heat","postal_code":"598-0062","address":"泉佐野市下瓦屋１-１-５７","next":[3200128,1162624,1162802,3200126,1162625],"voronoi":{"lat":34.416696,"lng":135.340187,"delta_lat":[0,45017,-18841,-35365,8565],"delta_lng":[0,-39260,5859,21890,11412]},"impl":true},
    {"code":3200125,"id":"ef3686","name":"二色浜","name_kana":"にしきのはま","lat":34.432717,"lng":135.345275,"prefecture":27,"lines":[32001],"attr":"eco","postal_code":"597-0062","address":"貝塚市澤６４７-２","next":[3200124,1162623,1162624,9961702,3200126,1162803],"voronoi":{"lat":34.438829,"lng":135.351672,"delta_lat":[0,-4557,-8778,-1120,56155,11290],"delta_lng":[0,2018,-3474,-3680,-50701,364]},"impl":true},
    {"code":9961705,"left":9961706,"right":9961704,"id":"c2bd77","name":"清児","name_kana":"せちご","lat":34.424786,"lng":135.372127,"prefecture":27,"lines":[99617],"attr":"eco","postal_code":"597-0041","address":"貝塚市清児８６６","next":[9961704,1162623,1162624,1162622,9961706],"voronoi":{"lat":34.414314,"lng":135.363492,"delta_lat":[0,590,9361,7898,-405],"delta_lng":[0,-216,1817,11699,6664]},"impl":true},
    {"code":9961706,"id":"9998cd","name":"名越","name_kana":"なごせ","lat":34.421467,"lng":135.375027,"prefecture":27,"lines":[99617],"attr":"heat","postal_code":"597-0042","address":"貝塚市名越７０２","next":[1162624,9961707,1162621,1162622,9961705],"voronoi":{"lat":34.414314,"lng":135.363492,"delta_lat":[0,-9051,25595,1430,-530],"delta_lng":[0,1718,26930,-3680,-5004]},"impl":true},
    {"code":9961704,"id":"59f219","name":"石才","name_kana":"いしざい","lat":34.430596,"lng":135.368205,"prefecture":27,"lines":[99617],"attr":"eco","postal_code":"597-0082","address":"貝塚市石才５２９","next":[9961703,9961705,1162622,1162623],"voronoi":{"lat":34.431336,"lng":135.362683,"delta_lat":[0,5012,-4184,-7898],"delta_lng":[0,5949,8159,-11699]},"impl":true}
  ]
}