{
  "name":"segment2",
  "root":9990202,
  "east":131.97669,
  "west":-180.0,
  "south":33.209495,
  "north":34.580213,
  "station_size":582,
  "node_list":[
    {"code":9990202,"left":3600202,"right":1190211,"id":"0ed469","name":"南直方御殿口","name_kana":"みなみのおがたごてんぐち","lat":33.738729,"lng":130.724903,"prefecture":40,"lines":[99902],"attr":"eco","postal_code":"822-0016","address":"直方市大字直方１８３-２","next":[9990203,9990205,1191108,1191109,9990204,9990920],"voronoi":{"lat":33.744523,"lng":130.739358,"delta_lat":[0,-1689,-9665,-407,4522,4610],"delta_lng":[0,-29685,11146,13121,7275,4551]}},
    {"code":3600202,"left":1190508,"right":1190303,"id":"5fbe8c","name":"西鉄五条","name_kana":"にしてつごじょう","lat":33.51111,"lng":130.526106,"prefecture":40,"lines":[36002],"attr":"cool","postal_code":"818-0125","address":"太宰府市五条２-７-１","next":[3600113,3600111,3600112,3600149,3600203],"voronoi":{"lat":33.522657,"lng":130.517411,"delta_lat":[0,-11449,-7981,-3223,2131],"delta_lng":[0,-359,8643,13509,8912]}},
    {"code":1190508,"left":9991106,"right":101002,"id":"54ac24","name":"鍋島","name_kana":"なべしま","lat":33.259062,"lng":130.265702,"prefecture":41,"lines":[11905,11921],"attr":"eco","postal_code":"849-0932","address":"佐賀市鍋島町大字八戸溝","next":[1190509,1190507,1190518,1192105,1190506,3600136],"voronoi":{"lat":33.352924,"lng":130.26692,"delta_lat":[0,3192,-32895,-194719,-9597,26538],"delta_lng":[0,-1399,-13098,14721,18247,15019]}},
    {"code":9991106,"left":9991009,"right":1190919,"id":"dbd149","name":"久原","name_kana":"くばら","lat":33.313973,"lng":129.811763,"prefecture":41,"lines":[99911],"attr":"eco","postal_code":"849-4256","address":"伊万里市山代町久原","next":[9991105,9991104,9991103,9991108,1192014,9991107],"voronoi":{"lat":33.303005,"lng":129.778186,"delta_lat":[0,-13701,25119,18736,8953,13682],"delta_lng":[0,-15179,73924,28289,10924,8873]}},
    {"code":9991009,"left":9991127,"right":1192013,"id":"138974","name":"金武","name_kana":"かなたけ","lat":33.251856,"lng":129.854519,"prefecture":41,"lines":[99910],"attr":"cool","postal_code":"848-0033","address":"伊万里市二里町中里乙１１３８-３","next":[9991102,1192014,1192013,9991010,9991103,9991008],"voronoi":{"lat":33.253356,"lng":129.819195,"delta_lat":[0,3394,8167,-16433,-4353,-8681],"delta_lng":[0,5954,25151,27362,3921,4160]}},
    {"code":9991127,"left":9991139,"right":9991105,"id":"aeb267","name":"吉井(長崎)","name_kana":"よしい","lat":33.266395,"lng":129.685271,"prefecture":42,"lines":[99911],"attr":"cool","postal_code":"859-6325","address":"佐世保市吉井町大渡","next":[9991108,9991105,9991139,9991128,9991141,9991126,9991140],"voronoi":{"lat":33.245986,"lng":129.7132,"delta_lat":[0,-7952,34420,9310,-319,-11477,-19537],"delta_lng":[0,-25614,-12586,76152,205,2886,-30591]}},
    {"code":9991139,"left":9991129,"right":9991007,"id":"331d71","name":"皆瀬","name_kana":"かいぜ","lat":33.213348,"lng":129.701741,"prefecture":42,"lines":[99911],"attr":"eco","postal_code":"857-0144","address":"佐世保市皆瀬町","next":[9991138,9991140,9991127,9991128],"voronoi":{"lat":33.23658,"lng":129.68532,"delta_lat":[0,-42648,52053,-7952],"delta_lng":[0,15331,12549,-25614]}},
    {"code":9991129,"left":9991130,"right":9991128,"id":"958181","name":"清峰高校前","name_kana":"せいほうこうこうまえ","lat":33.247775,"lng":129.656536,"prefecture":42,"lines":[99911],"attr":"cool","postal_code":"857-0333","address":"北松浦郡佐々町中川原免","next":[9991138,9991124,9991137,9991130,9991125,9991128],"voronoi":{"lat":33.268657,"lng":129.6507,"delta_lat":[0,2420,-6494,-37416,6345,1872],"delta_lng":[0,-7844,-16729,42817,10113,2396]}},
    {"code":9991130,"left":9991131,"id":"8d7460","name":"佐々","name_kana":"さざ","lat":33.236701,"lng":129.646859,"prefecture":42,"lines":[99911],"attr":"cool","postal_code":"857-0311","address":"北松浦郡佐々町本田原免","next":[9991132,9991137,9991123,9991131,9991124,9991129,9991122],"voronoi":{"lat":33.253899,"lng":129.575094,"delta_lat":[0,-30494,833,2930,37416,-5263,-4159],"delta_lng":[0,85917,5466,2467,-42817,-33233,-14745]}},
    {"code":9991131,"id":"2fadd5","name":"小浦","name_kana":"こうら","lat":33.222005,"lng":129.641643,"prefecture":42,"lines":[99911],"attr":"eco","postal_code":"857-0361","address":"北松浦郡佐々町小浦免","next":[9991121,9991130,9991132,9991122,9992901,9991120,9991133],"voronoi":{"lat":30.843072,"lng":124.878031,"delta_lat":[0,181967,1332639,865607,30614,-30494,-20993],"delta_lng":[0,-661641,3171517,2083071,104116,85917,-33161]}},
    {"code":9991128,"id":"32d40a","name":"神田(長崎)","name_kana":"こうだ","lat":33.261198,"lng":129.671059,"prefecture":42,"lines":[99911],"attr":"cool","postal_code":"857-0335","address":"北松浦郡佐々町皆瀬免","next":[9991127,9991125,9991126,9991138,9991139,9991129],"voronoi":{"lat":33.268657,"lng":129.6507,"delta_lat":[0,4174,-378,-34420,-1453,-1196],"delta_lng":[0,23704,596,12586,-2266,-3867]}},
    {"code":9991007,"left":9991006,"right":9991008,"id":"dc66b6","name":"山谷","name_kana":"やまだに","lat":33.2293,"lng":129.849353,"prefecture":41,"lines":[99910],"attr":"cool","postal_code":"849-4143","address":"西松浦郡有田町下山谷字鈴芽乙","next":[9991008,9991104,9991142,9991006],"voronoi":{"lat":33.21929,"lng":129.787858,"delta_lat":[0,21288,1771,-13831],"delta_lng":[0,-4087,4856,91808]}},
    {"code":9991006,"left":9991140,"id":"0b0ea0","name":"大木","name_kana":"おおぎ","lat":33.221615,"lng":129.850119,"prefecture":41,"lines":[99910],"attr":"cool","postal_code":"849-4154","address":"西松浦郡有田町大木宿字永野乙","next":[1191809,1191808,9991142,9991005,9991002,9991008,9991007],"voronoi":{"lat":33.21929,"lng":129.787858,"delta_lat":[0,-4454,572,3070,85,9706,249],"delta_lng":[0,571,90194,6183,102,5500,-9973]}},
    {"code":9991140,"id":"c52ab2","name":"野中","name_kana":"のなか","lat":33.211712,"lng":129.708527,"prefecture":42,"lines":[99911],"attr":"eco","postal_code":"857-0142","address":"佐世保市野中町","next":[9991139,9991143,9991141,9991144,9991138,9991127],"voronoi":{"lat":33.202081,"lng":129.71354,"delta_lat":[0,-6345,-2924,1121,52053,4445],"delta_lng":[0,-6683,-6020,-186,12549,10452]}},
    {"code":9991008,"id":"e0ec3c","name":"夫婦石","name_kana":"めおといし","lat":33.236927,"lng":129.850502,"prefecture":41,"lines":[99910],"attr":"cool","postal_code":"849-4141","address":"西松浦郡有田町二ノ瀬字開田甲","next":[9991103,9991007,1192013,9991104,9991009,1191808,9991006],"voronoi":{"lat":33.228517,"lng":129.880436,"delta_lat":[0,13831,5479,5528,-17906,-6571,-610],"delta_lng":[0,-91808,12543,18025,66548,5183,-518]}},
    {"code":9991105,"left":9991124,"right":9991103,"id":"adeef5","name":"鳴石","name_kana":"なるいし","lat":33.299447,"lng":129.816699,"prefecture":41,"lines":[99911],"attr":"heat","postal_code":"849-4253","address":"伊万里市山代町峰","next":[9991106,9991104,9991127,9991108,9991141,9991142],"voronoi":{"lat":33.264507,"lng":129.759463,"delta_lat":[0,5460,11477,7860,25119,-70181],"delta_lng":[0,-5221,-2886,11651,73924,-56309]}},
    {"code":9991124,"left":9991126,"right":9991123,"id":"05047e","name":"高岩(長崎)","name_kana":"たかいわ","lat":33.297507,"lng":129.63723,"prefecture":42,"lines":[99911],"attr":"cool","postal_code":"859-6124","address":"長崎県佐世保市江迎町小川内","next":[9991117,9991125,9991129,9991130,9991123,9991115],"voronoi":{"lat":33.271077,"lng":129.642855,"delta_lat":[0,-6494,-5263,66933,-88,-8110],"delta_lng":[0,-16729,-33233,61347,3601,8278]}},
    {"code":9991126,"left":9991125,"id":"d5e8ba","name":"潜竜ヶ滝","name_kana":"せんりゅうがたき","lat":33.280808,"lng":129.683509,"prefecture":42,"lines":[99911],"attr":"cool","postal_code":"859-6134","address":"長崎県佐世保市江迎町田ノ元","next":[9991115,9991125,9991110,9991127,9991128,9991113,9991114,9991108],"voronoi":{"lat":33.272453,"lng":129.674999,"delta_lat":[0,378,41474,-516,-17864,-3535,-4442,-6185],"delta_lng":[0,-596,4640,13415,46469,5739,3394,3091]}},
    {"code":9991125,"id":"26243f","name":"いのつき","name_kana":"いのつき","lat":33.282623,"lng":129.667286,"prefecture":42,"lines":[99911],"attr":"cool","postal_code":"859-6133","address":"長崎県佐世保市江迎町猪調","next":[9991126,9991115,9991124,9991128,9991129],"voronoi":{"lat":33.272832,"lng":129.674404,"delta_lat":[0,41474,3750,-46978,-2420],"delta_lng":[0,4640,-12924,-23264,7844]}},
    {"code":9991123,"id":"bed0f0","name":"江迎鹿町","name_kana":"えむかえしかまち","lat":33.306809,"lng":129.627081,"prefecture":42,"lines":[99911],"attr":"cool","postal_code":"859-6143","address":"長崎県佐世保市鹿町町深江","next":[9991130,9991124,9991117,9991122],"voronoi":{"lat":33.255161,"lng":129.578149,"delta_lat":[0,4159,66933,4618],"delta_lng":[0,14745,61347,-19541]}},
    {"code":9991103,"left":9991102,"right":9991104,"id":"01c879","name":"里","name_kana":"さと","lat":33.284513,"lng":129.835906,"prefecture":41,"lines":[99911],"attr":"heat","postal_code":"848-0000","address":"伊万里市東山代町五反間","next":[9991008,9991106,9991102,9991009,1192014,9991104],"voronoi":{"lat":33.247827,"lng":129.80117,"delta_lat":[0,5528,3394,72968,12395,-8953],"delta_lng":[0,18025,5954,47150,3845,-10924]}},
    {"code":9991102,"id":"3d64ef","name":"東山代","name_kana":"ひがしやましろ","lat":33.277964,"lng":129.846041,"prefecture":41,"lines":[99911],"attr":"heat","postal_code":"849-4271","address":"伊万里市東山代町長浜","next":[9991009,9991103,1192014,9991010],"voronoi":{"lat":33.329718,"lng":129.8723,"delta_lat":[0,-72968,8167,22766],"delta_lng":[0,-47150,25151,13624]}},
    {"code":9991104,"id":"953fc4","name":"楠久","name_kana":"くすく","lat":33.291426,"lng":129.826696,"prefecture":41,"lines":[99911],"attr":"heat","postal_code":"849-4252","address":"伊万里市山代町楠久津","next":[9991106,9991105,9991008,9991007,9991142,9991103],"voronoi":{"lat":33.247827,"lng":129.80117,"delta_lat":[0,-5479,-1771,3665,70181,18736],"delta_lng":[0,-12543,-4856,-3149,56309,28289]}},
    {"code":1192013,"left":1190512,"right":1192108,"id":"8b5c18","name":"上伊万里","name_kana":"かみいまり","lat":33.270066,"lng":129.892515,"prefecture":41,"lines":[11920],"attr":"eco","postal_code":"848-0023","address":"伊万里市大坪町丙","next":[9991009,9991008,1192014,1191808,1192008,1192007,1192012],"voronoi":{"lat":33.35565,"lng":129.894879,"delta_lat":[0,767,-112287,-8681,-6571,3048,84422],"delta_lng":[0,-601,-12695,4160,5183,18869,9361]}},
    {"code":1190512,"left":1192012,"right":1190510,"id":"118cdc","name":"肥前山口","name_kana":"ひぜんやまぐち","lat":33.21919,"lng":130.160858,"prefecture":41,"lines":[11905,11918],"attr":"cool","postal_code":"849-0501","address":"杵島郡江北町大字山口","next":[1192106,1190511,1190513,1192107,1190518,1191802,1190510],"voronoi":{"lat":33.136476,"lng":130.235157,"delta_lat":[0,77615,32110,300,9279,-111994,-7488],"delta_lng":[0,-101314,-3967,398,34776,79953,3979]}},
    {"code":1192012,"left":1191802,"right":9991010,"id":"a77f20","name":"金石原","name_kana":"かないしはら","lat":33.265354,"lng":129.935012,"prefecture":41,"lines":[11920],"attr":"eco","postal_code":"849-5263","address":"伊万里市松浦町山形","next":[1191807,1191808,1192011,1192013,1192008,1192010],"voronoi":{"lat":33.310229,"lng":129.927996,"delta_lat":[0,6120,-84422,-5216,6062,67461],"delta_lng":[0,-8840,-9361,13226,33492,-20094]}},
    {"code":1191802,"left":1191803,"id":"17a7a2","name":"大町(佐賀)","name_kana":"おおまち","lat":33.212462,"lng":130.106398,"prefecture":41,"lines":[11918],"attr":"heat","postal_code":"849-2102","address":"杵島郡大町町大字福母","next":[1191803,1192107,1190513,1190512,1190514],"voronoi":{"lat":33.1742,"lng":130.088243,"delta_lat":[0,74457,-2456,-32110,-37064],"delta_lng":[0,12161,29471,3967,-32335]}},
    {"code":1191803,"id":"70a069","name":"北方(佐賀)","name_kana":"きたがた","lat":33.21625,"lng":130.083206,"prefecture":41,"lines":[11918],"attr":"heat","postal_code":"849-2201","address":"武雄市北方町志久","next":[1191802,1192107,1191804,1190514,1192108],"voronoi":{"lat":33.258841,"lng":130.053459,"delta_lat":[0,-93299,8657,74457,2960],"delta_lng":[0,18595,16189,12161,-6825]}},
    {"code":9991010,"id":"10da81","name":"川東(佐賀)","name_kana":"かわひがし","lat":33.267329,"lng":129.863812,"prefecture":41,"lines":[99910],"attr":"cool","postal_code":"848-0032","address":"伊万里市二里町大里甲","next":[9991009,1192014,9991102],"voronoi":{"lat":33.264917,"lng":129.850301,"delta_lat":[0,-16433,39199],"delta_lng":[0,27362,-13738]}},
    {"code":1190510,"left":1190511,"right":1190509,"id":"e23b8c","name":"久保田(佐賀)","name_kana":"くぼた","lat":33.255717,"lng":130.229594,"prefecture":41,"lines":[11905,11921],"attr":"eco","postal_code":"849-0202","address":"佐賀市久保田町久富","next":[1192105,1190509,1190518,1190512,1190511],"voronoi":{"lat":33.267491,"lng":130.210987,"delta_lat":[0,25145,-157526,1187,7488],"delta_lng":[0,24427,16918,-3351,-3979]}},
    {"code":1190511,"id":"8bac4d","name":"牛津","name_kana":"うしづ","lat":33.247859,"lng":130.201016,"prefecture":41,"lines":[11905],"attr":"cool","postal_code":"849-0302","address":"小城市牛津町柿樋瀬","next":[1190512,1192106,1192105,1190510],"voronoi":{"lat":33.267491,"lng":130.210987,"delta_lat":[0,-2463,-9249,-111994],"delta_lng":[0,-39931,-6007,79953]}},
    {"code":1190509,"id":"ed39bd","name":"バルーンさが","name_kana":"ばるーんさが","lat":33.257795,"lng":130.248942,"prefecture":41,"lines":[11905,11921],"attr":"eco","postal_code":"840-0864","address":"佐賀市嘉瀬町荻野字黒木篭","next":[1190508,1192105,1190510,1190518],"voronoi":{"lat":33.135111,"lng":130.252333,"delta_lat":[0,157526,30584,-194719],"delta_lng":[0,-16918,17009,14721]}},
    {"code":1192108,"left":1192010,"right":1192106,"id":"ce35dc","name":"多久","name_kana":"たく","lat":33.28838,"lng":130.096195,"prefecture":41,"lines":[11921],"attr":"eco","postal_code":"846-0002","address":"多久市北多久町大字小侍","next":[1192107,1192109,1191804,1192106,1191803],"voronoi":{"lat":33.347737,"lng":130.123526,"delta_lat":[0,5127,-85461,-8562,-7225],"delta_lng":[0,323,-83147,12757,40120]}},
    {"code":1192010,"left":1192011,"right":1192009,"id":"5ea89d","name":"肥前長野","name_kana":"ひぜんながの","lat":33.29571,"lng":129.971033,"prefecture":41,"lines":[11920],"attr":"cool","postal_code":"848-0000","address":"伊万里市大川町長野","next":[1192009,1192008,1191804,1192110,1192011,1192012],"voronoi":{"lat":33.310229,"lng":129.927996,"delta_lat":[0,-1939,-31168,-8084,-13595,44791],"delta_lng":[0,32066,63463,4206,-16710,-74602]}},
    {"code":1192011,"left":1192014,"id":"7cbe79","name":"桃川","name_kana":"もものかわ","lat":33.271809,"lng":129.956683,"prefecture":41,"lines":[11920],"attr":"cool","postal_code":"849-5261","address":"伊万里市松浦町桃川","next":[1191806,1192012,1191807,1191805,1192010,1191804],"voronoi":{"lat":33.300233,"lng":129.93642,"delta_lat":[0,-67461,-1049,9942,5900,7877],"delta_lng":[0,20094,9101,32747,6800,5860]}},
    {"code":1192014,"id":"929668","name":"伊万里","name_kana":"いまり","lat":33.271852,"lng":129.876718,"prefecture":41,"lines":[11920,99910,99911],"attr":"eco","postal_code":"848-0041","address":"伊万里市新天町","next":[9991107,9991009,9991102,9991010,1192013,1192007,9991106,9991103],"voronoi":{"lat":33.355794,"lng":129.885017,"delta_lat":[0,6995,-6372,-112287,4353,39199,42035,12395],"delta_lng":[0,5154,4107,-12695,-3921,-13738,8375,3845]}},
    {"code":1192009,"id":"369b96","name":"大川野","name_kana":"おおかわの","lat":33.307298,"lng":129.976724,"prefecture":41,"lines":[11920],"attr":"cool","postal_code":"849-5251","address":"伊万里市大川町大川野","next":[1192010,1192006,1192008,1192110,1192111,1192007],"voronoi":{"lat":33.321218,"lng":129.997002,"delta_lat":[0,-12929,-31168,38319,4984,429],"delta_lng":[0,-36939,63463,-14578,-4644,-1256]}},
    {"code":1192106,"left":1192107,"right":1192105,"id":"3166d8","name":"東多久","name_kana":"ひがしたく","lat":33.285418,"lng":130.143188,"prefecture":41,"lines":[11921],"attr":"eco","postal_code":"846-0012","address":"多久市東多久町大字別府","next":[1192109,1190512,1192105,1190511,1192108,1190911,1192107],"voronoi":{"lat":33.347737,"lng":130.123526,"delta_lat":[0,5127,47467,418,-135721,-9249,-9279],"delta_lng":[0,323,21740,24657,810,-6007,-34776]}},
    {"code":1192107,"id":"81023d","name":"中多久","name_kana":"なかたく","lat":33.28336,"lng":130.112308,"prefecture":41,"lines":[11921],"attr":"eco","postal_code":"846-0023","address":"多久市南多久町大字長尾","next":[1192108,1191803,1191802,1190512,1192106],"voronoi":{"lat":33.2462,"lng":130.129876,"delta_lat":[0,2456,2960,96121,-101237],"delta_lng":[0,-29471,-6825,29947,6747]}},
    {"code":1192105,"id":"07cef5","name":"小城","name_kana":"おぎ","lat":33.285749,"lng":130.198679,"prefecture":41,"lines":[11921],"attr":"eco","postal_code":"845-0022","address":"小城市三日月町久米","next":[9990701,1190510,1190910,1190509,1192106,1190911,1190506,1190508,1190511],"voronoi":{"lat":33.265028,"lng":130.171056,"delta_lat":[0,135721,14527,4337,-786,-62712,-32895,-30584,-25145],"delta_lng":[0,-810,56115,35410,1731,2019,-13098,-17009,-24427]}},
    {"code":1190919,"left":9991113,"right":1192004,"id":"d6a19a","name":"唐津","name_kana":"からつ","lat":33.446038,"lng":129.96835,"prefecture":41,"lines":[11909,11920,11921],"attr":"heat","postal_code":"847-0816","address":"唐津市新興町西新興町","next":[1190920,1190917,1192003,1190918,1192004],"voronoi":{"lat":33.396873,"lng":129.880558,"delta_lat":[0,75012,-14647,-39004,-3967],"delta_lng":[0,108831,-3404,-28586,-5252]}},
    {"code":9991113,"left":9991110,"right":9991116,"id":"817dd9","name":"調川","name_kana":"つきのかわ","lat":33.352223,"lng":129.727507,"prefecture":42,"lines":[99911],"attr":"cool","postal_code":"859-4536","address":"松浦市調川町下免","next":[9991112,9991110,9991115,9991126,9991114,9991111,9991116],"voronoi":{"lat":33.337825,"lng":129.745289,"delta_lat":[0,-25112,-20322,3535,89570,6147,2615],"delta_lng":[0,1147,-1770,-5739,-36328,-721,552]}},
    {"code":9991110,"left":9991121,"right":9991108,"id":"578ccf","name":"今福","name_kana":"いまぶく","lat":33.348357,"lng":129.771909,"prefecture":42,"lines":[99911],"attr":"cool","postal_code":"859-4522","address":"松浦市今福町東免","next":[9991111,9991126,9991113,9991108,9991109,1190920],"voronoi":{"lat":33.316195,"lng":129.765969,"delta_lat":[0,-28246,4442,20322,153152,-18821],"delta_lng":[0,-17908,-3394,1770,81294,11451]}},
    {"code":9991121,"left":9991114,"right":9991115,"id":"fb17d6","name":"西田平","name_kana":"にしたびら","lat":33.34514,"lng":129.590475,"prefecture":42,"lines":[99911],"attr":"cool","postal_code":"859-4823","address":"平戸市田平町荻田免","next":[9991120,9991131,9991119,9991122],"voronoi":{"lat":33.223285,"lng":129.470977,"delta_lat":[0,-865607,1000744,-22529],"delta_lng":[0,-2083071,2208749,11511]}},
    {"code":9991114,"left":9991122,"id":"a69f6b","name":"松浦","name_kana":"まつうら","lat":33.344273,"lng":129.707906,"prefecture":42,"lines":[99911],"attr":"cool","postal_code":"859-4501","address":"松浦市志佐町浦免","next":[9991115,9991113,9991126],"voronoi":{"lat":33.313789,"lng":129.692459,"delta_lat":[0,71706,-89570],"delta_lng":[0,10141,36328]}},
    {"code":9991122,"id":"ca0b52","name":"すえたちばな","name_kana":"すえたちばな","lat":33.316738,"lng":129.613788,"prefecture":42,"lines":[99911],"attr":"cool","postal_code":"859-6104","address":"長崎県佐世保市江迎町末橘","next":[9991118,9991121,9991130,9991131,9991123,9991119,9991117],"voronoi":{"lat":33.255161,"lng":129.578149,"delta_lat":[0,-1263,-30614,112608,870,-1770,-4121],"delta_lng":[0,-3055,-104116,137189,12314,7745,6474]}},
    {"code":9991115,"id":"42cbba","name":"松浦発電所前","name_kana":"まつうらはつでんしょまえ","lat":33.347361,"lng":129.68607,"prefecture":42,"lines":[99911],"attr":"cool","postal_code":"859-4506","address":"松浦市志佐町白浜免","next":[9991126,9991116,9991117,9991125,9991114,9991113,9991124],"voronoi":{"lat":33.314306,"lng":129.679044,"delta_lat":[0,-516,71706,6147,-53034,-12443,-8110],"delta_lng":[0,13415,10141,-721,-41823,-2214,8278]}},
    {"code":9991108,"left":9991107,"right":9991109,"id":"67825d","name":"浦ノ崎","name_kana":"うらのさき","lat":33.335287,"lng":129.792524,"prefecture":41,"lines":[99911],"attr":"eco","postal_code":"849-4261","address":"伊万里市山代町立岩","next":[9991127,9991110,9991106,9991105,9991107,9991109,9991126],"voronoi":{"lat":33.281445,"lng":129.751356,"delta_lat":[0,7860,13701,69702,-56513,-28246,-6185],"delta_lng":[0,11651,15179,57915,-70133,-17908,3091]}},
    {"code":9991107,"id":"3c6df1","name":"波瀬","name_kana":"はぜ","lat":33.323013,"lng":129.807296,"prefecture":41,"lines":[99911],"attr":"eco","postal_code":"849-4256","address":"伊万里市山代町久原","next":[1192014,1192004,9991108,9991106,1190920,1192007,9991109],"voronoi":{"lat":33.372707,"lng":129.836102,"delta_lat":[0,-69702,52789,6995,6837,26640,12099],"delta_lng":[0,-57915,106831,5154,-577,-10798,-11131]}},
    {"code":9991109,"id":"2815ff","name":"福島口","name_kana":"ふくしまぐち","lat":33.338083,"lng":129.790271,"prefecture":41,"lines":[99911],"attr":"eco","postal_code":"849-4261","address":"伊万里市山代町立岩","next":[9991110,9991108,9991107,1190920],"voronoi":{"lat":33.372707,"lng":129.836102,"delta_lat":[0,-56513,130849,-38678],"delta_lng":[0,-70133,73213,28484]}},
    {"code":9991116,"left":9991118,"right":9991112,"id":"722720","name":"御厨(長崎)","name_kana":"みくりや","lat":33.365947,"lng":129.662502,"prefecture":42,"lines":[99911],"attr":"cool","postal_code":"859-4752","address":"松浦市御厨町里免","next":[9991115,9991120,9991112,9991117,9991118,1190920,9991113],"voronoi":{"lat":33.665567,"lng":129.728674,"delta_lat":[0,424057,-606759,-87051,-57206,53034,2615],"delta_lng":[0,-137126,25931,18229,24348,41823,552]}},
    {"code":9991118,"left":9991117,"right":9991120,"id":"e02f01","name":"東田平","name_kana":"ひがしたびら","lat":33.357706,"lng":129.623147,"prefecture":42,"lines":[99911],"attr":"cool","postal_code":"859-4803","address":"平戸市田平町小崎免","next":[9991122,9991119,9991116,9991117,9991120],"voronoi":{"lat":33.407294,"lng":129.608485,"delta_lat":[0,-70531,-1770,60822,87051],"delta_lng":[0,11995,7745,7482,-18229]}},
    {"code":9991117,"left":9991119,"id":"755414","name":"西木場","name_kana":"にしこば","lat":33.355798,"lng":129.638657,"prefecture":42,"lines":[99911],"attr":"cool","postal_code":"859-4765","address":"松浦市御厨町米ノ山免","next":[9991115,9991124,9991116,9991123,9991118,9991122],"voronoi":{"lat":33.326254,"lng":129.65424,"delta_lat":[0,-88,12443,57206,-60822,-4121],"delta_lng":[0,3601,2214,-24348,-7482,6474]}},
    {"code":9991119,"id":"b8b46f","name":"中田平","name_kana":"なかたびら","lat":33.355647,"lng":129.61104,"prefecture":42,"lines":[99911],"attr":"cool","postal_code":"859-4806","address":"平戸市田平町下亀免","next":[9991118,9991120,9991121,9991122],"voronoi":{"lat":33.335893,"lng":129.608166,"delta_lat":[0,22529,48872,-70531],"delta_lng":[0,-11511,11830,11995]}},
    {"code":9991120,"id":"fcc18a","name":"たびら平戸口","name_kana":"たびらひらどぐち","lat":33.362532,"lng":129.582595,"prefecture":42,"lines":[99911],"attr":"cool","postal_code":"859-4825","address":"平戸市田平町山内免","next":[9991121,9991116,9991119,9992901,1170223,9992701,1111553,9991118,9991131,1190920],"voronoi":{"enclosed":false,"lat":58.671232,"lng":21.532962,"delta_lat":[0,-26044658,-1601535,1332639,1000744,48872,75572,606759,1059964,38728934,70827533],"delta_lng":[0,96548826,6134602,3171517,2208749,11830,8993,-25931,-279400,-28057213,-70593630]}},
    {"code":9991112,"left":9991111,"right":1190920,"id":"c37ac0","name":"前浜","name_kana":"まえはま","lat":33.358819,"lng":129.736192,"prefecture":42,"lines":[99911],"attr":"cool","postal_code":"859-4531","address":"松浦市調川町平尾免","next":[1190920,9991111,9991113,9991116],"voronoi":{"lat":33.542427,"lng":129.785699,"delta_lat":[0,-204603,56433,271310],"delta_lng":[0,-40410,-42859,26243]}},
    {"code":9991111,"id":"b2eb1a","name":"鷹島口","name_kana":"たかしまぐち","lat":33.353784,"lng":129.761685,"prefecture":42,"lines":[99911],"attr":"cool","postal_code":"859-4527","address":"松浦市今福町仏坂免","next":[9991110,9991112,1190920,9991113],"voronoi":{"lat":33.465865,"lng":129.827731,"delta_lat":[0,76563,-204603,-25112],"delta_lng":[0,-42031,-40410,1147]}},
    {"code":1190920,"id":"54fe9f","name":"西唐津","name_kana":"にしからつ","lat":33.46142,"lng":129.957748,"prefecture":41,"lines":[11909,11920,11921],"attr":"heat","postal_code":"847-0861","address":"唐津市二タ子２丁目","next":[9991112,1190913,1190917,1190222,1190919,9991111,1190914,9991110,1170223,1191602,1192004,9991116,9991107,9991109,9991120],"voronoi":{"lat":33.665567,"lng":129.728674,"delta_lat":[0,-123140,-76563,-18821,-38678,-12099,606,75012,16758,235675,810284,335956,184358,94673,-1059964],"delta_lng":[0,57026,42031,11451,28484,11131,1762,108831,9427,-60048,-267077,-168709,-105343,-85492,279400]}},
    {"code":1192004,"left":1192005,"right":1190915,"id":"ef7e8c","name":"山本(佐賀)","name_kana":"やまもと","lat":33.393472,"lng":129.981122,"prefecture":41,"lines":[11920,11921],"attr":"heat","postal_code":"847-0002","address":"唐津市山本","next":[9991107,1192112,1192003,1190920,1192006,1190919,1192007],"voronoi":{"lat":33.366592,"lng":129.966422,"delta_lat":[0,34315,13360,-17394,-606,-26640,-3444],"delta_lng":[0,47230,-61504,-71589,-1762,10798,74837]}},
    {"code":1192005,"left":1192006,"right":1192110,"id":"07b562","name":"肥前久保","name_kana":"ひぜんくぼ","lat":33.355738,"lng":130.000104,"prefecture":41,"lines":[11920],"attr":"heat","postal_code":"849-3232","address":"唐津市相知町久保","next":[1192111,1192006,1192112],"voronoi":{"lat":33.361561,"lng":129.987033,"delta_lat":[0,-21092,27642],"delta_lng":[0,17739,12541]}},
    {"code":1192006,"left":1192007,"right":1192112,"id":"378751","name":"西相知","name_kana":"にしおうち","lat":33.347686,"lng":129.99053,"prefecture":41,"lines":[11920],"attr":"heat","postal_code":"849-3233","address":"唐津市相知町佐里","next":[1192007,1192112,1192009,1192111,1192005,1192004],"voronoi":{"lat":33.366183,"lng":129.964431,"delta_lat":[0,-45329,-429,20045,21092,5030],"delta_lng":[0,38616,1256,469,-17739,-20612]}},
    {"code":1192007,"left":1192008,"id":"22674c","name":"佐里","name_kana":"さり","lat":33.337476,"lng":129.978545,"prefecture":41,"lines":[11920],"attr":"heat","postal_code":"849-3233","address":"唐津市相知町佐里","next":[1192006,1192008,1192014,1192004,1192013,9991107,1192009],"voronoi":{"lat":33.321218,"lng":129.997002,"delta_lat":[0,34432,767,6372,6837,-3444,-45329],"delta_lng":[0,-102122,-601,-4107,-577,74837,38616]}},
    {"code":1192008,"id":"dac444","name":"駒鳴","name_kana":"こまなき","lat":33.319455,"lng":129.972469,"prefecture":41,"lines":[11920],"attr":"cool","postal_code":"849-5253","address":"伊万里市大川町駒鳴","next":[1192007,1192010,1192009,1192013,1192012],"voronoi":{"lat":33.316349,"lng":129.919156,"delta_lat":[0,39302,-34432,-12929,1939],"delta_lng":[0,-24277,102122,-36939,-32066]}},
    {"code":1192112,"id":"deb286","name":"本牟田部","name_kana":"ほんむたべ","lat":33.372266,"lng":129.996529,"prefecture":41,"lines":[11921],"attr":"heat","postal_code":"849-3231","address":"唐津市相知町牟田部","next":[1192006,1190916,1192004,1192111,1192003,1190915,1192005],"voronoi":{"lat":33.393799,"lng":130.045756,"delta_lat":[0,3267,5309,-1468,-34315,-5030,6550],"delta_lng":[0,-5967,-18493,-7645,-47230,20612,30280]}},
    {"code":1192110,"left":1192109,"right":1192111,"id":"fa7458","name":"岩屋(佐賀)","name_kana":"いわや","lat":33.330775,"lng":130.038436,"prefecture":41,"lines":[11921],"attr":"heat","postal_code":"849-3133","address":"唐津市厳木町本山","next":[1192010,1192009,1192109,1191804,1192111],"voronoi":{"lat":33.315441,"lng":130.008948,"delta_lat":[0,-38319,-8084,63,117332],"delta_lng":[0,14578,4206,1991,39580]}},
    {"code":1192109,"id":"e73109","name":"厳木","name_kana":"きゅうらぎ","lat":33.323451,"lng":130.060148,"prefecture":41,"lines":[11921],"attr":"heat","postal_code":"849-3131","address":"唐津市厳木町厳木","next":[1192106,1192108,1191804,1190911,1192110,1190915,1190912,1192111],"voronoi":{"lat":33.386433,"lng":130.069302,"delta_lat":[0,-117332,-1697,85461,47467,1188,560,-12826],"delta_lng":[0,-39580,10980,83147,21740,-2876,-2286,-69497]}},
    {"code":1192111,"id":"7c5f88","name":"相知","name_kana":"おうち","lat":33.347012,"lng":130.019337,"prefecture":41,"lines":[11921],"attr":"heat","postal_code":"849-3201","address":"唐津市相知町相知","next":[1192005,1192006,1192112,1190915,1192009,1192110,1192109],"voronoi":{"lat":33.386433,"lng":130.069302,"delta_lat":[0,-70992,4984,20045,27642,25687,-4545],"delta_lng":[0,-60355,-4644,469,12541,28443,25174]}},
    {"code":1190915,"left":1190917,"right":1190913,"id":"d2bef0","name":"浜崎","name_kana":"はまさき","lat":33.446871,"lng":130.037369,"prefecture":41,"lines":[11909],"attr":"eco","postal_code":"849-5131","address":"唐津市浜玉町浜崎","next":[1190913,1190912,1190914,1190916,1192109,1192111,1192112],"voronoi":{"lat":33.397065,"lng":130.03979,"delta_lat":[0,75206,-18575,-21902,-29715,-12826,4545],"delta_lng":[0,-20803,66153,28261,27027,-69497,-25174]}},
    {"code":1190917,"left":1192003,"right":1190916,"id":"fc54f2","name":"東唐津","name_kana":"ひがしからつ","lat":33.439409,"lng":129.996876,"prefecture":41,"lines":[11909],"attr":"cool","postal_code":"847-0021","address":"唐津市松南町","next":[1190918,1190920,1190919,1190914,1190916,1192003],"voronoi":{"lat":33.484006,"lng":130.002903,"delta_lat":[0,4636,-16758,-14647,-25730,-9825],"delta_lng":[0,-4086,-9427,-3404,3736,18406]}},
    {"code":1192003,"left":1190918,"id":"4219de","name":"鬼塚","name_kana":"おにづか","lat":33.421166,"lng":129.987138,"prefecture":41,"lines":[11920,11921],"attr":"heat","postal_code":"847-0000","address":"唐津市鬼塚","next":[1190919,1190918,1192004,1192112,1190917,1190916],"voronoi":{"lat":33.400906,"lng":130.013651,"delta_lat":[0,13360,3967,13274,-9825,-19308],"delta_lng":[0,-61504,5252,32322,18406,13169]}},
    {"code":1190918,"id":"1a9620","name":"和多田","name_kana":"わただ","lat":33.437048,"lng":129.980616,"prefecture":41,"lines":[11909],"attr":"heat","postal_code":"847-0000","address":"唐津市和多田","next":[1190917,1192003,1190919],"voronoi":{"lat":33.431507,"lng":129.989722,"delta_lat":[0,-13274,39004],"delta_lng":[0,-32322,28586]}},
    {"code":1190916,"id":"8c180e","name":"虹ノ松原","name_kana":"にじのまつばら","lat":33.441035,"lng":130.016271,"prefecture":41,"lines":[11909],"attr":"cool","postal_code":"847-0022","address":"唐津市鏡虹町","next":[1192112,1190914,1190915,1190917,1192003],"voronoi":{"lat":33.397065,"lng":130.03979,"delta_lat":[0,75206,11735,-62324,-19308],"delta_lng":[0,-20803,-16084,5225,13169]}},
    {"code":1190913,"left":1190914,"right":1190912,"id":"27b61c","name":"福吉","name_kana":"ふくよし","lat":33.50166,"lng":130.079832,"prefecture":40,"lines":[11909],"attr":"eco","postal_code":"819-1641","address":"福岡県糸島市二丈吉井4086-2","next":[1190908,1190920,1190915,1190912,1191602,1190914],"voronoi":{"lat":33.724318,"lng":129.938768,"delta_lat":[0,810284,-6266,-741827,-354714,21902],"delta_lng":[0,-267077,3615,338200,99894,-28261]}},
    {"code":1190914,"id":"7bbb9d","name":"鹿家","name_kana":"しかか","lat":33.484391,"lng":130.047904,"prefecture":40,"lines":[11909],"attr":"eco","postal_code":"819-1642","address":"福岡県糸島市二丈鹿家1799","next":[1190916,1190920,1190915,1190917,1190913],"voronoi":{"lat":33.724318,"lng":129.938768,"delta_lat":[0,-235675,-4636,-11735,-18575],"delta_lng":[0,60048,4086,16084,66153]}},
    {"code":1190912,"id":"973bd4","name":"大入","name_kana":"だいにゅう","lat":33.50891,"lng":130.105576,"prefecture":40,"lines":[11909],"attr":"eco","postal_code":"819-1631","address":"福岡県糸島市二丈福井","next":[1190908,1190913,1190915,1190910,1190909,1190911,1192109],"voronoi":{"lat":33.40208,"lng":130.140428,"delta_lat":[0,29715,354714,-3016,-184720,-3942,-193311],"delta_lng":[0,-27027,-99894,1545,90592,1597,35473]}},
    {"code":101002,"left":3600126,"right":3600120,"id":"61e338","name":"新鳥栖","name_kana":"しんとす","lat":33.370278,"lng":130.491111,"prefecture":41,"lines":[11905,1010],"attr":"heat","postal_code":"841-0071","address":"佐賀県鳥栖市原古賀町字一本松220-2","next":[1190502,1190315,1190312,1190317,1190316,1190314,1190313],"voronoi":{"lat":33.432788,"lng":130.466078,"delta_lat":[0,2667,-76699,4612,25043,10785,22542],"delta_lng":[0,-4054,25345,18977,-3177,-4435,-19085]}},
    {"code":3600126,"left":1190506,"right":3600123,"id":"5210f4","name":"花畑","name_kana":"はなばたけ","lat":33.306643,"lng":130.515972,"prefecture":40,"lines":[36001],"attr":"eco","postal_code":"830-0038","address":"久留米市西町９６８","next":[101003,1191337,3600125,1191302,3600127],"voronoi":{"lat":33.311659,"lng":130.507291,"delta_lat":[0,4368,-11542,-1574,-460],"delta_lng":[0,3939,12796,-367,-9278]}},
    {"code":1190506,"left":3600130,"right":1190317,"id":"3cbacf","name":"伊賀屋","name_kana":"いがや","lat":33.290195,"lng":130.336753,"prefecture":41,"lines":[11905],"attr":"heat","postal_code":"849-0911","address":"佐賀市兵庫町大字若宮","next":[1190507,1190505,3600135,1192105,9990701,3600134,1190508],"voronoi":{"lat":33.219333,"lng":130.355593,"delta_lat":[0,19978,13473,166800,-756,-62712,-3192],"delta_lng":[0,23374,10828,-113534,-12759,2019,1399]}},
    {"code":3600130,"left":3600131,"right":1190319,"id":"2cf709","name":"大善寺","name_kana":"だいぜんじ","lat":33.270432,"lng":130.473897,"prefecture":40,"lines":[36001],"attr":"eco","postal_code":"830-0073","address":"久留米市大善寺町宮本１１７３","next":[1190504,1190320,1190503,3600129,3600132,1190319,3600131],"voronoi":{"lat":33.274305,"lng":130.436007,"delta_lat":[0,5781,19999,6162,-34929,-9025,-4006],"delta_lng":[0,-12172,14657,13799,36575,2106,-3578]}},
    {"code":3600131,"left":3600132,"right":1190507,"id":"081684","name":"三潴","name_kana":"みずま","lat":33.255961,"lng":130.469386,"prefecture":40,"lines":[36001],"attr":"eco","postal_code":"830-0102","address":"久留米市三潴町田川６００２","next":[3600132,1190320,3600130],"voronoi":{"lat":33.274305,"lng":130.436007,"delta_lat":[0,-34329,18311],"delta_lng":[0,45755,5632]}},
    {"code":3600132,"left":3600133,"id":"3ec790","name":"犬塚","name_kana":"いぬづか","lat":33.247387,"lng":130.462953,"prefecture":40,"lines":[36001],"attr":"eco","postal_code":"830-0112","address":"久留米市三潴町玉満８００４-１","next":[3600131,3600133,1190504,1190320,1190321,3600130],"voronoi":{"lat":33.239976,"lng":130.481761,"delta_lat":[0,-10291,-5120,43318,12203,-5781],"delta_lng":[0,-310,-5549,-66991,14923,12172]}},
    {"code":3600133,"id":"41f8e1","name":"大溝","name_kana":"おおみぞ","lat":33.227009,"lng":130.449776,"prefecture":40,"lines":[36001],"attr":"eco","postal_code":"830-0403","address":"三潴郡大木町大字大角１３４３","next":[1190321,3600132,1190504,1190505,3600134],"voronoi":{"lat":33.224564,"lng":130.475902,"delta_lat":[0,43318,-1279,-13180,-51478],"delta_lng":[0,-66991,-2492,-15544,76900]}},
    {"code":1190507,"id":"e660da","name":"佐賀","name_kana":"さが","lat":33.264212,"lng":130.297608,"prefecture":41,"lines":[11905,11921],"attr":"heat","postal_code":"840-0801","address":"佐賀市駅前中央１丁目","next":[1190506,1190508,3600135,3600136],"voronoi":{"lat":33.145442,"lng":130.30041,"delta_lat":[0,207481,-133591,-6951],"delta_lng":[0,-33490,88673,-4143]}},
    {"code":1190319,"left":1190320,"right":3600129,"id":"6eaf40","name":"荒木","name_kana":"あらき","lat":33.277149,"lng":130.50268,"prefecture":40,"lines":[11903],"attr":"cool","postal_code":"830-0062","address":"久留米市荒木町白口","next":[1191337,1190320,3600128,3600129,1191302,3600130],"voronoi":{"lat":33.271317,"lng":130.488866,"delta_lat":[0,15225,2244,-15388,-14027,2921],"delta_lng":[0,10242,8879,23914,12214,-53143]}},
    {"code":1190320,"left":1190321,"id":"5286ac","name":"西牟田","name_kana":"にしむた","lat":33.246243,"lng":130.500981,"prefecture":40,"lines":[11903],"attr":"cool","postal_code":"833-0053","address":"筑後市大字西牟田","next":[1190319,3600130,3600132,1191304,1190321,1191302,3600131],"voronoi":{"lat":33.262293,"lng":130.490972,"delta_lat":[0,-2921,-12924,-27492,10729,10291,18311],"delta_lng":[0,53143,23435,29816,-115914,310,5632]}},
    {"code":1190321,"id":"4dbf0b","name":"羽犬塚","name_kana":"はいぬづか","lat":33.209822,"lng":130.49761,"prefecture":40,"lines":[11903],"attr":"cool","postal_code":"833-0031","address":"筑後市山ノ井諏訪ノ前","next":[3600133,1191306,1191304,1190320,3600132,1191305,101004,3600134],"voronoi":{"lat":33.201946,"lng":130.467775,"delta_lat":[0,22619,5120,-10729,-2521,-31965,-20020,34613],"delta_lng":[0,8127,5549,115914,4010,31700,15536,-180798]}},
    {"code":3600129,"id":"32a87e","name":"安武","name_kana":"やすたけ","lat":33.286311,"lng":130.489061,"prefecture":40,"lines":[36001],"attr":"eco","postal_code":"830-0072","address":"久留米市安武町安武本３３２７","next":[101003,1190503,1190319,3600130,3600128],"voronoi":{"lat":33.271317,"lng":130.488866,"delta_lat":[0,34929,8712,-1928,-26488],"delta_lng":[0,-36575,10652,5225,30940]}},
    {"code":1190317,"left":1190503,"right":3600127,"id":"f7452b","name":"肥前旭","name_kana":"ひぜんあさひ","lat":33.350237,"lng":130.495981,"prefecture":41,"lines":[11903],"attr":"heat","postal_code":"841-0066","address":"鳥栖市儀徳町","next":[1190503,101003,101002,3600123,3600122,1190502,1190316],"voronoi":{"lat":33.363368,"lng":130.506347,"delta_lat":[0,-4612,-22037,-6944,7597,10999,3152],"delta_lng":[0,-18977,-18533,496,42637,6545,-205]}},
    {"code":1190503,"left":1190504,"right":1190502,"id":"5a6476","name":"中原","name_kana":"なかばる","lat":33.346241,"lng":130.440046,"prefecture":41,"lines":[11905],"attr":"heat","postal_code":"849-0101","address":"三養基郡みやき町原古賀","next":[1190502,3600130,1190102,1190317,3600129,1190504,101003],"voronoi":{"lat":33.314958,"lng":130.462942,"delta_lat":[0,-8712,-6162,130790,881,-95036,-6944],"delta_lng":[0,-10652,-13799,-68876,49641,49580,496]}},
    {"code":1190504,"left":1190505,"id":"1c4ace","name":"吉野ヶ里公園","name_kana":"よしのがりこうえん","lat":33.324917,"lng":130.399553,"prefecture":41,"lines":[11905],"attr":"heat","postal_code":"842-0031","address":"佐賀県神埼郡吉野ヶ里町吉田","next":[3600130,1190505,3600132,1190102,1190503,3600133,9990705],"voronoi":{"lat":33.429382,"lng":130.347641,"delta_lat":[0,-162779,1279,12203,19999,130790,1443],"delta_lng":[0,58779,2492,14923,14657,-68876,-7440]}},
    {"code":1190505,"id":"075a1c","name":"神埼","name_kana":"かんざき","lat":33.315851,"lng":130.374446,"prefecture":41,"lines":[11905],"attr":"heat","postal_code":"842-0002","address":"神埼市神埼町田道ケ里","next":[3600134,1190504,9990701,1190506,9990705,9990703,3600133,9990704,9990702],"voronoi":{"lat":33.421056,"lng":130.282864,"delta_lat":[0,-1472,-166800,640,13180,162779,-2682,-659,-1146],"delta_lng":[0,-6603,113534,1080,15544,-58779,-31609,-5577,-7359]}},
    {"code":1190502,"id":"572845","name":"肥前麓","name_kana":"ひぜんふもと","lat":33.36578,"lng":130.477499,"prefecture":41,"lines":[11905],"attr":"heat","postal_code":"841-0076","address":"鳥栖市平田町","next":[101002,1190503,1190102,1190312,1190317],"voronoi":{"lat":33.33672,"lng":130.468836,"delta_lat":[0,95036,9488,-5788,-76699],"delta_lng":[0,-49580,35648,7120,25345]}},
    {"code":3600127,"left":3600128,"right":101003,"id":"762849","name":"試験場前","name_kana":"しけんじょうまえ","lat":33.301985,"lng":130.509923,"prefecture":40,"lines":[36001],"attr":"eco","postal_code":"830-0047","address":"久留米市津福本町２３５","next":[1191337,3600128,101003,3600126],"voronoi":{"lat":33.311659,"lng":130.507291,"delta_lat":[0,-3558,-17612,11962],"delta_lng":[0,-7435,7953,6572]}},
    {"code":3600128,"id":"c2ebf3","name":"津福","name_kana":"つぶく","lat":33.296505,"lng":130.497788,"prefecture":40,"lines":[36001],"attr":"eco","postal_code":"830-0047","address":"久留米市津福本町１５８７","next":[1190319,3600127,1191337,101003,3600129],"voronoi":{"lat":33.288786,"lng":130.507987,"delta_lat":[0,1703,17612,4929,-26488],"delta_lng":[0,-177,-7953,-31689,30940]}},
    {"code":101003,"id":"2e81c7","name":"久留米","name_kana":"くるめ","lat":33.319778,"lng":130.501408,"prefecture":40,"lines":[11903,11913,1010],"attr":"cool","postal_code":"830-0022","address":"久留米市城南町２丁目","next":[3600126,3600125,3600129,1190317,3600127,3600128,1190503,3600124,3600123],"voronoi":{"lat":33.337373,"lng":130.511969,"delta_lat":[0,-7597,-14817,-1928,-4929,3558,4368,4289,13970],"delta_lng":[0,-42637,-6390,5225,31689,7435,3939,1638,114]}},
    {"code":3600123,"left":1191303,"right":3600305,"id":"a51401","name":"宮の陣","name_kana":"みやのじん","lat":33.329456,"lng":130.530902,"prefecture":40,"lines":[36001,36003],"attr":"eco","postal_code":"839-0801","address":"久留米市宮ノ陣町大字宮瀬２４７-２","next":[1190317,3600122,3600302,3600124,101003],"voronoi":{"lat":33.337373,"lng":130.511969,"delta_lat":[0,10999,-6379,-23488,15782],"delta_lng":[0,6545,15554,2561,-23647]}},
    {"code":1191303,"left":3600125,"right":1191305,"id":"dec333","name":"久留米大学前","name_kana":"くるめだいがくまえ","lat":33.310843,"lng":130.548876,"prefecture":40,"lines":[11913],"attr":"heat","postal_code":"839-0842","address":"久留米市御井朝妻１丁目１３８７-１","next":[1191304,3600124,1191302,3600302,3600303],"voronoi":{"lat":33.259374,"lng":130.563281,"delta_lat":[0,55765,2285,6319,155],"delta_lng":[0,-26712,814,13733,2739]}},
    {"code":3600125,"left":1191302,"right":3600124,"id":"a10789","name":"西鉄久留米","name_kana":"にしてつくるめ","lat":33.312276,"lng":130.521053,"prefecture":40,"lines":[36001],"attr":"eco","postal_code":"830-0032","address":"久留米市東町３０９-２","next":[101003,3600124,3600126,1191302],"voronoi":{"lat":33.304486,"lng":130.524026,"delta_lat":[0,11542,4289,-7952],"delta_lng":[0,-12796,1638,17813]}},
    {"code":1191302,"left":1191337,"id":"b5ae81","name":"南久留米","name_kana":"みなみくるめ","lat":33.302857,"lng":130.532204,"prefecture":40,"lines":[11913],"attr":"heat","postal_code":"839-0862","address":"久留米市野中町","next":[1191337,1191304,1190320,3600124,3600126,1191303,1190319,3600125],"voronoi":{"lat":33.304486,"lng":130.524026,"delta_lat":[0,-1574,-29513,-14027,-12924,12926,55765,-2774],"delta_lng":[0,-367,8241,12214,23435,-4268,-26712,-5888]}},
    {"code":1191337,"id":"e02002","name":"久留米高校前","name_kana":"くるめこうこうまえ","lat":33.298438,"lng":130.516379,"prefecture":40,"lines":[11913],"attr":"heat","postal_code":"830-0038","address":"福岡県久留米市西町","next":[1190319,1191302,3600126,3600127,3600128],"voronoi":{"lat":33.273398,"lng":130.531901,"delta_lat":[0,29513,-460,-11962,-1703],"delta_lng":[0,-8241,-9278,-6572,177]}},
    {"code":3600124,"id":"1e2f4d","name":"櫛原","name_kana":"くしわら","lat":33.319592,"lng":130.524319,"prefecture":40,"lines":[36001],"attr":"eco","postal_code":"830-0013","address":"久留米市櫛原町原口１５１６-４","next":[3600125,3600302,1191303,1191302,101003,3600123],"voronoi":{"lat":33.334287,"lng":130.512982,"delta_lat":[0,-13970,-7952,2774,2285,1081],"delta_lng":[0,-114,17813,5888,814,-754]}},
    {"code":1191305,"left":1191304,"right":1191306,"id":"38c5bf","name":"善導寺","name_kana":"ぜんどうじ","lat":33.320141,"lng":130.608851,"prefecture":40,"lines":[11913],"attr":"eco","postal_code":"839-0824","address":"久留米市善導寺町大字飯田","next":[3600307,1191304,3600306,1191306,1190321,3600305],"voronoi":{"lat":33.335851,"lng":130.617886,"delta_lat":[0,-2977,-148404,31965,104973,13778],"delta_lng":[0,6955,8234,-31700,-16547,13360]}},
    {"code":1191304,"id":"81e0b5","name":"御井","name_kana":"みい","lat":33.312813,"lng":130.562361,"prefecture":40,"lines":[11913],"attr":"heat","postal_code":"839-0851","address":"久留米市御井町","next":[3600304,1191302,1190321,1191305,1190320,1191303,3600303,3600305],"voronoi":{"lat":33.216434,"lng":130.601375,"delta_lat":[0,2521,27492,12926,64524,4658,-2038,-5110],"delta_lng":[0,-4010,-29816,-4268,-9426,7329,15511,8133]}},
    {"code":1191306,"id":"1e68a3","name":"筑後草野","name_kana":"ちくごくさの","lat":33.321988,"lng":130.642143,"prefecture":40,"lines":[11913],"attr":"eco","postal_code":"839-0834","address":"久留米市草野町紅桃林","next":[1191308,101004,1190335,1190321,101005,1191305,3600307,1191307],"voronoi":{"lat":33.115376,"lng":130.734533,"delta_lat":[0,1503,2415,45155,20020,148404,21111,-207840],"delta_lng":[0,-38822,-3948,-43151,-15536,-8234,34486,69886]}},
    {"code":3600305,"left":3600304,"right":3600306,"id":"6b87b6","name":"北野(福岡)","name_kana":"きたの","lat":33.345379,"lng":130.582822,"prefecture":40,"lines":[36003],"attr":"heat","postal_code":"830-1122","address":"久留米市北野町今山字大六６２７-１","next":[3600304,3600306,3600121,9990105,1191305,1191304],"voronoi":{"lat":33.335186,"lng":130.598188,"delta_lat":[0,37438,-176,-5394,-40536,-5110],"delta_lng":[0,-8294,-12283,-5650,4734,8133]}},
    {"code":3600304,"left":3600303,"right":3600122,"id":"472ea6","name":"古賀茶屋","name_kana":"こがんちゃや","lat":33.34346,"lng":130.566388,"prefecture":40,"lines":[36003],"attr":"eco","postal_code":"839-0805","address":"久留米市宮ノ陣町大字八丁島１８８６-１","next":[1191304,3600305,3600122,3600121,3600303],"voronoi":{"lat":33.326518,"lng":130.576695,"delta_lat":[0,40536,-6006,-12441,-20051],"delta_lng":[0,-4734,-13671,-4674,7568]}},
    {"code":3600303,"left":3600302,"id":"eb3c44","name":"学校前","name_kana":"がっこうまえ","lat":33.336305,"lng":130.547431,"prefecture":40,"lines":[36003],"attr":"eco","postal_code":"839-0803","address":"久留米市宮ノ陣町大杜３９１-１","next":[3600122,1191304,3600304,1191303,3600302],"voronoi":{"lat":33.341894,"lng":130.537032,"delta_lat":[0,6712,-20051,-4658,-155],"delta_lng":[0,16584,7568,-7329,-2739]}},
    {"code":3600302,"id":"ff2e88","name":"五郎丸","name_kana":"ごろうまる","lat":33.330433,"lng":130.539863,"prefecture":40,"lines":[36003],"attr":"eco","postal_code":"839-0802","address":"久留米市宮ノ陣町大字五郎丸１７８２","next":[3600124,3600122,3600123,1191303,3600303],"voronoi":{"lat":33.341894,"lng":130.537032,"delta_lat":[0,98,-23488,-1081,6319],"delta_lng":[0,-2964,2561,754,13733]}},
    {"code":3600122,"id":"6ae0a7","name":"味坂","name_kana":"あじさか","lat":33.353143,"lng":130.540616,"prefecture":40,"lines":[36001],"attr":"eco","postal_code":"838-0135","address":"小郡市赤川２３","next":[3600303,1190316,3600302,3600123,1190317,3600121,3600304],"voronoi":{"lat":33.369812,"lng":130.536148,"delta_lat":[0,-18288,-3152,-6379,-98,6712,12441],"delta_lng":[0,-17839,205,15554,2964,16584,4674]}},
    {"code":3600306,"left":1191307,"right":3600307,"id":"e2a654","name":"大城","name_kana":"おおき","lat":33.350915,"lng":130.607812,"prefecture":40,"lines":[36003],"attr":"heat","postal_code":"830-1125","address":"久留米市北野町乙丸字前田８０-４","next":[3600305,3600307,1191305,9990105,3600308],"voronoi":{"lat":33.376203,"lng":130.596667,"delta_lat":[0,-3580,-37438,665,27423],"delta_lng":[0,-6773,8294,19698,-4179]}},
    {"code":1191307,"id":"02fc45","name":"田主丸","name_kana":"たぬしまる","lat":33.338871,"lng":130.692353,"prefecture":40,"lines":[11913],"attr":"eco","postal_code":"839-1233","address":"久留米市田主丸町田主丸","next":[3600310,1191308,3600308,3600312,3600307,1191306,3600309],"voronoi":{"lat":33.380249,"lng":130.677157,"delta_lat":[0,20134,-254238,207840,6805,3997,6402],"delta_lng":[0,42952,9105,-69886,1409,1955,4655]}},
    {"code":3600307,"id":"c97882","name":"金島(福岡)","name_kana":"かねしま","lat":33.353232,"lng":130.623016,"prefecture":40,"lines":[36003],"attr":"cool","postal_code":"830-1102","address":"久留米市北野町八重亀字通道１８４-８","next":[1191305,3600306,1191306,1191307,3600308],"voronoi":{"lat":33.363273,"lng":130.613707,"delta_lat":[0,-27423,-2977,21111,6805],"delta_lng":[0,4179,6955,34486,1409]}},
    {"code":3600120,"left":1190311,"right":3600119,"id":"c57b43","name":"西鉄小郡","name_kana":"にしてつおごおり","lat":33.39633,"lng":130.5536,"prefecture":40,"lines":[36001],"attr":"eco","postal_code":"838-0144","address":"小郡市祇園１-９-４","next":[9990104,1190315,9990103,3600121],"voronoi":{"lat":33.38969,"lng":130.53925,"delta_lat":[0,251,8726,-12370],"delta_lng":[0,-106,17639,3683]}},
    {"code":1190311,"left":1190312,"right":1190310,"id":"4362df","name":"原田(福岡)","name_kana":"はるだ","lat":33.451769,"lng":130.539376,"prefecture":40,"lines":[11903,11912],"attr":"heat","postal_code":"818-0024","address":"筑紫野市大字原田","next":[1190312,3600117,3600116,1190310,3600114,3600115],"voronoi":{"lat":33.461389,"lng":130.542935,"delta_lat":[0,2670,-8033,-16915,5678,4551],"delta_lng":[0,-17176,-26447,48709,3555,932]}},
    {"code":1190312,"left":1190314,"right":9990103,"id":"6af59f","name":"けやき台","name_kana":"けやきだい","lat":33.434537,"lng":130.533392,"prefecture":41,"lines":[11903],"attr":"eco","postal_code":"841-0201","address":"三養基郡基山町小倉","next":[1190311,1190102,1190313,101002,3600118,1190309,1190502,3600117,1190310,1190308],"voronoi":{"lat":33.45527,"lng":130.48796,"delta_lat":[0,756,-16915,-6345,-6017,6039,2667,5788,3328,8934],"delta_lng":[0,11352,48709,495,-2521,-79917,-4054,-7120,2879,22904]}},
    {"code":1190314,"left":1190315,"right":1190313,"id":"14fb2c","name":"弥生が丘","name_kana":"やよいがおか","lat":33.401944,"lng":130.528514,"prefecture":41,"lines":[11903],"attr":"cool","postal_code":"841-0011","address":"鳥栖市永吉町字来帰り６３３-１","next":[1190313,9990102,1190315,101002,9990103],"voronoi":{"lat":33.390168,"lng":130.539036,"delta_lat":[0,9028,22542,-10185,-11519],"delta_lng":[0,-40302,-19085,50252,10904]}},
    {"code":1190315,"left":1190316,"id":"007b24","name":"田代","name_kana":"たしろ","lat":33.384007,"lng":130.524496,"prefecture":41,"lines":[11903],"attr":"heat","postal_code":"841-0014","address":"鳥栖市桜町","next":[3600121,101002,3600120,9990103,1190316,1190314],"voronoi":{"lat":33.399196,"lng":130.498734,"delta_lat":[0,-10785,-16482,17761,251,227],"delta_lng":[0,4435,32639,3442,-106,-108]}},
    {"code":1190316,"id":"8994c0","name":"鳥栖","name_kana":"とす","lat":33.373864,"lng":130.519374,"prefecture":41,"lines":[11903,11905],"attr":"heat","postal_code":"841-0034","address":"鳥栖市京町","next":[3600122,101002,1190315,1190317,3600121],"voronoi":{"lat":33.37193,"lng":130.535809,"delta_lat":[0,16482,-25043,-11845,18288],"delta_lng":[0,-32639,3177,11963,17839]}},
    {"code":1190313,"id":"7dd864","name":"基山","name_kana":"きやま","lat":33.420945,"lng":130.532365,"prefecture":41,"lines":[11903,99901],"attr":"eco","postal_code":"841-0201","address":"三養基郡基山町大字小倉","next":[3600118,1190312,1190314,9990102,101002],"voronoi":{"lat":33.432788,"lng":130.466078,"delta_lat":[0,-6039,-1498,-13698,10185],"delta_lng":[0,79917,122,-16216,-50252]}},
    {"code":9990103,"left":3600121,"right":9990102,"id":"9be042","name":"小郡","name_kana":"おごおり","lat":33.397555,"lng":130.552994,"prefecture":40,"lines":[99901],"attr":"eco","postal_code":"838-0141","address":"小郡市大字小郡字前伏","next":[1190315,3600119,3600120,9990104,9990102,1190314],"voronoi":{"lat":33.390168,"lng":130.539036,"delta_lat":[0,-227,8726,5646,2731,-7010],"delta_lng":[0,108,17639,-655,-7563,-7760]}},
    {"code":3600121,"id":"c7b5ee","name":"端間","name_kana":"はたま","lat":33.378907,"lng":130.550814,"prefecture":40,"lines":[36001],"attr":"eco","postal_code":"838-0137","address":"小郡市福童字前畑３４１０-４","next":[9990105,1190315,9990104,3600122,3600305,3600304,3600120,1190316],"voronoi":{"lat":33.37193,"lng":130.535809,"delta_lat":[0,17761,-3393,-6077,-7773,-5394,-6006,8764],"delta_lng":[0,3442,21216,11982,5163,-5650,-13671,-22142]}},
    {"code":9990102,"id":"a62f86","name":"立野(佐賀)","name_kana":"たての","lat":33.412412,"lng":130.539573,"prefecture":41,"lines":[99901],"attr":"eco","postal_code":"841-0202","address":"三養基郡基山町長野字立野","next":[3600119,1190314,1190313,9990103,3600118],"voronoi":{"lat":33.425251,"lng":130.546118,"delta_lat":[0,-13698,-11519,7010,12343],"delta_lng":[0,-16216,10904,7760,599]}},
    {"code":1190310,"left":3600112,"right":3600114,"id":"b95fa1","name":"天拝山","name_kana":"てんぱいざん","lat":33.481847,"lng":130.53024,"prefecture":40,"lines":[11903],"attr":"heat","postal_code":"818-0042","address":"筑紫野市立明寺","next":[1190309,3600113,1190311,1190312,3600114,3600149],"voronoi":{"lat":33.47748,"lng":130.53697,"delta_lat":[0,-13421,-8033,-756,32267,1058],"delta_lng":[0,-11210,-26447,-11352,35866,1936]}},
    {"code":3600112,"left":3600149,"right":1190308,"id":"270f60","name":"西鉄二日市","name_kana":"にしてつふつかいち","lat":33.502192,"lng":130.517871,"prefecture":40,"lines":[36001,36002],"attr":"cool","postal_code":"818-0051","address":"筑紫野市二日市６４２","next":[3600202,1190308,3600111,1190309,3600149],"voronoi":{"lat":33.49848,"lng":130.519359,"delta_lat":[0,-956,9035,4649,-7981],"delta_lng":[0,-7551,772,4472,8643]}},
    {"code":3600149,"left":1190309,"id":"662a39","name":"紫","name_kana":"むらさき","lat":33.496009,"lng":130.522503,"prefecture":40,"lines":[36001],"attr":"cool","postal_code":"818-0061","address":"福岡県筑紫野市紫二丁目449番11号","next":[1190309,3600202,3600113,1190310,3600112],"voronoi":{"lat":33.49848,"lng":130.519359,"delta_lat":[0,-10943,1058,11409,3223],"delta_lng":[0,4467,1936,13442,-13509]}},
    {"code":1190309,"id":"71f1f7","name":"二日市","name_kana":"ふつかいち","lat":33.494515,"lng":130.518843,"prefecture":40,"lines":[11903],"attr":"heat","postal_code":"818-0051","address":"筑紫野市大字二日市栄町","next":[3600149,1190310,1190312,3600112,1190308],"voronoi":{"lat":33.49848,"lng":130.519359,"delta_lat":[0,-10943,-32267,-1765,44019],"delta_lng":[0,4467,-35866,-7273,31121]}},
    {"code":1190308,"id":"2889ef","name":"都府楼南","name_kana":"とふろうみなみ","lat":33.503153,"lng":130.506625,"prefecture":40,"lines":[11903],"attr":"heat","postal_code":"818-0105","address":"太宰府市都府楼南３丁目","next":[1190307,3600111,3600112,1190102,1190309,1190312],"voronoi":{"lat":33.444571,"lng":130.457784,"delta_lat":[0,26719,37775,-2506,-9035,-44019],"delta_lng":[0,5681,33703,15413,-772,-31121]}},
    {"code":3600114,"left":3600115,"right":3600113,"id":"46d42a","name":"桜台(福岡)","name_kana":"さくらだい","lat":33.471636,"lng":130.542465,"prefecture":40,"lines":[36001],"attr":"eco","postal_code":"818-0063","address":"筑紫野市桜台２-１-１","next":[3600115,1190311,3600113,1190310,1191204],"voronoi":{"lat":33.491854,"lng":130.555142,"delta_lat":[0,-14373,-13421,-2670,17376],"delta_lng":[0,-18173,-11210,17176,14615]}},
    {"code":3600115,"id":"053254","name":"筑紫","name_kana":"ちくし","lat":33.462682,"lng":130.553111,"prefecture":40,"lines":[36001],"attr":"eco","postal_code":"818-0025","address":"筑紫野市筑紫２-２","next":[3600114,3600116,1191204,1190311],"voronoi":{"lat":33.461389,"lng":130.542935,"delta_lat":[0,17376,-16648,-12777],"delta_lng":[0,14615,11683,-16725]}},
    {"code":3600113,"id":"2a94a5","name":"朝倉街道","name_kana":"あさくらがいどう","lat":33.484174,"lng":130.532548,"prefecture":40,"lines":[36001],"attr":"eco","postal_code":"818-0083","address":"福岡県筑紫野市針摺中央二丁目4-1","next":[3600202,1191204,1190310,3600149,3600114,3600203],"voronoi":{"lat":33.491854,"lng":130.555142,"delta_lat":[0,-14373,11115,11409,2131,286],"delta_lng":[0,-18173,-11207,13442,8912,8727]}},
    {"code":3600119,"left":3600308,"right":9990108,"id":"7245ac","name":"大保","name_kana":"おおほ","lat":33.411515,"lng":130.558035,"prefecture":40,"lines":[36001],"attr":"eco","postal_code":"838-0115","address":"小郡市大保１２２０","next":[9990102,9990105,9990103,9990104,3600118],"voronoi":{"lat":33.407361,"lng":130.570919,"delta_lat":[0,-3048,2731,12343,-5058],"delta_lng":[0,-14790,-7563,599,25196]}},
    {"code":3600308,"left":9990106,"right":3600310,"id":"d14b42","name":"大堰","name_kana":"おおぜき","lat":33.372278,"lng":130.624022,"prefecture":40,"lines":[36003],"attr":"cool","postal_code":"830-1201","address":"三井郡大刀洗町大字冨多字大藤８４１","next":[9990105,1191307,3600306,9990106,3600307,3600309],"voronoi":{"lat":33.360789,"lng":130.660737,"delta_lat":[0,2484,12930,1075,8841,-21333],"delta_lng":[0,-47029,-17040,701,9547,55776]}},
    {"code":9990106,"left":9990105,"right":9990107,"id":"0386e0","name":"今隈","name_kana":"いまぐま","lat":33.404237,"lng":130.594426,"prefecture":40,"lines":[99901],"attr":"heat","postal_code":"838-0113","address":"小郡市山隈１２６-２","next":[9990107,3600118,3600309,9990105,3600308],"voronoi":{"lat":33.377279,"lng":130.597369,"delta_lat":[0,43421,3537,-34577,-3540],"delta_lng":[0,-16075,1973,25624,-1975]}},
    {"code":9990105,"left":9990104,"id":"3ae87e","name":"松崎(福岡)","name_kana":"まつざき","lat":33.399654,"lng":130.582047,"prefecture":40,"lines":[99901],"attr":"eco","postal_code":"838-0122","address":"小郡市大字松崎上岩田字大添","next":[3600121,3600118,3600119,3600308,9990106,3600306,3600305,9990104],"voronoi":{"lat":33.372448,"lng":130.577612,"delta_lat":[0,176,3580,1075,43421,-6370,-6968,-27141],"delta_lng":[0,12283,6773,701,-16075,-6933,-3442,1530]}},
    {"code":9990104,"id":"bc12a9","name":"大板井","name_kana":"おおいたい","lat":33.398452,"lng":130.560727,"prefecture":40,"lines":[99901],"attr":"eco","postal_code":"838-0142","address":"小郡市大板井字屋敷","next":[3600120,3600119,3600121,9990103,9990105],"voronoi":{"lat":33.407361,"lng":130.570919,"delta_lat":[0,-3048,-5646,-12370,-6077],"delta_lng":[0,-14790,655,3683,11982]}},
    {"code":9990107,"id":"5c8ea2","name":"西太刀洗","name_kana":"にしたちあらい","lat":33.40774,"lng":130.599153,"prefecture":40,"lines":[99901],"attr":"heat","postal_code":"830-1221","address":"三井郡大刀洗町大字高樋字西奥野","next":[9990108,9990106,3600118,3600117,3600309],"voronoi":{"lat":33.38966,"lng":130.60889,"delta_lat":[0,34577,1295,8745,-38602],"delta_lng":[0,-25624,517,7080,22623]}},
    {"code":3600310,"left":3600309,"right":3600311,"id":"a1b298","name":"上浦","name_kana":"かみうら","lat":33.398681,"lng":130.637115,"prefecture":40,"lines":[36003],"attr":"cool","postal_code":"838-0057","address":"朝倉市上浦字正法寺１０-２","next":[1191307,9990109,3600309,3600311,9990110,3600312],"voronoi":{"lat":33.393732,"lng":130.662353,"delta_lat":[0,12049,-1116,-5989,-27487,9060],"delta_lng":[0,-30145,-5598,-4958,45695,9810]}},
    {"code":3600309,"id":"cbe76f","name":"本郷(福岡)","name_kana":"ほんごう","lat":33.385013,"lng":130.628893,"prefecture":40,"lines":[36003],"attr":"cool","postal_code":"830-1211","address":"三井郡大刀洗町大字本郷字桑木２７４０-２","next":[9990108,3600310,9990106,9990109,3600308,1191307,9990107],"voronoi":{"lat":33.39597,"lng":130.613941,"delta_lat":[0,2705,-27487,-6402,21333,3540,6015],"delta_lng":[0,7711,45695,-4655,-55776,1975,4596]}},
    {"code":3600311,"id":"e432e6","name":"馬田","name_kana":"まだ","lat":33.407541,"lng":130.640656,"prefecture":40,"lines":[36003],"attr":"cool","postal_code":"838-0058","address":"朝倉市馬田字落合６-２","next":[9990110,3600312,3600310],"voronoi":{"lat":33.40578,"lng":130.632207,"delta_lat":[0,11978,-24027],"delta_lng":[0,12052,18093]}},
    {"code":9990108,"left":3600116,"right":9990110,"id":"af2856","name":"山隈","name_kana":"やまぐま","lat":33.414076,"lng":130.609964,"prefecture":40,"lines":[99901],"attr":"cool","postal_code":"838-0823","address":"朝倉郡筑前町山隈","next":[3600309,9990107,3600116,1191204,9990109,3600117],"voronoi":{"lat":33.434276,"lng":130.590863,"delta_lat":[0,-38602,296,62984,-6494,-17445],"delta_lng":[0,22623,454,1488,-11507,-12698]}},
    {"code":3600116,"left":3600117,"right":1191204,"id":"76c83f","name":"津古","name_kana":"つこ","lat":33.446414,"lng":130.565538,"prefecture":40,"lines":[36001],"attr":"eco","postal_code":"838-0102","address":"小郡市津古１４２３-４","next":[3600115,1191204,1190311,9990108,3600117],"voronoi":{"lat":33.44479,"lng":130.551577,"delta_lat":[0,4551,12777,-9657,-17445],"delta_lng":[0,932,16725,34688,-12698]}},
    {"code":3600117,"left":3600118,"id":"83e9a2","name":"三国が丘","name_kana":"みくにがおか","lat":33.436862,"lng":130.563183,"prefecture":40,"lines":[36001],"attr":"eco","postal_code":"838-0106","address":"小郡市三沢字光田５０３２-２","next":[1190311,3600118,9990107,3600116,9990108,1190312],"voronoi":{"lat":33.439112,"lng":130.548021,"delta_lat":[0,5678,-9774,-739,-8745,7235],"delta_lng":[0,3555,39647,-360,-7080,-35267]}},
    {"code":3600118,"id":"9cb468","name":"三沢(福岡)","name_kana":"みつさわ","lat":33.423227,"lng":130.560386,"prefecture":40,"lines":[36001],"attr":"eco","postal_code":"838-0106","address":"小郡市三沢３９５９","next":[1190313,3600117,9990105,1190312,9990106,9990107,3600119,9990102],"voronoi":{"lat":33.41433,"lng":130.574361,"delta_lat":[0,6370,3537,1295,7235,-6017,-1498,-5864],"delta_lng":[0,6933,1973,517,-35267,-2521,122,3047]}},
    {"code":1191204,"id":"9f3489","name":"筑前山家","name_kana":"ちくぜんやまえ","lat":33.477472,"lng":130.574185,"prefecture":40,"lines":[11912],"attr":"heat","postal_code":"818-0003","address":"筑紫野市大字山家","next":[9990110,3600116,3600203,3600113,3600115,9990109,9990108,1191203,3600312,3600114],"voronoi":{"lat":33.462118,"lng":130.569234,"delta_lat":[0,-9657,6494,6853,7575,4377,53036,-28374,-10568,-13088],"delta_lng":[0,34688,11507,9778,8007,3197,-51996,-27571,-1701,2408]}},
    {"code":9990110,"left":9990109,"right":3600312,"id":"39bc39","name":"高田(福岡)","name_kana":"たかた","lat":33.414218,"lng":130.63402,"prefecture":40,"lines":[99901],"attr":"cool","postal_code":"838-0814","address":"朝倉郡筑前町高田","next":[1191204,3600311,3600312,9990109,3600310],"voronoi":{"lat":33.404665,"lng":130.626609,"delta_lat":[0,61143,7575,-55624,-11978],"delta_lng":[0,-1403,8007,11046,-12052]}},
    {"code":9990109,"id":"ee650f","name":"太刀洗","name_kana":"たちあらい","lat":33.413868,"lng":130.618768,"prefecture":40,"lines":[99901],"attr":"cool","postal_code":"838-0814","address":"朝倉郡筑前町高田","next":[3600310,1191204,9990108,3600309,9990110],"voronoi":{"lat":33.465808,"lng":130.625206,"delta_lat":[0,-6853,-62984,2705,5989],"delta_lng":[0,-9778,-1488,7711,4958]}},
    {"code":3600312,"id":"d230f3","name":"甘木","name_kana":"あまぎ","lat":33.418399,"lng":130.655074,"prefecture":40,"lines":[36003,99901],"attr":"cool","postal_code":"838-0068","address":"朝倉市甘木字竹原１６７８-２","next":[1191203,1191308,3600311,9990110,1191420,1191307,1191204,3600310],"voronoi":{"lat":33.393732,"lng":130.662353,"delta_lat":[0,24027,55624,4377,15875,-38456,-54796,-20134],"delta_lng":[0,-18093,-11046,3197,112567,14793,-43662,-42952]}},
    {"code":1190303,"left":9990716,"right":1191704,"id":"400ca1","name":"笹原","name_kana":"ささばる","lat":33.553612,"lng":130.448396,"prefecture":40,"lines":[11903],"attr":"heat","postal_code":"811-1302","address":"福岡市南区井尻３丁目","next":[1190302,3600106,3600107,9990501,1193104,1190304],"voronoi":{"lat":33.542662,"lng":130.449461,"delta_lat":[0,20889,11834,-24,-2651,-24988],"delta_lng":[0,-7291,10638,9965,2761,-11236]}},
    {"code":9990716,"left":9990705,"right":3600409,"id":"471492","name":"天神南","name_kana":"てんじんみなみ","lat":33.588197,"lng":130.401727,"prefecture":40,"lines":[99907],"attr":"heat","postal_code":"810-0004","address":"福岡市中央区渡辺通","next":[9990505,9990715,3600102,3600101,9990506],"voronoi":{"lat":33.589103,"lng":130.407383,"delta_lat":[0,-4027,17,5647,1381],"delta_lng":[0,-5465,-2477,2096,1631]}},
    {"code":9990705,"left":1190921,"right":1190302,"id":"ca4d9a","name":"梅林(福岡)","name_kana":"うめばやし","lat":33.545806,"lng":130.35494,"prefecture":40,"lines":[99907],"attr":"eco","postal_code":"814-0172","address":"福岡市早良区梅林","next":[1190102,9990704,1190505,9990706,9990707,1190504],"voronoi":{"lat":33.471966,"lng":130.375633,"delta_lat":[0,77725,4569,-127560,2682,2935],"delta_lng":[0,-17747,-4791,-37064,31609,14535]}},
    {"code":1190921,"left":1190907,"right":1190902,"id":"a7a3da","name":"糸島高校前","name_kana":"いとしまこうこうまえ","lat":33.560222,"lng":130.211917,"prefecture":40,"lines":[11909],"attr":"heat","postal_code":"819-1112","address":"糸島市浦志一丁目","next":[1190908,1190906,1191602,1190904,1190907,1190910],"voronoi":{"lat":33.721141,"lng":130.178935,"delta_lat":[0,100529,5923,-330559,-7103,-38932],"delta_lng":[0,-37674,-4115,84157,2801,23109]}},
    {"code":1190907,"left":1190909,"right":9990702,"id":"b3f72f","name":"筑前前原","name_kana":"ちくぜんまえばる","lat":33.557018,"lng":130.199332,"prefecture":40,"lines":[11909],"attr":"cool","postal_code":"819-1113","address":"福岡県糸島市前原中央一丁目1-15","next":[1191602,1190921,1190908],"voronoi":{"lat":34.43353,"lng":129.736839,"delta_lat":[0,-605936,-330559],"delta_lng":[0,400307,84157]}},
    {"code":1190909,"left":1190910,"right":1190908,"id":"a3c553","name":"加布里","name_kana":"かふり","lat":33.54381,"lng":130.176738,"prefecture":40,"lines":[11909],"attr":"cool","postal_code":"819-1123","address":"福岡県糸島市神在505-16","next":[1190908,1190910,1190912],"voronoi":{"lat":33.783493,"lng":130.015051,"delta_lat":[0,-277315,92595],"delta_lng":[0,194231,-103639]}},
    {"code":1190910,"left":1190911,"id":"9e45e0","name":"一貴山","name_kana":"いきさん","lat":33.534294,"lng":130.168236,"prefecture":40,"lines":[11909],"attr":"cool","postal_code":"819-1615","address":"福岡県糸島市二丈田中130-3","next":[1190906,9990701,1192105,1190911,1190921,1190912,1190909,1190908],"voronoi":{"lat":33.451,"lng":130.247213,"delta_lat":[0,-27592,-3794,-4337,179554,3942,-92595,-16246],"delta_lng":[0,14039,519,-35410,-119121,-1597,103639,14822]}},
    {"code":1190911,"id":"b35f80","name":"筑前深江","name_kana":"ちくぜんふかえ","lat":33.515099,"lng":130.139303,"prefecture":40,"lines":[11909],"attr":"eco","postal_code":"819-1601","address":"福岡県糸島市二丈深江1055","next":[1192109,1190910,1192105,1192106,1190912],"voronoi":{"lat":33.400332,"lng":130.14559,"delta_lat":[0,418,14527,179554,-193311],"delta_lng":[0,24657,56115,-119121,35473]}},
    {"code":1190908,"id":"03aa91","name":"美咲が丘","name_kana":"みさきがおか","lat":33.549624,"lng":130.185039,"prefecture":40,"lines":[11909],"attr":"cool","postal_code":"819-1121","address":"福岡県糸島市荻浦482-10","next":[1190921,1190913,1190909,1190912,1190910,1191602,1190907],"voronoi":{"lat":33.489931,"lng":130.224104,"delta_lat":[0,16246,277315,3016,741827,-94806,-936495],"delta_lng":[0,-14822,-194231,-1545,-338200,61533,484464]}},
    {"code":9990702,"left":9990704,"right":9990701,"id":"064fd2","name":"次郎丸","name_kana":"じろうまる","lat":33.552497,"lng":130.329538,"prefecture":40,"lines":[99907],"attr":"eco","postal_code":"814-0165","address":"福岡市早良区次郎丸","next":[9990701,9990512,9990703,1190505,1190901],"voronoi":{"lat":33.565912,"lng":130.337196,"delta_lat":[0,-141017,-3840,147436,29],"delta_lng":[0,-34101,-20231,47115,211]}},
    {"code":9990704,"left":9990703,"id":"035ea9","name":"野芥","name_kana":"のけ","lat":33.548111,"lng":130.347007,"prefecture":40,"lines":[99907],"attr":"eco","postal_code":"814-0171","address":"福岡市早良区野芥","next":[9990705,9990703,9990707,9990708,1190505],"voronoi":{"lat":33.554261,"lng":130.353095,"delta_lat":[0,1742,8082,-138043,659],"delta_lng":[0,-561,-6253,-35827,5577]}},
    {"code":9990703,"id":"d70dd3","name":"賀茂","name_kana":"かも","lat":33.55048,"lng":130.337879,"prefecture":40,"lines":[99907],"attr":"eco","postal_code":"814-0164","address":"福岡市早良区賀茂","next":[9990512,1190505,9990704,9990511,9990702,9990708],"voronoi":{"lat":33.426042,"lng":130.310455,"delta_lat":[0,-1146,141017,-568,-405,-855],"delta_lng":[0,-7359,34101,7554,1210,321]}},
    {"code":9990701,"id":"4c4570","name":"橋本(福岡)","name_kana":"はしもと","lat":33.555205,"lng":130.321064,"prefecture":40,"lines":[99907],"attr":"eco","postal_code":"819-0031","address":"福岡市西区橋本２丁目","next":[1190906,1192105,9990702,1190505,1190903,1190910,1190905,1190506,1190901,1190902],"voronoi":{"lat":33.568491,"lng":130.329979,"delta_lat":[0,-147436,-1472,-756,786,3794,58028,43098,33392,12294],"delta_lng":[0,-47115,-6603,-12759,-1731,-519,5314,8905,17031,25574]}},
    {"code":1190902,"left":1190904,"right":9990511,"id":"ee6390","name":"下山門","name_kana":"しもやまと","lat":33.58193,"lng":130.308217,"prefecture":40,"lines":[11909],"attr":"heat","postal_code":"819-0052","address":"福岡市西区大字下山門４丁目","next":[1190901,1190903,9990701,1191601],"voronoi":{"lat":33.570219,"lng":130.318076,"delta_lat":[0,-12294,92323,-18557],"delta_lng":[0,-25574,-6604,25543]}},
    {"code":1190904,"left":1190905,"right":1190903,"id":"75565a","name":"九大学研都市","name_kana":"きゅうだいがっけんとし","lat":33.578178,"lng":130.259832,"prefecture":40,"lines":[11909],"attr":"heat","postal_code":"819-0375","address":"福岡市西区徳永","next":[1191602,1191601,1190903,1190921,1190906,1190905],"voronoi":{"lat":33.686408,"lng":130.193782,"delta_lat":[0,34734,100529,-136180,-615,-143287],"delta_lng":[0,-14847,-37674,115127,453,13294]}},
    {"code":1190905,"left":1190906,"id":"a83d04","name":"周船寺","name_kana":"すせんじ","lat":33.570762,"lng":130.245766,"prefecture":40,"lines":[11909],"attr":"heat","postal_code":"819-0373","address":"福岡市西区大字周船寺１丁目","next":[1190906,9990701,1190904,1190903],"voronoi":{"lat":33.541588,"lng":130.270135,"delta_lat":[0,144819,-204972,43098],"delta_lng":[0,-76353,72784,8905]}},
    {"code":1190906,"id":"40c43b","name":"波多江","name_kana":"はたえ","lat":33.563876,"lng":130.226374,"prefecture":40,"lines":[11909],"attr":"heat","postal_code":"819-1103","address":"福岡県糸島市波多江駅北四丁目3-13","next":[9990701,1190910,1190905,1190921,1190904],"voronoi":{"lat":33.721141,"lng":130.178935,"delta_lat":[0,-270142,-27592,58028,204972],"delta_lng":[0,68278,14039,5314,-72784]}},
    {"code":1190903,"id":"bbbf41","name":"今宿","name_kana":"いまじゅく","lat":33.579449,"lng":130.273531,"prefecture":40,"lines":[11909],"attr":"heat","postal_code":"819-0168","address":"福岡市西区今宿駅前１丁目","next":[9990701,1190904,1190902,1191601,1190905],"voronoi":{"lat":33.557925,"lng":130.292502,"delta_lat":[0,92323,34627,-143287,-17055],"delta_lng":[0,-6604,-29057,13294,5336]}},
    {"code":9990511,"left":9990512,"right":1190901,"id":"4f7f37","name":"藤崎(福岡)","name_kana":"ふじさき","lat":33.581347,"lng":130.348231,"prefecture":40,"lines":[99905],"attr":"cool","postal_code":"814-0006","address":"福岡市早良区百道２丁目","next":[9990510,9990512,9990709,1191601,9990703,9990708],"voronoi":{"lat":33.564939,"lng":130.345961,"delta_lat":[0,405,51790,-483,-43807,-3853],"delta_lng":[0,-1210,-1787,3489,9612,-3423]}},
    {"code":9990512,"id":"8b4419","name":"室見","name_kana":"むろみ","lat":33.581069,"lng":130.340176,"prefecture":40,"lines":[99905],"attr":"cool","postal_code":"814-0015","address":"福岡市早良区室見１丁目","next":[9990703,9990511,1191601,1190901,9990702],"voronoi":{"lat":33.565345,"lng":130.344751,"delta_lat":[0,51790,979,-49593,-2608],"delta_lng":[0,-1787,-3842,-8931,7006]}},
    {"code":1190901,"id":"690512","name":"姪浜","name_kana":"めいのはま","lat":33.583764,"lng":130.32521,"prefecture":40,"lines":[11909,99905],"attr":"heat","postal_code":"819-0002","address":"福岡市西区姪の浜４丁目","next":[1190902,1191601,9990512,9990701,9990702],"voronoi":{"lat":33.618114,"lng":130.339121,"delta_lat":[0,13578,-61472,-1728,29],"delta_lng":[0,-27680,6635,11903,211]}},
    {"code":1190302,"left":3600104,"right":9990713,"id":"08c015","name":"竹下","name_kana":"たけした","lat":33.568688,"lng":130.431625,"prefecture":40,"lines":[11903],"attr":"heat","postal_code":"812-0895","address":"福岡市博多区竹下４丁目","next":[9990501,1190303,3600104,100319,3600105,9990502,3600106],"voronoi":{"lat":33.559797,"lng":130.436851,"delta_lat":[0,7198,10384,1855,322,-4170,-11834],"delta_lng":[0,-13582,-954,3592,19861,7040,-10638]}},
    {"code":3600104,"left":9990708,"right":3600106,"id":"4f8193","name":"高宮(福岡)","name_kana":"たかみや","lat":33.567138,"lng":130.414743,"prefecture":40,"lines":[36001],"attr":"cool","postal_code":"815-0082","address":"福岡市南区大楠３-２０-１８","next":[9990706,1190302,3600103,100319,3600105],"voronoi":{"lat":33.577379,"lng":130.422315,"delta_lat":[0,1390,-32004,-16269,36499],"delta_lng":[0,-5403,-24479,6093,24743]}},
    {"code":9990708,"left":9990706,"right":9990709,"id":"7e0d46","name":"金山(福岡)","name_kana":"かなやま","lat":33.559371,"lng":130.361561,"prefecture":40,"lines":[99907],"attr":"eco","postal_code":"814-0114","address":"福岡市城南区金山団地","next":[9990707,9990709,9990704,9990703,9990511],"voronoi":{"lat":33.564939,"lng":130.345961,"delta_lat":[0,-855,-8082,227,12762],"delta_lng":[0,321,6253,22188,-22081]}},
    {"code":9990706,"left":9990707,"id":"b0e37f","name":"福大前","name_kana":"ふくだいまえ","lat":33.54747,"lng":130.362228,"prefecture":40,"lines":[99907],"attr":"eco","postal_code":"814-0133","address":"福岡市城南区七隈","next":[9990712,3600103,3600104,9990705,9990707,1190102,3600105],"voronoi":{"lat":33.471966,"lng":130.375633,"delta_lat":[0,77725,3162,-4425,-1664,-16269,-367],"delta_lng":[0,-17747,28191,5367,988,6093,67]}},
    {"code":9990707,"id":"8899d6","name":"七隈","name_kana":"ななくま","lat":33.552819,"lng":130.361628,"prefecture":40,"lines":[99907],"attr":"eco","postal_code":"814-0133","address":"福岡市城南区七隈","next":[9990708,9990712,9990709,9990705,9990706,9990704],"voronoi":{"lat":33.556002,"lng":130.352534,"delta_lat":[0,227,-3215,-161,-3162,4569],"delta_lng":[0,22188,11198,157,-28191,-4791]}},
    {"code":9990709,"id":"50c998","name":"茶山(福岡)","name_kana":"ちゃやま","lat":33.566065,"lng":130.36543,"prefecture":40,"lines":[99907],"attr":"cool","postal_code":"814-0111","address":"福岡市城南区茶山","next":[9990707,9990711,9990511,9990710,9990708,9990510,9990712],"voronoi":{"lat":33.561609,"lng":130.38141,"delta_lat":[0,2675,9804,-1243,-3853,-12762,-3215],"delta_lng":[0,-2620,-18923,-3803,-3423,22081,11198]}},
    {"code":3600106,"left":1190102,"right":3600105,"id":"b6372c","name":"井尻","name_kana":"いじり","lat":33.551896,"lng":130.44348,"prefecture":40,"lines":[36001],"attr":"cool","postal_code":"811-1302","address":"福岡市南区井尻５-１-１","next":[1190304,1190303,1190102,3600105,1190302],"voronoi":{"lat":33.559797,"lng":130.436851,"delta_lat":[0,-22396,-3292,8554,20889],"delta_lng":[0,-9572,17239,4943,-7291]}},
    {"code":1190102,"id":"002ae3","name":"博多南","name_kana":"はかたみなみ","lat":33.517955,"lng":130.436997,"prefecture":40,"lines":[11901],"attr":"heat","postal_code":"816-0844","address":"春日市上白水柏田","next":[9990705,1190312,1190307,1190503,1190504,1190502,1190304,1190308,3600106,9990706,3600105,1190306,1190305],"voronoi":{"lat":33.490675,"lng":130.463524,"delta_lat":[0,-19385,-26719,-3328,-9488,-881,1443,39649,58162,7272,-3292,-9007,-11655],"delta_lng":[0,-60,-5681,-2879,-35648,-49641,-7440,13458,22959,28686,17239,9271,6040]}},
    {"code":3600105,"id":"07e23a","name":"大橋(福岡)","name_kana":"おおはし","lat":33.559128,"lng":130.426559,"prefecture":40,"lines":[36001],"attr":"cool","postal_code":"815-0033","address":"福岡市南区大橋１-５-１","next":[3600106,1190302,3600104,1190102,9990706],"voronoi":{"lat":33.537401,"lng":130.427279,"delta_lat":[0,22396,7198,-36499,-367],"delta_lng":[0,9572,-13582,-24743,67]}},
    {"code":9990713,"left":9990711,"right":3600102,"id":"25c229","name":"薬院大通","name_kana":"やくいんおおどおり","lat":33.580406,"lng":130.396158,"prefecture":40,"lines":[99907],"attr":"heat","postal_code":"810-0022","address":"福岡市中央区薬院","next":[3600102,9990712,3600103,3600101,9990507],"voronoi":{"lat":33.584674,"lng":130.39794,"delta_lat":[0,-8828,-7893,14805,3023],"delta_lng":[0,2478,-5297,-4936,5114]}},
    {"code":9990711,"left":9990712,"right":9990510,"id":"125de2","name":"六本松","name_kana":"ろっぽんまつ","lat":33.577678,"lng":130.377287,"prefecture":40,"lines":[99907],"attr":"cool","postal_code":"810-0044","address":"福岡市中央区六本松","next":[9990710,9990709,9990508,9990509,9990712],"voronoi":{"lat":33.584258,"lng":130.374423,"delta_lat":[0,-2083,-17891,-2675,21691],"delta_lng":[0,-3828,8196,2620,878]}},
    {"code":9990712,"left":9990710,"id":"2feb43","name":"桜坂","name_kana":"さくらざか","lat":33.577292,"lng":130.386819,"prefecture":40,"lines":[99907],"attr":"heat","postal_code":"810-0024","address":"福岡市中央区桜坂","next":[9990706,3600103,9990713,9990707,9990507,9990711,9990508,9990709],"voronoi":{"lat":33.552853,"lng":130.386078,"delta_lat":[0,-4425,19524,14805,1987,-1445,-21691,-8594],"delta_lng":[0,5367,3677,-4936,-5618,-2279,-878,4510]}},
    {"code":9990710,"id":"ef350e","name":"別府(福岡)","name_kana":"べふ","lat":33.57417,"lng":130.369629,"prefecture":40,"lines":[99907],"attr":"cool","postal_code":"814-0104","address":"福岡市城南区別府","next":[9990509,9990711,9990510,9990709],"voronoi":{"lat":33.574087,"lng":130.359867,"delta_lat":[0,8229,-142,-17891],"delta_lng":[0,7954,2773,8196]}},
    {"code":9990510,"id":"914495","name":"西新","name_kana":"にしじん","lat":33.583846,"lng":130.359619,"prefecture":40,"lines":[99905],"attr":"heat","postal_code":"814-0002","address":"福岡市早良区西新３丁目","next":[9990511,1191601,9990710,9990709,9990509],"voronoi":{"lat":33.616682,"lng":130.347552,"delta_lat":[0,-30,-43807,1243,8229],"delta_lng":[0,-1099,9612,3803,7954]}},
    {"code":3600102,"left":3600103,"right":9990715,"id":"90d629","name":"薬院","name_kana":"やくいん","lat":33.581957,"lng":130.401683,"prefecture":40,"lines":[36001,99907],"attr":"cool","postal_code":"810-0004","address":"福岡市中央区渡辺通２-６-１","next":[3600101,9990713,9990715,9990716,3600103],"voronoi":{"lat":33.575845,"lng":130.400419,"delta_lat":[0,8828,419,-17,-6230],"delta_lng":[0,-2478,1500,2477,3967]}},
    {"code":3600103,"id":"c04e29","name":"西鉄平尾","name_kana":"にしてつひらお","lat":33.573631,"lng":130.406254,"prefecture":40,"lines":[36001],"attr":"cool","postal_code":"810-0014","address":"福岡市中央区平尾２-２３５-６","next":[9990715,9990712,9990706,3600104,9990713,100319,3600102],"voronoi":{"lat":33.580138,"lng":130.415351,"delta_lat":[0,-1369,-32004,1664,19524,7893,3000],"delta_lng":[0,1561,-24479,-988,3677,5297,5466]}},
    {"code":9990715,"id":"885e18","name":"渡辺通","name_kana":"わたなべどおり","lat":33.583969,"lng":130.404843,"prefecture":40,"lines":[99907],"attr":"heat","postal_code":"810-0004","address":"福岡市中央区渡辺通","next":[3600103,9990505,9990716,9990504,3600102,100319],"voronoi":{"lat":33.585673,"lng":130.413234,"delta_lat":[0,3036,393,-4027,-6230,1292],"delta_lng":[0,-3155,-2697,-5465,3967,9466]}},
    {"code":3600409,"left":9990602,"right":3600404,"id":"04c949","name":"三苫","name_kana":"みとま","lat":33.702081,"lng":130.422521,"prefecture":40,"lines":[36004],"attr":"heat","postal_code":"811-0212","address":"福岡市東区美和台３-６-１","next":[1191604,1191603,3600410,1191605,1191602,1190225],"voronoi":{"lat":33.955407,"lng":130.222884,"delta_lat":[0,-179914,-70815,-12491,6049,6669],"delta_lng":[0,111811,67128,18516,10788,1210]}},
    {"code":9990602,"left":3600101,"right":9990603,"id":"2f5d1d","name":"呉服町(福岡)","name_kana":"ごふくまち","lat":33.59829,"lng":130.409892,"prefecture":40,"lines":[99906],"attr":"eco","postal_code":"812-0024","address":"福岡市博多区綱場町","next":[9990603,9990505,9990506,9990605,9990508,9990504],"voronoi":{"lat":33.594219,"lng":130.410499,"delta_lat":[0,14911,13352,139,-5279,-19066],"delta_lng":[0,-15199,-8559,-37,9502,17873]}},
    {"code":3600101,"left":9990509,"right":9990504,"id":"1adb59","name":"西鉄福岡（天神）","name_kana":"ふくおか(てんじん)","lat":33.588937,"lng":130.399733,"prefecture":40,"lines":[36001],"attr":"cool","postal_code":"810-0001","address":"福岡市中央区天神二丁目11番2号","next":[9990506,3600102,9990507,9990716,9990713],"voronoi":{"lat":33.58578,"lng":130.395299,"delta_lat":[0,3236,1723,-5647,-419],"delta_lng":[0,69,6168,-2096,-1500]}},
    {"code":9990509,"left":9990507,"right":9990506,"id":"e0a659","name":"唐人町","name_kana":"とうじんまち","lat":33.590235,"lng":130.370451,"prefecture":40,"lines":[99905],"attr":"heat","postal_code":"810-0063","address":"福岡市中央区唐人町１丁目","next":[9990710,9990508,1191601,9990711,9990510],"voronoi":{"lat":33.582174,"lng":130.370595,"delta_lat":[0,2083,38384,-5960,-34365],"delta_lng":[0,3828,1281,-28152,20270]}},
    {"code":9990507,"left":9990508,"id":"6a5cf4","name":"赤坂(福岡)","name_kana":"あかさか","lat":33.589124,"lng":130.391005,"prefecture":40,"lines":[99905],"attr":"eco","postal_code":"810-0042","address":"福岡市中央区赤坂１丁目","next":[9990508,3600101,9990712,9990506,9990713],"voronoi":{"lat":33.582758,"lng":130.390185,"delta_lat":[0,1987,34823,-30551,-3236],"delta_lng":[0,-5618,2374,8427,-69]}},
    {"code":9990508,"id":"89d80b","name":"大濠公園","name_kana":"おおほりこうえん","lat":33.589957,"lng":130.378784,"prefecture":40,"lines":[99905],"attr":"heat","postal_code":"810-0074","address":"福岡市中央区大手門１丁目","next":[9990509,9990507,1191601,9990711,9990605,9990506,9990712,9990602],"voronoi":{"lat":33.619567,"lng":130.386941,"delta_lat":[0,-34823,-1445,958,38384,3142,-3162,-139],"delta_lng":[0,-2374,-2279,-7866,1281,9000,2001,37]}},
    {"code":9990506,"id":"492511","name":"天神","name_kana":"てんじん","lat":33.591346,"lng":130.39906,"prefecture":40,"lines":[99905],"attr":"eco","postal_code":"810-0001","address":"福岡市中央区天神２丁目","next":[3600101,9990505,9990602,9990508,9990716,9990507],"voronoi":{"lat":33.590739,"lng":130.401536,"delta_lat":[0,1381,17010,13352,-2915,-30551],"delta_lng":[0,1631,-7867,-8559,200,8427]}},
    {"code":9990504,"left":100319,"right":9990505,"id":"d9b136","name":"祇園(福岡)","name_kana":"ぎおん","lat":33.594124,"lng":130.414614,"prefecture":40,"lines":[99905],"attr":"eco","postal_code":"812-0037","address":"福岡市博多区御供所町","next":[9990505,9990603,100319,9990715,9990602],"voronoi":{"lat":33.598543,"lng":130.422064,"delta_lat":[0,-12870,3036,5510,4057],"delta_lng":[0,-8829,-3155,420,3580]}},
    {"code":100319,"id":"dee3bc","name":"博多","name_kana":"はかた","lat":33.590002,"lng":130.420622,"prefecture":40,"lines":[11901,11902,11903,11908,99905,1003,1010],"attr":"heat","postal_code":"812-0012","address":"福岡市博多区博多駅中央街","next":[9990603,9990502,9990504,1190302,3600104,1190230,9990715,3600103],"voronoi":{"lat":33.580138,"lng":130.415351,"delta_lat":[0,5536,12870,32,-686,-18656,-1855,1390],"delta_lng":[0,-2116,8829,65,3855,-77,-3592,-5403]}},
    {"code":9990505,"id":"f0f95a","name":"中洲川端","name_kana":"なかすかわばた","lat":33.594749,"lng":130.406418,"prefecture":40,"lines":[99905,99906],"attr":"eco","postal_code":"812-0026","address":"福岡市博多区上川端町","next":[9990504,9990715,9990716,9990602,9990506],"voronoi":{"lat":33.589103,"lng":130.407383,"delta_lat":[0,-393,5510,14911,-17010],"delta_lng":[0,2697,420,-15199,7867]}},
    {"code":9990603,"left":1191603,"right":9990605,"id":"293e0c","name":"千代県庁口","name_kana":"ちよけんちょうぐち","lat":33.602456,"lng":130.414336,"prefecture":40,"lines":[99906],"attr":"eco","postal_code":"812-0044","address":"福岡市博多区千代４","next":[9990504,9990602,100319,1190230,9990604,9990605],"voronoi":{"lat":33.617342,"lng":130.396206,"delta_lat":[0,-19066,267,32,5546,9021],"delta_lng":[0,17873,7984,65,-2783,-12530]}},
    {"code":1191603,"left":1191602,"right":1191604,"id":"77cb8b","name":"雁ノ巣","name_kana":"がんのす","lat":33.683872,"lng":130.403312,"prefecture":40,"lines":[11916],"attr":"heat","postal_code":"811-0204","address":"福岡市東区奈多","next":[3600401,3600409,1191604,3600402,3600406,1191602],"voronoi":{"lat":33.653499,"lng":130.403286,"delta_lat":[0,5062,6641,39476,70815,-126033],"delta_lng":[0,7340,2979,-11782,-67128,59362]}},
    {"code":1191602,"left":1191601,"id":"4d3e80","name":"海ノ中道","name_kana":"うみのなかみち","lat":33.664241,"lng":130.361633,"prefecture":40,"lines":[11916],"attr":"heat","postal_code":"811-0321","address":"福岡市東区西戸崎","next":[1190904,3600401,3600410,1190913,1190921,1190907,3600409,1190920,1191603,1191601,1190908,1190222],"voronoi":{"lat":34.870557,"lng":129.502983,"delta_lat":[0,-335956,-6266,-94806,-605936,-5923,-136180,-37513,1483,126033,179914,64494],"delta_lng":[0,168709,3615,61533,400307,4115,115127,136942,727,-59362,-111811,-42720]}},
    {"code":1191601,"id":"6fde6a","name":"西戸崎","name_kana":"さいとざき","lat":33.650139,"lng":130.35777,"prefecture":40,"lines":[11916],"attr":"heat","postal_code":"811-0321","address":"福岡市東区西戸崎１丁目","next":[1190904,9990510,1190901,9990605,9990508,9990509,3600401,9990512,9990511,9990606,1191602,1190903,1190902],"voronoi":{"lat":33.618114,"lng":130.339121,"delta_lat":[0,-979,-483,30,5960,3142,838,14544,6812,37513,-615,-34627,-18557],"delta_lng":[0,3842,3489,1099,28152,9000,465,6432,1730,-136942,453,29057,25543]}},
    {"code":1191604,"id":"d01c93","name":"奈多","name_kana":"なた","lat":33.68646,"lng":130.411983,"prefecture":40,"lines":[11916],"attr":"eco","postal_code":"811-0204","address":"福岡市東区奈多","next":[3600409,1191603,3600406,1191605,3600407],"voronoi":{"lat":33.675117,"lng":130.420921,"delta_lat":[0,-9914,39476,-12491,-12950],"delta_lng":[0,-7315,-11782,18516,1753]}},
    {"code":9990605,"left":9990604,"right":9990606,"id":"dade97","name":"箱崎宮前","name_kana":"はこざきみやまえ","lat":33.615788,"lng":130.419613,"prefecture":40,"lines":[99906],"attr":"heat","postal_code":"812-0054","address":"福岡市東区馬出４","next":[9990606,1191601,9990604,9990508,9990602,1190230,1190229,9990603],"voronoi":{"lat":33.617342,"lng":130.396206,"delta_lat":[0,5279,3162,838,-8130,-5713,-366,730],"delta_lng":[0,-9502,-2001,465,37399,1874,-781,-16845]}},
    {"code":9990604,"id":"3919b2","name":"馬出九大病院前","name_kana":"まいだしきゅうだいびょういんまえ","lat":33.6094,"lng":130.419336,"prefecture":40,"lines":[99906],"attr":"heat","postal_code":"812-0054","address":"福岡市東区馬出２","next":[9990605,1190230,9990603],"voronoi":{"lat":33.613143,"lng":130.406816,"delta_lat":[0,-730,-8291],"delta_lng":[0,16845,-4315]}},
    {"code":9990606,"id":"e05c01","name":"箱崎九大前","name_kana":"はこざききゅうだいまえ","lat":33.622177,"lng":130.421002,"prefecture":40,"lines":[99906],"attr":"cool","postal_code":"812-0053","address":"福岡市東区箱崎３","next":[3600401,1190229,9990605,1191601],"voronoi":{"lat":33.625595,"lng":130.427836,"delta_lat":[0,-7104,8130,14544],"delta_lng":[0,-5269,-37399,6432]}},
    {"code":3600404,"left":3600402,"right":1190225,"id":"c02014","name":"香椎宮前","name_kana":"かしいみやまえ","lat":33.65529,"lng":130.442674,"prefecture":40,"lines":[36004],"attr":"cool","postal_code":"813-0013","address":"福岡市東区香椎駅前１-１-１","next":[1190227,1190228,3600403,1191702,3600405],"voronoi":{"lat":33.655177,"lng":130.449272,"delta_lat":[0,-4738,1969,2936,2282],"delta_lng":[0,-2713,-5556,-6961,8286]}},
    {"code":3600402,"left":1190229,"right":1190228,"id":"4081e2","name":"名島","name_kana":"なじま","lat":33.642733,"lng":130.431687,"prefecture":40,"lines":[36004],"attr":"cool","postal_code":"813-0043","address":"福岡市東区名島４丁目７０番６号","next":[3600406,1191703,3600405,1191603,1190228,1190810,3600401,3600403],"voronoi":{"lat":33.634302,"lng":130.444518,"delta_lat":[0,-3377,-1331,23905,5062,-1587,-893,-13872],"delta_lng":[0,382,-2945,-38668,7340,15935,1565,10655]}},
    {"code":1190229,"left":9990502,"right":3600401,"id":"d7da77","name":"箱崎","name_kana":"はこざき","lat":33.618063,"lng":130.426549,"prefecture":40,"lines":[11902],"attr":"heat","postal_code":"812-0053","address":"福岡市東区箱崎１丁目","next":[9990606,1190230,1190810,9990605,3600401],"voronoi":{"lat":33.610169,"lng":130.434354,"delta_lat":[0,2609,5713,7104,678],"delta_lng":[0,-9912,-1874,5269,10750]}},
    {"code":9990502,"left":1190230,"id":"ffbc81","name":"東比恵","name_kana":"ひがしひえ","lat":33.589958,"lng":130.43128,"prefecture":40,"lines":[99905],"attr":"eco","postal_code":"812-0007","address":"福岡市博多区東比恵２丁目","next":[100319,1190230,9990501,1190302],"voronoi":{"lat":33.579233,"lng":130.425907,"delta_lat":[0,18656,4515,-22849],"delta_lng":[0,77,10202,9582]}},
    {"code":1190230,"id":"2becef","name":"吉塚","name_kana":"よしづか","lat":33.607142,"lng":130.423674,"prefecture":40,"lines":[11902,11908,11931],"attr":"heat","postal_code":"812-0046","address":"福岡市博多区吉塚本町","next":[9990501,1190810,9990502,1190229,100319,9990603,9990605,9990604],"voronoi":{"lat":33.604121,"lng":130.419345,"delta_lat":[0,-5546,-686,4515,545,7220,2609,-366],"delta_lng":[0,2783,3855,10202,218,-2050,-9912,-781]}},
    {"code":3600401,"id":"2c722a","name":"貝塚(福岡)","name_kana":"かいづか","lat":33.632906,"lng":130.425612,"prefecture":40,"lines":[36004,99906],"attr":"cool","postal_code":"812-0053","address":"福岡市東区箱崎７-１-２","next":[1191603,1191602,9990606,1191601,1190810,3600402,1190229],"voronoi":{"lat":33.625595,"lng":130.427836,"delta_lat":[0,15570,6812,1483,4039,-23905,-3321],"delta_lng":[0,-36236,1730,727,9229,38668,-3368]}},
    {"code":1190228,"left":1190810,"right":3600403,"id":"659c37","name":"千早","name_kana":"ちはや","lat":33.649116,"lng":130.440486,"prefecture":40,"lines":[11902],"attr":"heat","postal_code":"813-0041","address":"福岡市東区水谷２丁目８３-１","next":[3600403,3600404,3600402,1191703,1191702],"voronoi":{"lat":33.634302,"lng":130.444518,"delta_lat":[0,7907,10198,-1969,-7134],"delta_lng":[0,-5736,2222,5556,249]}},
    {"code":1190810,"id":"df9280","name":"柚須","name_kana":"ゆす","lat":33.613206,"lng":130.445031,"prefecture":40,"lines":[11908],"attr":"heat","postal_code":"811-2305","address":"糟屋郡粕屋町柚須","next":[1190809,9990501,1191705,1190230,1191704,1191703,1190229,1193102,3600401,3600402],"voronoi":{"lat":33.629594,"lng":130.441955,"delta_lat":[0,-3321,-16104,-7220,1364,15815,124,1417,7592,1664],"delta_lng":[0,-3368,-4233,2050,6301,15716,7,-377,-7853,-5298]}},
    {"code":3600403,"id":"a8b1f2","name":"西鉄千早","name_kana":"にしてつちはや","lat":33.649199,"lng":130.440105,"prefecture":40,"lines":[36004],"attr":"cool","postal_code":"813-0041","address":"福岡市東区水谷２丁目８３番２号","next":[3600405,1190228,3600404,3600402],"voronoi":{"lat":33.656081,"lng":130.428126,"delta_lat":[0,-738,-2936,-10198],"delta_lng":[0,5916,6961,-2222]}},
    {"code":1190225,"left":1191605,"right":3600405,"id":"37787f","name":"福工大前","name_kana":"ふっこうだいまえ","lat":33.698813,"lng":130.440536,"prefecture":40,"lines":[11902],"attr":"cool","postal_code":"811-0213","address":"福岡市東区和白丘１丁目","next":[3600407,1190233,3600410,1190226,3600409,1191605],"voronoi":{"lat":33.686432,"lng":130.44683,"delta_lat":[0,647,20134,-2308,-6669,-9650],"delta_lng":[0,25054,-29980,-9567,-1210,9020]}},
    {"code":1191605,"left":3600407,"right":3600410,"id":"581d45","name":"和白","name_kana":"わじろ","lat":33.688888,"lng":130.429918,"prefecture":40,"lines":[11916,36004],"attr":"eco","postal_code":"811-0202","address":"福岡市東区和白３丁目","next":[3600407,3600409,1191604,1190225],"voronoi":{"lat":33.698236,"lng":130.431127,"delta_lat":[0,-6049,-12950,9349],"delta_lng":[0,-10788,1753,18055]}},
    {"code":3600407,"left":3600406,"id":"e7991a","name":"唐の原","name_kana":"とうのはる","lat":33.680059,"lng":130.43449,"prefecture":40,"lines":[36004],"attr":"eco","postal_code":"813-0001","address":"福岡市東区唐原２-２２-１０","next":[1191605,1190225,1191604,3600406,1190226],"voronoi":{"lat":33.674977,"lng":130.436022,"delta_lat":[0,140,4121,9349,-2154],"delta_lng":[0,-15101,1172,18055,6683]}},
    {"code":3600406,"id":"b33619","name":"香椎花園前","name_kana":"かしいかえんまえ","lat":33.669924,"lng":130.434396,"prefecture":40,"lines":[36004],"attr":"eco","postal_code":"813-0003","address":"福岡市東区香住ケ丘６-１-１","next":[3600402,1191604,1191603,3600407,3600405,1190226],"voronoi":{"lat":33.674977,"lng":130.436022,"delta_lat":[0,140,-9914,-6641,-1587,9790],"delta_lng":[0,-15101,-7315,-2979,15935,14080]}},
    {"code":3600410,"id":"08d700","name":"西鉄新宮","name_kana":"にしてつしんぐう","lat":33.714067,"lng":130.436856,"prefecture":40,"lines":[36004],"attr":"heat","postal_code":"811-0112","address":"糟屋郡新宮町大字下府字浜山９２１-１","next":[1190233,1191602,1190224,1190232,3600409,1190223,1190225,1190222],"voronoi":{"lat":34.019901,"lng":130.180165,"delta_lat":[0,-64494,-250502,2308,17866,21689,20893,71005],"delta_lng":[0,42720,209453,9567,3495,-7973,-12879,-63086]}},
    {"code":3600405,"left":1190227,"right":1190226,"id":"aab36b","name":"西鉄香椎","name_kana":"にしてつかしい","lat":33.659809,"lng":130.441429,"prefecture":40,"lines":[36004],"attr":"cool","postal_code":"813-0013","address":"福岡市東区香椎駅前２-１７-１","next":[3600403,1190227,3600402,1190226,3600406,3600404],"voronoi":{"lat":33.66683,"lng":130.444359,"delta_lat":[0,-65,-9790,-893,-738,2282],"delta_lng":[0,-3717,-14080,1565,5916,8286]}},
    {"code":1190227,"id":"304596","name":"香椎","name_kana":"かしい","lat":33.659228,"lng":130.444063,"prefecture":40,"lines":[11902,11916,11917],"attr":"heat","postal_code":"813-0013","address":"福岡市東区香椎駅前１丁目","next":[3600404,3600405,1190226,1191702],"voronoi":{"lat":33.66683,"lng":130.444359,"delta_lat":[0,-9204,-2449,16234],"delta_lng":[0,-2030,6944,18180]}},
    {"code":1190226,"id":"d8fd50","name":"九産大前","name_kana":"きゅうさんだいまえ","lat":33.673743,"lng":130.441184,"prefecture":40,"lines":[11902],"attr":"heat","postal_code":"813-0001","address":"福岡市東区唐原","next":[1191702,1190232,1190227,1190233,3600405,1190225,3600407,3600406],"voronoi":{"lat":33.66683,"lng":130.444359,"delta_lat":[0,4581,11382,445,3842,-647,-11456,-8212],"delta_lng":[0,23094,23898,-1208,-18258,-25054,-10809,4620]}},
    {"code":1191704,"left":1191709,"right":1191104,"id":"6344cf","name":"土井","name_kana":"どい","lat":33.634968,"lng":130.466068,"prefecture":40,"lines":[11917],"attr":"eco","postal_code":"813-0032","address":"福岡市東区土井３丁目","next":[1190232,1190807,1191702,1190810,1191703,1191705,1190806],"voronoi":{"lat":33.675351,"lng":130.503859,"delta_lat":[0,-39325,-14357,7592,36206,16349,205],"delta_lng":[0,-18638,-27171,-7853,34519,17840,2549]}},
    {"code":1191709,"left":1191708,"right":1190801,"id":"225031","name":"須恵中央","name_kana":"すえちゅうおう","lat":33.587296,"lng":130.505146,"prefecture":40,"lines":[11917],"attr":"heat","postal_code":"811-2113","address":"福岡県糟屋郡須恵町大字須恵806","next":[1190806,1191710,1191708,1193105,1193104],"voronoi":{"lat":33.604098,"lng":130.517815,"delta_lat":[0,-8687,-15722,-429,7240],"delta_lng":[0,16482,-35097,-6183,1131]}},
    {"code":1191708,"left":1190306,"right":1191705,"id":"c0b4ea","name":"須恵","name_kana":"すえ","lat":33.596803,"lng":130.498077,"prefecture":40,"lines":[11917],"attr":"heat","postal_code":"811-2112","address":"福岡県糟屋郡須恵町大字植木587-8","next":[1193104,1190806,1191709,1191707,1190807],"voronoi":{"lat":33.608624,"lng":130.496649,"delta_lat":[0,-13007,-9118,17598,5536],"delta_lng":[0,-6487,3985,23667,-5704]}},
    {"code":1190306,"left":1190304,"right":3600109,"id":"c4da5e","name":"大野城","name_kana":"おおのじょう","lat":33.524944,"lng":130.480063,"prefecture":40,"lines":[11903],"attr":"heat","postal_code":"816-0943","address":"大野城市白木原１丁目","next":[3600109,3600108,1190307,3600110,1190305,1190102],"voronoi":{"lat":33.513446,"lng":130.459829,"delta_lat":[0,17412,73,-6715,-5452,-28089],"delta_lng":[0,15797,135,9040,-1492,-19784]}},
    {"code":1190304,"left":3600108,"right":3600107,"id":"13dfee","name":"南福岡","name_kana":"みなみふくおか","lat":33.542092,"lng":130.460447,"prefecture":40,"lines":[11903],"attr":"heat","postal_code":"812-0884","address":"福岡市博多区寿町２丁目","next":[3600106,1190305,1190102,3600107,3600108,1190303],"voronoi":{"lat":33.542115,"lng":130.46752,"delta_lat":[0,-924,-16090,9007,8554,5060],"delta_lng":[0,-310,-13421,-9271,4943,4837]}},
    {"code":3600108,"left":1190305,"id":"fa56fa","name":"春日原","name_kana":"かすがばる","lat":33.537823,"lng":130.473141,"prefecture":40,"lines":[36001],"attr":"cool","postal_code":"816-0802","address":"春日市春日原北町３-９０","next":[3600107,1190306,1190305,3600109,1190304,1193105],"voronoi":{"lat":33.530931,"lng":130.47576,"delta_lat":[0,-73,10333,924,18524,-10058],"delta_lng":[0,-135,-8416,310,16538,10714]}},
    {"code":1190305,"id":"9f4709","name":"春日(福岡)","name_kana":"かすが","lat":33.534701,"lng":130.469308,"prefecture":40,"lines":[11903],"attr":"heat","postal_code":"816-0802","address":"春日市春日原北町","next":[1190304,3600108,1190306,1190102],"voronoi":{"lat":33.525102,"lng":130.453788,"delta_lat":[0,16090,-10333,-17412],"delta_lng":[0,13421,8416,-15797]}},
    {"code":3600107,"id":"d0076b","name":"雑餉隈","name_kana":"ざっしょのくま","lat":33.547216,"lng":130.46262,"prefecture":40,"lines":[36001],"attr":"cool","postal_code":"812-0879","address":"福岡市博多区銀天町１-１-１","next":[3600108,1190303,1190304,1193104,1193105],"voronoi":{"lat":33.564841,"lng":130.48157,"delta_lat":[0,7870,-24988,-5607,18524],"delta_lng":[0,-16037,-11236,13222,16538]}},
    {"code":3600109,"left":1190307,"right":1193104,"id":"65360f","name":"白木原","name_kana":"しらきばる","lat":33.528541,"lng":130.482735,"prefecture":40,"lines":[36001],"attr":"cool","postal_code":"816-0943","address":"大野城市白木原１-６-１６","next":[1190306,3600108,1193105,3600110,1191711],"voronoi":{"lat":33.548705,"lng":130.498334,"delta_lat":[0,1877,-19650,-6715,20320],"delta_lng":[0,-3563,-19011,9040,19063]}},
    {"code":1190307,"left":3600110,"id":"3d2414","name":"水城","name_kana":"みずき","lat":33.51779,"lng":130.49022,"prefecture":40,"lines":[11903],"attr":"heat","postal_code":"816-0952","address":"大野城市下大利３丁目","next":[1190308,1190102,1190306,3600111,3600110],"voronoi":{"lat":33.518765,"lng":130.483309,"delta_lat":[0,-28089,-19385,37775,13579],"delta_lng":[0,-19784,-60,33703,4666]}},
    {"code":3600110,"id":"6b4ced","name":"下大利","name_kana":"しもおおり","lat":33.522431,"lng":130.489248,"prefecture":40,"lines":[36001],"attr":"cool","postal_code":"816-0952","address":"大野城市下大利１-１０-９","next":[1191711,1193107,1190307,1190306,3600109,3600111],"voronoi":{"lat":33.522645,"lng":130.501834,"delta_lat":[0,-3880,5452,20320,-199,-7113],"delta_lng":[0,-18525,1492,19063,384,5942]}},
    {"code":1193104,"id":"53ba29","name":"志免","name_kana":"しめ","closed":true,"lat":33.590614,"lng":130.483917,"prefecture":40,"lines":[11931],"attr":"unknown","postal_code":"811-2244","address":"日本福岡県糟屋郡志免町志免中央２丁目７","next":[1191707,1193105,1191708,1190809,1190303,9990501,1193103,3600107,1191709],"voronoi":{"lat":33.57926,"lng":130.493016,"delta_lat":[0,-14419,7870,2651,3542,19349,677,-3312,-9118],"delta_lng":[0,-11446,-16037,-2761,657,9232,1101,16400,3985]}},
    {"code":1191705,"left":1193102,"right":1190808,"id":"81ece0","name":"伊賀","name_kana":"いが","lat":33.6208,"lng":130.473554,"prefecture":40,"lines":[11917],"attr":"eco","postal_code":"811-2312","address":"糟屋郡粕屋町大字戸原","next":[1190808,1190810,1191704,1190807,1190809],"voronoi":{"lat":33.622743,"lng":130.485066,"delta_lat":[0,13283,-14357,-1417,-4350],"delta_lng":[0,156,-27171,377,15115]}},
    {"code":1193102,"left":1193103,"right":1190809,"id":"2c592d","name":"御手洗","name_kana":"みたらい","closed":true,"lat":33.606696,"lng":130.451582,"prefecture":40,"lines":[11931],"attr":"unknown","postal_code":"811-2233","address":"日本福岡県糟屋郡志免町別府北２丁目９１１志免鉄道公園 (旧御手洗駅)","next":[1190809,1193103,1190810,9990501],"voronoi":{"lat":33.604314,"lng":130.442704,"delta_lat":[0,15815,-7260,-12074],"delta_lng":[0,15716,1894,-6741]}},
    {"code":1193103,"left":9990501,"id":"ec14f1","name":"上亀山","name_kana":"かみかめやま","closed":true,"lat":33.602196,"lng":130.459642,"prefecture":40,"lines":[11931],"attr":"unknown","postal_code":"811-2205","address":"日本福岡県糟屋郡志免町別府１丁目２１１７","next":[1193102,9990501,1190809,1193104],"voronoi":{"lat":33.578904,"lng":130.463429,"delta_lat":[0,21891,12074,-14616],"delta_lng":[0,-9856,6741,12347]}},
    {"code":9990501,"id":"4586eb","name":"福岡空港","name_kana":"ふくおかくうこう","lat":33.59718,"lng":130.448501,"prefecture":40,"lines":[99905],"attr":"eco","postal_code":"812-0003","address":"福岡市博多区大字下臼井","next":[1190810,1190302,1190230,1190303,1193103,9990502,1193104,1193102],"voronoi":{"lat":33.578904,"lng":130.463429,"delta_lat":[0,-3542,24,4170,22849,545,1364,-3519],"delta_lng":[0,-657,-9965,-7040,-9582,218,6301,10869]}},
    {"code":1190809,"id":"49f048","name":"原町","name_kana":"はるまち","lat":33.611748,"lng":130.470949,"prefecture":40,"lines":[11908],"attr":"heat","postal_code":"811-2307","address":"糟屋郡粕屋町大字原町","next":[1193102,1190810,1191707,1190808,1193104,1193103,1191705],"voronoi":{"lat":33.620252,"lng":130.458427,"delta_lat":[0,-124,-7260,-14616,677,4980,11993],"delta_lng":[0,-7,1894,12347,1101,2942,-3162]}},
    {"code":1190808,"left":1191707,"right":1190807,"id":"89df86","name":"長者原","name_kana":"ちょうじゃばる","lat":33.613567,"lng":130.477848,"prefecture":40,"lines":[11908,11917],"attr":"heat","postal_code":"811-2304","address":"糟屋郡粕屋町仲原","next":[1190809,1191705,1191707,1190807],"voronoi":{"lat":33.622743,"lng":130.485066,"delta_lat":[0,-6841,-11993,9284],"delta_lng":[0,-11523,3162,11921]}},
    {"code":1191707,"id":"c47945","name":"酒殿","name_kana":"さかど","lat":33.602652,"lng":130.486348,"prefecture":40,"lines":[11917],"attr":"heat","postal_code":"811-2303","address":"糟屋郡粕屋町大字酒殿","next":[1190809,1193104,1190808,1190807,1191708],"voronoi":{"lat":33.595617,"lng":130.490163,"delta_lat":[0,3312,4980,9284,-4569],"delta_lng":[0,-16400,2942,11921,8024]}},
    {"code":1190807,"id":"579856","name":"門松","name_kana":"かどまつ","lat":33.620531,"lng":130.496529,"prefecture":40,"lines":[11908],"attr":"eco","postal_code":"811-2302","address":"糟屋郡粕屋町大隈","next":[1190806,1191704,1191707,1190808,1191705,1191708],"voronoi":{"lat":33.608624,"lng":130.496649,"delta_lat":[0,4569,9550,13283,39325,-65718],"delta_lng":[0,-8024,-3560,156,18638,8251]}},
    {"code":1190801,"left":1193107,"right":1190802,"id":"8835ce","name":"桂川(福岡)","name_kana":"けいせん","lat":33.584705,"lng":130.662752,"prefecture":40,"lines":[11908,11911,11912],"attr":"heat","postal_code":"820-0608","address":"嘉穂郡桂川町大字豆田","next":[1191115,1191503,1191202,1190802,1191203],"voronoi":{"lat":33.54056,"lng":130.689589,"delta_lat":[0,43218,26029,-44998,-48920],"delta_lng":[0,-43697,4238,61425,22500]}},
    {"code":1193107,"left":1193105,"right":1191203,"id":"820dec","name":"筑前勝田","name_kana":"ちくぜんかつた","closed":true,"lat":33.555198,"lng":130.528475,"prefecture":40,"lines":[11931],"attr":"unknown","postal_code":"811-2132","address":"日本福岡県糟屋郡宇美町原田４丁目１９","next":[1190805,1191203,3600110,1190803,3600203,1190804,3600111,1191711],"voronoi":{"lat":33.583575,"lng":130.554838,"delta_lat":[0,-11273,-26571,-4364,-5598,1456,7113,43477],"delta_lng":[0,16305,11802,-607,-69053,-3095,-5942,40599]}},
    {"code":1193105,"left":1191711,"right":1191710,"id":"e81c05","name":"下宇美","name_kana":"しもうみ","closed":true,"lat":33.572974,"lng":130.506139,"prefecture":40,"lines":[11931],"attr":"unknown","postal_code":"811-2122","address":"日本福岡県糟屋郡宇美町明神坂２丁目８","next":[1191710,1193104,3600109,1191711,1191709,3600107,3600108],"voronoi":{"lat":33.560639,"lng":130.484057,"delta_lat":[0,4201,14419,429,-5405,-25579,1877],"delta_lng":[0,-2487,11446,6183,12203,-13068,-3563]}},
    {"code":1191711,"left":3600111,"id":"d9ebe0","name":"宇美","name_kana":"うみ","lat":33.569251,"lng":130.513426,"prefecture":40,"lines":[11917,11931],"attr":"heat","postal_code":"811-2101","address":"糟屋郡宇美町大字宇美","next":[3600110,1190805,1193105,1193107,3600109,1191710],"voronoi":{"lat":33.574283,"lng":130.511402,"delta_lat":[0,-25579,-4168,-199,43477,1351],"delta_lng":[0,-13068,5529,384,40599,-1645]}},
    {"code":3600111,"id":"bd275d","name":"都府楼前","name_kana":"とふろうまえ","lat":33.511677,"lng":130.508011,"prefecture":40,"lines":[36001],"attr":"cool","postal_code":"818-0104","address":"太宰府市通古賀３-１４-１","next":[3600202,1190308,3600203,1190307,3600112,1193107,3600110],"voronoi":{"lat":33.522645,"lng":130.501834,"delta_lat":[0,-13579,-2506,4649,11449,13111,1456],"delta_lng":[0,-4666,15413,4472,359,-4127,-3095]}},
    {"code":1191710,"id":"3b5a70","name":"新原","name_kana":"しんばる","lat":33.579061,"lng":130.508835,"prefecture":40,"lines":[11917],"attr":"heat","postal_code":"811-2111","address":"福岡県糟屋郡須恵町大字新原249-1","next":[1193105,1191709,1190806,1190805,1191711],"voronoi":{"lat":33.593738,"lng":130.539095,"delta_lat":[0,1672,-15722,-5405,14882],"delta_lng":[0,-4798,-35097,12203,31799]}},