{
  "name":"segment19",
  "root":9962804,
  "east":135.65663,
  "west":135.436921,
  "south":34.581519,
  "north":34.668617,
  "station_size":145,
  "node_list":[
    {"code":9962804,"left":9962909,"right":3100508,"id":"e4123b","name":"東天下茶屋","name_kana":"ひがしてんがちゃや","lat":34.632539,"lng":135.508475,"prefecture":27,"lines":[99628],"attr":"cool","postal_code":"545-0052","address":"大阪市阿倍野区阿倍野筋７","next":[9962805,9961815,9962907,9961814,9962803,9962906],"voronoi":{"lat":34.633773,"lng":135.503992,"delta_lat":[0,-2121,-4575,931,4272,3665],"delta_lng":[0,-86,7897,1522,-517,-7769]}},
    {"code":9962909,"left":3200711,"right":9962908,"id":"4dbdf2","name":"東玉出","name_kana":"ひがしたまで","lat":34.626784,"lng":135.495926,"prefecture":27,"lines":[99629],"attr":"cool","postal_code":"557-0043","address":"大阪市西成区玉出東２-２-３３","next":[9962908,3200104,3200707,9962806,9962910],"voronoi":{"lat":34.625852,"lng":135.493505,"delta_lat":[0,2836,-2572,-116,-1523],"delta_lng":[0,2778,3513,-42,-2734]}},
    {"code":3200711,"left":9962915,"right":9962810,"id":"29c766","name":"浅香山","name_kana":"あさかやま","lat":34.589319,"lng":135.491025,"prefecture":27,"lines":[32007],"attr":"heat","postal_code":"590-0003","address":"堺市堺区高須町３丁３-１","next":[1162607,9962918,1162608,9962919,3200712,9962917,3200710,1162609],"voronoi":{"lat":34.581177,"lng":135.491248,"delta_lat":[0,1374,4048,5078,3588,-1782,-3868,-5590],"delta_lng":[0,-3096,-708,1016,4549,3305,1222,-1970]}},
    {"code":9962915,"left":9962919,"right":9962010,"id":"2efeab","name":"安立町","name_kana":"あんりゅうまち","lat":34.605706,"lng":135.490188,"prefecture":27,"lines":[99629],"attr":"cool","postal_code":"558-0043","address":"大阪市住吉区墨江３-１１５","next":[3200710,9962914,3200709,3200107,9962916],"voronoi":{"lat":34.603271,"lng":135.493805,"delta_lat":[0,3901,1258,-5223,-1029],"delta_lng":[0,-334,-5199,588,4045]}},
    {"code":9962919,"left":9962920,"right":9962916,"id":"0b88c2","name":"綾ノ町","name_kana":"あやのちょう","lat":34.587941,"lng":135.48315,"prefecture":27,"lines":[99629],"attr":"heat","postal_code":"590-0931","address":"堺市堺区錦之町西１丁","next":[9962920,3200711,3200712,9962918,3200108],"voronoi":{"lat":34.588836,"lng":135.479677,"delta_lat":[0,-6695,410,4048,3927],"delta_lng":[0,5886,2588,-708,-4918]}},
    {"code":9962920,"left":9962921,"right":3200108,"id":"7ce02e","name":"神明町","name_kana":"しんめいちょう","lat":34.585277,"lng":135.48012,"prefecture":27,"lines":[99629],"attr":"heat","postal_code":"590-0000","address":"堺市堺区神明町西１丁","next":[9962919,3200712,3200108,9962921],"voronoi":{"lat":34.589184,"lng":135.474053,"delta_lat":[0,-349,-6695,-1303],"delta_lng":[0,5624,5886,-2478]}},
    {"code":9962921,"left":3200109,"id":"59dc4d","name":"妙国寺前","name_kana":"みょうこくじまえ","lat":34.583444,"lng":135.478426,"prefecture":27,"lines":[99629],"attr":"heat","postal_code":"590-0936","address":"堺市堺区宿屋町東１丁","next":[3200712,3200109,9962920,3200108,9962922],"voronoi":{"lat":34.580837,"lng":135.483085,"delta_lat":[0,8347,364,-2861,-7542],"delta_lng":[0,-9032,-1516,440,8179]}},
    {"code":3200109,"id":"16a28f","name":"堺","name_kana":"さかい","lat":34.581958,"lng":135.468754,"prefecture":27,"lines":[32001],"attr":"cool","postal_code":"590-0985","address":"堺市堺区戎島町３丁２２","next":[9962923,3200108,9962508,9962011,9962924,9962509,9962921,9962925,9962922,3200110],"voronoi":{"lat":34.57771,"lng":135.467795,"delta_lat":[0,1956,3267,3754,2861,6459,353,-6005,-339,-12650],"delta_lng":[0,3367,1606,209,-440,-5667,-3087,-16963,-475,16526]}},
    {"code":3200108,"id":"3e726f","name":"七道","name_kana":"しちどう","lat":34.592313,"lng":135.480556,"prefecture":27,"lines":[32001],"attr":"cool","postal_code":"590-0905","address":"堺市堺区鉄砲町１-２２","next":[9962918,9962916,9962917,3200109,9962920,3200107,9962011,9962921,9962919],"voronoi":{"lat":34.59346,"lng":135.483682,"delta_lat":[0,6521,295,1423,-5691,-6459,-364,-349,1690],"delta_lng":[0,-2529,-289,-2873,-11121,5667,1516,5624,2848]}},
    {"code":9962916,"left":9962917,"right":3200107,"id":"0f4dd6","name":"我孫子道","name_kana":"あびこみち","lat":34.600379,"lng":135.488833,"prefecture":27,"lines":[99629],"attr":"cool","postal_code":"558-0033","address":"大阪市住吉区清水丘３-８２","next":[3200710,3200108,9962917,3200107,9962915],"voronoi":{"lat":34.603208,"lng":135.488861,"delta_lat":[0,-2932,-295,-4242,6440],"delta_lng":[0,-7996,289,11599,153]}},
    {"code":9962917,"left":9962918,"id":"947cd3","name":"大和川","name_kana":"やまとがわ","lat":34.594721,"lng":135.486764,"prefecture":27,"lines":[99629],"attr":"heat","postal_code":"590-0001","address":"堺市堺区遠里小野町１丁","next":[3200710,3200108,9962916,9962918,3200711],"voronoi":{"lat":34.591677,"lng":135.488459,"delta_lat":[0,1783,6521,-4242,-474],"delta_lng":[0,-4777,-2529,11599,256]}},
    {"code":9962918,"id":"d4b832","name":"高須神社","name_kana":"たかすじんしゃ","lat":34.590488,"lng":135.485184,"prefecture":27,"lines":[99629],"attr":"heat","postal_code":"590-0003","address":"堺市堺区高須町１丁","next":[3200108,3200711,9962917,9962919],"voronoi":{"lat":34.590526,"lng":135.482525,"delta_lat":[0,2934,-1783,-5078],"delta_lng":[0,1157,4777,-1016]}},
    {"code":3200107,"id":"f1f7c4","name":"住ノ江","name_kana":"すみのえ","lat":34.605348,"lng":135.487011,"prefecture":27,"lines":[32001],"attr":"cool","postal_code":"559-0005","address":"大阪市住之江区西住之江１-１-４１","next":[9962010,3200106,9962916,9962915,9962011,9962914,3200108],"voronoi":{"lat":34.601699,"lng":135.477991,"delta_lat":[0,10500,77,-2705,-1140,-5223,-2932],"delta_lng":[0,2720,152,6155,1254,588,-7996]}},
    {"code":9962010,"left":9962507,"right":9962811,"id":"1ce34f","name":"北加賀屋","name_kana":"きたかがや","lat":34.621318,"lng":135.478861,"prefecture":27,"lines":[99620],"attr":"cool","postal_code":"559-0011","address":"大阪市住之江区北加賀屋２-１１-２","next":[3200904,3200105,3200107,3200106,9962508,9962011,9962009,9962811,9962103,3200905,9962509],"voronoi":{"lat":34.636065,"lng":135.458199,"delta_lat":[0,712,1149,-2724,-4480,-10752,-2760,-600,-4334,-77,8320],"delta_lng":[0,-163,1522,15591,7636,2560,-639,-423,-3420,-152,-14358]}},
    {"code":9962507,"left":9962011,"right":9962508,"id":"aa910c","name":"南港東","name_kana":"なんこうひがし","lat":34.613826,"lng":135.438607,"prefecture":27,"lines":[99625],"attr":"heat","postal_code":"559-0031","address":"大阪市住之江区南港東２-４-５２","next":[9962508,3200110,3200403,9962503,3200112,9962506,9962930,3200111],"voronoi":{"lat":34.588702,"lng":135.442283,"delta_lat":[0,31530,-33487,-11935,-526,586,2280,4845],"delta_lng":[0,0,-49859,-11413,6795,9321,13450,18104]}},
    {"code":9962011,"left":9962509,"id":"127011","name":"住之江公園","name_kana":"すみのえこうえん","lat":34.609269,"lng":135.471879,"prefecture":27,"lines":[99620,99625],"attr":"cool","postal_code":"559-0023","address":"大阪市住之江区泉１-１","next":[9962010,3200109,9962509,3200107,3200108],"voronoi":{"lat":34.596008,"lng":135.46687,"delta_lat":[0,353,24158,-8320,-10500],"delta_lng":[0,-3087,2570,14358,-2720]}},
    {"code":9962509,"id":"3d6460","name":"平林(大阪)","name_kana":"ひらばやし","lat":34.610683,"lng":135.458585,"prefecture":27,"lines":[99625],"attr":"eco","postal_code":"559-0025","address":"大阪市住之江区平林南１-２","next":[9962508,3200109,9962010,9962011],"voronoi":{"lat":34.596361,"lng":135.463784,"delta_lat":[0,-6005,45709,-15546],"delta_lng":[0,-16963,11379,8154]}},
    {"code":9962508,"id":"3d57de","name":"南港口","name_kana":"なんこうぐち","lat":34.613826,"lng":135.445959,"prefecture":27,"lines":[99625],"attr":"heat","postal_code":"559-0031","address":"大阪市住之江区南港東１-７-６９","next":[9962506,9962103,9962507,9962505,3200109,9962509,9962010,3200110],"voronoi":{"lat":34.588702,"lng":135.442283,"delta_lat":[0,31530,13349,3539,-344,-712,-45709,-339],"delta_lng":[0,0,6587,3577,5589,163,-11379,-475]}},
    {"code":9962811,"left":3200106,"right":9962009,"id":"c9912d","name":"住吉公園","name_kana":"すみよしこうえん","closed":true,"lat":34.613086,"lng":135.490541,"prefecture":27,"lines":[99628],"attr":"unknown","postal_code":"558-0044","address":"大阪市住吉区長峡町１００","open_date":"1912-02-17","closed_date":"2016-01-31","next":[3200105,9962810,3200106,9962010,9962913],"voronoi":{"lat":34.612535,"lng":135.490684,"delta_lat":[0,4075,600,-876,-3137],"delta_lng":[0,-6400,423,3763,3350]}},
    {"code":3200106,"id":"271097","name":"住吉大社","name_kana":"すみよしたいしゃ","lat":34.612431,"lng":135.490124,"prefecture":27,"lines":[32001],"attr":"cool","postal_code":"558-0044","address":"大阪市住吉区長峡町３-１４","next":[9962811,9962010,9962913,9962914,3200107],"voronoi":{"lat":34.612275,"lng":135.480864,"delta_lat":[0,4334,-4075,-1531,-1433],"delta_lng":[0,3420,6400,-461,-3204]}},
    {"code":9962009,"id":"e2881c","name":"玉出","name_kana":"たまで","lat":34.624096,"lng":135.490527,"prefecture":27,"lines":[99620],"attr":"heat","postal_code":"559-0007","address":"大阪市住之江区粉浜西１-１-１","next":[9962910,9962008,3200105,3200104,9962010,3200905],"voronoi":{"lat":34.630722,"lng":135.482785,"delta_lat":[0,-10752,1483,4364,4939,332],"delta_lng":[0,2560,6917,605,-5367,-1023]}},
    {"code":9962810,"left":3200708,"right":3200707,"id":"cf6ec9","name":"住吉(大阪)","name_kana":"すみよし","lat":34.61448,"lng":135.491846,"prefecture":27,"lines":[99628,99629],"attr":"cool","postal_code":"558-0045","address":"大阪市住吉区住吉２","next":[9962811,3200708,9962911,9962809,3200105,9962913],"voronoi":{"lat":34.613942,"lng":135.494727,"delta_lat":[0,1961,501,-70,-3137,-831],"delta_lng":[0,-524,-2464,-3270,3350,2584]}},
    {"code":3200708,"left":9962914,"right":1162607,"id":"cfc88f","name":"住吉東","name_kana":"すみよしひがし","lat":34.6133,"lng":135.497587,"prefecture":27,"lines":[32007],"attr":"heat","postal_code":"558-0045","address":"大阪市住吉区住吉１-８-４９","next":[9962809,9962810,9962913,3200709,1162605,9962808,9962914,1162606],"voronoi":{"lat":34.609176,"lng":135.504129,"delta_lat":[0,795,1291,1103,1576,1162,-1992,-3401],"delta_lng":[0,-8854,-674,-197,324,4692,5918,-537]}},
    {"code":9962914,"left":3200709,"right":9962913,"id":"2c3cd6","name":"細井川","name_kana":"ほそいがわ","lat":34.609978,"lng":135.491221,"prefecture":27,"lines":[99629],"attr":"cool","postal_code":"558-0043","address":"大阪市住吉区墨江１","next":[9962915,3200106,9962913,3200107,3200708,3200709],"voronoi":{"lat":34.611262,"lng":135.4946,"delta_lat":[0,-259,-1433,-1140,-1258,2799],"delta_lng":[0,-4378,-3204,1254,5199,1803]}},
    {"code":3200709,"left":3200710,"id":"7bacd5","name":"沢ノ町","name_kana":"さわのちょう","lat":34.606284,"lng":135.496957,"prefecture":27,"lines":[32007],"attr":"heat","postal_code":"558-0042","address":"大阪市住吉区殿辻２-４-３","next":[3200710,9962915,1162606,3200708,9962914],"voronoi":{"lat":34.607173,"lng":135.493472,"delta_lat":[0,-3901,-86,5991,795],"delta_lng":[0,334,7602,2721,-8854]}},
    {"code":3200710,"id":"721903","name":"我孫子前","name_kana":"あびこまえ","lat":34.600188,"lng":135.496888,"prefecture":27,"lines":[32007],"attr":"heat","postal_code":"558-0032","address":"大阪市住吉区遠里小野１-１１-１７","next":[9962916,9962915,9962917,3200709,1162607,1162606,3200711],"voronoi":{"lat":34.595265,"lng":135.493008,"delta_lat":[0,474,6440,1093,-86,-4591,-5112],"delta_lng":[0,-256,153,900,7602,791,-5885]}},
    {"code":9962913,"id":"2287f1","name":"住吉鳥居前","name_kana":"すみよしとりいまえ","lat":34.612139,"lng":135.491093,"prefecture":27,"lines":[99629],"attr":"cool","postal_code":"558-0045","address":"大阪市住吉区住吉２","next":[3200106,9962914,3200708,9962811,9962810],"voronoi":{"lat":34.611262,"lng":135.4946,"delta_lat":[0,-259,1531,662,-831],"delta_lng":[0,-4378,461,1136,2584]}},
    {"code":1162607,"left":1162608,"right":1162606,"id":"bd0c03","name":"杉本町","name_kana":"すぎもとちょう","lat":34.593113,"lng":135.503034,"prefecture":27,"lines":[11626],"attr":"eco","postal_code":"558-0022","address":"大阪市住吉区杉本３","next":[1162608,3200711,1162606,3200710,9961817,9961818],"voronoi":{"lat":34.596317,"lng":135.507685,"delta_lat":[0,2277,-5112,-3868,-1028,1096],"delta_lng":[0,-5486,-5885,1222,13131,917]}},
    {"code":1162608,"id":"952857","name":"浅香","name_kana":"あさか","lat":34.585303,"lng":135.502423,"prefecture":27,"lines":[11626],"attr":"eco","postal_code":"590-0012","address":"堺市堺区浅香山町３丁","next":[1162607,1162609,3200711,9961818],"voronoi":{"lat":34.577777,"lng":135.508027,"delta_lat":[0,6247,5590,-1028],"delta_lng":[0,-12462,1970,13131]}},
    {"code":1162606,"id":"9337fe","name":"我孫子町","name_kana":"あびこちょう","lat":34.601873,"lng":135.50667,"prefecture":27,"lines":[11626],"attr":"heat","postal_code":"558-0014","address":"大阪市住吉区我孫子３","next":[1162605,1162607,3200709,9961817,3200710,3200708],"voronoi":{"lat":34.604862,"lng":135.511976,"delta_lat":[0,-8544,2277,4591,5991,534],"delta_lng":[0,-4291,-5486,-791,2721,672]}},
    {"code":3200707,"left":3200105,"right":9962807,"id":"4d6f43","name":"帝塚山","name_kana":"てづかやま","lat":34.622332,"lng":135.498406,"prefecture":27,"lines":[32007],"attr":"heat","postal_code":"558-0052","address":"大阪市住吉区帝塚山西１-５-８","next":[9962808,9962911,9962909,9962807,9962806,9962910],"voronoi":{"lat":34.620063,"lng":135.495619,"delta_lat":[0,-456,339,3188,2865,-1523],"delta_lng":[0,329,2457,2442,-1093,-2734]}},
    {"code":3200105,"left":9962809,"right":9962910,"id":"a9dcf5","name":"粉浜","name_kana":"こはま","lat":34.61833,"lng":135.491763,"prefecture":27,"lines":[32001],"attr":"cool","postal_code":"558-0051","address":"大阪市住吉区東粉浜３-２３-２５","next":[9962811,9962010,9962009,9962911,9962910,9962810],"voronoi":{"lat":34.621117,"lng":135.492865,"delta_lat":[0,335,-1483,-2760,-876,70],"delta_lng":[0,-602,-6917,-639,3763,3270]}},
    {"code":9962809,"left":9962911,"id":"60584d","name":"神ノ木","name_kana":"かみのき","lat":34.615844,"lng":135.496957,"prefecture":27,"lines":[99628],"attr":"heat","postal_code":"558-0045","address":"大阪市住吉区住吉１","next":[3200708,9962911,9962810,9962808],"voronoi":{"lat":34.61917,"lng":135.495915,"delta_lat":[0,-3267,-1961,1162],"delta_lng":[0,-1712,524,4692]}},
    {"code":9962911,"id":"83726e","name":"東粉浜","name_kana":"ひがしこはま","lat":34.618133,"lng":135.492588,"prefecture":27,"lines":[99629],"attr":"cool","postal_code":"558-0051","address":"大阪市住吉区東粉浜２","next":[3200105,9962809,3200707,9962910,9962808,9962810],"voronoi":{"lat":34.616404,"lng":135.491739,"delta_lat":[0,4714,-1054,-456,-438,-3267],"delta_lng":[0,1125,2755,329,-33,-1712]}},
    {"code":9962910,"id":"d6b384","name":"塚西","name_kana":"つかにし","lat":34.623524,"lng":135.494651,"prefecture":27,"lines":[99629],"attr":"cool","postal_code":"558-0051","address":"大阪市住吉区東粉浜１","next":[9962009,3200104,9962911,3200105,9962909,3200707],"voronoi":{"lat":34.620063,"lng":135.495619,"delta_lat":[0,1054,335,4364,35,-1375],"delta_lng":[0,-2755,-602,605,638,3515]}},
    {"code":9962807,"left":9962808,"right":9962806,"id":"a3efbd","name":"帝塚山三丁目","name_kana":"てづかやまさんちょうめ","lat":34.620568,"lng":135.500709,"prefecture":27,"lines":[99628],"attr":"heat","postal_code":"558-0053","address":"大阪市住吉区帝塚山中３","next":[1162605,3200707,9962808,9962806,9961815],"voronoi":{"lat":34.618065,"lng":135.508153,"delta_lat":[0,5070,-3188,-4571,2170],"delta_lng":[0,-7305,-2442,8046,1739]}},
    {"code":9962808,"id":"c1f198","name":"帝塚山四丁目","name_kana":"てづかやまよんちょうめ","lat":34.617649,"lng":135.499051,"prefecture":27,"lines":[99628],"attr":"heat","postal_code":"558-0053","address":"大阪市住吉区帝塚山中５-２９","next":[3200707,1162605,9962807,9962911,3200708,9962809],"voronoi":{"lat":34.61917,"lng":135.495915,"delta_lat":[0,438,339,-4571,-2264,1992],"delta_lng":[0,33,2457,8046,-1114,-5918]}},
    {"code":9962806,"id":"2e9f5c","name":"姫松","name_kana":"ひめまつ","lat":34.624162,"lng":135.503203,"prefecture":27,"lines":[99628],"attr":"cool","postal_code":"545-0037","address":"大阪市阿倍野区帝塚山１","next":[9962908,9961815,9962909,9962807,3200707,9962805],"voronoi":{"lat":34.618065,"lng":135.508153,"delta_lat":[0,5070,2865,116,1611,-5419],"delta_lng":[0,-7305,-1093,42,1681,7576]}},
    {"code":9962908,"left":9961811,"right":9962902,"id":"3cc117","name":"天神ノ森","name_kana":"てんじんのもり","lat":34.629603,"lng":135.49799,"prefecture":27,"lines":[99629],"attr":"cool","postal_code":"557-0042","address":"大阪市西成区岸里東２-４-２０","next":[9962806,9962805,9962909,9962008,3200104,9962907],"voronoi":{"lat":34.632304,"lng":135.496289,"delta_lat":[0,-871,-2745,-2572,1611,2047],"delta_lng":[0,-1006,1000,3513,1681,650]}},
    {"code":9961811,"left":9962008,"right":3200902,"id":"01b198","name":"大国町","name_kana":"だいこくちょう","lat":34.656075,"lng":135.4978,"prefecture":27,"lines":[99618,99620],"attr":"eco","postal_code":"556-0012","address":"大阪市浪速区敷津東３-１１-１０","next":[1160721,1162304,3200702,1160720,1160722,3200101],"voronoi":{"lat":34.661384,"lng":135.497054,"delta_lat":[0,-616,-2010,-7120,1218,6554],"delta_lng":[0,-2520,-594,2831,2203,1648]}},
    {"code":9962008,"left":1160721,"right":3200103,"id":"35043b","name":"岸里","name_kana":"きしのさと","lat":34.634372,"lng":135.493859,"prefecture":27,"lines":[99620],"attr":"heat","postal_code":"557-0041","address":"大阪市西成区岸里１-５-１５","next":[3200103,9962009,9962908,3200905,9962907,3200104],"voronoi":{"lat":34.630755,"lng":135.487501,"delta_lat":[0,332,7121,-4256,-1649,-871],"delta_lng":[0,-1023,6502,3744,-434,-1006]}},
    {"code":1160721,"left":3200905,"right":3200903,"id":"71ad14","name":"今宮","name_kana":"いまみや","lat":34.654156,"lng":135.492975,"prefecture":27,"lines":[11607,11623],"attr":"heat","postal_code":"556-0014","address":"大阪市浪速区大国３丁目","next":[3200704,9961811,1160720,9962007,1162304,3200904,3200903],"voronoi":{"lat":34.651007,"lng":135.487845,"delta_lat":[0,-3403,1894,301,1838,7120,-4984],"delta_lng":[0,2528,5062,427,909,-2831,-5942]}},
    {"code":3200905,"left":3200904,"id":"3c610c","name":"西天下茶屋","name_kana":"にしてんがちゃや","lat":34.638736,"lng":135.489079,"prefecture":27,"lines":[32009],"attr":"cool","postal_code":"557-0051","address":"大阪市西成区橘３-３-２３","next":[9962008,3200904,9962010,9962009,3200103,9962007],"voronoi":{"lat":34.645457,"lng":135.489947,"delta_lat":[0,-10255,-4480,366,7121,2385],"delta_lng":[0,-14797,7636,3692,6502,594]}},
    {"code":3200904,"id":"569a11","name":"津守","name_kana":"つもり","lat":34.647004,"lng":135.483349,"prefecture":27,"lines":[32009],"attr":"cool","postal_code":"557-0062","address":"大阪市西成区津守１-１０-１８","next":[9962010,9962007,3200905,3200903,9962103,1160721],"voronoi":{"lat":34.651007,"lng":135.487845,"delta_lat":[0,-774,-12308,-2724,10255,2148],"delta_lng":[0,-23279,-5007,15591,14797,426]}},
    {"code":3200903,"id":"6163df","name":"木津川","name_kana":"きづがわ","lat":34.654703,"lng":135.483093,"prefecture":27,"lines":[32009],"attr":"heat","postal_code":"557-0061","address":"大阪市西成区北津守１-８-６７","next":[3200902,1162304,3200904,1162305,9962103,1162306,1160721],"voronoi":{"lat":34.651007,"lng":135.487845,"delta_lat":[0,-774,421,5776,3498,-3037,-3118],"delta_lng":[0,-23279,78,4093,12040,5240,1981]}},
    {"code":3200103,"left":3200104,"right":9962007,"id":"0d8697","name":"天下茶屋","name_kana":"てんがちゃや","lat":34.636847,"lng":135.496673,"prefecture":27,"lines":[32001,32007,99623],"attr":"cool","postal_code":"557-0041","address":"大阪市西成区岸里１-１-１０","next":[9962008,9962007,9962906,9962905,9962907,3200905],"voronoi":{"lat":34.638209,"lng":135.49298,"delta_lat":[0,-4256,1102,3281,2277,-19],"delta_lng":[0,3744,1577,309,-1267,-3769]}},
    {"code":3200104,"id":"857d8a","name":"岸里玉出","name_kana":"きしのさとたまで","lat":34.628291,"lng":135.494388,"prefecture":27,"lines":[32001,32007,32009],"attr":"cool","postal_code":"557-0043","address":"大阪市西成区玉出東１-１-１７","next":[9962910,9962909,9962009,9962908,9962008],"voronoi":{"lat":34.630755,"lng":135.487501,"delta_lat":[0,-4939,35,2836,2745],"delta_lng":[0,5367,638,2778,-1000]}},
    {"code":9962007,"id":"cef0b6","name":"花園町","name_kana":"はなぞのちょう","lat":34.644371,"lng":135.496636,"prefecture":27,"lines":[99620],"attr":"heat","postal_code":"557-0032","address":"大阪市西成区旭１-５-２","next":[9962904,3200904,3200704,3200103,1160721,9962905,3200905],"voronoi":{"lat":34.640612,"lng":135.497342,"delta_lat":[0,910,1381,6595,-1894,-2148,-4863],"delta_lng":[0,1105,464,-3477,-5062,-426,3627]}},
    {"code":3200902,"left":3200901,"right":1160722,"id":"e58b2f","name":"芦原町","name_kana":"あしはらちょう","lat":34.660516,"lng":135.486462,"prefecture":27,"lines":[32009],"attr":"heat","postal_code":"556-0029","address":"大阪市浪速区芦原２-５-３１","next":[3200903,1160722,1162305,3200901,1162304],"voronoi":{"lat":34.664245,"lng":135.490347,"delta_lat":[0,-268,-4049,-3037,6824],"delta_lng":[0,-6430,-3140,5240,4687]}},
    {"code":3200901,"left":1162305,"right":1162403,"id":"5ea12e","name":"汐見橋","name_kana":"しおみばし","lat":34.667638,"lng":135.486165,"prefecture":27,"lines":[32009],"attr":"heat","postal_code":"556-0022","address":"大阪市浪速区桜川３-８-７４","next":[3200902,9962402,1160722,1162305,3500210],"voronoi":{"lat":34.669726,"lng":135.483034,"delta_lat":[0,-1280,-4469,268,1816],"delta_lng":[0,-592,1474,6430,240]}},
    {"code":1162305,"left":9962103,"id":"15780f","name":"大正(大阪)","name_kana":"たいしょう","lat":34.665582,"lng":135.479932,"prefecture":27,"lines":[11623,99624],"attr":"heat","postal_code":"551-0002","address":"大阪市大正区三軒家東１丁目","next":[9962402,3200902,3200903,1162306,3500208,3200901,3500209],"voronoi":{"lat":34.668446,"lng":135.482443,"delta_lat":[0,-4469,-4049,-3498,8449,177,3135],"delta_lng":[0,1474,-3140,-12040,1836,254,9071]}},
    {"code":9962103,"id":"5de5b8","name":"朝潮橋","name_kana":"あさしおばし","lat":34.661035,"lng":135.448863,"prefecture":27,"lines":[99621],"attr":"cool","postal_code":"552-0005","address":"大阪市港区田中３-１-４","next":[9962102,9962508,1162402,1162403,9962505,9962010,1162306,3200903,3200904],"voronoi":{"lat":34.650654,"lng":135.464643,"delta_lat":[0,19120,-2952,-7220,-21676,-806,-344,1149,12308],"delta_lng":[0,-11865,-7397,-4838,10676,1228,5589,1522,5007]}},
    {"code":1162403,"id":"d7716d","name":"ユニバーサルシティ","name_kana":"ゆにばーさるしてぃ","lat":34.667842,"lng":135.438705,"prefecture":27,"lines":[11624],"attr":"eco","postal_code":"554-0024","address":"大阪市此花区島屋六丁目2-28","next":[3500204,9962103,3500205,1162404,9962102,1162402],"voronoi":{"lat":34.659602,"lng":135.440543,"delta_lat":[0,180,26755,82,-862,-18935],"delta_lng":[0,-575,-23530,1798,6910,20235]}},
    {"code":1160722,"left":1162304,"right":3500210,"id":"a39093","name":"JR難波","name_kana":"じぇいあーるなんば","lat":34.666438,"lng":135.495265,"prefecture":27,"lines":[11607],"attr":"cool","postal_code":"556-0017","address":"大阪市浪速区湊町１","next":[9962004,3100101,3200902,3500210,3200101,1162304,9961810,9962404,3200901,9961811],"voronoi":{"lat":34.660768,"lng":135.494534,"delta_lat":[0,2948,530,1816,4359,350,-613,-6287,-1015,-1472],"delta_lng":[0,-3830,-357,240,1068,1864,3097,1094,-24,-632]}},
    {"code":1162304,"id":"233b74","name":"芦原橋","name_kana":"あしはらばし","lat":34.658608,"lng":135.48924,"prefecture":27,"lines":[11623],"attr":"heat","postal_code":"556-0025","address":"大阪市浪速区浪速東１丁目","next":[3200903,9961811,1160722,3200902,1160721],"voronoi":{"lat":34.660768,"lng":135.494534,"delta_lat":[0,2948,-6824,-3118,4984],"delta_lng":[0,-3830,-4687,1981,5942]}},
    {"code":3500210,"id":"5fff2f","name":"桜川(大阪)","name_kana":"さくらがわ","lat":34.668559,"lng":135.486612,"prefecture":27,"lines":[35002,99622],"attr":"cool","postal_code":"556-0021","address":"大阪市浪速区幸町２-３-７","next":[1160722,9962404,9962402,3200901,9962204],"voronoi":{"lat":34.672193,"lng":135.483788,"delta_lat":[0,-2467,-3665,4359,1159],"delta_lng":[0,-753,7552,1068,-1145]}},
    {"code":9962902,"left":9962904,"right":3200101,"id":"84d9c0","name":"新今宮駅前","name_kana":"しんいまみやえきまえ","lat":34.649529,"lng":135.503333,"prefecture":27,"lines":[99629],"attr":"cool","postal_code":"557-0004","address":"大阪市西成区萩之茶屋１-１-６","open_date":"1911-12-01","next":[3200702,9962903,9962308,9961812,1160720],"voronoi":{"lat":34.652682,"lng":135.503518,"delta_lat":[0,-853,-4215,303,4577],"delta_lng":[0,2111,-2786,-1167,1257]}},
    {"code":9962904,"left":9962905,"right":9962903,"id":"4c2876","name":"今船","name_kana":"いまふね","lat":34.642702,"lng":135.501611,"prefecture":27,"lines":[99629],"attr":"cool","postal_code":"557-0003","address":"大阪市西成区天下茶屋北２","next":[9962007,9962903,3200704,9961918,9962905,9962803],"voronoi":{"lat":34.639889,"lng":135.506443,"delta_lat":[0,1633,1381,1610,-1483,-2824],"delta_lng":[0,-7995,464,1783,6117,-90]}},
    {"code":9962905,"left":9962906,"right":3200704,"id":"9e0b15","name":"松田町","name_kana":"まつだちょう","lat":34.639197,"lng":135.500895,"prefecture":27,"lines":[99629],"attr":"cool","postal_code":"557-0003","address":"大阪市西成区天下茶屋北２-１","next":[9962906,3200103,9962803,9962007,9962904],"voronoi":{"lat":34.641523,"lng":135.498448,"delta_lat":[0,-910,-2277,-1604,3158],"delta_lng":[0,-1105,1267,6515,1318]}},
    {"code":9962906,"left":9962907,"id":"c82dba","name":"北天下茶屋","name_kana":"きたてんがちゃや","lat":34.636511,"lng":135.500234,"prefecture":27,"lines":[99629],"attr":"cool","postal_code":"557-0014","address":"大阪市西成区天下茶屋３-３-２１","next":[9962905,3200103,9962803,9962907,9962804],"voronoi":{"lat":34.633773,"lng":135.503992,"delta_lat":[0,1282,3281,-1604,-787],"delta_lng":[0,-5691,309,6515,-86]}},
    {"code":9962907,"id":"73e19a","name":"聖天坂","name_kana":"しょうてんさか","lat":34.632909,"lng":135.499423,"prefecture":27,"lines":[99629],"attr":"cool","postal_code":"557-0042","address":"大阪市西成区岸里東１-５-２５","next":[9962804,9962906,3200103,9962805,9962008,9962908],"voronoi":{"lat":34.631651,"lng":135.503905,"delta_lat":[0,2121,1282,-1102,-1649,-2530],"delta_lng":[0,86,-5691,-1577,-434,5838]}},
    {"code":3200704,"id":"4534d7","name":"萩ノ茶屋","name_kana":"はぎのちゃや","lat":34.64561,"lng":135.498986,"prefecture":27,"lines":[32007],"attr":"heat","postal_code":"557-0004","address":"大阪市西成区萩之茶屋３-５-３８","next":[1160721,9962903,9962904,9962007,1160720],"voronoi":{"lat":34.644514,"lng":135.500695,"delta_lat":[0,-1610,6595,301,-2186],"delta_lng":[0,-1783,-3477,427,4746]}},
    {"code":9962903,"left":9962805,"right":9961812,"id":"362d51","name":"今池(大阪)","name_kana":"いまいけ","lat":34.645704,"lng":135.502339,"prefecture":27,"lines":[99629],"attr":"cool","postal_code":"557-0004","address":"大阪市西成区萩之茶屋２-２-７","next":[9961918,3200704,9962904,1160720,9962902,9961812],"voronoi":{"lat":34.647615,"lng":135.502843,"delta_lat":[0,303,-304,-3100,-1483,1576],"delta_lng":[0,-1167,-1069,87,6117,544]}},
    {"code":9962805,"id":"533982","name":"北畠","name_kana":"きたばたけ","lat":34.627245,"lng":135.505408,"prefecture":27,"lines":[99628],"attr":"cool","postal_code":"545-0035","address":"大阪市阿倍野区北畠中１","next":[9961815,9962804,9962908,9962907,9962806],"voronoi":{"lat":34.627076,"lng":135.511802,"delta_lat":[0,4575,-1878,-2047,-5419],"delta_lng":[0,-7897,-1778,-650,7576]}},
    {"code":9961812,"id":"422405","name":"動物園前","name_kana":"どうぶつえんまえ","lat":34.648815,"lng":135.504413,"prefecture":27,"lines":[99618,99623],"attr":"cool","postal_code":"557-0002","address":"大阪市西成区太子１-６-１２","next":[1160719,9961918,9962903,9962308,9962801,9962902],"voronoi":{"lat":34.647615,"lng":135.502843,"delta_lat":[0,-3008,781,2419,3373,650],"delta_lng":[0,4512,665,742,371,-3504]}},
    {"code":3200101,"left":9961810,"right":3100102,"id":"12e313","name":"難波","name_kana":"なんば","lat":34.66357,"lng":135.501949,"prefecture":27,"lines":[32001,32007],"attr":"cool","postal_code":"542-0076","address":"大阪市中央区難波５-１-６０","next":[1160722,9962308,3200702,3100102,9961810,9961811],"voronoi":{"lat":34.661384,"lng":135.497054,"delta_lat":[0,1472,3299,-5179,-1715,149],"delta_lng":[0,632,5417,4523,-4014,-2990]}},
    {"code":9961810,"left":3200702,"right":3100101,"id":"b02e7f","name":"なんば","name_kana":"なんば","lat":34.666316,"lng":135.500277,"prefecture":27,"lines":[99618,99620,99622],"attr":"eco","postal_code":"542-0076","address":"大阪市中央区難波１-９-７","next":[3100101,1160722,9961809,3100102,3200101],"voronoi":{"lat":34.662856,"lng":135.497685,"delta_lat":[0,1015,6780,0,-4496],"delta_lng":[0,24,4770,109,514]}},
    {"code":3200702,"left":1160720,"id":"ba10d6","name":"今宮戎","name_kana":"いまみやえびす","lat":34.655137,"lng":135.50153,"prefecture":27,"lines":[32007],"attr":"heat","postal_code":"556-0012","address":"大阪市浪速区敷津東３-２-１１","next":[9962308,9962902,1160720,3200101,9961811],"voronoi":{"lat":34.652855,"lng":135.498973,"delta_lat":[0,-361,188,6578,149],"delta_lng":[0,3960,585,93,-2990]}},
    {"code":1160720,"id":"13b494","name":"新今宮","name_kana":"しんいまみや","lat":34.650149,"lng":135.501076,"prefecture":27,"lines":[11607,11623,32001,32007],"attr":"heat","postal_code":"556-0003","address":"大阪市浪速区恵美須西３丁目","next":[1160721,3200704,9962903,3200702,9962902,9961811],"voronoi":{"lat":34.652495,"lng":135.502934,"delta_lat":[0,-4577,-304,2186,1838,1218],"delta_lng":[0,-1257,-1069,-4746,909,2203]}},
    {"code":3100101,"id":"6a42ec","name":"大阪難波","name_kana":"おおさかなんば","lat":34.667113,"lng":135.499144,"prefecture":27,"lines":[31001,35002],"attr":"heat","postal_code":"542-0076","address":"大阪市中央区難波四丁目1-17","next":[1160722,9961810,9961809,9962004],"voronoi":{"lat":34.670158,"lng":135.496616,"delta_lat":[0,-6287,6780,458],"delta_lng":[0,1094,4770,-3047]}},
    {"code":3100102,"left":9962308,"right":9962207,"id":"f0946f","name":"近鉄日本橋","name_kana":"きんてつにっぽんばし","lat":34.666949,"lng":135.505818,"prefecture":27,"lines":[31001],"attr":"heat","postal_code":"542-0073","address":"大阪市中央区日本橋１-１８-１４","next":[9962207,9962306,9961810,9961809,3200101,9962308],"voronoi":{"lat":34.660975,"lng":135.507625,"delta_lat":[0,5179,4496,355,-154,-9878],"delta_lng":[0,-4523,-514,522,2199,2382]}},
    {"code":9962308,"id":"c3a4ad","name":"恵美須町","name_kana":"えびすちょう","lat":34.65508,"lng":135.505575,"prefecture":27,"lines":[99623,99629],"attr":"cool","postal_code":"556-0005","address":"大阪市浪速区日本橋５-５-１５","next":[3200702,9961916,9962207,3200101,9962902,9961812,1160719,3100102],"voronoi":{"lat":34.66093,"lng":135.50819,"delta_lat":[0,-7532,-2218,650,853,6578,1715,-2],"delta_lng":[0,3041,-2098,-3504,-2111,93,4014,66]}},
    {"code":9962207,"id":"d74337","name":"日本橋(大阪)","name_kana":"にっぽんばし","lat":34.667146,"lng":135.506635,"prefecture":27,"lines":[99622,99623],"attr":"cool","postal_code":"542-0073","address":"大阪市中央区日本橋１-５-１２","next":[9962306,3100102,9961915,9962407,9962308,9961916],"voronoi":{"lat":34.66093,"lng":135.50819,"delta_lat":[0,44,9878,173,-879,-6579],"delta_lng":[0,-499,-2382,4654,1255,0]}},
    {"code":3100508,"left":1160716,"right":9962211,"id":"4e0b0c","name":"久宝寺口","name_kana":"きゅうほうじぐち","lat":34.634593,"lng":135.590548,"prefecture":27,"lines":[31005],"attr":"heat","postal_code":"581-0816","address":"八尾市佐堂町３-１１-７","next":[3100507,1160714,3100509,3102004,3102005,1160715],"voronoi":{"lat":34.631871,"lng":135.581221,"delta_lat":[0,17573,23,-2535,-20597,-791],"delta_lng":[0,16608,613,4069,-7601,-2081]}},
    {"code":1160716,"left":9961922,"right":3102402,"id":"5209c8","name":"加美","name_kana":"かみ","lat":34.626888,"lng":135.566939,"prefecture":27,"lines":[11607],"attr":"eco","postal_code":"547-0004","address":"大阪市平野区加美鞍作１","next":[1164108,9961924,1160717,1164106,9961922],"voronoi":{"lat":34.623805,"lng":135.55797,"delta_lat":[0,8857,-59,-14733,503],"delta_lng":[0,2285,7602,-241,-7898]}},
    {"code":9961922,"left":3100306,"right":3100303,"id":"21a344","name":"平野(OsakaMetro)","name_kana":"ひらの","lat":34.621078,"lng":135.548887,"prefecture":27,"lines":[99619],"attr":"cool","postal_code":"547-0033","address":"大阪市平野区平野西5-2","next":[3100305,9961923,1160717,3100304,1160718,9961921,1160716,9961924],"voronoi":{"lat":34.623805,"lng":135.55797,"delta_lat":[0,4585,-121,-787,-8172,-5917,3867,1113],"delta_lng":[0,-16428,-185,-228,-222,1538,16479,794]}},
    {"code":3100306,"left":1162605,"right":9961923,"id":"611a30","name":"矢田(大阪)","name_kana":"やた","lat":34.605926,"lng":135.532942,"prefecture":27,"lines":[31003],"attr":"heat","postal_code":"546-0023","address":"大阪市東住吉区矢田２-２５-２７","next":[9961817,3100307,1162604,3100305,9961923,1162605],"voronoi":{"lat":34.604844,"lng":135.521975,"delta_lat":[0,-10080,2388,14190,208,-2081],"delta_lng":[0,3546,18704,-2619,-16906,-1585]}},
    {"code":1162605,"left":9961818,"right":1162604,"id":"f861e3","name":"長居","name_kana":"ながい","lat":34.6109,"lng":135.512769,"prefecture":27,"lines":[11626,99618],"attr":"heat","postal_code":"558-0004","address":"大阪市住吉区長居東４","next":[1162604,9962808,9962807,9961815,9961817,1162606,3100306,3200708],"voronoi":{"lat":34.615376,"lng":135.506452,"delta_lat":[0,2170,-577,-7500,-4625,18,4849,3401],"delta_lng":[0,1739,2598,12327,-1140,-10000,-7175,537]}},
    {"code":9961818,"left":9961817,"id":"acbcaf","name":"北花田","name_kana":"きたはなだ","lat":34.581873,"lng":135.516469,"prefecture":27,"lines":[99618],"attr":"heat","postal_code":"591-8002","address":"堺市北区北花田町２丁１４-３","next":[9961819,1162609,1162608,3100307,9961817,1162607,3100308],"voronoi":{"lat":34.592454,"lng":135.524204,"delta_lat":[0,-2772,-1096,-10809,-2327,-2030,3502],"delta_lng":[0,-12620,-917,-2639,536,18244,618]}},
    {"code":9961817,"id":"47acbd","name":"あびこ","name_kana":"あびこ","lat":34.598821,"lng":135.512747,"prefecture":27,"lines":[99618],"attr":"heat","postal_code":"558-0011","address":"大阪市住吉区苅田７-１２-２１","next":[3100306,3100307,1162605,1162607,9961818,1162606],"voronoi":{"lat":34.604844,"lng":135.521975,"delta_lat":[0,-10080,-2309,-2772,6635,8544],"delta_lng":[0,3546,-1318,-12620,-3899,4291]}},
    {"code":1162604,"id":"6efc8e","name":"鶴ヶ丘","name_kana":"つるがおか","lat":34.617999,"lng":135.517088,"prefecture":27,"lines":[11626],"attr":"heat","postal_code":"545-0014","address":"大阪市阿倍野区西田辺町二丁目3-18","next":[1162605,3100306,9961815,1162603,3100305],"voronoi":{"lat":34.621563,"lng":135.519399,"delta_lat":[0,-4594,-7500,2081,7136],"delta_lng":[0,-8610,12327,1585,460]}},
    {"code":9961923,"left":9961924,"right":3100305,"id":"7f425c","name":"喜連瓜破","name_kana":"きれうりわり","lat":34.609376,"lng":135.551633,"prefecture":27,"lines":[99619],"attr":"cool","postal_code":"547-0027","address":"大阪市平野区喜連２-５","next":[9961922,3100307,3100306,9961924,3100310,3100305],"voronoi":{"lat":34.61726,"lng":135.558924,"delta_lat":[0,-24155,-1067,5113,14190,2052],"delta_lng":[0,-621,-6609,-7469,-2619,839]}},
    {"code":9961924,"left":3100307,"id":"ef1444","name":"出戸","name_kana":"でと","lat":34.609012,"lng":135.565801,"prefecture":27,"lines":[99619],"attr":"cool","postal_code":"547-0015","address":"大阪市平野区長吉長原西１-１-１０","next":[1160716,1160715,3100310,9961925,1164106,9961923,9961922],"voronoi":{"lat":34.617871,"lng":135.567616,"delta_lat":[0,-1011,-3095,-20919,260,24155,1113],"delta_lng":[0,6478,2305,-17095,-1001,621,794]}},
    {"code":3100307,"id":"e761d8","name":"河内天美","name_kana":"かわちあまみ","lat":34.585823,"lng":135.535509,"prefecture":27,"lines":[31003],"attr":"heat","postal_code":"580-0033","address":"松原市天美南３-１５-４１","next":[9961817,3100306,9961923,3100309,3100310,9961818,3100308],"voronoi":{"lat":34.576923,"lng":135.527426,"delta_lat":[0,15532,2309,2388,-5113,-1102,-4689],"delta_lng":[0,-3222,1318,18704,7469,-523,-4651]}},
    {"code":3100305,"id":"d3df19","name":"針中野","name_kana":"はりなかの","lat":34.616969,"lng":135.533078,"prefecture":27,"lines":[31003],"attr":"heat","postal_code":"546-0043","address":"大阪市東住吉区駒川５-２４-８","next":[9961922,3100306,1162603,9961921,1162604,9961923],"voronoi":{"lat":34.611342,"lng":135.541606,"delta_lat":[0,208,7136,483,142,-5917],"delta_lng":[0,-16906,460,339,15408,1538]}},
    {"code":3100303,"left":9961920,"right":3100304,"id":"1a3f80","name":"北田辺","name_kana":"きたたなべ","lat":34.632184,"lng":135.528934,"prefecture":27,"lines":[31003],"attr":"heat","postal_code":"546-0044","address":"大阪市東住吉区北田辺４-１６-２９","next":[3100304,3100302,1162602,1160718,9961920],"voronoi":{"lat":34.631365,"lng":135.535854,"delta_lat":[0,7544,-223,-5521,-4392],"delta_lng":[0,-4996,-426,-6651,5098]}},
    {"code":9961920,"left":1162603,"right":9961814,"id":"3969ad","name":"田辺","name_kana":"たなべ","lat":34.628215,"lng":135.525515,"prefecture":27,"lines":[99619],"attr":"heat","postal_code":"546-0031","address":"大阪市東住吉区田辺１-４-４","next":[9961814,9961919,9961921,1162602,1162603,3100303,3100304],"voronoi":{"lat":34.621563,"lng":135.526334,"delta_lat":[0,-69,9112,2089,277,194,-4392],"delta_lng":[0,-62,-5214,1305,289,1130,5098]}},
    {"code":1162603,"left":9961815,"id":"70304c","name":"南田辺","name_kana":"みなみたなべ","lat":34.625551,"lng":135.52086,"prefecture":27,"lines":[11626],"attr":"heat","postal_code":"546-0035","address":"大阪市東住吉区山坂２","next":[9961814,3100305,9961921,9961920,1162604,9961815],"voronoi":{"lat":34.62773,"lng":135.515159,"delta_lat":[0,2875,-9112,-2325,-483,2877],"delta_lng":[0,5899,5214,-772,-339,-5762]}},
    {"code":9961815,"id":"c9bfcd","name":"西田辺","name_kana":"にしたなべ","lat":34.621627,"lng":135.515152,"prefecture":27,"lines":[99618],"attr":"heat","postal_code":"545-0014","address":"大阪市阿倍野区西田辺町１-１-２５","next":[9962805,9962806,9962804,1162605,9961814,1162604,9962807,1162603],"voronoi":{"lat":34.616968,"lng":135.510789,"delta_lat":[0,577,519,4243,4769,931,-277,-6168],"delta_lng":[0,-2598,-38,901,2749,1522,1834,4240]}},
    {"code":9961814,"id":"a5bb20","name":"昭和町(大阪)","name_kana":"しょうわちょう","lat":34.633564,"lng":135.516954,"prefecture":27,"lines":[99618],"attr":"cool","postal_code":"545-0011","address":"大阪市阿倍野区昭和町１-９-２６","next":[9961920,9961815,1162603,9962804,9962803,9961919],"voronoi":{"lat":34.636355,"lng":135.513895,"delta_lat":[0,-4076,-4272,-277,2875,2089],"delta_lng":[0,-1087,517,1834,5899,1305]}},
    {"code":3100304,"left":9961921,"right":1160717,"id":"4484d5","name":"今川(大阪)","name_kana":"いまがわ","lat":34.626226,"lng":135.531148,"prefecture":27,"lines":[31003],"attr":"heat","postal_code":"546-0043","address":"大阪市東住吉区駒川３-４-５５","next":[3100303,1160718,9961922,9961921,9961920],"voronoi":{"lat":34.631365,"lng":135.535854,"delta_lat":[0,-3096,-787,-5920,7211],"delta_lng":[0,5503,-228,-14796,2546]}},
    {"code":9961921,"id":"91e729","name":"駒川中野","name_kana":"こまがわなかの","lat":34.621507,"lng":135.533036,"prefecture":27,"lines":[99619],"attr":"heat","postal_code":"546-0011","address":"大阪市東住吉区針中野１-１-１","next":[9961920,9961922,1162603,3100304,3100305],"voronoi":{"lat":34.619168,"lng":135.5255,"delta_lat":[0,2325,69,5920,-8172],"delta_lng":[0,772,62,14796,-222]}},
    {"code":1160717,"id":"e7f447","name":"平野(JR)","name_kana":"ひらの","lat":34.630842,"lng":135.551612,"prefecture":27,"lines":[11607],"attr":"eco","postal_code":"547-0047","address":"大阪市平野区平野元町9-12","next":[1164108,1160716,9961922,9962214,1160718],"voronoi":{"lat":34.636228,"lng":135.558523,"delta_lat":[0,-3565,-8857,4585,9471],"delta_lng":[0,1733,-2285,-16428,4947]}},
    {"code":3102402,"left":3101202,"right":3100510,"id":"5e0ed9","name":"高安山","name_kana":"たかやすやま","lat":34.613679,"lng":135.653794,"prefecture":27,"lines":[31024],"attr":"heat","postal_code":"581-0872","address":"八尾市郡川７２９-１","next":[3102103,3101611,3100514,3101607,1160710,1160709,3100513,3101609,3101608,3100512,3102102],"voronoi":{"lat":34.627164,"lng":135.677316,"delta_lat":[0,-4342,-1598,-15318,-10175,-3963,2809,7908,1667,20739,16658],"delta_lng":[0,1341,113,-4718,-7494,-17159,-2700,-5327,-239,11169,16802]}},
    {"code":3101202,"left":1160713,"right":3100513,"id":"1c15c7","name":"柏原南口","name_kana":"かしわらみなみぐち","lat":34.58153,"lng":135.624956,"prefecture":27,"lines":[31012],"attr":"heat","postal_code":"582-0007","address":"柏原市上市２-３","next":[3100315,3100514,3100515,3100314,1160712],"voronoi":{"lat":34.581395,"lng":135.615153,"delta_lat":[0,-6104,-1112,10024,580],"delta_lng":[0,6491,3220,3214,-1638]}},
    {"code":1160713,"left":1160712,"right":9961925,"id":"89ed4f","name":"志紀","name_kana":"しき","lat":34.600248,"lng":135.615998,"prefecture":27,"lines":[11607],"attr":"heat","postal_code":"581-0031","address":"八尾市志紀町３","next":[3100314,1160712,9961926,1160714,3100511,3100313,3100512,3100513],"voronoi":{"lat":34.612384,"lng":135.614348,"delta_lat":[0,1419,-13329,-10648,-3757,-16,6946,9459],"delta_lng":[0,-3228,-12026,894,4891,1258,12714,4643]}},
    {"code":1160712,"left":9961926,"id":"dd5547","name":"柏原(大阪)","name_kana":"かしわら","lat":34.586681,"lng":135.62341,"prefecture":27,"lines":[11607,31012],"attr":"heat","postal_code":"582-0007","address":"柏原市上市１","next":[1160713,3100314,3100513,3101202,3100514],"voronoi":{"lat":34.581395,"lng":135.615153,"delta_lat":[0,4657,6946,-1718,-6497],"delta_lng":[0,-9017,12714,4997,2593]}},
    {"code":9961926,"id":"51f55b","name":"八尾南","name_kana":"やおみなみ","lat":34.597433,"lng":135.582464,"prefecture":27,"lines":[99619],"attr":"cool","postal_code":"581-0038","address":"八尾市若林町１-３６","next":[9961925,1160713,1160715,3100311,3100312,1160714,3100313],"voronoi":{"lat":34.584967,"lng":135.589181,"delta_lat":[0,-677,3798,21862,-153,-9324,-10648],"delta_lng":[0,-8574,-9324,12692,2516,12603,894]}},
    {"code":9961925,"id":"c03b56","name":"長原(大阪)","name_kana":"ながはら","lat":34.602432,"lng":135.573853,"prefecture":27,"lines":[99619],"attr":"cool","postal_code":"547-0013","address":"大阪市平野区長吉長原東２-２","next":[1160715,9961926,9961924,3100311,3100310],"voronoi":{"lat":34.592846,"lng":135.559305,"delta_lat":[0,20919,-3814,-21862,177],"delta_lng":[0,17095,7575,-12692,-4634]}},
    {"code":3100513,"left":3100514,"right":3100512,"id":"49b6f2","name":"法善寺","name_kana":"ほうぜんじ","lat":34.595176,"lng":135.626331,"prefecture":27,"lines":[31005],"attr":"eco","postal_code":"582-0005","address":"柏原市法善寺町４-１-２２","next":[1160712,3100514,3102402,3100512,1160713],"voronoi":{"lat":34.592998,"lng":135.618851,"delta_lat":[0,-1718,3297,7908,-28],"delta_lng":[0,4997,22851,-5327,-17878]}},
    {"code":3100514,"id":"e94ff1","name":"堅下","name_kana":"かたしも","lat":34.588246,"lng":135.627331,"prefecture":27,"lines":[31005],"attr":"eco","postal_code":"582-0018","address":"柏原市大県２-５-１","next":[3102402,1160711,3101202,3100513,1160710,3100515,1160712],"voronoi":{"lat":34.59128,"lng":135.623847,"delta_lat":[0,3297,-2809,-1155,-2808,-3602,580],"delta_lng":[0,22851,2700,-462,-4165,-16693,-1638]}},
    {"code":3100512,"id":"f33ef5","name":"恩智","name_kana":"おんぢ","lat":34.609747,"lng":135.626308,"prefecture":27,"lines":[31005],"attr":"eco","postal_code":"581-0883","address":"八尾市恩智中町１-１０３","next":[3102103,3100513,1160713,3102402,3100511],"voronoi":{"lat":34.604153,"lng":135.641133,"delta_lat":[0,-1667,-28,9926,3765],"delta_lng":[0,239,-17878,-9146,19031]}},
    {"code":3100510,"left":1164106,"right":3102103,"id":"78e81b","name":"河内山本","name_kana":"かわちやまもと","lat":34.627892,"lng":135.619317,"prefecture":27,"lines":[31005,31021],"attr":"heat","postal_code":"581-0867","address":"八尾市山本町１-１-１７","next":[3102007,3102102,1160714,3100511,3102006,3100509],"voronoi":{"lat":34.645388,"lng":135.621918,"delta_lat":[0,-2028,-14682,-11610,1377,26706],"delta_lng":[0,9339,-951,-19440,-660,3206]}},
    {"code":1164106,"left":1160714,"right":3100509,"id":"8e5e31","name":"新加美","name_kana":"しんかみ","lat":34.626861,"lng":135.568588,"prefecture":27,"lines":[11641],"attr":"cool","postal_code":"547-0002","address":"大阪市平野区加美東４丁目","next":[1160716,9961924,3100507,1164108,1160715],"voronoi":{"lat":34.616859,"lng":135.574094,"delta_lat":[0,1011,14733,1153,-1976],"delta_lng":[0,-6478,241,8477,1929]}},
    {"code":1160714,"left":1160715,"id":"2c7de0","name":"八尾","name_kana":"やお","lat":34.617265,"lng":135.597136,"prefecture":27,"lines":[11607],"attr":"heat","postal_code":"581-0085","address":"八尾市安中町３","next":[3100508,1160715,3100509,3100511,1160713,3100510,9961926],"voronoi":{"lat":34.609797,"lng":135.58649,"delta_lat":[0,15747,791,-7890,-1377,-3266,-13329],"delta_lng":[0,6339,2081,15296,660,253,-12026]}},
    {"code":1160715,"id":"11c66c","name":"久宝寺","name_kana":"きゅうほうじ","lat":34.622558,"lng":135.583988,"prefecture":27,"lines":[11607,11641],"attr":"eco","postal_code":"581-0065","address":"八尾市大字亀井町","next":[3100507,9961925,9961924,1160714,9961926,1164106,3100508],"voronoi":{"lat":34.609797,"lng":135.58649,"delta_lat":[0,153,3814,3095,14921,91,-6327],"delta_lng":[0,-2516,-7575,-2305,4169,2958,11608]}},
    {"code":3100509,"id":"016868","name":"近鉄八尾","name_kana":"きんてつやお","lat":34.62978,"lng":135.603591,"prefecture":27,"lines":[31005],"attr":"heat","postal_code":"581-0802","address":"八尾市北本町２-１５３-２","next":[1160714,3100508,3102005,3102006,3100510],"voronoi":{"lat":34.645497,"lng":135.612642,"delta_lat":[0,1436,-20597,-7890,26706],"delta_lng":[0,-10130,-7601,15296,3206]}},
    {"code":3102103,"left":3100511,"right":3102102,"id":"7537d9","name":"信貴山口","name_kana":"しぎさんぐち","lat":34.619967,"lng":135.642118,"prefecture":27,"lines":[31021,31024],"attr":"heat","postal_code":"581-0873","address":"八尾市黒谷６４６","next":[3102402,3102102,3100512,3100511],"voronoi":{"lat":34.604153,"lng":135.641133,"delta_lat":[0,20739,-2981,-5762],"delta_lng":[0,11169,-19116,193]}},
    {"code":3100511,"id":"dfc002","name":"高安","name_kana":"たかやす","lat":34.619376,"lng":135.624403,"prefecture":27,"lines":[31005],"attr":"eco","postal_code":"581-0021","address":"八尾市山本高安町１-１-４６","next":[3102103,1160714,1160713,3100510,3102102,3100512],"voronoi":{"lat":34.612384,"lng":135.614348,"delta_lat":[0,1419,3266,11610,-6768,-5762],"delta_lng":[0,-3228,-253,19440,2879,193]}},
    {"code":3102102,"id":"c7b923","name":"服部川","name_kana":"はっとりがわ","lat":34.626481,"lng":135.641102,"prefecture":27,"lines":[31021],"attr":"heat","postal_code":"581-0865","address":"八尾市服部川４９６","next":[3102103,3102007,3100510,3102009,3101607,3100511,3102008,3102402],"voronoi":{"lat":34.644167,"lng":135.668487,"delta_lat":[0,1207,-1584,-430,-14682,-6768,2981,16658],"delta_lng":[0,-7470,-28680,-1080,-951,2879,19116,16802]}},
    {"code":9962211,"left":9962801,"right":3102008,"id":"a02501","name":"新深江","name_kana":"しんふかえ","lat":34.668158,"lng":135.553836,"prefecture":27,"lines":[99622],"attr":"heat","postal_code":"537-0003","address":"大阪市東成区神路４-１２-１６","next":[9962210,9962212,9962112,3100503,3100504,9962111],"voronoi":{"lat":34.67191,"lng":135.561106,"delta_lat":[0,-5736,-1817,5325,4640,824],"delta_lng":[0,-2409,-5000,-4579,222,1208]}},
    {"code":9962801,"left":1162602,"right":1162319,"id":"e0d026","name":"天王寺駅前","name_kana":"てんのうじえきまえ","lat":34.646202,"lng":135.512929,"prefecture":27,"lines":[99628],"attr":"cool","postal_code":"545-0052","address":"大阪市阿倍野区阿倍野筋１","next":[9961918,9961812,1160719,3100301],"voronoi":{"lat":34.647806,"lng":135.508762,"delta_lat":[0,-2419,-1333,2745],"delta_lng":[0,-742,5378,909]}},
    {"code":1162602,"left":9961918,"right":3100302,"id":"f42559","name":"美章園","name_kana":"びしょうえん","lat":34.638411,"lng":135.523765,"prefecture":27,"lines":[11626],"attr":"heat","postal_code":"545-0003","address":"大阪市阿倍野区美章園１","next":[9961920,3100303,3100302,9961919],"voronoi":{"lat":34.633166,"lng":135.523781,"delta_lat":[0,5521,1870,-7585],"delta_lng":[0,6651,-10914,3133]}},
    {"code":9961918,"left":9961919,"right":3100301,"id":"cb3740","name":"阿倍野","name_kana":"あべの","lat":34.642374,"lng":135.51198,"prefecture":27,"lines":[99619,99628],"attr":"heat","postal_code":"545-0052","address":"大阪市阿倍野区阿倍野筋２-４","next":[3100301,9962803,9962903,9962801,9962904,9961812,9961919],"voronoi":{"lat":34.638036,"lng":135.513775,"delta_lat":[0,2170,2824,1576,781,-1333,-3241],"delta_lng":[0,-7054,90,544,665,5378,3288]}},
    {"code":9961919,"left":9962803,"id":"c5d167","name":"文の里","name_kana":"ふみのさと","lat":34.636039,"lng":135.518024,"prefecture":27,"lines":[99619],"attr":"heat","postal_code":"545-0011","address":"大阪市阿倍野区昭和町１-１","next":[3100302,9961920,9962803,9961918,3100301,9961814,1162602],"voronoi":{"lat":34.632695,"lng":135.522362,"delta_lat":[0,3661,1681,2777,653,-910,-7585],"delta_lng":[0,-8468,-119,2911,2081,751,3133]}},
    {"code":9962803,"id":"e56c9e","name":"松虫","name_kana":"まつむし","lat":34.635458,"lng":135.509852,"prefecture":27,"lines":[99628],"attr":"cool","postal_code":"545-0052","address":"大阪市阿倍野区阿倍野筋６","next":[9961919,9961918,9962906,9961814,9962905,9962804,9962904],"voronoi":{"lat":34.638036,"lng":135.513775,"delta_lat":[0,-1681,-4076,3665,787,3158,317],"delta_lng":[0,119,-1087,-7769,86,1318,279]}},
    {"code":3100301,"id":"776659","name":"大阪阿部野橋","name_kana":"おおさかあべのばし","lat":34.645497,"lng":135.515057,"prefecture":27,"lines":[31003],"attr":"heat","postal_code":"545-0052","address":"大阪市阿倍野区阿倍野筋１-１-４３","next":[1162319,9961918,1160719,3100302,9961919,9962801],"voronoi":{"lat":34.64992,"lng":135.51831,"delta_lat":[0,-5809,-2645,-653,3241,2745],"delta_lng":[0,1705,-1247,-2081,-3288,909]}},
    {"code":3100302,"left":1160718,"right":9962214,"id":"22d84f","name":"河堀口","name_kana":"こぼれぐち","lat":34.641166,"lng":135.524237,"prefecture":27,"lines":[31003],"attr":"heat","postal_code":"545-0002","address":"大阪市阿倍野区天王寺町南２-２４-１","next":[9961919,1162319,3100303,3100301,1160718,1162602],"voronoi":{"lat":34.63891,"lng":135.530859,"delta_lat":[0,6659,-1457,-2645,-910,-1870],"delta_lng":[0,1527,-12371,-1247,751,10914]}},
    {"code":1160718,"id":"21a5be","name":"東部市場前","name_kana":"とうぶしじょうまえ","lat":34.638056,"lng":135.537802,"prefecture":27,"lines":[11607],"attr":"eco","postal_code":"546-0002","address":"大阪市東住吉区杭全１","next":[9962213,3100304,9961922,1162318,3100302,3100303,1162319,9962214,1160717],"voronoi":{"lat":34.62839,"lng":135.541542,"delta_lat":[0,-121,3096,7544,6659,3693,2796,-1920,-12276],"delta_lng":[0,-185,-5503,-4996,1527,2545,5766,1669,4124]}},
    {"code":9962214,"id":"be557e","name":"南巽","name_kana":"みなみたつみ","lat":34.643261,"lng":135.553298,"prefecture":27,"lines":[99622],"attr":"heat","postal_code":"544-0014","address":"大阪市生野区巽東２-１９-２７","next":[9962213,1164105,1164108,1160717,1160718],"voronoi":{"lat":34.650138,"lng":135.542366,"delta_lat":[0,-3290,-1058,-9562,1634],"delta_lng":[0,19197,393,-3433,-12033]}},
    {"code":1162319,"left":3100103,"right":3100503,"id":"f65940","name":"寺田町","name_kana":"てらだちょう","lat":34.647957,"lng":135.523437,"prefecture":27,"lines":[11623],"attr":"cool","postal_code":"543-0052","address":"大阪市天王寺区大道４丁目","next":[3100301,1160719,9961916,3100302,1162318,1160718],"voronoi":{"lat":34.655195,"lng":135.521001,"delta_lat":[0,-2394,-2880,-5809,1457,3693],"delta_lng":[0,-2724,32,1705,12371,2545]}},
    {"code":3100103,"left":9961916,"right":9961915,"id":"b0e96b","name":"大阪上本町","name_kana":"おおさかうえほんまち","lat":34.665513,"lng":135.522189,"prefecture":27,"lines":[31001,31005],"attr":"heat","postal_code":"543-0001","address":"大阪市天王寺区上本町六丁目1-55","next":[9961914,1162316,9961916,1162317,1162318,9961915],"voronoi":{"lat":34.67317,"lng":135.524815,"delta_lat":[0,-2032,-8320,-4097,3541,8243],"delta_lng":[0,1526,-261,-5058,-3067,2107]}},
    {"code":9961916,"left":1160719,"id":"559153","name":"四天王寺前夕陽ヶ丘","name_kana":"してんのうじまえゆうひがおか","lat":34.658536,"lng":135.514134,"prefecture":27,"lines":[99619],"attr":"heat","postal_code":"543-0075","address":"大阪市天王寺区夕陽丘町","next":[9962308,1162319,3100103,1162318,9961915,1160719,9962207],"voronoi":{"lat":34.66093,"lng":135.50819,"delta_lat":[0,-7532,-597,2394,3527,3541,1304],"delta_lng":[0,3041,7046,2724,21,-3067,-6737]}},
    {"code":1160719,"id":"4382c4","name":"天王寺","name_kana":"てんのうじ","lat":34.647844,"lng":135.513227,"prefecture":27,"lines":[11607,11623,11626,99618,99619],"attr":"heat","postal_code":"543-0055","address":"大阪市天王寺区悲田院町","next":[3100301,1162319,9961812,9962308,9962801,9961916],"voronoi":{"lat":34.653398,"lng":135.511232,"delta_lat":[0,-2218,-3373,-1007,3121,2880],"delta_lng":[0,-2098,-371,5545,4002,-32]}},
    {"code":9961915,"id":"5d963a","name":"谷町九丁目","name_kana":"たにまちきゅうちょうめ","lat":34.667146,"lng":135.515801,"prefecture":27,"lines":[99619,99622],"attr":"heat","postal_code":"543-0072","address":"大阪市天王寺区生玉前町１-２４","next":[9962207,9961916,9962407,3100103,9961914],"voronoi":{"lat":34.662263,"lng":135.517955,"delta_lat":[0,1304,6579,1196,-836],"delta_lng":[0,-6737,0,2988,5856]}},
    {"code":3100503,"left":1162318,"right":1162317,"id":"678b9f","name":"今里(近畿日本鉄道)","name_kana":"いまざと","lat":34.664788,"lng":135.549917,"prefecture":27,"lines":[31005],"attr":"heat","postal_code":"544-0001","address":"大阪市生野区新今里四丁目1-17","next":[9962213,9962210,9962211,9962212,1162318],"voronoi":{"lat":34.65803,"lng":135.550441,"delta_lat":[0,6326,5325,-12960,-2686],"delta_lng":[0,3256,-4579,-8795,773]}},
    {"code":1162318,"id":"a86ee7","name":"桃谷","name_kana":"ももだに","lat":34.658453,"lng":135.527908,"prefecture":27,"lines":[11623],"attr":"cool","postal_code":"543-0033","address":"大阪市天王寺区堂ケ芝１丁目","next":[1162317,9961916,1160718,9962210,9962213,3100103,1162319,3100503],"voronoi":{"lat":34.652058,"lng":135.540696,"delta_lat":[0,-2796,5933,3527,4097,-4284,-1813,-2686],"delta_lng":[0,-5766,-13929,21,5058,13116,1126,773]}},
    {"code":1162317,"id":"14945a","name":"鶴橋","name_kana":"つるはし","lat":34.665264,"lng":135.530133,"prefecture":27,"lines":[11623,31005,99622],"attr":"cool","postal_code":"543-0025","address":"大阪市天王寺区下味原町","next":[1162318,1162316,3100103,9962210],"voronoi":{"lat":34.667563,"lng":135.537056,"delta_lat":[0,3575,-8320,-4284],"delta_lng":[0,-10714,-261,13116]}},
    {"code":3102008,"left":3100505,"right":3102004,"id":"e2e823","name":"瓢箪山(大阪)","name_kana":"ひょうたんやま","lat":34.66196,"lng":135.639143,"prefecture":27,"lines":[31020],"attr":"eco","postal_code":"579-8046","address":"東大阪市昭和町４-１","next":[3102304,3102007,3102009,3102102],"voronoi":{"lat":34.643791,"lng":135.632338,"delta_lat":[0,27888,-539,-25765],"delta_lng":[0,968,5715,21997]}},
    {"code":3100505,"left":9962213,"right":3100506,"id":"fa0b70","name":"俊徳道","name_kana":"しゅんとくみち","lat":34.658224,"lng":135.571777,"prefecture":27,"lines":[31005],"attr":"heat","postal_code":"577-0843","address":"東大阪市荒川２-７０","next":[1164104,1164105,3100504,1164103,3102002,9962213],"voronoi":{"lat":34.65528,"lng":135.563471,"delta_lat":[0,6481,-237,-15,-8052,1798],"delta_lng":[0,4603,3224,63,1850,-9732]}},
    {"code":9962213,"left":1164105,"right":9962212,"id":"6174fb","name":"北巽","name_kana":"きたたつみ","lat":34.652982,"lng":135.554964,"prefecture":27,"lines":[99622],"attr":"heat","postal_code":"544-0014","address":"大阪市生野区巽東１-１-３９","next":[3100503,1160718,9962214,9962212,3100504,1162318,1164105,3100505],"voronoi":{"lat":34.646848,"lng":135.561563,"delta_lat":[0,3290,1920,1978,3995,-1760,-991,-25],"delta_lng":[0,-19197,-1669,399,9345,11744,1287,8]}},
    {"code":1164105,"left":1164108,"id":"644bdb","name":"JR長瀬","name_kana":"じぇいあーるながせ","lat":34.649516,"lng":135.570168,"prefecture":27,"lines":[11641],"attr":"eco","postal_code":"577-0832","address":"大阪府東大阪市長瀬町三丁目8-41","next":[1164108,9962214,1164104,3100505,9962213,3100506],"voronoi":{"lat":34.653329,"lng":135.573712,"delta_lat":[0,128,1798,-8407,-1058,-3452],"delta_lng":[0,-501,-9732,-1917,393,12294]}},
    {"code":1164108,"id":"649d94","name":"衣摺加美北","name_kana":"きずりかみきた","lat":34.638333,"lng":135.567028,"prefecture":27,"lines":[11641],"attr":"cool","postal_code":"577-0827","address":"大阪府東大阪市衣摺6丁目11番13号","open_date":"2018-03-17","next":[1160717,1160716,1164105,3100507,9962214,3100506,1164106],"voronoi":{"lat":34.641774,"lng":135.574864,"delta_lat":[0,563,3452,-9562,-3565,-59,1153],"delta_lng":[0,-615,-12294,-3433,1733,7602,8477]}},
    {"code":9962212,"id":"11c34f","name":"小路","name_kana":"しょうじ","lat":34.661531,"lng":135.556245,"prefecture":27,"lines":[99622],"attr":"heat","postal_code":"544-0003","address":"大阪市生野区小路東２-１１-１４","next":[9962211,9962213,3100504,3100503],"voronoi":{"lat":34.666173,"lng":135.558696,"delta_lat":[0,-9903,1760,6326],"delta_lng":[0,3488,-11744,3256]}},
    {"code":3100506,"left":3100507,"right":1164104,"id":"50e8f6","name":"長瀬","name_kana":"ながせ","lat":34.64988,"lng":135.577612,"prefecture":27,"lines":[31005],"attr":"heat","postal_code":"577-0807","address":"東大阪市菱屋西１-２４-２６","next":[1164104,3102004,1164108,3100507,3102003,1164105],"voronoi":{"lat":34.653329,"lng":135.573712,"delta_lat":[0,3579,-1573,-3631,-9929,563],"delta_lng":[0,5854,5688,4235,-14625,-615]}},
    {"code":3100507,"id":"327ac7","name":"弥刀","name_kana":"みと","lat":34.641337,"lng":135.583412,"prefecture":27,"lines":[31005],"attr":"heat","postal_code":"577-0816","address":"東大阪市友井３-１-２２","next":[3100508,1160715,1164108,1164106,3100506,3102004],"voronoi":{"lat":34.651704,"lng":135.58949,"delta_lat":[0,-9929,-8018,-1976,91,17573],"delta_lng":[0,-14625,1470,1929,2958,16608]}},
    {"code":1164104,"id":"b137a8","name":"JR俊徳道","name_kana":"じぇいあーるしゅんとくみち","lat":34.658372,"lng":135.572421,"prefecture":27,"lines":[11641],"attr":"eco","postal_code":"577-0809","address":"大阪府東大阪市永和一丁目24-15","next":[3100506,3100505,1164105,3102003,3102002],"voronoi":{"lat":34.661509,"lng":135.571361,"delta_lat":[0,-8052,-128,3579,3851],"delta_lng":[0,1850,501,5854,-2362]}},
    {"code":3102004,"left":3102002,"right":3102006,"id":"8c6f53","name":"八戸ノ里","name_kana":"やえのさと","lat":34.663721,"lng":135.589475,"prefecture":27,"lines":[31020],"attr":"heat","postal_code":"577-0801","address":"東大阪市小阪３-１-１","next":[3102003,3100506,3102301,3102005,3100507,3100508,3102302],"voronoi":{"lat":34.649468,"lng":135.598443,"delta_lat":[0,-23,2259,3631,16710,-2053,-774],"delta_lng":[0,-613,-8340,-4235,459,12622,748]}},
    {"code":3102002,"left":3102003,"right":1164103,"id":"2980b1","name":"河内永和","name_kana":"かわちえいわ","lat":34.664276,"lng":135.573179,"prefecture":27,"lines":[31020],"attr":"heat","postal_code":"577-0054","address":"東大阪市高井田元町１-１-５","next":[9962113,1164103,3102003,3100505,1164104],"voronoi":{"lat":34.661509,"lng":135.571361,"delta_lat":[0,15,10001,7,-10773],"delta_lng":[0,-63,4773,1568,-435]}},
    {"code":3102003,"left":3100504,"id":"5eeb34","name":"河内小阪","name_kana":"かわちこさか","lat":34.66394,"lng":135.5815,"prefecture":27,"lines":[31020],"attr":"heat","postal_code":"577-0801","address":"東大阪市小阪１-８-８","next":[3102004,3102301,3102002,9962113,1164104,3100506],"voronoi":{"lat":34.672045,"lng":135.585713,"delta_lat":[0,2250,-2763,-10773,-3851,-1573],"delta_lng":[0,-3198,-4876,-435,2362,5688]}},
    {"code":3100504,"id":"988952","name":"布施","name_kana":"ふせ","lat":34.664092,"lng":135.563516,"prefecture":27,"lines":[31005,31020],"attr":"heat","postal_code":"577-0056","address":"東大阪市長堂１-１-１８","next":[9962112,3100505,1164103,9962213,1164102,9962212,9962211],"voronoi":{"lat":34.673408,"lng":135.564655,"delta_lat":[0,-1629,-10018,-6481,991,9903,5736],"delta_lng":[0,2703,716,-4603,-1287,-3488,2409]}},
    {"code":1164103,"id":"4f6ab9","name":"JR河内永和","name_kana":"じぇいあーるかわちえいわ","lat":34.664717,"lng":135.572255,"prefecture":27,"lines":[11641],"attr":"heat","postal_code":"577-0809","address":"大阪府東大阪市永和一丁目1-21","next":[3102002,1164102,3100505,3100504,9962113],"voronoi":{"lat":34.671738,"lng":135.572579,"delta_lat":[0,40,-10018,-237,10001],"delta_lng":[0,-5220,716,3224,4773]}},
    {"code":3102006,"left":3102007,"right":3102005,"id":"373a62","name":"河内花園","name_kana":"かわちはなぞの","lat":34.662713,"lng":135.618347,"prefecture":27,"lines":[31020],"attr":"heat","postal_code":"578-0924","address":"東大阪市吉田１-１-３０","next":[3102303,3102007,3102005,3102302,3100509,3100510],"voronoi":{"lat":34.645152,"lng":135.613413,"delta_lat":[0,345,26928,1122,-2589,-25569],"delta_lng":[0,-771,1066,1329,7864,-982]}},
    {"code":3102007,"id":"2fb315","name":"東花園","name_kana":"ひがしはなぞの","lat":34.662388,"lng":135.626808,"prefecture":27,"lines":[31020],"attr":"eco","postal_code":"578-0924","address":"東大阪市吉田７-１-１","next":[3102102,3100510,3102006,3102008,3102304,3102303],"voronoi":{"lat":34.670957,"lng":135.6229,"delta_lat":[0,-25569,-2028,430,27888,700],"delta_lng":[0,-982,9339,1080,968,-884]}},
    {"code":3102005,"id":"55a577","name":"若江岩田","name_kana":"わかえいわた","lat":34.66311,"lng":135.608315,"prefecture":27,"lines":[31020],"attr":"heat","postal_code":"578-0941","address":"東大阪市岩田町４-４-２１","next":[3102006,3102302,3102004,3100509,3100508],"voronoi":{"lat":34.645497,"lng":135.612642,"delta_lat":[0,26928,-3207,-19750,-2535],"delta_lng":[0,1066,-14624,-641,4069]}}
  ]
}