{
  "name":"segment32",
  "root":3001514,
  "east":137.013148,
  "west":136.728351,
  "south":35.287194,
  "north":90.0,
  "station_size":144,
  "node_list":[
    {"code":3001514,"left":3000159,"right":9952515,"id":"604067","name":"柏森","name_kana":"かしわもり","lat":35.344807,"lng":136.900181,"prefecture":23,"lines":[30015],"attr":"heat","postal_code":"480-0103","address":"丹羽郡扶桑町柏森天神","next":[3001811,3001512,3001809,3001515,3001808,3001606,3001810,3001607,3001513],"voronoi":{"lat":35.312457,"lng":136.905423,"delta_lat":[0,50,5026,6108,11200,36680,-1465,-2736,-40469],"delta_lng":[0,98,6296,5406,7051,-34266,-7445,-6286,14499]}},
    {"code":3000159,"left":3001615,"right":9952536,"id":"75147b","name":"加納(岐阜)","name_kana":"かのう","lat":35.405209,"lng":136.765984,"prefecture":21,"lines":[30001],"attr":"eco","postal_code":"500-8402","address":"岐阜市竜田町９丁目","next":[3000157,3001617,3000158,1141601,3000160],"voronoi":{"lat":35.405586,"lng":136.760434,"delta_lat":[0,-10581,673,10936,4656],"delta_lng":[0,-4830,3277,11786,-4541]}},
    {"code":3001615,"left":1150238,"right":3001611,"id":"8c04c8","name":"切通","name_kana":"きりどおし","lat":35.400257,"lng":136.79564,"prefecture":21,"lines":[30016],"attr":"eco","postal_code":"500-0000","address":"岐阜市南長森切通","next":[3001614,3000157,3000155,1141602,3001616],"voronoi":{"lat":35.381383,"lng":136.787819,"delta_lat":[0,-2963,-3920,24133,26409],"delta_lng":[0,1180,5484,5432,-6357]}},
    {"code":1150238,"left":3000153,"right":3000157,"id":"f6a233","name":"木曽川","name_kana":"きそがわ","lat":35.349319,"lng":136.780726,"prefecture":23,"lines":[11502],"attr":"eco","postal_code":"493-0001","address":"一宮市木曽川町黒田","next":[3000155,3000154,3001612,3001614,3001513,3000152,3001613,3000153],"voronoi":{"lat":35.346041,"lng":136.778081,"delta_lat":[0,15569,9812,-5343,-7891,-6055,-5442,-5014],"delta_lng":[0,4318,15090,11015,12586,6938,-868,-24760]}},
    {"code":3000153,"left":3001423,"right":3000151,"id":"17f7b0","name":"新木曽川","name_kana":"しんきそがわ","lat":35.342047,"lng":136.779421,"prefecture":23,"lines":[30001],"attr":"heat","postal_code":"493-0001","address":"一宮市木曽川町黒田下市場南１２１-４","next":[3000152,3001421,3001423,3001422,3000154,1150238],"voronoi":{"lat":35.346041,"lng":136.778081,"delta_lat":[0,-2596,-10564,-1006,-711,10513],"delta_lng":[0,-11047,3526,971,3045,27824]}},
    {"code":3001423,"left":3001421,"right":3002004,"id":"88e866","name":"玉ノ井","name_kana":"たまのい","lat":35.334887,"lng":136.757968,"prefecture":23,"lines":[30014],"attr":"eco","postal_code":"493-0004","address":"一宮市木曽川町玉ノ井古井田１４０","next":[3002002,3002006,3000155,3000154,3000153,3002004,3002003,3002005,3001422],"voronoi":{"lat":35.323966,"lng":136.740465,"delta_lat":[0,1738,14768,8111,3378,15,-574,-7958,-10564],"delta_lng":[0,-93,2514,3586,5575,7360,1383,6244,3526]}},
    {"code":3001421,"left":3001422,"id":"9c5094","name":"開明","name_kana":"かいめい","lat":35.31926,"lng":136.7741,"prefecture":23,"lines":[30014],"attr":"eco","postal_code":"494-0001","address":"一宮市開明名古羅４７-１","next":[3001420,3000153,3001416,3001422,3001417,3000151,3000152],"voronoi":{"lat":35.331164,"lng":136.774575,"delta_lat":[0,711,-28113,-1620,1110,7390,8875],"delta_lng":[0,-3045,-10979,7298,8526,4826,527]}},
    {"code":3001422,"id":"7498e6","name":"奥町","name_kana":"おくちょう","lat":35.32434,"lng":136.761092,"prefecture":23,"lines":[30014],"attr":"eco","postal_code":"491-0201","address":"一宮市奥町字南目草３０-１","next":[3002006,3001421,3001415,3000153,3001416,3001423],"voronoi":{"lat":35.331875,"lng":136.77153,"delta_lat":[0,-28113,-1984,671,21518,8914],"delta_lng":[0,-10979,-15473,-9346,4732,30095]}},
    {"code":3002004,"id":"4548b8","name":"南宿","name_kana":"みなみじゅく","lat":35.347869,"lng":136.728604,"prefecture":21,"lines":[30020],"attr":"heat","postal_code":"501-6203","address":"羽島市足近町南宿字北出９１６-１","next":[3001423,3002007,1150303,3002005,3002003],"voronoi":{"lat":35.37161,"lng":136.710526,"delta_lat":[0,-10947,-11624,-8567,8111],"delta_lng":[0,-15262,11065,36556,3586]}},
    {"code":3000151,"left":3001420,"right":3000152,"id":"d3df27","name":"今伊勢","name_kana":"いまいせ","lat":35.31836,"lng":136.789273,"prefecture":23,"lines":[30001],"attr":"heat","postal_code":"491-0057","address":"一宮市今伊勢町大字宮後字一丁野","next":[3001420,3001421,3000152,1150237,3001513],"voronoi":{"lat":35.342129,"lng":136.827609,"delta_lat":[0,-22613,-8875,6621,11235],"delta_lng":[0,-45881,-527,26625,22480]}},
    {"code":3001420,"left":3001418,"id":"52425a","name":"西一宮","name_kana":"にしいちのみや","lat":35.307603,"lng":136.791948,"prefecture":23,"lines":[30014],"attr":"eco","postal_code":"491-0046","address":"一宮市天王１-３-１","next":[3001421,1150237,3001417,3000151,3000150,3001418],"voronoi":{"lat":35.302277,"lng":136.777829,"delta_lat":[0,974,7390,6621,-12199,-6104],"delta_lng":[0,-1454,4826,26625,-12675,-7013]}},
    {"code":3001418,"id":"9fcaab","name":"観音寺(愛知)","name_kana":"かんのんじ","lat":35.289716,"lng":136.786191,"prefecture":23,"lines":[30014],"attr":"heat","postal_code":"491-0916","address":"一宮市観音寺２-５-２","next":[3000150,3000148,3001417,3001420,3000149],"voronoi":{"lat":35.277341,"lng":136.78987,"delta_lat":[0,-2562,27499,-3318,-4904],"delta_lng":[0,-3279,-8761,10309,5255]}},
    {"code":3000152,"id":"4b0248","name":"石刀","name_kana":"いわと","lat":35.326204,"lng":136.785407,"prefecture":23,"lines":[30001],"attr":"heat","postal_code":"491-0051","address":"一宮市今伊勢町大字馬寄字西切声","next":[3000153,3001513,3000151,1150238,3001421],"voronoi":{"lat":35.331164,"lng":136.774575,"delta_lat":[0,10513,5014,-4561,-22613],"delta_lng":[0,27824,24760,450,-45881]}},
    {"code":3000157,"left":3000156,"right":3000155,"id":"ad4f60","name":"岐南","name_kana":"ぎなん","lat":35.389716,"lng":136.769165,"prefecture":21,"lines":[30001],"attr":"heat","postal_code":"501-6018","address":"羽島郡岐南町下印食","next":[1141601,3000159,3000156,3002002,3000158,3001615,3001616,3000155],"voronoi":{"lat":35.377988,"lng":136.780962,"delta_lat":[0,9835,1091,6090,673,362,-14657,-2963],"delta_lng":[0,-32898,-2001,9541,3277,18000,10937,1180]}},
    {"code":3000156,"left":3002002,"right":3000158,"id":"81a081","name":"笠松","name_kana":"かさまつ","lat":35.37466,"lng":136.764664,"prefecture":21,"lines":[30001,30020],"attr":"heat","postal_code":"501-6037","address":"羽島郡笠松町西金池町","next":[3002002,3000155,3000157],"voronoi":{"lat":35.387823,"lng":136.748064,"delta_lat":[0,-19834,9999],"delta_lng":[0,16423,16475]}},
    {"code":3002002,"left":3002003,"id":"a19290","name":"西笠松","name_kana":"にしかさまつ","lat":35.36906,"lng":136.757901,"prefecture":21,"lines":[30020],"attr":"cool","postal_code":"501-6077","address":"羽島郡笠松町天王町４５","next":[3000156,3001423,3000155,3002003,3000157,1141601],"voronoi":{"lat":35.387823,"lng":136.748064,"delta_lat":[0,-19834,-16013,-15,36884,69],"delta_lng":[0,16423,-5081,-7360,-7975,1992]}},
    {"code":3002003,"id":"eb7979","name":"柳津(岐阜)","name_kana":"やないづ","lat":35.365114,"lng":136.739651,"prefecture":21,"lines":[30020],"attr":"heat","postal_code":"501-6111","address":"岐阜市柳津町宮東","next":[3002002,1150303,1150302,3001423,1141601,3002004],"voronoi":{"lat":35.37161,"lng":136.710526,"delta_lat":[0,6462,11346,-573,-36884,-3378],"delta_lng":[0,4405,27630,1510,7975,-5575]}},
    {"code":3000158,"id":"92c35e","name":"茶所","name_kana":"ちゃじょ","lat":35.402048,"lng":136.768917,"prefecture":21,"lines":[30001],"attr":"cool","postal_code":"500-8431","address":"岐阜市加納八幡町","next":[3001616,3000159,3000157,3001617],"voronoi":{"lat":35.406614,"lng":136.770668,"delta_lat":[0,-10936,362,8293],"delta_lng":[0,-11786,18000,211]}},
    {"code":3000155,"left":3000154,"right":3001616,"id":"0c0f3e","name":"木曽川堤","name_kana":"きそがわづつみ","lat":35.365067,"lng":136.770486,"prefecture":23,"lines":[30001],"attr":"heat","postal_code":"493-8001","address":"一宮市北方町大字北方字倉骨","next":[1150238,3002002,3001423,3000156,3001614,3001615,3000154,3000157],"voronoi":{"lat":35.377988,"lng":136.780962,"delta_lat":[0,-9999,-16013,-574,10207,9812,3078,3920],"delta_lng":[0,-16475,-5081,1383,21609,15090,-3006,-5484]}},
    {"code":3000154,"id":"8c90e3","name":"黒田(愛知)","name_kana":"くろだ","lat":35.350213,"lng":136.777502,"prefecture":23,"lines":[30001],"attr":"heat","postal_code":"493-0001","address":"一宮市木曽川町黒田字西針口北ノ切１２-４","next":[1150238,3001423,3000155,3000153],"voronoi":{"lat":35.36161,"lng":136.782398,"delta_lat":[0,-10207,-7958,2596],"delta_lng":[0,-21609,6244,11047]}},
    {"code":3001616,"id":"8a07ba","name":"細畑","name_kana":"ほそばた","lat":35.401637,"lng":136.785141,"prefecture":21,"lines":[30016],"attr":"eco","postal_code":"500-8247","address":"岐阜市長森細畑","next":[3000158,1141602,3000157,3001615,3001617],"voronoi":{"lat":35.425041,"lng":136.793557,"delta_lat":[0,-43659,14657,8293,22118],"delta_lng":[0,-5739,-10937,211,16434]}},
    {"code":3001611,"left":3001612,"right":3001608,"id":"e1459d","name":"新那加","name_kana":"しんなか","lat":35.400097,"lng":136.83386,"prefecture":21,"lines":[30016],"attr":"eco","postal_code":"504-0961","address":"各務原市那加新那加町","next":[1141603,3001612,3001610,3001513],"voronoi":{"lat":35.355433,"lng":136.8325,"delta_lat":[0,72917,-42836,-25545],"delta_lng":[0,-5534,11762,1523]}},
    {"code":3001612,"left":3001614,"right":3001512,"id":"4566ca","name":"新加納","name_kana":"しんかのう","lat":35.39938,"lng":136.824414,"prefecture":21,"lines":[30016],"attr":"eco","postal_code":"504-0034","address":"各務原市那加浜見町１丁目","next":[3001613,3001611,1150238,1141603,3001513,1141602],"voronoi":{"lat":35.421217,"lng":136.816228,"delta_lat":[0,-63029,-6055,3301,72917,43206],"delta_lng":[0,4861,6938,4472,-5534,-4527]}},
    {"code":3001614,"left":1150237,"right":3001613,"id":"ec4b49","name":"手力","name_kana":"てぢから","lat":35.398269,"lng":136.804472,"prefecture":21,"lines":[30016],"attr":"eco","postal_code":"500-8233","address":"岐阜市蔵前７丁目","next":[3001613,3001615,1150238,3000155,1141602],"voronoi":{"lat":35.366078,"lng":136.808504,"delta_lat":[0,5343,3078,24133,3180],"delta_lng":[0,-11015,-3006,5432,8009]}},
    {"code":1150237,"left":3000150,"id":"10e51a","name":"尾張一宮","name_kana":"おわりいちのみや","lat":35.301765,"lng":136.797567,"prefecture":23,"lines":[11502],"attr":"eco","postal_code":"491-0858","address":"一宮市栄３丁目","next":[3001420,3000149,3000151,3001512,3001511,3001513,3000150],"voronoi":{"lat":35.305064,"lng":136.795152,"delta_lat":[0,12199,11235,-4560,-14457,-13359,-1463],"delta_lng":[0,12675,22480,2018,2946,-1129,-32144]}},
    {"code":3000150,"id":"663d6a","name":"名鉄一宮","name_kana":"めいてついちのみや","lat":35.30154,"lng":136.797225,"prefecture":23,"lines":[30001,30014],"attr":"heat","postal_code":"491-0912","address":"一宮市新生１丁目","next":[3001418,3001420,1150237,3000149],"voronoi":{"lat":35.305064,"lng":136.795152,"delta_lat":[0,-6104,-4904,603],"delta_lng":[0,-7013,5255,8604]}},
    {"code":3001613,"id":"034de1","name":"高田橋","name_kana":"たかだばし","lat":35.398383,"lng":136.811488,"prefecture":21,"lines":[30016],"attr":"eco","postal_code":"500-8224","address":"岐阜市高田２丁目","next":[3001612,3001614,1141602,1150238],"voronoi":{"lat":35.366078,"lng":136.808504,"delta_lat":[0,35734,19404,-63029],"delta_lng":[0,-580,8305,4861]}},
    {"code":3001512,"left":3001511,"right":3001513,"id":"201c1c","name":"布袋","name_kana":"ほてい","lat":35.317135,"lng":136.872987,"prefecture":23,"lines":[30015],"attr":"heat","postal_code":"483-8141","address":"江南市布袋町西布","next":[3001514,3001511,1150237,3001808,3001513],"voronoi":{"lat":35.312457,"lng":136.905423,"delta_lat":[0,-8595,5618,14457,2914],"delta_lng":[0,-4336,-65817,-2946,58452]}},
    {"code":3001511,"id":"6f5fb9","name":"石仏","name_kana":"いしぼとけ","lat":35.295545,"lng":136.871144,"prefecture":23,"lines":[30015],"attr":"heat","postal_code":"482-0034","address":"岩倉市石仏町","next":[3001510,3001808,3001512,1150237,1150236,3000149],"voronoi":{"lat":35.282301,"lng":136.839235,"delta_lat":[0,8129,13432,5618,-13359,-9033],"delta_lng":[0,60353,1499,-65817,-1129,1036]}},
    {"code":3001513,"id":"1b4f26","name":"江南(愛知)","name_kana":"こうなん","lat":35.33475,"lng":136.872109,"prefecture":23,"lines":[30015],"attr":"heat","postal_code":"483-8213","address":"江南市古知野町字朝日","next":[3001607,3000152,3001612,3001609,1150237,1150238,3000151,3001512,3001608,3001611,3001610,3001514],"voronoi":{"lat":35.323938,"lng":136.832325,"delta_lat":[0,4560,13632,4561,5442,3301,4536,2918,3089,1920,-576,-40469],"delta_lng":[0,-2018,-2697,-450,868,4472,7751,6343,8154,12059,9471,14499]}},
    {"code":3001608,"left":3001609,"right":3001607,"id":"886725","name":"六軒(岐阜)","name_kana":"ろっけん","lat":35.40105,"lng":136.861554,"prefecture":21,"lines":[30016],"attr":"heat","postal_code":"504-0905","address":"各務原市蘇原六軒町４丁目","next":[3001607,3001609,1141604,3001513],"voronoi":{"lat":35.393343,"lng":136.868372,"delta_lat":[0,69218,-96584,1920],"delta_lng":[0,-14832,1207,12059]}},
    {"code":3001609,"left":3001610,"right":1141602,"id":"dbafcd","name":"各務原市役所前","name_kana":"かかみがはらしやくしょまえ","lat":35.400869,"lng":136.847067,"prefecture":21,"lines":[30016],"attr":"eco","postal_code":"504-0912","address":"各務原市那加桜町２丁目","next":[3001608,3001610,3001513,9952507,1141604,9952508],"voronoi":{"lat":35.464311,"lng":136.853376,"delta_lat":[0,-1750,-96584,-3089,111780,-3007],"delta_lng":[0,165,1207,-8154,-6338,4080]}},
    {"code":3001610,"left":1141603,"id":"eb95d3","name":"市民公園前","name_kana":"しみんこうえんまえ","lat":35.400572,"lng":136.841829,"prefecture":21,"lines":[30016],"attr":"eco","postal_code":"504-0911","address":"各務原市那加門前町４丁目","next":[3001609,9952508,3001611,1141603,3001513],"voronoi":{"lat":35.35997,"lng":136.84025,"delta_lat":[0,25545,90748,-1595,-111780],"delta_lng":[0,-1523,-485,2013,6338]}},
    {"code":1141603,"id":"a2bcc6","name":"那加","name_kana":"なか","lat":35.400538,"lng":136.835466,"prefecture":21,"lines":[11416],"attr":"cool","postal_code":"504-0966","address":"各務原市那加本町","next":[3001611,3001612,9952508,1141602,3001610],"voronoi":{"lat":35.476263,"lng":136.838243,"delta_lat":[0,12953,-17659,-43206,-42836],"delta_lng":[0,-14997,-807,4527,11762]}},
    {"code":1141602,"id":"69ec6e","name":"長森","name_kana":"ながもり","lat":35.402024,"lng":136.802981,"prefecture":21,"lines":[11416],"attr":"cool","postal_code":"500-8233","address":"岐阜市蔵前２","next":[9952509,3001613,3001616,3001617,9952508,1141603,3001614,3001615,3001612],"voronoi":{"lat":35.421217,"lng":136.816228,"delta_lat":[0,-19404,-3180,26409,1409,72356,-3987,-5604,-17659],"delta_lng":[0,-8305,-8009,-6357,-31,21706,3521,4492,-807]}},
    {"code":3001607,"left":3001606,"right":1141604,"id":"ad720a","name":"三柿野","name_kana":"みかきの","lat":35.400156,"lng":136.876084,"prefecture":21,"lines":[30016],"attr":"heat","postal_code":"504-0904","address":"各務原市蘇原三柿野町字往来添","next":[3001513,3001608,3001606,1141604,3001514],"voronoi":{"lat":35.415567,"lng":136.882763,"delta_lat":[0,-22225,-25446,-576,2736],"delta_lng":[0,-14391,-1566,9471,6286]}},
    {"code":3001606,"id":"224603","name":"二十軒","name_kana":"にじっけん","lat":35.400098,"lng":136.889307,"prefecture":21,"lines":[30016],"attr":"heat","postal_code":"509-0146","address":"各務原市鵜沼三ツ池町３丁目","next":[3001515,1141604,1141605,3001607,3001514,3001605],"voronoi":{"lat":35.403784,"lng":136.894631,"delta_lat":[0,28553,-16770,-45511,1465,6546],"delta_lng":[0,-8988,-2879,-200,7445,9953]}},
    {"code":1141604,"id":"45f71c","name":"蘇原","name_kana":"そはら","lat":35.403167,"lng":136.871434,"prefecture":21,"lines":[11416],"attr":"cool","postal_code":"504-0821","address":"各務原市蘇原瑞雲町１丁目","next":[3001606,9952507,3001608,3001607,1141605,3001609],"voronoi":{"lat":35.393343,"lng":136.868372,"delta_lat":[0,22225,16770,14957,17016,-1750],"delta_lng":[0,14391,2879,-325,-31942,165]}},
    {"code":9952536,"left":1141903,"right":1141710,"id":"e4b1e7","name":"白鳥高原","name_kana":"しろとりこうげん","lat":35.912617,"lng":136.843028,"prefecture":21,"lines":[99525],"attr":"heat","postal_code":"501-5103","address":"郡上市白鳥町二日町字清水垣内","next":[9952535,1141620,9952538,9952537,1141625,9952534],"voronoi":{"lat":36.00833,"lng":137.024303,"delta_lat":[0,40028,12489,-132373,-52434,4171],"delta_lng":[0,211,-5425,-173261,-34765,11511]}},
    {"code":1141903,"left":3001617,"right":1141911,"id":"953858","name":"本津幡","name_kana":"ほんつばた","lat":36.676673,"lng":136.732202,"prefecture":17,"lines":[11419],"attr":"cool","postal_code":"929-0326","address":"河北郡津幡町字清水","next":[1141546,1141902,1141904],"voronoi":{"lat":36.669307,"lng":136.70515,"delta_lat":[0,-2055,41764],"delta_lng":[0,26746,26438]}},
    {"code":3001617,"left":1141546,"right":9952538,"id":"0dfda8","name":"田神","name_kana":"たがみ","lat":35.411261,"lng":136.772189,"prefecture":21,"lines":[30016],"attr":"eco","postal_code":"500-8152","address":"岐阜市入舟町１丁目","next":[9952512,9952509,3000159,3000160,9952610,3000158,9952510,1141602,9952609,9952511,3001616],"voronoi":{"lat":35.404332,"lng":136.777092,"delta_lat":[0,2281,4656,97014,10978,18064,-2574,-7439,-7311,-21195,-72356],"delta_lng":[0,-6425,-4541,-1000,8207,15105,2305,6003,5259,13227,-21706]}},
    {"code":1141546,"left":3000160,"right":1141902,"id":"ab7adc","name":"津幡","name_kana":"つばた","lat":36.657895,"lng":136.730759,"prefecture":17,"lines":[11419,99426],"attr":"cool","postal_code":"929-0343","address":"河北郡津幡町字南中条","next":[1141902,1141711,1141903,1141547,1141904,1141545],"voronoi":{"lat":36.661721,"lng":136.680523,"delta_lat":[0,7586,-2055,-24084,-67390,-3825],"delta_lng":[0,24626,26746,34569,16163,-2590]}},
    {"code":3000160,"left":1141601,"id":"80de5b","name":"名鉄岐阜","name_kana":"めいてつぎふ","lat":35.411136,"lng":136.760066,"prefecture":21,"lines":[30001,30016],"attr":"eco","postal_code":"500-8833","address":"岐阜市神田町９丁目","next":[3001617,9952608,9952609,3000159,1141601],"voronoi":{"lat":35.467626,"lng":136.732418,"delta_lat":[0,6632,34026,-97014,-5684],"delta_lng":[0,3798,28910,1000,-5692]}},
    {"code":1141601,"id":"b0ddaa","name":"岐阜","name_kana":"ぎふ","lat":35.409532,"lng":136.756514,"prefecture":21,"lines":[11416,11502,11503],"attr":"heat","postal_code":"500-8856","address":"岐阜市橋本町１丁目","next":[3000157,1150302,3000159,9952608,3002003,3000160,3002002],"voronoi":{"lat":35.395005,"lng":136.755604,"delta_lat":[0,10581,62040,-1781,-76426,-573,69],"delta_lng":[0,4830,-28016,-1095,11238,1510,1992]}},
    {"code":1141902,"id":"6793a4","name":"中津幡","name_kana":"なかつばた","lat":36.67156,"lng":136.740279,"prefecture":17,"lines":[11419],"attr":"cool","postal_code":"929-0323","address":"河北郡津幡町字津幡","next":[1141904,1141546,1141903,1141547],"voronoi":{"lat":36.667252,"lng":136.731895,"delta_lat":[0,41764,6440,-72288],"delta_lng":[0,26438,6822,1309]}},
    {"code":9952538,"left":9952537,"right":1141547,"id":"73aeb6","name":"北濃","name_kana":"ほくのう","lat":35.92994,"lng":136.829793,"prefecture":21,"lines":[99525],"attr":"heat","postal_code":"501-5102","address":"郡上市白鳥町歩岐島字中河原","next":[1141631,1142121,9952537,1141625,9952536,1141632,1142123,9941616],"voronoi":{"lat":36.130957,"lng":136.95073,"delta_lat":[0,-62585,-7525,-132373,-24219,132068,165606,26984],"delta_lng":[0,65504,2854,-173261,-98242,-19967,26746,68415]}},
    {"code":9952537,"id":"ad5109","name":"白山長滝","name_kana":"はくさんながたき","lat":35.919722,"lng":136.832312,"prefecture":21,"lines":[99525],"attr":"heat","postal_code":"501-5104","address":"郡上市白鳥町長滝字大門","next":[9952538,9952534,1142123,9952536],"voronoi":{"lat":35.87604,"lng":136.811063,"delta_lat":[0,-30353,58568,24219],"delta_lng":[0,-58255,-5222,98242]}},
    {"code":1141547,"id":"bcdcf0","name":"倶利伽羅","name_kana":"くりから","lat":36.672489,"lng":136.791605,"prefecture":17,"lines":[99425,99426],"attr":"cool","postal_code":"929-0416","address":"河北郡津幡町字刈安","next":[1141548,1141908,1141546,1141711,1141904,1141907,1141902,1141906],"voronoi":{"lat":36.743177,"lng":136.794885,"delta_lat":[0,12082,-144596,-34884,67390,72288,7725,5901],"delta_lng":[0,33844,6,-46107,-16163,-1309,2227,5939]}},
    {"code":1141911,"left":1141909,"right":1141913,"id":"4b8349","name":"南羽咋","name_kana":"みなみはくい","lat":36.870324,"lng":136.774631,"prefecture":17,"lines":[11419],"attr":"eco","postal_code":"925-0044","address":"羽咋市新保町","next":[1141907,1141912,1141914,1141909,1141908,1141910],"voronoi":{"lat":36.855082,"lng":136.866957,"delta_lat":[0,228137,-175709,-31582,-12471,-9216],"delta_lng":[0,-701349,390417,87002,50732,174201]}},
    {"code":1141909,"left":1141908,"right":1141910,"id":"60750c","name":"宝達","name_kana":"ほうだつ","lat":36.819875,"lng":136.762229,"prefecture":17,"lines":[11419],"attr":"cool","postal_code":"929-1343","address":"羽咋郡宝達志水町小川","next":[1141910,1141908,1141548,1141911,1141549],"voronoi":{"lat":36.77411,"lng":136.853762,"delta_lat":[0,-14169,115986,-12471,-68978],"delta_lng":[0,-20151,-190584,50732,173390]}},
    {"code":1141908,"left":1141907,"id":"cf689b","name":"免田","name_kana":"めんでん","lat":36.795806,"lng":136.747581,"prefecture":17,"lines":[11419],"attr":"cool","postal_code":"929-1333","address":"羽咋郡宝達志水町免田","next":[1141547,1141548,1141909,1141911,1141907],"voronoi":{"lat":36.755259,"lng":136.828729,"delta_lat":[0,4683,115986,31582,-164333],"delta_lng":[0,4882,-190584,-87002,238860]}},
    {"code":1141907,"id":"ce26c1","name":"高松(石川)","name_kana":"たかまつ","lat":36.768541,"lng":136.728823,"prefecture":17,"lines":[11419],"attr":"cool","postal_code":"929-1214","address":"かほく市内高松","next":[1141911,1141906,1141908,1141547,1141912],"voronoi":{"lat":36.90751,"lng":136.556024,"delta_lat":[0,-164333,-14094,366328,-12192],"delta_lng":[0,238860,-21563,-636462,28748]}},
    {"code":1141910,"id":"d27ea5","name":"敷浪","name_kana":"しきなみ","lat":36.848094,"lng":136.773455,"prefecture":17,"lines":[11419],"attr":"cool","postal_code":"929-1415","address":"羽咋郡宝達志水町敷浪","next":[1141909,1141808,1141549,1141914,1141911],"voronoi":{"lat":36.863456,"lng":136.693759,"delta_lat":[0,-68978,17244,33267,9251],"delta_lng":[0,173390,15204,-276,-14117]}},
    {"code":1141913,"left":1141912,"right":1141914,"id":"d0b30b","name":"千路","name_kana":"ちじ","lat":36.928139,"lng":136.801195,"prefecture":17,"lines":[11419],"attr":"eco","postal_code":"925-0012","address":"羽咋市千路町","next":[1141914,9941803,9941804,1141912],"voronoi":{"lat":37.145302,"lng":136.387576,"delta_lat":[0,-78726,-44726,-137240],"delta_lng":[0,273323,119881,60173]}},
    {"code":1141912,"id":"b90b3a","name":"羽咋","name_kana":"はくい","lat":36.897073,"lng":136.783332,"prefecture":17,"lines":[11419],"attr":"eco","postal_code":"925-0033","address":"羽咋市川原町","next":[9941804,9941712,1141537,1141911,1141913,1141914,1141906,1141907],"voronoi":{"lat":37.09541,"lng":136.13686,"delta_lat":[0,24761,107463,148217,-230550,-260692,-29528,228137],"delta_lng":[0,-55619,-189977,-202185,698498,453377,26003,-701349]}},
    {"code":1141914,"id":"2ed588","name":"金丸","name_kana":"かねまる","lat":36.943344,"lng":136.835874,"prefecture":17,"lines":[11419],"attr":"eco","postal_code":"929-1521","address":"鹿島郡中能登町金丸","next":[9941803,1141808,1141913,1141915,1141911,1141910,1141912],"voronoi":{"lat":36.884609,"lng":136.840953,"delta_lat":[0,137240,-6170,-147126,-23564,9251,841],"delta_lng":[0,-60173,38633,76891,-14228,-14117,-1003]}},
    {"code":1141710,"left":1141711,"right":9941805,"id":"6a0e15","name":"東石黒","name_kana":"ひがしいしぐろ","lat":36.57605,"lng":136.898166,"prefecture":16,"lines":[11417],"attr":"eco","postal_code":"939-1543","address":"南砺市下吉江","next":[1141712,1141709,1141711,1141713,1141548],"voronoi":{"lat":36.612662,"lng":136.847357,"delta_lat":[0,-56931,-5537,558,75724],"delta_lng":[0,50958,19524,8588,-37834]}},
    {"code":1141711,"left":9952534,"right":9952531,"id":"150a6e","name":"福光","name_kana":"ふくみつ","lat":36.558121,"lng":136.878135,"prefecture":16,"lines":[11417],"attr":"eco","postal_code":"939-1732","address":"南砺市荒木","next":[9941601,1141548,1141546,1141544,1141545,1141547,1141710,1141712],"voronoi":{"lat":36.612662,"lng":136.847357,"delta_lat":[0,-1999,-34884,-3825,-58178,-7255,-15840,65050],"delta_lng":[0,-18622,-46107,-2590,-16660,-1238,295,135880]}},
    {"code":9952534,"left":9952532,"right":9952535,"id":"456a70","name":"大島(岐阜)","name_kana":"おおしま","lat":35.868426,"lng":136.859039,"prefecture":21,"lines":[99525],"attr":"heat","postal_code":"501-5124","address":"郡上市白鳥町大島字蒲会津","next":[1142123,9952533,9952537,9952536,9952535],"voronoi":{"lat":35.782865,"lng":136.741341,"delta_lat":[0,62821,30353,4171,-5855],"delta_lng":[0,11467,58255,11511,61882]}},
    {"code":9952532,"left":9952533,"id":"f5a6a3","name":"上万場","name_kana":"かみまんば","lat":35.844429,"lng":136.876707,"prefecture":21,"lines":[99525],"attr":"heat","postal_code":"501-4611","address":"郡上市大和町万場字杵棚","next":[9952531,9952535,1141620,9952533],"voronoi":{"lat":35.805416,"lng":136.823376,"delta_lat":[0,123195,310,-48804],"delta_lng":[0,206940,-63,-122782]}},
    {"code":9952533,"id":"a26c12","name":"大中","name_kana":"おおなか","lat":35.853775,"lng":136.868405,"prefecture":21,"lines":[99525],"attr":"heat","postal_code":"501-5124","address":"郡上市白鳥町大島字芝添","next":[9952534,9952535,9952619,1142123,9952532,9952531],"voronoi":{"lat":35.74537,"lng":136.741317,"delta_lat":[0,8251,29244,91490,5761,-74701],"delta_lng":[0,-7142,7166,143115,23015,-84095]}},
    {"code":9952535,"id":"6f0fe7","name":"美濃白鳥","name_kana":"みのしろとり","lat":35.884946,"lng":136.860602,"prefecture":21,"lines":[99525],"attr":"heat","postal_code":"501-5121","address":"郡上市白鳥町白鳥字大栗","next":[9952536,9952532,9952533,1141620,9952534],"voronoi":{"lat":35.88021,"lng":136.822573,"delta_lat":[0,128119,-79409,-48804,-5761],"delta_lng":[0,201729,5950,-122782,-23015]}},
    {"code":9952531,"left":9952530,"right":1141712,"id":"68dd29","name":"万場","name_kana":"まんば","lat":35.833702,"lng":136.883093,"prefecture":21,"lines":[99525],"attr":"heat","postal_code":"501-4611","address":"郡上市大和町万場字会津","next":[9952532,9952530,9952619,9952529,1141620,9952533],"voronoi":{"lat":35.928611,"lng":137.030315,"delta_lat":[0,-9645,-27145,-156655,10205,60045],"delta_lng":[0,2310,-37977,-245749,-7583,82059]}},
    {"code":9952530,"id":"f0fbe3","name":"郡上大和","name_kana":"ぐじょうやまと","lat":35.815224,"lng":136.894872,"prefecture":21,"lines":[99525],"attr":"heat","postal_code":"501-4612","address":"郡上市大和町剣字小倉","next":[9952619,9952531,9952529,9952528],"voronoi":{"lat":35.891821,"lng":136.994649,"delta_lat":[0,-156655,-22758,55025],"delta_lng":[0,-245749,14688,85692]}},
    {"code":1141712,"id":"e4b809","name":"越中山田","name_kana":"えっちゅうやまだ","lat":36.538513,"lng":136.887522,"prefecture":16,"lines":[11417],"attr":"eco","postal_code":"939-1734","address":"南砺市竹林","next":[1141710,1141713,9941616,9941601,1141711],"voronoi":{"lat":36.550194,"lng":136.917839,"delta_lat":[0,-120609,47674,13422,65050],"delta_lng":[0,-140639,-15608,843,135880]}},
    {"code":9941805,"left":9941803,"right":9941802,"id":"b81c10","name":"西岸","name_kana":"にしぎし","lat":37.147604,"lng":136.87443,"prefecture":17,"lines":[99418],"attr":"eco","postal_code":"929-2213","address":"七尾市中島町外","next":[9941802,9941804,1141920,9941806,9941807],"voronoi":{"lat":37.34648,"lng":136.4665,"delta_lat":[0,-236738,93,22088,83991],"delta_lng":[0,431361,457,31312,-115045]}},
    {"code":9941803,"left":1141915,"right":9941804,"id":"18379a","name":"笠師保","name_kana":"かさしほ","lat":37.079288,"lng":136.857587,"prefecture":17,"lines":[99418],"attr":"cool","postal_code":"929-2234","address":"七尾市中島町塩津","next":[1141914,9941804,1141913,9941802,1141915,1141916],"voronoi":{"lat":37.098408,"lng":136.884849,"delta_lat":[0,-31832,-44726,-6170,3120,854],"delta_lng":[0,-223950,119881,38633,31272,2365]}},
    {"code":1141915,"left":1141548,"id":"d2aea6","name":"能登部","name_kana":"のとべ","lat":36.960867,"lng":136.869403,"prefecture":17,"lines":[11419],"attr":"heat","postal_code":"929-1603","address":"鹿島郡中能登町徳丸","next":[1141808,1141914,9941803,1141916],"voronoi":{"lat":37.018799,"lng":136.850685,"delta_lat":[0,-3120,-147126,31436],"delta_lng":[0,-31272,76891,28775]}},
    {"code":1141548,"id":"88b3dc","name":"石動","name_kana":"いするぎ","lat":36.672492,"lng":136.865859,"prefecture":16,"lines":[99425],"attr":"heat","postal_code":"932-0053","address":"小矢部市石動町","next":[1141547,1141711,1141908,1141709,1141707,1141549,1141708,1141909,1141710,1141706],"voronoi":{"lat":36.77411,"lng":136.853762,"delta_lat":[0,-14169,-4683,-144596,1999,13814,67,11503,12448,13010],"delta_lng":[0,-20151,-4882,6,18622,41236,99,10788,8645,5345]}},
    {"code":9941804,"id":"c9556d","name":"能登中島","name_kana":"のとなかじま","lat":37.109174,"lng":136.853339,"prefecture":17,"lines":[99418],"attr":"cool","postal_code":"929-2241","address":"七尾市中島町浜田","next":[1141912,9941805,9941803,9941802,1141537,9942021,9941807,1141913],"voronoi":{"lat":37.098408,"lng":136.884849,"delta_lat":[0,11335,236738,764030,-550157,-184502,-230550,-78726],"delta_lng":[0,13011,-431361,-1771567,685612,308534,698498,273323]}},
    {"code":9941802,"left":1141916,"right":9941806,"id":"7c8d5a","name":"田鶴浜","name_kana":"たつるはま","lat":37.065719,"lng":136.891193,"prefecture":17,"lines":[99418],"attr":"cool","postal_code":"929-2121","address":"七尾市田鶴浜町","next":[9941805,9941804,9941803,1141920,1141916,1141918],"voronoi":{"lat":37.020982,"lng":136.887493,"delta_lat":[0,-1328,78754,11335,93,-69556],"delta_lng":[0,-34443,31799,13011,457,17933]}},
    {"code":1141916,"id":"40112c","name":"良川","name_kana":"よしかわ","lat":36.976662,"lng":136.894628,"prefecture":17,"lines":[11419],"attr":"heat","postal_code":"929-1717","address":"鹿島郡中能登町良川","next":[1141918,1141808,9941803,9941802,1141915,1141917],"voronoi":{"lat":36.899989,"lng":136.92508,"delta_lat":[0,118810,854,1328,-8098,-107006],"delta_lng":[0,-74394,2365,34443,6989,38372]}},
    {"code":9941806,"id":"063609","name":"能登鹿島","name_kana":"のとかしま","lat":37.179723,"lng":136.897879,"prefecture":17,"lines":[99418],"attr":"eco","postal_code":"927-0039","address":"鳳珠郡穴水町曽福","next":[9941805,1141919,9941807,1141920],"voronoi":{"lat":37.179787,"lng":137.074476,"delta_lat":[0,36127,-83991,27183],"delta_lng":[0,-259892,115045,101976]}},
    {"code":9952515,"left":3001809,"right":9952525,"id":"bac147","name":"洲原","name_kana":"すはら","lat":35.588954,"lng":136.944848,"prefecture":21,"lines":[99525],"attr":"eco","postal_code":"501-3706","address":"美濃市須原字鐘寿場","next":[9952516,9952504,9952519,9952514,1141610,1141611],"voronoi":{"lat":35.549678,"lng":137.014815,"delta_lat":[0,-6232,-4091,49610,14712,-9146],"delta_lng":[0,-5276,-18767,-64203,50765,60798]}},
    {"code":3001809,"left":9952506,"right":3001519,"id":"f6105c","name":"小牧原","name_kana":"こまきはら","lat":35.300145,"lng":136.935836,"prefecture":23,"lines":[30018],"attr":"heat","postal_code":"485-0012","address":"小牧市小牧原新田字南原","next":[3001810,3001514,3001806,3001808,1141108],"voronoi":{"lat":35.279924,"lng":136.970115,"delta_lat":[0,3430,29153,5026,-31745],"delta_lng":[0,-21131,-43463,6296,65055]}},
    {"code":9952506,"left":3001603,"right":9952511,"id":"190f48","name":"関口","name_kana":"せきぐち","lat":35.479976,"lng":136.928872,"prefecture":21,"lines":[99525],"attr":"cool","postal_code":"501-3826","address":"関市関口町１丁目","next":[9952509,3001602,3001604,3001603,9952505,9952507,9952508,9952510],"voronoi":{"lat":35.440125,"lng":136.933511,"delta_lat":[0,-105,535,2817,45482,5617,8977,725],"delta_lng":[0,-2262,-5737,-13011,10716,3504,10620,1708]}},
    {"code":3001603,"left":3001604,"right":3001516,"id":"713ee1","name":"羽場(岐阜)","name_kana":"はば","lat":35.40119,"lng":136.921535,"prefecture":21,"lines":[30016],"attr":"cool","postal_code":"509-0135","address":"各務原市鵜沼羽場町６丁目","next":[3001602,3001604,9952506,3001516],"voronoi":{"lat":35.44002,"lng":136.931249,"delta_lat":[0,535,-57963,1662],"delta_lng":[0,-5737,-13026,12823]}},
    {"code":3001604,"left":3001515,"right":1141605,"id":"4d8488","name":"苧ヶ瀬","name_kana":"おがせ","lat":35.403273,"lng":136.912266,"prefecture":21,"lines":[30016],"attr":"cool","postal_code":"509-0141","address":"岐阜県各務原市鵜沼各務原町五丁目250","next":[1141605,3001516,9952506,3001605,3001603,9952507],"voronoi":{"lat":35.440554,"lng":136.925513,"delta_lat":[0,-57963,-1657,21690,40840,-93],"delta_lng":[0,-13026,-4394,-1451,1973,3887]}},
    {"code":3001515,"left":3001605,"id":"7e7f21","name":"扶桑","name_kana":"ふそう","lat":35.359557,"lng":136.91597,"prefecture":23,"lines":[30015],"attr":"heat","postal_code":"480-0102","address":"丹羽郡扶桑町大字高雄字下山","next":[3001606,3001514,3001605,3001516,3001813,3001811,3001812],"voronoi":{"lat":35.334964,"lng":136.924461,"delta_lat":[0,-123,36680,6546,2806,-33286,-4306],"delta_lng":[0,-187,-34266,9953,8045,24471,-948]}},
    {"code":3001605,"id":"1f8551","name":"名電各務原","name_kana":"めいでんかかみがはら","lat":35.402518,"lng":136.900981,"prefecture":21,"lines":[30016],"attr":"heat","postal_code":"509-0141","address":"各務原市鵜沼各務原町２丁目","next":[3001515,3001604,1141605,3001516,3001606],"voronoi":{"lat":35.380874,"lng":136.908006,"delta_lat":[0,61,21690,1160,-25717],"delta_lng":[0,86,-1451,-12011,5331]}},
    {"code":1141605,"id":"5ebd9e","name":"各務ヶ原","name_kana":"かがみがはら","lat":35.403812,"lng":136.901106,"prefecture":21,"lines":[11416],"attr":"cool","postal_code":"509-0141","address":"岐阜県各務原市鵜沼各務原町一丁目243","next":[3001604,3001606,9952507,3001605,1141604],"voronoi":{"lat":35.403784,"lng":136.894631,"delta_lat":[0,-1160,40840,3830,-14957],"delta_lng":[0,12011,1973,-23297,325]}},
    {"code":3001516,"left":3001808,"right":3001602,"id":"6b6030","name":"木津用水","name_kana":"こつようすい","lat":35.366914,"lng":136.925977,"prefecture":23,"lines":[30015],"attr":"eco","postal_code":"480-0102","address":"丹羽郡扶桑町大字高雄字米の山","next":[3001517,3001813,3001515,3001604,3001602,3001603,3001605],"voronoi":{"lat":35.382592,"lng":136.912487,"delta_lat":[0,1662,-111,-25236,-11319,33286,61],"delta_lng":[0,12823,556,13186,-6574,-24471,86]}},
    {"code":3001808,"id":"15ac6b","name":"小牧","name_kana":"こまき","lat":35.28915,"lng":136.928461,"prefecture":23,"lines":[30018],"attr":"heat","postal_code":"485-0029","address":"小牧市中央１丁目","next":[3001511,3001510,3001809,3001514,3001807,3001512,3001806],"voronoi":{"lat":35.283275,"lng":136.948478,"delta_lat":[0,5126,2029,13432,8595,50,-29153],"delta_lng":[0,-48476,-413,1499,4336,98,43463]}},
    {"code":3001602,"id":"9b2fcc","name":"鵜沼宿","name_kana":"うぬまじゅく","lat":35.400015,"lng":136.932567,"prefecture":21,"lines":[30016],"attr":"cool","postal_code":"509-0132","address":"各務原市鵜沼西町４丁目","next":[3001603,1141607,3001519,9952506,3001517,3001520,3001516,1141606,9952505,3001518],"voronoi":{"lat":35.386291,"lng":136.933379,"delta_lat":[0,-2148,111,55766,105,-900,-8389,-29465,-11607,-3076],"delta_lng":[0,-7513,-556,5940,2262,5722,4989,-4971,-3177,-2080]}},
    {"code":9952511,"left":9952509,"right":9952513,"id":"45a7d2","name":"松森","name_kana":"まつもり","lat":35.526808,"lng":136.915367,"prefecture":21,"lines":[99525],"attr":"eco","postal_code":"501-3753","address":"美濃市松森字八幡前","next":[9952510,9952512,9952504,9952505,3001617,9952513],"voronoi":{"lat":35.532659,"lng":136.960371,"delta_lat":[0,2093,-7439,-9455,5442,8037],"delta_lng":[0,-169628,6003,158131,8878,7648]}},
    {"code":9952509,"left":9952507,"right":9952510,"id":"f410bf","name":"関市役所前","name_kana":"せきしやくしょまえ","lat":35.499004,"lng":136.912787,"prefecture":21,"lines":[99525],"attr":"eco","postal_code":"501-3217","address":"関市下有知字境松東","next":[9952508,9952510,1141602,3001617,9952506],"voronoi":{"lat":35.520002,"lng":136.802005,"delta_lat":[0,-21195,-3987,-349,8977],"delta_lng":[0,13227,3521,107968,10620]}},
    {"code":9952507,"left":9952508,"id":"2207ad","name":"刃物会館前","name_kana":"はものかいかんまえ","lat":35.483434,"lng":136.914195,"prefecture":21,"lines":[99525],"attr":"cool","postal_code":"501-3873","address":"関市日ノ出町字古町","next":[9952508,1141604,1141605,3001604,9952506,3001609],"voronoi":{"lat":35.471661,"lng":136.844336,"delta_lat":[0,17193,-45482,93,3830,17016],"delta_lng":[0,78882,-10716,-3887,-23297,-31942]}},
    {"code":9952508,"id":"295045","name":"関(岐阜)","name_kana":"せき","lat":35.490027,"lng":136.912758,"prefecture":21,"lines":[99525],"attr":"cool","postal_code":"501-3881","address":"関市元重町","next":[9952509,9952507,1141603,3001610,1141602,9952506,3001609],"voronoi":{"lat":35.474667,"lng":136.840255,"delta_lat":[0,1595,12953,5604,-349,-5617,-17193],"delta_lng":[0,-2013,-14997,-4492,107968,-3504,-78882]}},
    {"code":9952510,"id":"b05c50","name":"関下有知","name_kana":"せきしもうち","lat":35.513679,"lng":136.914582,"prefecture":21,"lines":[99525],"attr":"eco","postal_code":"501-3217","address":"関市下有知走り下り","next":[9952511,9952509,3001617,9952505,9952506],"voronoi":{"lat":35.503448,"lng":136.937341,"delta_lat":[0,16554,7311,-9455,-13685],"delta_lng":[0,-135336,-5259,158131,-15828]}},
    {"code":9952513,"left":9952512,"right":9952514,"id":"b310ad","name":"梅山","name_kana":"うめやま","lat":35.548981,"lng":136.918025,"prefecture":21,"lines":[99525],"attr":"eco","postal_code":"501-3700","address":"美濃市藤岡","next":[9952616,9952610,9952512,9952614,9952615,9952514,9952504,9952517,9952511],"voronoi":{"lat":35.532659,"lng":136.960371,"delta_lat":[0,47791,5593,32521,1708,9420,-22073,-75651,-631],"delta_lng":[0,-178985,-1115,719,102,1096,61994,128124,-903]}},
    {"code":9952512,"id":"96c3e6","name":"美濃市","name_kana":"みのし","lat":35.539618,"lng":136.915525,"prefecture":21,"lines":[99525],"attr":"eco","postal_code":"501-3732","address":"美濃市広岡町","next":[3001617,9952511,9952513,9952610],"voronoi":{"lat":35.534751,"lng":136.790744,"delta_lat":[0,-2093,47791,-43124],"delta_lng":[0,169628,-178985,7052]}},
    {"code":9952514,"id":"f9b323","name":"湯の洞温泉口","name_kana":"ゆのほらおんせんぐち","lat":35.571281,"lng":136.931192,"prefecture":21,"lines":[99525],"attr":"eco","postal_code":"501-3704","address":"美濃市保木脇字神明下","next":[9952513,9952516,9952517,9952515,9952504],"voronoi":{"lat":35.588966,"lng":136.926569,"delta_lat":[0,3341,15312,-75651,7388],"delta_lng":[0,-8484,-73902,128124,18465]}},
    {"code":3001519,"left":3001812,"right":1141607,"id":"603736","name":"犬山遊園","name_kana":"いぬやまゆうえん","lat":35.390331,"lng":136.946894,"prefecture":23,"lines":[30015],"attr":"eco","postal_code":"484-0081","address":"犬山市大字犬山字端泉寺","next":[3001520,3001703,3001518,3001602,3001702,1141606],"voronoi":{"lat":35.397705,"lng":136.963596,"delta_lat":[0,-13605,2587,3076,4902,3570],"delta_lng":[0,-9676,-19926,2080,12289,15242]}},
    {"code":3001812,"left":3001517,"right":3001702,"id":"f3d412","name":"楽田","name_kana":"がくでん","lat":35.330548,"lng":136.950101,"prefecture":23,"lines":[30018],"attr":"eco","postal_code":"484-0861","address":"犬山市若宮１２６-２","next":[3001703,1141109,3001813,3001811,1141110,3001515],"voronoi":{"lat":35.333465,"lng":137.017841,"delta_lat":[0,-1697,-12116,-17329,32641,8317],"delta_lng":[0,3356,-8565,-21497,-66673,7068]}},
    {"code":3001517,"left":3001811,"right":3001518,"id":"fcf795","name":"犬山口","name_kana":"いぬやまぐち","lat":35.374212,"lng":136.939945,"prefecture":23,"lines":[30015],"attr":"eco","postal_code":"484-0081","address":"犬山市大字犬山字末友","next":[3001516,3001813,3001602,3001518],"voronoi":{"lat":35.386291,"lng":136.933379,"delta_lat":[0,-2148,-25236,7813],"delta_lng":[0,-7513,13186,14137]}},
    {"code":3001811,"left":3001810,"id":"ba4337","name":"田県神社前","name_kana":"たがたじんじゃまえ","lat":35.317422,"lng":136.943675,"prefecture":23,"lines":[30018],"attr":"heat","postal_code":"485-0003","address":"小牧市久保一色字佃１０５２-２","next":[3001514,3001810,3001812,3001515,1141109],"voronoi":{"lat":35.295554,"lng":136.98489,"delta_lat":[0,28088,11200,123,-32641],"delta_lng":[0,-67666,7051,187,66673]}},
    {"code":3001810,"id":"226bd8","name":"味岡","name_kana":"あじおか","lat":35.309301,"lng":136.940304,"prefecture":23,"lines":[30018],"attr":"heat","postal_code":"485-0011","address":"小牧市岩崎１４３","next":[3001809,1141108,3001811,3001514,1141109],"voronoi":{"lat":35.323642,"lng":136.917223,"delta_lat":[0,-6108,-31745,821,8944],"delta_lng":[0,-5406,65055,1208,6809]}},
    {"code":3001518,"id":"65b458","name":"犬山","name_kana":"いぬやま","lat":35.379871,"lng":136.945536,"prefecture":23,"lines":[30015,30017,30018],"attr":"eco","postal_code":"484-0081","address":"犬山市大字犬山字富士見町","next":[3001519,3001517,3001602,3001813,3001702],"voronoi":{"lat":35.366806,"lng":136.953542,"delta_lat":[0,-86,19571,397,-2587],"delta_lng":[0,-353,-19810,616,19926]}},
    {"code":3001702,"left":3001813,"right":3001703,"id":"f5e920","name":"富岡前","name_kana":"とみおかまえ","lat":35.379508,"lng":136.962112,"prefecture":23,"lines":[30017],"attr":"cool","postal_code":"484-0092","address":"犬山市大字富岡字株池１２７-３","next":[3001519,3001813,3001703,3001518],"voronoi":{"lat":35.397705,"lng":136.963596,"delta_lat":[0,-42760,11860,17295],"delta_lng":[0,24432,-34487,379]}},
    {"code":3001813,"id":"568071","name":"羽黒(愛知)","name_kana":"はぐろ","lat":35.351519,"lng":136.952486,"prefecture":23,"lines":[30018],"attr":"eco","postal_code":"484-0894","address":"犬山市羽黒字古市場７５-１","next":[3001517,3001516,3001703,3001702,3001812,3001515,3001518],"voronoi":{"lat":35.354945,"lng":136.988028,"delta_lat":[0,-21480,9816,4306,11319,7813,86],"delta_lng":[0,29812,-86311,948,6574,14137,353]}},
    {"code":3001703,"id":"a8b624","name":"善師野","name_kana":"ぜんじの","lat":35.389744,"lng":136.980027,"prefecture":23,"lines":[30017],"attr":"cool","postal_code":"484-0003","address":"犬山市大字善師野字真土５-２","next":[3001812,3001704,1141607,3001519,1141110,3001813,3001702,1141606,1150704],"voronoi":{"lat":35.40901,"lng":136.98956,"delta_lat":[0,-2064,-8711,-530,-42760,-21480,-1697,163,9941],"delta_lng":[0,-23919,-2035,-9,24432,29812,3356,320,836]}},
    {"code":1141607,"left":9952504,"right":9952502,"id":"4a1b55","name":"坂祝","name_kana":"さかほぎ","lat":35.426359,"lng":136.976868,"prefecture":21,"lines":[11416],"attr":"cool","postal_code":"505-0075","address":"加茂郡坂祝町取組","next":[9952502,9952504,3001703,3001602,3001704,9952503,1141606,9952505,3001705],"voronoi":{"lat":35.421368,"lng":136.997496,"delta_lat":[0,-12357,-2064,23889,8389,8568,930,-6004,-14755],"delta_lng":[0,-7937,-23919,-21418,-4989,14009,6293,25328,13939]}},
    {"code":9952504,"left":1141606,"right":9952505,"id":"380036","name":"富加","name_kana":"とみか","lat":35.475144,"lng":136.969658,"prefecture":21,"lines":[99525],"attr":"cool","postal_code":"501-3303","address":"加茂郡富加町羽生字古熊野","next":[9952511,1141607,9952515,9952513,9952505,9952503,1141610,9952514],"voronoi":{"lat":35.543447,"lng":137.009538,"delta_lat":[0,-35685,-59039,-930,75507,8037,631,7388],"delta_lng":[0,4487,-54490,-6293,10513,7648,903,18465]}},
    {"code":1141606,"left":3001520,"id":"1c318f","name":"鵜沼","name_kana":"うぬま","lat":35.397897,"lng":136.945122,"prefecture":21,"lines":[11416],"attr":"cool","postal_code":"509-0124","address":"各務原市鵜沼山崎町３丁目","next":[3001520,1141607,3001519,3001602,3001703],"voronoi":{"lat":35.430836,"lng":136.944223,"delta_lat":[0,-29465,-6705,3570,8711],"delta_lng":[0,-4971,9112,15242,2035]}},
    {"code":3001520,"id":"944974","name":"新鵜沼","name_kana":"しんうぬま","lat":35.396799,"lng":136.944314,"prefecture":21,"lines":[30015,30016],"attr":"cool","postal_code":"509-0125","address":"各務原市鵜沼南町","next":[3001519,1141606,3001602],"voronoi":{"lat":35.389764,"lng":136.936074,"delta_lat":[0,4902,6705],"delta_lng":[0,12289,-9112]}},
    {"code":9952505,"id":"6522c4","name":"関富岡","name_kana":"せきとみおか","lat":35.478588,"lng":136.944923,"prefecture":21,"lines":[99525],"attr":"cool","postal_code":"501-3911","address":"関市肥田瀬字屋敷田","next":[9952510,9952504,9952511,1141607,3001602,9952506],"voronoi":{"lat":35.517858,"lng":136.954878,"delta_lat":[0,5442,-75507,-8568,900,64048],"delta_lng":[0,8878,-10513,-14009,-5722,5538]}},
    {"code":9952502,"left":3001704,"right":9952503,"id":"4f00cc","name":"前平公園","name_kana":"まえひらこうえん","lat":35.449771,"lng":137.001652,"prefecture":21,"lines":[99525],"attr":"cool","postal_code":"505-0041","address":"美濃加茂市太田町宮前","next":[1141607,3001705,1141609,9952503,1141608],"voronoi":{"lat":35.492309,"lng":137.018211,"delta_lat":[0,-49590,-14755,4340,53079],"delta_lng":[0,-33347,13939,8168,12377]}},
    {"code":3001704,"id":"e94e5b","name":"西可児","name_kana":"にしかに","lat":35.404685,"lng":137.010616,"prefecture":21,"lines":[30017],"attr":"cool","postal_code":"509-0256","address":"可児市東帷子３３４-３","next":[3001705,3001703,1150705,1141607,1150704],"voronoi":{"lat":35.341873,"lng":137.022353,"delta_lat":[0,67138,12357,-23082,-37817],"delta_lng":[0,-32793,7937,39484,-7766]}},
    {"code":9952503,"id":"96e43b","name":"加茂野","name_kana":"かもの","lat":35.460927,"lng":136.985062,"prefecture":21,"lines":[99525],"attr":"cool","postal_code":"505-0053","address":"美濃加茂市加茂野町木野西河折","next":[1141609,1141607,9952504,9952502,1141610],"voronoi":{"lat":35.507762,"lng":137.014025,"delta_lat":[0,-59039,-6004,49590,2273],"delta_lng":[0,-54490,25328,33347,132]}},
    {"code":9952525,"left":1141713,"right":1141703,"id":"cbc950","name":"相生(岐阜)","name_kana":"あいおい","lat":35.715114,"lng":136.95042,"prefecture":21,"lines":[99525],"attr":"heat","postal_code":"501-4236","address":"郡上市八幡町相生字御花屋敷","next":[9952526,9952521,9952528,9952527,9952522,9952524],"voronoi":{"lat":35.685041,"lng":136.919101,"delta_lat":[0,-6090,-1103,36490,5822,19827],"delta_lng":[0,-71642,-58044,69650,16821,173637]}},
    {"code":1141713,"left":9952516,"right":1141918,"id":"3ca18d","name":"城端","name_kana":"じょうはな","lat":36.522012,"lng":136.901673,"prefecture":16,"lines":[11417],"attr":"eco","postal_code":"939-1852","address":"南砺市是安","next":[1141709,1141633,1141640,1141632,9941616,1141712,1141634,1141635,1141710],"voronoi":{"lat":36.516728,"lng":137.031742,"delta_lat":[0,-49533,-20297,-896,-23858,-184591,192032,120609,558],"delta_lng":[0,14518,-7422,-442,-19353,-193580,-48264,140639,8588]}},
    {"code":9952516,"left":9952528,"right":9952520,"id":"63554d","name":"母野","name_kana":"はんの","lat":35.59875,"lng":136.942009,"prefecture":21,"lines":[99525],"attr":"heat","postal_code":"501-4101","address":"郡上市美並町上田字境目","next":[9952519,9952515,9952514,9952517,9952518],"voronoi":{"lat":35.603678,"lng":136.977333,"delta_lat":[0,-14712,3341,15925,-2486],"delta_lng":[0,-50765,-8484,34367,18024]}},
    {"code":9952528,"left":9952517,"right":9952529,"id":"e3befd","name":"山田(岐阜)","name_kana":"やまだ","lat":35.789003,"lng":136.911709,"prefecture":21,"lines":[99525],"attr":"heat","postal_code":"501-4606","address":"郡上市大和町河辺字長池","next":[9952619,9952529,9952521,9952525,9952530,9952527,9952517],"voronoi":{"lat":35.677847,"lng":136.789415,"delta_lat":[0,36490,112908,-59813,-55025,-35657,1036],"delta_lng":[0,69650,108069,-117854,-85692,18545,7067]}},
    {"code":9952517,"left":9952527,"id":"7e912c","name":"木尾","name_kana":"こんの","lat":35.606394,"lng":136.938467,"prefecture":21,"lines":[99525],"attr":"heat","postal_code":"501-4101","address":"郡上市美並町上田字堀畑","next":[9952619,9952514,9952516,9952618,9952513,9952518,9952617,9952521,9952528,9952616],"voronoi":{"lat":35.636289,"lng":136.781671,"delta_lat":[0,23359,13532,3571,1036,-16985,-52570,-15925,15312,22073],"delta_lng":[0,-343,487,318,7067,51690,111562,-34367,-73902,-61994]}},
    {"code":9952527,"id":"965528","name":"自然園前","name_kana":"しぜんえんまえ","lat":35.7702,"lng":136.931354,"prefecture":21,"lines":[99525],"attr":"heat","postal_code":"501-4233","address":"郡上市八幡町瀬取字藤薮","next":[1141620,9952526,9952525,1141619,9952529,9952528],"voronoi":{"lat":35.888086,"lng":137.043462,"delta_lat":[0,-32626,-25707,-109594,-5822,112908],"delta_lng":[0,16780,9525,-193882,-16821,108069]}},
    {"code":9952529,"id":"ee690e","name":"徳永","name_kana":"とくなが","lat":35.805087,"lng":136.903546,"prefecture":21,"lines":[99525],"attr":"heat","postal_code":"501-4607","address":"郡上市大和町徳永字ノゾエ","next":[9952528,9952530,9952531,1141620,9952527],"voronoi":{"lat":35.918966,"lng":137.032626,"delta_lat":[0,-27145,-124388,59813,60841],"delta_lng":[0,-37977,-145369,117854,76329]}},
    {"code":9952520,"left":9952518,"right":9952526,"id":"9b0476","name":"大矢","name_kana":"おおや","lat":35.637327,"lng":136.95024,"prefecture":21,"lines":[99525],"attr":"heat","postal_code":"501-4107","address":"郡上市美並町大原字湊","next":[9952521,9952518,9952519],"voronoi":{"lat":35.631834,"lng":136.937602,"delta_lat":[0,25192,-22815],"delta_lng":[0,-81877,144889]}},
    {"code":9952518,"id":"c1af83","name":"八坂(岐阜)","name_kana":"やさか","lat":35.620186,"lng":136.944966,"prefecture":21,"lines":[99525],"attr":"heat","postal_code":"501-4101","address":"郡上市美並町上田字髭畑","next":[9952519,9952517,9952520,9952516,9952521],"voronoi":{"lat":35.631834,"lng":136.937602,"delta_lat":[0,-26088,2486,52570,-3776],"delta_lng":[0,32873,-18024,-111562,14836]}},
    {"code":9952526,"id":"e3b65d","name":"郡上八幡","name_kana":"ぐじょうはちまん","lat":35.741877,"lng":136.947364,"prefecture":21,"lines":[99525],"attr":"heat","postal_code":"501-4224","address":"郡上市八幡町城南町字中島","next":[1141615,1141616,1141619,9952525,9952527,9952524],"voronoi":{"lat":35.754672,"lng":137.075212,"delta_lat":[0,56915,18167,-109594,19827,6158],"delta_lng":[0,3625,-9069,-193882,173637,22555]}},
    {"code":1141918,"left":1141920,"right":1141707,"id":"74397a","name":"徳田(石川)","name_kana":"とくだ","lat":37.007449,"lng":136.930295,"prefecture":17,"lines":[11419],"attr":"heat","postal_code":"926-0824","address":"七尾市下町","next":[1141916,1141919,1141917,1141920,9941802,1141808],"voronoi":{"lat":37.041229,"lng":136.930721,"delta_lat":[0,-949,-19298,-8098,-65502,4194],"delta_lng":[0,-14470,-28757,6989,114830,10951]}},
    {"code":1141920,"left":1141709,"right":9941807,"id":"75f595","name":"和倉温泉","name_kana":"わくらおんせん","lat":37.074663,"lng":136.925884,"prefecture":17,"lines":[11419,99418],"attr":"heat","postal_code":"926-0171","address":"七尾市石崎町","next":[9941805,9941802,1141918,9941806,1141919],"voronoi":{"lat":37.041229,"lng":136.930721,"delta_lat":[0,-949,69556,22088,27183],"delta_lng":[0,-14470,-17933,31312,101976]}},
    {"code":1141709,"left":1141917,"id":"056c5a","name":"福野(富山)","name_kana":"ふくの","lat":36.588541,"lng":136.923166,"prefecture":16,"lines":[11417],"attr":"eco","postal_code":"939-1571","address":"南砺市松原新","next":[1141640,1141713,1141548,1141710,1141708],"voronoi":{"lat":36.516728,"lng":137.031742,"delta_lat":[0,34024,75724,67,-101092],"delta_lng":[0,-105316,-37834,99,142935]}},
    {"code":1141917,"id":"210fd7","name":"能登二宮","name_kana":"のとにのみや","lat":36.984824,"lng":136.917389,"prefecture":17,"lines":[11419],"attr":"heat","postal_code":"929-1811","address":"鹿島郡中能登町二宮","next":[1141808,1141918,1141916],"voronoi":{"lat":36.947382,"lng":137.009312,"delta_lat":[0,65502,-107006],"delta_lng":[0,-114830,38372]}},
    {"code":9941807,"id":"1cba7e","name":"穴水","name_kana":"あなみず","lat":37.228015,"lng":136.904592,"prefecture":17,"lines":[99418],"attr":"eco","postal_code":"927-0026","address":"鳳珠郡穴水町大町","next":[1121509,1140515,1120419,100909,1140514,1170516,1161610,1140509,1140510,1161609,1140518,1140512,1140824,1141919,9941806,1140521,1140825,1110204,1140823,9941804,9941805,1111901,9942021],"voronoi":{"lat":38.243948,"lng":134.519047,"delta_lat":[0,753793,644245,4830541,-421577,-1637351,-2098371,-458282,-749882,-460799,-29662,-625682,-13467,-40655,-42524,-146220,-283802,-71331,-150379,-62755,36127,130566,764030],"delta_lng":[0,-510087,-433405,-2208104,674500,2351234,2396267,413528,232574,140911,8705,-38011,-2004,-7836,-9809,-38804,-103808,-34407,-80758,-195257,-259892,-348085,-1771567]}},
    {"code":1141707,"left":1141708,"right":1141549,"id":"986778","name":"東野尻","name_kana":"ひがしのじり","lat":36.618573,"lng":136.9435,"prefecture":16,"lines":[11417],"attr":"eco","postal_code":"939-1333","address":"砺波市苗加","next":[1141708,1141548,1141706,1141640],"voronoi":{"lat":36.650493,"lng":136.908125,"delta_lat":[0,-12448,-84708,23856],"delta_lng":[0,-8645,134257,3327]}},
    {"code":1141708,"id":"68b44c","name":"高儀","name_kana":"たかぎ","lat":36.606697,"lng":136.936007,"prefecture":16,"lines":[11417],"attr":"eco","postal_code":"939-1504","address":"南砺市川除新","next":[1141640,1141707,1141548,1141709],"voronoi":{"lat":36.553338,"lng":137.033736,"delta_lat":[0,84708,-11503,-101092],"delta_lng":[0,-134257,-10788,142935]}},
    {"code":1141549,"id":"bb514c","name":"福岡","name_kana":"ふくおか","lat":36.708239,"lng":136.932079,"prefecture":16,"lines":[99425],"attr":"heat","postal_code":"939-0116","address":"高岡市福岡町下蓑","next":[1141808,1141704,1141706,1141548,1141705,1141910,1141909,1141550],"voronoi":{"lat":36.681708,"lng":136.951263,"delta_lat":[0,-11749,-6456,110607,20368,17244,-10430,-104631],"delta_lng":[0,-16296,-21497,-59708,13387,15204,25235,50577]}},
    {"code":1141703,"left":9952523,"right":1141702,"id":"feafd7","name":"林(富山)","name_kana":"はやし","lat":36.704504,"lng":136.999379,"prefecture":16,"lines":[11417],"attr":"heat","postal_code":"933-0817","address":"高岡市東藤平蔵","next":[1141704,1141641,1141552,1141553,1141550,1141702,1141556],"voronoi":{"lat":36.717918,"lng":136.98438,"delta_lat":[0,-12409,-58827,5478,16500,8778,41789],"delta_lng":[0,-7205,76687,2875,-2905,-4552,-60780]}},
    {"code":9952523,"left":9952522,"right":1141705,"id":"116c11","name":"赤池(岐阜)","name_kana":"あかいけ","lat":35.671021,"lng":136.960613,"prefecture":21,"lines":[99525],"attr":"heat","postal_code":"501-4103","address":"郡上市美並町山田","next":[9952522,1141612,9952519,9952521,1141615,9952524],"voronoi":{"lat":35.683103,"lng":136.925802,"delta_lat":[0,-40940,-9492,-6475,5964,34241],"delta_lng":[0,76018,25930,28323,4897,1496]}},
    {"code":9952522,"left":9952521,"right":1141706,"id":"9f2645","name":"美並苅安","name_kana":"みなみかりやす","lat":35.660686,"lng":136.955047,"prefecture":21,"lines":[99525],"attr":"heat","postal_code":"501-4106","address":"郡上市美並町白山字桑下","next":[9952524,9952523,9952521,9952525],"voronoi":{"lat":35.683103,"lng":136.925802,"delta_lat":[0,-40940,36788,6090],"delta_lng":[0,76018,-154361,71642]}},
    {"code":9952521,"left":9952519,"id":"68f5d2","name":"福野(岐阜)","name_kana":"ふくの","lat":35.646726,"lng":136.95172,"prefecture":21,"lines":[99525],"attr":"heat","postal_code":"501-4106","address":"郡上市美並町白山字山際","next":[9952528,9952519,9952520,9952525,9952522,9952518,9952523,9952517],"voronoi":{"lat":35.677786,"lng":136.789199,"delta_lat":[0,61,1103,-36788,-9492,1540,22815,3776],"delta_lng":[0,215,58044,154361,25930,-27135,-144889,-14836]}},
    {"code":9952519,"id":"fba318","name":"みなみ子宝温泉","name_kana":"みなみこだからおんせん","lat":35.627308,"lng":136.950618,"prefecture":21,"lines":[99525],"attr":"heat","postal_code":"501-4107","address":"郡上市美並町大原字石橋２６６９番地１","next":[9952516,9952518,9952521,9952515,1141611,1141612,9952523,9952520],"voronoi":{"lat":35.631834,"lng":136.937602,"delta_lat":[0,-26088,-2068,-9146,5566,26098,6475,1540],"delta_lng":[0,32873,6858,60798,4580,13361,-28323,-27135]}},
    {"code":1141706,"id":"ed456a","name":"砺波","name_kana":"となみ","lat":36.636424,"lng":136.953648,"prefecture":16,"lines":[11417],"attr":"cool","postal_code":"939-1366","address":"砺波市表町","next":[1141549,1141707,1141705,1141640,1141548],"voronoi":{"lat":36.66996,"lng":136.934967,"delta_lat":[0,-91569,-1197,73300,13010],"delta_lng":[0,102389,-292,-128939,5345]}},
    {"code":1141705,"left":9952524,"right":1141704,"id":"19ce4b","name":"油田","name_kana":"あぶらでん","lat":36.655124,"lng":136.970372,"prefecture":16,"lines":[11417],"attr":"cool","postal_code":"939-1308","address":"砺波市三郎丸","next":[1141704,1141549,1141706,1141641,1141640],"voronoi":{"lat":36.57839,"lng":137.037355,"delta_lat":[0,91569,11749,-45851,-35205],"delta_lng":[0,-102389,16296,98980,-4442]}},
    {"code":9952524,"id":"d1d580","name":"深戸","name_kana":"ふかど","lat":35.686445,"lng":136.962498,"prefecture":21,"lines":[99525],"attr":"heat","postal_code":"501-4105","address":"郡上市美並町三戸字下中島","next":[9952522,1141615,9952523,9952526,9952525],"voronoi":{"lat":35.685041,"lng":136.919101,"delta_lat":[0,-1938,-16702,79744,-6158],"delta_lng":[0,6701,136664,9612,-22555]}},
    {"code":1141704,"id":"c8eef9","name":"戸出","name_kana":"といで","lat":36.684323,"lng":136.983898,"prefecture":16,"lines":[11417],"attr":"cool","postal_code":"939-1104","address":"高岡市戸出町２丁目","next":[1141705,1141549,1141641,1141703,1141550],"voronoi":{"lat":36.696661,"lng":136.958164,"delta_lat":[0,-14953,-45851,10824,58827],"delta_lng":[0,-6902,98980,3619,-76687]}},
    {"code":1141702,"left":1141808,"right":9941402,"id":"ac36a5","name":"二塚","name_kana":"ふたつか","lat":36.714339,"lng":137.006141,"prefecture":16,"lines":[11417],"attr":"eco","postal_code":"933-0816","address":"高岡市二塚","next":[100912,1141552,1141703,1141556],"voronoi":{"lat":36.70643,"lng":137.037931,"delta_lat":[0,-28992,41789,7040],"delta_lng":[0,11349,-60780,9463]}},
    {"code":1141808,"left":1141556,"right":1141919,"id":"3eb815","name":"氷見","name_kana":"ひみ","lat":36.849899,"lng":136.990631,"prefecture":16,"lines":[11418],"attr":"cool","postal_code":"935-0015","address":"氷見市伊勢大町１丁目","next":[1141549,1141910,1141917,1141914,1141915,1141916,1141806,1141919,1141556,1141550,1141918,1141807],"voronoi":{"lat":36.963363,"lng":137.106748,"delta_lat":[0,-11788,-4194,-41504,-5888,-31436,-23564,-33267,-10430,-6830,-255,108702],"delta_lng":[0,-86485,-10951,-76458,-7775,-28775,-14228,276,25235,33861,16447,105829]}},
    {"code":1141556,"left":1141550,"id":"2258a8","name":"高岡やぶなみ","name_kana":"たかおかやぶなみ","lat":36.737528,"lng":136.988889,"prefecture":16,"lines":[99425],"attr":"eco","postal_code":"933-0844","address":"富山県高岡市羽広32-3","open_date":"2018-03-17","next":[9941402,9941425,9941401,1141807,100912,1141550,1141808,1141702,1141703],"voronoi":{"lat":36.717918,"lng":136.98438,"delta_lat":[0,76545,-255,-6853,-44237,-6475,-382,-9994,-7040],"delta_lng":[0,-42931,16447,26172,16367,1948,68,-4488,-9463]}},
    {"code":1141550,"id":"3145c2","name":"西高岡","name_kana":"にしたかおか","lat":36.724295,"lng":136.965295,"prefecture":16,"lines":[99425],"attr":"eco","postal_code":"933-0325","address":"高岡市立野","next":[1141556,1141703,1141808,1141704,1141549],"voronoi":{"lat":36.801293,"lng":136.907587,"delta_lat":[0,-6830,-76545,-12409,-8847],"delta_lng":[0,33861,42931,-7205,-19010]}},
    {"code":1141919,"id":"6c2171","name":"七尾","name_kana":"ななお","lat":37.041613,"lng":136.964501,"prefecture":17,"lines":[11419,99418],"attr":"heat","postal_code":"926-0811","address":"七尾市御祓町","next":[1141918,1141806,1140508,9941513,1140509,9941806,9941807,1141808,1141920,9941424],"voronoi":{"lat":37.001825,"lng":137.203735,"delta_lat":[0,172627,68091,-62755,-20681,-117878,-89653,11788,24766,8360],"delta_lng":[0,50657,15342,-195257,-42871,-100885,89543,86485,76292,15145]}},
    {"code":9941402,"left":100912,"right":1141807,"id":"a5d686","name":"片原町(富山)","name_kana":"かたはらまち","lat":36.746389,"lng":137.012838,"prefecture":16,"lines":[99414],"attr":"eco","postal_code":"933-0026","address":"高岡市片原町","next":[1141556,1141807,9941404,9941425,9941405,9941403],"voronoi":{"lat":36.766344,"lng":137.002814,"delta_lat":[0,7853,13162,-4,-44237,2745],"delta_lng":[0,-5721,-10455,-2571,16367,13846]}},
    {"code":100912,"id":"307ee0","name":"新高岡","name_kana":"しんたかおか","lat":36.726966,"lng":137.012408,"prefecture":16,"lines":[1009,11417],"attr":"eco","postal_code":"933-0852","address":"富山県高岡市下黒田1872番地","open_date":"2015-03-14","next":[1141702,1141551,1141552,1141556,1141802,9941401],"voronoi":{"lat":36.736261,"lng":137.002451,"delta_lat":[0,-9994,-19837,22252,1515,5975],"delta_lng":[0,-4488,39968,-3505,-2236,-29151]}},
    {"code":1141807,"id":"f3cb0f","name":"島尾","name_kana":"しまお","lat":36.828423,"lng":137.01269,"prefecture":16,"lines":[11418],"attr":"cool","postal_code":"935-0032","address":"氷見市島尾","next":[9941402,1141806,9941412,1141556,9941408,9941407,9941406,9941405,1141808],"voronoi":{"lat":36.794207,"lng":136.957895,"delta_lat":[0,-6853,4,280,285,1947,790,3386,108863],"delta_lng":[0,26172,2571,2678,1871,10197,2918,7210,52212]}}
  ]
}