{
  "name":"segment4",
  "root":9991712,
  "east":131.97669,
  "west":130.558015,
  "south":32.52812,
  "north":33.209495,
  "station_size":144,
  "node_list":[
    {"code":9991712,"left":9992307,"right":1192319,"id":"c9e1b2","name":"再春医療センター前","name_kana":"さいしゅんいりょうせんたーまえ","lat":32.880866,"lng":130.747938,"prefecture":43,"lines":[99917],"attr":"cool","postal_code":"861-1102","address":"合志市須屋大窪２６６２-５","next":[9991711,1192308,1190337,9991713],"voronoi":{"lat":32.901418,"lng":130.714187,"delta_lat":[0,-2200,-30039,3264],"delta_lng":[0,21,50059,4516]}},
    {"code":9992307,"left":9992206,"right":9991803,"id":"a802bb","name":"新町(熊本)","name_kana":"しんまち","lat":32.799739,"lng":130.697222,"prefecture":43,"lines":[99923],"attr":"eco","postal_code":"860-0004","address":"熊本市新町２丁目６-１０地先","next":[9992204,9992305,9992203,101007,9992306,9992308,9992205],"voronoi":{"lat":32.801944,"lng":130.698802,"delta_lat":[0,-550,-846,-194,-629,-1492,-522],"delta_lng":[0,-9844,-3431,233,848,4025,6908]}},
    {"code":9992206,"left":1190342,"right":1192304,"id":"0a1931","name":"河原町(熊本)","name_kana":"かわらまち","lat":32.794742,"lng":130.701299,"prefecture":43,"lines":[99922],"attr":"eco","postal_code":"860-0023","address":"熊本市河原町７地先","next":[1192302,9992205,9992204,9992208,1192303,9992308,9992207],"voronoi":{"lat":32.796899,"lng":130.69994,"delta_lat":[0,-271,-4378,-4548,928,3435,2000],"delta_lng":[0,-512,-1011,1332,5457,3202,-2198]}},
    {"code":1190342,"left":1190343,"right":9992203,"id":"5e9dca","name":"川尻","name_kana":"かわしり","lat":32.743772,"lng":130.679907,"prefecture":43,"lines":[11903,11924],"attr":"heat","postal_code":"861-4113","address":"熊本市八幡町","next":[1192404,9992221,9992226,9992224,9992225,1192302,1190350,1190351,1192405],"voronoi":{"lat":32.738289,"lng":130.635744,"delta_lat":[0,-24766,1840,8221,3514,14793,5535,16351,-16506],"delta_lng":[0,105056,-783,-3774,-1726,-9560,-8854,-97964,8401]}},
    {"code":1190343,"left":1192404,"right":1190344,"id":"6955dc","name":"宇土","name_kana":"うと","lat":32.694237,"lng":130.669148,"prefecture":43,"lines":[11903,11924],"attr":"eco","postal_code":"869-0406","address":"宇土市三拾町","next":[9992226,1192404,1190344,1190350],"voronoi":{"lat":32.676709,"lng":130.769653,"delta_lat":[0,-4098,35260,-20720],"delta_lng":[0,-119279,-215,109950]}},
    {"code":1192404,"left":1190347,"right":1192405,"id":"a9d8a8","name":"緑川","name_kana":"みどりかわ","lat":32.694006,"lng":130.631339,"prefecture":43,"lines":[11924],"attr":"heat","postal_code":"869-0463","address":"宇土市野鶴町岩崎","next":[1190342,1190350,1190343,1190344,1192407,1192405],"voronoi":{"lat":32.738289,"lng":130.635744,"delta_lat":[0,-30419,-35260,-42608,12420,104849],"delta_lng":[0,14415,215,-45249,-3905,25320]}},
    {"code":1190347,"left":1192406,"id":"772ef7","name":"千丁","name_kana":"せんちょう","lat":32.532387,"lng":130.64556,"prefecture":43,"lines":[11903],"attr":"cool","postal_code":"869-4702","address":"八代市千丁町吉王丸","next":[1192502,1192410,1192409,101008,1190346,1192407],"voronoi":{"lat":32.582356,"lng":130.572176,"delta_lat":[0,-3368,-1391,-77275,115,98219],"delta_lng":[0,-2681,-734,105291,42089,-121621]}},
    {"code":1192406,"id":"ab1349","name":"肥後長浜","name_kana":"ひごながはま","lat":32.690694,"lng":130.560302,"prefecture":43,"lines":[11924],"attr":"eco","postal_code":"869-3171","address":"宇土市長浜町","next":[1190332,1192408,9991223,1190334,1192407,1192405],"voronoi":{"lat":32.70288,"lng":130.512152,"delta_lat":[0,48199,46684,8992,-1543,-147397],"delta_lng":[0,-35997,21500,35656,12958,44508]}},
    {"code":1192405,"id":"3a108b","name":"住吉(熊本)","name_kana":"すみよし","lat":32.702066,"lng":130.597963,"prefecture":43,"lines":[11924],"attr":"heat","postal_code":"869-0401","address":"宇土市住吉町","next":[1190334,1190351,101007,1192406,1190342,1192407,1192404],"voronoi":{"lat":32.642422,"lng":130.601221,"delta_lat":[0,15393,147397,1992,-12985,-30442,-16506],"delta_lng":[0,-10443,-44508,37702,12498,21670,8401]}},
    {"code":1190344,"left":1190345,"right":1190350,"id":"2d36fe","name":"松橋","name_kana":"まつばせ","lat":32.652324,"lng":130.670588,"prefecture":43,"lines":[11903],"attr":"cool","postal_code":"869-0551","address":"宇城市不知火町御領","next":[9992226,1192404,1192407,1190345,1190343,1190346],"voronoi":{"lat":32.607926,"lng":130.602416,"delta_lat":[0,22077,42608,4098,-5917,-63101],"delta_lng":[0,2710,45249,119279,8231,-136410]}},
    {"code":1190345,"left":1190346,"id":"6824ed","name":"小川(熊本)","name_kana":"おがわ","lat":32.600979,"lng":130.694339,"prefecture":43,"lines":[11903],"attr":"cool","postal_code":"869-0623","address":"宇城市小川町川尻","next":[9992226,9992014,9992012,1190344,9991906,1190346,1192503],"voronoi":{"lat":32.482248,"lng":130.839106,"delta_lat":[0,125443,63101,-61019,-49184,-65768,-19770],"delta_lng":[0,-197631,136410,161880,30995,-73556,-25347]}},
    {"code":1190346,"id":"4793d5","name":"有佐","name_kana":"ありさ","lat":32.562711,"lng":130.670049,"prefecture":43,"lines":[11903],"attr":"cool","postal_code":"869-4212","address":"八代市鏡町下有佐","next":[1192503,1192502,1190345,1190347,1192407,1190344],"voronoi":{"lat":32.607926,"lng":130.602416,"delta_lat":[0,-9270,-98219,-10290,-7899,125443],"delta_lng":[0,-7895,121621,40046,82918,-197631]}},
    {"code":1190350,"id":"ef6ee8","name":"富合","name_kana":"とみあい","lat":32.713658,"lng":130.672808,"prefecture":43,"lines":[11903,11924],"attr":"heat","postal_code":"861-4163","address":"熊本県熊本市南区富合町志々水63-6","open_date":"2011-03-22","next":[1192404,1190342,9992226,1190343],"voronoi":{"lat":32.713523,"lng":130.740801,"delta_lat":[0,24766,-30419,-20720],"delta_lng":[0,-105056,14415,109950]}},
    {"code":9992203,"left":9992202,"right":9992205,"id":"26e5c4","name":"熊本駅前","name_kana":"くまもとえきまえ","lat":32.789559,"lng":130.689662,"prefecture":43,"lines":[99922],"attr":"eco","postal_code":"860-0047","address":"熊本市春日１丁目１６-１４地先","next":[9992202,9992307,101007,9992204],"voronoi":{"lat":32.799725,"lng":130.686607,"delta_lat":[0,629,-12069,-570],"delta_lng":[0,-848,3654,4988]}},
    {"code":9992202,"left":9992201,"right":101007,"id":"3e1d5c","name":"二本木口","name_kana":"にほんぎぐち","lat":32.786986,"lng":130.689368,"prefecture":43,"lines":[99922],"attr":"eco","postal_code":"860-0047","address":"熊本市春日２丁目９-９地先","next":[9992203,1192302,9992201,101007,9992204],"voronoi":{"lat":32.783079,"lng":130.695995,"delta_lat":[0,4144,1061,-570,-2271],"delta_lng":[0,-9294,2712,4988,2498]}},
    {"code":9992201,"left":1190351,"id":"c2aa17","name":"田崎橋","name_kana":"たさきばし","lat":32.785398,"lng":130.68866,"prefecture":43,"lines":[99922],"attr":"eco","postal_code":"860-0047","address":"熊本市春日２丁目１０-５４地先","next":[9992202,1192302,1190351,101007],"voronoi":{"lat":32.783079,"lng":130.695995,"delta_lat":[0,-10868,13047,1965],"delta_lng":[0,-2797,-52987,46490]}},
    {"code":1190351,"id":"e05fbc","name":"西熊本","name_kana":"にしくまもと","lat":32.762639,"lng":130.683056,"prefecture":43,"lines":[11903,11924],"attr":"eco","postal_code":"861-4134","address":"熊本市南区刈草一丁目","open_date":"2016-03-26","next":[1192302,1192405,1190342,9992201,101007],"voronoi":{"lat":32.772211,"lng":130.693199,"delta_lat":[0,-24785,16351,30442,-8961],"delta_lng":[0,22905,-97964,-21670,43742]}},
    {"code":101007,"id":"278487","name":"熊本","name_kana":"くまもと","lat":32.789207,"lng":130.688499,"prefecture":43,"lines":[1010,11903,11923,11924],"attr":"heat","postal_code":"860-0047","address":"熊本市春日３丁目","next":[1190334,9992307,9992202,1192405,1190351,9992203,1190339,9992201,1190336,9992305],"voronoi":{"lat":32.800354,"lng":130.68576,"delta_lat":[0,-12069,-1061,-1965,8961,12985,15227,893,-5772,-17005],"delta_lng":[0,3654,-2712,-46490,-43742,-12498,18570,2788,37734,42463]}},
    {"code":9992205,"left":9992204,"right":9992308,"id":"0b1b27","name":"呉服町(熊本)","name_kana":"ごふくまち","lat":32.795753,"lng":130.696921,"prefecture":43,"lines":[99922],"attr":"eco","postal_code":"860-0031","address":"熊本市魚屋町２丁目１３地先","next":[9992206,9992308,9992204,9992307],"voronoi":{"lat":32.798232,"lng":130.690633,"delta_lat":[0,-5983,4378,1083],"delta_lng":[0,7785,1011,-1888]}},
    {"code":9992204,"id":"cbf144","name":"祇園橋","name_kana":"ぎおんばし","lat":32.792794,"lng":130.694647,"prefecture":43,"lines":[99922],"attr":"eco","postal_code":"860-0041","address":"熊本県熊本市中央区細工町五丁目","next":[1192302,9992206,9992307,9992205,9992203,9992202],"voronoi":{"lat":32.787702,"lng":130.69975,"delta_lat":[0,4548,5983,1492,-12010,-2271],"delta_lng":[0,-1332,-7785,-4025,7794,2498]}},
    {"code":9992308,"id":"870cd3","name":"洗馬橋","name_kana":"せんばばし","lat":32.799234,"lng":130.698917,"prefecture":43,"lines":[99923],"attr":"eco","postal_code":"860-0004","address":"熊本市新町２丁目３-７地先","next":[9992205,9992207,9992206,9992307,9992306,9992309],"voronoi":{"lat":32.801944,"lng":130.698802,"delta_lat":[0,-4233,-1083,271,906,5075],"delta_lng":[0,-1261,1888,512,493,657]}},
    {"code":1192304,"left":9992219,"right":9992214,"id":"487f2d","name":"新水前寺","name_kana":"しんすいぜんじ","lat":32.793363,"lng":130.725901,"prefecture":43,"lines":[11923],"attr":"heat","postal_code":"862-0959","address":"熊本市白山２丁目","next":[9992217,1192303,9992216,9992215],"voronoi":{"lat":32.7889,"lng":130.718946,"delta_lat":[0,-7831,9713,5024],"delta_lng":[0,4485,3403,-658]}},
    {"code":9992219,"left":9992218,"right":9992221,"id":"ca3262","name":"市立体育館前","name_kana":"しりつたいいくかんまえ","lat":32.788429,"lng":130.734708,"prefecture":43,"lines":[99922,99923],"attr":"heat","postal_code":"862-0941","address":"熊本市出水１丁目８-５地先","next":[1192303,9992218,1192306,1192305,9992220],"voronoi":{"lat":32.798533,"lng":130.742462,"delta_lat":[0,-2506,-20363,-5347,27526],"delta_lng":[0,-4378,-13367,755,18966]}},
    {"code":9992218,"left":1192303,"right":9992217,"id":"da9ad1","name":"水前寺公園","name_kana":"すいぜんじこうえん","lat":32.789908,"lng":130.732455,"prefecture":43,"lines":[99922,99923],"attr":"heat","postal_code":"862-0941","address":"熊本市出水１丁目６-１地先","next":[9992219,9992217,1192303,1192305],"voronoi":{"lat":32.794114,"lng":130.73296,"delta_lat":[0,-13366,-5085,20363],"delta_lng":[0,-9401,1157,13367]}},
    {"code":1192303,"left":1192302,"id":"9adb04","name":"南熊本","name_kana":"みなみくまもと","lat":32.785159,"lng":130.711577,"prefecture":43,"lines":[11923],"attr":"heat","postal_code":"860-0812","address":"熊本市南熊本３丁目","next":[1192302,9992219,9992214,9992221,9992218,9992215,9992208,9992206,9992217,9992213,1192304,9992220],"voronoi":{"lat":32.770317,"lng":130.725472,"delta_lat":[0,5347,5085,321,7831,900,3000,840,-1576,-3435,-43857,16137],"delta_lng":[0,-755,-1157,-129,-4485,-777,-4483,-1947,-3330,-3202,19588,759]}},
    {"code":1192302,"id":"2afaeb","name":"平成","name_kana":"へいせい","lat":32.781569,"lng":130.703539,"prefecture":43,"lines":[11923],"attr":"heat","postal_code":"860-0833","address":"熊本市平成２丁目","next":[1192303,9992204,9992206,9992202,1190351,1190342,9992201,9992221],"voronoi":{"lat":32.747427,"lng":130.716104,"delta_lat":[0,24785,10868,2364,2258,928,-43857,-2881],"delta_lng":[0,-22905,2797,904,2850,5457,19588,163]}},
    {"code":9992217,"id":"6447ba","name":"国府(熊本)","name_kana":"こくぶ","lat":32.792217,"lng":130.729172,"prefecture":43,"lines":[99922,99923],"attr":"heat","postal_code":"862-0949","address":"熊本市国府１丁目２０-１地先","next":[9992218,1192304,9992216,1192303,1192305],"voronoi":{"lat":32.794629,"lng":130.729209,"delta_lat":[0,-3847,-9713,-321,13366],"delta_lng":[0,-2376,-3403,129,9401]}},
    {"code":9992221,"left":9992222,"right":9992220,"id":"c1d0cd","name":"八丁馬場","name_kana":"はっちょうばば","lat":32.783739,"lng":130.741746,"prefecture":43,"lines":[99922,99923],"attr":"heat","postal_code":"862-0955","address":"熊本市神水本町１９-６地先","next":[1192303,1190342,9992223,9992222,9992220,9992224,1192302],"voronoi":{"lat":32.744773,"lng":130.724794,"delta_lat":[0,16137,28737,-23758,-23140,-15650,14793],"delta_lng":[0,759,18066,-623,-4580,-3899,-9560]}},
    {"code":9992222,"id":"533878","name":"神水交差点","name_kana":"くわみずこうさてん","lat":32.783649,"lng":130.74518,"prefecture":43,"lines":[99922,99923],"attr":"cool","postal_code":"862-0955","address":"熊本市神水本町２１-２２地先","next":[9992223,9992220,9992221,1192306],"voronoi":{"lat":32.797638,"lng":130.74592,"delta_lat":[0,-7991,-23758,32363],"delta_lng":[0,-2301,-623,9711]}},
    {"code":9992220,"id":"d8bb60","name":"商業高校前","name_kana":"しょうぎょうこうこうまえ","lat":32.785398,"lng":130.739107,"prefecture":43,"lines":[99922,99923],"attr":"heat","postal_code":"862-0955","address":"熊本市神水本町１-４４地先","next":[9992222,9992221,1192306,1192303,9992219],"voronoi":{"lat":32.770317,"lng":130.725472,"delta_lat":[0,-9407,28737,7991,205],"delta_lng":[0,82,18066,2301,-1483]}},
    {"code":9992214,"left":9992208,"right":9992215,"id":"904a19","name":"交通局前","name_kana":"こうつうきょくまえ","lat":32.797664,"lng":130.719945,"prefecture":43,"lines":[99922,99923],"attr":"heat","postal_code":"862-0976","address":"熊本市九品寺２丁目３地先","next":[9992215,9992213,1192303,1192305],"voronoi":{"lat":32.792801,"lng":130.713685,"delta_lat":[0,-3000,13330,2931],"delta_lng":[0,4483,7129,208]}},
    {"code":9992208,"left":9992207,"right":9992213,"id":"fcd484","name":"辛島町","name_kana":"からしまちょう","lat":32.798891,"lng":130.705075,"prefecture":43,"lines":[99922,99923],"attr":"eco","postal_code":"860-0803","address":"熊本市新市街７-１地先","next":[9992212,9992209,9992206,1192303,9992213,9992207,9992211,9992309],"voronoi":{"lat":32.800312,"lng":130.703623,"delta_lat":[0,-1012,-579,-4230,-850,-1576,2000,4159],"delta_lng":[0,5547,547,1976,46,-3330,-2198,-2521]}},
    {"code":9992207,"left":9992309,"id":"2f9e10","name":"慶徳校前","name_kana":"けいとくこうまえ","lat":32.797304,"lng":130.702457,"prefecture":43,"lines":[99922],"attr":"eco","postal_code":"860-0017","address":"熊本市練兵町７４地先","next":[9992309,9992308,9992208,9992206],"voronoi":{"lat":32.796899,"lng":130.69994,"delta_lat":[0,906,419,-4159],"delta_lng":[0,493,3256,2521]}},
    {"code":9992309,"id":"210672","name":"西辛島町","name_kana":"にしからしまちょう","lat":32.798801,"lng":130.702264,"prefecture":43,"lines":[99923],"attr":"eco","postal_code":"860-0804","address":"熊本市辛島町７-９地先","next":[9992306,9992207,9992209,9992208,9992308],"voronoi":{"lat":32.803277,"lng":130.701479,"delta_lat":[0,-2966,-2088,-419,5075],"delta_lng":[0,2144,67,-3256,657]}},
    {"code":9992213,"id":"2a17d1","name":"九品寺交差点","name_kana":"くほんじこうさてん","lat":32.799576,"lng":130.7178,"prefecture":43,"lines":[99922,99923],"attr":"eco","postal_code":"862-0976","address":"熊本市九品寺１丁目２-１１地先","next":[9992214,1192305,9992212,9991702,9992208,1192303,9991701],"voronoi":{"lat":32.805203,"lng":130.71745,"delta_lat":[0,-10712,-850,-840,13261,3192,-15],"delta_lng":[0,-5757,46,1947,11820,694,-513]}},
    {"code":9992215,"left":9992216,"right":1192305,"id":"844b81","name":"味噌天神前","name_kana":"みそてんじんまえ","lat":32.795644,"lng":130.723722,"prefecture":43,"lines":[99922,99923],"attr":"heat","postal_code":"862-0973","address":"熊本市大江本町６-６地先","next":[9992214,1192303,1192305,9992216,1192304],"voronoi":{"lat":32.7889,"lng":130.718946,"delta_lat":[0,900,13330,-6497,-827],"delta_lng":[0,-777,7129,1404,-526]}},
    {"code":9992216,"id":"7e89b9","name":"新水前寺駅前","name_kana":"しんすいぜんじえきまえ","lat":32.793516,"lng":130.727069,"prefecture":43,"lines":[99922,99923],"attr":"heat","postal_code":"862-0949","address":"熊本市国府１丁目１１-２地先","next":[9992217,1192305,1192304,9992215],"voronoi":{"lat":32.795806,"lng":130.726175,"delta_lat":[0,-5024,3847,2004],"delta_lng":[0,658,2376,-2508]}},
    {"code":1192305,"id":"9adb55","name":"水前寺","name_kana":"すいぜんじ","lat":32.796962,"lng":130.729823,"prefecture":43,"lines":[11923],"attr":"heat","postal_code":"862-0950","address":"熊本市水前寺１丁目","next":[9992213,9992219,9992216,1192306,9992214,9992215,9992217,9991702,9992218],"voronoi":{"lat":32.794114,"lng":130.73296,"delta_lat":[0,515,2004,6497,2931,3192,1541,-12262,-2506],"delta_lng":[0,-3751,-2508,-1404,208,694,2624,13638,-4378]}},
    {"code":9991803,"left":1190340,"right":9991703,"id":"42c55f","name":"池田(熊本)","name_kana":"いけだ","lat":32.827082,"lng":130.70748,"prefecture":43,"lines":[99918],"attr":"heat","postal_code":"860-0082","address":"熊本市池田２-８１７","next":[1190338,1190339,9991804,9991705,9991704,9991802],"voronoi":{"lat":32.831152,"lng":130.701845,"delta_lat":[0,10004,794,-516,-8665,-12931],"delta_lng":[0,3131,2977,478,6065,-6791]}},
    {"code":1190340,"left":9992302,"right":1190337,"id":"a280ec","name":"上熊本(JR/熊本電気鉄道)","name_kana":"かみくまもと","lat":32.817305,"lng":130.698831,"prefecture":43,"lines":[11903,99918],"attr":"heat","postal_code":"860-0079","address":"熊本市上熊本２丁目","next":[1190339,9992301,9991802,9992303,9992302,9992304],"voronoi":{"lat":32.818909,"lng":130.678557,"delta_lat":[0,4535,-2632,-4656,-253,680],"delta_lng":[0,15803,5881,-1552,-4459,-6855]}},
    {"code":9992302,"left":9992304,"right":9992210,"id":"956c31","name":"県立体育館前","name_kana":"けんりつたいいくかんまえ","lat":32.815032,"lng":130.69896,"prefecture":43,"lines":[99923],"attr":"eco","postal_code":"860-0079","address":"熊本市上熊本２丁目１７-３９地先","next":[9992301,9991701,1190340,9992303],"voronoi":{"lat":32.815904,"lng":130.694231,"delta_lat":[0,253,-1244,-3143],"delta_lng":[0,4459,8655,-1346]}},
    {"code":9992304,"left":9992306,"right":9992303,"id":"ed8103","name":"杉塘","name_kana":"すぎども","lat":32.810308,"lng":130.696986,"prefecture":43,"lines":[99923],"attr":"eco","postal_code":"860-0079","address":"熊本市上熊本２丁目４-２２地先","next":[9992303,9992305,9992306,9992210,1190339,1190340],"voronoi":{"lat":32.809216,"lng":130.703892,"delta_lat":[0,-2083,0,11155,621,-2326],"delta_lng":[0,-1523,-2785,-27169,6142,8818]}},
    {"code":9992306,"left":9992305,"id":"cc9f24","name":"蔚山町","name_kana":"うるさんまち","lat":32.803959,"lng":130.696986,"prefecture":43,"lines":[99923],"attr":"eco","postal_code":"860-0004","address":"熊本市新町１丁目７-２６地先","next":[9992209,9992309,9992210,9992304,9992305,9992307,9992308],"voronoi":{"lat":32.803277,"lng":130.701479,"delta_lat":[0,2174,1682,0,-5740,550,936],"delta_lng":[0,725,166,-2785,-10627,9844,2289]}},
    {"code":9992305,"id":"430c18","name":"段山町","name_kana":"だにやままち","lat":32.806701,"lng":130.695505,"prefecture":43,"lines":[99923],"attr":"eco","postal_code":"860-0006","address":"熊本市段山本町４-３８地先","next":[9992304,9992307,9992306,101007,1190339],"voronoi":{"lat":32.807133,"lng":130.699585,"delta_lat":[0,-5740,-846,17005,736],"delta_lng":[0,-10627,-3431,-42463,29352]}},
    {"code":9992303,"id":"858744","name":"本妙寺入口","name_kana":"ほんみょうじいりぐち","lat":32.813626,"lng":130.698466,"prefecture":43,"lines":[99923],"attr":"eco","postal_code":"860-0079","address":"熊本市上熊本２丁目１３-８地先","next":[9992304,9992210,9991701,1190340,9992302],"voronoi":{"lat":32.815904,"lng":130.694231,"delta_lat":[0,680,-7367,1396,1157],"delta_lng":[0,-6855,16517,1738,368]}},
    {"code":9992210,"left":9992209,"right":9992301,"id":"c828bf","name":"熊本城・市役所前","name_kana":"くまもとじょう・しやくしょまえ","lat":32.802967,"lng":130.707028,"prefecture":43,"lines":[99922,99923],"attr":"eco","postal_code":"860-0808","address":"熊本市手取本町１-１地先","next":[9992306,9992303,9992209,9991701,9992304,9992211],"voronoi":{"lat":32.805452,"lng":130.702203,"delta_lat":[0,1682,2083,1396,-2110,-8675],"delta_lng":[0,166,1523,1738,2032,1235]}},
    {"code":9992209,"id":"d7d72d","name":"花畑町","name_kana":"はなばたちょう","lat":32.801128,"lng":130.705483,"prefecture":43,"lines":[99922,99923],"attr":"eco","postal_code":"860-0806","address":"熊本市花畑町１２-１地先","next":[9992208,9992306,9992210,9992309,9992211],"voronoi":{"lat":32.799828,"lng":130.708898,"delta_lat":[0,5624,-2174,-2966,-1012],"delta_lng":[0,-6694,-725,2144,5547]}},
    {"code":9992301,"id":"3706a3","name":"上熊本(熊本市交通局)","name_kana":"かみくまもと","lat":32.81716,"lng":130.699266,"prefecture":43,"lines":[99923],"attr":"eco","postal_code":"860-0079","address":"熊本市上熊本２丁目","next":[9991804,9992302,9991701,1190340,9991802],"voronoi":{"lat":32.816549,"lng":130.70831,"delta_lat":[0,-1636,1244,4656,-2785],"delta_lng":[0,-966,-8655,1552,7396]}},
    {"code":1190337,"left":1190335,"right":1190339,"id":"e2c7bf","name":"植木","name_kana":"うえき","lat":32.880226,"lng":130.680834,"prefecture":43,"lines":[11903],"attr":"heat","postal_code":"861-0142","address":"熊本市北区植木町鐙田75","next":[1190338,9991713,9991711,9991710,1190339,9991712,1190336],"voronoi":{"lat":32.839725,"lng":130.632231,"delta_lat":[0,9900,34669,6754,8169,2200,51268],"delta_lng":[0,34645,46008,1057,266,-21,-3521]}},
    {"code":1190335,"left":1190336,"right":101006,"id":"920b46","name":"木葉","name_kana":"このは","lat":32.916528,"lng":130.626441,"prefecture":43,"lines":[11903],"attr":"heat","postal_code":"869-0303","address":"玉名郡玉東町大字木葉","next":[1191306,9991713,101006,1190334,1190336,101005,1191308,1191309],"voronoi":{"lat":33.038792,"lng":130.723486,"delta_lat":[0,-175961,76159,171840,6050,-1503,-58,-2926],"delta_lng":[0,-112537,-6331,84299,6794,38822,194,7530]}},
    {"code":1190336,"left":1190334,"id":"fdf9b7","name":"田原坂","name_kana":"たばるざか","lat":32.899416,"lng":130.653197,"prefecture":43,"lines":[11903],"attr":"heat","postal_code":"861-0155","address":"熊本市北区植木町轟1687","next":[1190334,1190335,9991713,1190337,101007,1190339],"voronoi":{"lat":32.823325,"lng":130.60533,"delta_lat":[0,-893,40399,175961,-86106,-112960],"delta_lng":[0,-2788,8407,112537,-12820,-78434]}},
    {"code":1190334,"id":"536a04","name":"肥後伊倉","name_kana":"ひごいくら","lat":32.913233,"lng":130.586803,"prefecture":43,"lines":[11903],"attr":"heat","postal_code":"865-0041","address":"玉名市伊倉北方","next":[101006,1192405,1190336,101007,1192406,1190335,1190333,1190332],"voronoi":{"lat":32.92264,"lng":130.568654,"delta_lat":[0,16349,-76159,-40399,-15227,-1992,1543,14309],"delta_lng":[0,35963,6331,-8407,-18570,-37702,-12958,1436]}},
    {"code":101006,"id":"622ac6","name":"新玉名","name_kana":"しんたまな","lat":32.9425,"lng":130.573498,"prefecture":43,"lines":[1010],"attr":"heat","postal_code":"865-0005","address":"熊本県玉名市玉名１２２９－３","next":[1190334,1190335,101005,1190333],"voronoi":{"lat":32.93899,"lng":130.604618,"delta_lat":[0,171840,-112223,-75966],"delta_lng":[0,84299,-170328,50066]}},
    {"code":1190339,"left":9991802,"right":1190338,"id":"90c9bf","name":"崇城大学前","name_kana":"そうじょうだいがくまえ","lat":32.83102,"lng":130.694895,"prefecture":43,"lines":[11903],"attr":"heat","postal_code":"860-0082","address":"熊本市池田４丁目","next":[1190340,9991803,1190337,9991802,9992304,101007,1190338,1190336,9992305],"voronoi":{"lat":32.818909,"lng":130.678557,"delta_lat":[0,4535,7707,10004,8470,-9900,-16401,-5772,736],"delta_lng":[0,15803,7484,3131,-38099,-34645,-26902,37734,29352]}},
    {"code":9991802,"id":"76bac5","name":"韓々坂","name_kana":"かんかんざか","lat":32.824201,"lng":130.701917,"prefecture":43,"lines":[99918],"attr":"heat","postal_code":"860-0079","address":"熊本市上熊本３-５５２","next":[9991804,1190340,9992301,9991803,1190339],"voronoi":{"lat":32.823444,"lng":130.69436,"delta_lat":[0,-2632,-2785,1810,11314],"delta_lng":[0,5881,7396,67,-5860]}},
    {"code":1190338,"id":"9558d5","name":"西里","name_kana":"にしさと","lat":32.854607,"lng":130.700139,"prefecture":43,"lines":[11903],"attr":"heat","postal_code":"861-5522","address":"熊本市下硯川町","next":[1190337,9991707,9991710,9991803,9991706,9991709,1190339,9991705],"voronoi":{"lat":32.84195,"lng":130.707953,"delta_lat":[0,-794,8470,34669,-737,-11184,-7259,-16239],"delta_lng":[0,-2977,-38099,46008,282,2824,-323,-3637]}},
    {"code":9991703,"left":9991702,"right":9991708,"id":"c6bb6b","name":"北熊本","name_kana":"きたくまもと","lat":32.827492,"lng":130.721981,"prefecture":43,"lines":[99917,99918],"attr":"heat","postal_code":"861-8072","address":"熊本市室園町２５５","next":[9991704,1192306,1192307,9991805,9991804],"voronoi":{"lat":32.832647,"lng":130.714693,"delta_lat":[0,-575,-11040,-2531,7322],"delta_lng":[0,22048,-3113,-1984,-13843]}},
    {"code":9991702,"left":9991701,"right":1192307,"id":"8a810e","name":"黒髪町","name_kana":"くろかみまち","lat":32.818408,"lng":130.717232,"prefecture":43,"lines":[99917],"attr":"heat","postal_code":"860-0863","address":"熊本市坪井６-５４８","next":[1192306,9991804,9991805,9992213,9991701,1192305],"voronoi":{"lat":32.813943,"lng":130.729707,"delta_lat":[0,7199,-4598,-7306,15,1541],"delta_lng":[0,-14106,-7169,17254,513,2624]}},
    {"code":9991701,"left":9992212,"right":9991804,"id":"fb61c5","name":"藤崎宮前","name_kana":"ふじさきぐうまえ","lat":32.808928,"lng":130.713218,"prefecture":43,"lines":[99917],"attr":"heat","postal_code":"860-0863","address":"熊本市坪井２-４４","next":[9992301,9991804,9992303,9992302,9992210,9992212,9991702,9992213,9992211],"voronoi":{"lat":32.808502,"lng":130.707663,"delta_lat":[0,2110,1157,3143,1636,-4,-7306,-4036,525],"delta_lng":[0,-2032,368,1346,966,122,17254,-8237,-5248]}},
    {"code":9992212,"left":9992211,"id":"d65073","name":"水道町","name_kana":"すいどうちょう","lat":32.80239,"lng":130.712564,"prefecture":43,"lines":[99922,99923],"attr":"eco","postal_code":"860-0808","address":"熊本市手取本町８地先","next":[9992208,9992213,9992211,9991701],"voronoi":{"lat":32.805728,"lng":130.712201,"delta_lat":[0,-7007,-4230,10712],"delta_lng":[0,-2485,1976,5757]}},
    {"code":9992211,"id":"4dfd90","name":"通町筋","name_kana":"とおりちょうすじ","lat":32.803364,"lng":130.709817,"prefecture":43,"lines":[99922,99923],"attr":"eco","postal_code":"860-0808","address":"熊本市手取本町４-５地先","next":[9992212,9992210,9992208,9991701,9992209],"voronoi":{"lat":32.79872,"lng":130.709717,"delta_lat":[0,7007,2775,-8675,-528],"delta_lng":[0,2485,-4539,1235,272]}},
    {"code":9991804,"id":"dda772","name":"打越","name_kana":"うちごし","lat":32.823765,"lng":130.713796,"prefecture":43,"lines":[99918],"attr":"eco","postal_code":"860-0086","address":"熊本市打越町","next":[9992301,9991802,9991803,9991701,9991702,9991704,9991805,9991703],"voronoi":{"lat":32.832647,"lng":130.714693,"delta_lat":[0,122,-12931,-1810,-1479,-4,4598,4680],"delta_lng":[0,-197,-6791,-67,673,122,7169,2199]}},
    {"code":1192307,"left":1192306,"right":9991805,"id":"fa47ec","name":"竜田口","name_kana":"たつたぐち","lat":32.820455,"lng":130.746933,"prefecture":43,"lines":[11923],"attr":"heat","postal_code":"860-0862","address":"熊本市黒髪７丁目","next":[1192308,9991707,9991705,9992226,9991704,9991708,9991703,1192306],"voronoi":{"lat":32.821032,"lng":130.733627,"delta_lat":[0,11040,4672,1469,2443,1162,-30555,-6699],"delta_lng":[0,3113,3209,1267,4789,4230,38743,-19741]}},
    {"code":1192306,"id":"da4f44","name":"東海学園前","name_kana":"とうかいがくえんまえ","lat":32.811267,"lng":130.742684,"prefecture":43,"lines":[11923],"attr":"heat","postal_code":"862-0970","address":"熊本市東区渡鹿九丁目1-1-1","next":[9992225,9991703,9992219,9992226,9991702,1192305,9992222,9992223,9992224,9992220,1192307,9991805],"voronoi":{"lat":32.813943,"lng":130.729707,"delta_lat":[0,-3149,-12262,-690,-205,614,2049,1537,1391,1335,16468,-2531],"delta_lng":[0,-884,13638,1976,1483,6787,7274,3932,2952,2372,-35610,-1984]}},
    {"code":9991805,"id":"8b423c","name":"坪井川公園","name_kana":"つぼいがわこうえん","lat":32.821427,"lng":130.718773,"prefecture":43,"lines":[99918],"attr":"eco","postal_code":"860-0863","address":"熊本市坪井６-３６７","next":[9991702,9991804,9991703,1192306],"voronoi":{"lat":32.825822,"lng":130.7178,"delta_lat":[0,-4680,-7199,4557],"delta_lng":[0,-2199,14106,1936]}},
    {"code":9991708,"left":9991706,"right":9991710,"id":"283980","name":"須屋","name_kana":"すや","lat":32.858493,"lng":130.736481,"prefecture":43,"lines":[99917],"attr":"eco","postal_code":"861-1102","address":"合志市須屋迫間１２１７-５","next":[9991707,1192308,9991709,1192307],"voronoi":{"lat":32.855999,"lng":130.7538,"delta_lat":[0,9300,-24643,1162],"delta_lng":[0,-28296,20502,4230]}},
    {"code":9991706,"left":9991705,"right":9991707,"id":"e356ab","name":"堀川","name_kana":"ほりかわ","lat":32.848988,"lng":130.725231,"prefecture":43,"lines":[99917],"attr":"heat","postal_code":"861-8064","address":"熊本市八景水谷１-１０９２-２","next":[9991705,9991707,1190338],"voronoi":{"lat":32.848875,"lng":130.712031,"delta_lat":[0,-7550,23789],"delta_lng":[0,24126,-20489]}},
    {"code":9991705,"left":9991704,"id":"b9600e","name":"八景水谷","name_kana":"はけのみや","lat":32.841258,"lng":130.722812,"prefecture":43,"lines":[99917],"attr":"heat","postal_code":"861-8066","address":"熊本市清水亀井町２７５-５","next":[9991704,9991707,9991706,1192307,9991803,1190338],"voronoi":{"lat":32.84195,"lng":130.707953,"delta_lat":[0,-516,-4690,1469,3113,7550],"delta_lng":[0,478,31519,1267,-5060,-24126]}},
    {"code":9991704,"id":"cb25d4","name":"亀井","name_kana":"かめい","lat":32.837414,"lng":130.72224,"prefecture":43,"lines":[99917],"attr":"heat","postal_code":"861-8066","address":"熊本市清水亀井町１３７-６","next":[9991703,9991705,1192307,9991803,9991804],"voronoi":{"lat":32.832071,"lng":130.736741,"delta_lat":[0,4672,4690,-8665,-122],"delta_lng":[0,3209,-31519,6065,197]}},
    {"code":9991707,"id":"36c032","name":"新須屋","name_kana":"しんすや","lat":32.853266,"lng":130.730198,"prefecture":43,"lines":[99917],"attr":"heat","postal_code":"861-1102","address":"合志市須屋塔の木４４２-５","next":[9991708,1190338,1192307,9991705,9991709,9991706],"voronoi":{"lat":32.865115,"lng":130.715667,"delta_lat":[0,7259,-7075,-24643,-2443,3113],"delta_lng":[0,323,9513,20502,-4789,-5060]}},
    {"code":9991710,"left":9991709,"right":9991711,"id":"766a6f","name":"黒石(熊本)","name_kana":"くろいし","lat":32.870636,"lng":130.742164,"prefecture":43,"lines":[99917],"attr":"eco","postal_code":"861-1102","address":"合志市須屋黒石屋敷２６１９-７","next":[1190338,9991711,9991709,1192308,1190337],"voronoi":{"lat":32.884295,"lng":130.712885,"delta_lat":[0,-737,-24863,6920,25434],"delta_lng":[0,282,41839,5085,-46149]}},
    {"code":9991709,"id":"5dee60","name":"三ツ石","name_kana":"みついし","lat":32.864265,"lng":130.738378,"prefecture":43,"lines":[99917],"attr":"eco","postal_code":"861-1102","address":"合志市須屋峠１８１６-４","next":[9991707,9991708,1192308,9991710,1190338],"voronoi":{"lat":32.865299,"lng":130.725504,"delta_lat":[0,-9300,2696,24863,-11184],"delta_lng":[0,28296,1206,-41839,2824]}},
    {"code":9991711,"id":"a9ef50","name":"熊本高専前","name_kana":"くまもとこうせんまえ","lat":32.878088,"lng":130.746271,"prefecture":43,"lines":[99917],"attr":"cool","postal_code":"861-1102","address":"合志市須屋大窪２６７０-４","next":[9991712,1192308,9991710,1190337],"voronoi":{"lat":32.869179,"lng":130.764266,"delta_lat":[0,-3564,25434,8169],"delta_lng":[0,-4176,-46149,266]}},
    {"code":1192319,"left":9991905,"right":1192335,"id":"d51655","name":"いこいの村","name_kana":"いこいのむら","lat":32.93659,"lng":131.094666,"prefecture":43,"lines":[11923],"attr":"cool","postal_code":"869-2224","address":"阿蘇市蔵原","next":[1192320,9991907,1192318,1191321,9991910],"voronoi":{"lat":32.879511,"lng":131.089147,"delta_lat":[0,447,216039,-1562,-215416],"delta_lng":[0,-4948,11796,5140,6752]}},
    {"code":9991905,"left":1192309,"right":9991909,"id":"e2e6d8","name":"南阿蘇水の生まれる里白水高原","name_kana":"みなみあそみずのうまれるさとはくすいこうげん","lat":32.83407,"lng":131.040264,"prefecture":43,"lines":[99919],"attr":"heat","postal_code":"869-1505","address":"阿蘇郡南阿蘇村中松","next":[9992226,9991904,9991906,1192318,9991903],"voronoi":{"lat":32.640627,"lng":130.933784,"delta_lat":[0,-25313,265774,3679,-84485],"delta_lng":[0,5052,133365,-9577,-55979]}},
    {"code":1192309,"left":1192308,"right":1192313,"id":"04d092","name":"光の森","name_kana":"ひかりのもり","lat":32.857834,"lng":130.786722,"prefecture":43,"lines":[11923],"attr":"heat","postal_code":"861-8001","address":"熊本市武蔵ケ丘９丁目","next":[1192310,1192308,9991713,9992226],"voronoi":{"lat":32.809954,"lng":130.799357,"delta_lat":[0,62898,14798,-82062],"delta_lng":[0,-29865,10978,32486]}},
    {"code":1192308,"left":9992224,"right":9991903,"id":"2dbba5","name":"武蔵塚","name_kana":"むさしづか","lat":32.850008,"lng":130.77024,"prefecture":43,"lines":[11923],"attr":"heat","postal_code":"861-8002","address":"熊本市龍田町大字弓削平ノ上","next":[9991711,1192307,9991708,1192309,9991712,9991709,9991710,9992226,9991713],"voronoi":{"lat":32.809954,"lng":130.799357,"delta_lat":[0,1309,30555,14181,2696,6920,3564,3264,409],"delta_lng":[0,-10379,-38743,3564,1206,5085,4176,4516,710]}},
    {"code":9992224,"left":9992226,"right":9992223,"id":"b195c3","name":"動植物園入口","name_kana":"どうしょくぶつえんいりぐち","lat":32.78051,"lng":130.754707,"prefecture":43,"lines":[99922,99923],"attr":"cool","postal_code":"862-0908","address":"熊本市新生１丁目地先","next":[9992223,1190342,9992225,9992221,1192306],"voronoi":{"lat":32.723585,"lng":130.736244,"delta_lat":[0,3514,15650,57552,1537],"delta_lng":[0,-1726,3899,21565,3932]}},
    {"code":9992226,"left":9992225,"id":"26708c","name":"健軍町","name_kana":"けんぐんまち","lat":32.778381,"lng":130.761209,"prefecture":43,"lines":[99922,99923],"attr":"cool","postal_code":"862-0903","address":"熊本市若葉１丁目２-５地先","next":[9991905,1190343,1190344,1190342,1192306,1192310,1190345,1192307,1192312,9991903,1192313,1190350,9992225,1192311,1192308,9991906,1192309],"voronoi":{"lat":32.797782,"lng":130.831463,"delta_lat":[0,-25779,-12366,-66370,-52641,-25313,-5541,61019,5917,10442,26373,1840,87865,1335,6699,-1309,-4366],"delta_lng":[0,35062,11674,40902,14683,5052,929,-161880,-8231,-9544,-19309,-783,26848,2372,19741,10379,13599]}},
    {"code":9992225,"id":"747490","name":"健軍交番前","name_kana":"けんぐんこうばんまえ","lat":32.779463,"lng":130.757668,"prefecture":43,"lines":[99922,99923],"attr":"cool","postal_code":"862-0908","address":"熊本市新生１丁目９-７地先","next":[1192306,1190342,9992224,9992226],"voronoi":{"lat":32.715363,"lng":130.740017,"delta_lat":[0,8221,78253,1391],"delta_lng":[0,-3774,27670,2952]}},
    {"code":9992223,"id":"0bd99b","name":"健軍校前","name_kana":"けんぐんこうまえ","lat":32.781917,"lng":130.750952,"prefecture":43,"lines":[99922,99923],"attr":"cool","postal_code":"862-0911","address":"熊本市健軍４丁目１３-２地先","next":[9992222,9992224,9992221,1192306],"voronoi":{"lat":32.742749,"lng":130.738417,"delta_lat":[0,23140,32363,2049],"delta_lng":[0,4580,9711,7274]}},
    {"code":9991903,"left":9991904,"right":9991902,"id":"c1f26f","name":"加勢","name_kana":"かせ","lat":32.847818,"lng":131.010139,"prefecture":43,"lines":[99919],"attr":"heat","postal_code":"869-1404","address":"阿蘇郡南阿蘇村河陽","next":[1192313,9991902,9991904,9992226,9991905],"voronoi":{"lat":32.640627,"lng":130.933784,"delta_lat":[0,52641,97666,74335,-64987],"delta_lng":[0,-14683,25154,77635,-15245]}},
    {"code":9991904,"id":"600c47","name":"阿蘇下田城ふれあい温泉","name_kana":"あそしもだじょうふれあいおんせん","lat":32.844413,"lng":131.024654,"prefecture":43,"lines":[99919],"attr":"heat","postal_code":"869-1404","address":"阿蘇郡南阿蘇村河陽","next":[9991905,9991903,1192316,1192318,9991902,1192317],"voronoi":{"lat":32.891633,"lng":131.042599,"delta_lat":[0,-1840,-24524,-64987,84485,4417],"delta_lng":[0,-9016,-11693,-15245,55979,-7427]}},
    {"code":9991902,"id":"db8f1b","name":"長陽","name_kana":"ちょうよう","lat":32.854287,"lng":131.003945,"prefecture":43,"lines":[99919],"attr":"heat","postal_code":"869-1404","address":"阿蘇郡南阿蘇村河陽","next":[9991903,1192313,1192316,1192315,9991904,1192314],"voronoi":{"lat":32.803121,"lng":130.946732,"delta_lat":[0,-12187,74335,24524,119,-6764],"delta_lng":[0,-2478,77635,11693,-2391,-36116]}},
    {"code":1192313,"left":1192312,"right":1192315,"id":"894c6d","name":"瀬田(熊本)","name_kana":"せた","lat":32.872567,"lng":130.914044,"prefecture":43,"lines":[11923],"attr":"eco","postal_code":"869-1219","address":"菊池郡大津町大林","next":[9991903,1192315,9991902,1192314,1192312,9992226],"voronoi":{"lat":32.790934,"lng":130.944254,"delta_lat":[0,12187,126787,62277,-232547,-66370],"delta_lng":[0,2478,-12351,-32138,-24045,40902]}},
    {"code":1192312,"left":1192311,"right":9991713,"id":"6fb46b","name":"肥後大津","name_kana":"ひごおおづ","lat":32.877512,"lng":130.866218,"prefecture":43,"lines":[11923],"attr":"eco","postal_code":"869-1235","address":"菊池郡大津町室","next":[1191311,1192313,9992226,9991713,1192316,1192315,1192311],"voronoi":{"lat":33.034009,"lng":130.818004,"delta_lat":[0,64515,2,-70451,-35891,-232547,12366],"delta_lng":[0,4153,44773,25184,10129,-24045,-11674]}},
    {"code":1192311,"left":1192310,"id":"c32da2","name":"原水","name_kana":"はらみず","lat":32.870625,"lng":130.829029,"prefecture":43,"lines":[11923],"attr":"heat","postal_code":"869-1102","address":"菊池郡菊陽町原水字馬場","next":[1192310,9991713,9992226,1192312],"voronoi":{"lat":33.034009,"lng":130.818004,"delta_lat":[0,-112672,-123555,-25779],"delta_lng":[0,-20505,33963,35062]}},
    {"code":1192310,"id":"986c89","name":"三里木","name_kana":"さんりぎ","lat":32.861634,"lng":130.796321,"prefecture":43,"lines":[11923],"attr":"heat","postal_code":"869-1101","address":"菊池郡菊陽町津久礼","next":[1192311,9991713,9992226,1192309],"voronoi":{"lat":32.887649,"lng":130.780471,"delta_lat":[0,33688,-123555,7805],"delta_lng":[0,17029,33963,-18506]}},
    {"code":9991713,"id":"7129e4","name":"御代志","name_kana":"みよし","lat":32.884985,"lng":130.750124,"prefecture":43,"lines":[99917],"attr":"cool","postal_code":"861-1104","address":"合志市御代志東海道１６９３-１","next":[1190335,1192310,1190337,1191311,1192311,1191309,1190336,1192312,1192308,1192309,9991712],"voronoi":{"lat":32.901418,"lng":130.714187,"delta_lat":[0,51268,86106,73601,-3587,-10281,-64515,-112672,-33688,-14798,-409],"delta_lng":[0,-3521,12820,18771,41408,38493,-4153,-20505,-17029,-10978,-710]}},
    {"code":1192315,"left":1192314,"right":1192316,"id":"1e070e","name":"赤水","name_kana":"あかみず","lat":32.913261,"lng":130.9929,"prefecture":43,"lines":[11923],"attr":"eco","postal_code":"869-2232","address":"阿蘇市赤水","next":[1192316,1192313,1192314,9991902,1192312],"voronoi":{"lat":33.028075,"lng":130.892115,"delta_lat":[0,-138164,-6764,46760,62277],"delta_lng":[0,139077,-36116,-60694,-32138]}},
    {"code":1192314,"id":"f35b3c","name":"立野(熊本)","name_kana":"たての","lat":32.87757,"lng":130.965403,"prefecture":43,"lines":[11923,99919],"attr":"eco","postal_code":"869-1401","address":"阿蘇郡南阿蘇村立野","next":[1192313,1192315,9991902],"voronoi":{"lat":32.929907,"lng":130.934382,"delta_lat":[0,-126787,80027],"delta_lng":[0,12351,48343]}},
    {"code":1192316,"id":"2af8f3","name":"市ノ川","name_kana":"いちのかわ","lat":32.928048,"lng":131.00759,"prefecture":43,"lines":[11923],"attr":"eco","postal_code":"869-2237","address":"阿蘇市的石","next":[1192315,1191316,1192317,9991902,9991904,1191311,1192312],"voronoi":{"lat":32.889911,"lng":131.031191,"delta_lat":[0,-119,1840,202367,4781,-254,-70451],"delta_lng":[0,2391,9016,-79065,-95899,-704,25184]}},
    {"code":9991909,"left":1190708,"right":1192323,"id":"ed98f2","name":"高森","name_kana":"たかもり","lat":32.81954,"lng":131.122561,"prefecture":43,"lines":[99919],"attr":"cool","postal_code":"869-1602","address":"阿蘇郡高森町大字高森","next":[1192321,1192322,1190711,9991908,1190716,9992014,9991910,1192320,1192323],"voronoi":{"lat":32.589586,"lng":131.349419,"delta_lat":[0,-97850,29876,335895,20573,1954,-31762,-48120,-177015],"delta_lng":[0,-76250,-112855,-50021,1786,45243,51972,45608,108526]}},
    {"code":1190708,"left":1190710,"right":1190707,"id":"226a57","name":"北川","name_kana":"きたがわ","lat":32.690558,"lng":131.697691,"prefecture":45,"lines":[11907],"attr":"heat","postal_code":"882-0097","address":"延岡市北川町川内名","next":[1192324,1190707,1190709,1192327,1190706,1190710,1190711],"voronoi":{"lat":32.701127,"lng":131.442484,"delta_lat":[0,42884,14021,-8348,-64821,-14852,14339],"delta_lng":[0,34337,17809,88357,194908,-158052,-110503]}},
    {"code":1190710,"left":1190712,"right":9991908,"id":"e77abb","name":"北延岡","name_kana":"きたのべおか","lat":32.630276,"lng":131.689869,"prefecture":45,"lines":[11907],"attr":"heat","postal_code":"882-0002","address":"延岡市差木野町","next":[1190712,1190709,1190711,1190708,1190713],"voronoi":{"lat":32.670011,"lng":131.619844,"delta_lat":[0,14339,-100212,-17450,-14377],"delta_lng":[0,-110503,231923,95018,173140]}},
    {"code":1190712,"left":1190711,"id":"d8f375","name":"南延岡","name_kana":"みなみのべおか","lat":32.559272,"lng":131.676829,"prefecture":45,"lines":[11907],"attr":"heat","postal_code":"882-0867","address":"延岡市構口町１丁目","next":[1190715,1190710,1190711,1190713,1190714],"voronoi":{"lat":32.566688,"lng":131.836281,"delta_lat":[0,17450,-29472,-18477,-752],"delta_lng":[0,-95018,-206057,66199,21242]}},
    {"code":1190711,"id":"f6b116","name":"延岡","name_kana":"のべおか","lat":32.589944,"lng":131.672442,"prefecture":45,"lines":[11907],"attr":"heat","postal_code":"882-0053","address":"延岡市幸町３丁目","next":[1190715,9991909,1192324,1190712,1190710,1192323,1190708,1190716],"voronoi":{"lat":32.554666,"lng":131.535207,"delta_lat":[0,29472,100212,16777,-28858,-49132,-33551,-11196],"delta_lng":[0,206057,-231923,-66856,-34886,-44170,-14009,41202]}},
    {"code":9991908,"id":"d7cc59","name":"見晴台","name_kana":"みはらしだい","lat":32.817613,"lng":131.109621,"prefecture":43,"lines":[99919],"attr":"cool","postal_code":"869-1501","address":"阿蘇郡南阿蘇村両併","next":[9992014,9991909,9991910,9991907],"voronoi":{"lat":32.549214,"lng":131.046044,"delta_lat":[0,-27603,335895,-91166],"delta_lng":[0,114271,-50021,-23403]}},
    {"code":1190707,"left":1190709,"right":1190706,"id":"6b17c9","name":"市棚","name_kana":"いちたな","lat":32.728336,"lng":131.710255,"prefecture":45,"lines":[11907],"attr":"heat","postal_code":"882-0097","address":"延岡市北川町川内名","next":[1190706,1190702,1190708,1190704,1190660,1190709],"voronoi":{"lat":32.684862,"lng":131.777896,"delta_lat":[0,64821,16851,-41683,-13938,-73280],"delta_lng":[0,-194908,277387,102491,20994,93391]}},
    {"code":1190709,"id":"087e11","name":"日向長井","name_kana":"ひゅうがながい","lat":32.664325,"lng":131.700156,"prefecture":45,"lines":[11907],"attr":"heat","postal_code":"889-0102","address":"延岡市北川町長井","next":[1190660,1190713,1190708,1190710,1190707],"voronoi":{"lat":32.517711,"lng":132.260489,"delta_lat":[0,34599,117700,14852,-47229],"delta_lng":[0,-251068,-389578,158052,299355]}},
    {"code":1190706,"id":"06be1c","name":"宗太郎","name_kana":"そうたろう","lat":32.78628,"lng":131.706735,"prefecture":44,"lines":[11907],"attr":"eco","postal_code":"879-3204","address":"佐伯市宇目大字重岡","next":[1190707,1190705,1190704,1192327,1190708,1192328],"voronoi":{"lat":32.773897,"lng":131.507386,"delta_lat":[0,-15865,-8348,16851,30115,39416],"delta_lng":[0,-12756,88357,277387,-46495,-243131]}},
    {"code":1192323,"left":9991906,"right":1190704,"id":"e15cbc","name":"豊後荻","name_kana":"ぶんごおぎ","lat":32.926889,"lng":131.297657,"prefecture":44,"lines":[11923],"attr":"cool","postal_code":"879-6115","address":"竹田市荻町馬場","next":[1192324,1192322,1190711,1192325,9991909],"voronoi":{"lat":32.800152,"lng":131.254903,"delta_lat":[0,268748,-73674,-322957,-49132],"delta_lng":[0,31516,35189,85991,-44170]}},
    {"code":9991906,"left":9991910,"right":1192322,"id":"dc98ac","name":"中松","name_kana":"なかまつ","lat":32.827381,"lng":131.053594,"prefecture":43,"lines":[99919],"attr":"eco","postal_code":"869-2205","address":"阿蘇郡南阿蘇村中松","next":[9991907,1192318,1190345,9991905,9992014,9992226],"voronoi":{"lat":32.560589,"lng":130.970759,"delta_lat":[0,-7261,326391,1369,-265774,-5541],"delta_lng":[0,53943,53208,-5710,-133365,929]}},
    {"code":9991910,"left":9991907,"id":"342e55","name":"南阿蘇白川水源","name_kana":"みなみあそしらかわすいげん","lat":32.822222,"lng":131.091667,"prefecture":43,"lines":[99919],"attr":"eco","postal_code":"869-1502","address":"熊本県阿蘇郡南阿蘇村","open_date":"2012-03-17","next":[1192320,9991907,1192319,9991909,9991908],"voronoi":{"lat":32.766341,"lng":131.08689,"delta_lat":[0,113171,-492,-940,-20573],"delta_lng":[0,2256,18740,4193,-1786]}},
    {"code":9991907,"id":"88331e","name":"阿蘇白川","name_kana":"あそしらかわ","lat":32.822368,"lng":131.084345,"prefecture":43,"lines":[99919],"attr":"eco","postal_code":"869-1502","address":"阿蘇郡南阿蘇村白川","next":[1192318,1192319,9991906,9991910,9992014,9991908],"voronoi":{"lat":32.549214,"lng":131.046044,"delta_lat":[0,4113,326391,240,-447,-113171],"delta_lng":[0,-21341,53208,6288,4948,-2256]}},
    {"code":1192322,"id":"eedbca","name":"滝水","name_kana":"たきみず","lat":32.933342,"lng":131.24263,"prefecture":43,"lines":[11923],"attr":"cool","postal_code":"869-2804","address":"阿蘇市波野大字滝水","next":[9991909,1192325,1191326,1192323,1191322,1192321],"voronoi":{"lat":32.848272,"lng":131.209294,"delta_lat":[0,-48120,268748,1750,12725,-2514],"delta_lng":[0,45608,31516,-446,-30057,-20970]}},
    {"code":1190704,"left":1190705,"right":1190703,"id":"e753ed","name":"直川","name_kana":"なおかわ","lat":32.898667,"lng":131.779529,"prefecture":44,"lines":[11907],"attr":"eco","postal_code":"879-3102","address":"佐伯市直川大字上直見","next":[1190702,1192330,1190706,1190707,1190703,1190705],"voronoi":{"lat":32.938083,"lng":131.685041,"delta_lat":[0,47173,-177756,-82649,41683,30115],"delta_lng":[0,33511,186272,58041,-102491,-46495]}},
    {"code":1190705,"id":"baf985","name":"重岡","name_kana":"しげおか","lat":32.840339,"lng":131.715499,"prefecture":44,"lines":[11907],"attr":"eco","postal_code":"879-3201","address":"佐伯市宇目大字大平","next":[1190706,1192328,1190704,1192330,1192329],"voronoi":{"lat":32.845427,"lng":131.577218,"delta_lat":[0,-9362,-39416,141434,-9826],"delta_lng":[0,-6469,243131,-128838,-17307]}},
    {"code":1190703,"id":"49fb57","name":"直見","name_kana":"なおみ","lat":32.928396,"lng":131.807899,"prefecture":44,"lines":[11907],"attr":"heat","postal_code":"879-3103","address":"佐伯市直川大字下直見","next":[1190653,1192331,1190702,1190655,1192330,1190704],"voronoi":{"lat":32.985257,"lng":131.718553,"delta_lat":[0,28294,1403,4426,-3614,-208265],"delta_lng":[0,12718,1226,54746,9356,108226]}},
    {"code":1192335,"left":1192329,"right":1192331,"id":"629d0c","name":"敷戸","name_kana":"しきど","lat":33.18811,"lng":131.615128,"prefecture":44,"lines":[11923],"attr":"eco","postal_code":"870-1121","address":"大分市鴛野１０１０","next":[1191334,1191332,1192334,1192336,1191335],"voronoi":{"lat":33.190586,"lng":131.641133,"delta_lat":[0,-19824,9713,21792,1121],"delta_lng":[0,-60225,1057,19517,5355]}},
    {"code":1192329,"left":1192324,"right":1191329,"id":"cd81df","name":"三重町","name_kana":"みえまち","lat":32.983616,"lng":131.584389,"prefecture":44,"lines":[11923],"attr":"cool","postal_code":"879-7111","address":"豊後大野市三重町赤嶺","next":[1192330,1192328,1190705],"voronoi":{"lat":32.845427,"lng":131.577218,"delta_lat":[0,218306,-135476],"delta_lng":[0,-38191,128708]}},
    {"code":1192324,"left":1192321,"right":1192327,"id":"e1c757","name":"玉来","name_kana":"たまらい","lat":32.947847,"lng":131.376369,"prefecture":44,"lines":[11923],"attr":"cool","postal_code":"878-0035","address":"竹田市大字吉田","next":[1192327,1190708,1192325,1190711,1192323],"voronoi":{"lat":32.995226,"lng":131.321608,"delta_lat":[0,-65189,-186026,-42884,-28858],"delta_lng":[0,111803,43411,-34337,-34886]}},
    {"code":1192321,"left":1192320,"right":1192317,"id":"0e8b3e","name":"波野","name_kana":"なみの","lat":32.938562,"lng":131.195298,"prefecture":43,"lines":[11923],"attr":"cool","postal_code":"869-2806","address":"阿蘇市波野大字波野","next":[1192320,9991909,1191321,1191322,1192322],"voronoi":{"lat":33.083352,"lng":131.176471,"delta_lat":[0,-903,-202416,-31762,232589],"delta_lng":[0,-22418,3270,51972,25651]}},
    {"code":1192320,"left":1192318,"id":"2b5d66","name":"宮地","name_kana":"みやじ","lat":32.937305,"lng":131.117476,"prefecture":43,"lines":[11923],"attr":"cool","postal_code":"869-2612","address":"阿蘇市一の宮町宮地","next":[1192321,1192319,9991910,9991909,1191321],"voronoi":{"lat":32.880033,"lng":131.157322,"delta_lat":[0,-1954,940,215416,-11986],"delta_lng":[0,-45243,-4193,-6752,52918]}},
    {"code":1192318,"id":"1774fc","name":"阿蘇","name_kana":"あそ","lat":32.937393,"lng":131.079959,"prefecture":43,"lines":[11923],"attr":"cool","postal_code":"869-2225","address":"阿蘇市黒川","next":[9991907,9991906,1192319,9991904,1191321,9991905,1192317],"voronoi":{"lat":32.889184,"lng":131.055197,"delta_lat":[0,-4417,-3679,-1369,240,216039,4678],"delta_lng":[0,7427,9577,5710,6288,11796,-13173]}},
    {"code":1192317,"id":"d826e8","name":"内牧","name_kana":"うちのまき","lat":32.942136,"lng":131.043648,"prefecture":43,"lines":[11923],"attr":"eco","postal_code":"869-2226","address":"阿蘇市乙姫","next":[1191321,1191316,1192316,1192318,9991904],"voronoi":{"lat":32.891633,"lng":131.042599,"delta_lat":[0,202367,7445,-769,-211492],"delta_lng":[0,-79065,117711,1577,-27625]}},
    {"code":1192327,"left":1192325,"right":1192328,"id":"9efef7","name":"緒方","name_kana":"おがた","lat":32.971255,"lng":131.476678,"prefecture":44,"lines":[11923],"attr":"cool","postal_code":"879-6601","address":"豊後大野市緒方町馬場","next":[1192324,1190706,1192328,1190708,1192325,1192326],"voronoi":{"lat":32.959388,"lng":131.433293,"delta_lat":[0,-29352,-186026,14021,15865,271472],"delta_lng":[0,118,43411,17809,12756,-9955]}},
    {"code":1192325,"id":"c176ca","name":"豊後竹田","name_kana":"ぶんごたけた","lat":32.970906,"lng":131.389814,"prefecture":44,"lines":[11923],"attr":"cool","postal_code":"878-0011","address":"竹田市大字会々字下木","next":[1192322,1192326,1192324,1191326,1192327,1192323],"voronoi":{"lat":32.930037,"lng":131.433411,"delta_lat":[0,29352,119580,-8319,-1750,-73674],"delta_lng":[0,-118,-94136,-53184,446,35189]}},
    {"code":1192328,"id":"ec4ea7","name":"豊後清川","name_kana":"ぶんごきよかわ","lat":32.972974,"lng":131.523558,"prefecture":44,"lines":[11923],"attr":"cool","postal_code":"879-6902","address":"豊後大野市清川町雨堤","next":[1191331,1192326,1192327,1192330,1190705,1192331,1192329,1190706],"voronoi":{"lat":32.773897,"lng":131.507386,"delta_lat":[0,271472,39094,591,-9807,-11513,-218306,-9362],"delta_lng":[0,-9955,13445,13920,9119,5111,38191,-6469]}},
    {"code":1191329,"left":1191328,"right":1191330,"id":"b53963","name":"小野屋","name_kana":"おのや","lat":33.185258,"lng":131.452546,"prefecture":44,"lines":[11913],"attr":"eco","postal_code":"879-5405","address":"由布市庄内町東長宝","next":[1191328,1191330,1192326],"voronoi":{"lat":33.095839,"lng":131.4332,"delta_lat":[0,144760,-152398],"delta_lng":[0,19997,48261]}},
    {"code":1191328,"left":1192326,"right":1191326,"id":"9c50f5","name":"天神山","name_kana":"てんじんやま","lat":33.187154,"lng":131.438821,"prefecture":44,"lines":[11913],"attr":"cool","postal_code":"879-5406","address":"由布市庄内町西長宝","next":[1191329,1192326,1191324,1191330,1191327,1190640],"voronoi":{"lat":33.260426,"lng":131.42893,"delta_lat":[0,-13180,-151129,-277,144760,4206],"delta_lng":[0,-11859,8338,7792,19997,-771]}},
    {"code":1192326,"left":1191327,"id":"cf6e08","name":"朝地","name_kana":"あさじ","lat":33.004356,"lng":131.432305,"prefecture":44,"lines":[11923],"attr":"cool","postal_code":"879-6221","address":"豊後大野市朝地町坪泉","next":[1191331,1191328,1192328,1191326,1192325,1191329,1192327,1191327,1191330],"voronoi":{"lat":33.084463,"lng":131.510876,"delta_lat":[0,-39094,-85980,119580,4643,12505,-277,-7638,-505],"delta_lng":[0,-13445,-64139,-94136,11499,74753,7792,68258,1814]}},
    {"code":1191327,"id":"338847","name":"庄内(大分)","name_kana":"しょうない","lat":33.185126,"lng":131.402063,"prefecture":44,"lines":[11913],"attr":"cool","postal_code":"879-5434","address":"由布市庄内町庄内原","next":[1191326,1191328,1191324,1192326],"voronoi":{"lat":33.083611,"lng":131.350655,"delta_lat":[0,146012,17622,-151129],"delta_lng":[0,37410,29005,8338]}},
    {"code":1191326,"id":"c89a06","name":"湯平","name_kana":"ゆのひら","lat":33.197339,"lng":131.354395,"prefecture":44,"lines":[11913],"attr":"cool","postal_code":"879-5111","address":"由布市湯布院町下湯平","next":[1191322,1192326,1191327,1192322,1192325,1191323,1191324,1191325],"voronoi":{"lat":33.229623,"lng":131.388065,"delta_lat":[0,-146012,-4643,-8319,12725,43090,69832,33543],"delta_lng":[0,-37410,-11499,-53184,-30057,8415,29321,72033]}},
    {"code":1191330,"left":1191332,"right":1191331,"id":"6f0877","name":"鬼瀬","name_kana":"おにがせ","lat":33.195721,"lng":131.485586,"prefecture":44,"lines":[11913],"attr":"eco","postal_code":"879-5521","address":"由布市挾間町鬼瀬","next":[1191328,1191329,1191331,1190640,1192326,1190641],"voronoi":{"lat":33.241993,"lng":131.468454,"delta_lat":[0,2813,-4206,-152398,-505,143816],"delta_lng":[0,-16027,771,48261,1814,-4563]}},
    {"code":1191332,"id":"a2cd6d","name":"豊後国分","name_kana":"ぶんごこくぶ","lat":33.195065,"lng":131.551219,"prefecture":44,"lines":[11913],"attr":"eco","postal_code":"870-0864","address":"大分市国分","next":[1191334,1191331,1192334,1192335,1192331,1191333],"voronoi":{"lat":33.180474,"lng":131.581964,"delta_lat":[0,-9713,-54202,-28047,130049,-25960],"delta_lng":[0,-1057,-14396,-38372,5462,41647]}},
    {"code":1191331,"id":"d00835","name":"向之原","name_kana":"むかいのはる","lat":33.196625,"lng":131.514075,"prefecture":44,"lines":[11913],"attr":"eco","postal_code":"879-5502","address":"由布市挾間町向原","next":[1192326,1191332,1192328,1190641,1191330,1191333,1192331],"voronoi":{"lat":33.218561,"lng":131.533601,"delta_lat":[0,14442,-1491,-143816,-3234,591,3459],"delta_lng":[0,-4916,-29976,4563,7604,13920,3343]}},
    {"code":1192331,"left":1190660,"right":1190653,"id":"3318fa","name":"犬飼","name_kana":"いぬかい","lat":33.078158,"lng":131.63667,"prefecture":44,"lines":[11923],"attr":"heat","postal_code":"879-7306","address":"豊後大野市犬飼町下津尾","next":[1190653,1190703,1191332,1192330,1192328,1191331,1192334,1192332],"voronoi":{"lat":33.014953,"lng":131.732497,"delta_lat":[0,-1403,61696,9807,3459,28047,2290,-41492],"delta_lng":[0,-1226,-197355,-9119,3343,38372,12639,139639]}},
    {"code":1190660,"left":1192330,"right":1190657,"id":"5065cb","name":"佐伯","name_kana":"さいき","lat":32.972521,"lng":131.901857,"prefecture":44,"lines":[11906,11907],"attr":"cool","postal_code":"876-0803","address":"佐伯市駅前２丁目","next":[1190658,1190709,9981508,1190713,1190659,1190657,1190702,1190707],"voronoi":{"lat":32.710913,"lng":131.983859,"delta_lat":[0,263257,19258,-6015,-76087,-406129,12514,119922],"delta_lng":[0,-106063,32593,84407,310923,-20006,-25224,-183239]}},
    {"code":1192330,"left":1190659,"right":1190655,"id":"e9a284","name":"菅尾","name_kana":"すがお","lat":33.014328,"lng":131.616716,"prefecture":44,"lines":[11923],"attr":"cool","postal_code":"879-7102","address":"豊後大野市三重町菅生","next":[1192329,1190704,1192328,1190703,1192331,1190705],"voronoi":{"lat":32.985257,"lng":131.718553,"delta_lat":[0,28294,61696,-11513,-135476,9826],"delta_lng":[0,12718,-197355,5111,128708,17307]}},
    {"code":1190659,"left":1190702,"id":"35c281","name":"海崎","name_kana":"かいざき","lat":32.996041,"lng":131.88796,"prefecture":44,"lines":[11906],"attr":"cool","postal_code":"876-1105","address":"佐伯市大字海崎","next":[1190702,1190655,1190660,1190658],"voronoi":{"lat":33.031628,"lng":131.866904,"delta_lat":[0,-16205,-41253,19258],"delta_lng":[0,-51299,62191,32593]}},
    {"code":1190702,"id":"372000","name":"上岡","name_kana":"かみおか","lat":32.956302,"lng":131.8616,"prefecture":44,"lines":[11907],"attr":"cool","postal_code":"876-0045","address":"佐伯市上岡区上岡","next":[1190659,1190707,1190704,1190703,1190655,1190660],"voronoi":{"lat":32.724851,"lng":131.962865,"delta_lat":[0,82649,208265,-342,-41253,-263257],"delta_lng":[0,-58041,-108226,19007,62191,106063]}},
    {"code":1190655,"id":"4a4ec3","name":"津久見","name_kana":"つくみ","lat":33.072853,"lng":131.863696,"prefecture":44,"lines":[11906],"attr":"cool","postal_code":"879-2441","address":"津久見市中央町","next":[1190659,1190653,1190657,1190703,1190658,1190702,1190656,1190650,1190651,1190654],"voronoi":{"lat":33.073494,"lng":131.817596,"delta_lat":[0,-54115,-3614,-342,16205,12143,10349,97124,-10195,-7565],"delta_lng":[0,-30354,9356,19007,51299,16948,5462,12051,-22626,-12355]}},
    {"code":1190657,"left":1190658,"right":1190656,"id":"d986a8","name":"浅海井","name_kana":"あざむい","lat":33.043539,"lng":131.919236,"prefecture":44,"lines":[11906],"attr":"cool","postal_code":"879-2601","address":"佐伯市上浦大字浅海井浦","next":[1180740,1190655,1190658,1190660,1190656,9981508],"voronoi":{"lat":32.911326,"lng":132.305719,"delta_lat":[0,76087,56358,10349,8341,-150152],"delta_lng":[0,-310923,-110944,5462,374330,42212]}},
    {"code":1190658,"id":"d8977f","name":"狩生","name_kana":"かりう","lat":33.015334,"lng":131.904908,"prefecture":44,"lines":[11906],"attr":"cool","postal_code":"876-1101","address":"佐伯市大字狩生","next":[1190660,1190655,1190657,1190659],"voronoi":{"lat":32.987413,"lng":131.994796,"delta_lat":[0,56358,-12143,-38200],"delta_lng":[0,-110944,-16948,43485]}},
    {"code":1190656,"id":"884612","name":"日代","name_kana":"ひしろ","lat":33.066024,"lng":131.918735,"prefecture":44,"lines":[11906],"attr":"cool","postal_code":"879-2682","address":"津久見市大字網代","next":[1190649,1180730,1180732,1190655,1180740,1180737,1190657,1190650],"voronoi":{"lat":33.341659,"lng":132.117149,"delta_lat":[0,-73413,-101556,-65492,-38737,-8341,97124,152790],"delta_lng":[0,55612,59639,21706,9539,-374330,12051,164714]}},
    {"code":1190653,"left":1192333,"right":1190651,"id":"93223a","name":"上臼杵","name_kana":"かみうすき","lat":33.112499,"lng":131.793015,"prefecture":44,"lines":[11906],"attr":"cool","postal_code":"875-0053","address":"臼杵市大字福良","next":[1192331,1190654,1190703,1190655,1190652,1192332],"voronoi":{"lat":33.077357,"lng":131.71879,"delta_lat":[0,-62404,4426,54115,51994,-17457],"delta_lng":[0,13707,54746,30354,-21417,-75459]}},
    {"code":1192333,"left":1190652,"right":1192334,"id":"c154c4","name":"中判田","name_kana":"なかはんだ","lat":33.164564,"lng":131.638735,"prefecture":44,"lines":[11923],"attr":"heat","postal_code":"870-1113","address":"大分市中判田","next":[1192332,1190652,1190647,1192336,1192334,1190646,1190645],"voronoi":{"lat":33.199471,"lng":131.6667,"delta_lat":[0,-8887,-57359,27705,5502,10812,21218],"delta_lng":[0,-25556,-36054,110175,1064,-10498,-34488]}},
    {"code":1190652,"left":1192332,"id":"1afd6a","name":"熊崎","name_kana":"くまさき","lat":33.135768,"lng":131.787632,"prefecture":44,"lines":[11906],"attr":"cool","postal_code":"875-0083","address":"臼杵市大字井村","next":[1190647,1190648,1192333,1192332,1190653,1190654,1190651],"voronoi":{"lat":33.125488,"lng":131.796179,"delta_lat":[0,-17457,52899,5502,1851,15790,-45345],"delta_lng":[0,-75459,-5455,1064,2982,44227,44108]}},
    {"code":1192332,"id":"481a2f","name":"竹中","name_kana":"たけなか","lat":33.121529,"lng":131.649557,"prefecture":44,"lines":[11923],"attr":"heat","postal_code":"879-7502","address":"大分市大字端登","next":[1192333,1190652,1190653,1192334,1192331],"voronoi":{"lat":33.118849,"lng":131.57915,"delta_lat":[0,14376,27705,-52899,-30674],"delta_lng":[0,25940,110175,5455,-1931]}},
    {"code":1192334,"id":"5aa5b9","name":"大分大学前","name_kana":"おおいただいがくまえ","lat":33.177131,"lng":131.618742,"prefecture":44,"lines":[11923],"attr":"eco","postal_code":"870-1124","address":"大分市大字旦野原７００番地","next":[1191332,1192335,1192336,1192333,1192332,1192331],"voronoi":{"lat":33.11656,"lng":131.566511,"delta_lat":[0,54202,19824,-1,-57359,-14376],"delta_lng":[0,14396,60225,12,-36054,-25940]}},
    {"code":1190651,"left":1190654,"right":1190650,"id":"85409b","name":"下ノ江","name_kana":"したのえ","lat":33.158653,"lng":131.811159,"prefecture":44,"lines":[11906],"attr":"heat","postal_code":"875-0003","address":"臼杵市大字田井","next":[1190648,1190654,1190655,1190652,1190650],"voronoi":{"lat":33.133484,"lng":131.866385,"delta_lat":[0,5244,45345,2038,-45062],"delta_lng":[0,-58738,-44108,2672,112529]}},
    {"code":1190654,"id":"632a78","name":"臼杵","name_kana":"うすき","lat":33.118496,"lng":131.807574,"prefecture":44,"lines":[11906],"attr":"cool","postal_code":"875-0042","address":"臼杵市大字海添","next":[1190653,1190651,1190652,1190655],"voronoi":{"lat":33.138728,"lng":131.807646,"delta_lat":[0,-13240,-51994,59990],"delta_lng":[0,-11467,21417,48788]}},
    {"code":1190650,"id":"ada874","name":"佐志生","name_kana":"さしう","lat":33.174957,"lng":131.817688,"prefecture":44,"lines":[11906],"attr":"heat","postal_code":"875-0001","address":"臼杵市大字佐志生","next":[1190648,1190655,1190649,1190651,1190656],"voronoi":{"lat":33.151245,"lng":131.901366,"delta_lat":[0,-10195,45062,4478,113445],"delta_lng":[0,-22626,-112529,4184,295685]}}
  ]
}