{
  "name":"segment64",
  "root":1010804,
  "east":180.0,
  "west":142.384789,
  "south":43.83871,
  "north":90.0,
  "station_size":154,
  "node_list":[
    {"code":1010804,"left":1112109,"right":1011709,"id":"902ae9","name":"十六号線","name_kana":"じゅうろくごうせん","closed":true,"lat":44.325139,"lng":143.294444,"prefecture":1,"lines":[10108],"postal_code":"099-5351","address":"北海道紋別市上渚滑町下渚滑２０５−１","open_date":"1955-12-25","closed_date":"1985-04-01","next":[1112124,1010803,1010805,1112122],"voronoi":{"lat":44.3188,"lng":143.332876,"delta_lat":[0,-10929,37426,-4386],"delta_lng":[0,-101745,82862,8350]},"impl":false},
    {"code":1112109,"left":1112106,"right":1112110,"id":"860285","name":"一ノ橋","name_kana":"いちのはし","closed":true,"lat":44.319167,"lng":142.769167,"prefecture":1,"lines":[11121],"postal_code":"098-1331","address":"北海道上川郡下川町一の橋６０２","open_date":"1920-10-25","closed_date":"1989-05-01","next":[1011404,1010812,1112108,1111616,1112110,1010406,1111612],"voronoi":{"lat":44.092924,"lng":142.767209,"delta_lat":[0,401554,25979,-15391,-395324,-26290,224],"delta_lng":[0,-28234,29641,21314,69073,-10930,-46474]},"impl":false},
    {"code":1112106,"left":1111512,"right":1010811,"id":"bb5649","name":"下川","name_kana":"しもかわ","closed":true,"lat":44.300556,"lng":142.638778,"prefecture":1,"lines":[11121],"postal_code":"098-1203","address":"北海道上川郡下川町共栄町２","open_date":"1919-10-20","closed_date":"1989-05-01","next":[1111511,1011404,1112107,1111612,1112105,1111510,1111611],"voronoi":{"lat":44.100193,"lng":142.691004,"delta_lat":[0,336955,-1636,-322337,-6456,-6991,-2236],"delta_lng":[0,-40350,-5799,-55893,7905,12667,15874]},"impl":false},
    {"code":1111512,"left":1111509,"right":1111519,"id":"cee556","name":"東六線","name_kana":"ひがしろくせん","lat":44.068723,"lng":142.388073,"prefecture":1,"lines":[11115],"attr":"heat","postal_code":"098-0300","address":"上川郡剣淵町第１０区","next":[1112410,1111515,1112411,1111514,1111511,1111513],"voronoi":{"lat":44.002894,"lng":142.281737,"delta_lat":[0,-198,-26223,143947,26,-13107],"delta_lng":[0,50,10418,220873,-15654,-91588]},"impl":true},
    {"code":1111509,"left":1111510,"right":1111611,"id":"606441","name":"蘭留","name_kana":"らんる","lat":43.925072,"lng":142.473699,"prefecture":1,"lines":[11115],"attr":"heat","postal_code":"078-0329","address":"上川郡比布町北９線１４号","next":[1111510,1111611,1111507,1111508,1111610],"voronoi":{"lat":43.918444,"lng":142.516497,"delta_lat":[0,-14937,1249,76439,-44327],"delta_lng":[0,-122519,-26276,177134,-10803]},"impl":true},
    {"code":1111510,"left":1111507,"right":1111511,"id":"a76210","name":"塩狩","name_kana":"しおかり","lat":43.96794,"lng":142.4552,"prefecture":1,"lines":[11115],"attr":"heat","postal_code":"098-0125","address":"上川郡和寒町塩狩","next":[1111504,1111509,1110347,1111511,1111611,1112106,1111507],"voronoi":{"lat":43.981196,"lng":142.544837,"delta_lat":[0,118533,6991,-182342,-21398,-55,1832],"delta_lng":[0,64697,-12667,-269653,29450,402,10637]},"impl":true},
    {"code":1111507,"left":1111506,"id":"d01dfe","name":"比布","name_kana":"ぴっぷ","lat":43.874478,"lng":142.471294,"prefecture":1,"lines":[11115],"attr":"heat","postal_code":"078-0341","address":"上川郡比布町市街地","next":[1111610,1111504,1111509,1111508,1111506,1111510,1111609],"voronoi":{"lat":43.859181,"lng":142.494128,"delta_lat":[0,18118,25626,1832,-1249,-20050,-11773],"delta_lng":[0,-95186,-41877,10637,26276,104047,337]},"impl":true},
    {"code":1111506,"id":"5a2f9e","name":"南比布","name_kana":"みなみぴっぷ","lat":43.853342,"lng":142.467271,"prefecture":1,"lines":[11115],"attr":"heat","postal_code":"078-0311","address":"上川郡比布町南１線５号","next":[1111607,1111504,1111608,1111507,1111505,1111609],"voronoi":{"lat":43.859181,"lng":142.494128,"delta_lat":[0,18118,-17559,-30096,2009,13254],"delta_lng":[0,-95186,20921,62663,5255,7428]},"impl":true},
    {"code":1111511,"id":"f06bdc","name":"和寒","name_kana":"わっさむ","lat":44.026932,"lng":142.415309,"prefecture":1,"lines":[11115],"attr":"heat","postal_code":"098-0133","address":"上川郡和寒町北町","next":[1112106,1112105,1112104,1111510,1111515,1112410,1110347,1111512,1112409],"voronoi":{"lat":43.960332,"lng":142.295302,"delta_lat":[0,16142,143947,9439,-2667,-14017,-6456,-182342,9449],"delta_lng":[0,-3098,220873,50787,4462,20635,7905,-269653,-24966]},"impl":true},
    {"code":1111611,"left":1111610,"right":1111508,"id":"9490c7","name":"愛別","name_kana":"あいべつ","lat":43.898635,"lng":142.582176,"prefecture":1,"lines":[11116],"attr":"eco","postal_code":"078-1401","address":"上川郡愛別町字愛別","next":[1111609,1111608,1111509,1111612,1111510,1112106,1111613,1111610],"voronoi":{"lat":43.832369,"lng":142.582897,"delta_lat":[0,-22186,27657,259652,2236,-118533,-44327,-78377],"delta_lng":[0,24898,9037,8575,-15874,-64697,-10803,31117]},"impl":true},
    {"code":1111610,"left":1111609,"id":"682d13","name":"伊香牛","name_kana":"いかうし","lat":43.876025,"lng":142.525227,"prefecture":1,"lines":[11116],"attr":"eco","postal_code":"078-1333","address":"上川郡当麻町伊香牛","next":[1111507,1111609,1111508,1111611,1111509],"voronoi":{"lat":43.918444,"lng":142.516497,"delta_lat":[0,-34987,-11773,-13193,78377],"delta_lng":[0,-18472,337,66788,-31117]},"impl":true},
    {"code":1111609,"id":"b5baf6","name":"将軍山","name_kana":"しょうぐんざん","lat":43.857455,"lng":142.521559,"prefecture":1,"lines":[11116],"attr":"eco","postal_code":"078-1334","address":"上川郡当麻町北星２区","next":[1111611,1111610,1111608,1111507,1111506],"voronoi":{"lat":43.859181,"lng":142.494128,"delta_lat":[0,12504,-13193,-26122,12537],"delta_lng":[0,4234,66788,17747,-87688]},"impl":true},
    {"code":1111508,"id":"48febd","name":"北比布","name_kana":"きたぴっぷ","lat":43.901728,"lng":142.476545,"prefecture":1,"lines":[11115],"attr":"heat","postal_code":"078-0325","address":"上川郡比布町北５線１０号","next":[1111507,1111509,1111610],"voronoi":{"lat":43.903507,"lng":142.393979,"delta_lat":[0,-20050,34987],"delta_lng":[0,104047,18472]},"impl":true},
    {"code":1111519,"left":1111517,"right":1112103,"id":"2afba8","name":"風連","name_kana":"ふうれん","lat":44.292238,"lng":142.421624,"prefecture":1,"lines":[11115],"attr":"cool","postal_code":"098-0504","address":"名寄市風連町本町","next":[1112424,1111517,1111520,1111518,1112425],"voronoi":{"lat":44.227597,"lng":142.487811,"delta_lat":[0,26335,46107,17293,-1852],"delta_lng":[0,-53007,-47031,20527,27560]},"impl":true},
    {"code":1111517,"left":1111516,"right":1111518,"id":"63ce2a","name":"多寄","name_kana":"たよろ","lat":44.241296,"lng":142.396315,"prefecture":1,"lines":[11115],"attr":"cool","postal_code":"098-0475","address":"士別市多寄町３６線東","next":[1112420,1111519,1112418,1111520,1111518,1111516,1112423],"voronoi":{"lat":44.253932,"lng":142.434804,"delta_lat":[0,-26335,-1384,-631,4217,17095,6613],"delta_lng":[0,53007,1564,-215174,301,4394,5857]},"impl":true},
    {"code":1111516,"left":1111515,"id":"cc5db8","name":"下士別","name_kana":"しもしべつ","lat":44.210583,"lng":142.396405,"prefecture":1,"lines":[11115],"attr":"cool","postal_code":"095-0061","address":"士別市下士別町","next":[1112418,1111520,1111515,1111517,1112104,1112103],"voronoi":{"lat":44.15917,"lng":142.543382,"delta_lat":[0,58073,8338,631,-12716,-38910],"delta_lng":[0,-270839,1658,215174,20246,25644]},"impl":true},
    {"code":1111515,"id":"c54df5","name":"士別","name_kana":"しべつ","lat":44.172536,"lng":142.388247,"prefecture":1,"lines":[11115],"attr":"cool","postal_code":"095-0023","address":"士別市西３条８丁目","next":[1111512,1112104,1111511,1111514,1111516,1112418,1112416],"voronoi":{"lat":44.192788,"lng":142.264676,"delta_lat":[0,-72341,-26,9439,29311,58073,-21045],"delta_lng":[0,232747,15654,50787,-20482,-270839,-7772]},"impl":true},
    {"code":1111518,"id":"c2f2d1","name":"瑞穂","name_kana":"みずほ","lat":44.266349,"lng":142.396244,"prefecture":1,"lines":[11115],"attr":"cool","postal_code":"098-0475","address":"士別市多寄町３１線東","next":[1112424,1111519,1111517,1112423],"voronoi":{"lat":44.300038,"lng":142.387773,"delta_lat":[0,-46107,-425,34546],"delta_lng":[0,47031,-150051,24302]},"impl":true},
    {"code":1112103,"left":1112105,"right":1111520,"id":"621fef","name":"上名寄","name_kana":"かみなよろ","closed":true,"lat":44.316389,"lng":142.556944,"prefecture":1,"lines":[11121],"postal_code":"098-1216","address":"北海道上川郡下川町上名寄２０３５","open_date":"1919-10-20","closed_date":"1989-05-01","next":[1011404,1112102,1111522,1111516,1111520,1112104],"voronoi":{"lat":44.174586,"lng":142.535265,"delta_lat":[0,38910,34599,178984,4328,-1489],"delta_lng":[0,-25644,132,59290,3155,28206]},"impl":false},
    {"code":1112105,"left":1112104,"id":"21da3d","name":"岐阜橋","name_kana":"ぎふばし","closed":true,"lat":44.306389,"lng":142.605139,"prefecture":1,"lines":[11121],"postal_code":"098-1216","address":"北海道上川郡下川町上名寄３５２","open_date":"1956-10-30","closed_date":"1989-05-01","next":[1011404,1111511,1112104,1112106],"voronoi":{"lat":44.113176,"lng":142.588961,"delta_lat":[0,14017,303492,4828],"delta_lng":[0,-20635,44210,32318]},"impl":false},
    {"code":1112104,"id":"a1346d","name":"矢文","name_kana":"やぶみ","closed":true,"lat":44.309444,"lng":142.584167,"prefecture":1,"lines":[11121],"postal_code":"098-1216","address":"北海道上川郡下川町上名寄６０４","open_date":"1956-10-30","closed_date":"1989-05-01","next":[1011404,1111511,1111515,1112105,1111516,1112103],"voronoi":{"lat":44.430685,"lng":142.612537,"delta_lat":[0,-303492,2667,29311,15416,255332],"delta_lng":[0,-44210,-4462,-20482,-8117,65139]},"impl":false},
    {"code":1111520,"id":"9718c2","name":"東風連","name_kana":"ひがしふうれん","lat":44.316748,"lng":142.463087,"prefecture":1,"lines":[11115],"attr":"cool","postal_code":"098-0512","address":"名寄市風連町東風連","next":[1111519,1111516,1112425,1111517,1111521,1112102,1112103],"voronoi":{"lat":44.331681,"lng":142.485632,"delta_lat":[0,2480,-18681,-87883,-1384,-12716,34599],"delta_lng":[0,-38204,-11568,51951,1564,20246,132]},"impl":true},
    {"code":1010811,"left":1111616,"right":1010809,"id":"ddd012","name":"濁川","name_kana":"にごりかわ","closed":true,"lat":44.1925,"lng":143.109722,"prefecture":1,"lines":[10108],"postal_code":"099-5541","address":"北海道紋別郡滝上町濁川中央２４１７−２","open_date":"1924-10-21","closed_date":"1985-04-01","next":[1111617,1010812,1112114,1010809,1111619,1010810],"voronoi":{"lat":44.308964,"lng":143.114464,"delta_lat":[0,8930,-8222,-279784,4553,6437],"delta_lng":[0,-2458,-17982,-8993,41488,13817]},"impl":false},
    {"code":1111616,"left":1111613,"right":1111619,"id":"14af3a","name":"上川","name_kana":"かみかわ","lat":43.848508,"lng":142.766895,"prefecture":1,"lines":[11116],"attr":"eco","postal_code":"078-1741","address":"上川郡上川町中央町","next":[1010812,1111617,1111412,1010717,1111615,1111613,1112109,1111409,1111612],"voronoi":{"lat":44.083451,"lng":142.848073,"delta_lat":[0,-85889,-307250,-181490,9499,32054,362534,30999,139767],"delta_lng":[0,97560,22783,-160436,-12250,-25730,-34669,6450,59818]},"impl":true},
    {"code":1111613,"left":1111615,"right":1111612,"id":"2109c8","name":"愛山","name_kana":"あいざん","lat":43.866442,"lng":142.680699,"prefecture":1,"lines":[11116],"attr":"eco","postal_code":"078-1653","address":"上川郡愛別町字愛山","next":[1111612,1111616,1111608,1111615,1111614,1111611],"voronoi":{"lat":43.943909,"lng":142.74178,"delta_lat":[0,-30999,-23375,-98478,19127,27657],"delta_lng":[0,-6450,-14835,-107914,-4786,9037]},"impl":true},
    {"code":1111615,"left":1111614,"id":"a81e7a","name":"東雲(北海道)","original_name":"東雲","name_kana":"とううん","lat":43.843693,"lng":142.716544,"prefecture":1,"lines":[11116],"attr":"eco","postal_code":"078-1731","address":"上川郡上川町東雲","next":[1111616,1111409,1111614,1111613],"voronoi":{"lat":43.550375,"lng":142.769999,"delta_lat":[0,131772,207387,23375],"delta_lng":[0,-125577,76073,14835]},"impl":true},
    {"code":1111614,"id":"8cc98a","name":"安足間","name_kana":"あんたろま","lat":43.852011,"lng":142.693868,"prefecture":1,"lines":[11116],"attr":"eco","postal_code":"078-1653","address":"上川郡愛別町字愛山","next":[1111608,1111409,1111615,1111613],"voronoi":{"lat":43.791057,"lng":142.612581,"delta_lat":[0,-92461,-16448,207387],"delta_lng":[0,13870,17971,76073]},"impl":true},
    {"code":1111612,"id":"660425","name":"中愛別","name_kana":"なかあいべつ","lat":43.896216,"lng":142.655424,"prefecture":1,"lines":[11116],"attr":"eco","postal_code":"078-1652","address":"上川郡愛別町字中央","next":[1111613,1112108,1111611,1112106,1111616,1112109,1112107],"voronoi":{"lat":44.100193,"lng":142.691004,"delta_lat":[0,-2701,-259652,106068,139767,9248,71],"delta_lng":[0,-65596,-8575,124948,59818,-34390,-382]},"impl":true},
    {"code":1111619,"left":1111618,"right":1111620,"id":"711b96","name":"旧白滝","name_kana":"きゅうしらたき","closed":true,"lat":43.919905,"lng":143.236729,"prefecture":1,"lines":[11116],"attr":"unknown","postal_code":"099-0102","address":"紋別郡遠軽町旧白滝","open_date":"1947-02-11","closed_date":"2016-03-26","next":[1111617,1010810,9910922,1111627,1111620,1010811,1111618],"voronoi":{"lat":43.706248,"lng":143.349818,"delta_lat":[0,49373,298912,-13655,-6437,-9969,-330942],"delta_lng":[0,17189,-187190,-39481,-13817,4686,209864]},"impl":true},
    {"code":1111618,"left":1111617,"id":"8f0137","name":"白滝","name_kana":"しらたき","lat":43.884435,"lng":143.180795,"prefecture":1,"lines":[11116],"attr":"eco","postal_code":"099-0111","address":"紋別郡遠軽町白滝","next":[1111617,1010717,9910922,1111619],"voronoi":{"lat":44.024473,"lng":143.131205,"delta_lat":[0,-330485,-10844,10387],"delta_lng":[0,72045,132551,5268]},"impl":true},
    {"code":1111617,"id":"1a3f91","name":"上白滝","name_kana":"かみしらたき","closed":true,"lat":43.876501,"lng":143.1444,"prefecture":1,"lines":[11116],"attr":"unknown","postal_code":"099-0127","address":"紋別郡遠軽町上白滝","open_date":"1932-10-01","closed_date":"2016-03-26","next":[1111618,1111619,1111616,1010811,1010717,1010812],"voronoi":{"lat":44.034441,"lng":143.126519,"delta_lat":[0,-9969,-330485,-3675,307250,32326],"delta_lng":[0,4686,72045,-234834,-22783,139398]},"impl":true},
    {"code":1111620,"id":"e6f14b","name":"下白滝","name_kana":"しもしらたき","closed":true,"lat":43.944553,"lng":143.276088,"prefecture":1,"lines":[11116],"attr":"unknown","postal_code":"099-0101","address":"紋別郡遠軽町下白滝","open_date":"1929-08-12","closed_date":"2016-03-26","next":[1111627,1010810,1111622,1111619,1111626,1111621],"voronoi":{"lat":44.069824,"lng":143.208309,"delta_lat":[0,-15290,-298912,60239,45749,40989],"delta_lng":[0,-28492,187190,28801,3695,-18167]},"impl":true},
    {"code":1010809,"left":1112107,"right":1010807,"id":"bb5e20","name":"滝ノ下","name_kana":"たきのした","closed":true,"lat":44.211333,"lng":143.178139,"prefecture":1,"lines":[10108],"postal_code":"099-5552","address":"北海道紋別郡滝上町滝下１０６９−２","open_date":"1923-11-05","closed_date":"1985-04-01","next":[1112114,1010803,1010810,1112121,1112119,1010807,1010811,1010808,1112116,1111621],"voronoi":{"lat":44.076113,"lng":143.214428,"delta_lat":[0,232852,8930,9462,6009,197,-6456,-13800,-10532,-213266],"delta_lng":[0,-99965,-2458,10882,15005,15349,17951,16977,3926,39748]},"impl":false},
    {"code":1112107,"left":1010810,"right":1112108,"id":"0f7b4a","name":"二ノ橋","name_kana":"にのはし","closed":true,"lat":44.307222,"lng":142.694444,"prefecture":1,"lines":[11121],"postal_code":"098-1332","address":"北海道上川郡下川町二の橋５０４","open_date":"1947-12-25","closed_date":"1989-05-01","next":[1011404,1112106,1112108,1111612],"voronoi":{"lat":44.100193,"lng":142.691004,"delta_lat":[0,336955,15378,-359532],"delta_lng":[0,-40350,29473,86700]},"impl":false},
    {"code":1010810,"left":1010812,"id":"5e6e11","name":"雄鎮内","name_kana":"ゆうちんない","closed":true,"lat":44.195556,"lng":143.141389,"prefecture":1,"lines":[10108],"postal_code":"099-5544","address":"北海道紋別郡滝上町雄鎮内３８３−１０","open_date":"1955-12-25","closed_date":"1985-04-01","next":[1010809,1111619,1111621,1111620,1010811],"voronoi":{"lat":44.308964,"lng":143.114464,"delta_lat":[0,-232852,-6289,-15290,-13655],"delta_lng":[0,99965,-6120,-28492,-39481]},"impl":false},
    {"code":1010812,"id":"a87225","name":"北見滝ノ上","name_kana":"きたみたきのうえ","closed":true,"lat":44.19375,"lng":143.070833,"prefecture":1,"lines":[10108],"postal_code":"099-5605","address":"北海道紋別郡滝上町字サクルー原野","open_date":"1923-11-05","closed_date":"1985-04-01","next":[1112114,1111616,1112109,1112112,1010811,1112110,1112111,1111617],"voronoi":{"lat":43.997563,"lng":142.945633,"delta_lat":[0,85889,26290,46502,128331,14926,10172,-279784],"delta_lng":[0,-97560,10930,33639,140604,23079,37699,-8993]},"impl":false},
    {"code":1112108,"id":"60d02f","name":"幸成","name_kana":"こうせい","closed":true,"lat":44.316667,"lng":142.733611,"prefecture":1,"lines":[11121],"postal_code":"098-1331","address":"北海道上川郡下川町一の橋","open_date":"1956-04-30","closed_date":"1989-05-01","next":[1111612,1112109,1011404,1112107],"voronoi":{"lat":44.092924,"lng":142.767209,"delta_lat":[0,401554,-41951,-359532],"delta_lng":[0,-28234,-58848,86700]},"impl":false},
    {"code":1010807,"left":1010808,"right":1010806,"id":"d85605","name":"上渚滑","name_kana":"かみしょこつ","closed":true,"lat":44.242778,"lng":143.2625,"prefecture":1,"lines":[10108],"postal_code":"099-5354","address":"北海道紋別市上渚滑町１１丁目３６","open_date":"1923-11-05","closed_date":"1985-04-01","next":[1112126,1010806,1112127,1010808,1112128,1010803,1010809,1111621,1111622],"voronoi":{"lat":44.147906,"lng":143.374421,"delta_lat":[0,-13283,168152,10532,-6217,-128607,-4585,-20265,-4817],"delta_lng":[0,-42832,-139494,-3926,26834,155492,1430,3451,389]},"impl":false},
    {"code":1010808,"id":"2730f1","name":"奥東","name_kana":"おくとう","closed":true,"lat":44.2225,"lng":143.238056,"prefecture":1,"lines":[10108],"postal_code":"099-5362","address":"北海道紋別市上渚滑町奥東１０９","open_date":"1955-12-25","closed_date":"1985-04-01","next":[1111621,1010807,1010809],"voronoi":{"lat":44.134623,"lng":143.331589,"delta_lat":[0,168152,-213266],"delta_lng":[0,-139494,39748]},"impl":false},
    {"code":1010806,"id":"0f2024","name":"上東","name_kana":"じょうとう","closed":true,"lat":44.2725,"lng":143.287083,"prefecture":1,"lines":[10108],"postal_code":"099-5353","address":"北海道紋別市上渚滑町上東","open_date":"1955-12-25","closed_date":"1985-04-01","next":[1112126,1010807,1010805,1010803,1112125],"voronoi":{"lat":44.178482,"lng":143.370495,"delta_lat":[0,128607,224,-35132,-25771],"delta_lng":[0,-155492,14072,117098,14171]},"impl":false},
    {"code":1112110,"left":1011403,"right":1112116,"id":"329071","name":"上興部","name_kana":"かみおこっぺ","closed":true,"lat":44.337222,"lng":142.8725,"prefecture":1,"lines":[11121],"postal_code":"098-1421","address":"北海道紋別郡西興部村字上興部３５１−１","open_date":"1920-10-25","closed_date":"1989-05-01","next":[1112113,1112112,1010812,1112109,1010405,1112111,1010406],"voronoi":{"lat":44.472255,"lng":142.881552,"delta_lat":[0,-57766,-38863,-219383,-46502,395324,-31931],"delta_lng":[0,23889,7865,-20664,-33639,-69073,89925]},"impl":false},
    {"code":1011403,"left":1112425,"right":1010506,"id":"a8c5e5","name":"辺渓","name_kana":"ぺんけ","closed":true,"lat":44.485508,"lng":142.421456,"prefecture":1,"lines":[10114],"postal_code":"098-2207","address":"北海道中川郡美深町字辺渓２４４","open_date":"1964-10-05","closed_date":"1985-09-17","next":[1111530,1111523,1111524,1011402,1111529,1011404],"voronoi":{"lat":44.465765,"lng":142.439473,"delta_lat":[0,6661,88778,55675,8567,-148698],"delta_lng":[0,-29850,-2377,33735,8642,62310]},"impl":false},
    {"code":1112425,"left":1111525,"right":1111522,"id":"52edf2","name":"西名寄","name_kana":"にしなよろ","closed":true,"lat":44.340417,"lng":142.424861,"prefecture":1,"lines":[11124],"postal_code":"096-0075","address":"北海道名寄市字曙６３３","open_date":"1937-11-10","closed_date":"1995-09-04","next":[1111520,1111523,1111521,1111519,1112424,1111522],"voronoi":{"lat":44.391307,"lng":142.416717,"delta_lat":[0,621,-74597,-1852,18681,33141],"delta_lng":[0,-19302,10886,27560,11568,-7382]},"impl":false},
    {"code":1111525,"left":1111524,"right":1011402,"id":"70501f","name":"智北","name_kana":"ちほく","lat":44.46103,"lng":142.394007,"prefecture":1,"lines":[11115],"attr":"cool","postal_code":"098-2181","address":"名寄市字智恵文","next":[1011402,1112424,1111526,1111524,1111523],"voronoi":{"lat":44.398459,"lng":142.380913,"delta_lat":[0,246,76042,-3400,-47806],"delta_lng":[0,-3793,4571,26141,-12609]},"impl":true},
    {"code":1111524,"left":1112424,"id":"20fbb7","name":"智恵文","name_kana":"ちえぶん","lat":44.455553,"lng":142.414772,"prefecture":1,"lines":[11115],"attr":"cool","postal_code":"098-2181","address":"名寄市智恵文１１線","next":[1111523,1011403,1011402,1111525],"voronoi":{"lat":44.423541,"lng":142.395224,"delta_lat":[0,42224,6661,-1079],"delta_lng":[0,44249,-29850,-1790]},"impl":true},
    {"code":1112424,"id":"892160","name":"天塩弥生","name_kana":"てしおやよい","closed":true,"lat":44.334722,"lng":142.385833,"prefecture":1,"lines":[11124],"postal_code":"096-0074","address":"北海道名寄市字弥生","open_date":"1937-11-10","closed_date":"1995-09-04","next":[1111519,1111518,1111525,1111523,1112423,1111526,1112425],"voronoi":{"lat":44.391929,"lng":142.397415,"delta_lat":[0,6530,246,-6332,-104320,11986,17293],"delta_lng":[0,-16501,-3793,-44958,-23107,78718,20527]},"impl":false},
    {"code":1011402,"id":"98bb2f","name":"東美深","name_kana":"ひがしびふか","closed":true,"lat":44.484856,"lng":142.397106,"prefecture":1,"lines":[10114],"postal_code":"098-2207","address":"北海道中川郡美深町字辺渓","open_date":"1964-10-05","closed_date":"1985-09-17","next":[1111525,1111526,1111529,1111527,1011403,1111524,1111528],"voronoi":{"lat":44.512094,"lng":142.372697,"delta_lat":[0,-26963,-10384,-3400,1079,88778,-30862],"delta_lng":[0,1105,7890,26141,1790,-2377,-26184]},"impl":false},
    {"code":1111522,"left":1112102,"right":1111523,"id":"07fbee","name":"日進(北海道)","original_name":"日進","name_kana":"にっしん","lat":44.381713,"lng":142.467354,"prefecture":1,"lines":[11115],"attr":"cool","postal_code":"096-0066","address":"名寄市字日進","next":[1111523,1111521,1112102,1112103,1011404,1112425],"voronoi":{"lat":44.391307,"lng":142.416717,"delta_lat":[0,70009,-29909,-4328,-63624,3846],"delta_lng":[0,106796,48686,-3155,-71128,-57869]},"impl":true},
    {"code":1112102,"left":1111521,"id":"da14e0","name":"中名寄","name_kana":"なかなよろ","closed":true,"lat":44.331056,"lng":142.512667,"prefecture":1,"lines":[11121],"postal_code":"096-0062","address":"北海道名寄市字日彰９１５","open_date":"1947-09-21","closed_date":"1989-05-01","next":[1111521,1112103,1111522,1111520],"voronoi":{"lat":44.331681,"lng":142.485632,"delta_lat":[0,31775,63624,-178984],"delta_lng":[0,12283,71128,-59290]},"impl":false},
    {"code":1111521,"id":"a105d5","name":"名寄","name_kana":"なよろ","lat":44.349403,"lng":142.465207,"prefecture":1,"lines":[11115,11121,11124],"attr":"cool","postal_code":"096-0001","address":"名寄市東１条南６丁目","next":[1112102,1111522,1112425,1111520],"voronoi":{"lat":44.363456,"lng":142.497916,"delta_lat":[0,3846,-33141,-2480],"delta_lng":[0,-57869,7382,38204]},"impl":true},
    {"code":1111523,"id":"b1e6c6","name":"北星","name_kana":"ほくせい","lat":44.441569,"lng":142.428116,"prefecture":1,"lines":[11115],"attr":"cool","postal_code":"098-2181","address":"名寄市智恵文北星","next":[1111524,1112424,1011403,1111522,1011404,1112425,1111525],"voronoi":{"lat":44.465765,"lng":142.439473,"delta_lat":[0,10983,-15431,-70009,621,6530,25082],"delta_lng":[0,72460,11580,-106796,-19302,-16501,14310]},"impl":true},
    {"code":1010506,"left":1010503,"right":1010508,"id":"1600b5","name":"目梨泊","name_kana":"めなしどまり","closed":true,"lat":45.035444,"lng":142.510278,"prefecture":1,"lines":[10105],"postal_code":"098-5816","address":"北海道枝幸郡枝幸町目梨泊１６０７","open_date":"1936-07-10","closed_date":"1985-07-01","next":[1010505,1112210,1010508,1010507],"voronoi":{"lat":45.003709,"lng":142.504977,"delta_lat":[0,-56189,8705,240574],"delta_lng":[0,-87478,-2457,201562]},"impl":false},
    {"code":1010503,"left":1010505,"right":1010502,"id":"1ebe33","name":"豊牛","name_kana":"とようし","closed":true,"lat":45.100044,"lng":142.430925,"prefecture":1,"lines":[10105],"postal_code":"098-5702","address":"北海道枝幸郡浜頓別町字豊寒別","open_date":"1936-07-10","closed_date":"1985-07-01","next":[1112214,1010502,1112221,1010504,1011722],"voronoi":{"lat":45.751767,"lng":142.749833,"delta_lat":[0,-686896,-40511,5861171,152398],"delta_lng":[0,-364996,9781,4543373,89138]},"impl":false},
    {"code":1010505,"left":1010504,"id":"6e97a5","name":"斜内","name_kana":"しゃない","closed":true,"lat":45.063861,"lng":142.476361,"prefecture":1,"lines":[10105],"postal_code":"098-5703","address":"北海道枝幸郡浜頓別町字斜内","open_date":"1936-07-10","closed_date":"1985-07-01","next":[1010504,1010506,1010507,1112212,1112211,1112210],"voronoi":{"lat":44.964411,"lng":142.411042,"delta_lat":[0,12138,16608,715152,-511510,-240574],"delta_lng":[0,-3868,-4289,593699,-379979,-201562]},"impl":false},
    {"code":1010504,"id":"c70773","name":"豊浜(北海道)","original_name":"豊浜","name_kana":"とよはま","closed":true,"lat":45.078389,"lng":142.458861,"prefecture":1,"lines":[10105],"postal_code":"098-5703","address":"北海道枝幸郡浜頓別町字斜内","open_date":"1956-02-26","closed_date":"1985-07-01","next":[1010507,1010505,1011722,1112212,1112213,1010503,1112214],"voronoi":{"lat":45.004622,"lng":142.39851,"delta_lat":[0,-11465,715152,5089722,87500,-5861171,-585],"delta_lng":[0,4374,593699,3890512,50896,-4543373,15]},"impl":false},
    {"code":1010502,"id":"a79522","name":"頓別","name_kana":"とんべつ","closed":true,"lat":45.12275,"lng":142.388194,"prefecture":1,"lines":[10105],"postal_code":"098-5701","address":"北海道枝幸郡浜頓別町字浜頓別","open_date":"1956-02-26","closed_date":"1985-07-01","next":[1112221,1112214,1112216,1112215,1010503],"voronoi":{"lat":45.064872,"lng":142.384837,"delta_lat":[0,16656,134812,231231,304197],"delta_lng":[0,-13126,9403,105318,263401]},"impl":false},
    {"code":1010508,"left":1010509,"right":1010507,"id":"9e450f","name":"問牧","name_kana":"といまき","closed":true,"lat":44.995333,"lng":142.536042,"prefecture":1,"lines":[10105],"postal_code":"098-5815","address":"北海道枝幸郡枝幸町問牧１０３６","open_date":"1936-07-10","closed_date":"1985-07-01","next":[1112210,1010509,1112203,1010507,1010506],"voronoi":{"lat":44.947521,"lng":142.417499,"delta_lat":[0,-36215,-28993,152139,-30742],"delta_lng":[0,3175,20837,206092,-142626]},"impl":false},
    {"code":1010509,"left":1011404,"id":"22153e","name":"北見枝幸","name_kana":"きたみえさし","closed":true,"lat":44.939361,"lng":142.577361,"prefecture":1,"lines":[10105],"postal_code":"098-5823","address":"北海道枝幸郡枝幸町三笠町１４８３","open_date":"1936-07-10","closed_date":"1985-07-01","next":[1010406,1010507,1010508,1112203,1011404],"voronoi":{"lat":45.474573,"lng":143.43267,"delta_lat":[0,-440122,-152139,-137339,-5274],"delta_lng":[0,-785066,-206092,55623,251361]},"impl":false},
    {"code":1011404,"id":"5d55be","name":"仁宇布","name_kana":"にうぷ","closed":true,"lat":44.547392,"lng":142.569136,"prefecture":1,"lines":[10114],"postal_code":"098-2208","address":"北海道中川郡美深町字仁宇布２１５−２","open_date":"1964-10-05","closed_date":"1985-09-17","next":[1112109,1112104,1112105,1112107,1112103,1112106,1111523,1112108,1111530,1111522,1112203,1011403,1010406,1010509],"voronoi":{"lat":44.744974,"lng":142.497134,"delta_lat":[0,-27725,-91803,-148698,-15431,-29909,-1489,766,4828,1636,15378,41951,25979,219243],"delta_lng":[0,-29450,-18062,62310,11580,48686,28206,12132,32318,5799,29473,58848,29641,-20120]},"impl":false},
    {"code":1010507,"id":"0e6e0b","name":"山臼","name_kana":"やまうす","closed":true,"lat":45.024139,"lng":142.529833,"prefecture":1,"lines":[10105],"postal_code":"098-5816","address":"北海道枝幸郡枝幸町目梨泊","open_date":"1956-02-26","closed_date":"1985-07-01","next":[1010504,1010406,1010509,1112120,1011722,1010505,1010403,1010508,1010506],"voronoi":{"lat":45.708309,"lng":142.996583,"delta_lat":[0,5089722,-4121043,-772465,-39569,-390381,-440122,-30742,193090],"delta_lng":[0,3890512,-2363156,-653082,-37946,-400242,-785066,-142626,111627]},"impl":false},
    {"code":1112116,"left":1112115,"right":1010402,"id":"543fcb","name":"北興","name_kana":"ほっこう","closed":true,"lat":44.449444,"lng":143.082778,"prefecture":1,"lines":[11121],"postal_code":"098-1622","address":"北海道紋別郡興部町字北興","open_date":"1957-11-01","closed_date":"1989-05-01","next":[1112119,1112115,1112117,1010402,1010809,1112114],"voronoi":{"lat":44.386977,"lng":143.077358,"delta_lat":[0,86759,13226,-84508,-69088,-6009],"delta_lng":[0,-38365,44784,48913,5203,-15005]},"impl":false},
    {"code":1112115,"left":1112113,"right":1112121,"id":"849415","name":"宇津","name_kana":"うつ","closed":true,"lat":44.425,"lng":143.0275,"prefecture":1,"lines":[11121],"postal_code":"098-1624","address":"北海道紋別郡興部町字宇津８３","open_date":"1921-10-05","closed_date":"1989-05-01","next":[1112114,1010402,1010403,1010405,1112113,1112116,1010404],"voronoi":{"lat":44.479218,"lng":142.968042,"delta_lat":[0,-8113,-41757,-42372,86759,4875,4060],"delta_lng":[0,-26326,39655,95987,-38365,-12920,-21025]},"impl":false},
    {"code":1112113,"left":1112112,"right":1112114,"id":"701083","name":"中興部","name_kana":"なかおこっぺ","closed":true,"lat":44.383056,"lng":142.983333,"prefecture":1,"lines":[11121],"postal_code":"098-1503","address":"北海道紋別郡西興部村字中興部","open_date":"1921-10-05","closed_date":"1989-05-01","next":[1112110,1112114,1112115,1010405,1112112],"voronoi":{"lat":44.429348,"lng":142.981371,"delta_lat":[0,41757,1150,-57766,-77353],"delta_lng":[0,-39655,-60164,23889,119101]},"impl":false},
    {"code":1112112,"left":1112111,"id":"3013a2","name":"六興","name_kana":"ろっこう","closed":true,"lat":44.356111,"lng":142.965833,"prefecture":1,"lines":[11121],"postal_code":"098-1502","address":"北海道紋別郡西興部村字六興","open_date":"1959-04-20","closed_date":"1989-05-01","next":[1112114,1112111,1010812,1112110,1112113],"voronoi":{"lat":44.2995,"lng":143.056325,"delta_lat":[0,-14926,91052,38863,-77353],"delta_lng":[0,-23079,-119940,-7865,119101]},"impl":false},
    {"code":1112111,"id":"6aa400","name":"西興部","name_kana":"にしおこっぺ","closed":true,"lat":44.330278,"lng":142.946222,"prefecture":1,"lines":[11121],"postal_code":"098-1501","address":"北海道紋別郡西興部村字西興部５２８","open_date":"1921-10-05","closed_date":"1989-05-01","next":[1112112,1010812,1112110],"voronoi":{"lat":44.284575,"lng":143.033246,"delta_lat":[0,-128331,219383],"delta_lng":[0,-140604,20664]},"impl":false},
    {"code":1112114,"id":"e42066","name":"班渓","name_kana":"ぱんけ","closed":true,"lat":44.398194,"lng":143.015667,"prefecture":1,"lines":[11121],"postal_code":"098-1600","address":"北海道紋別郡興部町字朝日","open_date":"1957-12-03","closed_date":"1989-05-01","next":[1010809,1112115,1010812,1112112,1112113,1010811,1112116],"voronoi":{"lat":44.386977,"lng":143.077358,"delta_lat":[0,42372,-92212,-37636,10172,8222,9462],"delta_lng":[0,-95987,43171,31783,37699,17982,10882]},"impl":false},
    {"code":1112121,"left":1010802,"right":1112120,"id":"db34c1","name":"富丘","name_kana":"とみおか","closed":true,"lat":44.411944,"lng":143.250278,"prefecture":1,"lines":[11121],"postal_code":"098-1942","address":"北海道紋別郡興部町字富丘","open_date":"1956-09-01","closed_date":"1989-05-01","next":[1010809,1112120,1010803,1112119,1112122,1010802],"voronoi":{"lat":44.582787,"lng":143.392466,"delta_lat":[0,-241512,-7712,-6456,26373,42799],"delta_lng":[0,-234671,-4553,17951,50270,65624]},"impl":false},
    {"code":1010802,"left":1010803,"id":"5a776c","name":"元西","name_kana":"もとにし","closed":true,"lat":44.356278,"lng":143.286583,"prefecture":1,"lines":[10108],"postal_code":"099-5173","address":"北海道紋別市渚滑町元西３７３","open_date":"1956-05-01","closed_date":"1985-04-01","next":[1112122,1010803,1112121],"voronoi":{"lat":44.348838,"lng":143.310946,"delta_lat":[0,4642,42799],"delta_lng":[0,-89484,65624]},"impl":false},
    {"code":1010803,"id":"f3e516","name":"下渚滑","name_kana":"しもしょこつ","closed":true,"lat":44.343958,"lng":143.285944,"prefecture":1,"lines":[10108],"postal_code":"099-5351","address":"北海道紋別市上渚滑町下渚滑１３","open_date":"1923-11-05","closed_date":"1985-04-01","next":[1010805,1010809,1010804,1010802,1112121,1112122,1010807,1010806],"voronoi":{"lat":44.307871,"lng":143.23113,"delta_lat":[0,37426,3540,4642,-26373,-13800,-6217,224],"delta_lng":[0,82862,-3046,-89484,-50270,16977,26834,14072]},"impl":false},
    {"code":1112120,"id":"a96b2c","name":"沙留","name_kana":"さるる","closed":true,"lat":44.43575,"lng":143.225778,"prefecture":1,"lines":[11121],"postal_code":"098-1941","address":"北海道紋別郡興部町字沙留旭町９５９−１","open_date":"1921-03-25","closed_date":"1989-05-01","next":[1112122,1011722,1112123,1112119,1112121,1010507,1010403,1010402],"voronoi":{"lat":45.18571,"lng":143.50102,"delta_lat":[0,-844436,241512,31461,1653873,408868,-772465,-628273],"delta_lng":[0,-343226,234671,21120,963969,146385,-653082,-324259]},"impl":false},
    {"code":1010402,"left":1010405,"right":1112117,"id":"baaf5e","name":"沢木","name_kana":"さわき","closed":true,"lat":44.517917,"lng":143.062556,"prefecture":1,"lines":[10104],"postal_code":"098-1703","address":"北海道紋別郡雄武町字沢木１３２１−２","open_date":"1935-09-15","closed_date":"1985-07-15","next":[1112118,1112117,1112115,1010403,1112119,1112120,1112116],"voronoi":{"lat":44.52334,"lng":143.116486,"delta_lat":[0,179093,483277,90540,-797640,-4875,13226],"delta_lng":[0,120091,264443,45578,-520526,12920,44784]},"impl":false},
    {"code":1010405,"left":1010403,"right":1010406,"id":"41bc5d","name":"雄武共栄","name_kana":"おむきょうえい","closed":true,"lat":44.5575,"lng":142.986667,"prefecture":1,"lines":[10104],"postal_code":"098-1705","address":"北海道紋別郡雄武町字南雄武","open_date":"1955-12-25","closed_date":"1985-07-15","next":[1112115,1010404,1112113,1112110,1010406],"voronoi":{"lat":44.473135,"lng":142.879855,"delta_lat":[0,-879,-1150,8113,167895],"delta_lng":[0,1697,60164,26326,78938]},"impl":false},
    {"code":1010403,"left":1010404,"id":"df91ae","name":"元沢木","name_kana":"もとさわき","closed":true,"lat":44.527833,"lng":143.047361,"prefecture":1,"lines":[10104],"postal_code":"098-1703","address":"北海道紋別郡雄武町字沢木３００","open_date":"1955-12-25","closed_date":"1985-07-15","next":[1010406,1112115,1010402,1010404,1112120,1010507],"voronoi":{"lat":45.276251,"lng":143.546599,"delta_lat":[0,-797640,4060,375913,1006371,39569],"delta_lng":[0,-520526,-21025,190491,637373,37946]},"impl":false},
    {"code":1010404,"id":"6dc4ed","name":"栄丘","name_kana":"さかえおか","closed":true,"lat":44.5435,"lng":143.016444,"prefecture":1,"lines":[10104],"postal_code":"098-1705","address":"北海道紋別郡雄武町字南雄武","open_date":"1948-07-01","closed_date":"1985-07-15","next":[1010403,1010405,1112115,1010406],"voronoi":{"lat":44.647114,"lng":143.046979,"delta_lat":[0,-167895,3452,375913],"delta_lng":[0,-78938,37006,190491]},"impl":false},
    {"code":1010406,"id":"4bdedb","name":"雄武","name_kana":"おむ","closed":true,"lat":44.58325,"lng":142.959861,"prefecture":1,"lines":[10104],"postal_code":"098-1702","address":"北海道紋別郡雄武町字雄武１８８５−１４","open_date":"1935-09-15","closed_date":"1985-07-15","next":[1010403,1010509,1010507,1112109,1010404,1011404,1112110,1010405],"voronoi":{"lat":44.858583,"lng":143.195539,"delta_lat":[0,1006371,-390381,-734874,-219243,-15391,-31931,173979],"delta_lng":[0,637373,-400242,-684174,20120,21314,89925,167125]},"impl":false},
    {"code":1112117,"left":1112119,"right":1112118,"id":"3fc20a","name":"興部","name_kana":"おこっぺ","closed":true,"lat":44.469139,"lng":143.116806,"prefecture":1,"lines":[11121,10104],"postal_code":"098-1601","address":"北海道紋別郡興部町字興部幸町１３２２−２１","open_date":"1921-03-25","closed_date":"1989-05-01","next":[1010402,1112119,1112116,1112118],"voronoi":{"lat":44.402453,"lng":143.132689,"delta_lat":[0,84508,36379,-116088],"delta_lng":[0,-48913,32710,17254]},"impl":false},
    {"code":1112119,"id":"742953","name":"豊野(北海道)","original_name":"豊野","name_kana":"とよの","closed":true,"lat":44.456389,"lng":143.175,"prefecture":1,"lines":[11121],"postal_code":"098-1944","address":"北海道紋別郡興部町字豊野","open_date":"1947-02-11","closed_date":"1989-05-01","next":[1112116,1112120,1010809,1112117,1112118,1010402,1112121],"voronoi":{"lat":45.18571,"lng":143.50102,"delta_lat":[0,-483277,-295181,-4799,-69088,197,7712],"delta_lng":[0,-264443,-102837,-1051,5203,15349,4553]},"impl":false},
    {"code":1112118,"id":"5f58bc","name":"旭ヶ丘(北海道)","original_name":"旭ヶ丘","name_kana":"あさひがおか","closed":true,"lat":44.471389,"lng":143.131944,"prefecture":1,"lines":[11121],"postal_code":"098-1601","address":"北海道紋別郡興部町字興部浜町１２８−１","open_date":"1956-09-01","closed_date":"1989-05-01","next":[1010402,1112119,1112117],"voronoi":{"lat":44.52334,"lng":143.116486,"delta_lat":[0,179093,-295181],"delta_lng":[0,120091,-102837]},"impl":false},
    {"code":1011709,"left":1111641,"right":1112133,"id":"dbedee","name":"若里","name_kana":"わかさと","closed":true,"lat":44.048528,"lng":143.75675,"prefecture":1,"lines":[10117],"postal_code":"093-0532","address":"北海道常呂郡佐呂間町字若里５７９","open_date":"1955-12-25","closed_date":"1987-03-20","next":[1011708,1111625,1011712,1011706,1011710,1111624],"voronoi":{"lat":44.025308,"lng":143.645161,"delta_lat":[0,43415,-7049,-5685,-99750,9790],"delta_lng":[0,83955,69986,-1918,-133339,-3876]},"impl":false},
    {"code":1111641,"left":1111621,"right":1111708,"id":"395441","name":"呼人","name_kana":"よびと","lat":43.963695,"lng":144.218945,"prefecture":1,"lines":[11116],"attr":"cool","postal_code":"099-2421","address":"網走市呼人","next":[1111640,1011729,1011728,1111642,1111703,1111704],"voronoi":{"lat":43.914677,"lng":144.27188,"delta_lat":[0,64799,200,14771,-34502,-100563],"delta_lng":[0,-15691,-319,-51583,-29439,99582]},"impl":true},
    {"code":1111621,"left":1111636,"right":1011713,"id":"28757f","name":"丸瀬布","name_kana":"まるせっぷ","lat":44.006354,"lng":143.335817,"prefecture":1,"lines":[11116],"attr":"cool","postal_code":"099-0203","address":"紋別郡遠軽町丸瀬布中町","next":[1010808,1010810,1010807,1111622,1111620,1010809],"voronoi":{"lat":44.134623,"lng":143.331589,"delta_lat":[0,13283,-245307,167225,6289,13396],"delta_lng":[0,42832,6914,-173027,6120,17415]},"impl":true},
    {"code":1111636,"left":1111625,"right":1111640,"id":"c44e3b","name":"端野","name_kana":"たんの","lat":43.851172,"lng":143.942336,"prefecture":1,"lines":[11116],"attr":"cool","postal_code":"099-2104","address":"北見市端野町端野","next":[1010106,1111637,1111635,1010104,1010105,1011711,1011713,1011714],"voronoi":{"lat":43.93492,"lng":143.884023,"delta_lat":[0,-9948,-3729,-128222,2301,6160,1232,145162],"delta_lng":[0,-19758,-4535,133310,3482,5949,714,-73801]},"impl":true},
    {"code":1111625,"left":1111635,"right":1111624,"id":"b476e2","name":"生野(北海道)","original_name":"生野","name_kana":"いくの","lat":43.959928,"lng":143.532945,"prefecture":1,"lines":[11116],"attr":"cool","postal_code":"099-0701","address":"紋別郡遠軽町生田原","next":[1011710,1011709,1111626,1111624,1111622],"voronoi":{"lat":43.966028,"lng":143.65997,"delta_lat":[0,-9790,-8310,-9697,43338],"delta_lng":[0,3876,2009,-209013,18892]},"impl":true},
    {"code":1111635,"left":1111626,"id":"8e21a7","name":"愛し野","name_kana":"いとしの","lat":43.841426,"lng":143.932962,"prefecture":1,"lines":[11116],"attr":"cool","postal_code":"099-2103","address":"北見市端野町三区","next":[1111636,1011711,1111634,1010106,1111632],"voronoi":{"lat":43.913505,"lng":143.849021,"delta_lat":[0,7738,-128222,-12009,122563],"delta_lng":[0,10709,133310,-15103,-124753]},"impl":true},
    {"code":1111626,"id":"e99cb4","name":"生田原","name_kana":"いくたはら","lat":43.923674,"lng":143.534627,"prefecture":1,"lines":[11116],"attr":"cool","postal_code":"099-0701","address":"紋別郡遠軽町生田原","next":[1111622,1111625,1011710,1111620,1111629,1111627],"voronoi":{"lat":43.81586,"lng":143.395808,"delta_lat":[0,45749,76622,9697,-30612,-30547],"delta_lng":[0,3695,57339,209013,11999,-48632]},"impl":true},
    {"code":1111624,"id":"f1bfba","name":"安国","name_kana":"やすくに","lat":43.993322,"lng":143.535762,"prefecture":1,"lines":[11116],"attr":"cool","postal_code":"099-0622","address":"紋別郡遠軽町生田原安国","next":[1112137,1111622,1111625,1011709,1011706,1111623],"voronoi":{"lat":44.036518,"lng":143.638789,"delta_lat":[0,-11211,-59279,15541,34442,28172],"delta_lng":[0,6373,14808,-184236,4628,124960]},"impl":true},
    {"code":1111640,"left":1111639,"right":1011728,"id":"f2910a","name":"女満別","name_kana":"めまんべつ","lat":43.915886,"lng":144.170665,"prefecture":1,"lines":[11116],"attr":"cool","postal_code":"099-2310","address":"網走郡大空町女満別本通１丁目","next":[1111641,1011728,1011727,1011726,1111704,1111639],"voronoi":{"lat":43.937574,"lng":144.095869,"delta_lat":[0,22371,420,-421,-100563,-42109],"delta_lng":[0,36987,2794,39197,99582,14788]},"impl":true},
    {"code":1111639,"left":1111637,"id":"069441","name":"西女満別","name_kana":"にしめまんべつ","lat":43.880057,"lng":144.148372,"prefecture":1,"lines":[11116],"attr":"cool","postal_code":"099-2301","address":"網走郡大空町女満別本郷","next":[1111714,1111705,1111704,1011726,1111637,1111638,1010102,1111640,1111715],"voronoi":{"lat":43.762995,"lng":144.310549,"delta_lat":[0,50700,3578,120302,-5972,-20723,-77905,-98740,15842],"delta_lng":[0,-19491,-1840,-193348,-21611,-52,78540,138442,13508]},"impl":true},
    {"code":1111637,"id":"797c75","name":"緋牛内","name_kana":"ひうしない","lat":43.880431,"lng":143.999887,"prefecture":1,"lines":[11116],"attr":"cool","postal_code":"099-2231","address":"北見市端野町緋牛内","next":[1011715,1111636,1011726,1011714,1011718,1010104,1010103,1111639,1111638],"voronoi":{"lat":43.834614,"lng":144.042859,"delta_lat":[0,-15784,-16115,145162,15987,18159,-1703,-48717,-20723],"delta_lng":[0,-17003,-22670,-73801,22611,34207,29746,58310,-52]},"impl":true},
    {"code":1011728,"id":"3c68a2","name":"二見ヶ岡","name_kana":"ふたみがおか","closed":true,"lat":44.004083,"lng":144.171611,"prefecture":1,"lines":[10117],"postal_code":"093-0132","address":"北海道網走市字二見ケ岡６２","open_date":"1935-10-10","closed_date":"1987-03-20","next":[1111641,1111640,1011729,1011727],"voronoi":{"lat":43.960365,"lng":144.13565,"delta_lat":[0,-421,34502,67159],"delta_lng":[0,39197,29439,-9513]},"impl":false},
    {"code":1011713,"left":1011710,"right":1011714,"id":"f356ec","name":"知来","name_kana":"ちらい","closed":true,"lat":44.031639,"lng":143.851472,"prefecture":1,"lines":[10117],"postal_code":"093-0508","address":"北海道常呂郡佐呂間町字知来４３５−４","open_date":"1953-10-22","closed_date":"1987-03-20","next":[1011708,1011711,1011714,1011712,1011707,1111636,1011715],"voronoi":{"lat":43.93492,"lng":143.884023,"delta_lat":[0,-9948,19355,145533,40906,4669,-33552],"delta_lng":[0,-19758,-6870,-33232,23024,3179,10736]},"impl":false},
    {"code":1011710,"left":1011711,"right":1011712,"id":"a64994","name":"佐呂間","name_kana":"さろま","closed":true,"lat":44.019306,"lng":143.778611,"prefecture":1,"lines":[10117],"postal_code":"093-0503","address":"北海道常呂郡佐呂間町字幸町１９","open_date":"1936-10-17","closed_date":"1987-03-20","next":[1111625,1111629,1011712,1111630,1111631,1011709,1111626,1011711],"voronoi":{"lat":44.055989,"lng":143.797184,"delta_lat":[0,-99750,-8310,-30612,-929,-8383,2298,144513],"delta_lng":[0,-133339,2009,11999,1379,84491,15905,17715]},"impl":false},
    {"code":1011711,"left":1111622,"id":"1dfb20","name":"堺橋","name_kana":"さかいばし","closed":true,"lat":44.015833,"lng":143.806944,"prefecture":1,"lines":[10117],"postal_code":"093-0508","address":"北海道常呂郡字知来佐呂間町","open_date":"1956-12-20","closed_date":"1987-03-20","next":[1011713,1111632,1111635,1111636,1011712,1111631,1011710],"voronoi":{"lat":43.944327,"lng":143.857396,"delta_lat":[0,-19355,-3729,-7738,-2551,-652,144513],"delta_lng":[0,6870,-4535,-10709,-15660,-53733,17715]},"impl":false},
    {"code":1111622,"id":"41c614","name":"瀬戸瀬","name_kana":"せとせ","lat":44.008753,"lng":143.420937,"prefecture":1,"lines":[11116],"attr":"cool","postal_code":"099-0342","address":"紋別郡遠軽町字瀬戸瀬西町","next":[1111623,1112128,1111620,1111626,1111624,1111625,1010807,1112139,1111621],"voronoi":{"lat":44.147906,"lng":143.374421,"delta_lat":[0,910,-5989,-51120,-75695,-34442,-43338,-76622,40989],"delta_lng":[0,1344,29148,36341,39107,-4628,-18892,-57339,-18167]},"impl":true},
    {"code":1011712,"id":"8a384a","name":"興生沢","name_kana":"こうせいざわ","closed":true,"lat":44.025556,"lng":143.824833,"prefecture":1,"lines":[10117],"postal_code":"093-0508","address":"北海道常呂郡佐呂間町字知来","open_date":"1955-12-25","closed_date":"1987-03-20","next":[1011713,1011709,1011710,1011708,1011711],"voronoi":{"lat":44.054816,"lng":143.797343,"delta_lat":[0,1173,5685,28187,-145533],"delta_lng":[0,-159,1918,25061,33232]},"impl":false},
    {"code":1011714,"left":1011727,"right":1011725,"id":"db655d","name":"紅葉橋","name_kana":"もみじばし","closed":true,"lat":44.036833,"lng":143.889306,"prefecture":1,"lines":[10117],"postal_code":"093-0424","address":"北海道常呂郡佐呂間町字仁倉","open_date":"1955-12-25","closed_date":"1987-03-20","next":[1111637,1011713,1011715,1111636],"voronoi":{"lat":43.963863,"lng":143.951995,"delta_lat":[0,138020,-166963,12956],"delta_lng":[0,-90893,22921,45361]},"impl":false},
    {"code":1011727,"left":1011726,"id":"7814b2","name":"二見中央","name_kana":"ふたみちゅうおう","closed":true,"lat":44.013167,"lng":144.156056,"prefecture":1,"lines":[10117],"postal_code":"093-0132","address":"北海道網走市字二見ケ岡７８","open_date":"1956-05-01","closed_date":"1987-03-20","next":[1011729,1011726,1111640,1011723,1011725,1011724,1011728],"voronoi":{"lat":44.080587,"lng":144.19487,"delta_lat":[0,-16724,-18126,-5647,-80145,420,101240],"delta_lng":[0,-35782,-22267,-2669,-1295,2794,59123]},"impl":false},
    {"code":1011726,"id":"e75311","name":"卯原内","name_kana":"うばらない","closed":true,"lat":44.013889,"lng":144.111389,"prefecture":1,"lines":[10117],"postal_code":"093-0135","address":"北海道網走市字卯原内８９−１卯原内交通公園（旧湧網線卯原内駅跡）","open_date":"1935-10-10","closed_date":"1987-03-20","next":[1011725,1011727,1111637,1111639,1111640,1011718],"voronoi":{"lat":44.04009,"lng":144.134152,"delta_lat":[0,-80145,-22371,-5972,48717,8003],"delta_lng":[0,-1295,-36987,-21611,-58310,5402]},"impl":false},
    {"code":1011725,"id":"d5a36e","name":"北見平和","name_kana":"きたみへいわ","closed":true,"lat":44.039917,"lng":144.099444,"prefecture":1,"lines":[10117],"postal_code":"093-0136","address":"北海道網走市字平和１７−９","open_date":"1949-10-20","closed_date":"1987-03-20","next":[1011726,1011724,1011719,1011718,1011727],"voronoi":{"lat":44.06583,"lng":144.069896,"delta_lat":[0,-57799,-19709,51768,5647],"delta_lng":[0,-39263,-9282,112801,2669]},"impl":false},
    {"code":1111708,"left":1010603,"right":1111704,"id":"98edbb","name":"止別","name_kana":"やむべつ","lat":43.921558,"lng":144.519818,"prefecture":1,"lines":[11117],"attr":"cool","postal_code":"099-3454","address":"斜里郡小清水町字止別","next":[1111711,1111713,1111707,1111709,1111712,1111702],"voronoi":{"lat":44.461002,"lng":144.58668,"delta_lat":[0,-611612,4875,46591,24071,682869],"delta_lng":[0,-114913,56205,52070,11359,52042]},"impl":true},
    {"code":1010603,"left":1010602,"right":1010605,"id":"2b457e","name":"西二線","name_kana":"にしにせん","closed":true,"lat":43.879028,"lng":144.717222,"prefecture":1,"lines":[10106],"postal_code":"099-4127","address":"北海道斜里郡斜里町字以久科南","closed_date":"1970-12-01","next":[1010602,1010604,1111710],"voronoi":{"lat":43.844042,"lng":144.690617,"delta_lat":[0,951806,-990006],"delta_lng":[0,525598,-522697]},"impl":false},
    {"code":1010602,"left":1111710,"right":1111709,"id":"2e49fa","name":"以久科","name_kana":"いくしな","closed":true,"lat":43.885194,"lng":144.706056,"prefecture":1,"lines":[10106],"postal_code":"099-4127","address":"北海道斜里郡斜里町字以久科南２５","open_date":"1957-11-10","closed_date":"1970-12-01","next":[1111710,1010604,1010603,1111709],"voronoi":{"lat":43.891257,"lng":144.679988,"delta_lat":[0,-47215,951806,395729],"delta_lng":[0,10630,525598,212037]},"impl":false},
    {"code":1111710,"left":1111711,"id":"57609c","name":"中斜里","name_kana":"なかしゃり","lat":43.874608,"lng":144.659033,"prefecture":1,"lines":[11117],"attr":"cool","postal_code":"099-4142","address":"斜里郡斜里町字中斜里","next":[1010602,1111709,1010605,1111712,1010604,1111711,1010603],"voronoi":{"lat":43.746443,"lng":144.687754,"delta_lat":[0,-665,19265,129101,-2887,-47215,-38200],"delta_lng":[0,-107,-10626,-36955,39921,10630,2901]},"impl":true},
    {"code":1111711,"id":"10c3d0","name":"南斜里","name_kana":"みなみしゃり","lat":43.867531,"lng":144.63431,"prefecture":1,"lines":[11117],"attr":"cool","postal_code":"099-4143","address":"斜里郡斜里町字川上","next":[1111708,1111709,1111712,1111710],"voronoi":{"lat":43.900856,"lng":144.580043,"delta_lat":[0,24071,-30783,-129101],"delta_lng":[0,11359,48665,36955]},"impl":true},
    {"code":1111709,"id":"e4a553","name":"知床斜里","name_kana":"しれとこしゃり","lat":43.910749,"lng":144.661647,"prefecture":1,"lines":[11117,10106],"attr":"cool","postal_code":"099-4112","address":"斜里郡斜里町港町","next":[1111711,1010605,1112313,1010607,1010606,1112221,1111702,1111710,1010604,1011722,1111708,1010602],"voronoi":{"lat":45.319094,"lng":145.499421,"delta_lat":[0,70558,273238,27893841,35016648,-57502708,-6110036,-352838,-682869,-30783,-2887,1300320],"delta_lng":[0,38917,148989,15024288,18603331,-32267706,-2307358,-96438,-52042,48665,39921,748265]},"impl":true},
    {"code":1010605,"left":1010607,"right":1010604,"id":"2670cd","name":"十四号","name_kana":"じゅうよんごう","closed":true,"lat":43.859167,"lng":144.755167,"prefecture":1,"lines":[10106],"postal_code":"099-4131","address":"北海道斜里郡斜里町字越川","closed_date":"1970-12-01","next":[1111709,1010604,1111710,1010606,1111712],"voronoi":{"lat":43.745778,"lng":144.687647,"delta_lat":[0,665,1572650,70558,-1674702],"delta_lng":[0,107,811666,38917,-846778]},"impl":false},
    {"code":1010607,"left":1010606,"id":"5c7206","name":"越川","name_kana":"こしかわ","closed":true,"lat":43.842333,"lng":144.788667,"prefecture":1,"lines":[10106],"postal_code":"099-4131","address":"北海道斜里郡斜里町字越川","open_date":"1957-11-10","closed_date":"1970-12-01","next":[1111714,1111709,1112311,1112308,1111712,1112312,1112313,1112307,1010606],"voronoi":{"lat":43.677041,"lng":144.694349,"delta_lat":[0,-4832,-13834,6215,10625,46758,223463,29611295,-27893841],"delta_lng":[0,90,6060,85162,49256,50203,176025,15650469,-15024288]},"impl":false},
    {"code":1010606,"id":"1854bd","name":"十六号","name_kana":"じゅうろくごう","closed":true,"lat":43.851667,"lng":144.77,"prefecture":1,"lines":[10106],"postal_code":"099-4131","address":"北海道斜里郡斜里町字越川","closed_date":"1970-12-01","next":[1111709,1111712,1010605,1010607],"voronoi":{"lat":43.677041,"lng":144.694349,"delta_lat":[0,37909,1674702,273238],"delta_lng":[0,-2790,846778,148989]},"impl":false},
    {"code":1010604,"id":"686a33","name":"下越川","name_kana":"しもこしかわ","closed":true,"lat":43.866694,"lng":144.740583,"prefecture":1,"lines":[10106],"postal_code":"099-4131","address":"北海道斜里郡斜里町字越川","open_date":"1957-11-10","closed_date":"1970-12-01","next":[1010602,1010605,1111709,1010603,1111710],"voronoi":{"lat":44.795848,"lng":145.216216,"delta_lat":[0,395729,127516,-1572650,59399],"delta_lng":[0,212037,71168,-811666,5764]},"impl":false},
    {"code":1111704,"left":1111702,"right":1111706,"id":"05c5b4","name":"藻琴","name_kana":"もこと","lat":43.968358,"lng":144.320079,"prefecture":1,"lines":[11117],"attr":"heat","postal_code":"099-3111","address":"網走市字藻琴","next":[1111639,1111702,1111640,1111705,1111703,1111641],"voronoi":{"lat":43.817272,"lng":144.289217,"delta_lat":[0,-3578,244978,-15710,-128286,-55295],"delta_lng":[0,1840,74025,-16279,-76924,2550]},"impl":true},
    {"code":1111702,"left":1111703,"right":1111642,"id":"0e5032","name":"桂台","name_kana":"かつらだい","lat":44.016913,"lng":144.273223,"prefecture":1,"lines":[11117],"attr":"heat","postal_code":"093-0031","address":"網走市台町１丁目","next":[1011722,1111707,1111703,1111705,1111709,1111704,1111642,1111706,1111708],"voronoi":{"lat":44.461002,"lng":144.58668,"delta_lat":[0,-209835,-83796,-108699,-15710,-61481,266117,713036,-352838],"delta_lng":[0,-96586,-45029,-79983,-16279,-90844,41312,440610,-96438]},"impl":true},
    {"code":1111703,"left":1011729,"id":"a74ec6","name":"鱒浦","name_kana":"ますうら","lat":43.982481,"lng":144.296526,"prefecture":1,"lines":[11117],"attr":"heat","postal_code":"099-3119","address":"網走市字鱒浦","next":[1111642,1111702,1111641,1111704],"voronoi":{"lat":43.914677,"lng":144.27188,"delta_lat":[0,64799,2006,61481],"delta_lng":[0,-15691,1771,90844]},"impl":true},
    {"code":1011729,"id":"1eff4a","name":"大曲(北海道)","original_name":"大曲","name_kana":"おおまがり","closed":true,"lat":44.012778,"lng":144.233,"prefecture":1,"lines":[10117],"postal_code":"093-0045","address":"北海道網走市大曲１丁目１３-２０","open_date":"1955-12-25","closed_date":"1987-03-20","next":[1011727,1111642,1111641,1011728,1011723],"voronoi":{"lat":43.979676,"lng":144.255869,"delta_lat":[0,14771,67159,18982,26020],"delta_lng":[0,-51583,-9513,96,18431]},"impl":false},
    {"code":1111642,"id":"05b582","name":"網走","name_kana":"あばしり","lat":44.019873,"lng":144.254156,"prefecture":1,"lines":[11116,11117,10117],"attr":"cool","postal_code":"093-0046","address":"網走市新町２丁目","next":[1111703,1011729,1111702,1011722,1111641,1011723],"voronoi":{"lat":44.106608,"lng":144.2133,"delta_lat":[0,-126932,-200,2006,266117,-68756],"delta_lng":[0,42569,319,1771,41312,-46543]},"impl":true},
    {"code":1111706,"left":1111707,"right":1111705,"id":"914630","name":"原生花園","name_kana":"げんせいかえん","lat":43.941033,"lng":144.41443,"prefecture":1,"lines":[11117],"attr":"heat","postal_code":"099-3452","address":"斜里郡小清水町浜小清水","next":[1111707,1111714,1111705,1111713,1111702],"voronoi":{"lat":44.167372,"lng":144.445066,"delta_lat":[0,-388793,22657,16582,433350],"delta_lng":[0,-110037,55418,21872,77776]},"impl":true},
    {"code":1111707,"id":"1e3449","name":"浜小清水","name_kana":"はまこしみず","lat":43.934077,"lng":144.453187,"prefecture":1,"lines":[11117],"attr":"cool","postal_code":"099-3452","address":"斜里郡小清水町字浜小清水","next":[1111706,1111702,1111708,1111713],"voronoi":{"lat":43.817817,"lng":144.412318,"delta_lat":[0,433350,209835,-611612],"delta_lng":[0,77776,96586,-114913]},"impl":true},
    {"code":1111705,"id":"c420b1","name":"北浜(北海道)","original_name":"北浜","name_kana":"きたはま","lat":43.958549,"lng":144.352541,"prefecture":1,"lines":[11117],"attr":"heat","postal_code":"099-3112","address":"網走市字北浜","next":[1111639,1111714,1111706,1111702,1111704],"voronoi":{"lat":43.813694,"lng":144.291057,"delta_lat":[0,-50700,15584,388793,-108699],"delta_lng":[0,19491,24480,110037,-79983]},"impl":true},
    {"code":1112133,"left":1112129,"right":1011706,"id":"6f9b4e","name":"四号線","name_kana":"しごうせん","closed":true,"lat":44.210278,"lng":143.611167,"prefecture":1,"lines":[11121],"postal_code":"099-6414","address":"北海道紋別郡湧別町錦町２３６","open_date":"1955-12-25","closed_date":"1989-05-01","next":[1112130,1112132,1011702,1112134,1112131],"voronoi":{"lat":44.228798,"lng":143.588638,"delta_lat":[0,4423,-26875,-12370,8048],"delta_lng":[0,407,43840,-23073,-13110]},"impl":false},
    {"code":1112129,"left":1112137,"right":1112125,"id":"282a21","name":"沼ノ上","name_kana":"ぬまのうえ","closed":true,"lat":44.239667,"lng":143.517028,"prefecture":1,"lines":[11121],"postal_code":"099-6241","address":"北海道紋別市沼の上４１１","open_date":"1921-03-25","closed_date":"1989-05-01","next":[1112132,1112130,1112127,1112138,1112128,1112136],"voronoi":{"lat":44.29801,"lng":143.578453,"delta_lat":[0,181085,-83661,-234768,4917,7636],"delta_lng":[0,27826,-45875,-105737,43347,12813]},"impl":false},
    {"code":1112137,"left":1112138,"right":1112134,"id":"f0ac1a","name":"共進","name_kana":"きょうしん","closed":true,"lat":44.12025,"lng":143.564833,"prefecture":1,"lines":[11121],"postal_code":"099-6509","address":"北海道紋別郡湧別町南兵村１区３４３","open_date":"1955-12-01","closed_date":"1989-05-01","next":[1111624,1011705,1011704,1111623,1112136,1011703,1011706,1112138,1112139],"voronoi":{"lat":44.044184,"lng":143.605322,"delta_lat":[0,-7665,19146,26719,29644,4247,30132,-80134,-10045],"delta_lng":[0,33467,2023,1220,-7183,-3275,-109313,57168,9539]},"impl":false},
    {"code":1112138,"left":1112139,"right":1112130,"id":"3dd3b3","name":"開盛","name_kana":"かいせい","closed":true,"lat":44.097639,"lng":143.533139,"prefecture":1,"lines":[11121],"postal_code":"099-6503","address":"北海道紋別郡湧別町開盛３０３６−２７","open_date":"1915-11-01","closed_date":"1989-05-01","next":[1112139,1112129,1112128,1112137,1112136],"voronoi":{"lat":44.165582,"lng":143.498014,"delta_lat":[0,-4917,-14395,-79998,80134],"delta_lng":[0,-43347,-38476,163238,-57168]},"impl":false},
    {"code":1112139,"left":1111623,"id":"f2ff3d","name":"北遠軽","name_kana":"きたえんがる","closed":true,"lat":44.083639,"lng":143.526278,"prefecture":1,"lines":[11121],"postal_code":"099-0401","address":"北海道紋別郡遠軽町学田３丁目６-８","open_date":"1959-11-01","closed_date":"1989-05-01","next":[1112138,1111622,1111623,1112128,1112137],"voronoi":{"lat":44.091706,"lng":143.441255,"delta_lat":[0,51120,3444,-79998,-10045],"delta_lng":[0,-36341,11277,163238,9539]},"impl":false},
    {"code":1111623,"id":"0e8284","name":"遠軽","name_kana":"えんがる","lat":44.060278,"lng":143.520667,"prefecture":1,"lines":[11116,11121],"attr":"cool","postal_code":"099-0415","address":"紋別郡遠軽町岩見通南１丁目","next":[1112137,1111622,1112139,1111624],"voronoi":{"lat":44.016012,"lng":143.480362,"delta_lat":[0,75695,-35479,-12044],"delta_lng":[0,-39107,147713,16354]},"impl":true},
    {"code":1112130,"id":"2211f1","name":"旭(北海道)","original_name":"旭","name_kana":"あさひ","closed":true,"lat":44.214694,"lng":143.563111,"prefecture":1,"lines":[11121],"postal_code":"099-6415","address":"北海道紋別郡湧別町川西","open_date":"1947-09-10","closed_date":"1989-05-01","next":[1112131,1112133,1112136,1112129,1112132,1112135],"voronoi":{"lat":44.228798,"lng":143.588638,"delta_lat":[0,4423,64788,-124791,3723,3357],"delta_lng":[0,407,-10592,-67626,27639,10803]},"impl":false},
    {"code":1112134,"left":1112135,"right":1112131,"id":"548cce","name":"中湧別","name_kana":"なかゆうべつ","closed":true,"lat":44.185389,"lng":143.595889,"prefecture":1,"lines":[11121,10117],"postal_code":"099-6329","address":"北海道紋別郡湧別町中湧別中町３０２０","open_date":"1916-11-21","closed_date":"1989-05-01","next":[1011702,1112131,1112135,1112133],"voronoi":{"lat":44.158678,"lng":143.610679,"delta_lat":[0,21674,21673,-8048],"delta_lng":[0,-35268,21291,13110]},"impl":false},
    {"code":1112135,"left":1112136,"id":"ecf610","name":"北湧","name_kana":"ほくゆう","closed":true,"lat":44.159806,"lng":143.580167,"prefecture":1,"lines":[11121],"postal_code":"099-6325","address":"北海道紋別郡湧別町北兵村１区５８８","open_date":"1966-10-01","closed_date":"1989-05-01","next":[1112131,1112134,1011703,1112136,1112130,1011702],"voronoi":{"lat":44.120052,"lng":143.629761,"delta_lat":[0,56889,3357,53,-21674,-23013],"delta_lng":[0,-91295,10803,26142,35268,13753]},"impl":false},
    {"code":1112136,"id":"a460ed","name":"上湧別","name_kana":"かみゆうべつ","closed":true,"lat":44.147056,"lng":143.572222,"prefecture":1,"lines":[11121],"postal_code":"099-6501","address":"北海道紋別郡湧別町上湧別屯田市街地３０１５−１５","open_date":"1916-11-21","closed_date":"1989-05-01","next":[1011703,1112130,1112137,1112135,1112129,1112138],"voronoi":{"lat":44.165582,"lng":143.498014,"delta_lat":[0,7636,3723,-56889,-3778,30132],"delta_lng":[0,12813,27639,91295,1813,-109313]},"impl":false},
    {"code":1112131,"id":"47d99d","name":"川西(北海道)","original_name":"川西","name_kana":"かわにし","closed":true,"lat":44.200917,"lng":143.580083,"prefecture":1,"lines":[11121],"postal_code":"099-6321","address":"北海道紋別郡湧別町旭１０６−１","open_date":"1957-08-01","closed_date":"1989-05-01","next":[1112135,1112130,1112134,1112133],"voronoi":{"lat":44.228798,"lng":143.588638,"delta_lat":[0,-48500,53,21673],"delta_lng":[0,-39369,26142,21291]},"impl":false},
    {"code":1112125,"left":1112123,"right":1112127,"id":"ba086f","name":"元紋別","name_kana":"もともんべつ","closed":true,"lat":44.32225,"lng":143.377556,"prefecture":1,"lines":[11121],"postal_code":"094-0023","address":"北海道紋別市元紋別６７８","open_date":"1921-03-25","closed_date":"1989-05-01","next":[1112124,1010805,1010806,1112123,1112126],"voronoi":{"lat":44.24641,"lng":143.360344,"delta_lat":[0,25771,41937,49457,46734],"delta_lng":[0,-14171,-9232,59197,71022]},"impl":false},
    {"code":1112123,"left":1112124,"right":1112122,"id":"5f47ed","name":"潮見町","name_kana":"しおみちょう","closed":true,"lat":44.362861,"lng":143.350833,"prefecture":1,"lines":[11121],"postal_code":"094-0002","address":"北海道紋別市真砂町３丁目１-１","open_date":"1959-11-01","closed_date":"1989-05-01","next":[1112126,1112120,1112127,1011722,1011721,1112124,1112132,1112122,1112125],"voronoi":{"lat":44.531684,"lng":143.585394,"delta_lat":[0,66322,1014311,1183,654620,-1653873,-259159,8487,46734],"delta_lng":[0,57306,524507,394,209953,-963969,-82479,65032,71022]},"impl":false},
    {"code":1112124,"left":1010805,"id":"a8c681","name":"紋別","name_kana":"もんべつ","closed":true,"lat":44.352639,"lng":143.352167,"prefecture":1,"lines":[11121],"postal_code":"094-0005","address":"北海道紋別市幸町４丁目１-３７","open_date":"1921-03-25","closed_date":"1989-05-01","next":[1010804,1112125,1112122,1010805,1112123],"voronoi":{"lat":44.355089,"lng":143.331106,"delta_lat":[0,-14177,-22111,-4682,49457],"delta_lng":[0,-8764,10533,4066,59197]},"impl":false},
    {"code":1010805,"id":"218ce9","name":"中渚滑","name_kana":"なかしょこつ","closed":true,"lat":44.304444,"lng":143.296667,"prefecture":1,"lines":[10108],"postal_code":"099-5352","address":"北海道紋別市上渚滑町中渚滑","open_date":"1923-11-05","closed_date":"1985-04-01","next":[1010803,1010806,1112125,1010804,1112124],"voronoi":{"lat":44.272181,"lng":143.346173,"delta_lat":[0,35132,558,10929,-4682],"delta_lng":[0,-117098,2055,101745,4066]},"impl":false},
    {"code":1112122,"id":"3cfec7","name":"渚滑","name_kana":"しょこつ","closed":true,"lat":44.372833,"lng":143.3195,"prefecture":1,"lines":[11121,10108],"postal_code":"099-5171","address":"北海道紋別市渚滑町４丁目１３０","open_date":"1921-03-25","closed_date":"1989-05-01","next":[1112120,1010802,1112124,1010803,1010804,1112123,1112121],"voronoi":{"lat":44.614247,"lng":143.413586,"delta_lat":[0,-259159,-14177,4386,3540,47441,186508],"delta_lng":[0,-82479,-8764,-8350,-3046,-23860,105379]},"impl":false},
    {"code":1112127,"left":1112128,"right":1112126,"id":"68f886","name":"小向","name_kana":"こむかい","closed":true,"lat":44.275111,"lng":143.452389,"prefecture":1,"lines":[11121],"postal_code":"099-6132","address":"北海道紋別市小向３３１紋別市小向農村公園","open_date":"1921-03-25","closed_date":"1989-05-01","next":[1010807,1112123,1112129,1112128,1112126,1112132],"voronoi":{"lat":44.531684,"lng":143.585394,"delta_lat":[0,-357787,-20265,241801,83661,118912],"delta_lng":[0,-213469,3451,185027,45875,36422]},"impl":false},
    {"code":1112128,"id":"b45a1a","name":"弘道","name_kana":"こうどう","closed":true,"lat":44.259722,"lng":143.4725,"prefecture":1,"lines":[11121],"postal_code":"099-6133","address":"北海道紋別市弘道","open_date":"1956-05-01","closed_date":"1989-05-01","next":[1112127,1010807,1112138,1111622,1112129,1112139],"voronoi":{"lat":44.142827,"lng":143.404914,"delta_lat":[0,5989,4817,241801,-234768,-14395],"delta_lng":[0,-29148,-389,185027,-105737,-38476]},"impl":false},
    {"code":1112126,"id":"57b230","name":"一本松(北海道)","original_name":"一本松","name_kana":"いっぽんまつ","closed":true,"lat":44.292778,"lng":143.422778,"prefecture":1,"lines":[11121],"postal_code":"099-6132","address":"北海道紋別市小向","open_date":"1955-12-25","closed_date":"1989-05-01","next":[1112123,1010807,1010806,1112127,1112125],"voronoi":{"lat":44.531684,"lng":143.585394,"delta_lat":[0,-357787,4585,67928,163899],"delta_lng":[0,-213469,-1430,-10151,106816]},"impl":false},
    {"code":1011706,"left":1011717,"right":1011705,"id":"d53fe9","name":"計呂地","name_kana":"けろち","closed":true,"lat":44.102944,"lng":143.728611,"prefecture":1,"lines":[10117],"postal_code":"093-0651","address":"北海道紋別郡湧別町計呂地２６２０","open_date":"1935-10-20","closed_date":"1987-03-20","next":[1011707,1011709,1011708,1011705,1112137,1111624],"voronoi":{"lat":44.068722,"lng":143.729117,"delta_lat":[0,13485,37534,-64077,-19146,-11211],"delta_lng":[0,8508,6858,-103671,-2023,6373]},"impl":false},
    {"code":1011717,"left":1011708,"right":1011719,"id":"030672","name":"北見富丘","name_kana":"きたみとみおか","closed":true,"lat":44.088333,"lng":143.981389,"prefecture":1,"lines":[10117],"postal_code":"093-0332","address":"北海道北見市常呂町富丘","open_date":"1952-12-06","closed_date":"1987-03-20","next":[1011704,1011718,1011716,1011721,1011720],"voronoi":{"lat":44.011042,"lng":143.979302,"delta_lat":[0,372495,41815,-181777,-111875],"delta_lng":[0,-84222,9153,69523,33474]},"impl":false},
    {"code":1011708,"left":1011716,"right":1011707,"id":"da9a2d","name":"床丹","name_kana":"とこたん","closed":true,"lat":44.083,"lng":143.760222,"prefecture":1,"lines":[10117],"postal_code":"093-0532","address":"北海道常呂郡佐呂間町字若里２１９","open_date":"1936-10-17","closed_date":"1987-03-20","next":[1011707,1011713,1011709,1011706,1011712],"voronoi":{"lat":44.061673,"lng":143.799102,"delta_lat":[0,7049,13485,48559,-40906],"delta_lng":[0,-69986,8508,109563,-23024]},"impl":false},
    {"code":1011716,"left":1011715,"id":"5ed721","name":"浜佐呂間","name_kana":"はまさろま","closed":true,"lat":44.079917,"lng":143.944167,"prefecture":1,"lines":[10117],"postal_code":"093-0423","address":"北海道常呂郡佐呂間町字浜佐呂間３１３","open_date":"1952-12-06","closed_date":"1987-03-20","next":[1011707,1011718,1011704,1011717,1011715],"voronoi":{"lat":44.149176,"lng":143.854597,"delta_lat":[0,139893,94467,-372495,-6969],"delta_lng":[0,13565,26918,84222,152]},"impl":false},
    {"code":1011715,"id":"2666e3","name":"仁倉","name_kana":"にくら","closed":true,"lat":44.050278,"lng":143.909722,"prefecture":1,"lines":[10117],"postal_code":"093-0424","address":"北海道常呂郡佐呂間町字仁倉２９５−３","open_date":"1953-10-22","closed_date":"1987-03-20","next":[1111637,1011707,1011714,1011718,1011716,1011713],"voronoi":{"lat":43.963863,"lng":143.951995,"delta_lat":[0,18159,22050,145104,-13741,-33552],"delta_lng":[0,34207,-6748,-124857,-4231,10736]},"impl":false},
    {"code":1011707,"id":"22f6c7","name":"浜床丹","name_kana":"はまとこたん","closed":true,"lat":44.098417,"lng":143.753389,"prefecture":1,"lines":[10117],"postal_code":"093-0532","address":"北海道常呂郡佐呂間町字若里３１","open_date":"1956-08-20","closed_date":"1987-03-20","next":[1011708,1011706,1011716,1011715,1011713,1011705,1011704],"voronoi":{"lat":44.182324,"lng":143.774009,"delta_lat":[0,-62583,-37534,48559,4669,13741,139893],"delta_lng":[0,-29527,-6858,109563,3179,4231,13565]},"impl":false},
    {"code":1011719,"left":1011724,"right":1011723,"id":"94ef54","name":"北見共立","name_kana":"きたみきょうりつ","closed":true,"lat":44.08375,"lng":144.034917,"prefecture":1,"lines":[10117],"postal_code":"093-0214","address":"北海道北見市常呂町共立","open_date":"1952-12-06","closed_date":"1987-03-20","next":[1011725,1011724,1011718,1011720],"voronoi":{"lat":44.112901,"lng":144.020109,"delta_lat":[0,-104870,57799,11644],"delta_lng":[0,10523,39263,1980]},"impl":false},
    {"code":1011724,"left":1011718,"id":"dbaddf","name":"中能取","name_kana":"なかのとろ","closed":true,"lat":44.071183,"lng":144.108831,"prefecture":1,"lines":[10117],"postal_code":"093-0241","address":"北海道網走市字能取","open_date":"1956-01-07","closed_date":"1972-02-08","next":[1011725,1011719,1011720,1011723,1011727,1011721],"voronoi":{"lat":44.089953,"lng":144.080419,"delta_lat":[0,-12478,-11644,-20093,18126,30099],"delta_lng":[0,-8543,-1980,66925,22267,-73093]},"impl":false},
    {"code":1011718,"id":"5dffa2","name":"東富丘","name_kana":"ひがしとみおか","closed":true,"lat":44.081389,"lng":144.011389,"prefecture":1,"lines":[10117],"postal_code":"093-0332","address":"北海道北見市富丘常呂町","open_date":"1956-05-01","closed_date":"1987-03-20","next":[1011716,1111637,1011726,1011717,1011725,1011715,1011720,1011719],"voronoi":{"lat":44.112901,"lng":144.020109,"delta_lat":[0,18798,-120658,-6969,-22050,-1703,8003,19709],"delta_lng":[0,-12879,-27928,152,6748,29746,5402,9282]},"impl":false},
    {"code":1011723,"id":"2d0d44","name":"能取","name_kana":"のとろ","closed":true,"lat":44.094056,"lng":144.11825,"prefecture":1,"lines":[10117],"postal_code":"093-0241","address":"北海道網走市字能取２４４−２６能取交通公園","open_date":"1936-10-10","closed_date":"1987-03-20","next":[1011729,1011722,1011727,1011724,1111642,1011721],"voronoi":{"lat":44.093963,"lng":144.085995,"delta_lat":[0,-30099,16724,26020,72235,-83730],"delta_lng":[0,73093,35782,18431,39428,-166023]},"impl":false},
    {"code":1011705,"left":1011702,"right":1011722,"id":"aadb0d","name":"志撫子","name_kana":"しぶし","closed":true,"lat":44.113056,"lng":143.722361,"prefecture":1,"lines":[10117],"postal_code":"093-0652","address":"北海道紋別郡湧別町志撫子","open_date":"1955-12-25","closed_date":"1987-03-20","next":[1011704,1112137,1011706,1011707],"voronoi":{"lat":44.119741,"lng":143.744482,"delta_lat":[0,-64077,26719,99941],"delta_lng":[0,-103671,1220,131978]},"impl":false},
    {"code":1011702,"left":1011704,"right":1112132,"id":"3d4222","name":"五鹿山","name_kana":"ごかざん","closed":true,"lat":44.186083,"lng":143.624139,"prefecture":1,"lines":[10117],"postal_code":"099-6322","address":"北海道紋別郡湧別町北兵村３区３３６","open_date":"1958-07-01","closed_date":"1987-03-20","next":[1112134,1112133,1011703,1112132,1112135],"voronoi":{"lat":44.207117,"lng":143.639205,"delta_lat":[0,-771,-12370,-35299,-23013],"delta_lng":[0,-6320,-23073,867,13753]},"impl":false},
    {"code":1011704,"left":1011703,"id":"dc7fe5","name":"芭露","name_kana":"ばろう","closed":true,"lat":44.151389,"lng":143.693333,"prefecture":1,"lines":[10117],"postal_code":"093-0731","address":"北海道紋別郡湧別町芭露２３３４−２","open_date":"1935-10-20","closed_date":"1987-03-20","next":[1011721,1011705,1112137,1112132,1011716,1011717,1011703,1011707],"voronoi":{"lat":44.383537,"lng":143.89508,"delta_lat":[0,41815,15670,-181185,-147809,-29644,99941,106745],"delta_lng":[0,9153,1182,-178051,-92516,7183,131978,94153]},"impl":false},
    {"code":1011703,"id":"a93b7e","name":"福島(北海道)","original_name":"福島","name_kana":"ふくしま","closed":true,"lat":44.181833,"lng":143.644694,"prefecture":1,"lines":[10117],"postal_code":"099-6413","address":"北海道紋別郡湧別町福島３７７−１","open_date":"1955-12-25","closed_date":"1987-03-20","next":[1112136,1112135,1112132,1011704,1112137,1011702],"voronoi":{"lat":44.135664,"lng":143.624431,"delta_lat":[0,-15612,-3778,-4247,147809,-52719],"delta_lng":[0,5329,1813,3275,92516,-88160]},"impl":false},
    {"code":1112132,"id":"9cab29","name":"湧別","name_kana":"ゆうべつ","closed":true,"lat":44.223917,"lng":143.619528,"prefecture":1,"lines":[11121],"postal_code":"099-6403","address":"北海道紋別郡湧別町緑町２５８−１０","open_date":"1916-11-21","closed_date":"1989-05-01","next":[1011721,1011704,1112129,1112133,1112130,1011703,1112127,1112123,1011702],"voronoi":{"lat":44.259836,"lng":143.727365,"delta_lat":[0,181185,1171296,-1014311,-118912,-181085,-64788,-26875,771],"delta_lng":[0,178051,261792,-524507,-36422,-27826,10592,43840,6320]},"impl":false},
    {"code":1011722,"left":1011720,"right":1011721,"id":"13e43e","name":"常呂港","name_kana":"ところこう","closed":true,"lat":44.121106,"lng":144.104608,"prefecture":1,"lines":[10117],"postal_code":"093-0202","address":"北海道北見市常呂町東浜８−２２","open_date":"1956-01-07","closed_date":"1972-02-08","next":[1112120,1011721,1111702,1112221,1112123,1010504,1010507,1111642,1011723,1111709,1010503],"voronoi":{"lat":51.07067,"lng":147.04724,"delta_lat":[0,-6110036,-713036,-68756,-83730,1518388,654620,408868,4121043,87500,152398],"delta_lng":[0,-2307358,-440610,-46543,-166023,80896,209953,146385,2363156,50896,89138]},"impl":false},
    {"code":1011720,"id":"805b8c","name":"土佐","name_kana":"とさ","closed":true,"lat":44.109653,"lng":144.052644,"prefecture":1,"lines":[10117],"postal_code":"093-0213","address":"北海道北見市常呂町土佐１１４","open_date":"1956-01-07","closed_date":"1972-02-08","next":[1011721,1011724,1011717,1011718,1011719],"voronoi":{"lat":44.112901,"lng":144.020109,"delta_lat":[0,18798,111875,-153622,-12478],"delta_lng":[0,-12879,-33474,106662,-8543]},"impl":false},
    {"code":1011721,"id":"48ad83","name":"常呂","name_kana":"ところ","closed":true,"lat":44.122861,"lng":144.071667,"prefecture":1,"lines":[10117],"postal_code":"090-0000","address":"北海道北見市常呂町中央町","open_date":"1936-10-10","closed_date":"1987-03-20","next":[1011722,1112132,1011704,1011720,1112123,1011717,1011723,1011724],"voronoi":{"lat":44.095113,"lng":144.086706,"delta_lat":[0,1518388,-1183,-1171296,-15670,-181777,-153622,4010],"delta_lng":[0,80896,-394,-261792,-1182,69523,106662,5576]},"impl":false}
  ]
}