{
  "name":"segment59",
  "root":1120810,
  "east":180.0,
  "west":141.02465,
  "south":36.298547,
  "north":39.311482,
  "station_size":145,
  "node_list":[
    {"code":1120810,"left":1122404,"right":1120820,"id":"f78890","name":"小梨","name_kana":"こなし","lat":38.932493,"lng":141.38418,"prefecture":3,"lines":[11208],"attr":"cool","postal_code":"029-0801","address":"一関市千厩町清田","next":[1120811,1122415,1120809,1120808],"voronoi":{"lat":38.834627,"lng":141.412647,"delta_lat":[0,-20410,154355,44414],"delta_lng":[0,-25117,-30510,44766]}},
    {"code":1122404,"left":1122225,"right":1123171,"id":"2c9c2e","name":"陸前豊里","name_kana":"りくぜんとよさと","lat":38.582481,"lng":141.244674,"prefecture":4,"lines":[11224],"attr":"eco","postal_code":"987-0366","address":"登米市豊里町上屋浦","next":[1122403,1122306,1122303,1122405,1122406,1123160,1123158],"voronoi":{"lat":38.624617,"lng":141.161719,"delta_lat":[0,-14092,-70439,7993,13201,90939,-23138],"delta_lng":[0,5325,111718,20146,-6288,-105172,-23831]}},
    {"code":1122225,"left":1122219,"right":1122230,"id":"619072","name":"鹿妻","name_kana":"かづま","lat":38.403315,"lng":141.190073,"prefecture":4,"lines":[11222],"attr":"cool","postal_code":"981-0500","address":"東松島市矢本","next":[1122232,1122228,1122224,1123154,1122223,1122310,1122226,1122231],"voronoi":{"lat":38.225614,"lng":141.295388,"delta_lat":[0,119212,110276,2589,-107195,-22533,-23660,-45702],"delta_lng":[0,-87735,-51162,2006,96192,13446,11186,12913]}},
    {"code":1122219,"left":1122218,"right":1123154,"id":"905726","name":"手樽","name_kana":"てたる","lat":38.38715,"lng":141.092846,"prefecture":4,"lines":[11222],"attr":"heat","postal_code":"981-0211","address":"宮城郡松島町手樽","next":[1122218,1123152,1122220,1123153,1122217],"voronoi":{"lat":38.412618,"lng":141.101547,"delta_lat":[0,-3899,-12165,-47543,-10792],"delta_lng":[0,-16583,-4465,10826,5855]}},
    {"code":1122218,"left":1122217,"right":1122221,"id":"344444","name":"高城町","name_kana":"たかぎまち","lat":38.382731,"lng":141.07344,"prefecture":4,"lines":[11222,11232],"attr":"heat","postal_code":"981-0215","address":"宮城郡松島町高城字元釜家","next":[1122219,1122217,1123151,1123152],"voronoi":{"lat":38.349011,"lng":141.091325,"delta_lat":[0,16308,23392,7843],"delta_lng":[0,-15525,-8905,13604]}},
    {"code":1122217,"left":1122216,"right":1123151,"id":"6aff4a","name":"松島海岸","name_kana":"まつしまかいがん","lat":38.368529,"lng":141.058523,"prefecture":4,"lines":[11222],"attr":"heat","postal_code":"981-0200","address":"宮城郡松島町浪打浜","next":[1122218,1122220,1123151,1122221,1123152,1122215,1122216,1122219],"voronoi":{"lat":38.328481,"lng":141.100735,"delta_lat":[0,-17882,1913,81181,-6367,-22008,-16308,-10792],"delta_lng":[0,2659,-3061,-86415,28352,33529,15525,5855]}},
    {"code":1122216,"left":1122215,"id":"0a546c","name":"陸前浜田","name_kana":"りくぜんはまだ","lat":38.350747,"lng":141.041818,"prefecture":4,"lines":[11222],"attr":"heat","postal_code":"981-0100","address":"宮城郡利府町浜田","next":[1122215,1122217,1123152,1123147],"voronoi":{"lat":38.312513,"lng":141.100334,"delta_lat":[0,81181,12576,-57302],"delta_lng":[0,-86415,-25291,21315]}},
    {"code":1122215,"id":"f96400","name":"東塩釜","name_kana":"ひがししおがま","lat":38.325572,"lng":141.031665,"prefecture":4,"lines":[11222],"attr":"eco","postal_code":"985-0004","address":"塩竈市藤倉３","next":[1122216,1122222,1122212,1122221,1123147,1122214,1122213,1122217],"voronoi":{"lat":38.287147,"lng":141.116225,"delta_lat":[0,-79399,76094,9063,49416,6647,-36455,-1913],"delta_lng":[0,34691,-89942,-9327,-42257,553,90391,3061]}},
    {"code":1123151,"id":"991997","name":"松島","name_kana":"まつしま","lat":38.379892,"lng":141.065982,"prefecture":4,"lines":[11231],"attr":"heat","postal_code":"981-0213","address":"宮城郡松島町松島字小梨屋","next":[1122217,1122218,1123152],"voronoi":{"lat":38.387327,"lng":141.042271,"delta_lat":[0,-22008,23392],"delta_lng":[0,33529,-8905]}},
    {"code":1122221,"left":1122223,"right":1122220,"id":"c40e01","name":"陸前大塚","name_kana":"りくぜんおおつか","lat":38.379078,"lng":141.12947,"prefecture":4,"lines":[11222],"attr":"heat","postal_code":"981-0414","address":"東松島市大塚","next":[1122222,1122215,1122217,1122224,1123153,1122223,1122220],"voronoi":{"lat":38.328481,"lng":141.100735,"delta_lat":[0,-17882,-23453,114796,8300,21379,-1321],"delta_lng":[0,2659,12830,27093,23,-8070,-1472]}},
    {"code":1122223,"left":1122222,"id":"684572","name":"野蒜","name_kana":"のびる","lat":38.3790003,"lng":141.1570349,"prefecture":4,"lines":[11222,11232],"attr":"heat","postal_code":"981-0411","address":"東松島市野蒜","next":[1122224,1123022,1122225,9921704,1122221,1122222,1122310],"voronoi":{"lat":38.003608,"lng":141.312435,"delta_lat":[0,56236,342099,8300,-65417,-119212,-235636],"delta_lng":[0,-59552,-109565,23,64312,87735,46485]}},
    {"code":1122222,"id":"3e6ae0","name":"東名","name_kana":"とうな","lat":38.37529956,"lng":141.14548,"prefecture":4,"lines":[11222],"attr":"heat","postal_code":"981-0414","address":"東松島市大塚北林下","next":[1122215,1122221,9921704,1122223,1122212,1122211],"voronoi":{"lat":38.059843,"lng":141.252883,"delta_lat":[0,342099,-114796,-79399,-6578,-113215],"delta_lng":[0,-109565,-27093,34691,3501,67590]}},
    {"code":1122220,"id":"af299c","name":"陸前富山","name_kana":"りくぜんとみやま","lat":38.386307,"lng":141.107208,"prefecture":4,"lines":[11222],"attr":"heat","postal_code":"981-0211","address":"宮城郡松島町手樽早川","next":[1123153,1122217,1122219,1122221],"voronoi":{"lat":38.328481,"lng":141.100735,"delta_lat":[0,9737,74399,17683],"delta_lng":[0,-3556,4367,32252]}},
    {"code":1123154,"left":1123155,"right":1122303,"id":"d2aef6","name":"鹿島台","name_kana":"かしまだい","lat":38.474708,"lng":141.097965,"prefecture":4,"lines":[11231],"attr":"eco","postal_code":"989-4103","address":"大崎市鹿島台平渡字銭神","next":[1123153,1122225,1123155,1122224,1122304,1122226,1122303],"voronoi":{"lat":38.507679,"lng":141.109964,"delta_lat":[0,-38667,-32778,18867,2589,1782,30882],"delta_lng":[0,-63869,90957,19438,2006,870,-12009]}},
    {"code":1123155,"left":1123153,"right":1123156,"id":"66323a","name":"松山町","name_kana":"まつやままち","lat":38.512332,"lng":141.075187,"prefecture":4,"lines":[11231],"attr":"eco","postal_code":"987-1303","address":"大崎市松山金谷字赤沼上","next":[1122103,1122303,1123156,1123154,1122102,1122302,1123153],"voronoi":{"lat":38.463541,"lng":140.984872,"delta_lat":[0,8767,37689,22400,-12593,-12124,-38667],"delta_lng":[0,6115,34350,59513,19114,6001,-63869]}},
    {"code":1123153,"left":1123152,"id":"05f5ba","name":"品井沼","name_kana":"しないぬま","lat":38.431539,"lng":141.082408,"prefecture":4,"lines":[11231],"attr":"eco","postal_code":"981-0205","address":"宮城郡松島町幡谷鹿渡","next":[1122220,1123154,1123152,1122221,1122219,1122103,1122224,1123155],"voronoi":{"lat":38.463541,"lng":140.984872,"delta_lat":[0,-2102,-52720,3899,17683,1321,4613,32778],"delta_lng":[0,-3386,103478,16583,32252,1472,1782,-90957]}},
    {"code":1123152,"id":"46363b","name":"愛宕(宮城)","original_name":"愛宕","name_kana":"あたご","lat":38.397371,"lng":141.065,"prefecture":4,"lines":[11231],"attr":"heat","postal_code":"981-0213","address":"宮城郡松島町松島字三居山","next":[1123153,1122103,1122219,1122217,1123151,1123147,1122216,1122218,100412],"voronoi":{"lat":38.461439,"lng":140.981486,"delta_lat":[0,-52720,-12165,-7843,-1384,6367,12576,42437,5032],"delta_lng":[0,103478,-4465,-13604,-24624,-28352,-25291,-35857,9005]}},
    {"code":1123156,"id":"ce05a9","name":"小牛田","name_kana":"こごた","lat":38.541111,"lng":141.064355,"prefecture":4,"lines":[11231,11221,11223],"attr":"eco","postal_code":"987-0001","address":"遠田郡美里町藤ケ崎","next":[1122302,1123155,1123157,1122102],"voronoi":{"lat":38.570113,"lng":141.076169,"delta_lat":[0,-37717,-22400,57682],"delta_lng":[0,8681,-59513,26168]}},
    {"code":1122303,"left":1122224,"right":1122302,"id":"77edf7","name":"涌谷","name_kana":"わくや","lat":38.538151,"lng":141.127359,"prefecture":4,"lines":[11223],"attr":"eco","postal_code":"987-0114","address":"遠田郡涌谷町新町裏","next":[1122302,1122404,1122403,1123155,1123158,1123154,1122304],"voronoi":{"lat":38.490354,"lng":141.147358,"delta_lat":[0,17325,12124,95735,9078,-14092,-50357],"delta_lng":[0,-37393,-6001,37912,19844,5325,7373]}},
    {"code":1122224,"id":"1bda10","name":"陸前小野","name_kana":"りくぜんおの","lat":38.396018,"lng":141.174345,"prefecture":4,"lines":[11222,11232],"attr":"cool","postal_code":"981-0301","address":"東松島市牛網上江戸原","next":[1122225,1122223,1123154,1122221,1123153],"voronoi":{"lat":38.455101,"lng":141.15649,"delta_lat":[0,-110276,65417,21379,4613],"delta_lng":[0,51162,-64312,-8070,1782]}},
    {"code":1122302,"id":"c82086","name":"上涌谷","name_kana":"かみわくや","lat":38.549194,"lng":141.099473,"prefecture":4,"lines":[11223],"attr":"eco","postal_code":"987-0133","address":"遠田郡涌谷町掃部字沖名","next":[1123156,1122303,1123158,1123155,1123157],"voronoi":{"lat":38.570113,"lng":141.076169,"delta_lat":[0,-37717,-12593,95735,-4379],"delta_lng":[0,8681,19114,37912,-18092]}},
    {"code":1122230,"left":1122231,"right":1122229,"id":"bcf34b","name":"陸前山下","name_kana":"りくぜんやました","lat":38.437718,"lng":141.288868,"prefecture":4,"lines":[11222,11232],"attr":"cool","postal_code":"986-0877","address":"石巻市錦町","next":[1122307,1122231,1122232,1122229],"voronoi":{"lat":38.452229,"lng":141.298707,"delta_lat":[0,-118729,12109,106085],"delta_lng":[0,-18902,-662,4729]}},
    {"code":1122231,"left":1122228,"right":1122311,"id":"c80a8d","name":"石巻","name_kana":"いしのまき","lat":38.43538,"lng":141.303553,"prefecture":4,"lines":[11222,11223,11232],"attr":"cool","postal_code":"986-0826","address":"石巻市鋳銭場","next":[1122307,1122230,1122232,1122309,1122225,1122310],"voronoi":{"lat":38.258601,"lng":141.292234,"delta_lat":[0,45702,29197,118729,7348,-51197],"delta_lng":[0,-12913,484,18902,14322,16495]}},
    {"code":1122228,"left":1122227,"right":1122232,"id":"e75857","name":"陸前赤井","name_kana":"りくぜんあかい","lat":38.432442,"lng":141.238883,"prefecture":4,"lines":[11222,11232],"attr":"cool","postal_code":"981-0501","address":"東松島市赤井字川前","next":[1122225,1122305,1122227,1122226,1122232],"voronoi":{"lat":38.465158,"lng":141.243653,"delta_lat":[0,254,-93464,-21453,-22533],"delta_lng":[0,-22494,24865,8665,13446]}},
    {"code":1122227,"left":1122226,"id":"9a8a42","name":"東矢本","name_kana":"ひがしやもと","lat":38.427993,"lng":141.22216,"prefecture":4,"lines":[11222],"attr":"cool","postal_code":"981-0503","address":"東松島市矢本下浦","next":[1122228,1122304,1122226,1122305],"voronoi":{"lat":38.371949,"lng":141.246023,"delta_lat":[0,92804,4507,-3847],"delta_lng":[0,-53927,13642,15420]}},
    {"code":1122226,"id":"55665f","name":"矢本","name_kana":"やもと","lat":38.420432,"lng":141.209148,"prefecture":4,"lines":[11222,11232],"attr":"cool","postal_code":"981-0503","address":"東松島市矢本河戸","next":[1122225,1123154,1122304,1122228,1122227],"voronoi":{"lat":38.464753,"lng":141.192097,"delta_lat":[0,-5280,-1782,-107195,21453],"delta_lng":[0,-32730,-870,96192,-8665]}},
    {"code":1122232,"id":"1f877f","name":"石巻あゆみ野","name_kana":"いしのまきあゆみの","lat":38.436111,"lng":141.259444,"prefecture":4,"lines":[11222],"attr":"cool","postal_code":"986-0853","address":"石巻市門脇","open_date":"2016-03-26","next":[1122225,1122231,1122229,1122306,1122230,1122307,1122305,1122228],"voronoi":{"lat":38.304303,"lng":141.27932,"delta_lat":[0,29197,12109,112605,10356,176,-3587,-137196],"delta_lng":[0,484,-662,-13030,-10896,-370,-11194,24482]}},
    {"code":1122311,"left":1122310,"right":1122312,"id":"9d9ef8","name":"万石浦","name_kana":"まんごくうら","lat":38.428855,"lng":141.368555,"prefecture":4,"lines":[11223],"attr":"heat","postal_code":"986-2103","address":"石巻市流留字垂水","next":[1122310,1122312,1122309],"voronoi":{"lat":38.431451,"lng":141.348888,"delta_lat":[0,-11414,46560],"delta_lng":[0,29280,-11964]}},
    {"code":1122310,"id":"a61532","name":"渡波","name_kana":"わたのは","lat":38.420051,"lng":141.365123,"prefecture":4,"lines":[11223],"attr":"cool","postal_code":"986-2121","address":"石巻市渡波町１丁目","next":[1122309,1122225,1122311,1123022,1122312,1122313,1123018,1122231,1122223],"voronoi":{"lat":38.225614,"lng":141.295388,"delta_lat":[0,32987,149779,23071,-11414,-41275,-536237,71299,76154],"delta_lng":[0,-3154,37290,19365,29280,29597,157261,-129441,-93713]}},
    {"code":1122312,"id":"cd730a","name":"沢田","name_kana":"さわだ","lat":38.432397,"lng":141.38234,"prefecture":4,"lines":[11223],"attr":"heat","postal_code":"986-2102","address":"石巻市沢田字沢田","next":[1122311,1122309,1122310,1122313,1122407,1122314],"voronoi":{"lat":38.534917,"lng":141.390912,"delta_lat":[0,-872,-67449,-46560,-41275,154081],"delta_lng":[0,-6151,-18557,11964,29597,-16369]}},
    {"code":1122229,"left":1122402,"right":1122307,"id":"d68ce7","name":"蛇田","name_kana":"へびた","lat":38.438218,"lng":141.277652,"prefecture":4,"lines":[11222,11232],"attr":"cool","postal_code":"986-0861","address":"石巻市蛇田字下谷地","next":[1122232,1122307,1122230],"voronoi":{"lat":38.458213,"lng":141.266112,"delta_lat":[0,-112605,106085],"delta_lng":[0,13030,4729]}},
    {"code":1122402,"left":1122305,"right":1122403,"id":"854042","name":"和渕","name_kana":"わぶち","lat":38.525772,"lng":141.220428,"prefecture":4,"lines":[11224],"attr":"eco","postal_code":"987-1102","address":"石巻市和渕","next":[1122403,1122304,1122305],"voronoi":{"lat":38.502256,"lng":141.216097,"delta_lat":[0,42806,-13121],"delta_lng":[0,-22295,65287]}},
    {"code":1122305,"left":1122304,"id":"530b04","name":"佳景山","name_kana":"かけやま","lat":38.497974,"lng":141.239622,"prefecture":4,"lines":[11223],"attr":"eco","postal_code":"986-1111","address":"石巻市鹿又","next":[1122306,1122228,1122304,1122232,1122227,1122402,1122403],"voronoi":{"lat":38.531941,"lng":141.259089,"delta_lat":[0,-29685,-32996,-3847,-254,3587,66846],"delta_lng":[0,-42992,-10358,15420,22494,11194,18675]}},
    {"code":1122304,"id":"38c37e","name":"前谷地","name_kana":"まえやち","lat":38.512187,"lng":141.194345,"prefecture":4,"lines":[11223,11224],"attr":"eco","postal_code":"987-1101","address":"石巻市前谷地","next":[1122402,1122305,1123154,1122227,1122226,1122403,1122303],"voronoi":{"lat":38.545062,"lng":141.193802,"delta_lat":[0,-42806,-32996,-4507,-5280,30882,69813],"delta_lng":[0,22295,-10358,-13642,-32730,-12009,27060]}},
    {"code":1122403,"id":"e42f05","name":"のの岳","name_kana":"ののだけ","lat":38.552567,"lng":141.225813,"prefecture":4,"lines":[11224],"attr":"eco","postal_code":"987-0284","address":"遠田郡涌谷町猪岡短台字大谷地","next":[1122404,1122402,1122303,1122304,1122306,1122305],"voronoi":{"lat":38.531941,"lng":141.259089,"delta_lat":[0,13121,15106,50357,-70439,-4494],"delta_lng":[0,-65287,-19384,-7373,111718,-5241]}},
    {"code":1122307,"left":1122309,"right":1122306,"id":"7a6007","name":"曽波神","name_kana":"そばのかみ","lat":38.465993,"lng":141.287848,"prefecture":4,"lines":[11223],"attr":"eco","postal_code":"986-1111","address":"石巻市鹿又","next":[1122230,1122231,1122309,1122306,1122232,1122229],"voronoi":{"lat":38.452229,"lng":141.298707,"delta_lat":[0,7348,25803,-16810,-10356,-6520],"delta_lng":[0,14322,11271,-69083,10896,17759]}},
    {"code":1122309,"id":"1474b9","name":"陸前稲井","name_kana":"りくぜんいない","lat":38.445463,"lng":141.334847,"prefecture":4,"lines":[11223],"attr":"cool","postal_code":"986-0003","address":"石巻市井内滝ノ口","next":[1122310,1122307,1122312,1122231,1122306,1122407,1122406,1122311],"voronoi":{"lat":38.534046,"lng":141.384761,"delta_lat":[0,2121,-111,-50676,-25803,-51197,23071,35146],"delta_lng":[0,-20328,-646,-39488,-11271,16495,19365,17316]}},
    {"code":1122306,"id":"208202","name":"鹿又","name_kana":"かのまた","lat":38.485851,"lng":141.283016,"prefecture":4,"lines":[11223],"attr":"eco","postal_code":"986-1111","address":"石巻市鹿又","next":[1122305,1122406,1122404,1122307,1122232,1122309,1122403],"voronoi":{"lat":38.548079,"lng":141.298908,"delta_lat":[0,-12023,-50676,-16810,176,66846,4494],"delta_lng":[0,64879,-39488,-69083,-370,18675,5241]}},
    {"code":1123171,"left":1123168,"right":1120803,"id":"be506b","name":"水沢","name_kana":"みずさわ","lat":39.138998,"lng":141.146395,"prefecture":3,"lines":[11231],"attr":"cool","postal_code":"023-0813","address":"奥州市水沢区中町","next":[1123170,100415,1123172],"voronoi":{"lat":39.127626,"lng":141.054227,"delta_lat":[0,-14520,73490],"delta_lng":[0,117648,-10948]}},
    {"code":1123168,"left":1123160,"right":1123172,"id":"ba5ae3","name":"平泉","name_kana":"ひらいずみ","lat":38.987935,"lng":141.117786,"prefecture":3,"lines":[11231],"attr":"eco","postal_code":"029-4102","address":"西磐井郡平泉町平泉","next":[1121009,1120805,1123165,1123169,1122113,1123167],"voronoi":{"lat":38.924698,"lng":141.008344,"delta_lat":[0,-2767,91303,38894,-41939,-19884],"delta_lng":[0,-103969,-67734,42355,301376,-1769]}},
    {"code":1123160,"left":1123159,"right":100414,"id":"1d9cad","name":"新田(宮城)","original_name":"新田","name_kana":"にった","lat":38.711475,"lng":141.119428,"prefecture":4,"lines":[11231],"attr":"eco","postal_code":"989-4601","address":"登米市迫町新田","next":[1123158,100413,1122404,1123161,1123159,1122405],"voronoi":{"lat":38.756164,"lng":141.116056,"delta_lat":[0,-39514,-81028,-6541,23138,36290],"delta_lng":[0,-31217,70700,8079,23831,26429]}},
    {"code":1123159,"left":1123158,"right":100413,"id":"5e58d4","name":"梅ヶ沢","name_kana":"うめがさわ","lat":38.681678,"lng":141.085278,"prefecture":4,"lines":[11231],"attr":"eco","postal_code":"989-4601","address":"宮城県登米市迫町新田字外沢田53","next":[1123158,1123160,100413],"voronoi":{"lat":38.700659,"lng":141.004846,"delta_lat":[0,-65037,81028],"delta_lng":[0,150692,-70700]}},
    {"code":1123158,"left":1123157,"id":"ed8bac","name":"瀬峰","name_kana":"せみね","lat":38.655153,"lng":141.07383,"prefecture":4,"lines":[11231],"attr":"eco","postal_code":"989-4521","address":"栗原市瀬峰下田","next":[1123160,1123159,1122302,100413,1122108,1122303,1122404,1123157,100412],"voronoi":{"lat":38.666699,"lng":140.978437,"delta_lat":[0,33291,669,-65037,-6541,-4464,-9078,-4379,32106],"delta_lng":[0,-4549,30958,150692,8079,-1898,-19844,-18092,-126777]}},
    {"code":1123157,"id":"2f429e","name":"田尻","name_kana":"たじり","lat":38.596246,"lng":141.058912,"prefecture":4,"lines":[11231],"attr":"eco","postal_code":"989-4308","address":"大崎市田尻沼部字塩加良","next":[100412,1123156,1122103,1122302,1123158,1122102],"voronoi":{"lat":38.570113,"lng":141.076169,"delta_lat":[0,41046,32106,-2191,-41861,-31535],"delta_lng":[0,47615,-126777,603,21891,32004]}},
    {"code":100413,"id":"fc3fe2","name":"くりこま高原","name_kana":"くりこまこうげん","lat":38.749102,"lng":141.0718,"prefecture":4,"lines":[1004],"attr":"eco","postal_code":"989-5612","address":"宮城県栗原市志波姫新熊谷２８４","next":[1123165,1122112,1123160,1123161,1122111,1123158,1123159,1122108],"voronoi":{"lat":38.710642,"lng":140.966923,"delta_lat":[0,65768,101701,-73509,-48439,-39514,-15991,-669],"delta_lng":[0,-21216,-17299,176726,10922,-31217,-79992,-30958]}},
    {"code":100414,"left":1123165,"right":1123167,"id":"121ad9","name":"一ノ関","name_kana":"いちのせき","lat":38.926514,"lng":141.138177,"prefecture":3,"lines":[1004,11231,11208],"attr":"cool","postal_code":"021-0867","address":"一関市駅前","next":[1123165,1120802,1123167],"voronoi":{"lat":38.918627,"lng":141.054947,"delta_lat":[0,-26574,56242],"delta_lng":[0,91465,25855]}},
    {"code":1123165,"id":"b0d9aa","name":"有壁","name_kana":"ありかべ","lat":38.867371,"lng":141.120994,"prefecture":4,"lines":[11231],"attr":"eco","postal_code":"989-4806","address":"栗原市金成","next":[1120802,1123161,100414,100413,1123164,1123167,1123168,1123162,1122113,1122112],"voronoi":{"lat":38.920179,"lng":140.905044,"delta_lat":[0,1752,2767,-6071,-26574,-2990,-77893,-654,-5914,73509],"delta_lng":[0,-670,103969,46604,91465,2146,-27267,-840,-15318,-176726]}},
    {"code":1123167,"id":"f7fc1b","name":"山ノ目","name_kana":"やまのめ","lat":38.951253,"lng":141.131921,"prefecture":3,"lines":[11231],"attr":"eco","postal_code":"021-0011","address":"一関市山目町３丁目","next":[1120805,100414,1123165,1120802,1123168],"voronoi":{"lat":38.962384,"lng":141.185439,"delta_lat":[0,-14089,-29668,6071,65607],"delta_lng":[0,-13172,-117320,-46604,170259]}},
    {"code":1123172,"left":1121003,"right":1123170,"id":"e354d7","name":"金ヶ崎","name_kana":"かねがさき","lat":39.199615,"lng":141.112894,"prefecture":3,"lines":[11231],"attr":"cool","postal_code":"029-4503","address":"岩手県胆沢郡金ケ崎町西根杉土手2-1","next":[1123169,1123173,1123170,100416,1121007,100415,1123171],"voronoi":{"lat":39.232566,"lng":141.193863,"delta_lat":[0,4621,-103606,-25048,5214,13879,58970],"delta_lng":[0,-45273,-191633,-14011,58965,52316,106700]}},
    {"code":1121003,"left":1121002,"right":1121004,"id":"26467f","name":"江釣子","name_kana":"えづりこ","lat":39.298349,"lng":141.075749,"prefecture":3,"lines":[11210],"attr":"heat","postal_code":"024-0071","address":"北上市上江釣子","next":[1123175,1123173,1121002,100416,1123176,1121004],"voronoi":{"lat":39.35236,"lng":141.075086,"delta_lat":[0,-37255,-45404,-5964,-10704,104126],"delta_lng":[0,20571,-4743,-2249,-34507,7814]}},
    {"code":1121002,"left":1123173,"id":"f8618c","name":"柳原(岩手)","original_name":"柳原","name_kana":"やなぎはら","lat":39.294597,"lng":141.111671,"prefecture":3,"lines":[11210],"attr":"heat","postal_code":"024-0083","address":"北上市柳原町１丁目","next":[1123175,100416,1121003],"voronoi":{"lat":39.302409,"lng":141.136811,"delta_lat":[0,-32708,45404],"delta_lng":[0,-45897,4743]}},
    {"code":1123173,"id":"059508","name":"六原","name_kana":"ろくはら","lat":39.227894,"lng":141.097605,"prefecture":3,"lines":[11231],"attr":"cool","postal_code":"029-4502","address":"胆沢郡金ケ崎町大字三ケ尻","next":[1123172,1121005,1121004,1121003,1121006,100416,1121007],"voronoi":{"lat":39.133581,"lng":140.956957,"delta_lat":[0,103606,26551,-10704,-40044,-32791,-334],"delta_lng":[0,191633,-59926,-34507,-50488,-26106,-217]}},
    {"code":1121004,"id":"8b7c33","name":"藤根","name_kana":"ふじね","lat":39.301064,"lng":141.039571,"prefecture":3,"lines":[11210],"attr":"heat","postal_code":"024-0334","address":"北上市和賀町藤根","next":[1123173,1121005,1123176,1121003],"voronoi":{"lat":39.381237,"lng":141.030683,"delta_lat":[0,-168248,40044,104126],"delta_lng":[0,-27014,50488,7814]}},
    {"code":1123170,"left":1123169,"right":100416,"id":"8419fc","name":"陸中折居","name_kana":"りくちゅうおりい","lat":39.094185,"lng":141.140864,"prefecture":3,"lines":[11231],"attr":"cool","postal_code":"023-0841","address":"奥州市水沢区真城","next":[1123171,100415,1123172,1123169,1120806],"voronoi":{"lat":39.048833,"lng":141.203875,"delta_lat":[0,64914,13879,-14520,-45978],"delta_lng":[0,-201963,52316,117648,49128]}},
    {"code":1123169,"id":"f4c437","name":"前沢","name_kana":"まえさわ","lat":39.048686,"lng":141.12624,"prefecture":3,"lines":[11231],"attr":"cool","postal_code":"029-4207","address":"奥州市前沢区三日町新裏","next":[1121007,1123172,1120806,1123170,1121009,1120805,1123168],"voronoi":{"lat":39.052128,"lng":140.878996,"delta_lat":[0,20486,35918,5214,-64914,-7063,-31580],"delta_lng":[0,17382,46569,58965,201963,-3322,-20181]}},
    {"code":100416,"id":"573775","name":"北上","name_kana":"きたかみ","lat":39.281196,"lng":141.121221,"prefecture":3,"lines":[1004,11231,11210],"attr":"eco","postal_code":"024-0061","address":"北上市大通り１丁目","next":[100415,1121002,1123172,1121003,1123173,1123175,1120906],"voronoi":{"lat":39.303627,"lng":141.202231,"delta_lat":[0,-1218,-32708,-5964,-26551,-4621,20003],"delta_lng":[0,-65421,-45897,-2249,59926,45273,40280]}},
    {"code":1120803,"left":1123163,"right":1120807,"id":"698616","name":"陸中門崎","name_kana":"りくちゅうかんざき","lat":38.916908,"lng":141.251226,"prefecture":3,"lines":[11208],"attr":"cool","postal_code":"029-0201","address":"一関市川崎町門崎","next":[1123162,1120809,1120802,1120804,1123163],"voronoi":{"lat":38.796852,"lng":141.308893,"delta_lat":[0,144700,-15984,-53670,-71634],"delta_lng":[0,-12209,-83643,6347,84093]}},
    {"code":1123163,"left":1123164,"right":1122406,"id":"6637df","name":"花泉","name_kana":"はないずみ","lat":38.83331,"lng":141.180013,"prefecture":3,"lines":[11231],"attr":"eco","postal_code":"029-3101","address":"一関市花泉町花泉","next":[1123162,1120802,1123164,1120803],"voronoi":{"lat":38.871898,"lng":141.219389,"delta_lat":[0,-727,-52078,-18829],"delta_lng":[0,-26150,-48007,158250]}},
    {"code":1123164,"left":1123162,"right":1120802,"id":"c1b4fd","name":"清水原","name_kana":"しみずはら","lat":38.854915,"lng":141.156576,"prefecture":3,"lines":[11231],"attr":"eco","postal_code":"029-3101","address":"一関市花泉町花泉","next":[1123163,1123162,1123165,1120802],"voronoi":{"lat":38.889063,"lng":141.148559,"delta_lat":[0,-77893,7923,52078],"delta_lng":[0,-27267,23940,48007]}},
    {"code":1123162,"left":1123161,"id":"63d03c","name":"油島","name_kana":"ゆしま","lat":38.797113,"lng":141.175706,"prefecture":3,"lines":[11231],"attr":"eco","postal_code":"029-3207","address":"一関市花泉町油島","next":[1120809,1122405,1120803,1123163,1123164,1123161,1122406,1123165,1122407],"voronoi":{"lat":38.735288,"lng":141.284699,"delta_lat":[0,-11495,-85,86809,654,7923,-18829,-3412,-19670],"delta_lng":[0,-16297,-183,-147767,840,23940,158250,5412,14789]}},
    {"code":1123161,"id":"9c37af","name":"石越","name_kana":"いしこし","lat":38.768778,"lng":141.15906,"prefecture":4,"lines":[11231],"attr":"eco","postal_code":"989-4703","address":"登米市石越町南郷","next":[1122405,1123165,100413,1123162,1123160],"voronoi":{"lat":38.723707,"lng":141.268219,"delta_lat":[0,86809,-5914,-48439,-67655],"delta_lng":[0,-147767,-15318,10922,97822]}},
    {"code":1120802,"id":"e2b9d9","name":"真滝","name_kana":"またき","lat":38.908239,"lng":141.17793,"prefecture":3,"lines":[11208],"attr":"cool","postal_code":"029-0132","address":"一関市滝沢","next":[1123165,100414,1120804,1123163,1120803,1123164,1123167,1120805],"voronoi":{"lat":38.962384,"lng":141.185439,"delta_lat":[0,-14089,-56242,-2990,-17892,727,53670,26055],"delta_lng":[0,-13172,-25855,2146,44680,26150,-6347,-15252]}},
    {"code":1122406,"left":1122405,"right":1122407,"id":"bfc625","name":"柳津(宮城)","original_name":"柳津","name_kana":"やないづ","lat":38.611869,"lng":141.306369,"prefecture":4,"lines":[11224],"attr":"eco","postal_code":"987-0500","address":"登米市津山町谷木","next":[1122306,1122405,1122404,1122407,1123162,1122309],"voronoi":{"lat":38.735288,"lng":141.284699,"delta_lat":[0,-11495,-162513,-13201,-12023,111],"delta_lng":[0,-16297,24219,6288,64879,646]}},
    {"code":1122405,"id":"ae8ec1","name":"御岳堂","name_kana":"みたけどう","lat":38.605662,"lng":141.264718,"prefecture":4,"lines":[11224],"attr":"eco","postal_code":"987-0341","address":"登米市豊里町大沢沼田","next":[1123161,1123162,1122406,1122404,1123160],"voronoi":{"lat":38.723707,"lng":141.268219,"delta_lat":[0,85,-162513,90939,36290],"delta_lng":[0,183,24219,-105172,26429]}},
    {"code":1122407,"id":"f678b9","name":"陸前横山","name_kana":"りくぜんよこやま","closed":true,"lat":38.631022,"lng":141.3542,"prefecture":4,"lines":[11224],"attr":"unknown","postal_code":"986-0402","address":"登米市津山町横山","closed_date":"2020-04-01","next":[1122314,1122408,1122424,1120809,1122406,1122309,1122312,1123162],"voronoi":{"lat":38.735288,"lng":141.284699,"delta_lat":[0,-199121,-2121,872,11021,148727,82899,-382],"delta_lng":[0,79735,20328,6151,22624,-31433,-45324,-13097]}},
    {"code":1120807,"left":1120806,"right":1120808,"id":"b67554","name":"柴宿","name_kana":"しばじゅく","lat":38.996719,"lng":141.272312,"prefecture":3,"lines":[11208],"attr":"cool","postal_code":"029-0302","address":"一関市東山町長坂","next":[1120808,1120804,100415,1120806],"voronoi":{"lat":38.951707,"lng":141.296091,"delta_lat":[0,157484,-38024,-107750],"delta_lng":[0,2266,-67573,44024]}},
    {"code":1120806,"left":1120804,"right":100415,"id":"274007","name":"猊鼻渓","name_kana":"げいびけい","lat":38.988939,"lng":141.25327,"prefecture":3,"lines":[11208],"attr":"cool","postal_code":"029-0302","address":"一関市東山町長坂","next":[1120805,100415,1120804,1123169,1123170,1120807],"voronoi":{"lat":39.071166,"lng":141.230785,"delta_lat":[0,-4039,-18295,-7063,-75188,-3165],"delta_lng":[0,-9781,-17129,-3322,57794,16462]}},
    {"code":1120804,"left":1120805,"id":"f43e4e","name":"岩ノ下","name_kana":"いわのした","lat":38.947699,"lng":141.245342,"prefecture":3,"lines":[11208],"attr":"cool","postal_code":"029-0303","address":"一関市東山町松川","next":[1120808,1120807,1120806,1120802,1120803,1120805,1120809],"voronoi":{"lat":38.941553,"lng":141.296685,"delta_lat":[0,-15984,26055,14958,-3165,-11710,-3358],"delta_lng":[0,-83643,-15252,60557,16462,21283,2140]}},
    {"code":1120805,"id":"d8bb5e","name":"陸中松川","name_kana":"りくちゅうまつかわ","lat":38.977237,"lng":141.238046,"prefecture":3,"lines":[11208],"attr":"cool","postal_code":"029-0303","address":"一関市東山町松川","next":[1120806,1123167,1123168,1123169,1120804,1120802],"voronoi":{"lat":38.962384,"lng":141.185439,"delta_lat":[0,27921,19884,31580,-75188,-14958],"delta_lng":[0,-6837,1769,20181,57794,-60557]}},
    {"code":100415,"id":"9f8444","name":"水沢江刺","name_kana":"みずさわえさし","lat":39.145301,"lng":141.188703,"prefecture":3,"lines":[1004],"attr":"eco","postal_code":"023-0104","address":"岩手県奥州市水沢羽田町駅前１丁目","next":[1120806,1120907,1123170,100416,1120909,1120808,1120910,1120807,1123171,1123172,1120906],"voronoi":{"lat":39.252568,"lng":141.234144,"delta_lat":[0,-20003,-45970,-73490,-45978,4039,38024,42482,2671,83204,4977],"delta_lng":[0,-40280,-32936,10948,49128,9781,67573,47882,-1964,-69973,-8033]}},
    {"code":1120808,"left":1120809,"right":1120909,"id":"844c35","name":"摺沢","name_kana":"すりさわ","lat":38.996016,"lng":141.321156,"prefecture":3,"lines":[11208],"attr":"cool","postal_code":"029-0523","address":"一関市大東町摺沢","next":[1120804,1120807,100415,1120910,1120817,1120809,1120811,1120810,1120812],"voronoi":{"lat":39.128096,"lng":141.438058,"delta_lat":[0,23576,-42482,-157484,-3358,20224,44414,33959,47718],"delta_lng":[0,-91818,-47882,-2266,2140,58789,44766,19137,20583]}},
    {"code":1120809,"id":"66ef71","name":"千厩","name_kana":"せんまや","lat":38.924873,"lng":141.34563,"prefecture":3,"lines":[11208],"attr":"cool","postal_code":"029-0803","address":"一関市千厩町千厩","next":[1123162,1120803,1122407,1122415,1120808,1122424,1120810,1120804],"voronoi":{"lat":38.941553,"lng":141.296685,"delta_lat":[0,-144700,-19670,382,13088,23565,154355,-20224],"delta_lng":[0,12209,14789,13097,30017,20734,-30510,-58789]}},
    {"code":1120909,"id":"576823","name":"柏木平","name_kana":"かしわぎだいら","lat":39.30606,"lng":141.379862,"prefecture":3,"lines":[11209],"attr":"cool","postal_code":"028-0303","address":"遠野市宮守町下鱒沢","next":[1120907,1120911,100415,1120910,1120908],"voronoi":{"lat":39.342223,"lng":141.401463,"delta_lat":[0,-187880,83204,66646,47789],"delta_lng":[0,-57187,-69973,53699,72685]}},
    {"code":1120820,"left":1122427,"right":1120839,"id":"c06aff","name":"脇ノ沢","name_kana":"わきのさわ","closed":true,"lat":39.011886,"lng":141.671756,"prefecture":3,"lines":[11208],"attr":"unknown","postal_code":"029-2206","address":"陸前高田市米崎町字脇の沢","closed_date":"2020-04-01","next":[1120840,1120835,1120837,1120827,1120838,1120834,1120833],"voronoi":{"lat":39.057293,"lng":141.67412,"delta_lat":[0,-1751,-1781,-30083,-45513,8247,32126],"delta_lng":[0,2871,1432,12384,-28414,-10258,4476]}},
    {"code":1122427,"left":1122413,"right":1120826,"id":"9a7963","name":"気仙沼市立病院","name_kana":"けせんぬましりつびょういん","closed":true,"lat":38.887597,"lng":141.56567,"prefecture":4,"lines":[11224],"attr":"unknown","postal_code":"988-0181","address":"宮城県気仙沼市赤岩杉ノ沢","next":[1122425,1122416,1122420,1122421,1122417,1122426,1120813,1122422,1122419],"voronoi":{"lat":38.866299,"lng":141.562991,"delta_lat":[0,12098,10893,3030,-11510,-25171,-5510,51,14542],"delta_lng":[0,9624,2086,-13152,-41888,-9169,15868,2566,31897]}},
    {"code":1122413,"left":1122424,"right":1122414,"id":"bef2ef","name":"蔵内","name_kana":"くらうち","closed":true,"lat":38.753579,"lng":141.525003,"prefecture":4,"lines":[11224],"attr":"unknown","postal_code":"988-0324","address":"宮城県気仙沼市本吉町歌生116","closed_date":"2020-04-01","next":[1122412,1122411,1122416,1122414,1122417],"voronoi":{"lat":38.766096,"lng":141.571748,"delta_lat":[0,9011,-36071,-977,27176],"delta_lng":[0,-42904,-27275,6561,64858]}},
    {"code":1122424,"left":1122408,"right":1122411,"id":"c648f0","name":"志津川中央団地","name_kana":"しづがわちゅうおうだんち","closed":true,"lat":38.683806,"lng":141.450742,"prefecture":4,"lines":[11224],"attr":"unknown","postal_code":"986-0753","address":"宮城県本吉郡南三陸町志津川新井田","next":[1122408,1122410,1122409,1122407,1122414,1120809,1122423,1122415],"voronoi":{"lat":38.790653,"lng":141.366796,"delta_lat":[0,-13088,-82899,-5626,-9674,25377,34573,15680],"delta_lng":[0,-30017,45324,11677,61989,10901,-7190,-21934]}},
    {"code":1122408,"left":1122314,"right":1122409,"id":"64464d","name":"陸前戸倉","name_kana":"りくぜんとぐら","closed":true,"lat":38.647755,"lng":141.433373,"prefecture":4,"lines":[11224],"attr":"unknown","postal_code":"986-0781","address":"本吉郡南三陸町戸倉","closed_date":"2020-04-01","next":[1122409,1122424,1122407,1122314,1122423,1122410],"voronoi":{"lat":38.545938,"lng":141.413537,"delta_lat":[0,148727,-5626,-37414,-54750,-43598],"delta_lng":[0,-31433,11677,66549,58406,34209]}},
    {"code":1122314,"left":1122313,"id":"036c97","name":"女川","name_kana":"おながわ","lat":38.446767,"lng":141.443954,"prefecture":4,"lines":[11223],"attr":"heat","postal_code":"986-2261","address":"牡鹿郡女川町大字女川浜字大原","next":[1122407,9920803,1123009,1123004,9920804,1122412,1122408,1122410,1122313,1123016,1123012,1123015,1122411,1122312],"voronoi":{"lat":38.534917,"lng":141.390912,"delta_lat":[0,11021,7339,-18888,-133913,-52474,-607388,-1611173,689790,730597,47138,88196,54380,793300],"delta_lng":[0,22624,139408,101376,479723,176239,1039320,2715910,-2007292,-1925775,-106830,-174152,-101136,-358931]}},
    {"code":1122313,"id":"378797","name":"浦宿","name_kana":"うらしゅく","lat":38.436542,"lng":141.421355,"prefecture":4,"lines":[11223],"attr":"heat","postal_code":"986-2231","address":"牡鹿郡女川町大字浦宿浜","next":[1123018,1123016,1122314,1122312,1122310],"voronoi":{"lat":37.797572,"lng":141.638111,"delta_lat":[0,-58029,793300,-154081,-536237],"delta_lng":[0,112216,-358931,16369,157261]}},
    {"code":1122409,"id":"bac132","name":"志津川","name_kana":"しづがわ","closed":true,"lat":38.676668,"lng":141.449628,"prefecture":4,"lines":[11224],"attr":"unknown","postal_code":"986-0767","address":"本吉郡南三陸町志津川中瀬町","closed_date":"2020-04-01","next":[1122408,1122424,1122423],"voronoi":{"lat":38.679365,"lng":141.45577,"delta_lat":[0,9674,-37414],"delta_lng":[0,-61989,66549]}},
    {"code":1122411,"left":1122410,"right":1122412,"id":"ca737f","name":"歌津","name_kana":"うたつ","closed":true,"lat":38.718299,"lng":141.519751,"prefecture":4,"lines":[11224],"attr":"unknown","postal_code":"988-0453","address":"本吉郡南三陸町歌津伊里前","closed_date":"2020-04-01","next":[1122414,1122413,1122412,1122410,1122314],"voronoi":{"lat":38.534389,"lng":141.654321,"delta_lat":[0,199664,4983,-977,-337583],"delta_lng":[0,-175016,22264,6561,625914]}},
    {"code":1122410,"left":1122423,"id":"56448c","name":"清水浜","name_kana":"しずはま","closed":true,"lat":38.691892,"lng":141.489625,"prefecture":4,"lines":[11224],"attr":"unknown","postal_code":"986-0706","address":"本吉郡南三陸町志津川清水浜","closed_date":"2020-04-01","next":[1122414,1122423,1122424,1122314,1122408,1122411],"voronoi":{"lat":38.553277,"lng":141.552945,"delta_lat":[0,43598,107867,34573,-5262,-199664],"delta_lng":[0,-34209,-52065,-7190,19824,175016]}},
    {"code":1122423,"id":"c32780","name":"南三陸町役場・病院前","name_kana":"みなみさんりくちょうやくば・びょういんまえ","closed":true,"lat":38.678776,"lng":141.462452,"prefecture":4,"lines":[11224],"attr":"unknown","postal_code":"986-0725","address":"宮城県本吉郡南三陸町志津川沼田１４−３","next":[1122410,1122408,1122409,1122424],"voronoi":{"lat":38.596876,"lng":141.518736,"delta_lat":[0,54750,27740,25377],"delta_lng":[0,-58406,-4560,10901]}},
    {"code":1122412,"id":"ae66ec","name":"陸前港","name_kana":"りくぜんみなと","closed":true,"lat":38.739204,"lng":141.531026,"prefecture":4,"lines":[11224],"attr":"unknown","postal_code":"988-0402","address":"本吉郡南三陸町歌津港","closed_date":"2020-04-01","next":[1122413,1122417,1122314,1122411,9920803],"voronoi":{"lat":38.400477,"lng":142.134044,"delta_lat":[0,337583,27176,-273304,-143929],"delta_lng":[0,-625914,64858,568055,169240]}},
    {"code":1122414,"left":1120811,"right":1122422,"id":"80839f","name":"陸前小泉","name_kana":"りくぜんこいずみ","closed":true,"lat":38.765547,"lng":141.509176,"prefecture":4,"lines":[11224],"attr":"unknown","postal_code":"988-0332","address":"宮城県気仙沼市本吉町下宿38","closed_date":"2020-04-01","next":[1122410,1122411,1122415,1122424,1122413,1122416],"voronoi":{"lat":38.780985,"lng":141.521545,"delta_lat":[0,-25989,-15680,-5262,4983,36071],"delta_lng":[0,-83998,21934,19824,22264,27275]}},
    {"code":1120811,"left":1122415,"right":1120812,"id":"e5ca39","name":"矢越","name_kana":"やごし","lat":38.935224,"lng":141.429029,"prefecture":3,"lines":[11208],"attr":"cool","postal_code":"029-1202","address":"一関市室根町矢越","next":[1120810,1122415,1120808,1120812,1120813],"voronoi":{"lat":39.046945,"lng":141.420923,"delta_lat":[0,-33959,-178359,9740,49438],"delta_lng":[0,-19137,10861,19652,16235]}},
    {"code":1122415,"left":1120813,"id":"1e2013","name":"本吉","name_kana":"もとよし","closed":true,"lat":38.78674,"lng":141.502619,"prefecture":4,"lines":[11224],"attr":"unknown","postal_code":"988-0309","address":"宮城県気仙沼市本吉町津谷松尾79-1","closed_date":"2020-04-01","next":[1120813,1120811,1122414,1120809,1120810,1122416,1122424],"voronoi":{"lat":38.790653,"lng":141.366796,"delta_lat":[0,23565,20410,9740,7249,-70632,-25989],"delta_lng":[0,20734,25117,19652,67581,21664,-83998]}},
    {"code":1120813,"id":"65dd22","name":"新月","name_kana":"にいつき","lat":38.915598,"lng":141.488796,"prefecture":3,"lines":[11208],"attr":"cool","postal_code":"029-1201","address":"一関市室根町折壁","next":[1122415,1120814,1122416,1122427,1120816,1120811,1120812,1122422],"voronoi":{"lat":38.940918,"lng":141.526076,"delta_lat":[0,38159,-85271,-49438,7249,4023,25171,10784],"delta_lng":[0,-21795,-55747,-16235,67581,10612,9169,2498]}},
    {"code":1120812,"id":"bf1a90","name":"折壁","name_kana":"おりかべ","lat":38.939428,"lng":141.452346,"prefecture":3,"lines":[11208],"attr":"cool","postal_code":"029-1201","address":"一関市室根町折壁","next":[1120816,1120811,1120817,1120808,1120813],"voronoi":{"lat":38.893806,"lng":141.448534,"delta_lat":[0,153140,47718,-88332,-27255],"delta_lng":[0,-27611,20583,57838,4937]}},
    {"code":1122422,"left":1122416,"right":1120814,"id":"4f2c8b","name":"不動の沢","name_kana":"ふどうのさわ","closed":true,"lat":38.898486,"lng":141.562678,"prefecture":4,"lines":[11224],"attr":"unknown","postal_code":"988-0063","address":"気仙沼市字四反田","closed_date":"2020-04-01","next":[1120814,1122421,1120815,1122427,1120813],"voronoi":{"lat":38.907682,"lng":141.571229,"delta_lat":[0,-1515,-13847,-11510,10784],"delta_lng":[0,1417,-11097,-41888,2498]}},
    {"code":1122416,"id":"1d340f","name":"小金沢","name_kana":"こがねざわ","closed":true,"lat":38.796362,"lng":141.533989,"prefecture":4,"lines":[11224],"attr":"unknown","postal_code":"988-0272","address":"宮城県気仙沼市本吉町小金沢","closed_date":"2020-04-01","next":[1122427,1120813,1122413,1122414,1122417,1122415],"voronoi":{"lat":38.851617,"lng":141.49988,"delta_lat":[0,4023,-5510,-84033,9011,5877],"delta_lng":[0,10612,15868,45387,-42904,-7299]}},
    {"code":1120814,"id":"954e0e","name":"気仙沼","name_kana":"けせんぬま","lat":38.910031,"lng":141.558893,"prefecture":4,"lines":[11208],"attr":"eco","postal_code":"988-0077","address":"気仙沼市古町","next":[1122422,1120813,1120815,1120826,1120816],"voronoi":{"lat":38.940918,"lng":141.526076,"delta_lat":[0,-49323,16088,25439,1787],"delta_lng":[0,-3917,49070,-6430,-740]}},
    {"code":1120826,"left":1122419,"right":1120827,"id":"0e7a43","name":"八幡大橋（東陵高校）","name_kana":"はちまんおおはし（とうりょうこうこう）","closed":true,"lat":38.920964,"lng":141.5853,"prefecture":4,"lines":[11208],"attr":"unknown","postal_code":"988-0811","address":"宮城県気仙沼市東八幡前","next":[1120827,1122426,1120814,1120815,1120816],"voronoi":{"lat":38.897794,"lng":141.646904,"delta_lat":[0,3291,32037,1787,16646],"delta_lng":[0,-42509,-39596,-740,35323]}},
    {"code":1122419,"left":1122421,"right":1122420,"id":"561f4e","name":"最知","name_kana":"さいち","closed":true,"lat":38.853379,"lng":141.58127,"prefecture":4,"lines":[11224],"attr":"unknown","postal_code":"988-0211","address":"気仙沼市字最知川原","closed_date":"2020-04-01","next":[1122425,1122418,1122427,1122417],"voronoi":{"lat":38.850181,"lng":141.528927,"delta_lat":[0,14542,-22528,6126],"delta_lng":[0,31897,71427,-98175]}},
    {"code":1122421,"left":1122418,"right":1120815,"id":"0182ed","name":"南気仙沼","name_kana":"みなみけせんぬま","closed":true,"lat":38.894765,"lng":141.567321,"prefecture":4,"lines":[11224],"attr":"unknown","postal_code":"988-0024","address":"気仙沼市仲町２丁目","closed_date":"2020-04-01","next":[1122426,1120815,1122427,1122422],"voronoi":{"lat":38.89232,"lng":141.561549,"delta_lat":[0,-3030,10721,6156],"delta_lng":[0,13152,7350,-9405]}},
    {"code":1122418,"left":1122417,"id":"71ab18","name":"陸前階上","name_kana":"りくぜんはしかみ","closed":true,"lat":38.837434,"lng":141.580275,"prefecture":4,"lines":[11224],"attr":"unknown","postal_code":"988-0233","address":"気仙沼市字長磯原","closed_date":"2020-04-01","next":[1122425,1120821,1122417,9920803,1122419],"voronoi":{"lat":38.823512,"lng":141.754318,"delta_lat":[0,-201006,-100871,326686,-6126],"delta_lng":[0,255957,100017,-576216,98175]}},
    {"code":1122417,"id":"2f11c2","name":"大谷海岸","name_kana":"おおやかいがん","closed":true,"lat":38.814268,"lng":141.567141,"prefecture":4,"lines":[11224],"attr":"unknown","postal_code":"988-0273","address":"宮城県気仙沼市本吉町三島94-12","closed_date":"2020-04-01","next":[1122412,1122427,1122418,9920803,1122416,1122413,1122419],"voronoi":{"lat":38.850181,"lng":141.528927,"delta_lat":[0,-51,-84033,-861,-273304,29703,326686],"delta_lng":[0,-2566,45387,1240,568055,-30751,-576216]}},
    {"code":1120815,"id":"73f44e","name":"鹿折唐桑","name_kana":"ししおりからくわ","closed":true,"lat":38.91561,"lng":141.580968,"prefecture":4,"lines":[11208],"attr":"unknown","postal_code":"988-0005","address":"気仙沼市新浜町","closed_date":"2020-04-01","next":[1122421,1120814,1122426,1120826,1122422],"voronoi":{"lat":38.900011,"lng":141.582051,"delta_lat":[0,1073,32037,-25439,-1515],"delta_lng":[0,22344,-39596,6430,1417]}},
    {"code":1122420,"left":1122425,"right":1122426,"id":"fb235f","name":"松岩","name_kana":"まついわ","closed":true,"lat":38.8737,"lng":141.583141,"prefecture":4,"lines":[11224],"attr":"unknown","postal_code":"988-0113","address":"気仙沼市字松崎片浜","closed_date":"2020-04-01","next":[1122426,1120827,1122427,1122425],"voronoi":{"lat":38.866299,"lng":141.562991,"delta_lat":[0,12098,6014,-8257],"delta_lng":[0,9624,95426,15047]}},
    {"code":1122425,"id":"9a173f","name":"岩月","name_kana":"いわつき","closed":true,"lat":38.862282,"lng":141.584078,"prefecture":4,"lines":[11224],"attr":"unknown","postal_code":"988-0202","address":"宮城県気仙沼市岩月台ノ沢","next":[1120827,1122427,1122418,1122419,1120821,1122420],"voronoi":{"lat":38.862828,"lng":141.711066,"delta_lat":[0,-39317,18683,22528,1577,9855],"delta_lng":[0,43252,-122067,-71427,2168,120097]}},
    {"code":1122426,"id":"8e17cb","name":"赤岩港","name_kana":"あかいわみなと","closed":true,"lat":38.88438,"lng":141.582468,"prefecture":4,"lines":[11224],"attr":"unknown","postal_code":"988-0104","address":"宮城県気仙沼市赤岩五駄鱈","next":[1122421,1122420,1120826,1120815,1120827,1122427],"voronoi":{"lat":38.900011,"lng":141.582051,"delta_lat":[0,1073,-3291,-13382,-6014,10893],"delta_lng":[0,22344,42509,21137,-95426,2086]}},
    {"code":1120827,"left":1120829,"right":1120835,"id":"1c1a6e","name":"唐桑大沢","name_kana":"からくわおおさわ","closed":true,"lat":38.961776,"lng":141.63147,"prefecture":4,"lines":[11208],"attr":"unknown","postal_code":"988-0505","address":"宮城県気仙沼市唐桑町港７４","next":[1122425,1120821,1120820,1122420,1120826,1122426,1120833,1120828,1120816,1120835,1120830],"voronoi":{"lat":38.986701,"lng":141.649293,"delta_lat":[0,-26395,-8751,-53761,-13382,-8257,-13326,108270,7066,8247,351],"delta_lng":[0,-50128,218,47522,21137,15047,27977,-43772,-4901,-10258,-2185]}},
    {"code":1120829,"left":1120828,"right":1120830,"id":"ddeb03","name":"陸前今泉","name_kana":"りくぜんいまいずみ","closed":true,"lat":39.004122,"lng":141.613479,"prefecture":3,"lines":[11208],"attr":"unknown","postal_code":"029-2204","address":"岩手県陸前高田市気仙町愛宕下","next":[1120818,1120830,1120817,1120819,1120816,1120828,1120831],"voronoi":{"lat":39.01441,"lng":141.618,"delta_lat":[0,-17371,-10551,2857,27943,1872,-1776],"delta_lng":[0,4761,-36702,-2691,15225,13972,3396]}},
    {"code":1120828,"left":1120816,"id":"2a8923","name":"長部","name_kana":"おさべ","closed":true,"lat":38.98611,"lng":141.618657,"prefecture":3,"lines":[11208],"attr":"unknown","postal_code":"029-2204","address":"岩手県陸前高田市気仙町水上","next":[1120816,1120827,1120829,1120830],"voronoi":{"lat":38.99704,"lng":141.62276,"delta_lat":[0,-10551,-26183,26395],"delta_lng":[0,-36702,13106,50128]}},
    {"code":1120816,"id":"71c9e8","name":"上鹿折","name_kana":"かみししおり","closed":true,"lat":38.960166,"lng":141.566825,"prefecture":4,"lines":[11208],"attr":"unknown","postal_code":"988-0803","address":"気仙沼市字上東側","closed_date":"2020-04-01","next":[1120812,1120828,1120829,1120827,1120813,1120814,1120826,1120817],"voronoi":{"lat":39.006332,"lng":141.499344,"delta_lat":[0,-27255,-38159,-6009,16646,8751,26183,2857],"delta_lng":[0,4937,21795,37983,35323,-218,-13106,-2691]}},
    {"code":1120830,"id":"36c692","name":"奇跡の一本松","name_kana":"きせきのいっぽんまつ","closed":true,"lat":39.007864,"lng":141.627134,"prefecture":3,"lines":[11208],"attr":"unknown","postal_code":"029-2204","address":"岩手県陸前高田市気仙町砂盛２７４−１１","next":[1120833,1120829,1120819,1120828,1120827,1120832],"voronoi":{"lat":38.986763,"lng":141.64995,"delta_lat":[0,-62,10339,17371,-4280,-1411],"delta_lng":[0,-657,-26532,-4761,14434,3400]}},
    {"code":1120835,"left":1120821,"right":1120836,"id":"e80a1f","name":"西下","name_kana":"にしした","closed":true,"lat":39.001384,"lng":141.688578,"prefecture":3,"lines":[11208],"attr":"unknown","postal_code":"029-2207","address":"岩手県陸前高田市小友町唐笠松","next":[1120821,1120836,1120820,1120827,1120822,1120837],"voronoi":{"lat":39.023678,"lng":141.690807,"delta_lat":[0,-45513,-7066,29536,11418,8688],"delta_lng":[0,-28414,4901,32608,-699,-5059]}},
    {"code":1120821,"id":"788873","name":"小友","name_kana":"おとも","closed":true,"lat":38.989292,"lng":141.699531,"prefecture":3,"lines":[11208],"attr":"unknown","postal_code":"029-2207","address":"陸前高田市小友町字下新田","closed_date":"2020-04-01","next":[1120835,1122418,1120827,1122425,9920803,1120836],"voronoi":{"lat":38.622506,"lng":142.010275,"delta_lat":[0,201006,39317,108270,29536,-122581],"delta_lng":[0,-255957,-43252,-43772,32608,143333]}},
    {"code":1120836,"id":"74ae73","name":"碁石海岸口","name_kana":"ごいしかいがんぐち","closed":true,"lat":39.00276,"lng":141.711049,"prefecture":3,"lines":[11208],"attr":"unknown","postal_code":"022-0001","address":"岩手県大船渡市末崎町大田１４２−５６","next":[9920803,1120835,1120821,1120822],"voronoi":{"lat":38.878054,"lng":141.843235,"delta_lat":[0,122581,11418,-14981],"delta_lng":[0,-143333,-699,74272]}},
    {"code":1120839,"left":1120818,"right":9920807,"id":"da3b77","name":"地ノ森","name_kana":"じのもり","closed":true,"lat":39.071676,"lng":141.718181,"prefecture":3,"lines":[11208],"attr":"unknown","postal_code":"022-0002","address":"岩手県大船渡市大船渡町新田３９−１","next":[1120824,9920802,1120840,1120838],"voronoi":{"lat":39.070923,"lng":141.729737,"delta_lat":[0,13868,-28095,864],"delta_lng":[0,1849,-50050,6851]}},
    {"code":1120818,"left":1120833,"right":1120918,"id":"e846ea","name":"竹駒","name_kana":"たけこま","closed":true,"lat":39.033909,"lng":141.609488,"prefecture":3,"lines":[11208],"attr":"unknown","postal_code":"029-2203","address":"陸前高田市竹駒町字十日市場","closed_date":"2020-04-01","next":[1120829,1120831,1120817,9920801,1120834,1120918,1120917],"voronoi":{"lat":39.146164,"lng":141.550311,"delta_lat":[0,-128876,1872,59326,15770,52088,2728],"delta_lng":[0,48281,13972,25743,4125,-26990,-16589]}},
    {"code":1120833,"left":1120817,"right":1120834,"id":"ad4084","name":"高田高校前","name_kana":"たかたこうこうまえ","closed":true,"lat":39.016279,"lng":141.640223,"prefecture":3,"lines":[11208],"attr":"unknown","postal_code":"029-2205","address":"岩手県陸前高田市高田町長砂","next":[1120832,1120830,1120827,1120834,1120820],"voronoi":{"lat":39.021813,"lng":141.634784,"delta_lat":[0,-13094,-21957,-351,32126],"delta_lng":[0,1050,14116,2185,4476]}},
    {"code":1120817,"left":1120832,"right":1120831,"id":"bc9981","name":"陸前矢作","name_kana":"りくぜんやはぎ","closed":true,"lat":39.022659,"lng":141.579459,"prefecture":3,"lines":[11208],"attr":"unknown","postal_code":"029-2201","address":"陸前高田市矢作町字打越","closed_date":"2020-04-01","next":[1120808,1120829,1120910,1120818,1120917,1120812,1120911,1120816],"voronoi":{"lat":39.017288,"lng":141.598593,"delta_lat":[0,128876,5025,-4461,-18632,-33433,-88332,-16986],"delta_lng":[0,-48281,-75072,-8489,-28693,3449,57838,84023]}},
    {"code":1120832,"left":1120819,"id":"1d3745","name":"まちなか陸前高田","name_kana":"まちなかりくぜんたかた","closed":true,"lat":39.015483,"lng":141.630296,"prefecture":3,"lines":[11208],"attr":"unknown","postal_code":"029-2205","address":"岩手県陸前高田市高田町館の沖８５","next":[1120833,1120831,1120834,1120819,1120830],"voronoi":{"lat":39.01013,"lng":141.632434,"delta_lat":[0,10661,2727,-1705,-13094],"delta_lng":[0,-5619,6459,1510,1050]}},
    {"code":1120819,"id":"39ceda","name":"陸前高田","name_kana":"りくぜんたかた","closed":true,"lat":39.014919,"lng":141.629226,"prefecture":3,"lines":[11208],"attr":"unknown","postal_code":"029-2205","address":"陸前高田市高田町字並杉","closed_date":"2020-04-01","next":[1120831,1120830,1120829,1120832],"voronoi":{"lat":39.01441,"lng":141.618,"delta_lat":[0,2974,3407,-10661],"delta_lng":[0,-2039,10854,5619]}},
    {"code":1120831,"id":"fb05df","name":"栃ヶ沢公園","name_kana":"とちがさわこうえん","closed":true,"lat":39.026988,"lng":141.625438,"prefecture":3,"lines":[11208],"attr":"unknown","postal_code":"029-2205","address":"岩手県陸前高田市高田町鳴石","next":[1120818,1120832,1120819,1120829,1120834],"voronoi":{"lat":39.023518,"lng":141.633273,"delta_lat":[0,-2727,-3407,1776,59326],"delta_lng":[0,-6459,-10854,-3396,25743]}},
    {"code":1120834,"left":1120822,"right":1120837,"id":"bb069d","name":"高田病院","name_kana":"たかたびょういん","closed":true,"lat":39.025507,"lng":141.641608,"prefecture":3,"lines":[11208],"attr":"unknown","postal_code":"029-2206","address":"岩手県陸前高田市米崎町野沢","next":[9920801,1120840,1120832,1120820,1120833,1120831,1120818],"voronoi":{"lat":39.064515,"lng":141.668621,"delta_lat":[0,-7222,-38755,3276,1705,54968,15770],"delta_lng":[0,5499,-17509,-21827,-1510,5034,4125]}},
    {"code":1120822,"id":"26c98d","name":"細浦","name_kana":"ほそうら","closed":true,"lat":39.016027,"lng":141.713725,"prefecture":3,"lines":[11208],"attr":"unknown","postal_code":"022-0001","address":"大船渡市末崎町字細浦","closed_date":"2020-04-01","next":[1120823,1120837,9920803,1120835,1120836],"voronoi":{"lat":39.012053,"lng":141.699202,"delta_lat":[0,8688,2924,-12438,-14155],"delta_lng":[0,-5059,34127,38849,6355]}},
    {"code":1120837,"id":"9eb660","name":"大船渡丸森","name_kana":"おおふなとまるもり","closed":true,"lat":39.028716,"lng":141.712638,"prefecture":3,"lines":[11208],"attr":"unknown","postal_code":"022-0002","address":"岩手県大船渡市大船渡町丸森","next":[1120822,1120823,1120820,1120838,1120835],"voronoi":{"lat":39.023664,"lng":141.728271,"delta_lat":[0,20991,9105,-30083,-2937],"delta_lng":[0,-24528,-25320,12384,3337]}},
    {"code":1120918,"left":1120910,"right":9920801,"id":"8caa10","name":"足ヶ瀬","name_kana":"あしがせ","lat":39.254766,"lng":141.645807,"prefecture":3,"lines":[11209],"attr":"heat","postal_code":"028-0772","address":"岩手県遠野市上郷町細越38","next":[1120915,9920801,1120916,1120917,1120920,1120919,1120818],"voronoi":{"lat":39.149073,"lng":141.598853,"delta_lat":[0,143549,53626,315,-62641,-132308,-5269],"delta_lng":[0,28386,26728,232,22153,-47244,-13666]}},
    {"code":1120910,"left":1120917,"right":1120911,"id":"9f7972","name":"鱒沢","name_kana":"ますざわ","lat":39.300158,"lng":141.399252,"prefecture":3,"lines":[11209],"attr":"cool","postal_code":"028-0303","address":"遠野市宮守町下鱒沢","next":[1120808,100415,1120817,1120911,1120909],"voronoi":{"lat":39.154343,"lng":141.344275,"delta_lat":[0,-2671,-23576,18632,195495],"delta_lng":[0,1964,91818,28693,-65288]}},
    {"code":1120917,"left":1120916,"id":"3d3610","name":"平倉","name_kana":"ひらくら","lat":39.264682,"lng":141.595661,"prefecture":3,"lines":[11209],"attr":"heat","postal_code":"028-0775","address":"遠野市上郷町平倉","next":[1120913,1120817,1120912,1120918,1120911,1120916,1120818],"voronoi":{"lat":39.146164,"lng":141.550311,"delta_lat":[0,5025,63339,1158,14719,62216,-143549],"delta_lng":[0,-75072,17145,488,7896,126471,-28386]}},
    {"code":1120916,"id":"b2f6b3","name":"岩手上郷","name_kana":"いわてかみごう","lat":39.284658,"lng":141.585834,"prefecture":3,"lines":[11209],"attr":"heat","postal_code":"028-0776","address":"遠野市上郷町板沢","next":[1120915,1120913,1120918,1120917,1120914],"voronoi":{"lat":39.346247,"lng":141.653968,"delta_lat":[0,-53626,-62216,22276,6183],"delta_lng":[0,-26728,-126471,8944,5371]}},
    {"code":1120911,"id":"968fef","name":"荒谷前","name_kana":"あらやまえ","lat":39.309928,"lng":141.428507,"prefecture":3,"lines":[11209],"attr":"cool","postal_code":"028-0302","address":"遠野市宮守町上鱒沢","next":[1120909,1120908,1120912,1120910,1120917,1120817],"voronoi":{"lat":39.214529,"lng":141.492385,"delta_lat":[0,161351,-23897,-9759,-195495,4461],"delta_lng":[0,-79132,-12566,776,65288,8489]}},
    {"code":9920801,"left":1120840,"right":1120919,"id":"30420b","name":"盛","name_kana":"さかり","lat":39.086372,"lng":141.710734,"prefecture":3,"lines":[99208,99219],"attr":"eco","postal_code":"022-0003","address":"大船渡市盛町字東町裏","next":[1120840,9920806,9920802,1120834,1120918,1120921,1120919,1120818],"voronoi":{"lat":39.064515,"lng":141.668621,"delta_lat":[0,28706,31083,42895,3218,-18803,-5269,-52088],"delta_lng":[0,66484,18176,-13340,-10650,-100182,-13666,26990]}},
    {"code":1120840,"id":"d35679","name":"田茂山","name_kana":"たもやま","closed":true,"lat":39.080179,"lng":141.713408,"prefecture":3,"lines":[11208],"attr":"unknown","postal_code":"022-0003","address":"岩手県大船渡市盛町内ノ目１２−２２","next":[1120820,9920801,1120838,1120834,1120839,9920802],"voronoi":{"lat":39.064515,"lng":141.668621,"delta_lat":[0,-7222,-1751,1155,28095,8429],"delta_lng":[0,5499,2871,4545,50050,3519]}},
    {"code":1120919,"id":"a9bc4f","name":"上有住","name_kana":"かみありす","lat":39.242013,"lng":141.681522,"prefecture":3,"lines":[11209],"attr":"heat","postal_code":"029-2501","address":"気仙郡住田町上有住","next":[1120921,9920801,1120918,1120920],"voronoi":{"lat":39.170417,"lng":141.72929,"delta_lat":[0,-18803,132308,-43453],"delta_lng":[0,-100182,47244,45247]}},
    {"code":9920807,"left":9920803,"right":9920808,"id":"bef61f","name":"吉浜(岩手)","original_name":"吉浜","name_kana":"よしはま","lat":39.151122,"lng":141.836382,"prefecture":3,"lines":[99208,99219],"attr":"cool","postal_code":"022-0102","address":"大船渡市三陸町吉浜字上野","next":[9920808,1120921,9920804,1120922,9920806],"voronoi":{"lat":39.177491,"lng":141.767725,"delta_lat":[0,16490,4695,-171102,75833],"delta_lng":[0,21601,14172,349077,-290165]}},
    {"code":9920803,"left":1120824,"right":9920805,"id":"5e598e","name":"綾里","name_kana":"りょうり","lat":39.054318,"lng":141.799012,"prefecture":3,"lines":[99208,99219],"attr":"heat","postal_code":"022-0211","address":"大船渡市三陸町綾里字宮野","next":[1120836,9920805,1122314,9920804,9920802,1120822,1120823,1122412,1122418,1122417,1120821],"voronoi":{"lat":38.521634,"lng":142.110291,"delta_lat":[0,-29703,-143929,-607388,1334762,3960,-47120,-20990,-14155,-119018,-255548],"delta_lng":[0,30751,169240,1039320,-1554671,-20470,-11637,4295,6355,69760,167040]}},
    {"code":1120824,"left":1120823,"right":9920802,"id":"b440f0","name":"大船渡","name_kana":"おおふなと","closed":true,"lat":39.06355,"lng":141.720807,"prefecture":3,"lines":[11208],"attr":"unknown","postal_code":"022-0002","address":"大船渡市大船渡町字茶屋前","closed_date":"2020-04-01","next":[9920802,1120839,1120838],"voronoi":{"lat":39.05756,"lng":141.688386,"delta_lat":[0,13363,-13564],"delta_lng":[0,41350,3393]}},
    {"code":1120823,"left":1120838,"id":"8ed581","name":"下船渡","name_kana":"しもふなと","closed":true,"lat":39.038329,"lng":141.720865,"prefecture":3,"lines":[11208],"attr":"unknown","postal_code":"022-0002","address":"大船渡市大船渡町字宮ノ前","closed_date":"2020-04-01","next":[9920802,1120822,1120837,9920803,1120838],"voronoi":{"lat":39.032217,"lng":141.762825,"delta_lat":[0,-20990,12438,20991,348],"delta_lng":[0,4295,-38849,-24528,39925]}},
    {"code":1120838,"id":"129dfd","name":"大船渡魚市場前","name_kana":"おおふなとうおいちばまえ","closed":true,"lat":39.05128,"lng":141.720752,"prefecture":3,"lines":[11208],"attr":"unknown","postal_code":"022-0002","address":"岩手県大船渡市大船渡町永沢","next":[9920802,1120840,1120824,1120820,1120837,1120839,1120823],"voronoi":{"lat":39.044656,"lng":141.703743,"delta_lat":[0,9105,1781,1155,864,-201,-12356],"delta_lng":[0,-25320,-1432,4545,6851,44743,10538]}},
    {"code":9920802,"id":"da0f6d","name":"陸前赤崎","name_kana":"りくぜんあかさき","lat":39.068623,"lng":141.741086,"prefecture":3,"lines":[99208,99219],"attr":"heat","postal_code":"022-0007","address":"大船渡市赤崎町字大洞","next":[1120823,1120838,1120824,9920803,9920801,9920805,1120839,9920806,1120840],"voronoi":{"lat":39.084791,"lng":141.731585,"delta_lat":[0,-13868,-13564,-12356,-12787,47120,32261,12706,-31083],"delta_lng":[0,-1849,3393,10538,19157,11637,-12204,-8977,-18176]}},
    {"code":9920805,"left":9920804,"right":9920806,"id":"40c3c3","name":"甫嶺","name_kana":"ほれい","lat":39.093394,"lng":141.806571,"prefecture":3,"lines":[99208,99219],"attr":"heat","postal_code":"022-0101","address":"大船渡市三陸町越喜来字甫嶺","next":[9920803,9920802,9920806,9920804],"voronoi":{"lat":39.111597,"lng":141.762258,"delta_lat":[0,-32261,-3960,25105],"delta_lng":[0,12204,20470,48354]}},
    {"code":9920804,"id":"7aa9de","name":"恋し浜","name_kana":"こいしはま","lat":39.07453,"lng":141.816365,"prefecture":3,"lines":[99208,99219],"attr":"heat","postal_code":"022-0211","address":"岩手県大船渡市三陸町綾里字小石浜","next":[9920809,9920803,9920808,9920816,1122314,1110816,1123004,9920807,9920806,9920805,9933507],"voronoi":{"lat":35.9028,"lng":146.599115,"delta_lat":[0,226642,1611173,1334762,25105,2926,-75833,-65567,-1089571,-1985983,-1189160],"delta_lng":[0,-533603,-2715910,-1554671,48354,19125,290165,186018,2681025,4494737,1324265]}},
    {"code":9920806,"id":"e946dc","name":"三陸","name_kana":"さんりく","lat":39.117194,"lng":141.809836,"prefecture":3,"lines":[99208,99219],"attr":"cool","postal_code":"022-0101","address":"大船渡市三陸町越喜来字肥田","next":[9920801,9920802,9920805,1120921,9920804,9920807],"voronoi":{"lat":39.177491,"lng":141.767725,"delta_lat":[0,-10293,-42895,-12706,-11116,2926],"delta_lng":[0,-27785,13340,8977,81028,19125]}},
    {"code":9920808,"left":1120923,"right":1120924,"id":"f810dd","name":"唐丹","name_kana":"とうに","lat":39.201816,"lng":141.86123,"prefecture":3,"lines":[99208,99219],"attr":"eco","postal_code":"026-0121","address":"釜石市唐丹町字片岸","next":[9920807,1120922,1120923,9920804,9920809],"voronoi":{"lat":39.235001,"lng":141.85359,"delta_lat":[0,-10411,-25913,-171102,-65567],"delta_lng":[0,-26392,-23699,349077,186018]}},
    {"code":1120923,"left":1120922,"right":1120920,"id":"c2de02","name":"小佐野","name_kana":"こさの","lat":39.264464,"lng":141.836515,"prefecture":3,"lines":[11209],"attr":"eco","postal_code":"026-0052","address":"釜石市小佐野町１","next":[9920809,9920808,9920811,9920812,1120922,1120924],"voronoi":{"lat":39.307629,"lng":141.845103,"delta_lat":[0,6914,33214,-123167,10411,14888],"delta_lng":[0,-5731,-40324,28149,26392,5658]}},
    {"code":1120922,"left":1120921,"id":"c4cacb","name":"松倉","name_kana":"まつくら","lat":39.256458,"lng":141.801484,"prefecture":3,"lines":[11209],"attr":"eco","postal_code":"026-0055","address":"釜石市甲子町","next":[9920808,1120920,1120921,9920807,1120923,9920812],"voronoi":{"lat":39.362413,"lng":141.787105,"delta_lat":[0,-50025,-118407,4695,25913,123167],"delta_lng":[0,-14453,16674,14172,23699,-28149]}},
    {"code":1120921,"id":"17b022","name":"洞泉","name_kana":"どうせん","lat":39.250671,"lng":141.760388,"prefecture":3,"lines":[11209],"attr":"eco","postal_code":"026-0055","address":"釜石市甲子町","next":[9920807,1120922,1120919,9920801,9920806,1120920],"voronoi":{"lat":39.240468,"lng":141.7216,"delta_lat":[0,-70052,-3218,10293,16490,118407],"delta_lng":[0,7691,10650,27785,21601,-16674]}},
    {"code":1120920,"id":"81d9c2","name":"陸中大橋","name_kana":"りくちゅうおおはし","lat":39.280451,"lng":141.718436,"prefecture":3,"lines":[11209],"attr":"eco","postal_code":"026-0055","address":"釜石市甲子町","next":[9920813,1120915,1120922,1121313,9920812,1120921,1120918,1120919,1121312],"voronoi":{"lat":39.439836,"lng":141.760525,"delta_lat":[0,-38400,-39022,-50025,-71920,43453,62641,89186,7555],"delta_lng":[0,15880,10701,-14453,-51053,-45247,-22153,18515,64876]}},
    {"code":1120924,"left":9920809,"right":9920811,"id":"fb88bc","name":"釜石","name_kana":"かまいし","lat":39.273321,"lng":141.87267,"prefecture":3,"lines":[11209,99208,99219],"attr":"eco","postal_code":"026-0031","address":"釜石市鈴子町","next":[9920811,9920809,1120923],"voronoi":{"lat":39.307629,"lng":141.845103,"delta_lat":[0,-32048,-25692],"delta_lng":[0,67716,-53572]}},
    {"code":9920809,"id":"21c840","name":"平田(岩手)","original_name":"平田","name_kana":"へいた","lat":39.245686,"lng":141.885923,"prefecture":3,"lines":[99208,99219],"attr":"eco","postal_code":"026-0001","address":"釜石市平田町４地割","next":[1120923,9920804,9920814,1120924,9920816,9920808,9920811],"voronoi":{"lat":38.965756,"lng":142.715556,"delta_lat":[0,-1093320,1089571,272993,14888,25692,-4344],"delta_lng":[0,2304062,-2681025,-485004,5658,53572,84973]}},
    {"code":9920811,"id":"91e0af","name":"両石","name_kana":"りょういし","lat":39.308062,"lng":141.889112,"prefecture":3,"lines":[99208],"attr":"cool","postal_code":"026-0304","address":"釜石市両石町","open_date":"1951-07-23","next":[9920814,1120924,1120923,9920809,9920812],"voronoi":{"lat":39.271236,"lng":141.997793,"delta_lat":[0,4344,32048,6914,5859],"delta_lng":[0,-84973,-67716,-5731,97372]}}
  ]
}