{
  "name":"segment50",
  "root":9940817,
  "east":138.363765,
  "west":137.013425,
  "south":36.696732,
  "north":37.09614,
  "station_size":145,
  "node_list":[
    {"code":9940817,"left":1140503,"right":9940833,"id":"8e1cea","name":"浜加積","name_kana":"はまかづみ","lat":36.77743,"lng":137.361411,"prefecture":16,"lines":[99408],"attr":"eco","postal_code":"936-0016","address":"滑川市曲渕","next":[9941513,1140504,9940812,9940822,9940818],"voronoi":{"lat":36.86284,"lng":137.315562,"delta_lat":[0,30077,-12338,-127204,-4582],"delta_lng":[0,-33555,1572,84653,18444]}},
    {"code":1140503,"left":9941505,"right":1141804,"id":"6853d8","name":"水橋","name_kana":"みずはし","lat":36.743454,"lng":137.298404,"prefecture":16,"lines":[11405,99425],"attr":"eco","postal_code":"939-3524","address":"富山市水橋伊勢屋","next":[9941513,9940814,9940806,9940815,9940813,9940805,1140502],"voronoi":{"lat":36.774834,"lng":137.27246,"delta_lat":[0,51040,-39471,-46113,-11794,-5356,4098],"delta_lng":[0,14093,17607,15440,834,-24562,-21617]}},
    {"code":9941505,"left":9941501,"right":9940810,"id":"366204","name":"粟島（大阪屋ショップ前）","name_kana":"あわじま","lat":36.719391,"lng":137.224796,"prefecture":16,"lines":[99415],"attr":"heat","postal_code":"931-8314","address":"富山県富山市粟島町","next":[9941504,9940803,9941501,1140502,9941502,9941506,9940839],"voronoi":{"lat":36.719717,"lng":137.246774,"delta_lat":[0,663,751,-4027,-1265,-1128,4004],"delta_lng":[0,-610,-42723,6307,2469,28661,5160]}},
    {"code":9941501,"left":100911,"right":1141554,"id":"56b05c","name":"富山駅北","name_kana":"とやまえききた","closed":true,"lat":36.70249,"lng":137.214003,"prefecture":16,"lines":[99415],"attr":"unknown","postal_code":"930-0858","address":"富山市牛島町２４番３地先","next":[9941505,9940801,9941506,100911,9941502,9941322,9941320],"voronoi":{"lat":36.72374,"lng":137.198718,"delta_lat":[0,-2608,-4027,-15319,-158,1257,19180],"delta_lng":[0,4723,6307,6088,-1709,-1474,-13656]}},
    {"code":100911,"left":1141643,"right":9941313,"id":"7b9954","name":"富山","name_kana":"とやま","lat":36.701613,"lng":137.213255,"prefecture":16,"lines":[1009,11405,11416,99425],"attr":"eco","postal_code":"930-0001","address":"富山市明輪町","next":[9941501,9941313,9941322,9940801],"voronoi":{"lat":36.700933,"lng":137.213471,"delta_lat":[0,-19,1971,-1257],"delta_lng":[0,-426,-393,1474]}},
    {"code":1141643,"left":9941314,"right":9941322,"id":"9fb70a","name":"西富山","name_kana":"にしとやま","lat":36.699331,"lng":137.177029,"prefecture":16,"lines":[11416],"attr":"eco","postal_code":"930-0874","address":"富山市寺町","next":[1141554,9941319,9941320,1141645],"voronoi":{"lat":36.696962,"lng":137.151484,"delta_lat":[0,20837,-31944,-1043],"delta_lng":[0,33452,-1456,-256]}},
    {"code":9941314,"left":9941320,"id":"f99315","name":"新富町(富山)","original_name":"新富町","name_kana":"しんとみちょう","lat":36.69886,"lng":137.211256,"prefecture":16,"lines":[99413],"attr":"eco","postal_code":"930-0002","address":"富山市新富町","open_date":"2013-05-17","next":[9941320,9941310,9941315,9941313,9941322,9941319,9941318,9941311],"voronoi":{"lat":36.700207,"lng":137.211846,"delta_lat":[0,5428,-122,-3551,-1406,-4401,43,1473],"delta_lng":[0,-10712,1,903,1296,9734,39,434]}},
    {"code":9941320,"id":"12c59c","name":"富山大学前","name_kana":"とやまだいがくまえ","lat":36.698688,"lng":137.191129,"prefecture":16,"lines":[99413],"attr":"eco","postal_code":"930-0887","address":"富山市五福","next":[9941314,1141643,9941506,9941501,1141554,9941319,9941322],"voronoi":{"lat":36.705513,"lng":137.201135,"delta_lat":[0,-19658,31944,12245,-6304,-1675,-16430],"delta_lng":[0,-17655,1456,9401,4381,279,2137]}},
    {"code":9941322,"id":"f72cbd","name":"富山駅","name_kana":"とやまえき","lat":36.701479,"lng":137.212583,"prefecture":16,"lines":[99413,99415],"attr":"eco","postal_code":"930-0001","address":"富山県富山市明輪町1-227","open_date":"2015-03-14","next":[9941314,9941313,9941501,100911,9941320],"voronoi":{"lat":36.700207,"lng":137.211846,"delta_lat":[0,707,1971,19180,-16430],"delta_lng":[0,1200,-393,-13656,2137]}},
    {"code":9941313,"left":9941312,"right":9940801,"id":"d56ebc","name":"電鉄富山駅・エスタ前","name_kana":"でんてつとやまえき・えすたまえ","lat":36.700236,"lng":137.213316,"prefecture":16,"lines":[99413],"attr":"heat","postal_code":"930-0003","address":"富山市桜町","open_date":"2013-05-17","next":[9940801,9941314,9941322,100911,9941311,9941312],"voronoi":{"lat":36.698008,"lng":137.21388,"delta_lat":[0,-337,2536,707,19,-1773],"delta_lng":[0,-340,-1695,1200,426,1091]}},
    {"code":9941312,"left":9941311,"id":"c3ba19","name":"地鉄ビル前","name_kana":"ちてつびるまえ","lat":36.698584,"lng":137.216105,"prefecture":16,"lines":[99413],"attr":"heat","postal_code":"930-0003","address":"富山市桜町","open_date":"2013-05-17","next":[9940801,9941502,9941311,9941503,9941313],"voronoi":{"lat":36.701039,"lng":137.216665,"delta_lat":[0,-406,-2625,0,1152],"delta_lng":[0,3482,1721,-7987,682]}},
    {"code":9941311,"id":"7e9dac","name":"電気ビル前","name_kana":"でんきびるまえ","lat":36.697432,"lng":137.216105,"prefecture":16,"lines":[99413],"attr":"heat","postal_code":"930-0004","address":"富山市桜橋通り","open_date":"2013-05-17","next":[9941312,9940802,9941503,9941314,9941313,9941310],"voronoi":{"lat":36.696198,"lng":137.213107,"delta_lat":[0,1473,337,0,-2157,-289],"delta_lng":[0,434,340,7987,1744,-16]}},
    {"code":9940801,"id":"86af15","name":"電鉄富山","name_kana":"でんてつとやま","lat":36.700757,"lng":137.214163,"prefecture":16,"lines":[99408,99410],"attr":"cool","postal_code":"930-0002","address":"富山市新富町","next":[9941313,9941312,9941501,9941502,100911],"voronoi":{"lat":36.700933,"lng":137.213471,"delta_lat":[0,-1773,1879,747,-158],"delta_lng":[0,1091,2102,-829,-1709]}},
    {"code":1141554,"left":1141551,"right":9941502,"id":"97f5d4","name":"呉羽","name_kana":"くれは","lat":36.718845,"lng":137.164874,"prefecture":16,"lines":[99425],"attr":"heat","postal_code":"930-0138","address":"富山市呉羽町","next":[1141643,1141645,9941509,9941513,9941506,9941507,1141553,9941424,9941320,9941508,9941510],"voronoi":{"lat":36.778978,"lng":137.175641,"delta_lat":[0,2021,-42772,-43590,2324,20837,12245,865,6499,5806,10489],"delta_lng":[0,-1238,-45049,-1270,23399,33452,9401,-47,-1302,-1560,-3992]}},
    {"code":1141551,"left":1141553,"right":9941401,"id":"81a1f9","name":"高岡","name_kana":"たかおか","lat":36.740948,"lng":137.015274,"prefecture":16,"lines":[11417,11418,99425],"attr":"eco","postal_code":"933-0021","address":"高岡市下関町","next":[100912,1141802,9941404,9941401],"voronoi":{"lat":36.736171,"lng":137.003038,"delta_lat":[0,-5975,13615,527],"delta_lng":[0,29151,-9545,-1481]}},
    {"code":1141553,"left":1141552,"id":"c1a36c","name":"小杉(あいの風とやま鉄道線)","original_name":"小杉","name_kana":"こすぎ","lat":36.720947,"lng":137.092767,"prefecture":16,"lines":[99425],"attr":"heat","postal_code":"939-0341","address":"富山県射水市三ケ4156-2","next":[1141552,9941421,1141554,1141703,1141641,1141645,1141642,9941423,9941424],"voronoi":{"lat":36.694638,"lng":137.128084,"delta_lat":[0,-986,-14606,-26886,16500,78669,1397,-138,-10360],"delta_lng":[0,-555,-12263,-58530,-2905,27468,18244,613,29198]}},
    {"code":1141552,"id":"d5775e","name":"越中大門","name_kana":"えっちゅうだいもん","lat":36.733818,"lng":137.055904,"prefecture":16,"lines":[99425],"attr":"eco","postal_code":"939-0271","address":"射水市大島北野","next":[9941414,1141703,1141702,1141553,100912,9941419,9941421,1141803,9941413,1141802],"voronoi":{"lat":36.753746,"lng":137.053716,"delta_lat":[0,1983,370,-25,-8746,-78669,8778,28992,22252,21876],"delta_lng":[0,11374,5107,52,11050,-27468,-4552,-11349,-3505,12435]}},
    {"code":9941401,"id":"88440d","name":"高岡駅","name_kana":"たかおかえき","lat":36.742173,"lng":137.014722,"prefecture":16,"lines":[99414],"attr":"eco","postal_code":"933-0021","address":"高岡市下関町","next":[9941425,1141556,9941404,9941403,1141551,100912],"voronoi":{"lat":36.736261,"lng":137.002451,"delta_lat":[0,382,8167,100,-571,-8167],"delta_lng":[0,-68,13760,3810,1211,-18125]}},
    {"code":9941502,"left":9941503,"right":9941504,"id":"eeb842","name":"インテック本社前","name_kana":"いんてっくほんしゃまえ","lat":36.703556,"lng":137.216685,"prefecture":16,"lines":[99415],"attr":"heat","postal_code":"930-0856","address":"富山市牛島新町５番８地先","next":[9941503,9941312,9941505,9941501,9940801,9941504],"voronoi":{"lat":36.71584,"lng":137.212216,"delta_lat":[0,1265,-15319,-747,-406,7202],"delta_lng":[0,-2469,6088,829,3482,36]}},
    {"code":9941503,"id":"43c6d8","name":"奥田中学校前","name_kana":"おくだちゅうがっこうまえ","lat":36.703522,"lng":137.223637,"prefecture":16,"lines":[99415],"attr":"heat","postal_code":"930-0853","address":"富山市永楽町３２番地","next":[9941502,9941504,9941312,9941311,9940802],"voronoi":{"lat":36.69585,"lng":137.223612,"delta_lat":[0,2157,2625,7202,-1409],"delta_lng":[0,-1744,-1721,36,13053]}},
    {"code":9941504,"id":"ce460d","name":"下奥井","name_kana":"しもおくい","lat":36.711311,"lng":137.224478,"prefecture":16,"lines":[99415],"attr":"heat","postal_code":"930-0817","address":"富山市下奥井","next":[9941505,9941503,9940802,9940839,9941502],"voronoi":{"lat":36.71584,"lng":137.212216,"delta_lat":[0,-1128,-7480,-806,1409],"delta_lng":[0,28661,-5890,-1752,-13053]}},
    {"code":9940810,"left":9940807,"right":1140502,"id":"964936","name":"上市","name_kana":"かみいち","lat":36.704463,"lng":137.357603,"prefecture":16,"lines":[99408],"attr":"eco","postal_code":"930-0314","address":"中新川郡上市町若杉","next":[9940907,9940811,9940913,9940812,9940903,9940914,9940820,9940905,9940819,9940906,9940840],"voronoi":{"lat":36.666614,"lng":137.353498,"delta_lat":[0,-8137,-11426,-4314,6378,61250,6072,17203,-6992,-18208,-41229],"delta_lng":[0,9290,16212,8010,21680,84721,-16276,-59121,-32402,-36076,3592]}},
    {"code":9940807,"left":9940804,"right":9940809,"id":"b8ccfb","name":"寺田(富山)","original_name":"寺田","name_kana":"てらだ","lat":36.698852,"lng":137.319145,"prefecture":16,"lines":[99408,99409],"attr":"eco","postal_code":"930-0208","address":"中新川郡立山町浦田","next":[9940902,9940806,9940808],"voronoi":{"lat":36.716905,"lng":137.320917,"delta_lat":[0,-22856,-2100],"delta_lng":[0,-12554,15798]}},
    {"code":9940804,"left":9940803,"right":9940805,"id":"e6c88e","name":"越中荏原","name_kana":"えっちゅうえばら","lat":36.698978,"lng":137.266222,"prefecture":16,"lines":[99408],"attr":"eco","postal_code":"930-0916","address":"富山市向新庄","next":[9941008,1140502,9940803,9940904,9940805,9941009,9941011,9941010],"voronoi":{"lat":36.662273,"lng":137.276189,"delta_lat":[0,10439,54208,-6039,-53837,-3142,-730,-572],"delta_lng":[0,7330,-9555,-14900,1362,4709,1276,1536]}},
    {"code":9940803,"left":9940839,"id":"00593f","name":"東新庄","name_kana":"ひがししんじょう","lat":36.698644,"lng":137.253021,"prefecture":16,"lines":[99408],"attr":"eco","postal_code":"930-0994","address":"富山市新庄新町","next":[9941008,9941505,9940804,9941003,9940839,1140502,9941004],"voronoi":{"lat":36.667045,"lng":137.260425,"delta_lat":[0,53837,-1164,-1002,-35695,-7562,-7774],"delta_lng":[0,-1362,-12290,-736,2067,3969,6766]}},
    {"code":9940839,"id":"6999d3","name":"新庄田中","name_kana":"しんじょうたなか","lat":36.697972,"lng":137.241417,"prefecture":16,"lines":[99408],"attr":"eco","postal_code":"930-0985","address":"富山県富山市田中町四丁目96-3","open_date":"2012-12-21","next":[9941003,9940802,9941016,9940803,9941505,9941504],"voronoi":{"lat":36.707232,"lng":137.234987,"delta_lat":[0,-10903,-8920,-4388,35695,-4004],"delta_lng":[0,1474,6687,4956,-2067,-5160]}},
    {"code":9940805,"id":"5653a6","name":"越中三郷","name_kana":"えっちゅうさんごう","lat":36.703309,"lng":137.290792,"prefecture":16,"lines":[99408],"attr":"eco","postal_code":"939-3542","address":"富山市水橋開発","next":[9940806,9940903,1140502,9940804,9940902,9940904,1140503],"voronoi":{"lat":36.689833,"lng":137.300952,"delta_lat":[0,-7446,-3942,-5732,54208,318,-4098],"delta_lng":[0,-4657,-3442,-9334,-9555,291,21617]}},
    {"code":9940809,"left":9940808,"right":9940840,"id":"0269ca","name":"相ノ木","name_kana":"あいのき","lat":36.701963,"lng":137.335472,"prefecture":16,"lines":[99408],"attr":"eco","postal_code":"930-0358","address":"中新川郡上市町正印新","next":[9940811,9940840,9940808,9940903,9940813],"voronoi":{"lat":36.716605,"lng":137.336468,"delta_lat":[0,-38906,5933,41875,-297],"delta_lng":[0,6660,-7442,-10475,2832]}},
    {"code":9940808,"id":"a799d2","name":"越中泉","name_kana":"えっちゅういずみ","lat":36.699905,"lng":137.327245,"prefecture":16,"lines":[99408],"attr":"eco","postal_code":"930-0201","address":"中新川郡立山町泉","next":[9940809,9940902,9940806,9940813,9940807,9940903],"voronoi":{"lat":36.683829,"lng":137.335267,"delta_lat":[0,8119,24956,9082,-480,-41875],"delta_lng":[0,-11106,-3244,2564,1731,10475]}},
    {"code":9940840,"id":"a8ed74","name":"新相ノ木","name_kana":"しんあいのき","lat":36.703128,"lng":137.342278,"prefecture":16,"lines":[99408],"attr":"eco","postal_code":"930-0372","address":"富山県中新川郡上市町上経田4-91","open_date":"2013-12-26","next":[9940809,9940903,9940811,9940810],"voronoi":{"lat":36.70844,"lng":137.349536,"delta_lat":[0,8165,-38906,-10488],"delta_lng":[0,-13067,6660,9999]}},
    {"code":1140502,"left":9941508,"right":9940811,"id":"0101d2","name":"東富山","name_kana":"ひがしとやま","lat":36.741589,"lng":137.248953,"prefecture":16,"lines":[11405,99425],"attr":"eco","postal_code":"931-8303","address":"富山市米田","next":[9941508,9941506,9941507,9940804,9941505,9940805,9941513,9940803,9941509,9941512,9941511,1140503,9941510],"voronoi":{"lat":36.7436,"lng":137.238282,"delta_lat":[0,-5825,-6153,-7441,-3801,-663,1164,6039,318,47596,-16325,-9329,-4014],"delta_lng":[0,-291,1693,3411,3069,610,12290,14900,291,-1795,-21552,-9837,-2248]}},
    {"code":9941508,"left":9941507,"right":9941509,"id":"756960","name":"犬島新町","name_kana":"いぬじましんまち","lat":36.735445,"lng":137.22662,"prefecture":16,"lines":[99415],"attr":"eco","postal_code":"931-8328","address":"富山市犬島新町１丁目１４番地","next":[1140502,9941509,9941507,1141554],"voronoi":{"lat":36.743213,"lng":137.191427,"delta_lat":[0,-5438,-6153,5785],"delta_lng":[0,46563,1693,-46696]}},
    {"code":9941507,"left":9941506,"id":"ad2027","name":"城川原","name_kana":"じょうがわら","lat":36.731103,"lng":137.226082,"prefecture":16,"lines":[99415],"attr":"heat","postal_code":"931-8325","address":"富山市城川原","next":[1140502,1141554,9941508,9941506],"voronoi":{"lat":36.730909,"lng":137.194289,"delta_lat":[0,6499,-5785,-7441],"delta_lng":[0,-1302,46696,3411]}},
    {"code":9941506,"id":"910c86","name":"越中中島","name_kana":"えっちゅうなかじま","lat":36.722121,"lng":137.224844,"prefecture":16,"lines":[99415],"attr":"heat","postal_code":"930-0801","address":"富山市中島３丁目","next":[1140502,9941320,1141554,9941501,9941505,9941507],"voronoi":{"lat":36.720381,"lng":137.246164,"delta_lat":[0,751,2608,6304,865,-6727],"delta_lng":[0,-42723,-4723,-4381,-47,48805]}},
    {"code":9941509,"id":"9ad5a3","name":"蓮町(馬場記念公園前)","name_kana":"はすまち（ばばきねんこうえんまえ）","lat":36.742663,"lng":137.227463,"prefecture":16,"lines":[99415],"attr":"eco","postal_code":"931-8333","address":"富山県富山市蓮町1丁目2番地","next":[9941508,9941510,1141554,1140502],"voronoi":{"lat":36.753703,"lng":137.187435,"delta_lat":[0,-10489,-5438,5825],"delta_lng":[0,3992,46563,291]}},
    {"code":9940811,"left":9940806,"right":9940812,"id":"8e25f9","name":"新宮川","name_kana":"しんみやかわ","lat":36.717292,"lng":137.351128,"prefecture":16,"lines":[99408],"attr":"eco","postal_code":"930-0313","address":"中新川郡上市町中江上","next":[9940809,9940810,9940812,9940813,9940840],"voronoi":{"lat":36.726648,"lng":137.385611,"delta_lat":[0,-554,-884,-8605,-8165],"delta_lng":[0,-55226,-2342,8425,13067]}},
    {"code":9940806,"id":"fdd352","name":"越中舟橋","name_kana":"えっちゅうふなはし","lat":36.705725,"lng":137.306632,"prefecture":16,"lines":[99408],"attr":"eco","postal_code":"930-0289","address":"中新川郡舟橋村竹内","next":[9940805,1140503,9940813,9940902,9940807,9940808],"voronoi":{"lat":36.728497,"lng":137.320433,"delta_lat":[0,-5356,-33308,4216,22856,9082],"delta_lng":[0,-24562,5080,7411,12554,2564]}},
    {"code":9940812,"id":"a17acd","name":"中加積","name_kana":"なかかづみ","lat":36.735309,"lng":137.350947,"prefecture":16,"lines":[99408],"attr":"eco","postal_code":"936-0846","address":"滑川市堀江","next":[9940819,9940810,9940811,1140504,9940813,9940817,1140505,9940818],"voronoi":{"lat":36.738268,"lng":137.409941,"delta_lat":[0,-4628,-6992,-554,26568,714,-4582,-7705],"delta_lng":[0,8073,-32402,-55226,27277,10569,18444,17784]}},
    {"code":1141804,"left":9941410,"right":9941424,"id":"95ab3d","name":"伏木","name_kana":"ふしき","lat":36.792306,"lng":137.05853,"prefecture":16,"lines":[11418],"attr":"eco","postal_code":"933-0112","address":"高岡市伏木古国府","next":[9941415,1141805,9941416,9941417],"voronoi":{"lat":36.790636,"lng":137.040911,"delta_lat":[0,-3241,5418,15124],"delta_lng":[0,15432,7078,6443]}},
    {"code":9941410,"left":9941407,"right":9941413,"id":"8949a3","name":"荻布","name_kana":"おぎの","lat":36.76682,"lng":137.035619,"prefecture":16,"lines":[99414],"attr":"eco","postal_code":"933-0073","address":"高岡市荻布","next":[9941409,1141803,9941411],"voronoi":{"lat":36.775981,"lng":137.024447,"delta_lat":[0,-18378,10361],"delta_lng":[0,16657,-3495]}},
    {"code":9941407,"left":9941405,"right":9941408,"id":"de3dbf","name":"市民病院前","name_kana":"しみんびょういんまえ","lat":36.758196,"lng":137.0261,"prefecture":16,"lines":[99414],"attr":"heat","postal_code":"933-0902","address":"高岡市向野町３","next":[9941406,1141802,1141807,9941408],"voronoi":{"lat":36.78987,"lng":137.001385,"delta_lat":[0,-1947,-33748,1041],"delta_lng":[0,-10197,36731,5011]}},
    {"code":9941405,"left":9941404,"right":9941406,"id":"5d920a","name":"広小路(富山)","original_name":"広小路","name_kana":"ひろこうじ","lat":36.752566,"lng":137.020615,"prefecture":16,"lines":[99414],"attr":"heat","postal_code":"933-0912","address":"高岡市丸の内","next":[9941404,9941406,1141807,9941402,1141802],"voronoi":{"lat":36.787639,"lng":136.989317,"delta_lat":[0,-280,-13162,-25983,3564],"delta_lng":[0,-2678,10455,25997,1380]}},
    {"code":9941404,"left":9941403,"id":"cb9aa2","name":"急患医療センター前","name_kana":"きゅうかんいりょうせんたーまえ","lat":36.750686,"lng":137.018736,"prefecture":16,"lines":[99414],"attr":"heat","postal_code":"933-0913","address":"高岡市本町","next":[1141802,9941403,9941405,9941402,9941401,1141551],"voronoi":{"lat":36.748213,"lng":137.02309,"delta_lat":[0,25983,-7853,-21434,-571,-527],"delta_lng":[0,-25997,5721,17138,1211,1481]}},
    {"code":9941403,"id":"e76384","name":"坂下町","name_kana":"さかしたまち","lat":36.747367,"lng":137.014585,"prefecture":16,"lines":[99414],"attr":"heat","postal_code":"933-0038","address":"高岡市坂下町","next":[9941404,9941402,9941401,9941425],"voronoi":{"lat":36.745862,"lng":137.01428,"delta_lat":[0,20481,-21434,-100],"delta_lng":[0,-11466,17138,-3810]}},
    {"code":9941406,"id":"3344c0","name":"志貴野中学校前","name_kana":"しきのちゅうがっこうまえ","lat":36.755648,"lng":137.023759,"prefecture":16,"lines":[99414],"attr":"heat","postal_code":"933-0911","address":"高岡市あわら町","next":[9941405,9941407,1141807,1141802],"voronoi":{"lat":36.787923,"lng":136.991187,"delta_lat":[0,-285,-35861,2398],"delta_lng":[0,-1871,35154,3448]}},
    {"code":9941408,"left":1141802,"right":9941409,"id":"7a8c7a","name":"江尻","name_kana":"えじり","lat":36.762295,"lng":137.030603,"prefecture":16,"lines":[99414],"attr":"heat","postal_code":"933-0062","address":"高岡市江尻","next":[9941412,1141802,1141807,9941407,9941409],"voronoi":{"lat":36.755216,"lng":137.032929,"delta_lat":[0,34654,790,-6116,-30883],"delta_lng":[0,-31545,2918,8069,27639]}},
    {"code":1141802,"id":"e62c52","name":"越中中川","name_kana":"えっちゅうなかがわ","lat":36.749764,"lng":137.027851,"prefecture":16,"lines":[11418],"attr":"eco","postal_code":"933-0056","address":"高岡市中川","next":[1141803,9941404,9941409,9941408,1141551,9941407,1141552,9941406,100912,9941405],"voronoi":{"lat":36.754176,"lng":137.027919,"delta_lat":[0,1041,-1555,-1353,-1751,-21876,1515,13615,4402,3564],"delta_lng":[0,5011,7081,4159,2691,-12435,-2236,-9545,446,1380]}},
    {"code":9941409,"id":"7d0c7a","name":"旭ヶ丘(富山)","original_name":"旭ヶ丘","name_kana":"あさひがおか","lat":36.763965,"lng":137.032469,"prefecture":16,"lines":[99414],"attr":"heat","postal_code":"933-0062","address":"富山県高岡市江尻","next":[9941410,9941412,1141802,1141803,9941411,9941408],"voronoi":{"lat":36.784544,"lng":137.012371,"delta_lat":[0,-7324,-1239,-18378,-5295,1353],"delta_lng":[0,10588,1487,16657,3066,-4159]}},
    {"code":9941413,"left":9941412,"right":9941415,"id":"ae5289","name":"能町口","name_kana":"のうまちぐち","lat":36.773239,"lng":137.049031,"prefecture":16,"lines":[99414],"attr":"eco","postal_code":"933-0003","address":"高岡市能町","next":[9941414,9941412,1141552,1141803],"voronoi":{"lat":36.771763,"lng":137.043906,"delta_lat":[0,12695,-28728,-1983],"delta_lng":[0,-294,21479,-11374]}},
    {"code":9941412,"left":1141803,"right":1141806,"id":"11672c","name":"米島口","name_kana":"よねじまぐち","lat":36.773,"lng":137.038718,"prefecture":16,"lines":[99414],"attr":"eco","postal_code":"933-0076","address":"高岡市米島","next":[1141805,9941408,9941409,9941415,9941411,1141807,9941413,9941414,1141806,1141803],"voronoi":{"lat":36.770871,"lng":137.040283,"delta_lat":[0,6349,7324,6116,3386,490,-3916,-4858,-1305,-12695],"delta_lng":[0,-17324,-10588,-8069,7210,18779,10553,2482,285,294]}},
    {"code":1141803,"left":9941411,"id":"5ae81b","name":"能町","name_kana":"のうまち","lat":36.768259,"lng":137.039885,"prefecture":16,"lines":[11418],"attr":"eco","postal_code":"933-0003","address":"高岡市能町","next":[1141802,9941409,9941411,9941410,9941412,1141552,9941413],"voronoi":{"lat":36.771763,"lng":137.043906,"delta_lat":[0,-891,-2907,-10361,-5295,-1751,3189],"delta_lng":[0,-3622,-2675,3495,3066,2691,6856]}},
    {"code":9941411,"id":"07ac09","name":"新能町","name_kana":"しんのうまち","lat":36.770258,"lng":137.037713,"prefecture":16,"lines":[99414],"attr":"eco","postal_code":"933-0073","address":"高岡市荻布","next":[9941412,1141803,9941410,9941409],"voronoi":{"lat":36.777221,"lng":137.02296,"delta_lat":[0,-6349,-2907,8017],"delta_lng":[0,17324,-2675,-13162]}},
    {"code":1141806,"id":"20da04","name":"雨晴","name_kana":"あまはらし","lat":36.816484,"lng":137.037583,"prefecture":16,"lines":[11418],"attr":"heat","postal_code":"933-0136","address":"高岡市渋谷","next":[9941424,1141919,1141805,1141807,9941423,1141808,9941412],"voronoi":{"lat":36.948634,"lng":137.160675,"delta_lat":[0,5920,33576,-24766,-60454,-108863,490],"delta_lng":[0,3473,18892,-76292,-43024,-52212,18779]}},
    {"code":9941415,"left":9941414,"right":1141805,"id":"dc0732","name":"吉久","name_kana":"よしひさ","lat":36.782018,"lng":137.056369,"prefecture":16,"lines":[99414],"attr":"eco","postal_code":"933-0002","address":"高岡市吉久３","next":[9941412,9941416,1141804,1141805,9941414,9941418],"voronoi":{"lat":36.780927,"lng":137.063935,"delta_lat":[0,6467,3241,-15,-4858,-13090],"delta_lng":[0,-7593,-15432,-66,2482,21997]}},
    {"code":9941414,"id":"9f5bd1","name":"新吉久","name_kana":"しんよしひさ","lat":36.776086,"lng":137.052839,"prefecture":16,"lines":[99414],"attr":"eco","postal_code":"933-0002","address":"高岡市吉久１","next":[9941419,1141552,9941413,9941412,9941418,9941415],"voronoi":{"lat":36.766849,"lng":137.068041,"delta_lat":[0,-10749,-370,28728,1305,-13090],"delta_lng":[0,2156,-5107,-21479,-285,21997]}},
    {"code":1141805,"id":"566931","name":"越中国分","name_kana":"えっちゅうこくぶ","lat":36.805361,"lng":137.050729,"prefecture":16,"lines":[11418],"attr":"heat","postal_code":"933-0101","address":"高岡市伏木国分","next":[9941412,9941417,1141806,9941422,1141804,9941415,9941423],"voronoi":{"lat":36.794537,"lng":137.030292,"delta_lat":[0,-3916,15,17301,30130,31938,78629],"delta_lng":[0,10553,66,28953,31495,18081,41236]}},
    {"code":9941424,"left":9940814,"right":9941420,"id":"5c5478","name":"越ノ潟","name_kana":"こしのかた","lat":36.774704,"lng":137.111839,"prefecture":16,"lines":[99414],"attr":"cool","postal_code":"934-0024","address":"射水市越の潟町","next":[1141806,9941423,9941513,1141554,1141919,1141553],"voronoi":{"lat":36.748587,"lng":137.100156,"delta_lat":[0,205966,33576,8360,-215490,-42772],"delta_lng":[0,63992,18892,15145,-23782,-45049]}},
    {"code":9940814,"left":9941512,"right":9940815,"id":"527567","name":"西滑川","name_kana":"にしなめりかわ","lat":36.755579,"lng":137.334617,"prefecture":16,"lines":[99408],"attr":"eco","postal_code":"936-0066","address":"滑川市菰原","next":[1140503,9940813,9940815],"voronoi":{"lat":36.786403,"lng":137.30416,"delta_lat":[0,-46113,13939],"delta_lng":[0,15440,23156]}},
    {"code":9941512,"left":9941511,"right":9941513,"id":"6d2df5","name":"競輪場前(富山)","original_name":"競輪場前","name_kana":"けいりんじょうまえ","lat":36.757454,"lng":137.233907,"prefecture":16,"lines":[99415],"attr":"cool","postal_code":"931-8376","address":"富山市岩瀬池田町","next":[9941511,9941513,1140502],"voronoi":{"lat":36.759823,"lng":137.223936,"delta_lat":[0,-10642,9329],"delta_lng":[0,17134,9837]}},
    {"code":9941511,"left":9941510,"id":"eabc08","name":"東岩瀬","name_kana":"ひがしいわせ","lat":36.751935,"lng":137.230479,"prefecture":16,"lines":[99415],"attr":"cool","postal_code":"931-8345","address":"富山市西宮","next":[9941513,9941512,9941510,1140502],"voronoi":{"lat":36.745167,"lng":137.238823,"delta_lat":[0,30206,-15550,-10642],"delta_lng":[0,-54834,39948,17134]}},
    {"code":9941510,"id":"e20a4a","name":"萩浦小学校前","name_kana":"はぎうらしょうがっこうまえ","lat":36.748602,"lng":137.228643,"prefecture":16,"lines":[99415],"attr":"eco","postal_code":"931-8345","address":"富山市西宮町6番地","next":[9941513,9941509,9941511,1141554,1140502],"voronoi":{"lat":36.7436,"lng":137.238282,"delta_lat":[0,10102,25276,-3606,-30206],"delta_lng":[0,-50846,-11794,8347,54834]}},
    {"code":9941513,"id":"c88fbd","name":"岩瀬浜","name_kana":"いわせはま","lat":36.761212,"lng":137.23409,"prefecture":16,"lines":[99415],"attr":"cool","postal_code":"931-8378","address":"富山市岩瀬天神町","next":[9940817,9940815,9941510,1140503,9941424,1141554,1141919,1140502,1140504,9941511,9940822,9940823,9941512,1140508],"voronoi":{"lat":36.901402,"lng":137.278771,"delta_lat":[0,-8485,-12338,-42711,-11994,-51040,-16325,1313,15550,3606,2021,215490,5335,-98453],"delta_lng":[0,3235,1572,2886,88,-14093,-21552,-26971,-39948,-8347,-1238,23782,5549,74089]}},
    {"code":9940815,"left":9940813,"right":1140504,"id":"abfb4d","name":"中滑川","name_kana":"なかなめりかわ","lat":36.761992,"lng":137.339963,"prefecture":16,"lines":[99408],"attr":"eco","postal_code":"936-0056","address":"滑川市田中新町","next":[9941513,1140504,9940814,9940813,1140503],"voronoi":{"lat":36.754229,"lng":137.342756,"delta_lat":[0,118,83521,-11994,-39471],"delta_lng":[0,10456,-66747,88,17607]}},
    {"code":9940813,"id":"587db3","name":"西加積","name_kana":"にしかづみ","lat":36.746405,"lng":137.340139,"prefecture":16,"lines":[99408],"attr":"eco","postal_code":"936-0857","address":"滑川市下梅沢","next":[9940814,9940811,9940815,1140503,9940806,9940809,1140504,9940812,9940808],"voronoi":{"lat":36.725986,"lng":137.323481,"delta_lat":[0,2510,11794,13939,118,-1686,-26568,-884,297],"delta_lng":[0,-3047,-834,23156,10456,4451,-27277,-2342,-2832]}},
    {"code":1140504,"id":"62f339","name":"滑川","name_kana":"なめりかわ","lat":36.768955,"lng":137.348676,"prefecture":16,"lines":[11405,99408,99425],"attr":"eco","postal_code":"936-0024","address":"滑川市辰野","next":[9940815,9940817,9941513,9940813,9940812],"voronoi":{"lat":36.88058,"lng":137.283578,"delta_lat":[0,-42711,-83521,-1686,714],"delta_lng":[0,2886,66747,4451,10569]}},
    {"code":9941420,"left":9941416,"right":9941423,"id":"dee3fa","name":"新町口","name_kana":"しんまちぐち","lat":36.778983,"lng":137.084259,"prefecture":16,"lines":[99414],"attr":"cool","postal_code":"934-0012","address":"射水市中央町","next":[9941421,9941419,9941422],"voronoi":{"lat":36.764286,"lng":137.075192,"delta_lat":[0,19344,30056],"delta_lng":[0,17021,2304]}},
    {"code":9941416,"left":9941419,"right":9941417,"id":"3d0434","name":"中伏木","name_kana":"なかふしき","lat":36.788224,"lng":137.061655,"prefecture":16,"lines":[99414],"attr":"eco","postal_code":"934-0001","address":"射水市庄西町２","next":[9941418,9941415,9941417,1141804],"voronoi":{"lat":36.787394,"lng":137.056343,"delta_lat":[0,-6467,2207,9678],"delta_lng":[0,7593,922,-1437]}},
    {"code":9941419,"left":9941418,"id":"a93373","name":"西新湊","name_kana":"にししんみなと","lat":36.781234,"lng":137.078505,"prefecture":16,"lines":[99414],"attr":"cool","postal_code":"934-0011","address":"射水市本町２","next":[9941420,9941414,9941418,9941421,9941417,1141552,9941422],"voronoi":{"lat":36.798601,"lng":137.081104,"delta_lat":[0,-31753,-10749,-25,8211,49400,7964],"delta_lng":[0,-13062,2156,52,4943,19325,1301]}},
    {"code":9941418,"id":"14ea26","name":"庄川口","name_kana":"しょうがわぐち","lat":36.784433,"lng":137.070729,"prefecture":16,"lines":[99414],"attr":"cool","postal_code":"934-0003","address":"射水市庄川本町","next":[9941416,9941419,9941414,9941417,9941415],"voronoi":{"lat":36.780927,"lng":137.063935,"delta_lat":[0,2207,15467,-31753,5824],"delta_lng":[0,922,16246,-13062,-2718]}},
    {"code":9941417,"id":"cb75e8","name":"六渡寺","name_kana":"ろくどうじ","lat":36.788935,"lng":137.066443,"prefecture":16,"lines":[99414],"attr":"eco","postal_code":"934-0001","address":"射水市庄西町１","next":[1141805,9941419,9941416,9941422,9941418,1141804],"voronoi":{"lat":36.838067,"lng":137.101359,"delta_lat":[0,-16417,-23048,-15467,9678,15124],"delta_lng":[0,-5540,-14715,-16246,-1437,6443]}},
    {"code":9941423,"left":9941421,"right":9941422,"id":"d19dd6","name":"海王丸","name_kana":"かいおうまる","lat":36.776726,"lng":137.105331,"prefecture":16,"lines":[99414],"attr":"cool","postal_code":"934-0024","address":"射水市越の潟町","next":[9941424,1141806,9941421,1141805,9941422,1141553],"voronoi":{"lat":36.954553,"lng":137.164149,"delta_lat":[0,-5920,-78629,-112469,-8810,-138],"delta_lng":[0,-3473,-41236,-20728,832,613]}},
    {"code":9941421,"id":"c34472","name":"中新湊","name_kana":"なかしんみなと","lat":36.775148,"lng":137.088617,"prefecture":16,"lines":[99414],"attr":"cool","postal_code":"934-0027","address":"射水市中新湊","next":[9941420,1141553,9941419,9941423,1141552,9941422],"voronoi":{"lat":36.748725,"lng":137.099543,"delta_lat":[0,-1397,8746,8211,19344,-26094],"delta_lng":[0,-18244,-11050,4943,17021,6498]}},
    {"code":9941422,"id":"110a2e","name":"東新湊","name_kana":"ひがししんみなと","lat":36.777825,"lng":137.099368,"prefecture":16,"lines":[99414],"attr":"cool","postal_code":"934-0025","address":"射水市八幡町３","next":[1141805,9941420,9941419,9941417,9941421,9941423],"voronoi":{"lat":36.757535,"lng":137.098711,"delta_lat":[0,26094,30056,7964,16417,31938],"delta_lng":[0,-6498,2304,1301,5540,18081]}},
    {"code":9940833,"left":1140933,"right":1140513,"id":"7a7f19","name":"下立口","name_kana":"おりたてぐち","lat":36.859571,"lng":137.532908,"prefecture":16,"lines":[99408],"attr":"cool","postal_code":"938-0861","address":"黒部市宇奈月町下立","next":[9940834,9940832,9940837,1140511],"voronoi":{"lat":36.907107,"lng":137.539096,"delta_lat":[0,-113195,33171,77946],"delta_lng":[0,-32103,23229,17117]}},
    {"code":1140933,"left":9940821,"right":1140707,"id":"38aec6","name":"千国","name_kana":"ちくに","lat":36.763249,"lng":137.900895,"prefecture":20,"lines":[11409],"attr":"cool","postal_code":"399-9400","address":"北安曇郡小谷村大字千国","next":[1140935,1140303,1140932,1140934],"voronoi":{"lat":36.671173,"lng":138.015321,"delta_lat":[0,126677,-8311,-100513],"delta_lng":[0,-192366,50376,152645]}},
    {"code":9940821,"left":9941201,"right":9940835,"id":"aeed3b","name":"電鉄魚津","name_kana":"でんてつうおづ","lat":36.815113,"lng":137.400288,"prefecture":16,"lines":[99408],"attr":"eco","postal_code":"937-0862","address":"魚津市文化町","next":[9940837,1140506,9940818,1140505,9940832,9940822,9940820],"voronoi":{"lat":36.832076,"lng":137.351933,"delta_lat":[0,12335,12339,-35586,-38553,-18461,-912],"delta_lng":[0,-15047,-13573,78845,80651,7484,146]}},
    {"code":9941201,"left":9940819,"right":1140932,"id":"044f90","name":"宇奈月","name_kana":"うなづき","lat":36.815038,"lng":137.58586,"prefecture":16,"lines":[99412],"attr":"cool","postal_code":"938-0282","address":"黒部市宇奈月温泉字桃原４８４-１５","next":[9940837,9940835,9940838,9941202,1140513],"voronoi":{"lat":36.745638,"lng":137.564976,"delta_lat":[0,104114,22284,17610,-9499],"delta_lng":[0,29452,21985,22465,24356]}},
    {"code":9940819,"left":1140505,"right":9940820,"id":"0737b3","name":"越中中村","name_kana":"えっちゅうなかむら","lat":36.790673,"lng":137.382688,"prefecture":16,"lines":[99408],"attr":"eco","postal_code":"936-0002","address":"滑川市中村","next":[9940812,9940820,1140505,9940810],"voronoi":{"lat":36.822177,"lng":137.361346,"delta_lat":[0,-83909,-4628,-17203],"delta_lng":[0,48594,8073,59121]}},
    {"code":1140505,"left":9940818,"id":"f0a7af","name":"東滑川","name_kana":"ひがしなめりかわ","lat":36.787987,"lng":137.37805,"prefecture":16,"lines":[11405,99425],"attr":"eco","postal_code":"936-0002","address":"滑川市中村","next":[9940820,9940819,9940818,9940821,9940812],"voronoi":{"lat":36.741088,"lng":137.404459,"delta_lat":[0,103323,-12335,-9900,-83909],"delta_lng":[0,-67573,15047,9413,48594]}},
    {"code":9940818,"id":"30add2","name":"早月加積","name_kana":"はやつきかづみ","lat":36.784082,"lng":137.372079,"prefecture":16,"lines":[99408],"attr":"eco","postal_code":"936-0808","address":"滑川市追分","next":[9940821,1140505,9940817,9940822,9940812],"voronoi":{"lat":36.748793,"lng":137.386675,"delta_lat":[0,114047,-6090,-12339,-103323],"delta_lng":[0,-71114,7752,13573,67573]}},
    {"code":9940820,"id":"4c8ee4","name":"西魚津","name_kana":"にしうおづ","lat":36.803775,"lng":137.394653,"prefecture":16,"lines":[99408],"attr":"eco","postal_code":"937-0851","address":"魚津市住吉","next":[1140505,9940838,9940837,9940819,9940810,9940914,9940821],"voronoi":{"lat":36.832076,"lng":137.351933,"delta_lat":[0,-9900,-105740,-6072,443,42517,9914],"delta_lng":[0,9413,115788,16276,1929,-2683,-2217]}},
    {"code":1140932,"left":1140931,"right":9941202,"id":"9a0e67","name":"白馬大池","name_kana":"はくばおおいけ","lat":36.739918,"lng":137.885531,"prefecture":20,"lines":[11409],"attr":"cool","postal_code":"399-9400","address":"北安曇郡小谷村大字千国","next":[1140935,1141213,1140937,1140931,1140933,1140303,9941203],"voronoi":{"lat":36.798678,"lng":137.766968,"delta_lat":[0,5192,-6020,-126677,-6611,-1286,114602],"delta_lng":[0,38301,17687,192366,-3136,-1082,-243644]}},
    {"code":1140931,"left":9941203,"id":"b9b335","name":"信濃森上","name_kana":"しなのもりうえ","lat":36.711132,"lng":137.871991,"prefecture":20,"lines":[11409],"attr":"cool","postal_code":"399-9301","address":"北安曇郡白馬村大字北城","next":[1140926,1140932,1140930,9941203,1141213],"voronoi":{"lat":36.777878,"lng":137.76746,"delta_lat":[0,-19292,-120376,-697,25763],"delta_lng":[0,-2032,224048,4331,17297]}},
    {"code":9941203,"id":"5acb4c","name":"鐘釣","name_kana":"かねつり","lat":36.734378,"lng":137.651315,"prefecture":16,"lines":[99412],"attr":"eco","postal_code":"938-0000","address":"黒部市宇奈月町黒部字黒部奥山国有林４６い林小班","next":[1140937,1140930,9940914,1140931,9941202,9940838,1140929,9941204,1140932],"voronoi":{"lat":36.758586,"lng":137.765427,"delta_lat":[0,-23394,-242,-43210,3436,15721,107903,-20122,-20800],"delta_lng":[0,-4234,-77,-236986,-2520,18863,212175,14319,492]}},
    {"code":9941202,"id":"19160e","name":"黒薙","name_kana":"くろなぎ","lat":36.786638,"lng":137.624738,"prefecture":16,"lines":[99412],"attr":"cool","postal_code":"938-0000","address":"黒部市宇奈月町黒部字黒部奥山国有林１０わ林小班","next":[1140513,9940838,1140937,9941203,9941201],"voronoi":{"lat":36.871205,"lng":137.730839,"delta_lat":[0,-52405,-107903,34741,134509],"delta_lng":[0,21809,-212175,24502,98258]}},
    {"code":9940835,"left":9940823,"right":9940837,"id":"56aa90","name":"愛本","name_kana":"あいもと","lat":36.855975,"lng":137.553769,"prefecture":16,"lines":[99408],"attr":"cool","postal_code":"938-0281","address":"黒部市宇奈月町内山","next":[9940834,9940836,9941201,1140512,1140513,1140511,9940837],"voronoi":{"lat":36.867596,"lng":137.60524,"delta_lat":[0,-19056,55417,-1363,-10645,-2303,-17610],"delta_lng":[0,-58820,7757,54247,27486,2967,-22465]}},
    {"code":9940823,"left":1140506,"right":9940834,"id":"ff4932","name":"経田","name_kana":"きょうでん","lat":36.848846,"lng":137.416203,"prefecture":16,"lines":[99408],"attr":"heat","postal_code":"937-0001","address":"魚津市浜経田","next":[9940828,9940824,1140508,9940827,9940822,9941513,1140506,9940826,1140507],"voronoi":{"lat":36.830261,"lng":137.457001,"delta_lat":[0,-3901,-14518,25153,64407,1969,-9547,-42136,-19482],"delta_lng":[0,2375,6602,-53671,-133536,-948,52842,102958,21930]}},
    {"code":1140506,"left":9940822,"id":"8507ed","name":"魚津","name_kana":"うおづ","lat":36.82642,"lng":137.405693,"prefecture":16,"lines":[11405,99425],"attr":"eco","postal_code":"937-0067","address":"魚津市釈迦堂","next":[9940821,9940832,9940823,9940828,9940830,9940822,9940829],"voronoi":{"lat":36.805782,"lng":137.470378,"delta_lat":[0,6061,25153,-15831,-38553,2473,1706],"delta_lng":[0,-4400,-53671,-10149,80651,-804,-873]}},
    {"code":9940822,"id":"a6d2f9","name":"新魚津","name_kana":"しんうおづ","lat":36.82657,"lng":137.405459,"prefecture":16,"lines":[99408],"attr":"heat","postal_code":"937-0067","address":"魚津市釈迦堂","next":[9940823,9941513,9940821,9940817,1140506,9940818],"voronoi":{"lat":36.86284,"lng":137.315562,"delta_lat":[0,30077,8485,-64407,-15831,35586],"delta_lng":[0,-33555,-3235,133536,-10149,-78845]}},
    {"code":9940834,"id":"aa94b5","name":"下立","name_kana":"おりたて","lat":36.857707,"lng":137.541396,"prefecture":16,"lines":[99408],"attr":"cool","postal_code":"938-0861","address":"黒部市宇奈月町下立","next":[9940833,9940835,1140511,9940837,9940836],"voronoi":{"lat":36.831686,"lng":137.534463,"delta_lat":[0,-4602,77946,-1073,-55417],"delta_lng":[0,-4241,17117,6838,-7757]}},
    {"code":9940837,"left":9940838,"right":9940836,"id":"ddf101","name":"音沢","name_kana":"おとざわ","lat":36.840716,"lng":137.559833,"prefecture":16,"lines":[99408],"attr":"cool","postal_code":"938-0000","address":"黒部市宇奈月町大滝","next":[9940821,9941201,9940820,9940838,9940834,9940833,9940832,9940836,9940835],"voronoi":{"lat":36.867596,"lng":137.60524,"delta_lat":[0,-35910,-4602,-33171,-29762,-912,-9914,96427,22284],"delta_lng":[0,-70777,-4241,-23229,-16700,146,2217,101771,21985]}},
    {"code":9940838,"id":"7cf1dd","name":"宇奈月温泉","name_kana":"うなづきおんせん","lat":36.815694,"lng":137.583541,"prefecture":16,"lines":[99408],"attr":"cool","postal_code":"938-0282","address":"黒部市宇奈月温泉桃原","next":[9940820,9940837,9941202,9940914,9941203,9941201],"voronoi":{"lat":36.753325,"lng":137.492657,"delta_lat":[0,-42517,-15632,15721,34741,104114],"delta_lng":[0,2683,26271,18863,24502,29452]}},
    {"code":9940836,"id":"967071","name":"内山","name_kana":"うちやま","lat":36.846826,"lng":137.556733,"prefecture":16,"lines":[99408],"attr":"cool","postal_code":"938-0281","address":"黒部市宇奈月町内山","next":[9940835,9940837,9940834],"voronoi":{"lat":36.867596,"lng":137.60524,"delta_lat":[0,-35910,16854],"delta_lng":[0,-70777,11957]}},
    {"code":1140707,"left":9940515,"right":1140310,"id":"1f853e","name":"上今井","name_kana":"かみいまい","lat":36.753947,"lng":138.319478,"prefecture":20,"lines":[11407],"attr":"eco","postal_code":"389-2102","address":"中野市上今井","next":[9940519,1140708,1140309,9940517,1140706,9940518],"voronoi":{"lat":36.755749,"lng":138.343483,"delta_lat":[0,15667,-12380,-27084,4096,2765],"delta_lng":[0,-60358,121,49476,5609,1726]}},
    {"code":9940515,"left":1140706,"right":9940517,"id":"929871","name":"小布施","name_kana":"おぶせ","lat":36.698942,"lng":138.312771,"prefecture":20,"lines":[99405],"attr":"heat","postal_code":"381-0201","address":"上高井郡小布施町小布施親木１４９７-２","next":[9940516,1140308,1140706,1140705,9940514],"voronoi":{"lat":36.692709,"lng":138.289925,"delta_lat":[0,9144,13200,42,-29548],"delta_lng":[0,2792,16929,241,16432]}},
    {"code":1140706,"left":1140705,"right":1140309,"id":"d21fd6","name":"立ヶ花","name_kana":"たてがはな","lat":36.731257,"lng":138.307057,"prefecture":20,"lines":[11407],"attr":"eco","postal_code":"389-1103","address":"長野県長野市豊野町蟹沢","next":[9940517,1140309,9940515,1140707,9940516,1140705],"voronoi":{"lat":36.715095,"lng":138.309886,"delta_lat":[0,11303,5555,27084,-6014,-37970],"delta_lng":[0,20408,2428,-49476,-2206,28605]}},
    {"code":1140705,"left":1140308,"id":"b2f53c","name":"信濃浅野","name_kana":"しなのあさの","lat":36.722011,"lng":138.294784,"prefecture":20,"lines":[11407],"attr":"eco","postal_code":"389-1104","address":"長野市豊野町浅野","next":[1140308,1140309,9940515,1140706],"voronoi":{"lat":36.753022,"lng":138.281041,"delta_lat":[0,-13952,-37218,13200],"delta_lng":[0,-9141,20817,16929]}},
    {"code":1140308,"id":"31a555","name":"豊野","name_kana":"とよの","lat":36.710642,"lng":138.274458,"prefecture":20,"lines":[11407,99427],"attr":"eco","postal_code":"389-1105","address":"長野市豊野町豊野","next":[1140307,1140309,1140705,9940510,9940511,9940515,9940514],"voronoi":{"lat":36.701852,"lng":138.292717,"delta_lat":[0,37218,-18965,-34024,-1464,965,7126],"delta_lng":[0,-20817,-29552,26844,4280,9720,6733]}},
    {"code":1140309,"id":"2ba998","name":"牟礼","name_kana":"むれ","lat":36.753239,"lng":138.247121,"prefecture":20,"lines":[99427],"attr":"heat","postal_code":"389-1212","address":"上水内郡飯綱町豊野","next":[9940505,1140706,1140310,1140308,1140307,1140705,1140708,9940506,9940504,1140707,1140311],"voronoi":{"lat":36.73353,"lng":138.171675,"delta_lat":[0,-37,-7442,-3892,-2054,18965,13952,6014,12380,18621,-36822],"delta_lng":[0,66,15654,9999,44954,29552,9141,2206,-121,-3848,-86321]}},
    {"code":9940517,"left":9940516,"right":9940518,"id":"32e7a4","name":"桜沢(長野)","original_name":"桜沢","name_kana":"さくらさわ","lat":36.712641,"lng":138.349642,"prefecture":20,"lines":[99405],"attr":"heat","postal_code":"383-0043","address":"中野市三ツ和大日前１４９７-１","next":[1140706,1133519,9940516,9940518,1140707,9940514,9940513,9940524],"voronoi":{"lat":36.602733,"lng":138.427727,"delta_lat":[0,53188,19386,51090,5555,4096,-61178,-65783],"delta_lng":[0,-65368,-16271,-15794,2428,5609,67183,29262]}},
    {"code":9940516,"id":"79ac75","name":"都住","name_kana":"つすみ","lat":36.704122,"lng":138.322086,"prefecture":20,"lines":[99405],"attr":"heat","postal_code":"381-0208","address":"上高井郡小布施町都住宮上４７２-４","next":[9940517,9940515,1140706,9940514],"voronoi":{"lat":36.685546,"lng":138.326318,"delta_lat":[0,29548,11303,-51090],"delta_lng":[0,-16432,20408,15794]}},
    {"code":9940518,"id":"42e79e","name":"延徳","name_kana":"えんとく","lat":36.726973,"lng":138.362693,"prefecture":20,"lines":[99405],"attr":"heat","postal_code":"383-0035","address":"中野市篠井堰向２２９-２","next":[9940519,9940523,9940524,9940517,9940520,1140707],"voronoi":{"lat":36.734092,"lng":138.378089,"delta_lat":[0,-5967,-1049,-52206,61178,2765],"delta_lng":[0,12205,529,14692,-67183,1726]}},
    {"code":1140310,"left":1140311,"right":1140709,"id":"2dd8cf","name":"古間","name_kana":"ふるま","lat":36.792295,"lng":138.230461,"prefecture":20,"lines":[99427],"attr":"heat","postal_code":"389-1312","address":"上水内郡信濃町富濃","next":[1140309,1140708,1140709,1140311,1140312],"voronoi":{"lat":36.834093,"lng":138.229228,"delta_lat":[0,-80878,36822,30575,26010],"delta_lng":[0,-36272,86321,7665,-3638]}},
    {"code":1140311,"left":1140934,"right":1140936,"id":"071a42","name":"黒姫","name_kana":"くろひめ","lat":36.807214,"lng":138.197195,"prefecture":20,"lines":[99427],"attr":"heat","postal_code":"389-1305","address":"上水内郡信濃町柏原","next":[1140936,1140310,1140312,1140934,1140304,1140309,9940504,1140935],"voronoi":{"lat":36.829681,"lng":138.052405,"delta_lat":[0,43386,-38973,-80878,-19685,1871,7606,49384],"delta_lng":[0,5275,171548,-36272,-21282,-75465,-38018,-5575]}},
    {"code":1140934,"left":1140935,"id":"b19e94","name":"南小谷","name_kana":"みなみおたり","lat":36.774604,"lng":137.908372,"prefecture":20,"lines":[11409],"attr":"cool","postal_code":"399-9400","address":"北安曇郡小谷村大字千国","next":[1140303,1140304,1140311,1140933,1140935],"voronoi":{"lat":36.789538,"lng":137.873331,"delta_lat":[0,-100513,15866,38116,49384],"delta_lng":[0,152645,10506,21709,-5575]}},
    {"code":1140935,"id":"ee81c2","name":"中土","name_kana":"なかつち","lat":36.80558,"lng":137.907879,"prefecture":20,"lines":[11409],"attr":"cool","postal_code":"399-9400","address":"北安曇郡小谷村大字中小谷池原下","next":[1140933,1140932,1140937,1140936,1140934,1140311],"voronoi":{"lat":36.829681,"lng":138.052405,"delta_lat":[0,-8236,-17575,-6020,-8311,2853],"delta_lng":[0,-213333,-33804,17687,50376,179285]}},
    {"code":1140936,"id":"a04015","name":"北小谷","name_kana":"きたおたり","lat":36.842567,"lng":137.906451,"prefecture":20,"lines":[11409],"attr":"cool","postal_code":"399-9601","address":"北安曇郡小谷村大字北小谷","next":[1140312,1140519,1140311,1140939,1140938,1140518,1140935,1140937],"voronoi":{"lat":36.927084,"lng":137.957635,"delta_lat":[0,18037,-1988,-7511,-62555,-43386,-8236,101483],"delta_lng":[0,56903,13849,23231,6062,-5275,-213333,110110]}},
    {"code":1140709,"left":1140708,"right":100907,"id":"7f6558","name":"蓮","name_kana":"はちす","lat":36.80888,"lng":138.349026,"prefecture":20,"lines":[11407],"attr":"heat","postal_code":"389-2256","address":"飯山市大字蓮","next":[100907,9940520,1140310,1140312,9940521,1140708],"voronoi":{"lat":36.820613,"lng":138.286942,"delta_lat":[0,26010,435,-31952,-32029,-6210],"delta_lng":[0,-3638,200,120141,-34317,-14345]}},
    {"code":1140708,"id":"8b3942","name":"替佐","name_kana":"かえさ","lat":36.768999,"lng":138.323385,"prefecture":20,"lines":[11407],"attr":"heat","postal_code":"389-2101","address":"中野市豊津","next":[1140310,9940520,1140309,1140707,9940519,1140709],"voronoi":{"lat":36.773143,"lng":138.353638,"delta_lat":[0,-17393,15667,18621,30575,-43746],"delta_lng":[0,-10155,-60358,-3848,7665,68041]}},
    {"code":100907,"id":"83b3a3","name":"飯山","name_kana":"いいやま","lat":36.847642,"lng":138.359335,"prefecture":20,"lines":[1009,11407],"attr":"heat","postal_code":"389-2253","address":"飯山市大字飯山","next":[9940522,1140709,9940521,1140711,1140312],"voronoi":{"lat":36.847058,"lng":138.283505,"delta_lat":[0,-31952,321,11639,54780],"delta_lng":[0,120141,809,23190,-138349]}},
    {"code":1140513,"left":9940825,"right":1140941,"id":"78203a","name":"市振","name_kana":"いちぶり","lat":36.980448,"lng":137.650373,"prefecture":15,"lines":[11405,99423,99425],"attr":"cool","postal_code":"949-0111","address":"糸魚川市市振","next":[1140512,1140937,9941202,1140514,9940835,9941201],"voronoi":{"lat":36.871205,"lng":137.730839,"delta_lat":[0,270,539299,-518825,-2303,-9499],"delta_lng":[0,117,-162101,67055,2967,24356]}},
    {"code":9940825,"left":9940829,"right":100910,"id":"348f83","name":"電鉄黒部","name_kana":"でんてつくろべ","lat":36.874091,"lng":137.444125,"prefecture":16,"lines":[99408],"attr":"heat","postal_code":"938-0031","address":"黒部市三日市","next":[9940826,1140507,1140508],"voronoi":{"lat":36.850676,"lng":137.449565,"delta_lat":[0,37189,7892],"delta_lng":[0,-18223,14329]}},
    {"code":9940829,"left":9940841,"right":9940831,"id":"e6801a","name":"舌山","name_kana":"したやま","lat":36.87187,"lng":137.485948,"prefecture":16,"lines":[99408],"attr":"cool","postal_code":"938-0802","address":"黒部市若栗","next":[9940830,9940828,100910,1140506,9940841],"voronoi":{"lat":36.827429,"lng":137.472962,"delta_lat":[0,-21648,-18991,103224,-18553],"delta_lng":[0,-2584,10754,10270,-8576]}},
    {"code":9940841,"left":1140507,"right":9940828,"id":"d51a56","name":"新黒部","name_kana":"しんくろべ","lat":36.87316273,"lng":137.4801774,"prefecture":16,"lines":[99408],"attr":"heat","postal_code":"938-0802","address":"富山県黒部市若栗2787番地","open_date":"2015-03-14","next":[100910,9940828,9940829],"voronoi":{"lat":36.827429,"lng":137.472962,"delta_lat":[0,51062,-7030],"delta_lng":[0,2806,7058]}},
    {"code":1140507,"left":9940824,"id":"0e5228","name":"黒部","name_kana":"くろべ","lat":36.869322,"lng":137.434393,"prefecture":16,"lines":[11405,99425],"attr":"cool","postal_code":"938-0042","address":"黒部市天神新","next":[1140508,9940824,9940826,9940825,9940823],"voronoi":{"lat":36.851688,"lng":137.433623,"delta_lat":[0,34431,1745,-37189,-18469],"delta_lng":[0,-10435,8153,18223,5989]}},
    {"code":9940824,"id":"b4b369","name":"電鉄石田","name_kana":"でんてついしだ","lat":36.865928,"lng":137.423194,"prefecture":16,"lines":[99408],"attr":"heat","postal_code":"938-0054","address":"黒部市岡","next":[9940823,1140507,1140508],"voronoi":{"lat":36.893825,"lng":137.330665,"delta_lat":[0,-42136,34431],"delta_lng":[0,102958,-10435]}},
    {"code":9940828,"id":"0c711c","name":"長屋","name_kana":"ながや","lat":36.873678,"lng":137.470803,"prefecture":16,"lines":[99408],"attr":"heat","postal_code":"938-0000","address":"黒部市長屋","next":[9940823,9940829,9940841,1140506,1140509,100910,9940827],"voronoi":{"lat":36.826361,"lng":137.459376,"delta_lat":[0,-14518,-6061,21648,51062,25380,-1303],"delta_lng":[0,6602,4400,2584,2806,-1048,-6396]}},
    {"code":9940831,"left":9940832,"right":9940830,"id":"4e025c","name":"栃屋","name_kana":"とちや","lat":36.869788,"lng":137.505842,"prefecture":16,"lines":[99408],"attr":"cool","postal_code":"938-0864","address":"黒部市宇奈月町栃屋","next":[9940832,1140510,9940830],"voronoi":{"lat":36.829345,"lng":137.495083,"delta_lat":[0,79057,-2777],"delta_lng":[0,37229,-29021]}},
    {"code":9940832,"id":"0b816a","name":"浦山","name_kana":"うらやま","lat":36.8634,"lng":137.519407,"prefecture":16,"lines":[99408],"attr":"cool","postal_code":"938-0862","address":"黒部市宇奈月町浦山","next":[9940831,1140510,9940833,1140506,1140511,9940830,9940837,9940821],"voronoi":{"lat":36.782611,"lng":137.48281,"delta_lat":[0,2473,44261,79057,589,-1884,-113195,-29762],"delta_lng":[0,-804,13078,37229,2249,4535,-32103,-16700]}},
    {"code":9940830,"id":"dbf50b","name":"若栗","name_kana":"わかぐり","lat":36.871151,"lng":137.493175,"prefecture":16,"lines":[99408],"attr":"cool","postal_code":"938-0802","address":"黒部市若栗","next":[100910,9940829,1140510,9940831,9940832,1140506],"voronoi":{"lat":36.786791,"lng":137.481133,"delta_lat":[0,103224,16267,-656,-76280,-44261],"delta_lng":[0,10270,3983,7906,-8208,-13078]}},
    {"code":100910,"left":1140508,"right":1140511,"id":"e42936","name":"黒部宇奈月温泉","name_kana":"くろべうなづきおんせん","lat":36.874104,"lng":137.481115,"prefecture":16,"lines":[1009],"attr":"heat","postal_code":"938-0000","address":"富山県黒部市荻生","next":[9940830,9940841,1140509,9940829,9940828,1140510],"voronoi":{"lat":36.908571,"lng":137.486786,"delta_lat":[0,-4699,-25380,-7030,18553,16267],"delta_lng":[0,-12065,1048,7058,8576,3983]}},
    {"code":1140508,"left":9940827,"right":1140509,"id":"7c2ce9","name":"生地","name_kana":"いくじ","lat":36.906031,"lng":137.426534,"prefecture":16,"lines":[11405,99425],"attr":"cool","postal_code":"938-0005","address":"黒部市吉田","next":[1140507,1141919,9940826,9940823,9940824,9940825,9940827,9941513,1140509],"voronoi":{"lat":37.174451,"lng":137.254392,"delta_lat":[0,-172627,-98453,-9547,-7705,1745,7892,6382,449],"delta_lng":[0,-50657,74089,52842,92523,8153,14329,8209,427]}},
    {"code":9940827,"left":9940826,"id":"3cb796","name":"荻生","name_kana":"おぎゅう","lat":36.875038,"lng":137.459221,"prefecture":16,"lines":[99408],"attr":"heat","postal_code":"938-0801","address":"黒部市荻生","next":[9940823,9940826,1140509,1140508,9940828],"voronoi":{"lat":36.902588,"lng":137.454306,"delta_lat":[0,-449,-71877,-3901,76208],"delta_lng":[0,-427,3122,2375,8948]}},
    {"code":9940826,"id":"c8dee7","name":"東三日市","name_kana":"ひがしみっかいち","lat":36.874677,"lng":137.450908,"prefecture":16,"lines":[99408],"attr":"heat","postal_code":"938-0031","address":"黒部市三日市","next":[1140508,9940825,1140507,9940827,9940823],"voronoi":{"lat":36.832206,"lng":137.455553,"delta_lat":[0,18469,45081,6382,-71877],"delta_lng":[0,-5989,-3894,8209,3122]}},
    {"code":1140509,"id":"f62f81","name":"西入善","name_kana":"にしにゅうぜん","lat":36.930124,"lng":137.459298,"prefecture":16,"lines":[11405,99425],"attr":"eco","postal_code":"939-0663","address":"下新川郡入善町下飯野","next":[1140510,9941807,100910,1141919,9940827,9940828,1140508],"voronoi":{"lat":37.174451,"lng":137.254392,"delta_lat":[0,68091,150379,-484351,-4699,-1303,19],"delta_lng":[0,15342,80758,136294,-12065,-6396,-14018]}},
    {"code":1140511,"left":1140510,"right":1140512,"id":"abe18f","name":"泊(富山)","original_name":"泊","name_kana":"とまり","lat":36.951897,"lng":137.556179,"prefecture":16,"lines":[11405,99425],"attr":"eco","postal_code":"939-0744","address":"下新川郡朝日町平柳","next":[9940834,1140512,1140510,9940832,9940833,9940835],"voronoi":{"lat":37.127908,"lng":137.493974,"delta_lat":[0,-218916,-1884,-2078,-1073,-1363],"delta_lng":[0,40587,4535,8243,6838,54247]}},
    {"code":1140510,"id":"afe7ca","name":"入善","name_kana":"にゅうぜん","lat":36.941296,"lng":137.499,"prefecture":16,"lines":[11405,99425],"attr":"eco","postal_code":"939-0626","address":"下新川郡入善町入膳","next":[1140509,1140512,9940831,9940832,9940830,9941807,1140511,100910],"voronoi":{"lat":36.905625,"lng":137.503291,"delta_lat":[0,2777,589,218916,336345,-71331,-484351,-2289],"delta_lng":[0,29021,2249,-40587,-109076,-34407,136294,8600]}},
    {"code":1140512,"id":"170c07","name":"越中宮崎","name_kana":"えっちゅうみやざき","lat":36.973863,"lng":137.599423,"prefecture":16,"lines":[11405,99425],"attr":"eco","postal_code":"939-0703","address":"下新川郡朝日町宮崎","next":[1140513,1140510,1140511,1140514,9941807,9940835],"voronoi":{"lat":36.902593,"lng":137.608424,"delta_lat":[0,225314,336345,283802,-337281,-518825],"delta_lng":[0,-114450,-109076,103808,80149,67055]}},
    {"code":1140941,"left":1140940,"right":1140519,"id":"ee7997","name":"姫川(新潟)","original_name":"姫川","name_kana":"ひめかわ","lat":37.020339,"lng":137.860914,"prefecture":15,"lines":[11409],"attr":"cool","postal_code":"941-0071","address":"糸魚川市大字大野","next":[1140940,1140515,100909,1140517,1140939],"voronoi":{"lat":37.031379,"lng":137.889049,"delta_lat":[0,131,1028,-43276,1335],"delta_lng":[0,-106,-60311,-1412,11564]}},
    {"code":1140940,"left":1140939,"right":1140313,"id":"a74688","name":"頸城大野","name_kana":"くびきおおの","lat":37.006124,"lng":137.872447,"prefecture":15,"lines":[11409],"attr":"cool","postal_code":"941-0071","address":"糸魚川市大字大野","next":[1140517,1140941,1140518,1140939],"voronoi":{"lat":36.990598,"lng":137.838783,"delta_lat":[0,40782,-50792,-8347],"delta_lng":[0,50265,76977,8421]}},
    {"code":1140939,"left":1140937,"right":1140514,"id":"225562","name":"根知","name_kana":"ねち","lat":36.966683,"lng":137.86711,"prefecture":15,"lines":[11409],"attr":"eco","postal_code":"949-0536","address":"糸魚川市大字根小屋","next":[1140936,1140515,1140940,1140518,1140941,1140938],"voronoi":{"lat":36.94512,"lng":138.014539,"delta_lat":[0,27120,18357,-1335,-22456,-39723],"delta_lng":[0,-40092,-135663,-11564,-17523,147939]}},
    {"code":1140937,"left":1140938,"id":"f736ab","name":"平岩","name_kana":"ひらいわ","lat":36.88688,"lng":137.86561,"prefecture":15,"lines":[11409],"attr":"eco","postal_code":"949-0464","address":"糸魚川市大字大所字平岩","next":[1140513,9941203,1140935,1140514,1140932,1140938,9941202,1140936],"voronoi":{"lat":36.821445,"lng":137.839072,"delta_lat":[0,-17575,-5192,20122,52405,270,28451,23002],"delta_lng":[0,-33804,-38301,-14319,-21809,117,26762,191464]}},
    {"code":1140938,"id":"205729","name":"小滝","name_kana":"こたき","lat":36.938155,"lng":137.85945,"prefecture":15,"lines":[11409],"attr":"eco","postal_code":"949-0462","address":"糸魚川市大字小滝","next":[1140515,1140936,1140937,1140939,1140514],"voronoi":{"lat":36.966807,"lng":137.809696,"delta_lat":[0,-39723,-4156,-23002,48165],"delta_lng":[0,147939,-8453,-191464,27254]}},
    {"code":1140514,"id":"21ca49","name":"親不知","name_kana":"おやしらず","lat":37.006818,"lng":137.738104,"prefecture":15,"lines":[11405,99423],"attr":"cool","postal_code":"949-0307","address":"糸魚川市歌","next":[1140515,9941807,1140513,1140937,1140512,1140938],"voronoi":{"lat":36.899926,"lng":137.757719,"delta_lat":[0,-28451,539299,337281,146220,-946184],"delta_lng":[0,-26762,-162101,-80149,38804,257462]}},
    {"code":1140313,"left":1140312,"right":1140314,"id":"a44730","name":"関山","name_kana":"せきやま","lat":36.933048,"lng":138.226415,"prefecture":15,"lines":[99424],"attr":"cool","postal_code":"949-2141","address":"妙高市関山","next":[1140711,1140519,1140314,1140713,1140712,1140312],"voronoi":{"lat":36.910362,"lng":138.302883,"delta_lat":[0,24633,17041,25830,-36751,-55244],"delta_lng":[0,7796,1676,-230068,-25169,232531]}},
    {"code":1140312,"id":"9a4d78","name":"妙高高原","name_kana":"みょうこうこうげん","lat":36.872175,"lng":138.211953,"prefecture":15,"lines":[99427,99424],"attr":"cool","postal_code":"949-2106","address":"妙高市田口","next":[1140936,100907,1140711,1140311,1140310,1140313,1140519,1140709],"voronoi":{"lat":36.881846,"lng":138.289296,"delta_lat":[0,4025,55244,-5493,-62555,-38973,12529,435],"delta_lng":[0,354,-232531,-5500,6062,171548,54076,200]}},
    {"code":1140314,"id":"4df71e","name":"二本木","name_kana":"にほんぎ","lat":36.989608,"lng":138.232765,"prefecture":15,"lines":[99424],"attr":"cool","postal_code":"949-2301","address":"上越市中郷区板橋","next":[1140315,100908,1140313,1140520,1140713,1140316,1140519,1140318],"voronoi":{"lat":37.046643,"lng":138.180801,"delta_lat":[0,-955,-82568,-11084,25830,510,73964,-1522],"delta_lng":[0,2426,134175,-5047,-230068,222,59286,15968]}},
    {"code":1140519,"left":1140517,"right":1140316,"id":"0aadc2","name":"能生","name_kana":"のう","lat":37.096049,"lng":137.988405,"prefecture":15,"lines":[11405,99423],"attr":"heat","postal_code":"949-1352","address":"糸魚川市能生","next":[1140518,1140936,1140313,1140521,1140312,1140314,1140520],"voronoi":{"lat":37.284579,"lng":137.94954,"delta_lat":[0,634239,-975685,-7511,5493,36751,510],"delta_lng":[0,-363779,442627,23231,5500,25169,222]}},
    {"code":1140517,"left":100909,"right":1140518,"id":"dd08fc","name":"梶屋敷","name_kana":"かじやしき","lat":37.056577,"lng":137.905738,"prefecture":15,"lines":[11405,99423],"attr":"cool","postal_code":"941-0008","address":"糸魚川市大字田伏","next":[100909,1140940,1140941,1140518],"voronoi":{"lat":37.263102,"lng":137.821457,"delta_lat":[0,-231592,-131,-50792],"delta_lng":[0,67486,106,76977]}},
    {"code":100909,"left":1140515,"id":"6c0a71","name":"糸魚川","name_kana":"いといがわ","lat":37.043631,"lng":137.861311,"prefecture":15,"lines":[1009,11405,11409,99423],"attr":"cool","postal_code":"941-0061","address":"糸魚川市大町１丁目","next":[1140517,9941807,1140941,1140518,1140515],"voronoi":{"lat":37.936799,"lng":137.53732,"delta_lat":[0,40655,-714351,-231592,1028],"delta_lng":[0,7836,276301,67486,-60311]}},
    {"code":1140515,"id":"01b9ff","name":"青海(新潟)","original_name":"青海","name_kana":"おうみ","lat":37.022469,"lng":137.795622,"prefecture":15,"lines":[11405,99423],"attr":"cool","postal_code":"949-0305","address":"糸魚川市青海","next":[9941807,1140514,1140941,1140938,1140939,100909],"voronoi":{"lat":36.989262,"lng":137.827219,"delta_lat":[0,-22456,-18716,946184,42524,-904260],"delta_lng":[0,-17523,-24724,-257462,9809,291312]}},
    {"code":1140518,"id":"0dace8","name":"浦本","name_kana":"うらもと","lat":37.073935,"lng":137.939659,"prefecture":15,"lines":[11405,99423],"attr":"cool","postal_code":"941-0001","address":"糸魚川市大字間脇","next":[1140519,1140940,9941807,1140521,1140936,1140939,100909,1140517],"voronoi":{"lat":37.263102,"lng":137.821457,"delta_lat":[0,714351,13467,-72103,-975685,1988,27120,8347],"delta_lng":[0,-276301,2004,38601,442627,-13849,-40092,-8421]}},
    {"code":1140316,"left":1140315,"right":100908,"id":"e9b20c","name":"北新井","name_kana":"きたあらい","lat":37.05296,"lng":138.257699,"prefecture":15,"lines":[99424],"attr":"cool","postal_code":"944-0008","address":"妙高市柳井田町","next":[9940210,1140715,1140314,100908,1140315,9940209],"voronoi":{"lat":37.031539,"lng":138.361166,"delta_lat":[0,14148,955,46633,-5054,-33796],"delta_lng":[0,-177939,-2426,163626,5742,22271]}},
    {"code":1140315,"id":"256ba4","name":"新井(新潟)","original_name":"新井","name_kana":"あらい","lat":37.026738,"lng":138.255614,"prefecture":15,"lines":[99424],"attr":"cool","postal_code":"944-0044","address":"妙高市栄町","next":[1140314,1140713,1140715,1140714,1140316],"voronoi":{"lat":37.045688,"lng":138.183228,"delta_lat":[0,-82568,36968,16527,14925],"delta_lng":[0,134175,29626,8977,5161]}},
    {"code":100908,"id":"64b8a9","name":"上越妙高","name_kana":"じょうえつみょうこう","lat":37.081813,"lng":138.249476,"prefecture":15,"lines":[1009,99424],"attr":"cool","postal_code":"943-0863","address":"上越市大字脇野田","next":[1140314,1140319,1140318,9940210,1140316],"voronoi":{"lat":37.116292,"lng":138.325371,"delta_lat":[0,-7822,-57653,-4175,46633],"delta_lng":[0,-35041,-132566,23038,163626]}}
  ]
}