{
  "name":"segment37",
  "root":1131136,
  "east":139.201816,
  "west":137.400288,
  "south":35.653997,
  "north":36.254923,
  "station_size":155,
  "node_list":[
    {"code":1131136,"left":1141442,"right":1140108,"id":"5050f4","name":"穴山","name_kana":"あなやま","lat":35.75107,"lng":138.413858,"prefecture":19,"lines":[11311],"attr":"eco","postal_code":"407-0263","address":"韮崎市穴山町","next":[1140226,1131137,1131134,1131139,1141423,1131135],"voronoi":{"lat":35.677352,"lng":138.214697,"delta_lat":[0,-27007,-71130,27115,70956,124238],"delta_lng":[0,-31226,12655,99651,78259,92157]},"impl":true},
    {"code":1141442,"left":1141431,"right":9940704,"id":"ba28ed","name":"伊那新町","name_kana":"いなしんまち","lat":35.9688,"lng":137.984056,"prefecture":20,"lines":[11414],"attr":"eco","postal_code":"399-0428","address":"上伊那郡辰野町伊那富","next":[1141137,1141441,1141443,1131151],"voronoi":{"lat":35.961961,"lng":137.999472,"delta_lat":[0,-6135,18600,14259],"delta_lng":[0,-90051,6829,52382]},"impl":true},
    {"code":1141431,"left":1141129,"right":1131140,"id":"875cc3","name":"赤木","name_kana":"あかぎ","lat":35.777887,"lng":137.943943,"prefecture":20,"lines":[11414],"attr":"eco","postal_code":"399-4431","address":"伊那市西春近","next":[1141429,1141435,1141434,1141433,1141436,1141430,1131141,1131140,1141432],"voronoi":{"lat":35.790931,"lng":137.9029,"delta_lat":[0,-13,-31281,-21799,336,9925,33153,6365,2891],"delta_lng":[0,-113,65879,171242,-108,-4532,-81155,-20990,-11474]},"impl":true},
    {"code":1141129,"left":1141424,"right":1141134,"id":"0781c7","name":"倉本","name_kana":"くらもと","lat":35.732939,"lng":137.714338,"prefecture":20,"lines":[11411],"attr":"heat","postal_code":"399-5608","address":"木曽郡上松町大字荻原","next":[1141427,1141428,1141421,1141130,1141128,1141430,1141426,1141132],"voronoi":{"lat":35.791215,"lng":137.783246,"delta_lat":[0,-50961,-75512,59717,4313,22135,8217,24572],"delta_lng":[0,-123752,136541,28300,407,617,-121,-3756]},"impl":true},
    {"code":1141424,"left":1141127,"right":1141426,"id":"71ada0","name":"飯島","name_kana":"いいじま","lat":35.677571,"lng":137.929004,"prefecture":20,"lines":[11414],"attr":"eco","postal_code":"399-3702","address":"上伊那郡飯島町飯島","next":[1141422,1141423,1141425],"voronoi":{"lat":35.69862,"lng":137.877964,"delta_lat":[0,-30787,12130],"delta_lng":[0,39971,42367]},"impl":true},
    {"code":1141127,"left":1141422,"right":1141128,"id":"87dd3d","name":"大桑(長野)","original_name":"大桑","name_kana":"おおくわ","lat":35.684477,"lng":137.664224,"prefecture":20,"lines":[11411],"attr":"eco","postal_code":"399-5503","address":"木曽郡大桑村長野","next":[1141130,1141125,1141128,1141126,1141409,1141124],"voronoi":{"lat":35.607675,"lng":137.688844,"delta_lat":[0,22567,120977,-10986,-152405,-1712],"delta_lng":[0,-18892,-49280,37654,65765,-2034]},"impl":true},
    {"code":1141422,"left":1141126,"id":"ab154c","name":"七久保","name_kana":"ななくぼ","lat":35.654645,"lng":137.911346,"prefecture":20,"lines":[11414],"attr":"cool","postal_code":"399-3705","address":"上伊那郡飯島町七久保","next":[1141423,1141424,1141421,1141420,1141426,1141425],"voronoi":{"lat":35.667834,"lng":137.917934,"delta_lat":[0,-27680,659,72115,-5109,-9198],"delta_lng":[0,14126,-17949,-66477,13000,17329]},"impl":true},
    {"code":1141126,"id":"af7933","name":"野尻","name_kana":"のじり","lat":35.673042,"lng":137.636152,"prefecture":20,"lines":[11411],"attr":"eco","postal_code":"399-5504","address":"木曽郡大桑村大字野尻","next":[1141617,1141130,1141127,1141125,1141131],"voronoi":{"lat":35.75122,"lng":137.620672,"delta_lat":[0,-120977,147422,47232,-10546],"delta_lng":[0,49280,-219146,15766,31415]},"impl":true},
    {"code":1141128,"id":"8bafd3","name":"須原","name_kana":"すはら","lat":35.69769,"lng":137.694844,"prefecture":20,"lines":[11411],"attr":"eco","postal_code":"399-5502","address":"木曽郡大桑村字須原","next":[1141409,1141421,1141130,1141127,1141129,1141410],"voronoi":{"lat":35.664742,"lng":137.796035,"delta_lat":[0,75512,-21,-152405,21863,19357],"delta_lng":[0,-136541,-1169,65765,35468,27281]},"impl":true},
    {"code":1141426,"left":1141425,"right":1141427,"id":"18a49e","name":"伊那福岡","name_kana":"いなふくおか","lat":35.712233,"lng":137.93398,"prefecture":20,"lines":[11414],"attr":"eco","postal_code":"399-4117","address":"駒ヶ根市赤穂","next":[1131140,1141421,1141425,1141429,1141427,1141129,1141422],"voronoi":{"lat":35.712928,"lng":137.847635,"delta_lat":[0,11532,4313,-19964,-16704,-211,15925],"delta_lng":[0,-23299,407,236697,97127,107,-298039]},"impl":true},
    {"code":1141425,"left":1141423,"id":"ae77db","name":"田切","name_kana":"たぎり","lat":35.695613,"lng":137.933092,"prefecture":20,"lines":[11414],"attr":"eco","postal_code":"399-3701","address":"上伊那郡飯島町田切","next":[1141426,1131140,1141424,1141423,1141422],"voronoi":{"lat":35.707818,"lng":137.860635,"delta_lat":[0,-15925,-16133,4203,18657],"delta_lng":[0,298039,8923,-207295,-82338]},"impl":true},
    {"code":1141423,"id":"e272ff","name":"伊那本郷","name_kana":"いなほんごう","lat":35.66543,"lng":137.93248,"prefecture":20,"lines":[11414],"attr":"cool","postal_code":"399-3704","address":"上伊那郡飯島町本郷","next":[1141422,1140224,1131136,1141420,1131140,1141424,1140226,1141418,1131139,1141425],"voronoi":{"lat":35.679964,"lng":137.960302,"delta_lat":[0,-12130,-27680,-23179,-60325,4564,18001,71130,3207,22209],"delta_lng":[0,-42367,14126,39998,218432,1487,4148,-12655,-1657,-14217]},"impl":true},
    {"code":1141427,"id":"701108","name":"小町屋","name_kana":"こまちや","lat":35.726781,"lng":137.935207,"prefecture":20,"lines":[11414],"attr":"eco","postal_code":"399-4117","address":"駒ヶ根市赤穂","next":[1141129,1141429,1141428,1141426],"voronoi":{"lat":35.728772,"lng":137.824742,"delta_lat":[0,22135,-39213,-2886],"delta_lng":[0,617,223618,12462]},"impl":true},
    {"code":1141134,"left":1141132,"right":1141430,"id":"c32b50","name":"藪原","name_kana":"やぶはら","lat":35.930152,"lng":137.784368,"prefecture":20,"lines":[11411],"attr":"cool","postal_code":"399-6201","address":"木曽郡木祖村薮原","next":[1141623,1141135,1141131,1141624,1141433,1141434,1141133,1141132,1141136,9940714],"voronoi":{"lat":35.890507,"lng":137.873558,"delta_lat":[0,-964,-5834,-16326,76683,44226,94214,3585,9428,-11289],"delta_lng":[0,978,-3061,-12316,-155852,-60824,-89598,515,2268,78534]},"impl":true},
    {"code":1141132,"left":1141131,"right":1141133,"id":"05fbe2","name":"原野","name_kana":"はらの","lat":35.871245,"lng":137.741536,"prefecture":20,"lines":[11411],"attr":"heat","postal_code":"399-6101","address":"木曽郡木曽町日義","next":[1141131,1141133,1141430,1141134,1141130,1141129],"voronoi":{"lat":35.787538,"lng":137.823507,"delta_lat":[0,156529,44226,-174545,-22532,-7519],"delta_lng":[0,-120199,-60824,100055,40708,38236]},"impl":true},
    {"code":1141131,"left":1141130,"id":"3c66ff","name":"木曽福島","name_kana":"きそふくしま","lat":35.843669,"lng":137.69343,"prefecture":20,"lines":[11411],"attr":"heat","postal_code":"397-0001","address":"木曽郡木曽町福島２０３２","next":[1141134,1141132,1141623,1141617,1141130,1141622,1141126],"voronoi":{"lat":35.824896,"lng":137.466571,"delta_lat":[0,27464,6190,223956,-94214,-174545,603],"delta_lng":[0,-2320,1519,87115,89598,100055,-244552]},"impl":true},
    {"code":1141130,"id":"5f8db2","name":"上松","name_kana":"あげまつ","lat":35.784068,"lng":137.693283,"prefecture":20,"lines":[11411],"attr":"heat","postal_code":"399-5603","address":"木曽郡上松町駅前通り","next":[1141127,1141128,1141126,1141129,1141131,1141132],"voronoi":{"lat":35.813747,"lng":137.742539,"delta_lat":[0,603,-63131,-10986,21,50961],"delta_lng":[0,-244552,122685,37654,1169,123752]},"impl":true},
    {"code":1141133,"id":"a93144","name":"宮ノ越","name_kana":"みやのこし","lat":35.888337,"lng":137.763794,"prefecture":20,"lines":[11411],"attr":"cool","postal_code":"399-6101","address":"木曽郡木曽町日義","next":[1141433,1141132,1141430,1141134],"voronoi":{"lat":35.944067,"lng":137.703307,"delta_lat":[0,-156529,5307,74539],"delta_lng":[0,120199,3670,31983]},"impl":true},
    {"code":1141430,"left":1141429,"right":1141433,"id":"f6353b","name":"宮田","name_kana":"みやだ","lat":35.76726,"lng":137.938897,"prefecture":20,"lines":[11414],"attr":"eco","postal_code":"399-4301","address":"上伊那郡宮田村","next":[1141433,1141133,1141429,1141428,1141431,1141132,1141129],"voronoi":{"lat":35.783696,"lng":137.821483,"delta_lat":[0,3841,5307,-1927,-31281,-4977,4465],"delta_lng":[0,2024,3670,75610,65879,-75321,-68106]},"impl":true},
    {"code":1141429,"left":1141428,"id":"dc0ee7","name":"大田切","name_kana":"おおたぎり","lat":35.748162,"lng":137.940159,"prefecture":20,"lines":[11414],"attr":"eco","postal_code":"399-4117","address":"駒ヶ根市赤穂","next":[1141428,1131140,1141431,1141427,1141430,1141426],"voronoi":{"lat":35.737837,"lng":138.139908,"delta_lat":[0,21799,-4977,-42965,-2886,-16704],"delta_lng":[0,-171242,-75321,155633,12462,97127]},"impl":true},
    {"code":1141428,"id":"12e106","name":"駒ヶ根","name_kana":"こまがね","lat":35.736219,"lng":137.936862,"prefecture":20,"lines":[11414],"attr":"eco","postal_code":"399-4106","address":"長野県駒ヶ根市東町1-1","next":[1141429,1141129,1141427,1141430],"voronoi":{"lat":35.711695,"lng":138.048977,"delta_lat":[0,39213,8217,-4465],"delta_lng":[0,-223618,-121,68106]},"impl":true},
    {"code":1141433,"id":"2017e4","name":"下島(JR)","original_name":"下島","name_kana":"しもじま","lat":35.812706,"lng":137.940055,"prefecture":20,"lines":[11414],"attr":"eco","postal_code":"399-4431","address":"長野県伊那市西春近小出島区","next":[1141133,1141430,1141134,1141434,1141431,1141432],"voronoi":{"lat":35.790931,"lng":137.9029,"delta_lat":[0,-13,1927,74539,16326,-66950],"delta_lng":[0,-113,-75610,31983,12316,89994]},"impl":true},
    {"code":1131140,"left":1141437,"right":1131143,"id":"3801e3","name":"信濃境","name_kana":"しなのさかい","lat":35.884952,"lng":138.275419,"prefecture":20,"lines":[11311],"attr":"heat","postal_code":"399-0101","address":"諏訪郡富士見町境字信濃境","next":[1141429,1141426,1131141,1141423,1141431,1131139,1141425,1140102],"voronoi":{"lat":35.738173,"lng":138.139799,"delta_lat":[0,-336,-45733,-211,-16133,-22209,267325,70559],"delta_lng":[0,108,18659,107,8923,14217,138090,4553]},"impl":true},
    {"code":1141437,"left":1141435,"right":1131139,"id":"8e4bc3","name":"北殿","name_kana":"きたとの","lat":35.879377,"lng":137.984059,"prefecture":20,"lines":[11414],"attr":"eco","postal_code":"399-4511","address":"上伊那郡南箕輪村","next":[1141435,1131143,1141438,1131142,1141436],"voronoi":{"lat":35.83214,"lng":138.114169,"delta_lat":[0,36377,37873,-20022,-61637],"delta_lng":[0,-10767,-205609,34711,183321]},"impl":true},
    {"code":1141435,"left":1141434,"right":1141436,"id":"e04a10","name":"伊那北","name_kana":"いなきた","lat":35.84524,"lng":137.964368,"prefecture":20,"lines":[11414],"attr":"eco","postal_code":"396-0021","address":"伊那市伊那","next":[1141136,1141437,1141438,1141431,1141434,1141436],"voronoi":{"lat":35.787616,"lng":138.033123,"delta_lat":[0,112012,8299,-1538,-20022,-105116],"delta_lng":[0,-147379,8432,3618,34711,121608]},"impl":true},
    {"code":1141434,"left":1141432,"id":"33f28e","name":"伊那市","name_kana":"いなし","lat":35.838435,"lng":137.959196,"prefecture":20,"lines":[11414],"attr":"eco","postal_code":"396-0021","address":"伊那市伊那","next":[1141432,1141433,1141435,1141431,1141134,1141136],"voronoi":{"lat":35.889543,"lng":137.874536,"delta_lat":[0,-5834,-66950,-26252,-2891,112012],"delta_lng":[0,-3061,89994,60179,11474,-147379]},"impl":true},
    {"code":1141432,"id":"033d76","name":"沢渡","name_kana":"さわんど","lat":35.803681,"lng":137.944035,"prefecture":20,"lines":[11414],"attr":"eco","postal_code":"399-4431","address":"伊那市西春近","next":[1141434,1141431,1141433],"voronoi":{"lat":35.790507,"lng":138.021648,"delta_lat":[0,423,25829],"delta_lng":[0,-118749,58570]},"impl":true},
    {"code":1141436,"id":"660db3","name":"田畑","name_kana":"たばた","lat":35.860791,"lng":137.97781,"prefecture":20,"lines":[11414],"attr":"eco","postal_code":"399-4511","address":"上伊那郡南箕輪村松ノ木","next":[1131142,1141435,1131141,1141431,1141437],"voronoi":{"lat":35.781452,"lng":138.128681,"delta_lat":[0,-33354,33153,105116,-61637],"delta_lng":[0,6586,-81155,-121608,183321]},"impl":true},
    {"code":1131139,"left":1131137,"right":1140102,"id":"ae8c35","name":"小淵沢","name_kana":"こぶちざわ","lat":35.863808,"lng":138.316351,"prefecture":19,"lines":[11311,11401],"attr":"eco","postal_code":"408-0000","address":"北杜市小淵沢町尾根１０２４","next":[1140102,1131136,1131140,1141423,1131137,1131138],"voronoi":{"lat":35.69415,"lng":138.23046,"delta_lat":[0,-16799,-27007,3207,267325,-69931],"delta_lng":[0,-15763,-31226,-1657,138090,25543]},"impl":true},
    {"code":1131137,"left":1131138,"id":"f02c31","name":"日野春","name_kana":"ひのはる","lat":35.79065,"lng":138.394316,"prefecture":19,"lines":[11311],"attr":"eco","postal_code":"408-0024","address":"北杜市長坂町富岡","next":[1140104,1131136,1140103,1131135,1131138,1131139],"voronoi":{"lat":35.840571,"lng":138.421842,"delta_lat":[0,-9537,-4358,-25153,-124172,16799],"delta_lng":[0,66037,13243,-34929,-251496,15763]},"impl":true},
    {"code":1131138,"id":"c6c845","name":"長坂","name_kana":"ながさか","lat":35.827061,"lng":138.366459,"prefecture":19,"lines":[11311],"attr":"eco","postal_code":"408-0021","address":"北杜市長坂町長坂上条","next":[1140102,1140103,1131137,1131139],"voronoi":{"lat":35.857554,"lng":138.394585,"delta_lat":[0,-16983,-146421,156795],"delta_lng":[0,27256,-191382,114987]},"impl":true},
    {"code":1140102,"id":"0c7f97","name":"甲斐小泉","name_kana":"かいこいずみ","lat":35.879533,"lng":138.359402,"prefecture":19,"lines":[11401],"attr":"eco","postal_code":"408-0031","address":"北杜市長坂町小荒間","next":[1131141,1131139,1140104,1140103,1140109,1131138,1131140],"voronoi":{"lat":36.019924,"lng":138.332122,"delta_lat":[0,-4485,-19624,-138260,-6609,69931,70559],"delta_lng":[0,6356,10058,46049,-49139,-25543,4553]},"impl":true},
    {"code":1131143,"left":1141440,"right":1131141,"id":"814896","name":"青柳","name_kana":"あおやぎ","lat":35.942581,"lng":138.197612,"prefecture":20,"lines":[11311],"attr":"heat","postal_code":"391-0012","address":"長野県茅野市ちの3506","next":[1131144,1140110,1141437,1141438,1131142],"voronoi":{"lat":35.83214,"lng":138.114169,"delta_lat":[0,36377,32320,178191,-21441],"delta_lng":[0,-10767,-6428,203571,9303]},"impl":true},
    {"code":1141440,"left":1141439,"right":1141441,"id":"27ff6a","name":"沢","name_kana":"さわ","lat":35.936385,"lng":137.985477,"prefecture":20,"lines":[11414],"attr":"eco","postal_code":"399-4601","address":"上伊那郡箕輪町中箕輪","next":[1131144,1141136,1141439,1141441,1131150],"voronoi":{"lat":35.937978,"lng":138.078371,"delta_lat":[0,-25621,30694,3052,-6751],"delta_lng":[0,-182012,8578,145294,27654]},"impl":true},
    {"code":1141439,"left":1141438,"id":"349675","name":"伊那松島","name_kana":"いなまつしま","lat":35.913865,"lng":137.988647,"prefecture":20,"lines":[11414],"attr":"eco","postal_code":"399-4601","address":"上伊那郡箕輪町中箕輪","next":[1141438,1141440,1131144,1141136],"voronoi":{"lat":35.91182,"lng":137.896135,"delta_lat":[0,-9639,35797,-25621],"delta_lng":[0,200065,-17828,-182012]},"impl":true},
    {"code":1141438,"id":"81db41","name":"木ノ下","name_kana":"きのした","lat":35.900892,"lng":137.988022,"prefecture":20,"lines":[11414],"attr":"eco","postal_code":"399-4601","address":"上伊那郡箕輪町中箕輪","next":[1141439,1131144,1141435,1131143,1141437,1141136],"voronoi":{"lat":35.902182,"lng":138.0962,"delta_lat":[0,-1345,-32320,37873,1538,3893],"delta_lng":[0,775,6428,-205609,-3618,1959]},"impl":true},
    {"code":1141441,"id":"ce861c","name":"羽場(長野)","original_name":"羽場","name_kana":"はば","lat":35.953094,"lng":137.985126,"prefecture":20,"lines":[11414],"attr":"eco","postal_code":"399-0428","address":"上伊那郡辰野町伊那富","next":[1141442,1141137,1131150,1141443,1141440,1141136],"voronoi":{"lat":35.955826,"lng":137.909422,"delta_lat":[0,6135,-5612,-10245,-3052,5567],"delta_lng":[0,90051,24140,26619,-145294,950]},"impl":true},
    {"code":1131141,"left":1140103,"right":1131142,"id":"ace22f","name":"富士見","name_kana":"ふじみ","lat":35.912183,"lng":138.238071,"prefecture":20,"lines":[11311],"attr":"heat","postal_code":"391-0021","address":"諏訪郡富士見町富士見","next":[1140102,1131140,1141436,1140109,1141431,1140110,1131142],"voronoi":{"lat":35.781452,"lng":138.128681,"delta_lat":[0,-33354,-9925,253262,28488,8981,21182],"delta_lng":[0,6586,4532,184657,7666,-4924,-13561]},"impl":true},
    {"code":1140103,"id":"faac6d","name":"甲斐大泉","name_kana":"かいおおいずみ","lat":35.89624,"lng":138.409564,"prefecture":19,"lines":[11401],"attr":"eco","postal_code":"409-1501","address":"北杜市大泉町西井出","next":[1131137,1140104,1140102,1131138],"voronoi":{"lat":35.831035,"lng":138.487878,"delta_lat":[0,164780,-138260,-16983],"delta_lng":[0,-139342,46049,27256]},"impl":true},
    {"code":1131142,"id":"b6ee17","name":"すずらんの里","name_kana":"すずらんのさと","lat":35.930288,"lng":138.211775,"prefecture":20,"lines":[11311],"attr":"heat","postal_code":"391-0021","address":"諏訪郡富士見町富士見","next":[1141436,1131143,1141437,1140110,1131141],"voronoi":{"lat":36.057586,"lng":138.309849,"delta_lat":[0,-225447,-7409,-43278,268634],"delta_lng":[0,-195679,1656,12856,184956]},"impl":true},
    {"code":9940704,"left":9940711,"right":1131148,"id":"97271b","name":"信濃荒井","name_kana":"しなのあらい","lat":36.229019,"lng":137.949484,"prefecture":20,"lines":[99407],"attr":"cool","postal_code":"390-0852","address":"松本市大字島立字荒井５５","next":[9940703,1140903,9940705,1140902],"voronoi":{"lat":36.239022,"lng":137.951066,"delta_lat":[0,-2057,-22581,19738],"delta_lng":[0,-7920,5710,5599]},"impl":true},
    {"code":9940711,"left":9940712,"right":1140905,"id":"2cf9c7","name":"下島(松本電鉄)","original_name":"下島","name_kana":"しもじま","lat":36.206131,"lng":137.871841,"prefecture":20,"lines":[99407],"attr":"heat","postal_code":"390-1401","address":"長野県松本市波田4417-12","next":[1141202,9940710,1140906,9940712],"voronoi":{"lat":36.148123,"lng":137.889067,"delta_lat":[0,96416,15596,-115859],"delta_lng":[0,-20405,-25821,43350]},"impl":true},
    {"code":9940712,"left":9940714,"right":1141139,"id":"77fa60","name":"波田","name_kana":"はた","lat":36.200358,"lng":137.856412,"prefecture":20,"lines":[99407],"attr":"heat","postal_code":"390-1401","address":"長野県松本市波田鍋割4417-28","next":[9940713,1141139,1141202,1140907,9940711,1140906],"voronoi":{"lat":36.262877,"lng":137.839436,"delta_lat":[0,9167,-138055,9219,1067,115859],"delta_lng":[0,-14271,43160,17267,599,-43350]},"impl":true},
    {"code":9940714,"left":1141136,"right":9940713,"id":"b9a0b7","name":"新島々","name_kana":"しんしましま","lat":36.18977,"lng":137.821689,"prefecture":20,"lines":[99407],"attr":"heat","postal_code":"390-1401","address":"長野県松本市波田赤松3050-1","next":[1140910,1140915,9940914,1140913,1140914,1141135,9940713,1141139,1141137,1141138,1140911,1141134,1141626,1141627,1141624],"voronoi":{"lat":36.174794,"lng":137.535665,"delta_lat":[0,24871,89912,56138,-11777,-4080,-15866,-22548,-9908,-159148,-14284,-12765,-13980,2871,11289],"delta_lng":[0,-2146,-1377,58678,62182,19214,56574,55935,19733,47469,-15402,-24577,-62647,-115099,-78534]},"impl":true},
    {"code":1141136,"left":1141135,"id":"7abdaf","name":"木曽平沢","name_kana":"きそひらさわ","lat":35.979108,"lng":137.832613,"prefecture":20,"lines":[11411],"attr":"cool","postal_code":"399-6302","address":"塩尻市木曽平沢","next":[1141435,1141135,1141440,1141134,1141137,1141434,1141439,1141441,1141438],"voronoi":{"lat":35.912357,"lng":137.896359,"delta_lat":[0,30694,5567,102713,-160824,-964,10085,8299,3893],"delta_lng":[0,8578,950,-126680,94351,978,11207,8432,1959]},"impl":true},
    {"code":1141135,"id":"436ce4","name":"奈良井","name_kana":"ならい","lat":35.969476,"lng":137.816195,"prefecture":20,"lines":[11411],"attr":"cool","postal_code":"399-6303","address":"塩尻市奈良井","next":[1141134,1141137,1141136,9940714],"voronoi":{"lat":36.08423,"lng":137.634203,"delta_lat":[0,-193723,160824,30028],"delta_lng":[0,239356,-94351,-29906]},"impl":true},
    {"code":9940713,"id":"080d86","name":"渕東","name_kana":"えんどう","lat":36.195325,"lng":137.840313,"prefecture":20,"lines":[99407],"attr":"heat","postal_code":"390-1401","address":"長野県松本市波田4207","next":[9940712,1140910,9940714,1140907,1141139],"voronoi":{"lat":36.122388,"lng":137.851927,"delta_lat":[0,159148,-6348,-3144,-138055],"delta_lng":[0,-47469,16811,3895,43160]},"impl":true},
    {"code":1141139,"left":1141138,"right":1131153,"id":"c07b03","name":"洗馬","name_kana":"せば","lat":36.087164,"lng":137.916842,"prefecture":20,"lines":[11411],"attr":"cool","postal_code":"399-6461","address":"塩尻市大字宗賀","next":[1141138,9940712,1131153,9940714,1131152,1131148,9940713,1141202],"voronoi":{"lat":36.143208,"lng":137.885591,"delta_lat":[0,-9219,-11601,-14284,-55615,24146,3385,53332],"delta_lng":[0,-17267,-16397,-15402,96300,18072,-365,-46615]},"impl":true},
    {"code":1141138,"left":1141137,"id":"97dd37","name":"日出塩","name_kana":"ひでしお","lat":36.049004,"lng":137.894804,"prefecture":20,"lines":[11411],"attr":"cool","postal_code":"399-6461","address":"塩尻市大字宗賀字日出塩","next":[1141139,1131152,1141137,1131151,9940714],"voronoi":{"lat":36.052489,"lng":137.932826,"delta_lat":[0,-23670,-34561,101081,12765],"delta_lng":[0,-647,-15863,-104367,24577]},"impl":true},
    {"code":1141137,"id":"f4a916","name":"贄川","name_kana":"にえかわ","lat":36.014008,"lng":137.86091,"prefecture":20,"lines":[11411],"attr":"cool","postal_code":"399-6301","address":"塩尻市贄川","next":[1141135,1141442,1141441,1141138,9940714,1131151,1141136],"voronoi":{"lat":35.955826,"lng":137.909422,"delta_lat":[0,18600,19833,101081,-13980,-30028,-102713],"delta_lng":[0,6829,65,-104367,-62647,29906,126680]},"impl":true},
    {"code":1131153,"id":"b70254","name":"塩尻","name_kana":"しおじり","lat":36.114364,"lng":137.947961,"prefecture":20,"lines":[11311,11411,11412],"attr":"cool","postal_code":"399-0737","address":"塩尻市大門八番町９-１","next":[1141139,1131148,1141202],"voronoi":{"lat":36.133352,"lng":137.903917,"delta_lat":[0,-53332,49675],"delta_lng":[0,46615,29523]},"impl":true},
    {"code":1140905,"left":9940708,"right":1140904,"id":"ee3563","name":"梓橋","name_kana":"あずさばし","lat":36.250162,"lng":137.918027,"prefecture":20,"lines":[11409],"attr":"heat","postal_code":"399-8204","address":"安曇野市豊科高家","next":[1140906,1141206,1140904,9940707,1140907,9940708,9940706],"voronoi":{"lat":36.235797,"lng":137.910093,"delta_lat":[0,1104,980,29534,7547,-321,-36707],"delta_lng":[0,-7967,-2596,20066,11969,718,-10404]},"impl":true},
    {"code":9940708,"left":9940709,"right":9940707,"id":"a3bffe","name":"新村","name_kana":"にいむら","lat":36.216441,"lng":137.905304,"prefecture":20,"lines":[99407],"attr":"heat","postal_code":"390-1241","address":"松本市大字新村山王５４８","next":[1141202,1140906,1141203,1140905,9940709,9940707],"voronoi":{"lat":36.236901,"lng":137.902127,"delta_lat":[0,980,-193,-66911,668,14073],"delta_lng":[0,-2596,-7102,17305,1032,11717]},"impl":true},
    {"code":9940709,"left":9940710,"id":"c3f153","name":"三溝","name_kana":"さみぞ","lat":36.212863,"lng":137.891469,"prefecture":20,"lines":[99407],"attr":"heat","postal_code":"390-1401","address":"長野県松本市波田三溝1680-2","next":[1141202,9940708,1140906,9940710],"voronoi":{"lat":36.170776,"lng":137.909734,"delta_lat":[0,66911,5799,-75777],"delta_lng":[0,-17305,-21393,35277]},"impl":true},
    {"code":9940710,"id":"f734b7","name":"森口","name_kana":"もりぐち","lat":36.208136,"lng":137.881315,"prefecture":20,"lines":[99407],"attr":"heat","postal_code":"390-1401","address":"長野県松本市波田森口4417-25","next":[9940711,1140906,1141202,9940709],"voronoi":{"lat":36.243486,"lng":137.871036,"delta_lat":[0,1052,-96416,19587],"delta_lng":[0,-2374,20405,17246]},"impl":true},
    {"code":9940707,"id":"485e05","name":"北新・松本大学前","name_kana":"きたにい・まつもとだいがくまえ","lat":36.219816,"lng":137.913823,"prefecture":20,"lines":[99407],"attr":"heat","postal_code":"390-1241","address":"松本市大字新村北新西２０８８","next":[1141215,9940706,1140905,1141203,9940708],"voronoi":{"lat":36.193477,"lng":137.931085,"delta_lat":[0,3987,38333,1104,-51383],"delta_lng":[0,2313,-23304,-7967,20356]},"impl":true},
    {"code":1140904,"left":9940705,"right":1140903,"id":"efe66a","name":"島高松","name_kana":"しまたかまつ","lat":36.246322,"lng":137.931576,"prefecture":20,"lines":[11409],"attr":"heat","postal_code":"399-8251","address":"松本市大字島内","next":[1140905,9940705,9940706,1140903,1141206],"voronoi":{"lat":36.237744,"lng":137.938647,"delta_lat":[0,-3767,3956,36707,-777],"delta_lng":[0,-7465,-9302,10404,4538]},"impl":true},
    {"code":9940705,"left":9940706,"id":"2ece32","name":"大庭","name_kana":"おおにわ","lat":36.226961,"lng":137.941346,"prefecture":20,"lines":[99407],"attr":"cool","postal_code":"390-0852","address":"松本市大字島立字大庭１８６８","next":[1140904,9940706,1141204,1141215,9940704,1140903,9940703],"voronoi":{"lat":36.207378,"lng":137.948784,"delta_lat":[0,-8482,35081,3767,-780,-22581,-6719],"delta_lng":[0,-14182,-3420,7465,4499,5710,96]},"impl":true},
    {"code":9940706,"id":"bd6888","name":"下新","name_kana":"しもにい","lat":36.22513,"lng":137.922564,"prefecture":20,"lines":[99407],"attr":"cool","postal_code":"390-1241","address":"松本市大字新村下新北３２８７","next":[9940705,1140904,9940707,1141215,1140905],"voronoi":{"lat":36.233977,"lng":137.931182,"delta_lat":[0,-35081,-1433,38333,2137],"delta_lng":[0,3420,-1204,-23304,11786]},"impl":true},
    {"code":1140903,"id":"53e280","name":"島内","name_kana":"しまうち","lat":36.246991,"lng":137.944817,"prefecture":20,"lines":[11409],"attr":"heat","postal_code":"390-0851","address":"松本市大字島内青島４５８７","next":[1141206,1140904,9940704,9940705,1140902],"voronoi":{"lat":36.239022,"lng":137.951066,"delta_lat":[0,-2057,780,36119,2599],"delta_lng":[0,-7920,-4499,-1825,37451]},"impl":true},
    {"code":1131148,"left":1131149,"right":1141215,"id":"2d880c","name":"みどり湖","name_kana":"みどりこ","lat":36.094176,"lng":137.981928,"prefecture":20,"lines":[11311],"attr":"cool","postal_code":"399-0724","address":"塩尻市大字上西条","next":[1131149,1131153,1131147,1131152,1141203,1131146,1141215,1141202,1141139],"voronoi":{"lat":36.064176,"lng":138.002862,"delta_lat":[0,4180,55505,34445,-3248,-7797,-17565,-49675,-3385],"delta_lng":[0,6395,32985,7432,-16296,-24081,-29242,-29523,365]},"impl":true},
    {"code":1131149,"left":1131151,"right":1131147,"id":"20528a","name":"川岸","name_kana":"かわぎし","lat":36.03296,"lng":138.021937,"prefecture":20,"lines":[11311],"attr":"cool","postal_code":"394-0045","address":"岡谷市川岸東３-１５-２５","next":[1131152,1131145,1131148,1131144,1131150,1131147,1131151],"voronoi":{"lat":36.031136,"lng":137.993871,"delta_lat":[0,33039,4180,-63023,-23262,-6923,38118],"delta_lng":[0,8991,6395,64851,3367,-2023,-74688]},"impl":true},
    {"code":1131151,"left":1131150,"right":1131152,"id":"0d3610","name":"信濃川島","name_kana":"しなのかわしま","lat":36.013642,"lng":137.97185,"prefecture":20,"lines":[11311],"attr":"cool","postal_code":"399-0400","address":"上伊那郡辰野町川島","next":[1131152,1141138,1141442,1131149,1131150,1141137,1141443],"voronoi":{"lat":35.988684,"lng":137.968633,"delta_lat":[0,-14259,19833,34561,2317,-17871,-19950],"delta_lng":[0,-52382,65,15863,61693,6893,-22849]},"impl":true},
    {"code":1131150,"left":1141443,"id":"d8fd99","name":"辰野","name_kana":"たつの","lat":35.984565,"lng":137.997238,"prefecture":20,"lines":[11311,11414],"attr":"cool","postal_code":"399-0421","address":"上伊那郡辰野町大字辰野","next":[1141441,1131149,1131151,1141440,1141443,1131144],"voronoi":{"lat":35.975147,"lng":138.075453,"delta_lat":[0,38118,-19950,-36967,-10245,-6751],"delta_lng":[0,-74688,-22849,45697,26619,27654]},"impl":true},
    {"code":1141443,"id":"1c4468","name":"宮木","name_kana":"みやき","lat":35.976247,"lng":137.990509,"prefecture":20,"lines":[11414],"attr":"eco","postal_code":"399-0428","address":"上伊那郡辰野町伊那富","next":[1141442,1141441,1131151,1131150],"voronoi":{"lat":35.993316,"lng":137.977915,"delta_lat":[0,-4631,-26724,-5612],"delta_lng":[0,-9283,30840,24140]},"impl":true},
    {"code":1131152,"id":"5b5a62","name":"小野(長野)","original_name":"小野","name_kana":"おの","lat":36.04693,"lng":137.9706,"prefecture":20,"lines":[11311],"attr":"cool","postal_code":"399-0601","address":"上伊那郡辰野町小野","next":[1131149,1131151,1141138,1131148,1141139],"voronoi":{"lat":36.052489,"lng":137.932826,"delta_lat":[0,-23670,2317,33039,12460],"delta_lng":[0,-647,61693,8991,-51965]},"impl":true},
    {"code":1131147,"left":1131144,"right":1131146,"id":"013b67","name":"岡谷","name_kana":"おかや","lat":36.056693,"lng":138.045001,"prefecture":20,"lines":[11311],"attr":"eco","postal_code":"394-0028","address":"岡谷市本町１丁目","next":[1131148,1131145,1131146,1131149],"voronoi":{"lat":36.068355,"lng":138.009258,"delta_lat":[0,55505,-92928,-25600],"delta_lng":[0,32985,35483,-3617]},"impl":true},
    {"code":1131144,"left":1131145,"id":"577bb8","name":"茅野","name_kana":"ちの","lat":35.995062,"lng":138.151674,"prefecture":20,"lines":[11311],"attr":"eco","postal_code":"391-0001","address":"長野県茅野市ちの3506","next":[1141440,1141438,1131143,1131145,1131149,1141439,1140113,1140114,1140110,1131150],"voronoi":{"lat":35.937978,"lng":138.078371,"delta_lat":[0,-35797,-1345,178191,32129,12344,3024,-144454,-6923,-35795],"delta_lng":[0,17828,775,203571,-6644,-4572,-1283,-210571,-2023,2433]},"impl":true},
    {"code":1131145,"id":"5daff9","name":"上諏訪","name_kana":"かみすわ","lat":36.046618,"lng":138.116306,"prefecture":20,"lines":[11311],"attr":"eco","postal_code":"392-0004","address":"諏訪市諏訪１丁目","next":[1131149,9940415,9940411,1131146,1131144,1131147,1140114,9940409,9940308],"voronoi":{"lat":36.175562,"lng":138.258918,"delta_lat":[0,9177,3682,1472,-158960,-25600,-23262,144454,34625],"delta_lng":[0,-28790,-14090,-9889,-128423,-3617,3367,210571,-8312]},"impl":true},
    {"code":1131146,"id":"d2c7a3","name":"下諏訪","name_kana":"しもすわ","lat":36.071948,"lng":138.084953,"prefecture":20,"lines":[11311],"attr":"eco","postal_code":"393-0056","address":"諏訪郡下諏訪町広瀬町","next":[1141204,9940415,1131145,1141215,1131148,1131147],"voronoi":{"lat":36.12386,"lng":138.042243,"delta_lat":[0,34445,8627,47792,-24832,-158960],"delta_lng":[0,7432,8428,57335,90711,-128423]},"impl":true},
    {"code":1141215,"left":9940703,"right":9940702,"id":"2e71b4","name":"平田(長野)","original_name":"平田","name_kana":"ひらた","lat":36.191562,"lng":137.962518,"prefecture":20,"lines":[11412],"attr":"heat","postal_code":"399-0015","address":"松本市平田西１６２番地","next":[9940707,9940705,1131146,9940706,1131148,1141203,1141204],"voronoi":{"lat":36.158306,"lng":138.049675,"delta_lat":[0,-3248,38419,3987,1433,8482,-40446],"delta_lng":[0,-16296,-102294,2313,1204,14182,109319]},"impl":true},
    {"code":9940703,"left":1141203,"right":1140902,"id":"185143","name":"渚(長野)","original_name":"渚","name_kana":"なぎさ","lat":36.227169,"lng":137.956006,"prefecture":20,"lines":[99407],"attr":"eco","postal_code":"390-0841","address":"松本市渚３-９-４２","next":[1141204,9940702,1140901,9940704,1140902,9940705],"voronoi":{"lat":36.216233,"lng":137.959566,"delta_lat":[0,13991,1545,2352,-19738,-6719],"delta_lng":[0,112,-590,-4633,-5599,96]},"impl":true},
    {"code":1141203,"left":1141202,"id":"87cced","name":"村井","name_kana":"むらい","lat":36.174226,"lng":137.956007,"prefecture":20,"lines":[11412],"attr":"heat","postal_code":"399-0036","address":"長野県松本市村井町南一丁目36-14","next":[1131148,9940708,9940707,1141202,1141215],"voronoi":{"lat":36.193477,"lng":137.931085,"delta_lat":[0,-7959,-14073,-24184,7797],"delta_lng":[0,-8602,-11717,98532,24081]},"impl":true},
    {"code":1141202,"id":"57ca50","name":"広丘","name_kana":"ひろおか","lat":36.148032,"lng":137.949578,"prefecture":20,"lines":[11412],"attr":"heat","postal_code":"399-0702","address":"塩尻市大字広丘野村","next":[9940711,9940708,9940709,9940712,1131153,9940710,1141203,1131148,1141139],"voronoi":{"lat":36.143208,"lng":137.885591,"delta_lat":[0,1067,3847,19587,3067,668,-24184,-17565,3657],"delta_lng":[0,599,2876,17246,3421,1032,98532,-29242,-76138]},"impl":true},
    {"code":1140902,"id":"651e1d","name":"北松本","name_kana":"きたまつもと","lat":36.236971,"lng":137.960983,"prefecture":20,"lines":[11409],"attr":"heat","postal_code":"399-0000","address":"松本市白坂１丁目","next":[1141208,9940415,9940703,9940704,1141206,1140901,1140903],"voronoi":{"lat":36.299302,"lng":138.048227,"delta_lat":[0,-4139,-7263,-56130,2352,4900,37441],"delta_lng":[0,13160,4198,-106497,-4633,-3389,23207]},"impl":true},
    {"code":9940702,"left":1141204,"right":1140901,"id":"4e4d13","name":"西松本","name_kana":"にしまつもと","lat":36.227111,"lng":137.963299,"prefecture":20,"lines":[99407],"attr":"eco","postal_code":"390-0816","address":"松本市中条３-１５","next":[9940703,1140901,1141204],"voronoi":{"lat":36.216233,"lng":137.959566,"delta_lat":[0,13991,-6766],"delta_lng":[0,112,19290]},"impl":true},
    {"code":1141204,"id":"da0d10","name":"南松本","name_kana":"みなみまつもと","lat":36.210447,"lng":137.969505,"prefecture":20,"lines":[11412],"attr":"eco","postal_code":"390-0826","address":"松本市出川町","next":[1131146,1140901,9940703,9940705,9940415,9940702,1141215],"voronoi":{"lat":36.214725,"lng":138.115437,"delta_lat":[0,36468,-27734,-7225,-8569,-286,-40446],"delta_lng":[0,-27040,-109430,-19402,-10614,-168,109319]},"impl":true},
    {"code":1140901,"id":"975a5b","name":"松本","name_kana":"まつもと","lat":36.230393,"lng":137.96445,"prefecture":20,"lines":[11409,11412,99407],"attr":"cool","postal_code":"390-0815","address":"松本市深志１丁目","next":[1141204,9940703,9940415,9940702,1140902],"voronoi":{"lat":36.231769,"lng":137.959087,"delta_lat":[0,-1545,-6766,27734,36707],"delta_lng":[0,590,19290,109430,-22813]},"impl":true},
    {"code":1140108,"left":9930634,"right":1131813,"id":"8d7283","name":"佐久海ノ口","name_kana":"さくうみのくち","lat":36.021128,"lng":138.490807,"prefecture":20,"lines":[11401],"attr":"eco","postal_code":"384-1302","address":"南佐久郡南牧村大字海ノ口","next":[1140111,1140109,1140105,1140110,1140107],"voronoi":{"lat":35.986551,"lng":138.4893,"delta_lat":[0,11407,59424,735,2400],"delta_lng":[0,-45910,69323,1442,20247]},"impl":true},
    {"code":9930634,"left":1131133,"right":9930632,"id":"e4dc7c","name":"白久","name_kana":"しろく","lat":35.95895,"lng":138.993263,"prefecture":11,"lines":[99306],"attr":"eco","postal_code":"369-1912","address":"秩父市荒川白久","next":[9930627,9930635,1131525,9930625,9930633,9930628,9930632],"voronoi":{"lat":35.99771,"lng":139.014909,"delta_lat":[0,-153371,-7758,223008,-16159,-3599,-4621],"delta_lng":[0,-27235,-11190,17234,17612,2129,1986]},"impl":true},
    {"code":1131133,"left":1131130,"right":1140107,"id":"f9a842","name":"塩崎","name_kana":"しおざき","lat":35.687734,"lng":138.487521,"prefecture":19,"lines":[11311],"attr":"eco","postal_code":"400-0105","address":"甲斐市下今井","next":[1131135,1140232,1140106,1140226,1131132,1131134,1140227,1131131],"voronoi":{"lat":35.75131,"lng":138.547025,"delta_lat":[0,-121823,-6742,-1732,8,150343,53018,-559],"delta_lng":[0,-72725,-13697,-38312,-72,91364,47797,4045]},"impl":true},
    {"code":1131130,"left":1131131,"right":1131128,"id":"4cc94c","name":"酒折","name_kana":"さかおり","lat":35.659486,"lng":138.598852,"prefecture":19,"lines":[11311],"attr":"eco","postal_code":"400-0804","address":"甲府市酒折町１丁目","next":[1131128,1131131,1131129,1140237,1140236],"voronoi":{"lat":35.644186,"lng":138.593476,"delta_lat":[0,66706,46403,-49508,-91924],"delta_lng":[0,2536,11770,11527,-4845]},"impl":true},
    {"code":1131131,"left":1140237,"right":1131132,"id":"7c4c92","name":"甲府","name_kana":"こうふ","lat":35.667054,"lng":138.569015,"prefecture":19,"lines":[11311,11402],"attr":"eco","postal_code":"400-0031","address":"甲府市丸の内１丁目","next":[1131130,1140106,1140235,1140236,1140238,1131132,1131127,1131128,1140234,1131133,1140237],"voronoi":{"lat":35.757295,"lng":138.607782,"delta_lat":[0,63776,7688,-4935,-72513,-94719,-5191,223,2050,53834,3384],"delta_lng":[0,-4562,-1208,-36587,-18400,-3258,11206,7755,5849,26232,1203]},"impl":true},
    {"code":1140237,"left":1140238,"id":"d3ce29","name":"善光寺","name_kana":"ぜんこうじ","lat":35.65985,"lng":138.589278,"prefecture":19,"lines":[11402],"attr":"cool","postal_code":"400-0801","address":"甲府市善光寺町","next":[1140236,1140238,1131130,1131131],"voronoi":{"lat":35.707507,"lng":138.594809,"delta_lat":[0,-54965,-8357,66706],"delta_lng":[0,-12718,11385,2536]},"impl":true},
    {"code":1140238,"id":"3eba56","name":"金手","name_kana":"かねんて","lat":35.662264,"lng":138.578845,"prefecture":19,"lines":[11402],"attr":"cool","postal_code":"400-0861","address":"甲府市城東１丁目","next":[1140237,1131131,1140236],"voronoi":{"lat":35.707507,"lng":138.594809,"delta_lat":[0,-53834,-1131],"delta_lng":[0,-26232,13514]},"impl":true},
    {"code":1131132,"id":"b11b46","name":"竜王","name_kana":"りゅうおう","lat":35.668764,"lng":138.519298,"prefecture":19,"lines":[11311],"attr":"eco","postal_code":"400-0111","address":"甲斐市竜王新町","next":[1140234,1140233,1140232,1131131,1131133],"voronoi":{"lat":35.629488,"lng":138.474301,"delta_lat":[0,310,13640,13154,94719],"delta_lng":[0,2157,51999,15311,3258]},"impl":true},
    {"code":1131128,"left":1131124,"right":1131127,"id":"b86d62","name":"春日居町","name_kana":"かすがいちょう","lat":35.673491,"lng":138.659,"prefecture":19,"lines":[11311],"attr":"eco","postal_code":"406-0002","address":"笛吹市春日居町別田","next":[1131123,1131130,1131124,1131127,1131131,1131129],"voronoi":{"lat":35.584788,"lng":138.70038,"delta_lat":[0,32394,203888,-63776,-49508,-124134],"delta_lng":[0,270,-97429,4562,11527,80754]},"impl":true},
    {"code":1131124,"left":1131129,"id":"c71dcf","name":"勝沼ぶどう郷","name_kana":"かつぬまぶどうきょう","lat":35.67279,"lng":138.74323,"prefecture":19,"lines":[11311],"attr":"heat","postal_code":"409-1302","address":"甲州市勝沼町菱山","next":[1131127,1131126,1131125,1131128,1131123],"voronoi":{"lat":35.584788,"lng":138.70038,"delta_lat":[0,32394,39163,28819,21342],"delta_lng":[0,270,7914,15428,82335]},"impl":true},
    {"code":1131129,"id":"c2e95b","name":"石和温泉","name_kana":"いさわおんせん","lat":35.657603,"lng":138.634577,"prefecture":19,"lines":[11311],"attr":"eco","postal_code":"406-0021","address":"笛吹市石和町松本","next":[1140230,1131130,1140235,9940118,1140236,1131123,1131128],"voronoi":{"lat":35.707787,"lng":138.61931,"delta_lat":[0,-91924,-26397,-55640,-5278,47147,7958],"delta_lng":[0,-4845,6499,18083,4071,55959,987]},"impl":true},
    {"code":1131127,"id":"9f7166","name":"山梨市","name_kana":"やまなしし","lat":35.684961,"lng":138.683003,"prefecture":19,"lines":[11311],"attr":"eco","postal_code":"405-0018","address":"山梨市上神内川","next":[1131124,1131128,1131126,1131131,1140106],"voronoi":{"lat":35.828759,"lng":138.602012,"delta_lat":[0,-7688,-203888,39163,183551],"delta_lng":[0,1208,97429,7914,-85730]},"impl":true},
    {"code":1140107,"left":1140104,"right":9930635,"id":"c64398","name":"佐久広瀬","name_kana":"さくひろせ","lat":36.003724,"lng":138.519349,"prefecture":20,"lines":[11401],"attr":"eco","postal_code":"384-1303","address":"南佐久郡南牧村大字広瀬","next":[9932720,1140105,1140106,1140112,1140111,1140108],"voronoi":{"lat":36.07514,"lng":138.568376,"delta_lat":[0,29463,-62900,-60126,4973,73966],"delta_lng":[0,86574,48647,-208932,-5365,45102]},"impl":true},
    {"code":1140104,"left":1131134,"right":1140105,"id":"77fc3e","name":"清里","name_kana":"きよさと","lat":35.919093,"lng":138.436589,"prefecture":19,"lines":[11401],"attr":"eco","postal_code":"407-0301","address":"北杜市高根町清里","next":[1131137,1140102,1140106,1131135,1140103,1140109,1140105],"voronoi":{"lat":35.997475,"lng":138.397882,"delta_lat":[0,17963,-19624,-164780,-4358,-1098,11781],"delta_lng":[0,-59404,10058,139342,13243,57222,-7379]},"impl":true},
    {"code":1131134,"left":1131135,"id":"df27f2","name":"韮崎","name_kana":"にらさき","lat":35.709711,"lng":138.451357,"prefecture":19,"lines":[11311],"attr":"eco","postal_code":"407-0015","address":"韮崎市若宮１丁目","next":[1131136,1140226,1131135,1131133],"voronoi":{"lat":35.621021,"lng":138.42222,"delta_lat":[0,-14692,70956,94079],"delta_lng":[0,-126443,78259,139548]},"impl":true},
    {"code":1131135,"id":"5cbcac","name":"新府","name_kana":"しんぷ","lat":35.736802,"lng":138.433093,"prefecture":19,"lines":[11311],"attr":"eco","postal_code":"407-0262","address":"韮崎市中田町中條","next":[1131133,1140106,1131134,1140104,1131137,1131136],"voronoi":{"lat":35.677285,"lng":138.374036,"delta_lat":[0,94079,53018,1196,1098,-25153],"delta_lng":[0,139548,47797,-3037,-57222,-34929]},"impl":true},
    {"code":1140105,"id":"e58a52","name":"野辺山","name_kana":"のべやま","lat":35.955289,"lng":138.474448,"prefecture":20,"lines":[11401],"attr":"eco","postal_code":"384-1305","address":"南佐久郡南牧村野辺山","next":[1140109,1140106,1140107,1140104,1140108],"voronoi":{"lat":35.981577,"lng":138.494665,"delta_lat":[0,-144218,160116,482,-11407],"delta_lng":[0,56300,-153082,45507,45910]},"impl":true},
    {"code":9930635,"left":1131125,"right":1140106,"id":"c98323","name":"三峰口","name_kana":"みつみねぐち","lat":35.960075,"lng":138.978706,"prefecture":11,"lines":[99306],"attr":"eco","postal_code":"369-1912","address":"秩父市荒川白久","next":[9930634,9930625,9932711,9932720,1140106,9932717,9932710,1131120,1131125,1131525],"voronoi":{"lat":36.059589,"lng":138.993719,"delta_lat":[0,47026,-1029,-4581,-9284,-105382,-53153,-140038,-2113,45546],"delta_lng":[0,-44318,-11301,-27557,-19449,-137424,-1868,146261,20372,58050]},"impl":true},
    {"code":1131125,"left":1131126,"id":"643750","name":"塩山","name_kana":"えんざん","lat":35.705327,"lng":138.734796,"prefecture":19,"lines":[11311],"attr":"heat","postal_code":"404-0042","address":"甲州市塩山上於曽","next":[1131123,1140106,1131120,1131124,9930635,1131126],"voronoi":{"lat":35.706507,"lng":138.806326,"delta_lat":[0,55269,31372,140038,-68918,-179103],"delta_lng":[0,77839,13897,-146261,-89901,62091]},"impl":true},
    {"code":1131126,"id":"b99c4c","name":"東山梨","name_kana":"ひがしやまなし","lat":35.694313,"lng":138.703026,"prefecture":19,"lines":[11311],"attr":"eco","postal_code":"405-0011","address":"山梨市三ケ所","next":[1131124,1140106,1131127,1131125],"voronoi":{"lat":35.864267,"lng":138.661901,"delta_lat":[0,-24371,-183551,28819],"delta_lng":[0,-39067,85730,15428]},"impl":true},
    {"code":1140106,"id":"937971","name":"信濃川上","name_kana":"しなのかわかみ","lat":35.975939,"lng":138.527345,"prefecture":20,"lines":[11401],"attr":"eco","postal_code":"384-1407","address":"南佐久郡川上村大字御所平","next":[1131125,1131135,1140105,1131131,1140104,1131133,9930635,1131126,1140107,1131127,9932720],"voronoi":{"lat":36.041704,"lng":138.703597,"delta_lat":[0,-60126,-144218,-11781,-1196,-559,4935,11138,24371,68918,53153],"delta_lng":[0,-208932,56300,7379,3037,4045,36587,20821,39067,89901,1868]},"impl":true},
    {"code":9930632,"left":1131522,"right":9930628,"id":"a9074b","name":"武州中川","name_kana":"ぶしゅうなかがわ","lat":35.958347,"lng":139.035439,"prefecture":11,"lines":[99306],"attr":"eco","postal_code":"369-1802","address":"秩父市荒川上田野","next":[9930628,9930630,9930631,1131525,9930629,9930634,9930633],"voronoi":{"lat":35.99771,"lng":139.014909,"delta_lat":[0,37500,-19331,-4,-14370,-117813,-4798],"delta_lng":[0,536,15465,3,5956,28941,-11620]},"impl":true},
    {"code":1131522,"left":1131523,"right":1131521,"id":"5f0fad","name":"古里(東京)","original_name":"古里","name_kana":"こり","lat":35.816247,"lng":139.152102,"prefecture":13,"lines":[11315],"attr":"eco","postal_code":"198-0105","address":"西多摩郡奥多摩町小丹波","next":[1131523,1131520,2200208,1131521,2200207],"voronoi":{"lat":35.878276,"lng":139.162702,"delta_lat":[0,6147,-125271,11858,103643],"delta_lng":[0,-25508,6055,5749,21684]},"impl":true},
    {"code":1131523,"left":1131524,"right":9930633,"id":"9951bc","name":"鳩ノ巣","name_kana":"はとのす","lat":35.815127,"lng":139.128932,"prefecture":13,"lines":[11315],"attr":"eco","postal_code":"198-0106","address":"西多摩郡奥多摩町棚沢","next":[1131520,1131522,2200208,9930631,1131524],"voronoi":{"lat":35.759152,"lng":139.14325,"delta_lat":[0,125271,12237,-2858,-151333],"delta_lng":[0,-6055,-28666,-6006,36480]},"impl":true},
    {"code":1131524,"left":1131525,"id":"cea7dc","name":"白丸","name_kana":"しろまる","lat":35.811735,"lng":139.114861,"prefecture":13,"lines":[11315],"attr":"eco","postal_code":"198-0107","address":"西多摩郡奥多摩町白丸","next":[9930631,1131525,1131520,1131115,1131607,1131523],"voronoi":{"lat":35.721201,"lng":139.135779,"delta_lat":[0,-5882,-63,175820,2725,-151333],"delta_lng":[0,-4131,-13078,-23358,7310,36480]},"impl":true},
    {"code":1131525,"id":"0a9e51","name":"奥多摩","name_kana":"おくたま","lat":35.809357,"lng":139.096961,"prefecture":13,"lines":[11315],"attr":"eco","postal_code":"198-0212","address":"西多摩郡奥多摩町氷川","next":[9930633,1131524,1131120,1131115,9930631,9930634,9930632,1131118,1131116,9930635,1131119],"voronoi":{"lat":35.760298,"lng":138.957521,"delta_lat":[0,30736,45546,7758,34555,4798,7385,-175820,-3389,6981,12158],"delta_lng":[0,-39087,58050,11190,66516,11620,29402,23358,-34311,-55841,-26136]},"impl":true},
    {"code":9930633,"id":"1b6db9","name":"武州日野","name_kana":"ぶしゅうひの","lat":35.953867,"lng":139.021888,"prefecture":11,"lines":[99306],"attr":"eco","postal_code":"369-1803","address":"秩父市荒川日野","next":[1131525,9930634,9930632],"voronoi":{"lat":35.99771,"lng":139.014909,"delta_lat":[0,-153371,34555],"delta_lng":[0,-27235,66516]},"impl":true},
    {"code":1131521,"left":1131519,"right":2200208,"id":"4abd9d","name":"川井","name_kana":"かわい","lat":35.813697,"lng":139.16429,"prefecture":13,"lines":[11315],"attr":"eco","postal_code":"198-0102","address":"西多摩郡奥多摩町川井","next":[1131519,2200207,2200130,1131522,1131520],"voronoi":{"lat":35.862798,"lng":139.192962,"delta_lat":[0,8904,2950,-103643,48465],"delta_lng":[0,-13507,-8772,-21684,32388]},"impl":true},
    {"code":1131519,"left":1131520,"id":"81430b","name":"沢井","name_kana":"さわい","lat":35.80594,"lng":139.193324,"prefecture":13,"lines":[11315],"attr":"cool","postal_code":"198-0172","address":"青梅市沢井２丁目","next":[1131521,1131517,1131520,1131518,2200130,1131515],"voronoi":{"lat":35.774038,"lng":139.200315,"delta_lat":[0,45436,43324,-567,-79392,-4367],"delta_lng":[0,-18928,11575,1736,8115,-381]},"impl":true},
    {"code":1131520,"id":"6cbb5c","name":"御嶽","name_kana":"みたけ","lat":35.801468,"lng":139.182589,"prefecture":13,"lines":[11315],"attr":"eco","postal_code":"198-0173","address":"青梅市御岳本町","next":[1131523,1131522,1131515,1131519,1131524,1131607,1131608,1131521],"voronoi":{"lat":35.774038,"lng":139.200315,"delta_lat":[0,-3740,-33105,-15992,21267,16683,11858,48465],"delta_lng":[0,-1020,-39159,-24356,3223,4247,5749,32388]},"impl":true},
    {"code":2200208,"id":"41c169","name":"正丸","name_kana":"しょうまる","lat":35.938324,"lng":139.181521,"prefecture":11,"lines":[22002],"attr":"cool","postal_code":"357-0218","address":"飯能市坂元１６５８","next":[1131804,1131523,1131805,9930631,1131522,1131806,2200209,2200207],"voronoi":{"lat":35.878276,"lng":139.162702,"delta_lat":[0,6147,12237,1134,110600,-3539,-3267,-10935],"delta_lng":[0,-25508,-28666,235,92730,10021,4999,6624]},"impl":true},
    {"code":9930628,"left":2200212,"right":2200210,"id":"1e36b1","name":"秩父","name_kana":"ちちぶ","lat":35.99883,"lng":139.086044,"prefecture":11,"lines":[99306],"attr":"eco","postal_code":"368-0046","address":"秩父市宮側町","next":[9930632,9930629,9930627,2200210,9930634],"voronoi":{"lat":36.015878,"lng":139.03091,"delta_lat":[0,-23170,10286,36836,-4621],"delta_lng":[0,61606,11604,-90661,1986]},"impl":true},
    {"code":2200212,"left":9930630,"right":9930629,"id":"7ffc58","name":"西武秩父","name_kana":"せいぶちちぶ","lat":35.990061,"lng":139.083548,"prefecture":11,"lines":[22002],"attr":"eco","postal_code":"368-0033","address":"秩父市野坂町１-１６-１５","next":[9930629,2200210,9930630],"voronoi":{"lat":35.991799,"lng":139.063149,"delta_lat":[0,-816,-18273],"delta_lng":[0,28539,-5779]},"impl":true},
    {"code":9930630,"left":9930631,"id":"d78e78","name":"影森","name_kana":"かげもり","lat":35.972015,"lng":139.068413,"prefecture":11,"lines":[99306],"attr":"eco","postal_code":"369-1872","address":"秩父市大字上影森","next":[2200209,9930629,2200210,9930631,9930632,2200212],"voronoi":{"lat":35.931086,"lng":139.105066,"delta_lat":[0,-17692,88111,14370,-24075,-19089],"delta_lng":[0,1176,-69373,-5956,32236,22760]},"impl":true},
    {"code":9930631,"id":"1b199c","name":"浦山口","name_kana":"うらやまぐち","lat":35.963922,"lng":139.058134,"prefecture":11,"lines":[99306],"attr":"eco","postal_code":"369-1801","address":"秩父市荒川久那","next":[1131524,2200209,1131525,1131523,9930630,9930632,2200208],"voronoi":{"lat":35.913394,"lng":139.106242,"delta_lat":[0,88111,-117813,7385,2725,2858,1134],"delta_lng":[0,-69373,28941,29402,7310,6006,235]},"impl":true},
    {"code":9930629,"id":"498a83","name":"御花畑","name_kana":"おはなばたけ","lat":35.992369,"lng":139.083614,"prefecture":11,"lines":[99306],"attr":"eco","postal_code":"368-0042","address":"秩父市東町","next":[9930628,2200210,9930630,9930632,2200212],"voronoi":{"lat":35.991799,"lng":139.063149,"delta_lat":[0,24075,4,-23170,-1725],"delta_lng":[0,-32236,-3,61606,-828]},"impl":true},
    {"code":2200210,"left":2200209,"right":9930627,"id":"1b819a","name":"横瀬","name_kana":"よこぜ","lat":35.985548,"lng":139.097818,"prefecture":11,"lines":[22002],"attr":"heat","postal_code":"368-0072","address":"秩父郡横瀬町横瀬４０６７","next":[9930629,9930630,9930628,2200212,9930627,2200209],"voronoi":{"lat":35.931086,"lng":139.105066,"delta_lat":[0,41625,18273,1725,10286,2096],"delta_lng":[0,-19157,5779,828,11604,18481]},"impl":true},
    {"code":2200209,"id":"2e3db4","name":"芦ヶ久保","name_kana":"あしがくぼ","lat":35.976505,"lng":139.135982,"prefecture":11,"lines":[22002],"attr":"heat","postal_code":"368-0071","address":"埼玉県秩父郡横瀬町芦ヶ久保","next":[1131807,9930626,9930630,9930631,1131806,9930627,2200208,2200210],"voronoi":{"lat":36.021488,"lng":139.139066,"delta_lat":[0,13938,-5631,-21401,-110600,15600,17692,74005],"delta_lng":[0,28500,11390,22538,-92730,-2521,-1176,17535]},"impl":true},
    {"code":9930627,"id":"dfbb61","name":"大野原","name_kana":"おおのはら","lat":36.018586,"lng":139.094071,"prefecture":11,"lines":[99306],"attr":"eco","postal_code":"368-0005","address":"秩父市大字大野原","next":[9930634,9930625,9930628,9930626,2200209,2200210],"voronoi":{"lat":36.021488,"lng":139.139066,"delta_lat":[0,22056,-114,-3599,-36836,2096],"delta_lng":[0,-81559,-46176,2129,90661,18481]},"impl":true},
    {"code":1131813,"left":1140118,"right":9930619,"id":"b3e778","name":"群馬藤岡","name_kana":"ぐんまふじおか","lat":36.250336,"lng":139.08338,"prefecture":10,"lines":[11318],"attr":"eco","postal_code":"375-0024","address":"藤岡市藤岡","next":[1132322,1131814,9932707,9932705,1131812,9932706],"voronoi":{"lat":36.264712,"lng":139.06119,"delta_lat":[0,2250,-22599,-41456,14995,37765],"delta_lng":[0,27790,23183,-73747,2246,15084]},"impl":true},
    {"code":1140118,"left":1140111,"right":9932720,"id":"9d4d9d","name":"臼田","name_kana":"うすだ","lat":36.194013,"lng":138.488309,"prefecture":20,"lines":[11401],"attr":"cool","postal_code":"384-0414","address":"佐久市下越","next":[1140117,1140122,1140115,1140114,1140121,1140119],"voronoi":{"lat":36.206278,"lng":138.459069,"delta_lat":[0,-15180,-7417,-2353,-310,9190],"delta_lng":[0,-62296,-24920,13035,4905,137407]},"impl":true},
    {"code":1140111,"left":1140113,"right":1140116,"id":"fb3e1c","name":"小海","name_kana":"こうみ","lat":36.08862,"lng":138.482806,"prefecture":20,"lines":[11401],"attr":"heat","postal_code":"384-1102","address":"南佐久郡小海町大字小海","next":[1140108,1140110,1140112,1140107,1140113],"voronoi":{"lat":36.093264,"lng":138.435196,"delta_lat":[0,-35147,2400,14624,24340],"delta_lng":[0,78958,20247,33974,-101803]},"impl":true},
    {"code":1140113,"left":1140109,"right":1140114,"id":"9addc1","name":"高岩(長野)","original_name":"高岩","name_kana":"たかいわ","lat":36.115711,"lng":138.477438,"prefecture":20,"lines":[11401],"attr":"heat","postal_code":"384-0702","address":"南佐久郡佐久穂町穂積","next":[1140112,1140110,1140114,1131144,1140111],"voronoi":{"lat":36.124656,"lng":138.507582,"delta_lat":[0,-1155,-12344,-17893,6217],"delta_lng":[0,-218253,4572,141295,31376]},"impl":true},
    {"code":1140109,"left":1140110,"id":"96554b","name":"海尻","name_kana":"うみじり","lat":36.041276,"lng":138.473536,"prefecture":20,"lines":[11401],"attr":"heat","postal_code":"384-1301","address":"南佐久郡南牧村大字海尻","next":[1140105,1140110,1140102,1131141,1140108,1140104],"voronoi":{"lat":35.997958,"lng":138.44339,"delta_lat":[0,59424,-28477,-8981,-4485,-17963],"delta_lng":[0,69323,-185514,4924,6356,59404]},"impl":true},
    {"code":1140110,"id":"d9294b","name":"松原湖","name_kana":"まつばらこ","lat":36.060995,"lng":138.470509,"prefecture":20,"lines":[11401],"attr":"heat","postal_code":"384-1103","address":"南佐久郡小海町大字豊里","next":[1131143,1140109,1140113,1140111,1131141,1131142,1131144,1140108],"voronoi":{"lat":36.093264,"lng":138.435196,"delta_lat":[0,17893,-32129,-21441,-7500,-21182,28477,735],"delta_lng":[0,-141295,6644,9303,3789,13561,185514,1442]},"impl":true},
    {"code":1140114,"id":"e44d91","name":"八千穂","name_kana":"やちほ","lat":36.133281,"lng":138.477345,"prefecture":20,"lines":[11401],"attr":"cool","postal_code":"384-0702","address":"南佐久郡佐久穂町穂積","next":[9940308,1140113,1131145,1140122,9940307,1131144,1140118,1140115,1140112],"voronoi":{"lat":36.124656,"lng":138.507582,"delta_lat":[0,-1155,3024,34625,1487,19859,1186,-2353,-52498],"delta_lng":[0,-218253,-1283,-8312,2223,36525,53370,13035,137934]},"impl":true},
    {"code":1140116,"left":1140112,"right":1140117,"id":"fa2394","name":"羽黒下","name_kana":"はぐろした","lat":36.166411,"lng":138.489618,"prefecture":20,"lines":[11401],"attr":"cool","postal_code":"384-0611","address":"南佐久郡佐久穂町平林","next":[9932720,1140117,1140112,1140115],"voronoi":{"lat":36.172757,"lng":138.454296,"delta_lat":[0,5692,-53373,3827],"delta_lng":[0,185336,7919,-67630]},"impl":true},
    {"code":1140112,"left":1140115,"id":"03978d","name":"馬流","name_kana":"まながし","lat":36.101824,"lng":138.485963,"prefecture":20,"lines":[11401],"attr":"heat","postal_code":"384-1101","address":"南佐久郡小海町大字東馬流","next":[1140115,1140113,1140111,1140107,9932720,1140116,1140114],"voronoi":{"lat":36.128904,"lng":138.579921,"delta_lat":[0,-3827,-20473,-29463,24340,25175,4175],"delta_lng":[0,67630,7398,-86574,-101803,41010,15239]},"impl":true},
    {"code":1140115,"id":"a03a2e","name":"海瀬","name_kana":"かいぜ","lat":36.155743,"lng":138.485894,"prefecture":20,"lines":[11401],"attr":"cool","postal_code":"384-0503","address":"南佐久郡佐久穂町海瀬","next":[1140112,1140117,1140116,1140118,1140114],"voronoi":{"lat":36.128904,"lng":138.579921,"delta_lat":[0,43854,8261,310,-52498],"delta_lng":[0,-125625,-64504,-4905,137934]},"impl":true},
    {"code":1140117,"id":"e4767d","name":"青沼","name_kana":"あおぬま","lat":36.181259,"lng":138.489162,"prefecture":20,"lines":[11401],"attr":"cool","postal_code":"384-0621","address":"佐久市入沢","next":[1140118,1140116,1140119,9932720,1140115],"voronoi":{"lat":36.181019,"lng":138.389793,"delta_lat":[0,9190,-7554,-4205,-5692],"delta_lng":[0,137407,112020,413,-185336]},"impl":true},
    {"code":9932720,"left":1140121,"right":9932717,"id":"aa912e","name":"下仁田","name_kana":"しもにた","lat":36.210484,"lng":138.786681,"prefecture":10,"lines":[99327],"attr":"cool","postal_code":"370-2601","address":"甘楽郡下仁田町下仁田甲３７４-４","next":[1140107,9932717,9932719,9932718,9930635,100903,1140116,1140117,1140112,1140119,1140106,1133708],"voronoi":{"lat":36.241256,"lng":138.679941,"delta_lat":[0,-46906,-11696,-4205,-53373,-20473,-62900,-55365,105382,97403,12128,58499],"delta_lng":[0,-40971,249,413,7919,7398,48647,50073,137424,-54782,-12405,-96349]},"impl":true},
    {"code":1140121,"left":1140119,"right":1140122,"id":"347b57","name":"中込","name_kana":"なかごみ","lat":36.23062,"lng":138.479389,"prefecture":20,"lines":[11401],"attr":"cool","postal_code":"385-0051","address":"佐久市大字中込","next":[1140123,1140119,1140122,1140120,1140118],"voronoi":{"lat":36.191099,"lng":138.396772,"delta_lat":[0,53673,1487,-39077,-903],"delta_lng":[0,99074,13246,-47914,-2110]},"impl":true},
    {"code":1140119,"left":1140120,"id":"07fc88","name":"龍岡城","name_kana":"たつおかじょう","lat":36.204184,"lng":138.490708,"prefecture":20,"lines":[11401],"attr":"cool","postal_code":"384-0412","address":"佐久市田口","next":[1140120,100903,9940303,1140121,1140117,9932720,1140118],"voronoi":{"lat":36.206278,"lng":138.459069,"delta_lat":[0,903,24703,-4899,-32635,-11696,7554],"delta_lng":[0,2110,136961,9482,31349,249,-112020]},"impl":true},
    {"code":1140120,"id":"20bc63","name":"太田部","name_kana":"おおたべ","lat":36.220307,"lng":138.4878,"prefecture":20,"lines":[11401],"attr":"cool","postal_code":"385-0033","address":"佐久市大字太田部","next":[1140119,9940304,1140123,9940303,1140121],"voronoi":{"lat":36.207182,"lng":138.461179,"delta_lat":[0,24703,27149,608,-13383],"delta_lng":[0,136961,-44198,-3261,-41588]},"impl":true},
    {"code":1140122,"id":"a559b5","name":"滑津","name_kana":"なめづ","lat":36.238716,"lng":138.475003,"prefecture":20,"lines":[11401],"attr":"cool","postal_code":"385-0051","address":"佐久市大字中込","next":[9940307,1140118,1140126,1140123,1140114,1140121],"voronoi":{"lat":36.191099,"lng":138.396772,"delta_lat":[0,-7417,-1186,5832,61646,-5202],"delta_lng":[0,-24920,-53370,5435,121085,50844]},"impl":true},
    {"code":9932717,"left":9932718,"right":9932716,"id":"8d1b37","name":"神農原","name_kana":"かのはら","lat":36.242629,"lng":138.843835,"prefecture":10,"lines":[99327],"attr":"cool","postal_code":"370-2455","address":"富岡市神農原６４７-２","next":[9932716,9932718,9932711,9932720,9930635,1133705],"voronoi":{"lat":36.155566,"lng":138.90176,"delta_lat":[0,-54562,-9284,97403,83749,-1849],"delta_lng":[0,8782,-19449,-54782,-12198,17737]},"impl":true},
    {"code":9932718,"left":9932719,"id":"a75f8c","name":"南蛇井","name_kana":"なんじゃい","lat":36.23826,"lng":138.813838,"prefecture":10,"lines":[99327],"attr":"cool","postal_code":"370-2464","address":"富岡市南蛇井４９６-２","next":[9932717,1133705,9932720,1133706,9932719],"voronoi":{"lat":36.26947,"lng":138.78716,"delta_lat":[0,7026,-3623,-83749,12128],"delta_lng":[0,30871,6083,12198,-12405]},"impl":true},
    {"code":9932719,"id":"64d335","name":"千平","name_kana":"せんだいら","lat":36.230021,"lng":138.798543,"prefecture":10,"lines":[99327],"attr":"cool","postal_code":"370-2464","address":"富岡市南蛇井乙２０３８","next":[1133708,9932720,1133707,9932718,1133706],"voronoi":{"lat":36.201252,"lng":138.823907,"delta_lat":[0,58499,5694,3791,234],"delta_lng":[0,-96349,9956,27480,22166]},"impl":true},
    {"code":9932716,"id":"2cc552","name":"上州一ノ宮","name_kana":"じょうしゅういちのみや","lat":36.253053,"lng":138.863924,"prefecture":10,"lines":[99327],"attr":"eco","postal_code":"370-2452","address":"富岡市一ノ宮２２６-２","next":[9932717,9932712,9932715,9932713,9932711,9932714,1133705],"voronoi":{"lat":36.271023,"lng":138.841851,"delta_lat":[0,-115457,12228,5737,42552,10556,49608],"delta_lng":[0,59910,-627,-1173,-11285,-3990,-26239]},"impl":true},
    {"code":9930619,"left":9930622,"right":100505,"id":"3517c5","name":"波久礼","name_kana":"はぐれ","lat":36.126728,"lng":139.158078,"prefecture":11,"lines":[99306],"attr":"heat","postal_code":"369-1300","address":"秩父郡長瀞町大字末野","next":[9930620,1131807,1131811,9930622,9930623,1131808,9930621,1131810,1131809],"voronoi":{"lat":36.106139,"lng":139.172238,"delta_lat":[0,-21079,8860,12086,2974,49616,1948,-13240,-8214],"delta_lng":[0,-17278,-8006,-8262,-955,6017,5767,25441,5221]},"impl":true},
    {"code":9930622,"left":9930624,"right":2100138,"id":"aced59","name":"長瀞","name_kana":"ながとろ","lat":36.095462,"lng":139.112346,"prefecture":11,"lines":[99306],"attr":"heat","postal_code":"369-1305","address":"秩父郡長瀞町大字長瀞","next":[9930625,9930623,9930624,9930621,9930619],"voronoi":{"lat":36.106006,"lng":139.138691,"delta_lat":[0,-5707,-4951,-5681,4253],"delta_lng":[0,-62075,7205,16310,46822]},"impl":true},
    {"code":9930624,"left":9930626,"right":9930621,"id":"ae1be5","name":"親鼻","name_kana":"おやはな","lat":36.077539,"lng":139.106103,"prefecture":11,"lines":[99306],"attr":"heat","postal_code":"369-1412","address":"秩父郡皆野町大字皆野","next":[9930622,9930623,9930625,9930626],"voronoi":{"lat":36.061437,"lng":139.10853,"delta_lat":[0,33911,-5681,-32757],"delta_lng":[0,-24709,16310,39889]},"impl":true},
    {"code":9930626,"left":9930625,"id":"f0dbdb","name":"和銅黒谷","name_kana":"わどうくろや","lat":36.046671,"lng":139.101666,"prefecture":11,"lines":[99306],"attr":"heat","postal_code":"368-0001","address":"秩父市大字黒谷","next":[9930623,2200209,1131807,9930627,9930624,9930625],"voronoi":{"lat":36.056911,"lng":139.14002,"delta_lat":[0,-5573,-15912,-13938,22056,17894],"delta_lng":[0,19103,8442,-28500,-81559,51024]},"impl":true},
    {"code":9930625,"id":"ef092f","name":"皆野","name_kana":"みなの","lat":36.068682,"lng":139.093947,"prefecture":11,"lines":[99306],"attr":"heat","postal_code":"369-1400","address":"秩父郡皆野町原","next":[9930622,9932709,9930627,9930624,9930635,9930621,9932708,9930634,9930626,9932710],"voronoi":{"lat":36.126095,"lng":138.977151,"delta_lat":[0,8026,-33821,-4951,-33911,-17894,-114,16159,47026,4975],"delta_lng":[0,13727,85738,7205,24709,-51024,-46176,-17612,-44318,6556]},"impl":true},
    {"code":9930621,"id":"59ca89","name":"野上","name_kana":"のがみ","lat":36.11157,"lng":139.110865,"prefecture":11,"lines":[99306],"attr":"heat","postal_code":"369-1304","address":"秩父郡長瀞町大字本野上","next":[9930622,9930620,1131812,9930619,9930625,9932708],"voronoi":{"lat":36.13412,"lng":138.990879,"delta_lat":[0,-33821,5707,2974,50600,-2774],"delta_lng":[0,85738,62075,-955,-86877,-34061]},"impl":true},
    {"code":2100138,"left":1131807,"right":1131808,"id":"3ed65f","name":"玉淀","name_kana":"たまよど","lat":36.117071,"lng":139.200052,"prefecture":11,"lines":[21001],"attr":"cool","postal_code":"369-1203","address":"大里郡寄居町大字寄居８３０-１","next":[1131807,2100137,1131808,9930617],"voronoi":{"lat":36.125877,"lng":139.198485,"delta_lat":[0,-18688,-1228,15120],"delta_lng":[0,-3021,5263,5788]},"impl":true},
    {"code":1131807,"left":9930623,"id":"6720da","name":"折原","name_kana":"おりはら","lat":36.096296,"lng":139.195205,"prefecture":11,"lines":[11318],"attr":"cool","postal_code":"369-1225","address":"大里郡寄居町大字西ノ入","next":[2100138,2200209,9930619,1131806,1131808,9930626,9930623,2100135,2100137],"voronoi":{"lat":36.090603,"lng":139.215409,"delta_lat":[0,-60808,5631,15912,33723,21079,1049,-1228,-11648],"delta_lng":[0,-36454,-11390,-8442,-4164,17278,23227,5263,15148]},"impl":true},
    {"code":9930623,"id":"6e12a3","name":"上長瀞","name_kana":"かみながとろ","lat":36.086169,"lng":139.11319,"prefecture":11,"lines":[99306],"attr":"heat","postal_code":"369-1305","address":"秩父郡長瀞町大字長瀞","next":[9930626,9930622,9930624,9930619,1131807],"voronoi":{"lat":36.08506,"lng":139.15496,"delta_lat":[0,8860,-4253,-32757,-5573],"delta_lng":[0,-8006,-46822,39889,19103]},"impl":true},
    {"code":1131808,"id":"9ee4b4","name":"寄居","name_kana":"よりい","lat":36.118013,"lng":139.194224,"prefecture":11,"lines":[11318,21001,99306],"attr":"cool","postal_code":"369-1203","address":"大里郡寄居町大字寄居","next":[1131809,2100138,1131807,9930619,9930617],"voronoi":{"lat":36.107188,"lng":139.195465,"delta_lat":[0,-1049,32951,-1561,-11653],"delta_lng":[0,-23227,7945,8567,9736]},"impl":true},
    {"code":100505,"left":1131812,"right":1131810,"id":"a3cd04","name":"本庄早稲田","name_kana":"ほんじょうわせだ","lat":36.218802,"lng":139.179499,"prefecture":11,"lines":[1005],"attr":"eco","postal_code":"367-0031","address":"埼玉県本庄市北堀","next":[1131810,1132321,1131811,1132320,1132319],"voronoi":{"lat":36.236955,"lng":139.165206,"delta_lat":[0,-15042,-26998,2351,17506],"delta_lng":[0,-17255,16181,41043,3963]},"impl":true},
    {"code":1131812,"left":1131811,"right":1132321,"id":"746aed","name":"丹荘","name_kana":"たんしょう","lat":36.216668,"lng":139.102306,"prefecture":11,"lines":[11318],"attr":"eco","postal_code":"367-0245","address":"児玉郡神川町大字植竹","next":[1132321,1131811,9930621,9930620,1132322,1131813,9932707,9932708],"voronoi":{"lat":36.202907,"lng":139.038416,"delta_lat":[0,41456,-369,-18958,-55433,-10022,-2774,3888],"delta_lng":[0,73747,6592,14935,-39769,-43062,-34061,1298]},"impl":true},
    {"code":1131811,"left":9930620,"id":"e66747","name":"児玉","name_kana":"こだま","lat":36.192624,"lng":139.13582,"prefecture":11,"lines":[11318],"attr":"eco","postal_code":"367-0212","address":"本庄市児玉町児玉","next":[9930619,1131812,100505,9930620,1131810,1132321],"voronoi":{"lat":36.225035,"lng":139.133691,"delta_lat":[0,-55433,-11006,1948,34370,26998],"delta_lng":[0,-39769,49832,5767,14611,-16181]},"impl":true},
    {"code":9930620,"id":"44ccd7","name":"樋口","name_kana":"ひぐち","lat":36.131076,"lng":139.122226,"prefecture":11,"lines":[99306],"attr":"heat","postal_code":"369-1302","address":"秩父郡長瀞町野上下郷","next":[9930619,9930621,1131811,1131812],"voronoi":{"lat":36.159581,"lng":139.05086,"delta_lat":[0,-50600,49616,11006],"delta_lng":[0,86877,6017,-49832]},"impl":true},
    {"code":1132321,"id":"43b551","name":"神保原","name_kana":"じんぼはら","lat":36.25359,"lng":139.149172,"prefecture":11,"lines":[11323],"attr":"eco","postal_code":"369-0305","address":"児玉郡上里町大字神保原町","next":[1131812,100505,1134108,1134107,1132322,1131811,2100254,1132320],"voronoi":{"lat":36.293381,"lng":139.166236,"delta_lat":[0,10873,-287,-59974,-18958,-3123,15042,42036],"delta_lng":[0,-17888,-2986,-26607,14935,14260,17255,18652]},"impl":true},
    {"code":1131810,"left":1131809,"right":1132320,"id":"f3dcd6","name":"松久","name_kana":"まつひさ","lat":36.172938,"lng":139.182127,"prefecture":11,"lines":[11318],"attr":"eco","postal_code":"367-0113","address":"児玉郡美里町大字甘粕","next":[100505,1131809,1131811,1132319,9930619],"voronoi":{"lat":36.160545,"lng":139.14952,"delta_lat":[0,34370,2351,-12985,-36976],"delta_lng":[0,14611,41043,7653,-37866]},"impl":true},
    {"code":1131809,"id":"e593d8","name":"用土","name_kana":"ようど","lat":36.153858,"lng":139.200758,"prefecture":11,"lines":[11318],"attr":"cool","postal_code":"369-1201","address":"大里郡寄居町用土","next":[1131808,1131810,1132319,9930617,9930616,9930637,9930619],"voronoi":{"lat":36.137529,"lng":139.188749,"delta_lat":[0,6340,16759,6727,16925,-36976,-8214],"delta_lng":[0,25662,19300,2892,-23776,-37866,5221]},"impl":true},
    {"code":1132320,"id":"71f641","name":"本庄","name_kana":"ほんじょう","lat":36.236229,"lng":139.188299,"prefecture":11,"lines":[11323],"attr":"eco","postal_code":"367-0052","address":"本庄市銀座３丁目","next":[1132319,2100253,100505,2100254,2100252,1132321],"voronoi":{"lat":36.236955,"lng":139.165206,"delta_lat":[0,-22183,31392,9622,23152,53],"delta_lng":[0,43932,19465,-5807,-38614,-324]},"impl":true}
  ]
}