{
  "name":"segment26",
  "root":9952908,
  "east":136.873051,
  "west":135.816602,
  "south":34.997587,
  "north":35.222478,
  "station_size":155,
  "node_list":[
    {"code":9952908,"left":9960115,"right":9951301,"id":"04152e","name":"穴太(三重)","original_name":"穴太","name_kana":"あのう","lat":35.073032,"lng":136.604887,"prefecture":24,"lines":[99529],"attr":"cool","postal_code":"511-0253","address":"員弁郡東員町大字筑紫字堤田８８７-７","next":[9952909,9952805,9953204,9953205,9952907,9952804],"voronoi":{"lat":35.052762,"lng":136.599786,"delta_lat":[0,3900,56136,-1010,-12488,-46441],"delta_lng":[0,-8901,15919,1721,12641,-17797]},"impl":true},
    {"code":9960115,"left":1160114,"right":9960112,"id":"8066a1","name":"京セラ前","name_kana":"きょうせらまえ","lat":35.074748,"lng":136.180382,"prefecture":25,"lines":[99601],"attr":"cool","postal_code":"529-1571","address":"東近江市川合町字皆込１３-１６","next":[9960305,9960116,9960306,9960114,1151107,9960304,1151108],"voronoi":{"lat":35.051757,"lng":136.120744,"delta_lat":[0,182,23424,10982,-8962,-41006,8232],"delta_lng":[0,147,24611,21680,26963,-55951,-12047]},"impl":true},
    {"code":1160114,"left":3300615,"right":9960118,"id":"dd72aa","name":"南草津","name_kana":"みなみくさつ","lat":35.003855,"lng":135.947362,"prefecture":25,"lines":[11601],"attr":"eco","postal_code":"525-0059","address":"草津市野路町池之尻","next":[1151111,9960404,9960406,1151110,1160505,1160504,3300607,1160115],"voronoi":{"lat":35.023944,"lng":135.914736,"delta_lat":[0,12836,970,5203,-54056,-45145,-9019,-7870],"delta_lng":[0,-1882,555,5010,66975,20443,-7902,-8753]},"impl":true},
    {"code":3300615,"left":1160118,"right":3300619,"id":"d53790","name":"京阪大津京","name_kana":"けいはんおおつきょう","lat":35.02274,"lng":135.855521,"prefecture":25,"lines":[33006],"attr":"cool","postal_code":"520-0025","address":"大津市皇子が丘２-５-１","next":[1160119,1160503,3300614,3300703,3300616],"voronoi":{"lat":35.02729,"lng":135.820904,"delta_lat":[0,-3329,-3041,-433,5041],"delta_lng":[0,2578,2974,32931,-4871]},"impl":true},
    {"code":1160118,"left":3300613,"right":3300610,"id":"c80076","name":"大津","name_kana":"おおつ","lat":35.002997,"lng":135.864651,"prefecture":25,"lines":[11601],"attr":"heat","postal_code":"520-0055","address":"大津市春日町","next":[3300706,3300611,3300612,1160117,3300610,3300705],"voronoi":{"lat":34.998274,"lng":135.859626,"delta_lat":[0,8828,200,-5504,-5918,-9107],"delta_lng":[0,4224,2482,4121,931,-2077]},"impl":true},
    {"code":3300613,"left":3300612,"right":3300614,"id":"06bd5c","name":"三井寺","name_kana":"みいでら","lat":35.012891,"lng":135.859793,"prefecture":25,"lines":[33006],"attr":"eco","postal_code":"520-0047","address":"大津市浜大津３-６-１２","next":[3300612,1160503,3300706,3300614],"voronoi":{"lat":35.008497,"lng":135.848681,"delta_lat":[0,559,11009,-521],"delta_lng":[0,12042,4226,-2380]},"impl":true},
    {"code":3300612,"left":3300706,"id":"43628f","name":"びわ湖浜大津","name_kana":"びわこはまおおつ","lat":35.011283,"lng":135.863982,"prefecture":25,"lines":[33006,33007],"attr":"eco","postal_code":"520-0047","address":"大津市浜大津１-３-８","next":[3300613,3300611,1160118,1160503,3300706],"voronoi":{"lat":35.009055,"lng":135.860724,"delta_lat":[0,11009,5510,-18272,-200],"delta_lng":[0,4226,10788,-9405,-2482]},"impl":true},
    {"code":3300706,"id":"d04832","name":"上栄町","name_kana":"かみさかえまち","lat":35.00515,"lng":135.860152,"prefecture":25,"lines":[33007],"attr":"cool","postal_code":"520-0045","address":"大津市札の辻１-７","next":[1160118,3300614,3300613,3300705,3300612],"voronoi":{"lat":35.009055,"lng":135.860724,"delta_lat":[0,-559,-1664,-8558,8828],"delta_lng":[0,-12042,-4681,15626,4224]},"impl":true},
    {"code":3300614,"id":"5afe95","name":"大津市役所前","name_kana":"おおつしやくしょまえ","lat":35.018335,"lng":135.855463,"prefecture":25,"lines":[33006],"attr":"eco","postal_code":"520-0037","address":"大津市御陵町５-１","next":[3300706,3300705,3300615,3300613,3300703,1160503,3300704],"voronoi":{"lat":35.006832,"lng":135.844001,"delta_lat":[0,1664,11047,943,433,-6059,-8003],"delta_lng":[0,4681,13888,-3182,-32931,5090,11999]},"impl":true},
    {"code":3300610,"left":3300609,"right":3300611,"id":"1770a5","name":"石場","name_kana":"いしば","lat":35.004722,"lng":135.875606,"prefecture":25,"lines":[33006],"attr":"heat","postal_code":"520-0807","address":"大津市松本２-１５-６","next":[1160117,3300608,3300611,1160118,1160504,3300609],"voronoi":{"lat":35.033444,"lng":135.903567,"delta_lat":[0,-2819,-28827,-5918,5733,14778],"delta_lng":[0,-14709,-18405,931,6217,13851]},"impl":true},
    {"code":3300609,"left":1160117,"id":"c028e4","name":"京阪膳所","name_kana":"けいはんぜぜ","lat":34.999823,"lng":135.880833,"prefecture":25,"lines":[33006],"attr":"heat","postal_code":"520-0802","address":"大津市馬場２-１１-６","next":[3300608,3300610,1160117],"voronoi":{"lat":35.016392,"lng":135.891453,"delta_lat":[0,-14778,-3504],"delta_lng":[0,-13851,5363]},"impl":true},
    {"code":1160117,"id":"e5d340","name":"膳所","name_kana":"ぜぜ","lat":34.999373,"lng":135.880539,"prefecture":25,"lines":[11601],"attr":"heat","postal_code":"520-0802","address":"大津市馬場２丁目","next":[3300610,1160118,3300606,3300608,3300609,3300705],"voronoi":{"lat":34.986773,"lng":135.869308,"delta_lat":[0,9107,5733,-3504,-12635,-9220],"delta_lng":[0,2077,6217,5363,-4416,-7153]},"impl":true},
    {"code":3300611,"id":"ccddba","name":"島ノ関","name_kana":"しまのせき","lat":35.007703,"lng":135.870937,"prefecture":25,"lines":[33006],"attr":"eco","postal_code":"520-0042","address":"大津市島の関１０-７","next":[1160504,1160118,1160503,3300612,3300610],"voronoi":{"lat":35.001798,"lng":135.870453,"delta_lat":[0,5504,18272,4311,740],"delta_lng":[0,-4121,9405,5275,7846]},"impl":true},
    {"code":3300619,"left":3300617,"right":1160505,"id":"10f7b5","name":"穴太(滋賀)","original_name":"穴太","name_kana":"あのお","lat":35.055675,"lng":135.864755,"prefecture":25,"lines":[33006],"attr":"cool","postal_code":"520-0114","address":"大津市穴太２-８-１","next":[3300620,3300621,3300618,1160504,9960608],"voronoi":{"lat":35.072878,"lng":135.845693,"delta_lat":[0,-16670,-5729,10841,14385],"delta_lng":[0,29393,-15215,-23095,2442]},"impl":true},
    {"code":3300617,"left":1160503,"right":3300618,"id":"52c76e","name":"南滋賀","name_kana":"みなみしが","lat":35.036691,"lng":135.85747,"prefecture":25,"lines":[33006],"attr":"cool","postal_code":"520-0011","address":"大津市南志賀３-９-８","next":[1160504,3300618,9960608,1160503,3300616],"voronoi":{"lat":35.038493,"lng":135.825722,"delta_lat":[0,7891,-9115,-7087,217],"delta_lng":[0,4598,40139,9777,-13160]},"impl":true},
    {"code":1160503,"left":3300616,"id":"ae4a76","name":"大津京","name_kana":"おおつきょう","lat":35.024428,"lng":135.857268,"prefecture":25,"lines":[11605],"attr":"cool","postal_code":"520-0025","address":"大津市皇子が丘２丁目","next":[3300613,3300615,3300611,3300617,3300616,3300612,1160504,3300614],"voronoi":{"lat":35.020064,"lng":135.86495,"delta_lat":[0,5510,4311,297,217,-4872,-5041,-943],"delta_lng":[0,10788,5275,-776,-13160,-12560,4871,3182]},"impl":true},
    {"code":3300616,"id":"599967","name":"近江神宮前","name_kana":"おうみじんぐうまえ","lat":35.028194,"lng":135.855807,"prefecture":25,"lines":[33006],"attr":"cool","postal_code":"520-0027","address":"大津市錦織２-７-１６","next":[9960604,9961109,9960605,1160503,3300617,9960608,1160119,3300615],"voronoi":{"lat":35.02729,"lng":135.820904,"delta_lat":[0,1178,80,3092,400,6454,-8094,-4872],"delta_lng":[0,-1069,-25,726,134,5052,41354,-12560]},"impl":true},
    {"code":3300618,"id":"58b4e7","name":"滋賀里","name_kana":"しがさと","lat":35.043402,"lng":135.858994,"prefecture":25,"lines":[33006],"attr":"cool","postal_code":"520-0004","address":"大津市見世２-１４-７","next":[3300617,3300619,9960608,1160504],"voronoi":{"lat":35.050479,"lng":135.859871,"delta_lat":[0,10841,-14936,-9115],"delta_lng":[0,-23095,-6455,40139]},"impl":true},
    {"code":1160505,"left":3300620,"right":3300621,"id":"45e660","name":"比叡山坂本","name_kana":"ひえいざんさかもと","lat":35.070403,"lng":135.878259,"prefecture":25,"lines":[11605],"attr":"cool","postal_code":"520-0116","address":"大津市坂本本町","next":[3300620,3300621,1160114,1151111,1160506,1160504],"voronoi":{"lat":35.042952,"lng":135.918418,"delta_lat":[0,15733,32271,-23754,-12576,-16877],"delta_lng":[0,8844,-51946,-642,7928,30806]},"impl":true},
    {"code":3300620,"left":1160504,"id":"f952e7","name":"松ノ馬場","name_kana":"まつのばんば","lat":35.065348,"lng":135.870241,"prefecture":25,"lines":[33006],"attr":"cool","postal_code":"520-0113","address":"大津市坂本２-１０-６６","next":[1160505,3300619,3300621,1160504],"voronoi":{"lat":35.056208,"lng":135.875086,"delta_lat":[0,16670,-5676,-12576],"delta_lng":[0,-29393,28982,7928]},"impl":true},
    {"code":1160504,"id":"11d29f","name":"唐崎","name_kana":"からさき","lat":35.049795,"lng":135.866969,"prefecture":25,"lines":[11605],"attr":"cool","postal_code":"520-0106","address":"大津市唐崎２丁目","next":[3300611,3300617,3300607,1160114,3300620,1160503,3300619,3300618,1160505,3300610,3300608],"voronoi":{"lat":35.036779,"lng":135.912854,"delta_lat":[0,970,16877,1582,-5729,-13210,-7087,-297,740,2819,3234],"delta_lng":[0,555,-30806,-7517,-15215,10589,9777,776,7846,14709,9040]},"impl":true},
    {"code":3300621,"id":"07e0d2","name":"坂本比叡山口","name_kana":"さかもとひえいざんぐち","lat":35.070592,"lng":135.871268,"prefecture":25,"lines":[33006],"attr":"cool","postal_code":"520-0113","address":"大津市坂本４-１２-３５","next":[9960710,9960608,3300620,1160505,1160506,3300619],"voronoi":{"lat":35.075706,"lng":135.839217,"delta_lat":[0,47141,2660,-34550,-23754,5676],"delta_lng":[0,-4031,1141,38989,-642,-28982]},"impl":true},
    {"code":9960118,"left":9960119,"right":9960117,"id":"ba31f1","name":"朝日野","name_kana":"あさひの","lat":35.03154,"lng":136.20572,"prefecture":25,"lines":[99601],"attr":"cool","postal_code":"529-1522","address":"東近江市鋳物師町９０３-２","next":[9960112,9960120,9960119,9960117],"voronoi":{"lat":35.086902,"lng":136.304129,"delta_lat":[0,-79545,11021,63158],"delta_lng":[0,-111972,-29334,101453]},"impl":true},
    {"code":9960119,"left":1151111,"right":3100808,"id":"fbfc2b","name":"日野(滋賀)","original_name":"日野","name_kana":"ひの","lat":35.012203,"lng":136.219457,"prefecture":25,"lines":[99601],"attr":"cool","postal_code":"529-1644","address":"蒲生郡日野町内池７５４-５","next":[1151103,9960202,9960120,1150903,3100810,9960118,1151102,9960112],"voronoi":{"lat":35.086902,"lng":136.304129,"delta_lat":[0,-79545,-52236,-1139,5181,15700,115818,3652],"delta_lng":[0,-111972,50593,18647,63022,22029,280,-12110]},"impl":true},
    {"code":1151111,"left":1151108,"right":1151110,"id":"011774","name":"草津(滋賀)","original_name":"草津","name_kana":"くさつ","lat":35.022913,"lng":135.962744,"prefecture":25,"lines":[11511,11601],"attr":"heat","postal_code":"525-0026","address":"草津市渋川１丁目","next":[1160114,1160505,1160112,1160506,1151110],"voronoi":{"lat":35.017675,"lng":135.981896,"delta_lat":[0,51457,-10447,-15733,-54056],"delta_lng":[0,-43136,-11498,-8844,66975]},"impl":true},
    {"code":1151108,"left":1151109,"id":"af34c7","name":"甲西","name_kana":"こうせい","lat":35.000651,"lng":136.08236,"prefecture":25,"lines":[11511],"attr":"eco","postal_code":"520-3232","address":"湖南市平松堂前","next":[1151107,1160109,1151109,9960306,9960402,9960115],"voronoi":{"lat":35.051757,"lng":136.120744,"delta_lat":[0,2315,-2496,-96610,3109,86534],"delta_lng":[0,-5473,-23037,-55980,47086,42807]},"impl":true},
    {"code":1151109,"id":"c15487","name":"石部","name_kana":"いしべ","lat":35.017685,"lng":136.052963,"prefecture":25,"lines":[11511],"attr":"eco","postal_code":"520-3101","address":"湖南市石部","next":[1151110,9960403,1151108,1160110,9960402,1160109],"voronoi":{"lat":34.954966,"lng":136.036255,"delta_lat":[0,-278,-6701,89784,20507,-6702],"delta_lng":[0,-809,-22749,16147,34199,29192]},"impl":true},
    {"code":1151110,"id":"eab9fb","name":"手原","name_kana":"てはら","lat":35.027347,"lng":135.999237,"prefecture":25,"lines":[11511],"attr":"heat","postal_code":"520-3047","address":"栗東市大字手原","next":[1160112,1151109,9960404,1160114,1160110,9960403,1160111,1151111],"voronoi":{"lat":35.017675,"lng":135.981896,"delta_lat":[0,20579,3911,-4394,-89784,-1807,-2429,45145],"delta_lng":[0,10852,28315,7780,-16147,-2466,-4394,-20443]},"impl":true},
    {"code":3100808,"left":3100807,"right":3100809,"id":"f73f32","name":"中菰野","name_kana":"なかこもの","lat":35.012297,"lng":136.50425,"prefecture":24,"lines":[31008],"attr":"heat","postal_code":"510-1233","address":"三重郡菰野町大字菰野字杉ノ木２１８９","next":[9952808,3100809,3100807,9952809],"voronoi":{"lat":35.051097,"lng":136.521941,"delta_lat":[0,-86799,100447,-7094],"delta_lng":[0,-23801,2233,13742]},"impl":true},
    {"code":3100807,"left":3100810,"id":"ceecf2","name":"菰野","name_kana":"こもの","lat":35.0087,"lng":136.517368,"prefecture":24,"lines":[31008],"attr":"heat","postal_code":"510-1233","address":"三重郡菰野町大字菰野字辰巳野８９２","next":[3100806,9952808,3100809,1150816,3100808,9952806],"voronoi":{"lat":35.049537,"lng":136.524562,"delta_lat":[0,1560,-86799,-17806,696,80255],"delta_lng":[0,-2621,-23801,-2933,6572,40103]},"impl":true},
    {"code":3100810,"id":"8b7e97","name":"湯の山温泉","name_kana":"ゆのやまおんせん","lat":35.01159,"lng":136.473617,"prefecture":24,"lines":[31008],"attr":"heat","postal_code":"510-1233","address":"三重郡菰野町大字菰野字募４８５２","next":[9952815,1150818,3100809,1150816,1150903,1150817,9960202,9960119,1150902,9952811,9952813],"voronoi":{"lat":35.073637,"lng":136.481104,"delta_lat":[0,-129552,-5073,-4893,2616,33016,5112,115818,3885,-1860,-6501],"delta_lng":[0,5868,-10930,-36817,-18238,-68060,-6480,280,4404,64706,34978]},"impl":true},
    {"code":3100809,"id":"5f4178","name":"大羽根園","name_kana":"おおばねえん","lat":35.012521,"lng":136.49417,"prefecture":24,"lines":[31008],"attr":"heat","postal_code":"510-1233","address":"三重郡菰野町大字菰野字野中３９２８-６","next":[3100810,3100807,9952811,3100808,9952809,1150816],"voronoi":{"lat":34.964299,"lng":136.498141,"delta_lat":[0,100447,6907,1984,-129552,2408],"delta_lng":[0,2233,-10715,-8554,5868,8235]},"impl":true},
    {"code":9960117,"left":9960116,"right":9952806,"id":"e0ecb3","name":"朝日大塚","name_kana":"あさひおおつか","lat":35.05106,"lng":136.193568,"prefecture":25,"lines":[99601],"attr":"cool","postal_code":"529-1512","address":"東近江市大塚町３１５-３","next":[9960121,9960116,1151107,9960112,9960118,9960113,9960120],"voronoi":{"lat":35.081536,"lng":136.264275,"delta_lat":[0,186,-1511,-44536,-16110,-455,-732],"delta_lng":[0,-11554,-11210,-102491,14439,2090,7273]},"impl":true},
    {"code":9960116,"left":1160111,"right":1160110,"id":"dc48ca","name":"桜川(滋賀)","original_name":"桜川","name_kana":"さくらがわ","lat":35.065052,"lng":136.187488,"prefecture":25,"lines":[99601],"attr":"cool","postal_code":"529-1572","address":"東近江市桜川西町７８","next":[1151107,9960114,9960113,9960115,9960117],"voronoi":{"lat":35.080267,"lng":136.217592,"delta_lat":[0,-2884,-41006,-703,44536],"delta_lng":[0,-23447,-55951,826,102491]},"impl":true},
    {"code":1160111,"left":1160112,"id":"45ad6f","name":"守山(滋賀)","original_name":"守山","name_kana":"もりやま","lat":35.050513,"lng":135.996037,"prefecture":25,"lines":[11601],"attr":"eco","postal_code":"524-0037","address":"守山市梅田町","next":[1160507,1160112,1151110,1160508,1160110],"voronoi":{"lat":35.038255,"lng":135.992749,"delta_lat":[0,46466,22012,1742,-66309],"delta_lng":[0,-38052,19156,2096,45115]},"impl":true},
    {"code":1160112,"id":"896004","name":"栗東","name_kana":"りっとう","lat":35.037448,"lng":135.980083,"prefecture":25,"lines":[11601],"attr":"eco","postal_code":"520-3031","address":"栗東市綣字新改","next":[1151110,1151111,1160506,1160507,1160111],"voronoi":{"lat":35.084721,"lng":135.954697,"delta_lat":[0,-8525,-7063,-51457,20579],"delta_lng":[0,-10954,-4982,43136,10852]},"impl":true},
    {"code":1160110,"id":"ffe5b8","name":"野洲","name_kana":"やす","lat":35.068509,"lng":136.022487,"prefecture":25,"lines":[11601],"attr":"eco","postal_code":"520-2331","address":"野洲市小篠原","next":[1160508,1151110,1151109,1160111,1160109],"voronoi":{"lat":35.037771,"lng":136.028843,"delta_lat":[0,4394,66309,41989,-92185],"delta_lng":[0,-7780,-45115,29574,57520]},"impl":true},
    {"code":9952806,"left":9952805,"right":9952807,"id":"11f1cc","name":"保々","name_kana":"ほぼ","lat":35.046774,"lng":136.565936,"prefecture":24,"lines":[99528],"attr":"eco","postal_code":"512-1303","address":"四日市市小牧町１９３７","next":[3100806,9952808,9952805,9952807,3100807],"voronoi":{"lat":35.016465,"lng":136.564532,"delta_lat":[0,36977,521,-4426,-22094],"delta_lng":[0,18982,-44756,-14196,17320]},"impl":true},
    {"code":9952805,"id":"1481c4","name":"山城","name_kana":"やまじょう","lat":35.035272,"lng":136.588342,"prefecture":24,"lines":[99528],"attr":"eco","postal_code":"512-8048","address":"四日市市山城町１１０６-２","next":[9952908,3100803,9952807,9952806,9952804,3100805,3100804,3100806,9952909],"voronoi":{"lat":35.052762,"lng":136.599786,"delta_lat":[0,-50123,-159,5667,2451,5867,36977,3150,70],"delta_lng":[0,-7032,-4358,-15242,-3765,-4857,18982,3575,3796]},"impl":true},
    {"code":9952807,"id":"a54402","name":"北勢中央公園口","name_kana":"ほくせいちゅうおうこうえんぐち","lat":35.060519,"lng":136.566096,"prefecture":24,"lines":[99528],"attr":"eco","postal_code":"512-1302","address":"四日市市市場町字東高見５３６-２","next":[9952805,9952806,9952909,9952808],"voronoi":{"lat":35.053964,"lng":136.538759,"delta_lat":[0,-521,3150,18006],"delta_lng":[0,44756,3575,-14617]},"impl":true},
    {"code":9960112,"left":1160507,"right":9960111,"id":"b0f2fd","name":"八日市","name_kana":"ようかいち","lat":35.114264,"lng":136.194582,"prefecture":25,"lines":[99601,99603],"attr":"eco","postal_code":"527-0011","address":"東近江市八日市浜野町４８５","next":[9960118,9960302,9960109,9960111,9960113,9960117,9960303,9960119,9960202],"voronoi":{"lat":35.112361,"lng":136.312019,"delta_lat":[0,4566,8953,-6847,-20774,-16538,-186,5366,7431],"delta_lng":[0,-15026,-115414,3646,23593,43903,11554,39853,30489]},"impl":true},
    {"code":1160507,"left":9960304,"right":1160512,"id":"2decf0","name":"堅田","name_kana":"かたた","lat":35.12094,"lng":135.915107,"prefecture":25,"lines":[11605],"attr":"cool","postal_code":"520-0232","address":"大津市真野町","next":[1160508,1160111,1160506,1160509,1160112,1160510],"voronoi":{"lat":35.14956,"lng":135.872159,"delta_lat":[0,-42827,-22012,-8525,75901,-17],"delta_lng":[0,101694,-19156,-10954,-88969,3243]},"impl":true},
    {"code":9960304,"left":9960305,"right":9960303,"id":"f260f6","name":"市辺","name_kana":"いちのべ","lat":35.103848,"lng":136.165641,"prefecture":25,"lines":[99603],"attr":"cool","postal_code":"527-0074","address":"東近江市市辺町２８０１","next":[9960114,9960303,9960305,9960113,9960115,9960111],"voronoi":{"lat":35.134677,"lng":136.165396,"delta_lat":[0,-59313,10982,9341,3870,32510],"delta_lng":[0,-19893,21680,7899,1452,-8449]},"impl":true},
    {"code":9960305,"left":1160109,"right":9960306,"id":"289dfd","name":"平田(滋賀)","original_name":"平田","name_kana":"ひらた","lat":35.11023,"lng":136.146612,"prefecture":25,"lines":[99603],"attr":"cool","postal_code":"527-0087","address":"東近江市平田町１２１-２","next":[9960111,9960306,9960115,9960304,1160107],"voronoi":{"lat":35.134677,"lng":136.165396,"delta_lat":[0,-59313,-23424,75625,8752],"delta_lng":[0,-19893,-24611,22156,21518]},"impl":true},
    {"code":1160109,"left":1160506,"id":"3e3e8f","name":"篠原(滋賀)","original_name":"篠原","name_kana":"しのはら","lat":35.099203,"lng":136.071679,"prefecture":25,"lines":[11601],"attr":"cool","postal_code":"523-0046","address":"近江八幡市上野町","next":[1160513,1160508,1151108,1160512,1160509,1160108,1151109,9960306,1160110],"voronoi":{"lat":35.150464,"lng":136.005522,"delta_lat":[0,822,10654,6668,13612,-97472,-30675,-2496,6702],"delta_lng":[0,218,4451,6314,16610,74000,8156,-23037,-29192]},"impl":true},
    {"code":1160506,"id":"16d0c6","name":"おごと温泉","name_kana":"おごとおんせん","lat":35.097425,"lng":135.895046,"prefecture":25,"lines":[11605],"attr":"cool","postal_code":"520-0101","address":"大津市雄琴３丁目","next":[3300621,1160507,9960710,1160112,1160510,1160505,1151111],"voronoi":{"lat":35.076196,"lng":135.943743,"delta_lat":[0,75901,3502,-30092,-34550,-32271,10447],"delta_lng":[0,-88969,-14623,-3823,38989,51946,11498]},"impl":true},
    {"code":9960306,"id":"1ca386","name":"武佐(滋賀)","original_name":"武佐","name_kana":"むさ","lat":35.114894,"lng":136.130692,"prefecture":25,"lines":[99603],"attr":"heat","postal_code":"523-0013","address":"近江八幡市長光寺町５５-３","next":[1160107,9960305,9960115,1160108,1151108,1160109],"voronoi":{"lat":35.084748,"lng":136.107115,"delta_lat":[0,45182,-2365,-75625,-182,2315],"delta_lng":[0,12711,23221,-22156,-147,-5473]},"impl":true},
    {"code":9960303,"left":9960113,"right":9960302,"id":"c9e0c3","name":"太郎坊宮前","name_kana":"たろぼうぐうまえ","lat":35.108608,"lng":136.183958,"prefecture":25,"lines":[99603],"attr":"eco","postal_code":"527-0091","address":"東近江市小脇町７５３-５","next":[9960304,9960302,9960113,9960111,9960112],"voronoi":{"lat":35.125881,"lng":136.18158,"delta_lat":[0,6186,-32510,3492,15985],"delta_lng":[0,-13495,8449,12582,-3890]},"impl":true},
    {"code":9960113,"left":9960114,"id":"7886b0","name":"長谷野","name_kana":"ながたにの","lat":35.095626,"lng":136.187561,"prefecture":25,"lines":[99601],"attr":"eco","postal_code":"527-0071","address":"東近江市今堀町８１３-１","next":[9960302,9960116,9960114,9960304,9960303,9960112,9960117],"voronoi":{"lat":35.08021,"lng":136.241512,"delta_lat":[0,57,15419,3870,3492,-4789,-16538],"delta_lng":[0,-23919,-42511,1452,12582,19703,43903]},"impl":true},
    {"code":9960114,"id":"bc9738","name":"大学前(滋賀)","original_name":"大学前","name_kana":"だいがくまえ","lat":35.087733,"lng":136.184698,"prefecture":25,"lines":[99601],"attr":"cool","postal_code":"527-0081","address":"東近江市布施町中ノ山２９-２","next":[9960116,9960304,9960115,9960113],"voronoi":{"lat":35.095687,"lng":136.175082,"delta_lat":[0,-9341,-8962,2884],"delta_lng":[0,-7899,26963,23447]},"impl":true},
    {"code":9960302,"id":"4142a0","name":"新八日市","name_kana":"しんようかいち","lat":35.110356,"lng":136.191141,"prefecture":25,"lines":[99603],"attr":"eco","postal_code":"527-0018","address":"東近江市八日市清水２-１３７-２","next":[9960113,9960303,9960112],"voronoi":{"lat":35.119034,"lng":136.185225,"delta_lat":[0,-15985,-4789],"delta_lng":[0,3890,19703]},"impl":true},
    {"code":1160512,"left":1160510,"right":1160106,"id":"f0d50b","name":"比良(滋賀)","original_name":"比良","name_kana":"ひら","lat":35.219918,"lng":135.944198,"prefecture":25,"lines":[11605],"attr":"cool","postal_code":"520-0503","address":"大津市北比良","next":[1160509,1160109,1142213,1160513,1160511,1160514],"voronoi":{"lat":35.322572,"lng":135.847054,"delta_lat":[0,-3920,-139272,-17441,6668,143983],"delta_lng":[0,-10797,127375,46559,6314,-156650]},"impl":true},
    {"code":1160510,"left":1160508,"right":1160511,"id":"4c6aea","name":"蓬莱","name_kana":"ほうらい","lat":35.182594,"lng":135.915443,"prefecture":25,"lines":[11605],"attr":"cool","postal_code":"520-0515","address":"大津市八屋戸","next":[9960710,1160511,1160506,1160509,1160507],"voronoi":{"lat":35.180601,"lng":135.944784,"delta_lat":[0,73782,-98784,-3502,-17],"delta_lng":[0,-152711,48078,14623,3243]},"impl":true},
    {"code":1160508,"left":1160509,"id":"3d6c99","name":"小野(滋賀)","original_name":"小野","name_kana":"おの","lat":35.138832,"lng":135.922642,"prefecture":25,"lines":[11605],"attr":"cool","postal_code":"520-0532","address":"大津市湖青１丁目","next":[1160109,1160507,1160110,1160509,1160111],"voronoi":{"lat":35.150464,"lng":136.005522,"delta_lat":[0,822,-1726,-42827,1742],"delta_lng":[0,218,-133582,101694,2096]},"impl":true},
    {"code":1160509,"id":"a72400","name":"和邇","name_kana":"わに","lat":35.161588,"lng":135.922348,"prefecture":25,"lines":[11605],"attr":"cool","postal_code":"520-0522","address":"大津市和邇中浜","next":[1160512,1160507,1160109,1160508,1160511,1160510],"voronoi":{"lat":35.17938,"lng":135.963633,"delta_lat":[0,-17441,-10654,-1726,2520,28521],"delta_lng":[0,46559,-4451,-133582,-14142,86767]},"impl":true},
    {"code":1160511,"id":"7ea870","name":"志賀","name_kana":"しが","lat":35.202348,"lng":135.924987,"prefecture":25,"lines":[11605],"attr":"cool","postal_code":"520-0514","address":"大津市木戸","next":[1142213,1142212,1160512,1160510,1160509,9960710],"voronoi":{"lat":35.29512,"lng":135.76821,"delta_lat":[0,14063,9469,-139272,1220,73782],"delta_lng":[0,32321,35727,127375,-18849,-152711]},"impl":true},
    {"code":1160106,"left":1160107,"right":1160105,"id":"f1fd3b","name":"能登川","name_kana":"のとがわ","lat":35.179897,"lng":136.165987,"prefecture":25,"lines":[11601],"attr":"cool","postal_code":"521-1224","address":"東近江市林町","next":[9960109,1160105,1160515,1160107,9960110],"voronoi":{"lat":35.179919,"lng":136.189835,"delta_lat":[0,92126,-49068,-75476,29539],"delta_lng":[0,-75736,-35556,86963,24100]},"impl":true},
    {"code":1160107,"left":1160108,"id":"d75d1a","name":"安土","name_kana":"あづち","lat":35.142465,"lng":136.1335,"prefecture":25,"lines":[11601],"attr":"cool","postal_code":"521-1341","address":"滋賀県近江八幡市安土町上豊浦","next":[9960111,9960306,9960110,1160515,1160106,9960305,1160108],"voronoi":{"lat":35.127564,"lng":136.143047,"delta_lat":[0,8752,10101,1083,75476,-9818,-83229],"delta_lng":[0,21518,1145,-205,-86963,-11976,53260]},"impl":true},
    {"code":1160108,"id":"fd5319","name":"近江八幡","name_kana":"おうみはちまん","lat":35.122765,"lng":136.102715,"prefecture":25,"lines":[11601,99603],"attr":"cool","postal_code":"523-0891","address":"近江八幡市鷹飼町","next":[1160515,1160513,1160514,9960306,1160109,1160107],"voronoi":{"lat":35.084748,"lng":136.107115,"delta_lat":[0,97472,12274,12431,6234,-83229],"delta_lng":[0,-74000,9721,12261,11469,53260]},"impl":true},
    {"code":1160105,"id":"64fff4","name":"稲枝","name_kana":"いなえ","lat":35.203312,"lng":136.194469,"prefecture":25,"lines":[11601],"attr":"cool","postal_code":"521-1125","address":"彦根市稲枝町","next":[9960109,1160516,9960108,1160106,1160515,1160104,1160517],"voronoi":{"lat":35.28733,"lng":136.122559,"delta_lat":[0,-4508,-10777,-92126,15353,13432,99512],"delta_lng":[0,-3231,-5230,75736,22079,2006,-71275]},"impl":true},
    {"code":9960111,"left":9952809,"right":9952815,"id":"dba433","name":"河辺の森","name_kana":"かわべのもり","lat":35.135353,"lng":136.196218,"prefecture":25,"lines":[99601],"attr":"eco","postal_code":"527-0001","address":"東近江市建部下野町１２４１-２","next":[1160107,9960305,9960110,9960109,9960112,9960303,9960304],"voronoi":{"lat":35.134677,"lng":136.165396,"delta_lat":[0,1640,10101,-3358,-26132,8953,6186],"delta_lng":[0,-830,1145,69203,62080,-115414,-13495]},"impl":true},
    {"code":9952809,"left":9952812,"right":9952910,"id":"c5e172","name":"大安","name_kana":"だいあん","lat":35.09196,"lng":136.545376,"prefecture":24,"lines":[99528],"attr":"cool","postal_code":"511-0274","address":"いなべ市大安町大井田１３０５","next":[9952811,9952911,3100809,3100808,9952810,9952910,9952808],"voronoi":{"lat":35.057651,"lng":136.514115,"delta_lat":[0,7094,6907,9774,21879,-5271,-9355],"delta_lng":[0,-13742,-10715,11745,49130,6697,1161]},"impl":true},
    {"code":9952812,"left":9952810,"right":9952912,"id":"cc2fe7","name":"伊勢治田","name_kana":"いせはった","lat":35.133137,"lng":136.514419,"prefecture":24,"lines":[99528],"attr":"cool","postal_code":"511-0432","address":"いなべ市北勢町東村１０３","next":[9952912,9952913,9952813,9952811],"voronoi":{"lat":35.106205,"lng":136.474699,"delta_lat":[0,36169,-5505,-4824],"delta_lng":[0,33816,16401,152]},"impl":true},
    {"code":9952810,"left":9952811,"id":"6ef5da","name":"三里","name_kana":"みさと","lat":35.107062,"lng":136.538651,"prefecture":24,"lines":[99528],"attr":"cool","postal_code":"511-0273","address":"いなべ市大安町平塚５１２-１１","next":[9952912,9952811,9952911,9952809],"voronoi":{"lat":35.081427,"lng":136.501403,"delta_lat":[0,38589,1560,-18270],"delta_lng":[0,32033,13795,3302]},"impl":true},
    {"code":9952811,"id":"0bf605","name":"丹生川","name_kana":"にゅうがわ","lat":35.122757,"lng":136.519744,"prefecture":24,"lines":[99528],"attr":"cool","postal_code":"511-0262","address":"いなべ市大安町丹生川中１１７０-１","next":[9952809,3100809,9952813,9952810,9952812,3100810,9952912],"voronoi":{"lat":35.132044,"lng":136.525069,"delta_lat":[0,-25840,-20000,-12568,-1984,9774,38589],"delta_lng":[0,-50369,-23884,30289,8554,11745,32033]},"impl":true},
    {"code":9952912,"id":"6b5ff1","name":"麻生田","name_kana":"おうだ","lat":35.133807,"lng":136.535628,"prefecture":24,"lines":[99529],"attr":"heat","postal_code":"511-0427","address":"いなべ市北勢町大字麻生田字南一色２００３-２","next":[9953209,9952812,9952911,9952810,9953208,9952913,9953207,9953206,9952811],"voronoi":{"lat":35.132044,"lng":136.525069,"delta_lat":[0,4824,48625,-5970,-7369,-13128,-778,-36673,-1560],"delta_lng":[0,-152,35735,7934,5558,6730,215,-33857,-13795]},"impl":true},
    {"code":9952910,"left":9952909,"right":9952911,"id":"8df4d2","name":"大泉(三重)","original_name":"大泉","name_kana":"おおいずみ","lat":35.095044,"lng":136.57021,"prefecture":24,"lines":[99529],"attr":"cool","postal_code":"511-0224","address":"いなべ市員弁町大泉２５１６","next":[9952808,9952911,9953205,9952909,9952809],"voronoi":{"lat":35.079554,"lng":136.572047,"delta_lat":[0,34224,10652,-26396,-9355],"delta_lng":[0,33725,-5874,-42668,1161]},"impl":true},
    {"code":9952909,"left":9952808,"id":"87723e","name":"東員","name_kana":"とういん","lat":35.077945,"lng":136.587562,"prefecture":24,"lines":[99529],"attr":"cool","postal_code":"511-0251","address":"員弁郡東員町山田１９５４番地","next":[9952908,9952808,9952807,9952910,9953205,9952805],"voronoi":{"lat":35.112799,"lng":136.606805,"delta_lat":[0,980,-34224,-4956,-18006,70],"delta_lng":[0,-1032,-33725,425,14617,3796]},"impl":true},
    {"code":9952808,"id":"0cd442","name":"梅戸井","name_kana":"うめどい","lat":35.075326,"lng":136.557033,"prefecture":24,"lines":[99528],"attr":"eco","postal_code":"511-0284","address":"いなべ市大安町梅戸２３５４-２","next":[9952910,3100807,3100808,9952806,9952909,9952807,9952809],"voronoi":{"lat":35.079554,"lng":136.572047,"delta_lat":[0,-4956,-20635,-4426,1560,6554,31028],"delta_lng":[0,425,-33714,-14196,-2621,-7826,44276]},"impl":true},
    {"code":9952911,"id":"128a50","name":"楚原","name_kana":"そはら","lat":35.110984,"lng":136.560349,"prefecture":24,"lines":[99529],"attr":"cool","postal_code":"511-0202","address":"いなべ市員弁町大字楚原字宮の腰５４４-１","next":[9953205,9952912,9952809,9952910,9952810,9953206],"voronoi":{"lat":35.12443,"lng":136.599898,"delta_lat":[0,-26396,5271,18270,36673,-22757],"delta_lng":[0,-42668,-6697,-3302,33857,15657]},"impl":true},
    {"code":9952815,"left":9960108,"right":9952813,"id":"91ca50","name":"西藤原","name_kana":"にしふじわら","lat":35.170368,"lng":136.478181,"prefecture":24,"lines":[99528],"attr":"heat","postal_code":"511-0517","address":"いなべ市藤原町大貝戸３３６","next":[3100810,9952813,1150309,9952814,9960202,9953211,9953210,1150311],"voronoi":{"lat":35.231209,"lng":136.390606,"delta_lat":[0,-136644,-1860,43119,82270,30474,17928,-25691],"delta_lng":[0,-39474,64706,47285,52739,-27957,-26601,-59352]},"impl":true},
    {"code":9960108,"left":9960109,"right":9960107,"id":"56596d","name":"豊郷(滋賀)","original_name":"豊郷","name_kana":"とよさと","lat":35.197863,"lng":136.230946,"prefecture":25,"lines":[99601],"attr":"heat","postal_code":"529-1168","address":"犬上郡豊郷町八目１１-１","next":[9960109,9960107,1160104,1160105,9960202],"voronoi":{"lat":35.163111,"lng":136.283891,"delta_lat":[0,49253,-3660,-13432,-78134],"delta_lng":[0,-52175,-17796,-2006,96706]},"impl":true},
    {"code":9960109,"left":9960110,"id":"07ba81","name":"愛知川","name_kana":"えちがわ","lat":35.176119,"lng":136.213378,"prefecture":25,"lines":[99601],"attr":"heat","postal_code":"529-1313","address":"愛知郡愛荘町市８９５","next":[1160106,9960111,1160105,9960202,9960110,9960108,9960112],"voronoi":{"lat":35.116927,"lng":136.296994,"delta_lat":[0,26132,33980,2879,15353,-78134,-4776],"delta_lng":[0,-62080,-45308,229,22079,96706,3400]},"impl":true},
    {"code":9960110,"id":"66533f","name":"五箇荘","name_kana":"ごかしょう","lat":35.154476,"lng":136.197146,"prefecture":25,"lines":[99601],"attr":"heat","postal_code":"529-1422","address":"東近江市五個荘小幡町４６７-４","next":[9960111,1160107,9960109,1160106],"voronoi":{"lat":35.147501,"lng":136.165506,"delta_lat":[0,-1083,-3358,33980],"delta_lng":[0,205,69203,-45308]},"impl":true},
    {"code":9960107,"id":"f0a015","name":"尼子","name_kana":"あまご","lat":35.213967,"lng":136.246148,"prefecture":25,"lines":[99601],"attr":"heat","postal_code":"522-0242","address":"犬上郡甲良町尼子１７０６-２","next":[1160103,9960106,1160104,9960203,9960202,9960108],"voronoi":{"lat":35.212364,"lng":136.231715,"delta_lat":[0,17986,-231,-7997,-11175,-47836],"delta_lng":[0,9842,4020,12405,10175,15733]},"impl":true},
    {"code":9952813,"left":9952913,"right":9952814,"id":"27f7ab","name":"東藤原","name_kana":"ひがしふじわら","lat":35.147643,"lng":136.498904,"prefecture":24,"lines":[99528],"attr":"heat","postal_code":"511-0515","address":"いなべ市藤原町東禅寺８９５","next":[9952913,9952815,9952814,9952812,9952811,3100810],"voronoi":{"lat":35.106205,"lng":136.474699,"delta_lat":[0,36169,24396,-30945,-43119,-6501],"delta_lng":[0,33816,1798,-47191,-47285,34978]},"impl":true},
    {"code":9952913,"id":"e58856","name":"阿下喜","name_kana":"あげき","lat":35.146177,"lng":136.518796,"prefecture":24,"lines":[99529],"attr":"heat","postal_code":"511-0428","address":"いなべ市北勢町大字阿下喜字塚原６８７","next":[9952813,9952812,9952912,9952814,9953210,9953209],"voronoi":{"lat":35.136868,"lng":136.524916,"delta_lat":[0,5505,24396,37037,-9363,-8950],"delta_lng":[0,-16401,1798,21507,20613,8218]},"impl":true},
    {"code":9952814,"id":"68a972","name":"西野尻","name_kana":"にしのじり","lat":35.16393,"lng":136.488224,"prefecture":24,"lines":[99528],"attr":"heat","postal_code":"511-0516","address":"いなべ市藤原町西野尻５５６-２","next":[9952813,9953210,9952913,9952815],"voronoi":{"lat":35.135825,"lng":136.463122,"delta_lat":[0,30945,37037,14288],"delta_lng":[0,47191,21507,-15959]},"impl":true},
    {"code":9951301,"left":1150808,"right":3000143,"id":"5c9e3a","name":"高畑","name_kana":"たかばた","lat":35.139161,"lng":136.853466,"prefecture":23,"lines":[99513],"attr":"eco","postal_code":"454-0911","address":"名古屋市中川区高畑２-１５１","next":[3102706,3102705,9950905,1150802,9950906,9950904],"voronoi":{"lat":35.129052,"lng":136.85189,"delta_lat":[0,-6705,20232,1721,-226,-8267],"delta_lng":[0,-11928,807,13979,2367,837]},"impl":true},
    {"code":1150808,"left":9952904,"right":9950907,"id":"520073","name":"桑名","name_kana":"くわな","lat":35.06747,"lng":136.683832,"prefecture":24,"lines":[11508,31027,99532],"attr":"eco","postal_code":"511-0811","address":"桑名市東方","next":[9952902,3102712,9953202,9952901],"voronoi":{"lat":35.082437,"lng":136.690386,"delta_lat":[0,-12986,-3497,4661],"delta_lng":[0,-15145,3164,40985]},"impl":true},
    {"code":9952904,"left":1150810,"right":9953204,"id":"af9168","name":"蓮花寺","name_kana":"れんげじ","lat":35.059657,"lng":136.652189,"prefecture":24,"lines":[99529],"attr":"eco","postal_code":"511-0854","address":"桑名市大字蓮花寺１８３-４","next":[9953202,9953203,1150809,9952905,9952903,3102715],"voronoi":{"lat":35.047522,"lng":136.658665,"delta_lat":[0,-2842,34997,-1405,-4048,-26289],"delta_lng":[0,-12587,4253,5328,3358,180]},"impl":true},
    {"code":1150810,"left":9952803,"right":3102715,"id":"fb4480","name":"富田(三重)","original_name":"富田","name_kana":"とみだ","lat":35.008124,"lng":136.653143,"prefecture":24,"lines":[11508],"attr":"cool","postal_code":"510-8014","address":"四日市市富田３","next":[3102717,1150811,3102716,9952802],"voronoi":{"lat":35.01919,"lng":136.646139,"delta_lat":[0,-17392,-6285,24532],"delta_lng":[0,7468,23437,-30299]},"impl":true},
    {"code":9952803,"left":3102717,"right":9952804,"id":"5a03c3","name":"平津","name_kana":"へいづ","lat":35.028477,"lng":136.61843,"prefecture":24,"lines":[99528],"attr":"eco","postal_code":"512-8042","address":"四日市市平津町３８５-２","next":[9952905,9952804,3102718,9952906,9952802,3102719],"voronoi":{"lat":35.00128,"lng":136.602017,"delta_lat":[0,47083,-4393,-1147,-37183,-791],"delta_lng":[0,16335,13506,1461,-15742,-1505]},"impl":true},
    {"code":3102717,"left":9952802,"id":"c3162e","name":"近鉄富田","name_kana":"きんてつとみだ","lat":35.006491,"lng":136.64934,"prefecture":24,"lines":[31027,99528],"attr":"eco","postal_code":"510-8014","address":"四日市市富田１-２６-１９","next":[1150810,9952802,3102718,1150811],"voronoi":{"lat":35.000981,"lng":136.642014,"delta_lat":[0,6762,11446,-17392],"delta_lng":[0,-7104,11230,7468]},"impl":true},
    {"code":9952802,"id":"273548","name":"大矢知","name_kana":"おおやち","lat":35.022147,"lng":136.633382,"prefecture":24,"lines":[99528],"attr":"eco","postal_code":"510-8034","address":"四日市市大矢知町３２７９","next":[3102716,9952803,3102718,1150809,3102717,1150810,9952905],"voronoi":{"lat":35.042822,"lng":136.633319,"delta_lat":[0,-37183,2104,11446,855,3882,17244],"delta_lng":[0,-15742,17332,11230,606,867,-8140]},"impl":true},
    {"code":9952804,"id":"2ad235","name":"暁学園前","name_kana":"あかつきがくえんまえ","lat":35.032798,"lng":136.605976,"prefecture":24,"lines":[99528],"attr":"eco","postal_code":"512-8044","address":"四日市市中村町３９３-２","next":[3102719,9952803,9952907,9952805,3100803,9952906,9952908,3100802],"voronoi":{"lat":35.00128,"lng":136.602017,"delta_lat":[0,47083,696,3801,-97,-50123,-1301,-186],"delta_lng":[0,16335,-910,-14073,-3583,-7032,5379,3626]},"impl":true},
    {"code":3102715,"left":3102716,"right":3102714,"id":"355737","name":"伊勢朝日","name_kana":"いせあさひ","lat":35.038246,"lng":136.668821,"prefecture":24,"lines":[31027],"attr":"eco","postal_code":"510-8102","address":"三重郡朝日町大字小向７３９-２","next":[1150809,9952903,3102716,3000819,9952904,3102714],"voronoi":{"lat":35.049436,"lng":136.670814,"delta_lat":[0,-1500,-413,-21647,-32903,14943],"delta_lng":[0,-11617,-532,8955,79601,7011]},"impl":true},
    {"code":3102716,"left":1150809,"id":"949cab","name":"川越富洲原","name_kana":"かわごえとみすはら","lat":35.016267,"lng":136.659736,"prefecture":24,"lines":[31027],"attr":"eco","postal_code":"510-8122","address":"三重県三重郡川越町大字豊田275","next":[3000819,1150809,3102715,1150810,9952802,1150811,3000820],"voronoi":{"lat":34.992972,"lng":136.747221,"delta_lat":[0,32903,-1949,-3882,-24532,-29703,15234],"delta_lng":[0,-79601,-20007,-867,30299,60392,6004]},"impl":true},
    {"code":1150809,"id":"959207","name":"朝日","name_kana":"あさひ","lat":35.033782,"lng":136.65803,"prefecture":24,"lines":[11508],"attr":"cool","postal_code":"510-8103","address":"三重郡朝日町柿","next":[3102715,3102716,9952904,9952802,9952905],"voronoi":{"lat":35.047522,"lng":136.658665,"delta_lat":[0,-21647,-1949,17244,3510],"delta_lng":[0,8955,-20007,-8140,6605]},"impl":true},
    {"code":3102714,"id":"398187","name":"益生","name_kana":"ますお","lat":35.057772,"lng":136.67854,"prefecture":24,"lines":[31027],"attr":"eco","postal_code":"511-0821","address":"桑名市大字矢田７７１","next":[9952902,3000819,9952901,9952903,3102715],"voronoi":{"lat":35.049436,"lng":136.670814,"delta_lat":[0,5510,6965,-51743,-2252],"delta_lng":[0,873,9345,74610,-1410]},"impl":true},
    {"code":9953204,"left":9952907,"right":9953202,"id":"a67a29","name":"下野代","name_kana":"しものしろ","lat":35.115899,"lng":136.647235,"prefecture":24,"lines":[99532],"attr":"heat","postal_code":"511-0117","address":"桑名市多度町下野代３１６２-３","next":[9952906,3001403,9952908,9953203,9952907,9953205,1150807],"voronoi":{"lat":35.13686,"lng":136.676313,"delta_lat":[0,-25071,-12488,-6611,-1248,31408,3600],"delta_lng":[0,-67788,12641,9864,3756,42473,1313]},"impl":true},
    {"code":9952907,"left":9952905,"right":9953205,"id":"53bb9c","name":"七和","name_kana":"ななわ","lat":35.06888,"lng":136.615722,"prefecture":24,"lines":[99529],"attr":"eco","postal_code":"511-0944","address":"桑名市大字芳ケ崎字屋敷田６０２-７","next":[9952804,9953204,9952906,9952908],"voronoi":{"lat":35.052859,"lng":136.60337,"delta_lat":[0,-3801,43631,6611],"delta_lng":[0,14073,13588,-9864]},"impl":true},
    {"code":9952905,"left":9952906,"id":"a2f9e7","name":"在良","name_kana":"ありよし","lat":35.060685,"lng":136.643731,"prefecture":24,"lines":[99529],"attr":"eco","postal_code":"511-0911","address":"桑名市大字額田字中縄３８１-１","next":[9952803,9952906,9953203,9952904,1150809,9952802],"voronoi":{"lat":35.044681,"lng":136.646077,"delta_lat":[0,34997,3909,-39617,-1147,-1652],"delta_lng":[0,4253,-7671,-10801,1461,6153]},"impl":true},
    {"code":9952906,"id":"e6fb5e","name":"星川(三重)","original_name":"星川","name_kana":"ほしかわ","lat":35.064398,"lng":136.630113,"prefecture":24,"lines":[99529],"attr":"eco","postal_code":"511-0912","address":"桑名市星川字十弐９０２の９","next":[9953204,9952905,9952803,9952804,9952907,9953203],"voronoi":{"lat":35.04397,"lng":136.631858,"delta_lat":[0,4393,696,43631,-1248,-7855],"delta_lng":[0,-13506,-910,13588,3756,7873]},"impl":true},
    {"code":9953205,"id":"da3c77","name":"多度","name_kana":"たど","lat":35.133855,"lng":136.640594,"prefecture":24,"lines":[99532],"attr":"cool","postal_code":"511-0105","address":"桑名市多度町小山１８６０-２","next":[9952911,9953206,3001404,9952910,9952908,9953204,3001403,9952909],"voronoi":{"lat":35.111789,"lng":136.608526,"delta_lat":[0,25071,12592,9298,-23258,-11061,-10652,-980],"delta_lng":[0,67788,713,-1675,-78606,3153,5874,1032]},"impl":true},
    {"code":9953202,"left":9952902,"right":9953203,"id":"36fed1","name":"播磨","name_kana":"はりま","lat":35.078242,"lng":136.674595,"prefecture":24,"lines":[99532],"attr":"eco","postal_code":"511-0862","address":"桑名市大字播磨２５００-３","next":[9952904,9952902,9953203,1150807,3102712,9952903,1150808],"voronoi":{"lat":35.088444,"lng":136.684961,"delta_lat":[0,6400,-16572,-4048,-5261,487,12986],"delta_lng":[0,-6037,-23265,3358,11375,4850,15145]},"impl":true},
    {"code":9952902,"left":9952903,"id":"cae652","name":"馬道","name_kana":"うまみち","lat":35.060705,"lng":136.676354,"prefecture":24,"lines":[99529],"attr":"eco","postal_code":"511-0835","address":"桑名市大字本願寺字笠松２２８-２","next":[3102714,9953202,9952901,9952903,1150808],"voronoi":{"lat":35.06945,"lng":136.675242,"delta_lat":[0,-487,-14018,6965,4043],"delta_lng":[0,-4850,1295,9345,-2626]},"impl":true},
    {"code":9952903,"id":"737555","name":"西別所","name_kana":"にしべっしょ","lat":35.059752,"lng":136.666043,"prefecture":24,"lines":[99529],"attr":"eco","postal_code":"511-0851","address":"桑名市大字西別所１８０-２","next":[3102715,9952902,9953202,9952904,3102714],"voronoi":{"lat":35.068964,"lng":136.670391,"delta_lat":[0,5261,-26289,1500,5510],"delta_lng":[0,-11375,180,11617,873]},"impl":true},
    {"code":9953203,"id":"5f6bd9","name":"下深谷","name_kana":"しもふかや","lat":35.096179,"lng":136.661818,"prefecture":24,"lines":[99532],"attr":"heat","postal_code":"511-0808","address":"桑名市大字下深谷部２２７９","next":[9953202,9953204,1150807,9952904,9952905,9952906],"voronoi":{"lat":35.079677,"lng":136.650331,"delta_lat":[0,-1405,16572,28005,-31408,-7855],"delta_lng":[0,5328,23265,-1664,-42473,7873]},"impl":true},
    {"code":9950907,"left":3102711,"right":3102708,"id":"fb0d57","name":"名古屋競馬場前","name_kana":"なごやけいばじょうまえ","lat":35.114529,"lng":136.862739,"prefecture":23,"lines":[99509],"attr":"heat","postal_code":"455-0074","address":"名古屋市港区正保町５丁目３番１","next":[9951503,9950906,9951504,9950908,9951505,3102706],"voronoi":{"lat":35.121533,"lng":136.874967,"delta_lat":[0,-970,-7023,-5711,5972,2800],"delta_lng":[0,377,-325,-2303,-37390,2058]},"impl":true},
    {"code":3102711,"left":1150807,"right":9950909,"id":"108b22","name":"近鉄弥富","name_kana":"きんてつやとみ","lat":35.113634,"lng":136.727638,"prefecture":23,"lines":[31027],"attr":"eco","postal_code":"498-0026","address":"弥富市鯏浦町西前新田５１","next":[9952901,3001404,1150806,3001403,3102710,3102712],"voronoi":{"lat":35.042423,"lng":136.757775,"delta_lat":[0,92592,-1385,-1100,-45502,-21206],"delta_lng":[0,-22048,-4260,-1102,-9036,10721]},"impl":true},
    {"code":1150807,"left":3102712,"right":1150806,"id":"dd8b51","name":"長島","name_kana":"ながしま","lat":35.098196,"lng":136.695751,"prefecture":24,"lines":[11508],"attr":"cool","postal_code":"511-1143","address":"桑名市長島町西外面","next":[3102712,9953203,1150806,9953202,3001403,9953204],"voronoi":{"lat":35.12285,"lng":136.677259,"delta_lat":[0,-28005,-6400,20829,2779,14397],"delta_lng":[0,1664,6037,24073,-1470,-28991]},"impl":true},
    {"code":3102712,"left":9952901,"id":"c23dc5","name":"近鉄長島","name_kana":"きんてつながしま","lat":35.097721,"lng":136.696162,"prefecture":24,"lines":[31027],"attr":"eco","postal_code":"511-1143","address":"桑名市長島町西外面１６４８","next":[1150806,1150807,9953202,1150808,9952901,3102711],"voronoi":{"lat":35.070615,"lng":136.719391,"delta_lat":[0,11822,6008,20829,-22246,-21206],"delta_lng":[0,-29004,-5426,24073,12295,10721]},"impl":true},
    {"code":9952901,"id":"013d97","name":"西桑名","name_kana":"にしくわな","lat":35.065694,"lng":136.684034,"prefecture":24,"lines":[99529],"attr":"eco","postal_code":"511-0061","address":"桑名市寿町２-３１","next":[9952902,3102711,9950911,3102714,3000819,3102712,3102710,1150808],"voronoi":{"lat":35.065953,"lng":136.678405,"delta_lat":[0,-4043,-51743,10088,14033,8134,23399,4793],"delta_lng":[0,2626,74610,7088,1439,-6394,-25725,-12659]},"impl":true},
    {"code":1150806,"id":"3b1336","name":"弥富","name_kana":"やとみ","lat":35.114026,"lng":136.725664,"prefecture":23,"lines":[11508,30014],"attr":"cool","postal_code":"498-0028","address":"弥富市鯏浦町中六","next":[3102712,1150807,3102711,3001403],"voronoi":{"lat":35.112053,"lng":136.707563,"delta_lat":[0,-2779,-22246,45502],"delta_lng":[0,1470,12295,9036]},"impl":true},
    {"code":9950909,"left":9950910,"right":9950908,"id":"7317ec","name":"稲永","name_kana":"いなえい","lat":35.091418,"lng":136.863203,"prefecture":23,"lines":[99509],"attr":"heat","postal_code":"455-0842","address":"名古屋市港区稲永一丁目１番４９号","next":[9951506,9950910,9951507,9950908],"voronoi":{"lat":35.098576,"lng":136.871914,"delta_lat":[0,-24159,19954,5089],"delta_lng":[0,2655,-35574,32568]},"impl":true},
    {"code":9950910,"left":9950911,"id":"d248a2","name":"野跡","name_kana":"のせき","lat":35.075253,"lng":136.854136,"prefecture":23,"lines":[99509],"attr":"eco","postal_code":"455-0845","address":"名古屋市港区野跡二丁目４番３２号","next":[9950908,3102708,3000811,3000809,3102707,9950911,9950909,9951507],"voronoi":{"lat":35.062892,"lng":136.88113,"delta_lat":[0,-5850,15544,14973,10506,-3693,-19954,-10117],"delta_lng":[0,-3876,-80279,13598,12982,15440,35574,6625]},"impl":true},
    {"code":9950911,"id":"615d4b","name":"金城ふ頭","name_kana":"きんじょうふとう","lat":35.048775,"lng":136.849009,"prefecture":23,"lines":[99509],"attr":"eco","postal_code":"455-0848","address":"名古屋市港区金城ふ頭三丁目２番","next":[3102709,3102708,3102710,3000811,3000815,9950910,3000813,9952901,3000812,3000818,3000819,3000814,3000817,3000816],"voronoi":{"lat":35.016324,"lng":136.837189,"delta_lat":[0,-2227,466,5692,14033,18402,18757,1138,-15544,-6625,-12095,-8584,-5463,-2841],"delta_lng":[0,-17714,-27321,-29424,1439,13511,17615,1680,80279,-725,-3262,-5636,-5760,-5210]},"impl":true},
    {"code":9950908,"id":"401236","name":"荒子川公園","name_kana":"あらこがわこうえん","lat":35.104569,"lng":136.861148,"prefecture":23,"lines":[99509],"attr":"heat","postal_code":"455-0066","address":"名古屋市港区寛政町５丁目３９番１","next":[9950910,3102707,9951506,9951505,9950907,9950909,3102706],"voronoi":{"lat":35.107373,"lng":136.828453,"delta_lat":[0,-9309,-3693,5089,5471,2897,5972],"delta_lng":[0,-4898,15440,32568,1298,-145,-37390]},"impl":true},
    {"code":3102708,"left":3001403,"right":9950905,"id":"deccb0","name":"近鉄蟹江","name_kana":"きんてつかにえ","lat":35.129739,"lng":136.794139,"prefecture":23,"lines":[31027],"attr":"heat","postal_code":"497-0033","address":"海部郡蟹江町大字蟹江本町字チの割３６","next":[3102707,9950911,9950910,1150804,1150805,3102709],"voronoi":{"lat":35.135162,"lng":136.779636,"delta_lat":[0,475,377,-48455,-14973,-1138],"delta_lng":[0,50,20136,10751,-13598,-1680]},"impl":true},
    {"code":3001403,"left":3102709,"right":1150805,"id":"6d3c2f","name":"五ノ三","name_kana":"ごのさん","lat":35.129838,"lng":136.711464,"prefecture":23,"lines":[30014],"attr":"cool","postal_code":"498-0012","address":"弥富市五之三町西本田２７","next":[9953204,3001404,3102711,1150807,9953205,1150806],"voronoi":{"lat":35.13363,"lng":136.731467,"delta_lat":[0,15822,-12592,-10410,-14397,20477],"delta_lng":[0,-54440,-713,2259,28991,22801]},"impl":true},
    {"code":3102709,"left":3102710,"id":"e86df0","name":"富吉","name_kana":"とみよし","lat":35.123634,"lng":136.769298,"prefecture":23,"lines":[31027],"attr":"heat","postal_code":"497-0044","address":"海部郡蟹江町大字蟹江新田字与太郎１８-５","next":[1150805,9950911,3102710,3102708],"voronoi":{"lat":35.05269,"lng":136.777679,"delta_lat":[0,71981,10490,-63714],"delta_lng":[0,-17484,19440,15659]},"impl":true},
    {"code":3102710,"id":"5958cc","name":"佐古木","name_kana":"さこぎ","lat":35.119574,"lng":136.752583,"prefecture":23,"lines":[31027],"attr":"eco","postal_code":"498-0000","address":"弥富市佐古木６丁目２２７-２","next":[3001404,9950911,3102709,1150805,3102711,3001405,9952901],"voronoi":{"lat":35.042423,"lng":136.757775,"delta_lat":[0,92592,6634,39,-17016,-71981,-18402],"delta_lng":[0,-22048,5160,70,19239,17484,-13511]},"impl":true},
    {"code":1150805,"id":"a8c0d6","name":"永和","name_kana":"えいわ","lat":35.13285,"lng":136.764325,"prefecture":23,"lines":[11508],"attr":"cool","postal_code":"496-0922","address":"愛西市大野町","next":[3102709,3001305,3102708,3102710,3001306,1150804,3001405],"voronoi":{"lat":35.141688,"lng":136.740957,"delta_lat":[0,-17016,10490,475,29931,222,-1053],"delta_lng":[0,19239,19440,50,-9330,-5310,-4606]},"impl":true},
    {"code":9950905,"left":9950906,"right":3102707,"id":"34a1ee","name":"南荒子","name_kana":"みなみあらこ","lat":35.131707,"lng":136.861771,"prefecture":23,"lines":[99509],"attr":"cool","postal_code":"454-0876","address":"名古屋市中川区若山町２丁目５９番２","next":[9950904,9951503,9950906,9951301],"voronoi":{"lat":35.136028,"lng":136.87731,"delta_lat":[0,-8479,1502,6755],"delta_lng":[0,-2229,-23191,6062]},"impl":true},
    {"code":9950906,"id":"2c8590","name":"中島(愛知)","original_name":"中島","name_kana":"なかじま","lat":35.125144,"lng":136.861346,"prefecture":23,"lines":[99509],"attr":"cool","postal_code":"454-0865","address":"名古屋市中川区掛入町３丁目２４番","next":[3102706,9950907,9950905,9951301,9951503],"voronoi":{"lat":35.121533,"lng":136.874967,"delta_lat":[0,-4932,5746,6705,-1502],"delta_lng":[0,-37583,2579,11928,23191]},"impl":true},
    {"code":3102707,"id":"ec7201","name":"戸田(愛知)","original_name":"戸田","name_kana":"とだ","lat":35.132731,"lng":136.807624,"prefecture":23,"lines":[31027],"attr":"heat","postal_code":"454-0963","address":"名古屋市中川区水里３-１３７","next":[9950908,3102708,9950910,1150804,3102706,1150803],"voronoi":{"lat":35.141793,"lng":136.803757,"delta_lat":[0,-5780,-48455,10506,9309,25879],"delta_lng":[0,-3936,10751,12982,4898,-9539]},"impl":true},
    {"code":3000143,"left":3001407,"right":9951306,"id":"e1c2ab","name":"丸ノ内","name_kana":"まるのうち","lat":35.204742,"lng":136.841927,"prefecture":23,"lines":[30001],"attr":"heat","postal_code":"452-0942","address":"清須市清洲","next":[3000144,9951002,3000142,3001302],"voronoi":{"lat":35.202148,"lng":136.832747,"delta_lat":[0,12022,-8092,-10078],"delta_lng":[0,12379,5100,-14191]},"impl":true},
    {"code":3001407,"left":3001308,"right":3001305,"id":"57c54c","name":"町方","name_kana":"まちかた","lat":35.18898,"lng":136.727551,"prefecture":23,"lines":[30014],"attr":"cool","postal_code":"496-8014","address":"愛西市町方町南堤外１","next":[3001308,3001404,9953207,3001405,3001307,3001408,9953206,3001409],"voronoi":{"lat":35.200859,"lng":136.676395,"delta_lat":[0,-18530,-2594,-4607,224,9337,10374,5931],"delta_lng":[0,1476,772,17450,7223,29816,64,-45336]},"impl":true},
    {"code":3001308,"left":3001405,"right":1150803,"id":"a0fec5","name":"津島","name_kana":"つしま","lat":35.177982,"lng":136.730995,"prefecture":23,"lines":[30013,30014],"attr":"cool","postal_code":"496-0802","address":"津島市錦町１-１","next":[3001407,3001307,3001306,3001405],"voronoi":{"lat":35.175353,"lng":136.703317,"delta_lat":[0,9337,-17919,-1547],"delta_lng":[0,29816,25201,1391]},"impl":true},
    {"code":3001405,"left":3001404,"right":9953207,"id":"a019e3","name":"日比野(名古屋鉄道)","original_name":"日比野","name_kana":"ひびの","lat":35.163258,"lng":136.728351,"prefecture":23,"lines":[30014],"attr":"cool","postal_code":"496-0904","address":"愛知県愛西市柚木町東田面793番地3","next":[3001407,3001306,3001404,3102710,3001308,1150805],"voronoi":{"lat":35.141688,"lng":136.740957,"delta_lat":[0,-39,33480,224,-10129,-487],"delta_lng":[0,-70,-44793,7223,56408,715]},"impl":true},
    {"code":3001404,"left":9953206,"id":"c8a3e1","name":"佐屋","name_kana":"さや","lat":35.147552,"lng":136.716612,"prefecture":23,"lines":[30014],"attr":"cool","postal_code":"496-0902","address":"愛西市須依町佐原２２７７","next":[3001407,3102710,3001405,9953205,3001403,3102711,9953206],"voronoi":{"lat":35.175128,"lng":136.696093,"delta_lat":[0,-33480,-6634,-1385,15822,9298,20986],"delta_lng":[0,44793,-5160,-4260,-54440,-1675,3292]},"impl":true},
    {"code":9953206,"id":"e6fc4b","name":"美濃松山","name_kana":"みのまつやま","lat":35.160724,"lng":136.632644,"prefecture":21,"lines":[99532],"attr":"eco","postal_code":"503-0535","address":"海津市南濃町松山古堤２２１","next":[9953207,9953205,9952912,3001407,3001404,9952911],"voronoi":{"lat":35.158248,"lng":136.581089,"delta_lat":[0,778,23303,-2594,-20986,-23258],"delta_lng":[0,-215,96998,772,-3292,-78606]},"impl":true},
    {"code":9953207,"id":"b75397","name":"石津(岐阜)","original_name":"石津","name_kana":"いしづ","lat":35.181032,"lng":136.627765,"prefecture":21,"lines":[99532],"attr":"eco","postal_code":"503-0532","address":"海津市南濃町太田通９２","next":[9953208,9953206,3001407,9952912,3001409],"voronoi":{"lat":35.18233,"lng":136.677871,"delta_lat":[0,-23303,13128,35058,-6353],"delta_lng":[0,-96998,-6730,100150,2102]},"impl":true},
    {"code":1150803,"left":3102706,"right":3001307,"id":"7df2ff","name":"春田","name_kana":"はるた","lat":35.14318,"lng":136.813512,"prefecture":23,"lines":[11508],"attr":"heat","postal_code":"454-0985","address":"名古屋市中川区春田２-９２-２","next":[3001302,3001303,3102706,1150804,3102707],"voronoi":{"lat":35.141793,"lng":136.803757,"delta_lat":[0,26643,1882,-2271,-34795],"delta_lng":[0,-1508,13941,10001,-7278]},"impl":true},
    {"code":3102706,"left":1150804,"id":"d16803","name":"伏屋","name_kana":"ふしや","lat":35.140183,"lng":136.827841,"prefecture":23,"lines":[31027],"attr":"cool","postal_code":"454-0996","address":"名古屋市中川区伏屋２-２８-１１","next":[9950906,9951301,9951303,1150803,3102707,9950907,9951304,3001302,1150802,9950908],"voronoi":{"lat":35.116601,"lng":136.837383,"delta_lat":[0,5746,20232,15223,7027,3260,-41,-34795,-25879,6427],"delta_lng":[0,2579,807,-5480,-4835,-3311,-952,-7278,9539,6873]},"impl":true},
    {"code":1150804,"id":"3af26a","name":"蟹江","name_kana":"かにえ","lat":35.142071,"lng":136.793908,"prefecture":23,"lines":[11508],"attr":"cool","postal_code":"497-0032","address":"海部郡蟹江町大字今上六反田","next":[3102708,3102707,3001305,1150803,1150805,3001304,3001303],"voronoi":{"lat":35.16948,"lng":136.797767,"delta_lat":[0,-2858,-1055,-29931,377,5780,26643],"delta_lng":[0,-25185,-2227,9330,20136,3936,-1508]},"impl":true},
    {"code":3001307,"id":"c366f2","name":"藤浪","name_kana":"ふじなみ","lat":35.188911,"lng":136.738766,"prefecture":23,"lines":[30013],"attr":"heat","postal_code":"496-8011","address":"愛西市諏訪町中島３６７","next":[3001408,3001407,3001308,3001306],"voronoi":{"lat":35.18469,"lng":136.733132,"delta_lat":[0,10374,4836,-33129],"delta_lng":[0,64,6892,18245]},"impl":true},
    {"code":3001305,"left":3001408,"right":3001302,"id":"aa93a2","name":"青塚","name_kana":"あおつか","lat":35.198674,"lng":136.76708,"prefecture":23,"lines":[30013],"attr":"heat","postal_code":"496-0001","address":"津島市青塚町字高畑３０４-４","next":[3001410,3001306,1150805,3000147,1150804,3001411,3001304,3001412,3000146],"voronoi":{"lat":35.166623,"lng":136.772582,"delta_lat":[0,-1055,222,54055,911,10336,4111,-3258,-6594],"delta_lng":[0,-2227,-5310,-11229,573,10509,6569,5043,5526]},"impl":true},
    {"code":3001408,"left":3001306,"right":3001409,"id":"fabeaf","name":"六輪","name_kana":"ろくわ","lat":35.202395,"lng":136.729306,"prefecture":23,"lines":[30014],"attr":"cool","postal_code":"490-1323","address":"稲沢市平和町須ケ脇４２６","next":[3001409,3001307,3001306,3001407],"voronoi":{"lat":35.200995,"lng":136.687861,"delta_lat":[0,9956,-11051,-4836],"delta_lng":[0,56085,-3857,-6892]},"impl":true},
    {"code":3001306,"left":9953208,"id":"8a09b0","name":"勝幡","name_kana":"しょばた","lat":35.195143,"lng":136.750082,"prefecture":23,"lines":[30013],"attr":"heat","postal_code":"496-8001","address":"愛西市勝幡町五俵入２２６６-４","next":[3001410,3001405,3001408,3001305,3001307,1150805,3001308,3001409],"voronoi":{"lat":35.219844,"lng":136.753817,"delta_lat":[0,-54055,-1053,487,1547,33129,11051,3590],"delta_lng":[0,11229,-4606,-715,-1391,-18245,3857,2958]},"impl":true},
    {"code":9953208,"id":"d102af","name":"美濃山崎","name_kana":"みのやまざき","lat":35.198658,"lng":136.621595,"prefecture":21,"lines":[99532],"attr":"eco","postal_code":"503-0415","address":"海津市南濃町山崎大立２６７","next":[9953207,9952912,3001409,3001411,9953209,3001410],"voronoi":{"lat":35.248407,"lng":136.666863,"delta_lat":[0,1742,-70625,-7369,35058,22472],"delta_lng":[0,-552,-97725,5558,100150,-3251]},"impl":true},
    {"code":3001409,"id":"b3bfa7","name":"渕高","name_kana":"ふちだか","lat":35.213944,"lng":136.727256,"prefecture":23,"lines":[30014],"attr":"cool","postal_code":"496-8018","address":"愛西市渕高町五ノ割４０-４","next":[3001408,9953208,3001410,9953207,3001407,3001306],"voronoi":{"lat":35.229685,"lng":136.671043,"delta_lat":[0,-22472,-6353,135,9956,3590],"delta_lng":[0,3251,2102,11465,56085,2958]},"impl":true},
    {"code":3001302,"left":3001303,"right":3000144,"id":"e991bf","name":"甚目寺","name_kana":"じもくじ","lat":35.195953,"lng":136.825492,"prefecture":23,"lines":[30013],"attr":"cool","postal_code":"490-1111","address":"愛知県あま市甚目寺郷浦","next":[3000144,3000142,1150803,9951304,3000145,3102706,3000143,3001303],"voronoi":{"lat":35.209652,"lng":136.815824,"delta_lat":[0,962,-8466,-6148,-16308,-11604,-41,2271],"delta_lng":[0,4121,12802,3288,2147,-11038,-952,-10001]},"impl":true},
    {"code":3001303,"left":3001304,"id":"b8fd0e","name":"七宝","name_kana":"しっぽう","lat":35.195775,"lng":136.806413,"prefecture":23,"lines":[30013],"attr":"cool","postal_code":"497-0001","address":"愛知県あま市七宝町沖之島返上地82-1","next":[3000145,1150803,3001304,3000146,1150804,3001302],"voronoi":{"lat":35.168436,"lng":136.80225,"delta_lat":[0,1044,47481,-108,-7201,-39334],"delta_lng":[0,-4482,-1144,956,18244,367]},"impl":true},
    {"code":3001304,"id":"d7d774","name":"木田","name_kana":"きだ","lat":35.195328,"lng":136.787865,"prefecture":23,"lines":[30013],"attr":"cool","postal_code":"490-1222","address":"愛知県あま市木田道下54-2","next":[3001303,3000146,3001305,1150804],"voronoi":{"lat":35.166623,"lng":136.772582,"delta_lat":[0,58728,-8389,-47481],"delta_lng":[0,9454,14587,1144]},"impl":true},
    {"code":3000144,"id":"48a157","name":"新清洲","name_kana":"しんきよす","lat":35.211249,"lng":136.835607,"prefecture":23,"lines":[30001],"attr":"heat","postal_code":"452-0943","address":"清須市新清洲１丁目","next":[3000143,3001302,1150235,9951002,3000145],"voronoi":{"lat":35.210614,"lng":136.819944,"delta_lat":[0,-8466,12022,4889,-1417],"delta_lng":[0,12802,12379,-439,-18619]},"impl":true},
    {"code":9951306,"left":9950903,"right":1150234,"id":"afa72f","name":"本陣","name_kana":"ほんじん","lat":35.177135,"lng":136.866782,"prefecture":23,"lines":[99513],"attr":"eco","postal_code":"453-0044","address":"名古屋市中村区鳥居通２-３６","next":[3000137,3000138,3000140,9951305,9951701,9951307],"voronoi":{"lat":35.17096,"lng":136.867833,"delta_lat":[0,12145,2177,-1159,-5433,-5012],"delta_lng":[0,-11426,5294,4337,5678,197]},"impl":true},
    {"code":9950903,"left":9951303,"right":3102703,"id":"1ed7ba","name":"小本","name_kana":"こもと","lat":35.14921,"lng":136.861331,"prefecture":23,"lines":[99509],"attr":"cool","postal_code":"454-0828","address":"名古屋市中川区小本１丁目１９番１６号","next":[3102704,9950904,3102705,9951303],"voronoi":{"lat":35.144974,"lng":136.871473,"delta_lat":[0,-519,9589,52],"delta_lng":[0,-13849,526,70]},"impl":true},
    {"code":9951303,"left":3102705,"right":9951304,"id":"61bc90","name":"岩塚","name_kana":"いわつか","lat":35.158459,"lng":136.854406,"prefecture":23,"lines":[99513],"attr":"eco","postal_code":"453-0862","address":"名古屋市中村区岩塚町字向田３７-１","next":[1150802,9951304,3102706,3102705,9950903,3102704],"voronoi":{"lat":35.164828,"lng":136.830455,"delta_lat":[0,-7027,-3793,36,52,8464],"delta_lng":[0,4835,16749,6111,70,4927]},"impl":true},
    {"code":3102705,"left":1150802,"id":"dec41f","name":"近鉄八田","name_kana":"きんてつはった","lat":35.149587,"lng":136.854458,"prefecture":23,"lines":[31027],"attr":"cool","postal_code":"453-0856","address":"名古屋市中村区並木２-３３３","next":[9951301,1150802,9951303,9950903,9950904],"voronoi":{"lat":35.154045,"lng":136.858149,"delta_lat":[0,-36,-9709,-226,382],"delta_lng":[0,-6111,2710,2367,508]},"impl":true},
    {"code":1150802,"id":"efce45","name":"八田","name_kana":"はった","lat":35.148973,"lng":136.852258,"prefecture":23,"lines":[11508,99513],"attr":"heat","postal_code":"454-0877","address":"名古屋市中川区八田町字下長田","next":[9951303,9951301,3102705,3102706],"voronoi":{"lat":35.157802,"lng":136.835289,"delta_lat":[0,-3793,-9709,-1721],"delta_lng":[0,16749,2710,-13979]},"impl":true},
    {"code":9951304,"id":"f5c607","name":"中村公園","name_kana":"なかむらこうえん","lat":35.16783,"lng":136.855056,"prefecture":23,"lines":[99513],"attr":"eco","postal_code":"453-0834","address":"名古屋市中村区豊国通１-３","next":[3102704,9951303,3000141,3001302,3000142,3102703,3102706,9951305],"voronoi":{"lat":35.18145,"lng":136.850657,"delta_lat":[0,-1132,-626,-11604,-3260,-2268,114,89],"delta_lng":[0,-10286,-2189,-11038,3311,32692,191,67]},"impl":true},
    {"code":3102703,"left":3102704,"right":9951305,"id":"a6fde7","name":"黄金(愛知)","original_name":"黄金","name_kana":"こがね","lat":35.156185,"lng":136.870621,"prefecture":23,"lines":[31027],"attr":"cool","postal_code":"453-0804","address":"名古屋市中村区黄金通８-１６","next":[1150232,3102704,3000135,9951304,9951305,3102702,9950904,9951701],"voronoi":{"lat":35.163472,"lng":136.864695,"delta_lat":[0,-708,-89,-17778,-2599,1385,8278,9545],"delta_lng":[0,-1290,-67,8590,4704,624,1789,-5379]},"impl":true},
    {"code":3102704,"left":9950904,"id":"739a90","name":"烏森","name_kana":"かすもり","lat":35.152935,"lng":136.863895,"prefecture":23,"lines":[31027],"attr":"cool","postal_code":"453-0855","address":"名古屋市中村区烏森町１-１３２-８","next":[9951304,9950903,9950904,3102703,9951303],"voronoi":{"lat":35.162674,"lng":136.863337,"delta_lat":[0,-17778,78,9122,8464],"delta_lng":[0,8590,-455,-13253,4927]},"impl":true},
    {"code":9950904,"id":"090a07","name":"荒子","name_kana":"あらこ","lat":35.139992,"lng":136.861676,"prefecture":23,"lines":[99509],"attr":"cool","postal_code":"454-0874","address":"名古屋市中川区吉良町１３８番２","next":[9950905,9951503,9951502,3102704,9951301,9950903,1150232,3102703,3102705],"voronoi":{"lat":35.144074,"lng":136.857116,"delta_lat":[0,-8267,222,45,1655,4569,2599,78,-519],"delta_lng":[0,837,19358,26,383,-1088,-4704,-455,-13849]},"impl":true},
    {"code":9951305,"id":"19e63b","name":"中村日赤","name_kana":"なかむらにっせき","lat":35.172385,"lng":136.861733,"prefecture":23,"lines":[99513],"attr":"eco","postal_code":"453-0046","address":"名古屋市中村区道下町３-３５","next":[9951701,3000141,3102703,9951306,9951304,3000140],"voronoi":{"lat":35.18288,"lng":136.854078,"delta_lat":[0,-1430,-18687,708,7488,12145],"delta_lng":[0,-3422,12748,1290,3138,-11426]},"impl":true},
    {"code":1150234,"left":3000142,"right":3000139,"id":"8fe63c","name":"枇杷島","name_kana":"びわじま","lat":35.198681,"lng":136.861816,"prefecture":23,"lines":[11502,99510],"attr":"eco","postal_code":"452-0064","address":"清須市西枇杷島町旭１丁目","next":[3001504,3000140,3000139,3000141,9951002],"voronoi":{"lat":35.199688,"lng":136.866441,"delta_lat":[0,-4068,3463,5034,4071],"delta_lng":[0,-3855,-6257,-1527,8559]},"impl":true},
    {"code":3000142,"left":3000140,"right":9951002,"id":"8aac8a","name":"須ヶ口","name_kana":"すかぐち","lat":35.198684,"lng":136.846229,"prefecture":23,"lines":[30001,30013],"attr":"heat","postal_code":"452-0912","address":"愛知県清須市須ヶ口駅前一丁目1","next":[3000141,3001302,3000143,9951002,9951304],"voronoi":{"lat":35.204455,"lng":136.85287,"delta_lat":[0,1624,-10078,-16308,626],"delta_lng":[0,-2644,-14191,2147,2189]},"impl":true},
    {"code":3000140,"left":3000141,"id":"81b119","name":"二ツ杁","name_kana":"ふたついり","lat":35.194646,"lng":136.859583,"prefecture":23,"lines":[30001],"attr":"heat","postal_code":"452-0065","address":"清須市西枇杷島町芳野","next":[3000141,3000138,1150234,9951306,3000139,9951305],"voronoi":{"lat":35.18288,"lng":136.854078,"delta_lat":[0,16202,-3463,-7419,-2919,-2177],"delta_lng":[0,2251,6257,448,-1334,-5294]},"impl":true},
    {"code":3000141,"id":"56d68c","name":"新川橋","name_kana":"しんかわばし","lat":35.195701,"lng":136.851989,"prefecture":23,"lines":[30001],"attr":"heat","postal_code":"452-0913","address":"清須市上河原","next":[3000142,3000140,9951304,9951305,9951002,1150234],"voronoi":{"lat":35.18288,"lng":136.854078,"delta_lat":[0,-1430,-1132,24136,-338,-5034],"delta_lng":[0,-3422,-10286,12499,1933,1527]},"impl":true},
    {"code":9951002,"id":"39c73a","name":"尾張星の宮","name_kana":"おわりほしのみや","lat":35.212988,"lng":136.855011,"prefecture":23,"lines":[99510],"attr":"cool","postal_code":"452-0901","address":"清須市阿原星の宮","next":[3001506,3000143,3001507,3000142,3001505,1150235,3000144,3001504,3000141,1150234],"voronoi":{"lat":35.204117,"lng":136.854802,"delta_lat":[0,338,1624,8092,4889,14648,-3401,-11024,-7335,-3760],"delta_lng":[0,-1933,-2644,-5100,-439,8881,6632,5275,560,-2673]},"impl":true},
    {"code":3000139,"left":3000138,"right":3001504,"id":"80fecd","name":"西枇杷島","name_kana":"にしびわじま","lat":35.195015,"lng":136.865685,"prefecture":23,"lines":[30001],"attr":"heat","postal_code":"452-0000","address":"清須市西枇杷島町下小田井川口","next":[3001504,1150234,3000138,3000140],"voronoi":{"lat":35.195619,"lng":136.862586,"delta_lat":[0,4068,-3901,-7586],"delta_lng":[0,3855,5405,-8812]},"impl":true},
    {"code":3000138,"id":"f153f5","name":"東枇杷島","name_kana":"ひがしびわじま","lat":35.189808,"lng":136.870168,"prefecture":23,"lines":[30001,30015],"attr":"heat","postal_code":"451-0053","address":"名古屋市西区枇杷島通３丁目","next":[9951306,3000140,3000137,3000139,3001504,9951604],"voronoi":{"lat":35.19547,"lng":136.879975,"delta_lat":[0,316,-7586,-2919,-1159,6813],"delta_lng":[0,-8129,-8812,-1334,4337,14464]},"impl":true},
    {"code":3001504,"id":"b17d33","name":"下小田井","name_kana":"しもおたい","lat":35.201878,"lng":136.870638,"prefecture":23,"lines":[30015],"attr":"cool","postal_code":"452-0022","address":"清須市西枇杷島町上新","next":[3000139,1150234,9951604,3001505,3000138,9951002,9951603],"voronoi":{"lat":35.204942,"lng":136.880616,"delta_lat":[0,7005,-3760,-8500,-3901,-316,3044],"delta_lng":[0,-14582,-2673,3080,5405,8129,1459]},"impl":true}
  ]
}