{
  "name":"segment17",
  "root":9964505,
  "east":135.393821,
  "west":-180.0,
  "south":34.63865,
  "north":34.719797,
  "station_size":155,
  "node_list":[
    {"code":9964505,"left":1171302,"right":9963004,"id":"e238f2","name":"総合運動公園","name_kana":"そうごううんどうこうえん","lat":34.68186,"lng":135.075838,"prefecture":28,"lines":[99645],"attr":"eco","postal_code":"654-0163","address":"神戸市須磨区緑台","next":[9964504,9964506,9963505,9963709,9963708,9963506],"voronoi":{"lat":34.714565,"lng":135.066057,"delta_lat":[0,-57699,-220,1508,53366,3471],"delta_lng":[0,1236,3907,11108,7064,-17192]},"impl":true},
    {"code":1171302,"left":9970605,"right":1160916,"id":"abeee8","name":"備前三門","name_kana":"びぜんみかど","lat":34.66786,"lng":133.900501,"prefecture":33,"lines":[11713],"attr":"cool","postal_code":"700-0051","address":"岡山市下伊福上町","next":[1171303,1171516,1171304,1161002,100306,1170902],"voronoi":{"lat":34.681852,"lng":133.910571,"delta_lat":[0,27661,-23524,-30830,-860,5101],"delta_lng":[0,-17377,-7091,11971,842,10053]},"impl":true},
    {"code":9970605,"left":9970705,"right":9970610,"id":"48dcb1","name":"県庁通り","name_kana":"けんちょうどおり","lat":34.662599,"lng":133.930485,"prefecture":33,"lines":[99706],"attr":"eco","postal_code":"700-0823","address":"岡山市丸の内１-１５","next":[9970604,9970606,9970608,9970704,9970705,9970607],"voronoi":{"lat":34.660568,"lng":133.933738,"delta_lat":[0,-50,1173,1988,2417,-912],"delta_lng":[0,-4817,-547,17,9945,-632]},"impl":true},
    {"code":9970705,"left":1170902,"right":9970601,"id":"8422b8","name":"田町(岡山)","original_name":"田町","name_kana":"たまち","lat":34.660658,"lng":133.926322,"prefecture":33,"lines":[99707],"attr":"eco","postal_code":"700-0825","address":"岡山市田町１-１３","next":[9970706,9970606,9970601,9970602,9970605,9970704],"voronoi":{"lat":34.661562,"lng":133.922327,"delta_lat":[0,-373,-1497,-152,978,1173],"delta_lng":[0,-558,-1154,7798,509,-547]},"impl":true},
    {"code":1170902,"left":1170827,"right":9970707,"id":"d56652","name":"大元","name_kana":"おおもと","lat":34.647571,"lng":133.910795,"prefecture":33,"lines":[11709],"attr":"heat","postal_code":"700-0923","address":"岡山市大元駅前","next":[9970708,9970601,9970709,1170903,1171302,1161002,100306,9970707],"voronoi":{"lat":34.654293,"lng":133.917021,"delta_lat":[0,-27925,18809,9122,5101,-1766,-1476,-431],"delta_lng":[0,7664,-27713,1943,10053,4326,2837,249]},"impl":true},
    {"code":1170827,"left":1161003,"right":1161002,"id":"022369","name":"本俣賀","name_kana":"ほんまたが","lat":34.652647,"lng":131.826922,"prefecture":32,"lines":[11708],"attr":"heat","postal_code":"699-5122","address":"益田市本俣賀町","next":[1170202,1170823,1170145,1170826],"voronoi":{"lat":34.657636,"lng":131.781166,"delta_lat":[0,28969,-87979,-4017],"delta_lng":[0,6619,188001,-97105]},"impl":true},
    {"code":1161003,"left":1170306,"id":"5f7b38","name":"庭瀬","name_kana":"にわせ","lat":34.642858,"lng":133.854454,"prefecture":33,"lines":[11610,11703],"attr":"heat","postal_code":"701-0151","address":"岡山市平野","next":[1171305,1161004,1170904,1170906,1171304,1161002,1170905],"voronoi":{"lat":34.625713,"lng":133.837713,"delta_lat":[0,2038,24360,8818,-1952,-27391,-7911],"delta_lng":[0,-3921,-8624,33800,7293,8995,-16297]},"impl":true},
    {"code":1170306,"id":"bb9076","name":"清音","name_kana":"きよね","lat":34.643671,"lng":133.733461,"prefecture":33,"lines":[11703,99705],"attr":"heat","postal_code":"719-1175","address":"総社市清音上中島","next":[9970402,1171309,1170307,1161005,9970503,1161004],"voronoi":{"lat":34.656305,"lng":133.75083,"delta_lat":[0,6356,-46010,1621,21998,4348],"delta_lng":[0,-41756,28348,6206,28407,999]},"impl":true},
    {"code":1161002,"id":"f88113","name":"北長瀬","name_kana":"きたながせ","lat":34.652995,"lng":133.885325,"prefecture":33,"lines":[11610,11703],"attr":"heat","postal_code":"700-0963","address":"岡山市北長瀬","next":[1171304,1171303,1171302,1170903,1170904,1170902,1161003],"voronoi":{"lat":34.658977,"lng":133.866261,"delta_lat":[0,2978,-6795,-860,-9122,-13926,334],"delta_lng":[0,3623,28190,842,-1943,-20655,-1062]},"impl":true},
    {"code":9970707,"left":9970709,"right":9970706,"id":"71e3b4","name":"大雲寺前","name_kana":"だいうんじまえ","lat":34.656492,"lng":133.926237,"prefecture":33,"lines":[99707],"attr":"heat","postal_code":"700-0836","address":"岡山市中央町３番地","next":[9970606,9970709,9970601,9970706,1170902],"voronoi":{"lat":34.656159,"lng":133.916132,"delta_lat":[0,1509,-215,-2067,342],"delta_lng":[0,2205,10059,952,-12967]},"impl":true},
    {"code":9970709,"left":9970708,"id":"e6680e","name":"東中央町","name_kana":"ひがしちゅうおうちょう","lat":34.654445,"lng":133.926183,"prefecture":33,"lines":[99707],"attr":"cool","postal_code":"700-0835","address":"岡山市東中央町地先","next":[9970708,1170902,9970606,9970707],"voronoi":{"lat":34.655728,"lng":133.916381,"delta_lat":[0,-1434,-2085,3177],"delta_lng":[0,641,15269,-2943]},"impl":true},
    {"code":9970708,"id":"94b65c","name":"清輝橋","name_kana":"せいきばし","lat":34.651691,"lng":133.925807,"prefecture":33,"lines":[99707],"attr":"cool","postal_code":"700-0861","address":"岡山市清輝橋１-４","next":[1170902,9970709,9970609,1170903,9970607,9970606,9970610],"voronoi":{"lat":34.628862,"lng":133.941028,"delta_lat":[0,21198,1985,164,2085,-27925,-33273],"delta_lng":[0,-7367,-1135,-235,-15269,7664,25950]},"impl":true},
    {"code":9970706,"id":"ca0c68","name":"新西大寺町筋","name_kana":"しんさいだいじちょうすじ","lat":34.658504,"lng":133.92628,"prefecture":33,"lines":[99707],"attr":"heat","postal_code":"700-0825","address":"岡山市田町２-１０","next":[9970705,9970606,9970707,9970601],"voronoi":{"lat":34.65954,"lng":133.928413,"delta_lat":[0,-2087,215,2024],"delta_lng":[0,-17,-10059,2278]},"impl":true},
    {"code":9970601,"left":1172020,"right":9970604,"id":"bba0b3","name":"岡山駅前","name_kana":"おかやまえきまえ","lat":34.665458,"lng":133.9201,"prefecture":33,"lines":[99706,99707],"attr":"eco","postal_code":"700-0023","address":"岡山市駅前町１-１","next":[1170902,9970602,100306,9970705,9970707,9970706],"voronoi":{"lat":34.661188,"lng":133.921769,"delta_lat":[0,7704,-11258,-1476,1509,2024],"delta_lng":[0,-372,-8102,2837,2205,2278]},"impl":true},
    {"code":1172020,"left":1171303,"right":100306,"id":"1a7019","name":"備後矢野","name_kana":"びんごやの","lat":34.664316,"lng":133.125736,"prefecture":34,"lines":[11720],"attr":"cool","postal_code":"729-3415","address":"府中市上下町矢多田","next":[1172022,1172015,1172018,1172019,1172017,1172021],"voronoi":{"lat":34.69251,"lng":133.243503,"delta_lat":[0,-35637,-25826,31494,9467,45443],"delta_lng":[0,-43253,-46911,-68793,8385,171529]},"impl":true},
    {"code":1171303,"left":1171431,"id":"835ef1","name":"大安寺","name_kana":"だいあんじ","lat":34.662894,"lng":133.887711,"prefecture":33,"lines":[11713],"attr":"cool","postal_code":"700-0062","address":"岡山市大安寺中町","next":[1171302,1161002,1171304],"voronoi":{"lat":34.655159,"lng":133.898073,"delta_lat":[0,6795,24035],"delta_lng":[0,-28190,16219]},"impl":true},
    {"code":1171431,"id":"aba69b","name":"吉田口","name_kana":"よしだぐち","lat":34.664106,"lng":132.745832,"prefecture":34,"lines":[11714],"attr":"heat","postal_code":"739-1103","address":"安芸高田市甲田町下小原","next":[1171432,1171430,1170728,1161104,1171433,1161103],"voronoi":{"lat":34.724707,"lng":132.659602,"delta_lat":[0,-10832,-22589,-107964,2544,28310],"delta_lng":[0,-49442,25428,203417,4884,38234]},"impl":true},
    {"code":100306,"id":"a9d3b2","name":"岡山","name_kana":"おかやま","lat":34.666572,"lng":133.918552,"prefecture":33,"lines":[1003,11609,11610,11631,11703,11709,11713,11715],"attr":"heat","postal_code":"700-0024","address":"岡山市駅元町１丁目","next":[9970601,9970602,1171302,1170902,1171516],"voronoi":{"lat":34.681852,"lng":133.910571,"delta_lat":[0,-22452,-1766,11258,6893],"delta_lng":[0,-1602,4326,8102,1502]},"impl":true},
    {"code":9970604,"left":9970704,"right":9970603,"id":"badf4b","name":"城下(岡山)","original_name":"城下","name_kana":"しろした","lat":34.665599,"lng":133.929756,"prefecture":33,"lines":[99706],"attr":"eco","postal_code":"700-0822","address":"岡山市表町１-３","next":[9970605,1160919,9970608,9970704,9970603,1171516],"voronoi":{"lat":34.675117,"lng":133.927712,"delta_lat":[0,-10538,-901,2417,2178,6983],"delta_lng":[0,-89,769,9945,2182,-11588]},"impl":true},
    {"code":9970704,"left":9970602,"id":"0d4329","name":"郵便局前","name_kana":"ゆうびんきょくまえ","lat":34.662634,"lng":133.92628,"prefecture":33,"lines":[99707],"attr":"eco","postal_code":"700-0821","address":"岡山市中山下１-３","next":[9970603,9970602,9970605,9970604,9970705],"voronoi":{"lat":34.661562,"lng":133.922327,"delta_lat":[0,2160,858,-901,-1988],"delta_lng":[0,1963,3333,769,-17]},"impl":true},
    {"code":9970602,"id":"255fc1","name":"西川緑道公園","name_kana":"にしがわりょくどうこうえん","lat":34.665599,"lng":133.923018,"prefecture":33,"lines":[99706,99707],"attr":"eco","postal_code":"700-0815","address":"岡山市野田屋町１-１","next":[9970601,9970603,100306,9970704,9970705,1171516],"voronoi":{"lat":34.675786,"lng":133.922898,"delta_lat":[0,-6893,-7704,373,2160,11777],"delta_lng":[0,-1502,372,558,1963,-170]},"impl":true},
    {"code":9970603,"id":"cef8e7","name":"柳川","name_kana":"やながわ","lat":34.665635,"lng":133.925507,"prefecture":33,"lines":[99706,99707],"attr":"eco","postal_code":"700-0826","address":"岡山市磨屋町２-１","next":[9970704,1171516,9970602,9970604],"voronoi":{"lat":34.675499,"lng":133.92412,"delta_lat":[0,-11777,858,10538],"delta_lng":[0,170,3333,89]},"impl":true},
    {"code":9970610,"left":9963717,"right":1163117,"id":"d550d1","name":"東山・おかでんミュージアム駅","name_kana":"ひがしやま・おかでんみゅーじあむえき","lat":34.656245,"lng":133.942759,"prefecture":33,"lines":[99706],"attr":"cool","postal_code":"703-8291","address":"岡山市徳吉町２-１０","next":[1170903,1160916,1170913,9970608,9970609,1163118,1170914,1160915,9970708,1160919],"voronoi":{"lat":34.66827,"lng":133.943225,"delta_lat":[0,-9558,-29850,-35766,-2921,-3961,31,69402,2,14099],"delta_lng":[0,-2462,265,9608,1689,21151,12142,-10275,-2,-25248]},"impl":true},
    {"code":9963717,"left":9963719,"right":9963715,"id":"33722f","name":"山陽明石","name_kana":"さんようあかし","lat":34.648725,"lng":134.99294,"prefecture":28,"lines":[99637],"attr":"heat","postal_code":"673-0891","address":"明石市大明石町１-４-１","next":[1160808,1160810,9963716,9963718],"voronoi":{"lat":34.550055,"lng":134.979233,"delta_lat":[0,25798,80204,-14898],"delta_lng":[0,9778,9714,-12496]},"impl":true},
    {"code":9963719,"left":1160810,"right":9970609,"id":"eb557b","name":"林崎松江海岸","name_kana":"はやしさきまつえかいがん","lat":34.652289,"lng":134.965056,"prefecture":28,"lines":[99637],"attr":"heat","postal_code":"673-0035","address":"明石市南貴崎町","next":[9963718,100303,1180501,3200509,9963720],"voronoi":{"lat":34.407575,"lng":134.797497,"delta_lat":[0,-9222,39111,226105,-7031],"delta_lng":[0,12234,127425,37857,-19524]},"impl":true},
    {"code":1160810,"left":9963718,"id":"2be812","name":"明石","name_kana":"あかし","lat":34.649084,"lng":134.992512,"prefecture":28,"lines":[11608],"attr":"eco","postal_code":"673-0891","address":"明石市大明石町１丁目","next":[9963718,9963716,100303,9963717,9964508],"voronoi":{"lat":34.656056,"lng":134.998725,"delta_lat":[0,-14898,39060,8251,-7557],"delta_lng":[0,-12496,1917,4290,10057]},"impl":true},
    {"code":9963718,"id":"ea6415","name":"西新町","name_kana":"にししんまち","lat":34.649661,"lng":134.980752,"prefecture":28,"lines":[99637],"attr":"heat","postal_code":"673-0023","address":"明石市西新町３","next":[9963719,1160810,100303,3200509,1160808,9963717],"voronoi":{"lat":34.550055,"lng":134.979233,"delta_lat":[0,-110513,-2078,226105,16650,-39060],"delta_lng":[0,-34297,-7780,37857,13133,-1917]},"impl":true},
    {"code":9970609,"id":"3c2c81","name":"門田屋敷","name_kana":"かどたやしき","lat":34.65621,"lng":133.938811,"prefecture":33,"lines":[99706],"attr":"cool","postal_code":"703-8275","address":"岡山市門田屋敷２-１","next":[9970607,9970608,9970610,9970708],"voronoi":{"lat":34.65006,"lng":133.933661,"delta_lat":[0,5708,2944,-29850],"delta_lng":[0,3208,3894,265]},"impl":true},
    {"code":9963715,"left":9963714,"right":9963716,"id":"376ec7","name":"大蔵谷","name_kana":"おおくらだに","lat":34.646585,"lng":135.008367,"prefecture":28,"lines":[99637],"attr":"heat","postal_code":"673-0871","address":"明石市大蔵八幡町","next":[1160808,9964507,9963716,1160809,9964508],"voronoi":{"lat":34.676656,"lng":135.010454,"delta_lat":[0,-85267,10246,69673,3128],"delta_lng":[0,-14336,5344,18255,-3918]},"impl":true},
    {"code":9963714,"left":1160809,"id":"6ad625","name":"西舞子","name_kana":"にしまいこ","lat":34.638653,"lng":135.028187,"prefecture":28,"lines":[99637],"attr":"heat","postal_code":"655-0048","address":"神戸市垂水区西舞子２","next":[9964506,9963713,1160809,1160808,9964507],"voronoi":{"lat":34.656813,"lng":135.047652,"delta_lat":[0,-29888,-19964,56433,-1692],"delta_lng":[0,-24487,-18179,29229,6340]},"impl":true},
    {"code":1160809,"id":"128dd6","name":"朝霧","name_kana":"あさぎり","lat":34.644196,"lng":135.017485,"prefecture":28,"lines":[11608],"attr":"eco","postal_code":"673-0870","address":"兵庫県明石市朝霧南町一丁目238","next":[1160808,9963714,9963715,9964507],"voronoi":{"lat":34.671308,"lng":135.019717,"delta_lat":[0,-69673,5326,56433],"delta_lng":[0,-18255,3525,29229]},"impl":true},
    {"code":9963716,"id":"47aeba","name":"人丸前","name_kana":"ひとまるまえ","lat":34.647556,"lng":135.002592,"prefecture":28,"lines":[99637],"attr":"heat","postal_code":"673-0875","address":"明石市大蔵天神町","next":[1160808,1160810,9963715,9963717,9964508],"voronoi":{"lat":34.680913,"lng":135.002493,"delta_lat":[0,-24856,-80204,15537,85267],"delta_lng":[0,-3768,-9714,7107,14336]},"impl":true},
    {"code":1163117,"left":9970606,"right":9963720,"id":"e21d80","name":"西大寺","name_kana":"さいだいじ","lat":34.661878,"lng":134.037037,"prefecture":33,"lines":[11631],"attr":"heat","postal_code":"704-8113","address":"岡山市西大寺上２丁目","next":[1170914,1160914,1163118,1163116,1170915],"voronoi":{"lat":34.691843,"lng":134.054301,"delta_lat":[0,-13498,-102753,-21633,-3993],"delta_lng":[0,-30809,-12669,33595,7994]},"impl":true},
    {"code":9970606,"left":9970608,"right":1163118,"id":"c57307","name":"西大寺町","name_kana":"さいだいじちょう","lat":34.658469,"lng":133.930528,"prefecture":33,"lines":[99706],"attr":"heat","postal_code":"700-0822","address":"岡山市表町３-９","next":[9970705,9970707,9970706,9970607,9970605,9970709,9970708],"voronoi":{"lat":34.652209,"lng":133.93229,"delta_lat":[0,3177,2067,2087,978,50,-8523],"delta_lng":[0,-2943,-952,17,509,4817,-1213]},"impl":true},
    {"code":9970608,"left":9970607,"id":"344be8","name":"中納言","name_kana":"ちゅうなごん","lat":34.657516,"lng":133.937824,"prefecture":33,"lines":[99706],"attr":"heat","postal_code":"703-8293","address":"岡山市小橋町１-２","next":[9970609,1160919,9970610,9970605,9970604,9970607],"voronoi":{"lat":34.655768,"lng":133.936869,"delta_lat":[0,2944,9558,4,-2178,-912],"delta_lng":[0,3894,2462,-2706,-2182,-632]},"impl":true},
    {"code":9970607,"id":"dec828","name":"小橋","name_kana":"こばし","lat":34.657657,"lng":133.936236,"prefecture":33,"lines":[99706],"attr":"heat","postal_code":"703-8293","address":"岡山市小橋町１-１","next":[9970609,9970606,9970608,9970708,9970605],"voronoi":{"lat":34.660568,"lng":133.933738,"delta_lat":[0,-8523,-1985,5708,9416],"delta_lng":[0,-1213,1135,3208,836]},"impl":true},
    {"code":1163118,"id":"86061e","name":"大多羅","name_kana":"おおだら","lat":34.665661,"lng":134.006354,"prefecture":33,"lines":[11631],"attr":"heat","postal_code":"704-8172","address":"岡山市大多羅町","next":[1170914,1163117,9970610,1160914,1160915],"voronoi":{"lat":34.655647,"lng":133.975342,"delta_lat":[0,-69402,-10652,102753,6713],"delta_lng":[0,10275,25206,12669,-15965]},"impl":true},
    {"code":9963720,"left":1163116,"right":100303,"id":"eed86d","name":"藤江","name_kana":"ふじえ","lat":34.663385,"lng":134.947571,"prefecture":28,"lines":[99637],"attr":"heat","postal_code":"673-0044","address":"明石市藤江大塚","next":[9963722,1160812,9963719,1180501,9963721,100303],"voronoi":{"lat":34.407575,"lng":134.797497,"delta_lat":[0,6343,131995,128065,2350,-19790],"delta_lng":[0,-9055,74534,83344,5197,3972]},"impl":true},
    {"code":1163116,"id":"eb7f49","name":"大富","name_kana":"おおどみ","lat":34.661429,"lng":134.070762,"prefecture":33,"lines":[11631],"attr":"heat","postal_code":"701-4234","address":"瀬戸内市邑久町大富","next":[1160914,1170915,1163114,1163117,9980409,1163115],"voronoi":{"lat":34.505993,"lng":134.11492,"delta_lat":[0,43973,141877,7127,-9098,-180539],"delta_lng":[0,-62508,1889,5401,12473,63227]},"impl":true},
    {"code":100303,"id":"91c825","name":"西明石","name_kana":"にしあかし","lat":34.66591,"lng":134.960151,"prefecture":28,"lines":[1003,11608],"attr":"heat","postal_code":"673-0005","address":"明石市小久保町２丁目","next":[9963718,9963719,1160810,9963720,9964509,1160812,9964508],"voronoi":{"lat":34.689146,"lng":134.992113,"delta_lat":[0,18112,-30930,-19790,7031,16650,8251],"delta_lng":[0,-16975,-23621,3972,19524,13133,4290]},"impl":true},
    {"code":1160916,"left":1171306,"right":1160813,"id":"a54a20","name":"高島","name_kana":"たかしま","lat":34.683074,"lng":133.95774,"prefecture":33,"lines":[11609,11631],"attr":"heat","postal_code":"703-8243","address":"岡山市清水２丁目","next":[9970610,1160915,1171515,1171514,1160919],"voronoi":{"lat":34.655649,"lng":133.975341,"delta_lat":[0,42251,2049,-9155,-21046],"delta_lng":[0,-3561,-10314,-15644,4271]},"impl":true},
    {"code":1171306,"left":1171309,"right":1170309,"id":"f5320a","name":"備中高松","name_kana":"びっちゅうたかまつ","lat":34.68649,"lng":133.822382,"prefecture":33,"lines":[11713],"attr":"heat","postal_code":"701-1335","address":"岡山市高松","next":[1171305,1161004,1171512,1171307,1171308,1171304],"voronoi":{"lat":34.760717,"lng":133.852988,"delta_lat":[0,-95590,-4112,-5979,52127,48752],"delta_lng":[0,-56451,-408,25339,26259,8946]},"impl":true},
    {"code":1171309,"left":1170307,"right":1160919,"id":"3b1e11","name":"東総社","name_kana":"ひがしそうじゃ","lat":34.677774,"lng":133.751411,"prefecture":33,"lines":[11713],"attr":"heat","postal_code":"719-1126","address":"総社市総社","next":[1170306,1170308,1170307,1171308,1161004],"voronoi":{"lat":34.706359,"lng":133.751189,"delta_lat":[0,-12394,-37660,-11687,8625],"delta_lng":[0,-12273,11913,22204,7786]},"impl":true},
    {"code":1170307,"left":1170202,"right":1170145,"id":"b6395f","name":"総社","name_kana":"そうじゃ","lat":34.673534,"lng":133.738007,"prefecture":33,"lines":[11703,11713,99705],"attr":"heat","postal_code":"719-1136","address":"総社市駅前１丁目","next":[1170308,1170306,1170309,1171309,9970503],"voronoi":{"lat":34.671319,"lng":133.693525,"delta_lat":[0,2226,20419,-37660,6356],"delta_lng":[0,1956,43436,11913,-41756]},"impl":true},
    {"code":1170202,"left":1170203,"id":"1ce714","name":"戸田小浜","name_kana":"とだこはま","lat":34.673013,"lng":131.737783,"prefecture":32,"lines":[11702],"attr":"cool","postal_code":"699-3763","address":"益田市戸田町","next":[1170145,1170827,1170203,1170144,1170826,1170825,1170143],"voronoi":{"lat":34.739389,"lng":131.78502,"delta_lat":[0,-52785,-28969,-44115,-11334,320569,-136979],"delta_lng":[0,2765,-6619,-36396,-16711,-37910,76724]},"impl":true},
    {"code":1170203,"id":"bf8342","name":"飯浦","name_kana":"いいのうら","lat":34.668791,"lng":131.702082,"prefecture":32,"lines":[11702],"attr":"cool","postal_code":"699-3761","address":"益田市飯浦町","next":[1170139,1170204,1170134,1170202,1170205,1170825,1170143],"voronoi":{"lat":34.602186,"lng":131.728059,"delta_lat":[0,-4180,171736,2135562,-345571,-1069697,-567281],"delta_lng":[0,-3670,-131137,-1039803,227182,642576,266942]},"impl":true},
    {"code":1170145,"id":"f3d307","name":"益田","name_kana":"ますだ","lat":34.678311,"lng":131.838932,"prefecture":32,"lines":[11701,11702,11708],"attr":"cool","postal_code":"698-0024","address":"益田市駅前町","next":[1170202,1170144,1170823,1170827],"voronoi":{"lat":34.595935,"lng":132.031511,"delta_lat":[0,143455,-52785,-87979],"delta_lng":[0,-246491,2765,188001]},"impl":true},
    {"code":1160919,"left":1171304,"right":1171516,"id":"8b5b42","name":"西川原","name_kana":"にしがわら","lat":34.679039,"lng":133.937855,"prefecture":33,"lines":[11609,11631],"attr":"heat","postal_code":"703-8258","address":"岡山市西川原１丁目","next":[9970608,9970604,1160916,1171516,9970610,1171515],"voronoi":{"lat":34.692716,"lng":133.938774,"delta_lat":[0,-17460,-6983,-4,1478,21046],"delta_lng":[0,-9844,11588,2706,6868,-4271]},"impl":true},
    {"code":1171304,"left":1171305,"id":"8e6bb1","name":"備前一宮","name_kana":"びぜんいちのみや","lat":34.678838,"lng":133.864083,"prefecture":33,"lines":[11713],"attr":"cool","postal_code":"701-1211","address":"岡山市一宮","next":[1161002,1171303,1171305,1171302,1171516,1171512,1161003,1171306],"voronoi":{"lat":34.707163,"lng":133.847728,"delta_lat":[0,-46235,-1952,2978,24035,23524,20741,25661],"delta_lng":[0,11240,7293,3623,16219,7091,-1965,-34555]},"impl":true},
    {"code":1171305,"id":"68a8d8","name":"吉備津","name_kana":"きびつ","lat":34.674491,"lng":133.846201,"prefecture":33,"lines":[11713],"attr":"cool","postal_code":"701-1341","address":"岡山市吉備津","next":[1171306,1161004,1171304,1161003],"voronoi":{"lat":34.65211,"lng":133.825168,"delta_lat":[0,2926,52127,-46235],"delta_lng":[0,-3699,26259,11240]},"impl":true},
    {"code":1171516,"id":"bd9bdf","name":"法界院","name_kana":"ほうかいいん","lat":34.684851,"lng":133.927547,"prefecture":33,"lines":[11715],"attr":"heat","postal_code":"700-0011","address":"岡山市学南町","next":[1171512,9970603,1171302,1171304,1171515,9970604,1160919,9970602,100306],"voronoi":{"lat":34.681852,"lng":133.910571,"delta_lat":[0,27661,20741,-258,-37280,-17460,-139,381,287],"delta_lng":[0,-17377,-1965,4406,43140,-9844,-1219,-3592,-1221]},"impl":true},
    {"code":1170309,"left":1172022,"right":1171515,"id":"f42268","name":"日羽","name_kana":"ひわ","lat":34.715716,"lng":133.689993,"prefecture":33,"lines":[11703],"attr":"heat","postal_code":"719-1316","address":"総社市日羽","next":[1170310,1170313,9970503,1170307,1170308,9970505,9970504,1170312],"voronoi":{"lat":34.831922,"lng":133.741215,"delta_lat":[0,-158377,-2226,-13,-558,611,106877,34620],"delta_lng":[0,-45734,-1956,-42,-24565,-2045,12250,34367]},"impl":true},
    {"code":1172022,"left":1172021,"right":1172023,"id":"74890a","name":"甲奴","name_kana":"こうぬ","lat":34.703642,"lng":133.081331,"prefecture":34,"lines":[11720],"attr":"cool","postal_code":"729-4101","address":"三次市甲奴町本郷","next":[1172021,1172024,1172020,1172023,1172019,1171417],"voronoi":{"lat":34.793024,"lng":133.113516,"delta_lat":[0,-32829,-110803,13148,9467,121546],"delta_lng":[0,-25951,-36560,33541,8385,29169]},"impl":true},
    {"code":1172021,"left":1171430,"id":"a9b04e","name":"上下","name_kana":"じょうげ","lat":34.694932,"lng":133.117625,"prefecture":34,"lines":[11720],"attr":"cool","postal_code":"729-3431","address":"府中市上下町上下","next":[1172015,1171417,1172022,1171408,1172020],"voronoi":{"lat":34.733698,"lng":133.281379,"delta_lat":[0,75186,-15330,-121546,45443],"delta_lng":[0,-99663,-59615,-29169,171529]},"impl":true},
    {"code":1171430,"id":"49c9bf","name":"甲立","name_kana":"こうたち","lat":34.692611,"lng":132.759991,"prefecture":34,"lines":[11714],"attr":"heat","postal_code":"739-1101","address":"安芸高田市甲田町高田原","next":[1171428,1170729,1171431,1170728,1161103,1171429],"voronoi":{"lat":34.618228,"lng":132.889077,"delta_lat":[0,-4051,110531,19573,2868,-116313],"delta_lng":[0,-6955,-222521,50881,11709,153149]},"impl":true},
    {"code":1172023,"id":"3dea7f","name":"梶田","name_kana":"かじた","lat":34.711037,"lng":133.058919,"prefecture":34,"lines":[11720],"attr":"cool","postal_code":"729-4105","address":"三次市甲奴町梶田","next":[1172019,1172022,1172024,1172025],"voronoi":{"lat":34.617037,"lng":132.999919,"delta_lat":[0,32356,110803,-54923],"delta_lng":[0,51086,36560,-66148]},"impl":true},
    {"code":1171515,"left":1171307,"right":1170308,"id":"bfefd5","name":"備前原","name_kana":"びぜんはら","lat":34.704965,"lng":133.944929,"prefecture":33,"lines":[11715],"attr":"heat","postal_code":"701-2154","address":"岡山市原","next":[1171513,1171514,1160916,1171516,1171512,1160919],"voronoi":{"lat":34.692716,"lng":133.938774,"delta_lat":[0,37280,5306,-9067,-26287,-9155],"delta_lng":[0,-43140,28473,21217,16141,-15644]},"impl":true},
    {"code":1171307,"left":1171308,"id":"4f166e","name":"足守","name_kana":"あしもり","lat":34.698075,"lng":133.802765,"prefecture":33,"lines":[11713],"attr":"heat","postal_code":"701-1357","address":"岡山市福崎","next":[1170308,1171306,1171510,1171512,1171308],"voronoi":{"lat":34.771049,"lng":133.769749,"delta_lat":[0,50011,-47332,-13010,-95590],"delta_lng":[0,5131,70790,7318,-56451]},"impl":true},
    {"code":1171308,"id":"3de368","name":"服部","name_kana":"はっとり","lat":34.691153,"lng":133.775395,"prefecture":33,"lines":[11713],"attr":"heat","postal_code":"719-1117","address":"総社市北溝手","next":[1161004,1171309,1171306,1170308,1171307],"voronoi":{"lat":34.771049,"lng":133.769749,"delta_lat":[0,-64690,-53116,7773,4112],"delta_lng":[0,-18560,29630,15310,408]},"impl":true},
    {"code":1170308,"id":"e7bae2","name":"豪渓","name_kana":"ごうけい","lat":34.706299,"lng":133.722604,"prefecture":33,"lines":[11703],"attr":"heat","postal_code":"719-1153","address":"総社市宍粟","next":[1170307,1171510,1171307,1170309,1171309,1170313,1171308],"voronoi":{"lat":34.821059,"lng":133.77488,"delta_lat":[0,24369,-13506,-158377,20419,12394,64690],"delta_lng":[0,-18767,-14899,-45734,43436,12273,18560]},"impl":true},
    {"code":1160813,"left":9963722,"right":9963726,"id":"038fb1","name":"魚住","name_kana":"うおずみ","lat":34.696401,"lng":134.906028,"prefecture":28,"lines":[11608],"attr":"heat","postal_code":"674-0082","address":"明石市魚住町中尾","next":[1160812,9963723,9963724,1160814,9964205,9964206,9963725,9963722],"voronoi":{"lat":34.738559,"lng":134.94419,"delta_lat":[0,807,288,-29782,-12875,-5946,2573,5122],"delta_lng":[0,-1757,-1021,-41923,-2815,10431,13268,6427]},"impl":true},
    {"code":9963722,"left":9963723,"right":1160812,"id":"3f8b68","name":"江井ヶ島","name_kana":"えいがしま","lat":34.679022,"lng":134.919879,"prefecture":28,"lines":[99637],"attr":"eco","postal_code":"674-0064","address":"兵庫県明石市大久保町江井島字辻鼻","next":[1160812,9963723,9963720,1180501,1160813,9963721],"voronoi":{"lat":34.545912,"lng":134.862976,"delta_lat":[0,-131995,12175,267532,5122,-20206],"delta_lng":[0,-74534,-19536,151467,6427,3026]},"impl":true},
    {"code":9963723,"left":1163115,"right":9963724,"id":"a71762","name":"西江井ヶ島","name_kana":"にしえいがしま","lat":34.685688,"lng":134.908105,"prefecture":28,"lines":[99637],"attr":"eco","postal_code":"674-0065","address":"兵庫県明石市大久保町西島高見","next":[9963722,1160813,1180501,9963724],"voronoi":{"lat":34.432834,"lng":134.757512,"delta_lat":[0,-6742,267532,-2573],"delta_lng":[0,11393,151467,-13268]},"impl":true},
    {"code":1163115,"left":1160915,"id":"e79e29","name":"邑久","name_kana":"おく","lat":34.668526,"lng":134.091027,"prefecture":33,"lines":[11631],"attr":"heat","postal_code":"701-4246","address":"瀬戸内市邑久町山田庄","next":[1163108,9980410,9980409,1163109,1163112,1163114,1163116,9980413],"voronoi":{"lat":34.517756,"lng":134.204619,"delta_lat":[0,-6424,-1998,180539,-22425,-34166,-61329,-46044],"delta_lng":[0,-48612,-20604,-63227,90218,34531,33490,16540]},"impl":true},
    {"code":1160915,"id":"a80aaa","name":"東岡山","name_kana":"ひがしおかやま","lat":34.685633,"lng":133.988103,"prefecture":33,"lines":[11609,11631],"attr":"heat","postal_code":"703-8217","address":"岡山市土田","next":[1160916,1171514,1160914,1163118,9970610],"voronoi":{"lat":34.685059,"lng":134.007528,"delta_lat":[0,30122,-17281,-42251,-2],"delta_lng":[0,-12834,-22914,3561,2]},"impl":true},
    {"code":9963724,"id":"ecbca5","name":"山陽魚住","name_kana":"さんよううおずみ","lat":34.689252,"lng":134.901953,"prefecture":28,"lines":[99637],"attr":"eco","postal_code":"674-0082","address":"明石市魚住町中尾","next":[1160813,9963726,1180501,9963725,9963723],"voronoi":{"lat":34.432834,"lng":134.757512,"delta_lat":[0,23658,133711,106794,-5946],"delta_lng":[0,-41107,95718,84550,10431]},"impl":true},
    {"code":1160812,"left":9964506,"right":9964507,"id":"da5cc3","name":"大久保(兵庫)","original_name":"大久保","name_kana":"おおくぼ","lat":34.681914,"lng":134.939194,"prefecture":28,"lines":[11608],"attr":"heat","postal_code":"673-0000","address":"明石市大久保町","next":[9963722,1160813,9963720,9964206,9963721,9964208,9964207,9964509,100303],"voronoi":{"lat":34.73593,"lng":134.961337,"delta_lat":[0,468,1007,1155,-39813,-20206,-4563,2350,30930],"delta_lng":[0,-1663,-4725,-10760,-17390,3026,16494,5197,23621]},"impl":true},
    {"code":9964506,"left":9963721,"id":"27c7fc","name":"学園都市","name_kana":"がくえんとし","lat":34.681471,"lng":135.057687,"prefecture":28,"lines":[99645],"attr":"eco","postal_code":"651-2103","address":"神戸市西区学園西町１","next":[9963714,9963506,9963713,9964505,9963711,9963712,9963709,9963710,9964507],"voronoi":{"lat":34.661702,"lng":135.040556,"delta_lat":[0,-4889,-493,-412,-723,453,1227,57699,921],"delta_lng":[0,7097,971,1413,9247,3967,4043,-1236,-4549]},"impl":true},
    {"code":9963721,"id":"794987","name":"中八木","name_kana":"なかやぎ","lat":34.670832,"lng":134.936128,"prefecture":28,"lines":[99637],"attr":"heat","postal_code":"674-0063","address":"明石市大久保町八木道重","next":[9963720,1160812,9963722],"voronoi":{"lat":34.545912,"lng":134.862976,"delta_lat":[0,128065,4563],"delta_lng":[0,83344,-16494]},"impl":true},
    {"code":9964507,"id":"c78254","name":"伊川谷","name_kana":"いかわだに","lat":34.68785,"lng":135.041313,"prefecture":28,"lines":[99645],"attr":"eco","postal_code":"651-2109","address":"神戸市西区前開南町１-２-１","next":[9964508,9963506,9963715,1160809,9963714,9964506],"voronoi":{"lat":34.661702,"lng":135.040556,"delta_lat":[0,1692,7914,3128,41987,-938],"delta_lng":[0,-6340,-14499,-3918,43814,1896]},"impl":true},
    {"code":9963726,"left":9963727,"right":9963725,"id":"dc8b1c","name":"西二見","name_kana":"にしふたみ","lat":34.707167,"lng":134.876927,"prefecture":28,"lines":[99637],"attr":"eco","postal_code":"674-0094","address":"明石市二見町西二見池ノ下１４８１-２","next":[9963731,1180501,9963724,9963725,1160814,9963728,9963727],"voronoi":{"lat":34.710511,"lng":134.886603,"delta_lat":[0,-120307,-133711,15911,135660,28092,81464],"delta_lng":[0,-74479,-95718,-31281,81507,24678,87402]},"impl":true},
    {"code":9963727,"left":1163114,"right":1171514,"id":"2de997","name":"播磨町","name_kana":"はりまちょう","lat":34.716574,"lng":134.868159,"prefecture":28,"lines":[99637],"attr":"eco","postal_code":"675-0100","address":"加古郡播磨町野添松の内","next":[1160814,9963726,1160815,9963728],"voronoi":{"lat":34.730938,"lng":134.876204,"delta_lat":[0,-13318,-81464,95174],"delta_lng":[0,2507,-87402,74321]},"impl":true},
    {"code":1163114,"left":1160914,"id":"9e30f7","name":"長船","name_kana":"おさふね","lat":34.699909,"lng":134.098828,"prefecture":33,"lines":[11631],"attr":"cool","postal_code":"701-4265","address":"瀬戸内市長船町福岡","next":[1160912,1163113,1163116,1160914,1163112,1163115,1160913],"voronoi":{"lat":34.728855,"lng":134.08899,"delta_lat":[0,-48660,-12748,22425,9098,682,24752],"delta_lng":[0,65371,8032,-90218,-12473,-4,15039]},"impl":true},
    {"code":1160914,"id":"28c7d7","name":"上道(岡山)","original_name":"上道","name_kana":"じょうとう","lat":34.699466,"lng":134.020569,"prefecture":33,"lines":[11609],"attr":"heat","postal_code":"709-0626","address":"岡山市中尾","next":[1163116,1171514,1163117,1160913,1160915,1163114,1163118],"voronoi":{"lat":34.691843,"lng":134.054301,"delta_lat":[0,7127,682,35737,-20209,-30122,-6713],"delta_lng":[0,5401,-4,-58701,-6304,12834,15965]},"impl":true},
    {"code":1171514,"id":"5e0323","name":"玉柏","name_kana":"たまがし","lat":34.716965,"lng":133.964472,"prefecture":33,"lines":[11715],"attr":"heat","postal_code":"701-2142","address":"岡山市玉柏","next":[1160914,1160913,1160915,1171515,1160916,1171513],"voronoi":{"lat":34.726235,"lng":133.945324,"delta_lat":[0,-26287,-2049,17281,20209,132],"delta_lng":[0,16141,10314,22914,6304,-30]},"impl":true},
    {"code":9963725,"left":9964508,"right":9964509,"id":"8fdd58","name":"東二見","name_kana":"ひがしふたみ","lat":34.700359,"lng":134.887924,"prefecture":28,"lines":[99637],"attr":"eco","postal_code":"674-0092","address":"明石市二見町東二見藤寄","next":[9963724,9963726,1160813,1160814],"voronoi":{"lat":34.710511,"lng":134.886603,"delta_lat":[0,-120307,106794,12875],"delta_lng":[0,-74479,84550,2815]},"impl":true},
    {"code":9964508,"id":"b18f99","name":"西神南","name_kana":"せいしんみなみ","lat":34.699357,"lng":135.030286,"prefecture":28,"lines":[99645],"attr":"cool","postal_code":"651-2242","address":"神戸市西区井吹台東町１","next":[9963507,9964507,9964509,9963506,9963715,1160810,9963716,100303],"voronoi":{"lat":34.689146,"lng":134.992113,"delta_lat":[0,35905,-1176,-7451,-41987,2220,4256,7557],"delta_lng":[0,56087,2502,8911,-43814,-5345,-7961,-10057]},"impl":true},
    {"code":9964509,"id":"3c68bc","name":"西神中央","name_kana":"せいしんちゅうおう","lat":34.719538,"lng":135.017367,"prefecture":28,"lines":[99645],"attr":"cool","postal_code":"651-2273","address":"神戸市西区糀台５","next":[9963509,9964508,9963508,9964208,9963511,9963507,1160812,100303],"voronoi":{"lat":34.707257,"lng":134.975137,"delta_lat":[0,28672,9451,2398,-5357,-14624,-2747,-35905],"delta_lng":[0,-13800,14959,15445,29260,24695,2503,-56087]},"impl":true},
    {"code":9963004,"left":1160802,"right":1160317,"id":"0e9006","name":"西元町","name_kana":"にしもとまち","lat":34.683897,"lng":135.17959,"prefecture":28,"lines":[99630],"attr":"cool","postal_code":"650-0022","address":"神戸市中央区元町通６-７-１１","next":[1160315,9964708,9964604,9963002,9964707],"voronoi":{"lat":34.683328,"lng":135.182485,"delta_lat":[0,4310,-5309,-1603,-317],"delta_lng":[0,-4947,-752,5203,1814]},"impl":true},
    {"code":1160802,"left":1160803,"right":9964804,"id":"5a8290","name":"兵庫","name_kana":"ひょうご","lat":34.668343,"lng":135.164706,"prefecture":28,"lines":[11608,11613],"attr":"eco","postal_code":"652-0897","address":"神戸市兵庫区駅南通５丁目","next":[9963008,1161302,9963006,9963007,9964706,9964704,9964703],"voronoi":{"lat":34.66156,"lng":135.16804,"delta_lat":[0,1191,7136,2857,-8076,-2537,-743],"delta_lng":[0,1378,1371,-4759,-7642,210,1346]},"impl":true},
    {"code":1160803,"left":1160822,"right":9963202,"id":"aa210e","name":"新長田","name_kana":"しんながた","lat":34.657525,"lng":135.145193,"prefecture":28,"lines":[11608,99645,99646,99647],"attr":"cool","postal_code":"653-0841","address":"神戸市長田区松野通１丁目","next":[1160804,9963702,9964703,9963008,9963009,9964702],"voronoi":{"lat":34.659804,"lng":135.152328,"delta_lat":[0,1409,-2488,-1848,-6027,7579],"delta_lng":[0,-2157,-10888,-397,3560,9415]},"impl":true},
    {"code":1160822,"left":9963705,"right":9964703,"id":"3b937c","name":"須磨海浜公園","name_kana":"すまかいひんこうえん","lat":34.647185,"lng":135.126675,"prefecture":28,"lines":[11608],"attr":"eco","postal_code":"654-0045","address":"神戸市須磨区松風町５丁目","next":[9963705,1160804,9963703,1160805,9964702,9963704,1162803],"voronoi":{"lat":34.625938,"lng":135.143216,"delta_lat":[0,24905,514,-7143,-7355,-108631,1664],"delta_lng":[0,-12979,-4280,-4243,812,38347,3010]},"impl":true},
    {"code":9963705,"left":1160805,"right":9963704,"id":"21798c","name":"須磨寺","name_kana":"すまでら","lat":34.646031,"lng":135.116224,"prefecture":28,"lines":[99637],"attr":"heat","postal_code":"654-0071","address":"神戸市須磨区須磨寺町１","next":[9963706,1160822,1160805,9963704,9964503],"voronoi":{"lat":34.658912,"lng":135.105143,"delta_lat":[0,-14906,-7147,7355,15888],"delta_lng":[0,9546,7837,-812,-10992]},"impl":true},
    {"code":1160805,"left":9963706,"id":"6a8602","name":"須磨","name_kana":"すま","lat":34.642292,"lng":135.112814,"prefecture":28,"lines":[11608],"attr":"eco","postal_code":"654-0055","address":"神戸市須磨区須磨浦通４丁目","next":[9963706,9963705,9963707,1160822,1162803],"voronoi":{"lat":34.520201,"lng":135.148193,"delta_lat":[0,119596,4210,-7147,-108631],"delta_lng":[0,-41611,8107,7837,38347]},"impl":true},
    {"code":9963706,"id":"2d9521","name":"山陽須磨","name_kana":"さんようすま","lat":34.643459,"lng":135.112208,"prefecture":28,"lines":[99637],"attr":"heat","postal_code":"654-0055","address":"神戸市須磨区須磨浦通５-７-２","next":[9963705,1160805,9963707,9964503],"voronoi":{"lat":34.644006,"lng":135.114689,"delta_lat":[0,-4210,18617,499],"delta_lng":[0,-8107,-8605,7166]},"impl":true},
    {"code":9963704,"id":"835010","name":"月見山","name_kana":"つきみやま","lat":34.649992,"lng":135.121949,"prefecture":28,"lines":[99637],"attr":"heat","postal_code":"654-0063","address":"神戸市須磨区月見山町２","next":[9963703,9963705,1160822,9964503],"voronoi":{"lat":34.651357,"lng":135.125957,"delta_lat":[0,-7143,15888,2366],"delta_lng":[0,-4243,-10992,4991]},"impl":true},
    {"code":9964703,"left":9964702,"right":9963703,"id":"adf5e0","name":"苅藻","name_kana":"かるも","lat":34.65365,"lng":135.156598,"prefecture":28,"lines":[99647],"attr":"eco","postal_code":"653-0024","address":"神戸市長田区浜添通５","next":[9964704,1160803,9964702,9963008,1160802],"voronoi":{"lat":34.574893,"lng":135.170148,"delta_lat":[0,83537,1375,2326,-743],"delta_lng":[0,-18286,467,6269,1346]},"impl":true},
    {"code":9964702,"left":1160804,"id":"0cb9de","name":"駒ヶ林","name_kana":"こまがばやし","lat":34.652108,"lng":135.149554,"prefecture":28,"lines":[99647],"attr":"cool","postal_code":"653-0043","address":"神戸市長田区駒ヶ林町一丁目","next":[1160804,9964703,9964704,1160822,1162803,1160803,9964809],"voronoi":{"lat":34.574893,"lng":135.170148,"delta_lat":[0,83537,-7579,-24912,-96046,1837,25925],"delta_lng":[0,-18286,-9415,769,20667,4228,4865]},"impl":true},
    {"code":1160804,"id":"585bf9","name":"鷹取","name_kana":"たかとり","lat":34.651667,"lng":135.135275,"prefecture":28,"lines":[11608],"attr":"eco","postal_code":"654-0026","address":"神戸市須磨区大池町","next":[1160803,9963702,9964702,1160822,9963703],"voronoi":{"lat":34.656878,"lng":135.138886,"delta_lat":[0,-6027,-24912,24905,4584],"delta_lng":[0,3560,769,-12979,2146]},"impl":true},
    {"code":9963703,"id":"5a943a","name":"東須磨","name_kana":"ひがしすま","lat":34.655241,"lng":135.127642,"prefecture":28,"lines":[99637],"attr":"heat","postal_code":"654-0014","address":"神戸市須磨区若木町１-１","next":[9963704,9964503,1160804,1160822,9963702],"voronoi":{"lat":34.667947,"lng":135.12191,"delta_lat":[0,-5479,-11111,-514,4584],"delta_lng":[0,-6197,10244,4280,2146]},"impl":true},
    {"code":9963202,"left":9964503,"right":9963007,"id":"36846e","name":"長田(神戸電鉄)","original_name":"長田","name_kana":"ながた","lat":34.681605,"lng":135.149592,"prefecture":28,"lines":[99632],"attr":"cool","postal_code":"653-0882","address":"神戸市長田区長田天神町二丁目10-1","next":[9963009,9964607,9963102,9964606,9963203,9963204],"voronoi":{"lat":34.691866,"lng":135.15303,"delta_lat":[0,-17740,-464,1586,6645,14919],"delta_lng":[0,-13649,1618,10879,6352,2173]},"impl":true},
    {"code":9964503,"left":9963009,"right":9964504,"id":"f5f9dc","name":"妙法寺(兵庫)","original_name":"妙法寺","name_kana":"みょうほうじ","lat":34.675194,"lng":135.110002,"prefecture":28,"lines":[99645],"attr":"heat","postal_code":"654-0121","address":"神戸市須磨区妙法寺字東丈夫谷","next":[9963703,9963504,9964504,9963204,9963702,9963705,9963706,9963203,9963704,9963707],"voronoi":{"lat":34.658912,"lng":135.105143,"delta_lat":[0,1190,2366,5479,9420,7277,18963,802,-45809,-187],"delta_lng":[0,5579,4991,6197,6093,-2295,-10227,-5718,-12492,706]},"impl":true},
    {"code":9963009,"left":9963702,"id":"9cdbe5","name":"西代","name_kana":"にしだい","lat":34.662374,"lng":135.144085,"prefecture":28,"lines":[99630,99637],"attr":"heat","postal_code":"653-0843","address":"神戸市長田区御屋敷通２-１１","next":[9963202,1160803,9964607,9963702,9963008,9963203],"voronoi":{"lat":34.673662,"lng":135.140998,"delta_lat":[0,-6001,-6447,-2488,15386,14],"delta_lng":[0,4959,4214,-10888,-3333,3430]},"impl":true},
    {"code":9963702,"id":"53bc9d","name":"板宿","name_kana":"いたやど","lat":34.66006,"lng":135.133403,"prefecture":28,"lines":[99637,99645],"attr":"heat","postal_code":"654-0021","address":"神戸市須磨区平田町３-３-１０","next":[1160804,1160803,9963203,9964503,9963009,9963703],"voronoi":{"lat":34.656878,"lng":135.138886,"delta_lat":[0,1848,15386,3256,-9420,-12520],"delta_lng":[0,397,-3333,-7948,-6093,10473]},"impl":true},
    {"code":9964504,"id":"27715b","name":"名谷","name_kana":"みょうだに","lat":34.67936,"lng":135.094725,"prefecture":28,"lines":[99645],"attr":"heat","postal_code":"654-0154","address":"神戸市須磨区中落合２-３-１","next":[9963708,9963707,9964505,9964503,9963504,1160806,9963505],"voronoi":{"lat":34.711519,"lng":135.089373,"delta_lat":[0,-53366,-632,-373,1452,45809,7445],"delta_lng":[0,-7064,2343,1507,11112,12492,-16951]},"impl":true},
    {"code":9963007,"left":9963008,"right":9964606,"id":"dc1dc4","name":"大開","name_kana":"だいかい","lat":34.671179,"lng":135.161709,"prefecture":28,"lines":[99630],"attr":"eco","postal_code":"652-0802","address":"神戸市兵庫区水木通７-１","next":[9963006,9963008,9963102,9964606,1160802],"voronoi":{"lat":34.664668,"lng":135.158388,"delta_lat":[0,2998,8472,-1376,-2018],"delta_lng":[0,-1158,5196,2326,1278]},"impl":true},
    {"code":9963008,"left":9964607,"id":"d4587d","name":"高速長田","name_kana":"こうそくながた","lat":34.667254,"lng":135.151551,"prefecture":28,"lines":[99630],"attr":"heat","postal_code":"653-0016","address":"神戸市長田区北町１-２","next":[1160803,1160802,9964606,9963007,9964703,9963009,9964607],"voronoi":{"lat":34.66766,"lng":135.145958,"delta_lat":[0,-6447,-1409,2326,2537,2998,422],"delta_lng":[0,4214,2157,6269,-210,-1158,-374]},"impl":true},
    {"code":9964607,"id":"0846e8","name":"長田(神戸市交通局)","original_name":"長田","name_kana":"ながた","lat":34.668503,"lng":135.151502,"prefecture":28,"lines":[99646],"attr":"cool","postal_code":"653-0004","address":"神戸市長田区四番町7丁目","next":[9964606,9963009,9963202,9963008],"voronoi":{"lat":34.66766,"lng":135.145958,"delta_lat":[0,6001,1586,-7160],"delta_lng":[0,-4959,10879,4978]},"impl":true},
    {"code":9964606,"id":"238247","name":"上沢","name_kana":"かみさわ","lat":34.673251,"lng":135.158331,"prefecture":28,"lines":[99646],"attr":"eco","postal_code":"652-0047","address":"神戸市兵庫区下沢通８","next":[9964607,9963008,9963102,9963007,9963202],"voronoi":{"lat":34.675248,"lng":135.151878,"delta_lat":[0,-7160,-422,8472,5755],"delta_lng":[0,4978,374,5196,-4196]},"impl":true},
    {"code":9964804,"left":9964806,"right":1160315,"id":"15a08f","name":"中公園","name_kana":"なかこうえん","lat":34.673124,"lng":135.207483,"prefecture":28,"lines":[99648],"attr":"heat","postal_code":"650-0046","address":"神戸市中央区港島中町４","next":[9964706,9964707,9964812,9964805,9964803],"voronoi":{"lat":34.669094,"lng":135.191799,"delta_lat":[0,-1,-7540,10869,8510],"delta_lng":[0,0,1651,17664,-526]},"impl":true},
    {"code":9964806,"left":9964706,"right":9964810,"id":"459836","name":"市民広場","name_kana":"しみんひろば","lat":34.664897,"lng":135.212455,"prefecture":28,"lines":[99648],"attr":"heat","postal_code":"650-0046","address":"神戸市中央区港島中町６","next":[9964805,1161302,9964810,9964811,9964807],"voronoi":{"lat":34.650138,"lng":135.195546,"delta_lat":[0,6635,11509,-1273,-5158],"delta_lng":[0,-1324,19423,1199,-262]},"impl":true},
    {"code":9964706,"left":1161302,"right":9964805,"id":"41f726","name":"中央市場前","name_kana":"ちゅうおういちばまえ","lat":34.666199,"lng":135.175866,"prefecture":28,"lines":[99647],"attr":"heat","postal_code":"652-0844","address":"神戸市兵庫区中之島１","next":[9963005,1161302,9964707,9963006,9964804,1160802,9964805],"voronoi":{"lat":34.66275,"lng":135.169418,"delta_lat":[0,7136,2886,31,-3711,-7540,-3151],"delta_lng":[0,1371,4294,287,16430,1651,245]},"impl":true},
    {"code":1161302,"left":9964704,"id":"c5f87f","name":"和田岬","name_kana":"わだみさき","lat":34.657278,"lng":135.174268,"prefecture":28,"lines":[11613,99647],"attr":"eco","postal_code":"652-0863","address":"神戸市兵庫区和田宮通４丁目","next":[9964704,9964706,9964809,9964806,1160802,9964805,9964807],"voronoi":{"lat":34.650138,"lng":135.195546,"delta_lat":[0,6635,1629,4349,-1191,-59691,30228],"delta_lng":[0,-1324,-527,-24278,-1378,16981,11083]},"impl":true},
    {"code":9964704,"id":"b2fd5c","name":"御崎公園","name_kana":"みさきこうえん","lat":34.654641,"lng":135.164998,"prefecture":28,"lines":[99647],"attr":"eco","postal_code":"652-0875","address":"神戸市兵庫区浜中町１","next":[9964703,1161302,9964702,1160802,9964809],"voronoi":{"lat":34.66156,"lng":135.16804,"delta_lat":[0,-172,-86495,-17238,44214],"delta_lng":[0,-8096,10204,2828,12045]},"impl":true},
    {"code":9964805,"id":"116e7c","name":"みなとじま","name_kana":"みなとじま","lat":34.668863,"lng":135.210105,"prefecture":28,"lines":[99648],"attr":"heat","postal_code":"650-0046","address":"神戸市中央区港島中町４","open_date":"1981-02-05","next":[9964812,9964806,9964811,9964804,1161302,9964706],"voronoi":{"lat":34.661552,"lng":135.193451,"delta_lat":[0,10869,-2336,-1804,-11509,1629],"delta_lng":[0,17664,2427,104,-19423,-527]},"impl":true},
    {"code":9964810,"left":9964808,"right":9964811,"id":"100d98","name":"南公園","name_kana":"みなみこうえん","lat":34.664666,"lng":135.217007,"prefecture":28,"lines":[99648],"attr":"eco","postal_code":"650-0046","address":"神戸市中央区港島中町８","next":[9964811,9964807,9964806,9964808],"voronoi":{"lat":34.661043,"lng":135.22198,"delta_lat":[0,807,5158,-356],"delta_lng":[0,-7397,262,18420]},"impl":true},
    {"code":9964808,"left":9964807,"id":"34f998","name":"京コンピュータ前","name_kana":"けいこんぴゅーたまえ","lat":34.654892,"lng":135.221865,"prefecture":28,"lines":[99648],"attr":"eco","postal_code":"650-0047","address":"神戸市中央区港島南町７丁目","open_date":"2006-02-02","next":[9964906,9964809,9964807,9964811,9964810],"voronoi":{"lat":34.670644,"lng":135.245297,"delta_lat":[0,-13283,-18818,22500,5609],"delta_lng":[0,8068,-46403,15018,11285]},"impl":true},
    {"code":9964807,"id":"192b5e","name":"医療センター","name_kana":"いりょうせんたー","lat":34.658578,"lng":135.216343,"prefecture":28,"lines":[99648],"attr":"eco","postal_code":"650-0047","address":"神戸市中央区港島南町１丁目","open_date":"2006-02-02","next":[9964810,9964808,1161302,9964809,9964806],"voronoi":{"lat":34.661043,"lng":135.22198,"delta_lat":[0,-22500,-6447,18041,11713],"delta_lng":[0,-15018,-10858,-557,19036]},"impl":true},
    {"code":9964811,"id":"a91c5c","name":"中埠頭","name_kana":"なかふとう","lat":34.669266,"lng":135.217096,"prefecture":28,"lines":[99648],"attr":"cool","postal_code":"650-0046","address":"神戸市中央区港島中町７","next":[9964810,9964805,9964906,3500128,9964812,9964808,9964806],"voronoi":{"lat":34.666652,"lng":135.233265,"delta_lat":[0,3992,11263,1769,-13591,-1804,-1273],"delta_lng":[0,12032,-3170,-4867,-23718,104,1199]},"impl":true},
    {"code":1160315,"left":9964605,"right":9964707,"id":"29a3a5","name":"神戸(兵庫)","original_name":"神戸","name_kana":"こうべ","lat":34.679453,"lng":135.178221,"prefecture":28,"lines":[11603,11608],"attr":"eco","postal_code":"650-0025","address":"神戸市中央区相生町３丁目","next":[9963004,9964604,9964707,9963005],"voronoi":{"lat":34.681959,"lng":135.17627,"delta_lat":[0,370,-1603,-2728],"delta_lng":[0,516,5203,-5624]},"impl":true},
    {"code":9964605,"left":9963006,"right":9963005,"id":"6565db","name":"湊川公園","name_kana":"みなとがわこうえん","lat":34.679188,"lng":135.167059,"prefecture":28,"lines":[99646],"attr":"eco","postal_code":"652-0047","address":"神戸市兵庫区下沢通１","next":[9963006,9963005,9964604,9963102],"voronoi":{"lat":34.679375,"lng":135.170748,"delta_lat":[0,2675,6109,-11476],"delta_lng":[0,-63,-4439,635]},"impl":true},
    {"code":9963006,"left":9963102,"id":"d9aa1c","name":"新開地","name_kana":"しんかいち","lat":34.675981,"lng":135.169291,"prefecture":28,"lines":[99630,99631],"attr":"eco","postal_code":"652-0811","address":"神戸市兵庫区新開地２-３","next":[9963007,9964605,9963102,9963005,9964706,1160802],"voronoi":{"lat":34.672773,"lng":135.175082,"delta_lat":[0,6603,-2692,-1922,-2018,-2857],"delta_lng":[0,-4335,-3867,-2129,1278,4759]},"impl":true},
    {"code":9963102,"id":"ea4429","name":"湊川","name_kana":"みなとがわ","lat":34.679153,"lng":135.166426,"prefecture":28,"lines":[99631,99632],"attr":"cool","postal_code":"652-0032","address":"神戸市兵庫区荒田町１-２０-３","next":[9964604,9963006,9963007,9964606,9963202,9964605,9963204],"voronoi":{"lat":34.68816,"lng":135.166245,"delta_lat":[0,-11476,-1922,1376,5755,14919,9],"delta_lng":[0,635,-2129,-2326,-4196,2173,5]},"impl":true},
    {"code":9963005,"id":"a00dff","name":"高速神戸","name_kana":"こうそくこうべ","lat":34.679362,"lng":135.174441,"prefecture":28,"lines":[99630],"attr":"eco","postal_code":"650-0015","address":"神戸市中央区多聞通３-３-１３","next":[9964706,9964605,9963006,9964604,1160315,9964707],"voronoi":{"lat":34.681959,"lng":135.17627,"delta_lat":[0,92,-2675,-6603,31,5194],"delta_lng":[0,-5585,63,4335,287,995]},"impl":true},
    {"code":9964707,"left":9964812,"right":9964803,"id":"8ea940","name":"ハーバーランド","name_kana":"はーばーらんど","lat":34.678554,"lng":135.178657,"prefecture":28,"lines":[99647],"attr":"heat","postal_code":"650-0044","address":"神戸市中央区東川崎町１","next":[9964706,9964803,9964804,9964708,1160315,9963005,9963004],"voronoi":{"lat":34.680725,"lng":135.181989,"delta_lat":[0,-2728,-5194,-3711,1,6059,5256],"delta_lng":[0,-5624,-995,16430,0,-758,-7239]},"impl":true},
    {"code":9964812,"id":"aee505","name":"北埠頭","name_kana":"きたふとう","lat":34.673566,"lng":135.214632,"prefecture":28,"lines":[99648],"attr":"cool","postal_code":"650-0046","address":"神戸市中央区港島中町２","next":[3500129,9964805,3500128,9964804,9964811,3500131,3500130,9964803],"voronoi":{"lat":34.688519,"lng":135.219009,"delta_lat":[0,-731,-2638,-1474,-13591,2336,8510,6489],"delta_lng":[0,6698,8493,3060,-23718,-2427,-526,4143]},"impl":true},
    {"code":9964803,"id":"ef3b0a","name":"ポートターミナル","name_kana":"ぽーとたーみなる","lat":34.681501,"lng":135.202205,"prefecture":28,"lines":[99648],"attr":"heat","postal_code":"650-0041","address":"神戸市中央区新港町新港第四突堤","next":[9964709,9964707,9964708,3500131,9964802,9964812,9964804],"voronoi":{"lat":34.669094,"lng":135.191799,"delta_lat":[0,6059,3941,4161,5529,-1363,-6489],"delta_lng":[0,-758,945,2647,15839,4259,-4143]},"impl":true},
    {"code":1160317,"left":9963204,"right":3500302,"id":"2a9a71","name":"摩耶","name_kana":"まや","lat":34.708667,"lng":135.225167,"prefecture":28,"lines":[11603],"attr":"eco","postal_code":"657-0841","address":"神戸市灘区灘南通六丁目","open_date":"2016-03-26","next":[3400113,3500129,3400114,3500128],"voronoi":{"lat":34.706683,"lng":135.22786,"delta_lat":[0,1175,10959,-4089],"delta_lng":[0,-6421,2795,4987]},"impl":true},
    {"code":9963204,"left":9964708,"right":3500131,"id":"b6341b","name":"鵯越","name_kana":"ひよどりごえ","lat":34.692576,"lng":135.142232,"prefecture":28,"lines":[99632],"attr":"cool","postal_code":"652-0051","address":"神戸市兵庫区里山町６５１-３","next":[9963504,9963206,9963203,9964604,9963503,9964503,9963102,9963202],"voronoi":{"lat":34.691866,"lng":135.15303,"delta_lat":[0,-7221,18963,896,4408,-2968,-9123,-9],"delta_lng":[0,-27322,-10227,1474,20313,25389,-2249,-5]},"impl":true},
    {"code":9964708,"left":9963002,"right":1160314,"id":"435cc4","name":"みなと元町","name_kana":"みなともとまち","lat":34.685875,"lng":135.183973,"prefecture":28,"lines":[99647],"attr":"heat","postal_code":"650-0023","address":"神戸市中央区栄町通４","next":[9963004,9964709,9964603,9964803,9963002,9964707,1160314],"voronoi":{"lat":34.688419,"lng":135.184947,"delta_lat":[0,-44,-5047,-2919,-5256,3941,6308],"delta_lng":[0,-1964,-499,1318,7239,945,-3759]},"impl":true},
    {"code":9963002,"left":9964604,"right":9964603,"id":"de216a","name":"花隈","name_kana":"はなくま","lat":34.686117,"lng":135.181524,"prefecture":28,"lines":[99630],"attr":"cool","postal_code":"650-0012","address":"神戸市中央区北長狭通６-３-５","next":[9964603,9964604,9964708,9963004],"voronoi":{"lat":34.687638,"lng":135.177537,"delta_lat":[0,3782,-3045,-5047],"delta_lng":[0,-812,6258,-499]},"impl":true},
    {"code":9964604,"left":9963203,"id":"c2e12a","name":"大倉山(兵庫)","original_name":"大倉山","name_kana":"おおくらやま","lat":34.684614,"lng":135.174527,"prefecture":28,"lines":[99646],"attr":"heat","postal_code":"650-0017","address":"神戸市中央区楠町３","next":[9963002,9963102,9963204,1160315,9963005,9963004,9964605,9964603,9963206],"voronoi":{"lat":34.69142,"lng":135.176725,"delta_lat":[0,-3782,-5309,-370,92,6109,8661,9123,2090],"delta_lng":[0,812,-752,-516,-5585,-4439,-5838,2249,2849]},"impl":true},
    {"code":9963203,"id":"b049d5","name":"丸山(兵庫)","original_name":"丸山","name_kana":"まるやま","lat":34.685913,"lng":135.143993,"prefecture":28,"lines":[99632],"attr":"cool","postal_code":"653-0881","address":"神戸市長田区滝谷町３-９-２","next":[9963702,9963204,9964503,9963009,9963202],"voronoi":{"lat":34.684644,"lng":135.125707,"delta_lat":[0,-7277,-3256,14,17740],"delta_lng":[0,2295,7948,3430,13649]},"impl":true},
    {"code":9964603,"id":"7603d9","name":"県庁前(兵庫)","original_name":"県庁前","name_kana":"けんちょうまえ","lat":34.690916,"lng":135.183859,"prefecture":28,"lines":[99646],"attr":"heat","postal_code":"650-0011","address":"神戸市中央区下山手通５","next":[9963002,9964708,9963206,100302,9964604,1160313,1160314],"voronoi":{"lat":34.70112,"lng":135.186612,"delta_lat":[0,12504,-5590,-16614,-3045,44,8439],"delta_lng":[0,-16289,-4818,11220,6258,1964,3130]},"impl":true},
    {"code":1160314,"left":9964802,"right":9964710,"id":"ffc8f3","name":"元町(兵庫)","original_name":"元町","name_kana":"もとまち","lat":34.689602,"lng":135.187401,"prefecture":28,"lines":[11603,35001,99630],"attr":"eco","postal_code":"650-0014","address":"神戸市中央区元町高架通り","next":[1160313,9964709,9964708,9964603],"voronoi":{"lat":34.695239,"lng":135.189169,"delta_lat":[0,-9838,3017,8439],"delta_lng":[0,-942,-3280,3130]},"impl":true},
    {"code":9964802,"left":9964709,"id":"6e49b8","name":"貿易センター","name_kana":"ぼうえきせんたー","lat":34.689339,"lng":135.199469,"prefecture":28,"lines":[99648],"attr":"heat","postal_code":"651-0084","address":"神戸市中央区磯辺通３","next":[1160313,9964709,9964710,9963001,3500131,9964803],"voronoi":{"lat":34.683255,"lng":135.194634,"delta_lat":[0,2286,7916,870,1556,-7099],"delta_lng":[0,7,4589,832,1914,8497]},"impl":true},
    {"code":9964709,"id":"74b684","name":"旧居留地・大丸前","name_kana":"きゅうきょりゅうち・だいまるまえ","lat":34.689369,"lng":135.189836,"prefecture":28,"lines":[99647],"attr":"heat","postal_code":"650-0021","address":"神戸市中央区三宮町２","next":[9964803,9964802,1160313,9964708,9963001,1160314,9964710],"voronoi":{"lat":34.691839,"lng":135.192156,"delta_lat":[0,2123,1278,-9838,-6308,4161,2286],"delta_lng":[0,-1667,-1320,-942,3759,2647,7]},"impl":true},
    {"code":9964710,"id":"c46914","name":"三宮・花時計前","name_kana":"さんのみや・はなどけいまえ","lat":34.691618,"lng":135.195538,"prefecture":28,"lines":[99647],"attr":"heat","postal_code":"651-0087","address":"神戸市中央区御幸通８","next":[9964802,9963001,9964709],"voronoi":{"lat":34.693456,"lng":135.19923,"delta_lat":[0,-1618,-6298],"delta_lng":[0,-7073,2484]},"impl":true},
    {"code":3500131,"left":3400115,"right":1160312,"id":"fa028b","name":"春日野道(阪神電気鉄道)","original_name":"春日野道","name_kana":"かすがのみち","lat":34.699513,"lng":135.207968,"prefecture":28,"lines":[35001],"attr":"heat","postal_code":"651-0091","address":"神戸市中央区若菜通一丁目1","next":[3400115,3500130,1160313,9964802,9964803,9964812,1160312],"voronoi":{"lat":34.688519,"lng":135.219009,"delta_lat":[0,-1099,1363,7099,1484,7072,-2659],"delta_lng":[0,-4277,-4259,-8497,-546,9561,1979]},"impl":true},
    {"code":3400115,"left":9963001,"right":100302,"id":"b99bc9","name":"春日野道(阪急電鉄)","original_name":"春日野道","name_kana":"かすがのみち","lat":34.70299,"lng":135.205396,"prefecture":28,"lines":[34001],"attr":"cool","postal_code":"651-0076","address":"神戸市中央区吾妻通一丁目","next":[1160312,3500131,1160313,100302,3400114],"voronoi":{"lat":34.704439,"lng":135.210991,"delta_lat":[0,-7072,3007,17986,-6422],"delta_lng":[0,-9561,-2392,6395,3595]},"impl":true},
    {"code":9963001,"left":1160313,"id":"3b382f","name":"三宮(神戸三宮)","name_kana":"さんのみや(こうべさんのみや)","lat":34.693507,"lng":135.195106,"prefecture":28,"lines":[34001,35001,99630,99646,99648],"attr":"heat","postal_code":"650-0001","address":"神戸市中央区加納町４-２-１","next":[9964802,9964709,9964710,1160313],"voronoi":{"lat":34.693961,"lng":135.19049,"delta_lat":[0,-2123,1618,870],"delta_lng":[0,1667,7073,832]},"impl":true},
    {"code":1160313,"id":"60c77a","name":"三ノ宮","name_kana":"さんのみや","lat":34.694766,"lng":135.195058,"prefecture":28,"lines":[11603],"attr":"eco","postal_code":"651-0097","address":"神戸市中央区布引町","next":[9964802,9964709,3400115,3500131,100302,1160314,9963001,9964603],"voronoi":{"lat":34.695239,"lng":135.189169,"delta_lat":[0,-1278,365,1556,1484,3007,746,-4262],"delta_lng":[0,1320,9572,1914,-546,-2392,-12425,1465]},"impl":true},
    {"code":100302,"id":"27f8fc","name":"新神戸","name_kana":"しんこうべ","lat":34.706417,"lng":135.195758,"prefecture":28,"lines":[1003,99636,99646],"attr":"heat","postal_code":"650-0001","address":"神戸市中央区加納町１丁目","next":[9963211,9963207,9963206,1160313,9964603,3400115,9963210,3400114],"voronoi":{"lat":34.700373,"lng":135.199037,"delta_lat":[0,746,12504,8678,10839,5101,1163,-21045],"delta_lng":[0,-12425,-16289,2999,8191,11587,8698,3634]},"impl":true},
    {"code":1160312,"left":3500129,"right":3400114,"id":"55a08c","name":"灘","name_kana":"なだ","lat":34.705918,"lng":135.216578,"prefecture":28,"lines":[11603],"attr":"eco","postal_code":"657-0846","address":"神戸市灘区岩屋北町７丁目","next":[3400115,3500130,3400114,3500131],"voronoi":{"lat":34.707044,"lng":135.220018,"delta_lat":[0,4893,-7499,-2659],"delta_lng":[0,-10991,1963,1979]},"impl":true},
    {"code":3500129,"left":3500130,"id":"06475f","name":"西灘","name_kana":"にしなだ","lat":34.705782,"lng":135.224639,"prefecture":28,"lines":[35001],"attr":"heat","postal_code":"657-0844","address":"神戸市灘区都通５-５-１","next":[9964812,3400114,1160317,3500130,3500128],"voronoi":{"lat":34.706683,"lng":135.22786,"delta_lat":[0,1175,-885,-19185,-2638],"delta_lng":[0,-6421,-665,4933,8493]},"impl":true},
    {"code":3500130,"id":"972720","name":"岩屋(兵庫)","original_name":"岩屋","name_kana":"いわや","lat":34.704065,"lng":135.217962,"prefecture":28,"lines":[35001],"attr":"heat","postal_code":"657-0846","address":"神戸市灘区岩屋北町４-１-１","next":[1160312,3500131,3400114,3500129,9964812],"voronoi":{"lat":34.688519,"lng":135.219009,"delta_lat":[0,13260,5265,-71,-19185],"delta_lng":[0,-6039,7049,755,4933]},"impl":true},
    {"code":3400114,"id":"4ea1c9","name":"王子公園","name_kana":"おうじこうえん","lat":34.710354,"lng":135.218553,"prefecture":28,"lines":[34001],"attr":"heat","postal_code":"657-0838","address":"神戸市灘区王子町１-４-２０","next":[3500129,3400113,1160312,1160317,3500130,9963211,3400115,100302],"voronoi":{"lat":34.711937,"lng":135.209028,"delta_lat":[0,-4893,-71,885,10959,24595,-4008,-21045],"delta_lng":[0,10991,755,665,2795,-14828,-7607,3634]},"impl":true},
    {"code":3500302,"left":3500123,"right":1160310,"id":"20d6b4","name":"東鳴尾","name_kana":"ひがしなるお","lat":34.712646,"lng":135.379065,"prefecture":28,"lines":[35003],"attr":"eco","postal_code":"663-8132","address":"西宮市東鳴尾町１-７-１２","next":[3500111,3500303,3500112,3500113],"voronoi":{"lat":34.709002,"lng":135.389039,"delta_lat":[0,-1224,4940,6299],"delta_lng":[0,392,-17506,5093]},"impl":true},
    {"code":3500123,"left":3500128,"right":3500304,"id":"47308c","name":"魚崎","name_kana":"うおざき","lat":34.71262,"lng":135.26924,"prefecture":28,"lines":[35001,99649],"attr":"eco","postal_code":"658-0026","address":"神戸市東灘区魚崎西町４","next":[1160310,1160309,9964903,3500124,3500122],"voronoi":{"lat":34.710526,"lng":135.265325,"delta_lat":[0,5663,4984,-1510,-12502],"delta_lng":[0,303,4710,2736,4757]},"impl":true},
    {"code":3500128,"left":9964904,"right":3500127,"id":"1b03c7","name":"大石","name_kana":"おおいし","lat":34.707671,"lng":135.231055,"prefecture":28,"lines":[35001],"attr":"eco","postal_code":"657-0842","address":"神戸市灘区船寺通１-４-２","next":[9964905,9964812,9964811,9964906,3400113,3500127,1160317,1160311,3500129],"voronoi":{"lat":34.683676,"lng":135.23726,"delta_lat":[0,-1769,708,1703,26503,3062,845,-8045,-21533],"delta_lng":[0,4867,427,825,-8087,-2957,-3114,-1361,6340]},"impl":true},
    {"code":9964904,"left":9964903,"id":"9bc5e7","name":"アイランド北口","name_kana":"あいらんどきたぐち","lat":34.692853,"lng":135.26875,"prefecture":28,"lines":[99649],"attr":"eco","postal_code":"658-0032","address":"神戸市東灘区向洋町中１","next":[9964905,3500122,9964903,3500127,3500126],"voronoi":{"lat":34.694698,"lng":135.250247,"delta_lat":[0,-7460,7818,5883,-2213],"delta_lng":[0,-4690,49113,-11943,-28245]},"impl":true},
    {"code":9964903,"id":"a0110e","name":"南魚崎","name_kana":"みなみうおざき","lat":34.706751,"lng":135.267661,"prefecture":28,"lines":[99649],"attr":"eco","postal_code":"658-0026","address":"神戸市東灘区魚崎西町１","next":[9964904,3500124,3500123,3500122,3500126],"voronoi":{"lat":34.698727,"lng":135.254482,"delta_lat":[0,2213,6222,3365,-9646],"delta_lng":[0,28245,-4897,-12506,-10076]},"impl":true},
    {"code":3500127,"id":"a8d7c5","name":"新在家","name_kana":"しんざいけ","lat":34.710573,"lng":135.240565,"prefecture":28,"lines":[35001],"attr":"eco","postal_code":"657-0861","address":"神戸市灘区新在家北町１-４-１","next":[9964905,9964904,3500126,1160311,3500128],"voronoi":{"lat":34.687238,"lng":135.245557,"delta_lat":[0,7460,20090,-3967,-26503],"delta_lng":[0,4690,-6183,-8773,8087]},"impl":true},
    {"code":3500304,"left":9964906,"right":3500303,"id":"78a98f","name":"武庫川団地前","name_kana":"むこがわだんちまえ","lat":34.704894,"lng":135.374757,"prefecture":28,"lines":[35003],"attr":"cool","postal_code":"663-8133","address":"西宮市上田東町４-８３","next":[3500119,1162404,3500113,9962502,3500120,9964906,3500115,3500303,9962101,3500114,3500118,3500111,3500110],"voronoi":{"lat":34.676871,"lng":135.398514,"delta_lat":[0,-33869,-5209,38137,493,11347,419,14192,5750,3539,-22658,-3765,-2786],"delta_lng":[0,-55683,-9183,-7548,161,5116,269,17462,9464,11904,28577,2388,1245]},"impl":true},
    {"code":9964906,"left":9964905,"id":"75f97f","name":"マリンパーク","name_kana":"まりんぱーく","lat":34.684176,"lng":135.270077,"prefecture":28,"lines":[99649],"attr":"cool","postal_code":"658-0032","address":"神戸市東灘区向洋町中４","next":[3500121,9964808,9962502,9964905,9964811,3500304,9964809,3500120,3500128],"voronoi":{"lat":34.691459,"lng":135.302237,"delta_lat":[0,-7353,-8176,-38137,-39508,59077,13283,11263,708],"delta_lng":[0,13277,10585,7548,-12644,-67639,-8068,-3170,427]},"impl":true},
    {"code":9964905,"id":"53a84a","name":"アイランドセンター","name_kana":"あいらんどせんたー","lat":34.689103,"lng":135.269347,"prefecture":28,"lines":[99649],"attr":"cool","postal_code":"658-0032","address":"神戸市東灘区向洋町中２","next":[9964904,3500128,9964906,3500127,3500121,3500122],"voronoi":{"lat":34.691459,"lng":135.302237,"delta_lat":[0,-8843,1703,2920,7818,-2204],"delta_lng":[0,-59684,825,2179,49113,5446]},"impl":true},
    {"code":3500303,"id":"8f4cdd","name":"洲先","name_kana":"すざき","lat":34.709046,"lng":135.378049,"prefecture":28,"lines":[35003],"attr":"cool","postal_code":"663-8132","address":"西宮市東鳴尾町２-１７-１０","next":[3500111,3500113,3500304,3500302],"voronoi":{"lat":34.689011,"lng":135.399053,"delta_lat":[0,22658,1048,-4940],"delta_lng":[0,-28577,1450,17506]},"impl":true},
    {"code":1160310,"left":3500125,"right":3500112,"id":"e9e90a","name":"住吉(JR)","original_name":"住吉","name_kana":"すみよし","lat":34.719595,"lng":135.261859,"prefecture":28,"lines":[11603,99649],"attr":"eco","postal_code":"658-0051","address":"神戸市東灘区住吉本町一丁目2-9","next":[1160309,3500123,3500124,3400111,3400112,3500125],"voronoi":{"lat":34.720677,"lng":135.25616,"delta_lat":[0,13055,-9070,-3489,-4984,193],"delta_lng":[0,6379,6169,1630,-4710,-6196]},"impl":true},
    {"code":3500125,"left":3500124,"right":1160311,"id":"3dcbf7","name":"御影(阪神電気鉄道)","original_name":"御影","name_kana":"みかげ","lat":34.714895,"lng":135.25569,"prefecture":28,"lines":[35001],"attr":"eco","postal_code":"658-0046","address":"神戸市東灘区御影本町一丁目","next":[3500126,3400112,3500124,1160310],"voronoi":{"lat":34.720677,"lng":135.25616,"delta_lat":[0,-1955,-15540,13200],"delta_lng":[0,-4835,3969,4138]},"impl":true},
    {"code":3500124,"left":3500126,"id":"fce6b6","name":"住吉(阪神電気鉄道)","original_name":"住吉","name_kana":"すみよし","lat":34.713025,"lng":135.261655,"prefecture":28,"lines":[35001],"attr":"eco","postal_code":"658-0053","address":"神戸市東灘区住吉宮町五丁目","next":[1160310,3500125,9964903,3500123,3500126],"voronoi":{"lat":34.716382,"lng":135.259432,"delta_lat":[0,-193,-5663,-9646,2302],"delta_lng":[0,6196,-303,-10076,45]},"impl":true},
    {"code":3500126,"id":"0b89e1","name":"石屋川","name_kana":"いしやがわ","lat":34.71327,"lng":135.249329,"prefecture":28,"lines":[35001],"attr":"eco","postal_code":"658-0045","address":"神戸市東灘区御影石町２-２３-１２","next":[3500125,1160311,3400112,3500127,9964904,3500124,9964903],"voronoi":{"lat":34.698727,"lng":135.254482,"delta_lat":[0,-4028,20090,5348,-1414,-15540,-2302],"delta_lng":[0,-4235,-6183,834,6426,3969,-45]},"impl":true},
    {"code":1160311,"id":"33e613","name":"六甲道","name_kana":"ろっこうみち","lat":34.714945,"lng":135.238588,"prefecture":28,"lines":[11603],"attr":"eco","postal_code":"657-0027","address":"神戸市灘区永手町４丁目","next":[3400112,3500126,3500127,3400113,3500128],"voronoi":{"lat":34.713884,"lng":135.232334,"delta_lat":[0,9011,-2758,-5348,-3967],"delta_lng":[0,10568,1996,-834,-8773]},"impl":true},
    {"code":3500112,"left":3500122,"right":3500113,"id":"4a61c0","name":"武庫川","name_kana":"むこがわ","lat":34.718154,"lng":135.383654,"prefecture":28,"lines":[35001,35003],"attr":"cool","postal_code":"663-8131","address":"西宮市武庫川町２-１５","next":[1160304,3500113,1160305,3500302,3500111],"voronoi":{"lat":34.709002,"lng":135.389039,"delta_lat":[0,10015,9159,3808,-2465],"delta_lng":[0,-12021,1054,8623,3053]},"impl":true},
    {"code":3500122,"id":"d9ea46","name":"青木","name_kana":"おおぎ","lat":34.71695,"lng":135.28062,"prefecture":28,"lines":[35001],"attr":"eco","postal_code":"658-0014","address":"神戸市東灘区北青木３-２-１","next":[9964904,1160309,9964903,3500123,3500121,9964905],"voronoi":{"lat":34.723714,"lng":135.283911,"delta_lat":[0,-4050,-12502,-6222,-5883,-2204],"delta_lng":[0,-10837,4757,4897,11943,5446]},"impl":true},
    {"code":3500113,"id":"515168","name":"鳴尾・武庫川女子大前","name_kana":"なるお・むこがわじょしだいまえ","lat":34.719684,"lng":135.37036,"prefecture":28,"lines":[35001],"attr":"cool","postal_code":"663-8183","address":"西宮市里中町３-１３-１８","open_date":"1905-04-12","next":[3500304,3500303,1160305,3500112,3500302,3500114],"voronoi":{"lat":34.708131,"lng":135.358571,"delta_lat":[0,3539,1048,6299,9159,1404],"delta_lng":[0,11904,1450,5093,1054,-6688]},"impl":true}
  ]
}