{
  "name":"segment43",
  "root":9932507,
  "east":180.0,
  "west":139.751864,
  "south":-90.0,
  "north":35.639645,
  "station_size":155,
  "node_list":[
    {"code":9932507,"left":1132508,"right":1132411,"id":"308fb4","name":"馬立","name_kana":"うまたて","lat":35.423795,"lng":140.114719,"prefecture":12,"lines":[99325],"attr":"eco","postal_code":"290-0221","address":"市原市馬立７９０-２","next":[9932506,9932505,1133006,1133007,9932508],"voronoi":{"lat":35.380551,"lng":140.10155,"delta_lat":[0,27105,22319,2545,-2435],"delta_lng":[0,-27467,-10663,74084,6468]},"impl":true},
    {"code":1132508,"left":1133003,"right":1132607,"id":"f00ba2","name":"長浦(千葉)","original_name":"長浦","name_kana":"ながうら","lat":35.450234,"lng":139.995478,"prefecture":12,"lines":[11325],"attr":"cool","postal_code":"299-0243","address":"袖ケ浦市蔵波","next":[1133004,1133006,1132509,9934504,1133005,1132507],"voronoi":{"lat":35.552181,"lng":139.964811,"delta_lat":[0,-19480,-111916,-3156,8416,6389],"delta_lng":[0,-32555,54285,19732,21849,10099]},"impl":true},
    {"code":1133003,"left":1132517,"right":1133011,"id":"5f45c2","name":"上総清川","name_kana":"かずさきよかわ","lat":35.390981,"lng":139.965612,"prefecture":12,"lines":[11330],"attr":"heat","postal_code":"292-0036","address":"木更津市菅生","next":[1132512,1133004,1132511,1133002,1132509],"voronoi":{"lat":35.410683,"lng":139.957469,"delta_lat":[0,-64979,-19098,-14682,102416],"delta_lng":[0,-2031,4503,12046,4879]},"impl":true},
    {"code":1132517,"left":1132521,"right":1132512,"id":"a805a8","name":"竹岡","name_kana":"たけおか","lat":35.197582,"lng":139.830159,"prefecture":12,"lines":[11325],"attr":"heat","postal_code":"299-1622","address":"富津市萩生","next":[1132518,1132515,2700150,1132516,1132514,2700504,1132519],"voronoi":{"lat":35.246986,"lng":139.828447,"delta_lat":[0,2403,9822,-54219,-4693,-26945,1450],"delta_lng":[0,-3271,-36403,-25119,-1237,98688,10225]},"impl":true},
    {"code":1132521,"left":1132519,"right":1132525,"id":"d0b1c5","name":"岩井","name_kana":"いわい","lat":35.093062,"lng":139.849839,"prefecture":12,"lines":[11325],"attr":"heat","postal_code":"299-2226","address":"南房総市市部","next":[1132522,1132520,1132529,1132516,1132519,1132528,1132525,1132523],"voronoi":{"lat":35.072763,"lng":139.923259,"delta_lat":[0,51133,17676,1246,-20247,-44186,-16771,778],"delta_lng":[0,28458,5330,-7576,-83609,-56303,65426,32174]},"impl":true},
    {"code":1132519,"left":1132522,"right":1132518,"id":"cef137","name":"保田(千葉)","original_name":"保田","name_kana":"ほた","lat":35.14148,"lng":139.838114,"prefecture":12,"lines":[11325],"attr":"heat","postal_code":"299-1902","address":"安房郡鋸南町保田","next":[1132516,1132521,1132518,1132520,1132517],"voronoi":{"lat":35.142818,"lng":139.94947,"delta_lat":[0,-20247,11990,38794,1450],"delta_lng":[0,-83609,-69690,64933,10225]},"impl":true},
    {"code":1132522,"left":1132520,"id":"b23a55","name":"富浦(千葉)","original_name":"富浦","name_kana":"とみうら","lat":35.04614,"lng":139.837811,"prefecture":12,"lines":[11325],"attr":"heat","postal_code":"299-2403","address":"南房総市富浦町原岡","next":[2700509,1132521,1132523,1132524,2700508,1132520],"voronoi":{"lat":35.061614,"lng":139.874984,"delta_lat":[0,-72359,-87751,163665,6782,6434],"delta_lng":[0,-91418,-183106,105089,5213,98796]},"impl":true},
    {"code":1132520,"id":"6c6383","name":"安房勝山","name_kana":"あわかつやま","lat":35.114022,"lng":139.83339,"prefecture":12,"lines":[11325],"attr":"heat","postal_code":"299-2118","address":"安房郡鋸南町竜島","next":[2700507,1132521,2700508,1132519,1132518,1132522],"voronoi":{"lat":35.071951,"lng":139.710762,"delta_lat":[0,40965,8272,13373,-11990,-44186],"delta_lng":[0,16832,4152,64425,69690,-56303]},"impl":true},
    {"code":1132518,"id":"bd616b","name":"浜金谷","name_kana":"はまかなや","lat":35.168215,"lng":139.822141,"prefecture":12,"lines":[11325],"attr":"heat","postal_code":"299-1861","address":"富津市金谷","next":[1132517,2700505,2700507,1132519,2700504,1132520],"voronoi":{"lat":35.121188,"lng":139.731747,"delta_lat":[0,2406,49487,27219,-26945,-38794],"delta_lng":[0,464,15890,14316,98688,-64933]},"impl":true},
    {"code":1132525,"left":1132526,"right":1132523,"id":"322d09","name":"九重","name_kana":"ここのえ","lat":34.99752,"lng":139.911383,"prefecture":12,"lines":[11325],"attr":"eco","postal_code":"294-0011","address":"館山市二子","next":[1132524,1132527,1132526,1132523,1132528,1132521],"voronoi":{"lat":35.062391,"lng":139.907158,"delta_lat":[0,-40688,-124501,103338,19480,52742],"delta_lng":[0,-21341,4075,49615,2062,-18311]},"impl":true},
    {"code":1132526,"left":1132524,"id":"4f6dd7","name":"千倉","name_kana":"ちくら","lat":34.976704,"lng":139.954738,"prefecture":12,"lines":[11325],"attr":"eco","postal_code":"295-0004","address":"南房総市千倉町瀬戸","next":[1132421,9992719,1132524,9992715,1132424,1132530,1132525,1132527,9950116],"voronoi":{"lat":33.977175,"lng":139.699684,"delta_lat":[0,920028,103338,-174126,-146345,-1474042,-40588085,19700673,2049380],"delta_lng":[0,190209,49615,224345,118148,766824,19989238,-14107894,-1465763]},"impl":true},
    {"code":1132524,"id":"af8618","name":"館山","name_kana":"たてやま","lat":34.9959,"lng":139.861888,"prefecture":12,"lines":[11325],"attr":"eco","postal_code":"294-0045","address":"館山市北条","next":[9950105,9950110,1132526,1132525,9950104,9950116,1132523,2700509,1132522,9950111],"voronoi":{"lat":33.977175,"lng":139.699684,"delta_lat":[0,920028,124501,-32449,-87751,-107077,-92063,-171935,-237353,-230879],"delta_lng":[0,190209,-4075,-102251,-183106,-85038,10824,24627,57545,61963]},"impl":true},
    {"code":1132523,"id":"59a22e","name":"那古船形","name_kana":"なこふなかた","lat":35.028987,"lng":139.851388,"prefecture":12,"lines":[11325],"attr":"heat","postal_code":"294-0056","address":"館山市船形","next":[1132522,1132524,1132525,1132521],"voronoi":{"lat":35.021703,"lng":139.885817,"delta_lat":[0,-32449,72359,778],"delta_lng":[0,-102251,91418,32174]},"impl":true},
    {"code":1132512,"left":1132514,"right":1132510,"id":"025d88","name":"君津","name_kana":"きみつ","lat":35.333619,"lng":139.895697,"prefecture":12,"lines":[11325],"attr":"cool","postal_code":"299-1144","address":"君津市東坂田１丁目","next":[1132511,1132515,1133003,1133010,1133012,1133004,1132514,1132513],"voronoi":{"lat":35.381935,"lng":139.872526,"delta_lat":[0,-55329,-14682,-6957,-17843,-12631,20084,14894],"delta_lng":[0,87414,12046,4352,-2060,-4433,-75352,-15563]},"impl":true},
    {"code":1132514,"left":1132515,"right":1132513,"id":"86ff95","name":"大貫","name_kana":"おおぬき","lat":35.291661,"lng":139.855541,"prefecture":12,"lines":[11325],"attr":"cool","postal_code":"293-0036","address":"富津市千種新田","next":[1132515,1132513,1132517,1132512,2700149,2700150],"voronoi":{"lat":35.24939,"lng":139.825175,"delta_lat":[0,45187,14894,7289,-6258,-51290],"delta_lng":[0,69318,-15563,-106373,1351,14864]},"impl":true},
    {"code":1132515,"left":1132516,"id":"bd9be4","name":"佐貫町","name_kana":"さぬきまち","lat":35.260113,"lng":139.876106,"prefecture":12,"lines":[11325],"attr":"cool","postal_code":"293-0057","address":"富津市亀田","next":[1132517,1132512,1132514,1132516,1133012,1133013],"voronoi":{"lat":35.274493,"lng":139.969846,"delta_lat":[0,20084,-45187,-2403,-18802,41808],"delta_lng":[0,-75352,-69318,3271,141318,420]},"impl":true},
    {"code":1132516,"id":"f61189","name":"上総湊","name_kana":"かずさみなと","lat":35.221855,"lng":139.871016,"prefecture":12,"lines":[11325],"attr":"cool","postal_code":"299-1607","address":"富津市湊","next":[1132519,1132521,1132515,1132529,1132517,1133013],"voronoi":{"lat":35.228185,"lng":139.969765,"delta_lat":[0,18802,-72182,-31987,-1246,20743],"delta_lng":[0,-141318,42883,78141,7576,25130]},"impl":true},
    {"code":1132513,"id":"254a86","name":"青堀","name_kana":"あおほり","lat":35.330304,"lng":139.858189,"prefecture":12,"lines":[11325],"attr":"cool","postal_code":"293-0001","address":"富津市大堀","next":[2700149,1132511,1132510,9933608,1132514,9931708,9931709,1130407,1132512,1130413],"voronoi":{"lat":35.404115,"lng":139.775369,"delta_lat":[0,-17967,-8223,-24231,-36934,-7289,72464,34151,20777,-4006],"delta_lng":[0,-17760,-758,-1592,17298,106373,-6404,-25826,-23253,-11920]},"impl":true},
    {"code":1132510,"left":1133002,"right":1132509,"id":"360a5d","name":"巌根","name_kana":"いわね","lat":35.414285,"lng":139.933229,"prefecture":12,"lines":[11325],"attr":"cool","postal_code":"292-0061","address":"木更津市岩根３丁目","next":[9933608,1132509,1132513,1133002,1132511],"voronoi":{"lat":35.416085,"lng":139.8467,"delta_lat":[0,20777,70338,-95653,-14137],"delta_lng":[0,-23253,61710,68727,-21620]},"impl":true},
    {"code":1133002,"left":1132511,"id":"26608b","name":"祇園(千葉)","original_name":"祇園","name_kana":"ぎおん","lat":35.391528,"lng":139.948111,"prefecture":12,"lines":[11330],"attr":"heat","postal_code":"292-0052","address":"木更津市祇園","next":[1132510,1132511,1132509,1133003],"voronoi":{"lat":35.345704,"lng":139.955438,"delta_lat":[0,51707,14137,-865],"delta_lng":[0,-23173,21620,3584]},"impl":true},
    {"code":1132511,"id":"3a96a9","name":"木更津","name_kana":"きさらづ","lat":35.381668,"lng":139.92611,"prefecture":12,"lines":[11325,11330],"attr":"cool","postal_code":"292-0831","address":"木更津市富士見１丁目","next":[1132512,1132513,1133002,1133003,1132510],"voronoi":{"lat":35.416085,"lng":139.8467,"delta_lat":[0,-34151,-55329,19098,51707],"delta_lng":[0,25826,87414,-4503,-23173]},"impl":true},
    {"code":1132509,"id":"9cbeb4","name":"袖ヶ浦","name_kana":"そでがうら","lat":35.431997,"lng":139.95788,"prefecture":12,"lines":[11325],"attr":"cool","postal_code":"299-0263","address":"千葉県袖ケ浦市奈良輪1198","next":[1132510,1132508,1133004,9933608,1133002,9934504,1133003],"voronoi":{"lat":35.420785,"lng":139.98654,"delta_lat":[0,111916,-13849,-11651,-95653,-865,3657],"delta_lng":[0,-54285,-39555,-7543,68727,3584,19397]},"impl":true},
    {"code":1133011,"left":1133013,"right":1133007,"id":"30869f","name":"久留里","name_kana":"くるり","lat":35.295812,"lng":140.075613,"prefecture":12,"lines":[11330],"attr":"cool","postal_code":"292-0421","address":"君津市久留里市場","next":[9932514,1133012,1133009,1133014,9932516,1133010,9932515],"voronoi":{"lat":35.269959,"lng":140.107294,"delta_lat":[0,-1148,24797,31751,3134,-11441,-35837],"delta_lng":[0,-5184,-48771,41696,6427,4234,3591]},"impl":true},
    {"code":1133013,"left":1132529,"right":1133014,"id":"b210c1","name":"上総松丘","name_kana":"かずさまつおか","lat":35.258226,"lng":140.064046,"prefecture":12,"lines":[11330],"attr":"eco","postal_code":"292-0503","address":"君津市広岡","next":[1132529,1132530,1133012,1132516,1133014,1132515],"voronoi":{"lat":35.228185,"lng":139.969765,"delta_lat":[0,-65870,-762,-121,103594,4967],"delta_lng":[0,12412,3709,7812,102127,-125640]},"impl":true},
    {"code":1132529,"left":1132528,"right":1132530,"id":"f3a0fa","name":"和田浦","name_kana":"わだうら","lat":35.041885,"lng":140.019569,"prefecture":12,"lines":[11325],"attr":"eco","postal_code":"299-2703","address":"南房総市和田町仁我浦","next":[1133013,1132521,1132527,1132516,1132530,1132528],"voronoi":{"lat":35.123896,"lng":139.951716,"delta_lat":[0,17676,20743,-762,-290403,112941],"delta_lng":[0,5330,25130,3709,144498,-106557]},"impl":true},
    {"code":1132528,"left":1132527,"id":"7366df","name":"南三原","name_kana":"みなみはら","lat":35.021065,"lng":139.979204,"prefecture":12,"lines":[11325],"attr":"eco","postal_code":"299-2713","address":"南房総市和田町松田","next":[1132527,1132521,1132525,1132529],"voronoi":{"lat":35.123896,"lng":139.951716,"delta_lat":[0,-51133,-52742,-35930],"delta_lng":[0,-28458,18311,82257]},"impl":true},
    {"code":1132527,"id":"62ccdd","name":"千歳(千葉)","original_name":"千歳","name_kana":"ちとせ","lat":34.991701,"lng":139.966378,"prefecture":12,"lines":[11325],"attr":"eco","postal_code":"295-0003","address":"南房総市千倉町白子","next":[1132529,1132528,1132525,1132526,1132530],"voronoi":{"lat":35.000541,"lng":139.939508,"delta_lat":[0,19480,-35930,-112941,-44735],"delta_lng":[0,2062,82257,106557,33469]},"impl":true},
    {"code":1132530,"id":"b1b467","name":"江見","name_kana":"えみ","lat":35.062513,"lng":140.061026,"prefecture":12,"lines":[11325],"attr":"eco","postal_code":"299-2841","address":"鴨川市西江見","next":[1132424,1133014,1133013,1132531,1132526,1132529,1132527,1132427],"voronoi":{"lat":34.716254,"lng":140.269831,"delta_lat":[0,-36184,146345,44735,290403,-121,-1583,-54319],"delta_lng":[0,12169,-118148,-33469,-144498,7812,9494,57400]},"impl":true},
    {"code":1133014,"left":1132427,"right":1133012,"id":"00d97c","name":"上総亀山","name_kana":"かずさかめやま","lat":35.233153,"lng":140.089479,"prefecture":12,"lines":[11330],"attr":"eco","postal_code":"292-0531","address":"君津市藤林","next":[1132530,1132427,9932517,9932516,1133011,1132426,1133012,1133013],"voronoi":{"lat":35.161432,"lng":139.993697,"delta_lat":[0,-1583,11912,24424,55563,18212,-1148,-3786],"delta_lng":[0,9494,106281,40456,-26434,-16201,-5184,-6285]},"impl":true},
    {"code":1132427,"left":1132531,"id":"60cbc8","name":"安房鴨川","name_kana":"あわかもがわ","lat":35.107465,"lng":140.103566,"prefecture":12,"lines":[11324,11325],"attr":"eco","postal_code":"296-0001","address":"鴨川市横渚","next":[1132531,1133014,1132426,1132530],"voronoi":{"lat":35.082893,"lng":140.140901,"delta_lat":[0,88868,-11912,-54319],"delta_lng":[0,-31428,-106281,57400]},"impl":true},
    {"code":1132531,"id":"601542","name":"太海","name_kana":"ふとみ","lat":35.081435,"lng":140.096229,"prefecture":12,"lines":[11325],"attr":"eco","postal_code":"296-0000","address":"鴨川市太海","next":[1132424,1132427,1132530,1132426,1132425],"voronoi":{"lat":34.716254,"lng":140.269831,"delta_lat":[0,389276,-22637,-52870,-2003],"delta_lng":[0,-209240,80309,39965,1004]},"impl":true},
    {"code":1133012,"id":"0166f7","name":"平山","name_kana":"ひらやま","lat":35.274312,"lng":140.064682,"prefecture":12,"lines":[11330],"attr":"eco","postal_code":"292-0502","address":"君津市平山","next":[1133011,1133013,1132515,1132512,1133014,1133010],"voronoi":{"lat":35.268812,"lng":140.10211,"delta_lat":[0,-3786,4967,4500,12631,6485],"delta_lng":[0,-6285,-125640,-339,4433,79060]},"impl":true},
    {"code":1133007,"left":1133005,"right":1133009,"id":"14225c","name":"馬来田","name_kana":"まくた","lat":35.36681,"lng":140.058485,"prefecture":12,"lines":[11330],"attr":"heat","postal_code":"292-0212","address":"木更津市真里","next":[9932513,1133006,9932507,9932508,9932512,1133008],"voronoi":{"lat":35.357569,"lng":140.10401,"delta_lat":[0,12225,10758,27105,-41771,-16640],"delta_lng":[0,1830,-4290,-27467,-35986,63031]},"impl":true},
    {"code":1133005,"left":1133008,"right":1133004,"id":"f9829e","name":"横田","name_kana":"よこた","lat":35.386207,"lng":140.020138,"prefecture":12,"lines":[11330],"attr":"heat","postal_code":"299-0236","address":"袖ケ浦市横田","next":[1133009,1133008,1132508,1133004,1133006],"voronoi":{"lat":35.417629,"lng":140.006272,"delta_lat":[0,-90321,5527,26791,66419],"delta_lng":[0,-10036,8078,23715,92]},"impl":true},
    {"code":1133008,"left":1133006,"id":"61ff4b","name":"下郡","name_kana":"しもごおり","lat":35.355018,"lng":140.055372,"prefecture":12,"lines":[11330],"attr":"cool","postal_code":"292-0401","address":"君津市山本","next":[1133009,9932513,1133005,1133007,1133006],"voronoi":{"lat":35.359626,"lng":140.02803,"delta_lat":[0,-26791,15980,431,16640],"delta_lng":[0,-23715,96727,87,-63031]},"impl":true},
    {"code":1133006,"id":"d214b8","name":"東横田","name_kana":"ひがしよこた","lat":35.386185,"lng":140.035995,"prefecture":12,"lines":[11330],"attr":"heat","postal_code":"299-0236","address":"袖ケ浦市横田","next":[9932507,1132508,1133007,1132507,1133005,9932506,1133008],"voronoi":{"lat":35.359626,"lng":140.02803,"delta_lat":[0,66419,6389,-1530,-928,-22319,-41771],"delta_lng":[0,92,10099,24565,635,10663,-35986]},"impl":true},
    {"code":1133004,"id":"946a1e","name":"東清川","name_kana":"ひがしきよかわ","lat":35.390017,"lng":139.985847,"prefecture":12,"lines":[11330],"attr":"heat","postal_code":"292-0032","address":"木更津市笹子","next":[1132508,1133009,1132509,1133003,1132512,1133005,1133010],"voronoi":{"lat":35.304967,"lng":139.976338,"delta_lat":[0,6957,102416,6445,-3156,-90321,-14813],"delta_lng":[0,-4352,4879,9675,19732,-10036,-12373]},"impl":true},
    {"code":1133009,"left":1133010,"right":9932506,"id":"74ea1a","name":"小櫃","name_kana":"おびつ","lat":35.328252,"lng":140.059794,"prefecture":12,"lines":[11330],"attr":"cool","postal_code":"292-0451","address":"君津市末吉","next":[1133005,1133004,1133008,1133010,1133011,9932513,9932514],"voronoi":{"lat":35.328494,"lng":140.101461,"delta_lat":[0,-3134,-12865,14813,5527,15980,-12102],"delta_lng":[0,-6427,-111171,12373,8078,96727,1190]},"impl":true},
    {"code":1133010,"id":"a814f1","name":"俵田","name_kana":"たわらだ","lat":35.314495,"lng":140.061386,"prefecture":12,"lines":[11330],"attr":"cool","postal_code":"292-0455","address":"君津市俵田","next":[1133009,1132512,1133011,1133004,1133012],"voronoi":{"lat":35.287123,"lng":139.974279,"delta_lat":[0,17843,7528,12865,-31751],"delta_lng":[0,2060,7525,111171,-41696]},"impl":true},
    {"code":9932506,"id":"e22f3b","name":"光風台(千葉)","original_name":"光風台","name_kana":"こうふうだい","lat":35.439662,"lng":140.114174,"prefecture":12,"lines":[99325],"attr":"eco","postal_code":"290-0242","address":"市原市中高根８４６","next":[1132507,9932507,9932505,9932504,1133006,9932502],"voronoi":{"lat":35.461193,"lng":140.102862,"delta_lat":[0,-28673,-2545,928,30092,3933],"delta_lng":[0,34643,-74084,-635,16179,16080]},"impl":true},
    {"code":1132607,"left":9931108,"right":1131338,"id":"f27187","name":"舞浜","name_kana":"まいはま","lat":35.636115,"lng":139.883714,"prefecture":12,"lines":[11326],"attr":"cool","postal_code":"279-0031","address":"浦安市舞浜","next":[9934502,2800418,2800417,9934501,9934503],"voronoi":{"lat":35.649669,"lng":139.892714,"delta_lat":[0,2692,-1527,-20005,-80],"delta_lng":[0,-8468,-3721,884,89]},"impl":true},
    {"code":9931108,"left":9931109,"right":9931111,"id":"78b1fe","name":"東京国際クルーズターミナル","name_kana":"とうきょうこくさいくるーずたーみなる","lat":35.621462,"lng":139.773157,"prefecture":13,"lines":[99311],"attr":"eco","postal_code":"135-0064","address":"江東区青海1丁目1-49","next":[9931109,9933704,9933706,9931107,9931110,9933602],"voronoi":{"lat":35.614829,"lng":139.761443,"delta_lat":[0,-10087,17045,1880,1278,-5345],"delta_lng":[0,5528,10688,-756,-1351,-13802]},"impl":true},
    {"code":9931109,"left":2700205,"right":2700206,"id":"7dd97b","name":"テレコムセンター","name_kana":"てれこむせんたー","lat":35.617593,"lng":139.779327,"prefecture":13,"lines":[99311],"attr":"cool","postal_code":"135-0064","address":"江東区青海２-２９","next":[9931108,9933706,9931111,9933604,9931110,9933603,9933610],"voronoi":{"lat":35.58403,"lng":139.782619,"delta_lat":[0,8011,5941,6761,17045,-3429,-29237],"delta_lng":[0,-9427,-4162,-2059,10688,13444,30868]},"impl":true},
    {"code":2700205,"left":9933611,"right":9933606,"id":"846c56","name":"天空橋","name_kana":"てんくうばし","lat":35.548908,"lng":139.75423,"prefecture":13,"lines":[27002,99336],"attr":"heat","postal_code":"144-0041","address":"大田区羽田空港１-１-２","next":[2700307,9933606,2700207,2700204],"voronoi":{"lat":35.54268,"lng":139.749149,"delta_lat":[0,-4231,14800,-1647],"delta_lng":[0,8971,4552,-11850]},"impl":true},
    {"code":9933611,"left":2700207,"id":"92a138","name":"羽田空港第３ターミナル(東京モノレール)","original_name":"羽田空港第３ターミナル","name_kana":"はねだくうこうだいさんたーみなる","lat":35.544169,"lng":139.768206,"prefecture":13,"lines":[99336],"attr":"cool","postal_code":"144-0041","address":"東京都大田区羽田空港２丁目６-５","next":[2700207,9933608,9933609,2700307],"voronoi":{"lat":35.534497,"lng":139.760156,"delta_lat":[0,18916,-10184,-40204],"delta_lng":[0,14225,3093,-3022]},"impl":true},
    {"code":2700207,"id":"7e6033","name":"羽田空港第３ターミナル(京浜急行電鉄)","original_name":"羽田空港第３ターミナル","name_kana":"はねだくうこうだいさんたーみなる","lat":35.544915,"lng":139.767214,"prefecture":13,"lines":[27002],"attr":"cool","postal_code":"144-0041","address":"東京都大田区羽田空港二丁目6番5号","open_date":"2010-10-21","next":[9933609,2700307,9933611,9933606,2700205],"voronoi":{"lat":35.565228,"lng":139.771503,"delta_lat":[0,-11816,-18916,3953,14800],"delta_lng":[0,2878,-14225,-2036,4552]},"impl":true},
    {"code":9933606,"id":"7629db","name":"整備場","name_kana":"せいびじょう","lat":35.555125,"lng":139.753366,"prefecture":13,"lines":[99336],"attr":"heat","postal_code":"144-0041","address":"大田区羽田空港１-７-４","next":[9933609,2700203,2700205,9933605,2700204,2700207],"voronoi":{"lat":35.567391,"lng":139.771915,"delta_lat":[0,-5985,-2185,-7619,1647,11979],"delta_lng":[0,-26957,405,5459,11850,8831]},"impl":true},
    {"code":2700206,"left":9933608,"right":9933610,"id":"482730","name":"羽田空港第１・第２ターミナル","name_kana":"はねだくうこうだいいち・だいにたーみなる","lat":35.549809,"lng":139.785962,"prefecture":13,"lines":[27002],"attr":"cool","postal_code":"144-0041","address":"大田区羽田空港３-３-４","next":[9933605,9933608,9933609,9933610],"voronoi":{"lat":35.546347,"lng":139.786856,"delta_lat":[0,25140,2692,-27622],"delta_lng":[0,-12407,1557,12667]},"impl":true},
    {"code":9933608,"left":9933609,"id":"1c29bf","name":"新整備場","name_kana":"しんせいびじょう","lat":35.542773,"lng":139.786777,"prefecture":13,"lines":[99336],"attr":"cool","postal_code":"144-0041","address":"大田区羽田空港３-５-１","next":[1130413,9933610,1132510,9933609,1132513,9933611,2700307,2700206,1132509,9934504],"voronoi":{"lat":35.532556,"lng":139.881407,"delta_lat":[0,14001,-210,-3119,-40204,-17859,-52309,4006,70338,11651],"delta_lng":[0,-92733,-1817,-9383,-3022,3633,33443,11920,61710,7543]},"impl":true},
    {"code":9933609,"id":"d52dd8","name":"羽田空港第１ターミナル","name_kana":"はねだくうこうだいいちたーみなる","lat":35.549163,"lng":139.784653,"prefecture":13,"lines":[99336],"attr":"cool","postal_code":"144-0041","address":"大田区羽田空港３-３-２","next":[2700207,9933606,9933608,9933605,9933611,2700206],"voronoi":{"lat":35.571487,"lng":139.77445,"delta_lat":[0,-4096,-2163,-11816,-10184,3119],"delta_lng":[0,-2535,-412,2878,3093,9383]},"impl":true},
    {"code":9933610,"id":"b79d6b","name":"羽田空港第２ターミナル","name_kana":"はねだくうこうだいにたーみなる","lat":35.550734,"lng":139.787979,"prefecture":13,"lines":[99336],"attr":"cool","postal_code":"144-0041","address":"大田区羽田空港３-４-２","next":[9933608,9934503,9934504,9933604,9931109,9933605,2700206,9931111,1132605],"voronoi":{"lat":35.588745,"lng":139.831193,"delta_lat":[0,377,-5092,-5307,-4543,-27622,-14001,3128,52076],"delta_lng":[0,-9223,-39352,-4234,-2378,12667,92733,-2362,-45468]},"impl":true},
    {"code":9931111,"left":9933704,"right":9931112,"id":"783a1c","name":"東京ビッグサイト","name_kana":"とうきょうびっぐさいと","lat":35.630158,"lng":139.791228,"prefecture":13,"lines":[99311],"attr":"cool","postal_code":"135-0063","address":"江東区有明三丁目6-15","next":[1132605,9933703,9931109,9931106,9931112,9933702,9931110,9933610],"voronoi":{"lat":35.589122,"lng":139.82197,"delta_lat":[0,29237,11365,3163,-720,-5848,-24061,-13513],"delta_lng":[0,-30868,-6178,-86,7868,12716,19789,5982]},"impl":true},
    {"code":9933704,"left":9931110,"right":9931106,"id":"985a83","name":"東京テレポート","name_kana":"とうきょうてれぽーと","lat":35.62753,"lng":139.778896,"prefecture":13,"lines":[99337],"attr":"heat","postal_code":"135-0064","address":"江東区青海１-２","next":[9931110,9931108,9931106,9931107],"voronoi":{"lat":35.623667,"lng":139.776903,"delta_lat":[0,5691,-1181,-3232],"delta_lng":[0,7280,-9334,703]},"impl":true},
    {"code":9931110,"left":9931107,"id":"aac49b","name":"青海(東京)","original_name":"青海","name_kana":"あおみ","lat":35.62467,"lng":139.781132,"prefecture":13,"lines":[99311],"attr":"cool","postal_code":"135-0064","address":"江東区青海１","next":[9933704,9931109,9931108,9931106,9931111],"voronoi":{"lat":35.621787,"lng":139.777659,"delta_lat":[0,1880,5691,365,-11365],"delta_lng":[0,-756,7280,742,6178]},"impl":true},
    {"code":9931107,"id":"496bd9","name":"台場","name_kana":"だいば","lat":35.625908,"lng":139.771435,"prefecture":13,"lines":[99311],"attr":"eco","postal_code":"135-0091","address":"港区台場２-６","next":[9931105,9931108,9931106,9933602,9933704],"voronoi":{"lat":35.6196,"lng":139.76175,"delta_lat":[0,10467,7932,-9822,-3232],"delta_lng":[0,-1512,9263,5348,703]},"impl":true},
    {"code":9931106,"id":"b54cfa","name":"お台場海浜公園","name_kana":"おだいばかいひんこうえん","lat":35.629813,"lng":139.778607,"prefecture":13,"lines":[99311],"attr":"eco","postal_code":"135-0091","address":"港区台場２-３","next":[9931114,9933703,9931113,9933704,9931111,9931110,9931107,9931105],"voronoi":{"lat":35.638699,"lng":139.779978,"delta_lat":[0,-4421,-1392,-3163,-365,-1181,9822,4256],"delta_lng":[0,4368,492,86,-742,-9334,-5348,2453]},"impl":true},
    {"code":9931112,"left":9934503,"right":9934502,"id":"9bf888","name":"有明(東京)","original_name":"有明","name_kana":"ありあけ","lat":35.634596,"lng":139.793269,"prefecture":13,"lines":[99311],"attr":"cool","postal_code":"135-0063","address":"江東区有明２-５","next":[9933703,9931111,9931113,9933702],"voronoi":{"lat":35.641759,"lng":139.796553,"delta_lat":[0,-3689,-5904,-5848],"delta_lng":[0,-4511,665,12716]},"impl":true},
    {"code":9934503,"left":9933703,"id":"a3079b","name":"ベイサイド・ステーション","name_kana":"べいさいど・すてーしょん","lat":35.627947,"lng":139.876414,"prefecture":12,"lines":[99345],"attr":"cool","postal_code":"279-0031","address":"千葉県浦安市舞浜","next":[9934501,9934504,9934502,9933610,1132606,1132607,1132605],"voronoi":{"lat":35.634761,"lng":139.867415,"delta_lat":[0,-3931,-80,-1785,-93280,52076,24677],"delta_lng":[0,13993,89,1498,-3951,-45468,9176]},"impl":true},
    {"code":9933703,"id":"6af921","name":"国際展示場","name_kana":"こくさいてんじじょう","lat":35.63441,"lng":139.791617,"prefecture":13,"lines":[99337],"attr":"heat","postal_code":"135-0063","address":"江東区有明２-５-２５","next":[9931111,9931106,9931112,9931113],"voronoi":{"lat":35.634278,"lng":139.784346,"delta_lat":[0,-1392,-720,5904],"delta_lng":[0,492,7868,-665]},"impl":true},
    {"code":9934502,"id":"1a7596","name":"東京ディズニーランド・ステーション","name_kana":"とうきょうでぃずにーらんど・すてーしょん","lat":35.635891,"lng":139.878646,"prefecture":12,"lines":[99345],"attr":"eco","postal_code":"279-0031","address":"千葉県浦安市舞浜","next":[1132607,9934503,1132606,2800417],"voronoi":{"lat":35.630829,"lng":139.881409,"delta_lat":[0,3931,14784,1290],"delta_lng":[0,-13993,7342,5767]},"impl":true},
    {"code":1131338,"left":2300407,"right":2300405,"id":"0922b3","name":"西千葉","name_kana":"にしちば","lat":35.622639,"lng":140.103337,"prefecture":12,"lines":[11313],"attr":"cool","postal_code":"260-0033","address":"千葉市中央区春日２丁目","next":[9933204,2300408,9933203,1131339,9933202,2300406,2300407],"voronoi":{"lat":35.620553,"lng":140.099078,"delta_lat":[0,11392,-5603,-6259,-249,-37,-368],"delta_lng":[0,4529,5159,1655,-49,-35,-719]},"impl":true},
    {"code":2300407,"left":1132506,"right":2300408,"id":"355681","name":"西登戸","name_kana":"にしのぶと","lat":35.617615,"lng":140.102801,"prefecture":12,"lines":[23004],"attr":"eco","postal_code":"260-0032","address":"千葉市中央区登戸町４-９-１","next":[2300406,1132617,2300408,1131338],"voronoi":{"lat":35.612479,"lng":140.103387,"delta_lat":[0,467,7607,-1124],"delta_lng":[0,-14728,10418,10540]},"impl":true},
    {"code":1132506,"left":9932502,"right":1132617,"id":"ee863e","name":"五井","name_kana":"ごい","lat":35.512985,"lng":140.089522,"prefecture":12,"lines":[11325,99325],"attr":"cool","postal_code":"290-0056","address":"市原市五井","next":[1132616,1132505,1132507,1132615,1132617,9932502],"voronoi":{"lat":35.488896,"lng":140.070599,"delta_lat":[0,72494,3106,2267,-3781,-47565],"delta_lng":[0,-52178,12604,17055,27555,36127]},"impl":true},
    {"code":9932502,"left":1132507,"id":"827ddf","name":"上総村上","name_kana":"かずさむらかみ","lat":35.496171,"lng":140.100355,"prefecture":12,"lines":[99325],"attr":"eco","postal_code":"290-0031","address":"市原市村上１３５８-２","next":[1132505,9932503,9932504,1132506,1132507,9932506],"voronoi":{"lat":35.460996,"lng":140.078964,"delta_lat":[0,27901,26521,-6279,-39140,-5070],"delta_lng":[0,-8366,41163,12743,-23643,-5817]},"impl":true},
    {"code":1132507,"id":"d768df","name":"姉ヶ崎","name_kana":"あねがさき","lat":35.4786,"lng":140.041749,"prefecture":12,"lines":[11325],"attr":"cool","postal_code":"299-0111","address":"千葉県市原市姉崎528-2","next":[9932506,1132615,1132614,1132506,1133006,1132608,9932502,9934504,1132508],"voronoi":{"lat":35.430904,"lng":140.062786,"delta_lat":[0,30092,27901,72494,2139,22,-1599,-9772,-119747],"delta_lng":[0,16179,-8366,-52178,-19802,-22145,-2114,-9549,73410]},"impl":true},
    {"code":1132617,"id":"a974be","name":"千葉みなと","name_kana":"ちばみなと","lat":35.60739,"lng":140.102477,"prefecture":12,"lines":[11326,99331],"attr":"cool","postal_code":"260-0024","address":"千葉市中央区中央港１丁目","next":[1132616,2300406,2300407,1132505,1132506,9933102,1132403,2300408],"voronoi":{"lat":35.578807,"lng":140.10237,"delta_lat":[0,-11837,-3988,3781,44448,1734,-467,-2417],"delta_lng":[0,-10596,-16140,-27555,34553,6027,14728,2013]},"impl":true},
    {"code":2300408,"left":2300409,"right":1131339,"id":"a5113c","name":"新千葉","name_kana":"しんちば","lat":35.612455,"lng":140.108557,"prefecture":12,"lines":[23004],"attr":"eco","postal_code":"260-0032","address":"千葉市中央区登戸町２-１０-１５","next":[1131338,1131339,2300407,9933102,2300409,1132617],"voronoi":{"lat":35.612479,"lng":140.103387,"delta_lat":[0,6950,368,-9123,-1415,803],"delta_lng":[0,6230,719,875,-207,-5604]},"impl":true},
    {"code":2300409,"left":9933102,"id":"39ec7a","name":"京成千葉","name_kana":"けいせいちば","lat":35.61162,"lng":140.114265,"prefecture":12,"lines":[23004],"attr":"eco","postal_code":"260-0028","address":"千葉市中央区新町２５０-３","next":[1131339,2300410,9933102,2300408,9933104],"voronoi":{"lat":35.606796,"lng":140.112798,"delta_lat":[0,2462,1415,2910,-3320],"delta_lng":[0,-1794,207,4839,922]},"impl":true},
    {"code":9933102,"id":"59aa2a","name":"市役所前(千葉)","original_name":"市役所前","name_kana":"しやくしょまえ","lat":35.606878,"lng":140.107757,"prefecture":12,"lines":[99331],"attr":"cool","postal_code":"260-0026","address":"千葉市中央区千葉港地先道路","next":[1132402,1132617,2300408,2300410,2300409,1132403],"voronoi":{"lat":35.60101,"lng":140.113072,"delta_lat":[0,5786,2462,803,-31254,1811],"delta_lng":[0,-274,-1794,-5604,-3030,1953]},"impl":true},
    {"code":1131339,"id":"76a5a4","name":"千葉","name_kana":"ちば","lat":35.612927,"lng":140.113479,"prefecture":12,"lines":[11313,11314,11324,11325,11328,99331,99332],"attr":"cool","postal_code":"260-0031","address":"千葉市中央区新千葉１丁目","next":[9933202,1131338,9933104,2300409,2300408],"voronoi":{"lat":35.619797,"lng":140.110337,"delta_lat":[0,37,-3737,-2513,-2910],"delta_lng":[0,35,5730,-51,-4839]},"impl":true},
    {"code":2300405,"left":9934501,"right":9933204,"id":"677596","name":"京成稲毛","name_kana":"けいせいいなげ","lat":35.637783,"lng":140.085505,"prefecture":12,"lines":[23004],"attr":"heat","postal_code":"263-0034","address":"千葉市稲毛区稲毛３-１-１７","next":[2300406,1132616,1131337,1131336],"voronoi":{"lat":35.640649,"lng":140.07471,"delta_lat":[0,-14864,2726,26120],"delta_lng":[0,10731,2928,1922]},"impl":true},
    {"code":9934501,"left":1132616,"right":1132615,"id":"3f5f8e","name":"リゾートゲートウェイ・ステーション","name_kana":"りぞーとげーとうぇい・すてーしょん","lat":35.635269,"lng":139.885141,"prefecture":12,"lines":[99345],"attr":"eco","postal_code":"279-0031","address":"千葉県浦安市舞浜","next":[2800418,9934503,9934504,1132607,1132608],"voronoi":{"lat":35.628964,"lng":139.882996,"delta_lat":[0,1785,18920,-715,-10231],"delta_lng":[0,-1498,11216,2723,5321]},"impl":true},
    {"code":1132616,"left":9934504,"id":"5833f4","name":"稲毛海岸","name_kana":"いなげかいがん","lat":35.629501,"lng":140.074034,"prefecture":12,"lines":[11326],"attr":"heat","postal_code":"261-0004","address":"千葉市美浜区高洲３丁目","next":[1132617,2300406,1132506,2300405,1132615,1131336],"voronoi":{"lat":35.640439,"lng":140.070083,"delta_lat":[0,-75942,2267,44448,14574,14864],"delta_lng":[0,-39059,17055,34553,2809,-10731]},"impl":true},
    {"code":9934504,"id":"3f22f3","name":"東京ディズニーシー・ステーション","name_kana":"とうきょうでぃずにーしー・すてーしょん","lat":35.627394,"lng":139.889468,"prefecture":12,"lines":[99345],"attr":"cool","postal_code":"279-0031","address":"千葉県浦安市舞浜","next":[9934503,9934501,9933610,1132508,1132608,9933608,1132509,1132507],"voronoi":{"lat":35.552181,"lng":139.964811,"delta_lat":[0,-19480,-13849,13705,3128,93280,9759,-76771],"delta_lng":[0,-32555,-39555,-11294,-2362,3951,17762,73602]},"impl":true},
    {"code":1132615,"id":"bb2660","name":"検見川浜","name_kana":"けみがわはま","lat":35.637291,"lng":140.058888,"prefecture":12,"lines":[11326],"attr":"heat","postal_code":"261-0011","address":"千葉市美浜区真砂４丁目","next":[1132507,1131335,1132616,2300404,1132506,1132614,1131336],"voronoi":{"lat":35.641962,"lng":140.068532,"delta_lat":[0,6287,-105,-84614,-2139,3106,75942],"delta_lng":[0,-12317,-2344,-55252,19802,12604,39059]},"impl":true},
    {"code":9933204,"left":2300406,"right":1131337,"id":"eca174","name":"天台","name_kana":"てんだい","lat":35.631447,"lng":140.112902,"prefecture":12,"lines":[99332],"attr":"cool","postal_code":"263-0016","address":"千葉市稲毛区天台１-１０９５-２","next":[1131338,9933203,9933207,1131337,2300406,9933206,9933205],"voronoi":{"lat":35.634305,"lng":140.102717,"delta_lat":[0,-134,-2227,-5603,6163,3207,583],"delta_lng":[0,-38,928,5159,14413,-2850,-2129]},"impl":true},
    {"code":2300406,"id":"d233da","name":"みどり台","name_kana":"みどりだい","lat":35.624994,"lng":140.097413,"prefecture":12,"lines":[23004],"attr":"eco","postal_code":"263-0023","address":"千葉市稲毛区緑町１-７-１","next":[2300405,1132616,1132617,2300407,1131338,1131337,9933204],"voronoi":{"lat":35.620553,"lng":140.099078,"delta_lat":[0,-7607,-1734,14574,2726,5660,-2227],"delta_lng":[0,-10418,-6027,2809,2928,14309,928]},"impl":true},
    {"code":1131337,"id":"d2ca15","name":"稲毛","name_kana":"いなげ","lat":35.637264,"lng":140.09256,"prefecture":12,"lines":[11313,11314],"attr":"cool","postal_code":"263-0031","address":"千葉市稲毛区稲毛東３丁目","next":[9933206,1131336,2300406,9933204,2300405,9933205],"voronoi":{"lat":35.634171,"lng":140.102678,"delta_lat":[0,-5660,26120,10548,-6493,-24381],"delta_lng":[0,-14309,1922,7789,1627,3009]},"impl":true},
    {"code":1132411,"left":1132423,"right":9933210,"id":"eb4391","name":"茂原","name_kana":"もばら","lat":35.426733,"lng":140.304121,"prefecture":12,"lines":[11324],"attr":"cool","postal_code":"297-0022","address":"茂原市町保","next":[1132410,9930806,9932510,9930814,1132412],"voronoi":{"lat":35.35491,"lng":140.291388,"delta_lat":[0,463,16579,52197,21396],"delta_lng":[0,-2837,-43519,-17030,113403]},"impl":true},
    {"code":1132423,"left":9932516,"right":9930805,"id":"55ffa5","name":"上総興津","name_kana":"かずさおきつ","lat":35.137146,"lng":140.250487,"prefecture":12,"lines":[11324],"attr":"eco","postal_code":"299-5245","address":"勝浦市興津","next":[9930811,1132422,1132424,1132425],"voronoi":{"lat":35.185697,"lng":140.212904,"delta_lat":[0,4366,-103051,67436],"delta_lng":[0,44837,13571,-53966]},"impl":true},
    {"code":9932516,"left":9930812,"right":9932512,"id":"89caea","name":"上総大久保","name_kana":"かずさおおくぼ","lat":35.283367,"lng":140.145924,"prefecture":12,"lines":[99325],"attr":"cool","postal_code":"290-0532","address":"市原市大久保９６-２","next":[1133014,1133011,9932515,9932514,9932517],"voronoi":{"lat":35.305249,"lng":140.178611,"delta_lat":[0,-24033,-11256,-18212,54844],"delta_lng":[0,-69324,-1993,16201,69108]},"impl":true},
    {"code":9930812,"left":9930813,"right":9930810,"id":"a225c2","name":"西畑","name_kana":"にしはた","lat":35.25051,"lng":140.215176,"prefecture":12,"lines":[99308],"attr":"heat","postal_code":"298-0246","address":"夷隅郡大多喜町庄司","next":[9930813,9930809,9930811,9930807],"voronoi":{"lat":35.286987,"lng":140.206294,"delta_lat":[0,-89434,57064,15846],"delta_lng":[0,2631,22435,-4332]},"impl":true},
    {"code":9930813,"left":1132425,"right":9932517,"id":"4e8986","name":"上総中野","name_kana":"かずさなかの","lat":35.250051,"lng":140.199571,"prefecture":12,"lines":[99308,99325],"attr":"heat","postal_code":"298-0262","address":"夷隅郡大多喜町堀切","next":[9930812,1132426,1132425,9930807,9932517,9930811],"voronoi":{"lat":35.188423,"lng":140.206809,"delta_lat":[0,3042,4573,103239,-12290,-89434],"delta_lng":[0,-40012,-12635,42021,10110,2631]},"impl":true},
    {"code":1132425,"left":1132426,"id":"f39219","name":"安房小湊","name_kana":"あわこみなと","lat":35.128597,"lng":140.190337,"prefecture":12,"lines":[11324],"attr":"eco","postal_code":"299-5502","address":"鴨川市内浦","next":[9930813,1132424,1132531,9930811,1132426,1132423],"voronoi":{"lat":35.02802,"lng":140.181869,"delta_lat":[0,2003,161442,-3042,-2725,-31249],"delta_lng":[0,-1004,-14068,40012,6094,4442]},"impl":true},
    {"code":1132426,"id":"f4a5c3","name":"安房天津","name_kana":"あわあまつ","lat":35.125473,"lng":140.154487,"prefecture":12,"lines":[11324],"attr":"eco","postal_code":"299-5503","address":"鴨川市天津","next":[9930813,9932517,1132427,1132531,1133014,1132425],"voronoi":{"lat":35.082893,"lng":140.140901,"delta_lat":[0,88868,24424,-147,-4573,-161442],"delta_lng":[0,-31428,40456,4234,12635,14068]},"impl":true},
    {"code":9932517,"id":"e1ebff","name":"養老渓谷","name_kana":"ようろうけいこく","lat":35.266409,"lng":140.159382,"prefecture":12,"lines":[99325],"attr":"cool","postal_code":"290-0535","address":"市原市朝生原１７７","next":[1132426,1133014,9932514,9932516,9930807,9930813],"voronoi":{"lat":35.307132,"lng":140.194318,"delta_lat":[0,-540,-54844,-55563,-147,103239],"delta_lng":[0,-1715,-69108,26434,4234,42021]},"impl":true},
    {"code":9930810,"left":9930811,"right":9930809,"id":"b260a1","name":"久我原","name_kana":"くがはら","lat":35.250265,"lng":140.247718,"prefecture":12,"lines":[99308],"attr":"heat","postal_code":"298-0251","address":"夷隅郡大多喜町久我原","next":[9930811,9930809,9930806,1132421,1132420,9930805,9930808],"voronoi":{"lat":35.25566,"lng":140.270925,"delta_lat":[0,-1435,-44865,2356,9436,14900,18719],"delta_lng":[0,-38515,59432,3567,5633,-6792,-18480]},"impl":true},
    {"code":9930811,"left":1132424,"id":"dc01c2","name":"総元","name_kana":"ふさもと","lat":35.240588,"lng":140.240413,"prefecture":12,"lines":[99308],"attr":"heat","postal_code":"298-0255","address":"夷隅郡大多喜町黒原","next":[1132422,1132423,9930810,1132421,9930812,9930809,1132425,9930813],"voronoi":{"lat":35.188423,"lng":140.206809,"delta_lat":[0,-2725,4366,7485,11812,44865,391,-57064],"delta_lng":[0,6094,44837,19631,14470,-59432,-1050,-22435]},"impl":true},
    {"code":1132424,"id":"a22a91","name":"行川アイランド","name_kana":"なめがわあいらんど","lat":35.11832,"lng":140.226962,"prefecture":12,"lines":[11324],"attr":"eco","postal_code":"299-5255","address":"勝浦市浜行川","next":[1132530,1132531,1132421,1132526,1132422,1132423,1132425],"voronoi":{"lat":35.02802,"lng":140.181869,"delta_lat":[0,-311766,-36184,-1474042,1345651,535334,67436],"delta_lng":[0,87962,12169,766824,-543473,-234040,-53966]},"impl":true},
    {"code":9930809,"id":"17f1d9","name":"東総元","name_kana":"ひがしふさもと","lat":35.259314,"lng":140.247381,"prefecture":12,"lines":[99308],"attr":"cool","postal_code":"298-0225","address":"夷隅郡大多喜町大戸","next":[9930808,9930810,9930812,9930807,9930811],"voronoi":{"lat":35.254616,"lng":140.231359,"delta_lat":[0,15846,589,-15391,-1435],"delta_lng":[0,-4332,4512,39385,-38515]},"impl":true},
    {"code":9932512,"left":9932513,"right":9932510,"id":"95eb51","name":"高滝","name_kana":"たかたき","lat":35.353074,"lng":140.150246,"prefecture":12,"lines":[99325],"attr":"heat","postal_code":"290-0555","address":"市原市高滝７３７-２","next":[9930807,9932513,9932510,1133007,9932508,9932511],"voronoi":{"lat":35.371271,"lng":140.114559,"delta_lat":[0,-1478,-12225,-28770,10557,8720],"delta_lng":[0,-8719,-1830,99455,7514,-16703]},"impl":true},
    {"code":9932513,"left":9932514,"right":9932508,"id":"bb4de3","name":"里見","name_kana":"さとみ","lat":35.336685,"lng":140.145505,"prefecture":12,"lines":[99325],"attr":"heat","postal_code":"290-0541","address":"市原市平野１７６-１","next":[9932514,1133007,1133008,1133009,9932512,9930807],"voronoi":{"lat":35.357569,"lng":140.10401,"delta_lat":[0,-8323,-431,-12102,-18633,10719],"delta_lng":[0,-2882,-87,1190,95759,5475]},"impl":true},
    {"code":9932514,"left":9932515,"id":"289b33","name":"飯給","name_kana":"いたぶ","lat":35.320512,"lng":140.142358,"prefecture":12,"lines":[99325],"attr":"heat","postal_code":"290-0543","address":"市原市飯給９４３-３","next":[1133011,9932513,9932517,9932516,1133009,9932515,9930807],"voronoi":{"lat":35.336713,"lng":140.102232,"delta_lat":[0,-8219,-11441,-11804,1343,540,10948],"delta_lng":[0,-770,4234,72915,13992,1715,3673]},"impl":true},
    {"code":9932515,"id":"af6986","name":"月崎","name_kana":"つきさき","lat":35.302203,"lng":140.139394,"prefecture":12,"lines":[99325],"attr":"cool","postal_code":"290-0547","address":"市原市月崎５３９","next":[9932516,9932514,1133011],"voronoi":{"lat":35.305249,"lng":140.178611,"delta_lat":[0,11804,-35837],"delta_lng":[0,-72915,3591]},"impl":true},
    {"code":9932508,"id":"a63c72","name":"上総牛久","name_kana":"かずさうしく","lat":35.400213,"lng":140.142255,"prefecture":12,"lines":[99325],"attr":"eco","postal_code":"290-0225","address":"市原市牛久８９７-２","next":[9932510,9932509,9932511,1133007,9932507,9932512,9932505],"voronoi":{"lat":35.430086,"lng":140.143972,"delta_lat":[0,-49534,-10758,1478,104,40033,35495],"delta_lng":[0,-42422,4290,8719,280,55899,29435]},"impl":true},
    {"code":9932510,"left":9930807,"right":9932509,"id":"3aa101","name":"上総鶴舞","name_kana":"かずさつるまい","lat":35.381346,"lng":140.165006,"prefecture":12,"lines":[99325],"attr":"heat","postal_code":"290-0516","address":"市原市池和田８９８-２","next":[9932508,9932505,9930807,9932511,9930814,9932512,1132411,9932509,1132410],"voronoi":{"lat":35.371952,"lng":140.245032,"delta_lat":[0,-28502,-4094,8720,30051,33282,35495,6871,-29626],"delta_lng":[0,-29126,-4927,-16703,-39426,15888,29435,12858,14971]},"impl":true},
    {"code":9930807,"left":9932511,"id":"72aee2","name":"大多喜","name_kana":"おおたき","lat":35.286466,"lng":140.243833,"prefecture":12,"lines":[99308],"attr":"cool","postal_code":"298-0216","address":"夷隅郡大多喜町大多喜","next":[9932512,9932510,9930809,9932513,9930813,9932517,9932514,9930814,9930812,9930808],"voronoi":{"lat":35.271052,"lng":140.231539,"delta_lat":[0,-589,16524,12290,7855,10948,10719,10557,4094,-63221],"delta_lng":[0,-4512,-20734,-10110,-1866,3673,5475,7514,4927,37640]},"impl":true},
    {"code":9932511,"id":"45ef31","name":"上総久保","name_kana":"かずさくぼ","lat":35.367481,"lng":140.154438,"prefecture":12,"lines":[99325],"attr":"heat","postal_code":"290-0552","address":"市原市久保５７３-４","next":[9932510,9932508,9932512,9932509],"voronoi":{"lat":35.348076,"lng":140.194276,"delta_lat":[0,23196,104,6751],"delta_lng":[0,-79717,280,40011]},"impl":true},
    {"code":9932509,"id":"0e5125","name":"上総川間","name_kana":"かずさかわま","lat":35.388047,"lng":140.150968,"prefecture":12,"lines":[99325],"attr":"eco","postal_code":"290-0518","address":"市原市下矢田５４７-４","next":[9932508,9932510,9932511],"voronoi":{"lat":35.371375,"lng":140.114839,"delta_lat":[0,40033,-33282],"delta_lng":[0,55899,-15888]},"impl":true},
    {"code":9930805,"left":9930803,"right":1132414,"id":"06359c","name":"国吉","name_kana":"くによし","lat":35.280497,"lng":140.314046,"prefecture":12,"lines":[99308],"attr":"eco","postal_code":"298-0123","address":"いすみ市苅谷","next":[9930804,9930806,1132414,1132413,1132415,1132420,9930810,9930803],"voronoi":{"lat":35.323215,"lng":140.334105,"delta_lat":[0,2362,12297,9846,-111667,-14900,143,11430],"delta_lng":[0,-1387,-12991,-17903,-7574,6792,349,6351]},"impl":true},
    {"code":9930803,"left":9930808,"right":1132418,"id":"1af201","name":"上総東","name_kana":"かずさあずま","lat":35.263313,"lng":140.344974,"prefecture":12,"lines":[99308],"attr":"eco","postal_code":"298-0022","address":"いすみ市佐室","next":[1132420,1132419,1132416,9930802,9930804,9930805],"voronoi":{"lat":35.221295,"lng":140.301391,"delta_lat":[0,3675,15863,40896,11037,-60041],"delta_lng":[0,39553,18709,3596,-8965,-46542]},"impl":true},
    {"code":9930808,"left":1132421,"right":9930804,"id":"b21696","name":"小谷松","name_kana":"こやまつ","lat":35.268938,"lng":140.251142,"prefecture":12,"lines":[99308],"attr":"cool","postal_code":"298-0228","address":"夷隅郡大多喜町小谷松","next":[9930809,9930806,9930810,9930814,9930807],"voronoi":{"lat":35.271052,"lng":140.231539,"delta_lat":[0,-15391,-889,24734,723],"delta_lng":[0,39385,4845,-11594,-10629]},"impl":true},
    {"code":1132421,"left":1132422,"id":"b987a7","name":"勝浦","name_kana":"かつうら","lat":35.152722,"lng":140.312142,"prefecture":12,"lines":[11324],"attr":"eco","postal_code":"299-5225","address":"勝浦市墨名","next":[1132526,1132424,1132420,9930811,9930810,9992715,1132422],"voronoi":{"enclosed":false,"lat":-39.619332,"lng":206.630273,"delta_lat":[0,74831047,-2356,-11812,-645870,-1345651,-40588085,-81547443],"delta_lng":[0,-66334864,-3567,-14470,227980,543473,19989238,57879310]},"impl":true},
    {"code":1132422,"id":"beb1bb","name":"鵜原","name_kana":"うばら","lat":35.140828,"lng":140.278446,"prefecture":12,"lines":[11324],"attr":"eco","postal_code":"299-5243","address":"勝浦市鵜原","next":[9930811,1132423,1132424,1132421],"voronoi":{"lat":35.087013,"lng":140.271311,"delta_lat":[0,103051,7485,-645870],"delta_lng":[0,-13571,19631,227980]},"impl":true},
    {"code":9930804,"id":"319d3e","name":"新田野","name_kana":"にったの","lat":35.276408,"lng":140.328081,"prefecture":12,"lines":[99308],"attr":"eco","postal_code":"298-0026","address":"いすみ市新田野","next":[9930805,1132415,1132416,9930803],"voronoi":{"lat":35.232725,"lng":140.307741,"delta_lat":[0,90489,-20455,-9993],"delta_lng":[0,26363,16769,3410]},"impl":true},
    {"code":1132418,"left":1132419,"right":9930802,"id":"193a21","name":"大原(千葉)","original_name":"大原","name_kana":"おおはら","lat":35.251097,"lng":140.390864,"prefecture":12,"lines":[11324,99308],"attr":"heat","postal_code":"298-0004","address":"いすみ市大原","next":[9933510,9930802,1132419,1132417],"voronoi":{"lat":34.929935,"lng":141.148041,"delta_lat":[0,311431,25345,-9924],"delta_lng":[0,-774029,18384,441575]},"impl":true},
    {"code":1132419,"left":1132420,"id":"1b6797","name":"浪花","name_kana":"なみはな","lat":35.222674,"lng":140.379428,"prefecture":12,"lines":[11324],"attr":"heat","postal_code":"298-0012","address":"いすみ市小沢","next":[9933510,9930803,1132418,9930802,1132420],"voronoi":{"lat":35.224971,"lng":140.340943,"delta_lat":[0,15863,532,-311431,-1644543],"delta_lng":[0,18709,14359,774029,1640228]},"impl":true},
    {"code":1132420,"id":"0107c4","name":"御宿","name_kana":"おんじゅく","lat":35.188028,"lng":140.35197,"prefecture":12,"lines":[11324],"attr":"eco","postal_code":"299-5106","address":"夷隅郡御宿町須賀","next":[1132421,9930803,9930805,9930810,1132419,9933510],"voronoi":{"enclosed":false,"lat":-37.011359,"lng":213.910466,"delta_lat":[0,70296750,1939579,-3675,-143,-9436,-74831047],"delta_lng":[0,-71122197,-2447325,-39553,-349,-5633,66334864]},"impl":true},
    {"code":9930802,"id":"1dcdd1","name":"西大原","name_kana":"にしおおはら","lat":35.260407,"lng":140.378029,"prefecture":12,"lines":[99308],"attr":"eco","postal_code":"298-0005","address":"いすみ市新田","next":[1132418,9930803,1132419,1132417,1132416],"voronoi":{"lat":35.28173,"lng":140.363248,"delta_lat":[0,-40896,532,25345,13633],"delta_lng":[0,-3596,14359,18384,-22125]},"impl":true},
    {"code":1132414,"left":1132413,"right":1132416,"id":"07c6bc","name":"東浪見","name_kana":"とらみ","lat":35.34669,"lng":140.376706,"prefecture":12,"lines":[11324],"attr":"cool","postal_code":"299-4303","address":"長生郡一宮町東浪見","next":[9930805,1132413,1132415,1132417,1133104,1131426,1131422,1131421],"voronoi":{"lat":35.447633,"lng":140.573598,"delta_lat":[0,31,-109790,-12297,60290,4060,27614,9898],"delta_lng":[0,-364,-253508,12991,360122,17569,-37219,-27346]},"impl":true},
    {"code":1132413,"left":9930806,"right":1132412,"id":"244b56","name":"上総一ノ宮","name_kana":"かずさいちのみや","lat":35.373401,"lng":140.365138,"prefecture":12,"lines":[11324],"attr":"cool","postal_code":"299-4301","address":"長生郡一宮町一宮","next":[9930806,9930805,1132414,1133104,1132412],"voronoi":{"lat":35.351505,"lng":140.297763,"delta_lat":[0,-3786,-9846,109790,15494],"delta_lng":[0,4060,17903,253508,-102833]},"impl":true},
    {"code":9930806,"left":9930814,"id":"e7febc","name":"上総中川","name_kana":"かずさなかがわ","lat":35.282763,"lng":140.280636,"prefecture":12,"lines":[99308],"attr":"eco","postal_code":"298-0134","address":"いすみ市行川","next":[1132413,9930805,9930814,1132411,9930810,9930808,1132412],"voronoi":{"lat":35.34772,"lng":140.301823,"delta_lat":[0,-111667,18719,24734,75867,-463,-3404],"delta_lng":[0,-7574,-18480,-11594,24376,2837,6375]},"impl":true},
    {"code":9930814,"id":"49ad6e","name":"城見ヶ丘","name_kana":"しろみがおか","lat":35.291741,"lng":140.252693,"prefecture":12,"lines":[99308],"attr":"cool","postal_code":"298-0204","address":"千葉県夷隅郡大多喜町船子681-3","next":[9930806,9932510,1132411,9930808,9930807],"voronoi":{"lat":35.279506,"lng":140.264176,"delta_lat":[0,75867,16579,-28502,-63221],"delta_lng":[0,24376,-43519,-29126,37640]},"impl":true},
    {"code":1132412,"id":"5e4797","name":"八積","name_kana":"やつみ","lat":35.403971,"lng":140.345367,"prefecture":12,"lines":[11324],"attr":"cool","postal_code":"299-4336","address":"長生郡長生村岩沼","next":[1132410,1133102,1132409,1132413,1133103,1132411,1133104,9930806],"voronoi":{"lat":35.35491,"lng":140.291388,"delta_lat":[0,90635,9237,21547,163,-4424,-8910,-111652],"delta_lng":[0,50017,9232,44646,6703,37608,30807,-172638]},"impl":true},
    {"code":1132416,"left":1132417,"right":1132415,"id":"b32eb2","name":"長者町","name_kana":"ちょうじゃまち","lat":35.295839,"lng":140.385021,"prefecture":12,"lines":[11324],"attr":"heat","postal_code":"299-4616","address":"いすみ市岬町長者","next":[1132417,1132415,9930803,9930804,9930802],"voronoi":{"lat":35.318261,"lng":140.448248,"delta_lat":[0,-15502,-9993,-11037,-1386],"delta_lng":[0,-97375,3410,8965,7022]},"impl":true},
    {"code":1132417,"id":"e2ea4c","name":"三門","name_kana":"みかど","lat":35.282377,"lng":140.391567,"prefecture":12,"lines":[11324],"attr":"heat","postal_code":"298-0002","address":"いすみ市日在","next":[1132416,1131426,1132414,9933510,1132415,9930802,1132418],"voronoi":{"lat":35.26671,"lng":140.392395,"delta_lat":[0,13633,37918,67605,4060,-5666,-127474],"delta_lng":[0,-22125,77978,244591,17569,9449,114113]},"impl":true},
    {"code":1132415,"id":"f1cd32","name":"太東","name_kana":"たいとう","lat":35.319942,"lng":140.381184,"prefecture":12,"lines":[11324],"attr":"heat","postal_code":"299-4501","address":"いすみ市岬町椎木","next":[1132416,9930804,9930805,1132414,1132417],"voronoi":{"lat":35.325577,"lng":140.332717,"delta_lat":[0,-2362,-20455,15502,67605],"delta_lng":[0,1387,16769,97375,244591]},"impl":true},
    {"code":9933210,"left":1132402,"right":1133103,"id":"52fcfc","name":"桜木(千葉)","original_name":"桜木","name_kana":"さくらぎ","lat":35.631308,"lng":140.160935,"prefecture":12,"lines":[99332],"attr":"eco","postal_code":"264-0028","address":"千葉市若葉区桜木町３３５-４","next":[1131413,2300502,1131412,2300503,9933211,1131411],"voronoi":{"lat":35.611832,"lng":140.146155,"delta_lat":[0,35504,-1440,-39119,2505,1578],"delta_lng":[0,14489,11076,-12707,-10244,-2254]},"impl":true},
    {"code":1132402,"left":1132403,"right":9933105,"id":"f4e102","name":"本千葉","name_kana":"ほんちば","lat":35.601202,"lng":140.120987,"prefecture":12,"lines":[11324,11325],"attr":"cool","postal_code":"260-0854","address":"千葉市中央区長洲町１丁目","next":[9933102,9933106,2300502,1132403,2300410],"voronoi":{"lat":35.598954,"lng":140.129708,"delta_lat":[0,-10616,-7720,20392,2886],"delta_lng":[0,-10278,-15106,8749,5588]},"impl":true},
    {"code":1132403,"left":9932503,"right":2300503,"id":"e91541","name":"蘇我","name_kana":"そが","lat":35.582065,"lng":140.130767,"prefecture":12,"lines":[11324,11325,11326],"attr":"cool","postal_code":"260-0834","address":"千葉市中央区今井２丁目","next":[1132505,1132504,2300503,2300504,1132402,2300502,9933102,1132617],"voronoi":{"lat":35.566971,"lng":140.091774,"delta_lat":[0,-1462,1908,230,17044,3648,-7720,-1811],"delta_lng":[0,6271,43565,181,-1885,-20477,-15106,-1953]},"impl":true},
    {"code":9932503,"left":9932504,"right":1132505,"id":"ea8769","name":"海士有木","name_kana":"あまありき","lat":35.481729,"lng":140.124264,"prefecture":12,"lines":[99325],"attr":"eco","postal_code":"290-0207","address":"市原市海士有木１８１３","next":[1132505,9932502,9932504,2300506],"voronoi":{"lat":35.469998,"lng":140.100862,"delta_lat":[0,39140,1510,-28840],"delta_lng":[0,23643,19619,32764]},"impl":true},
    {"code":9932504,"left":9932505,"id":"47999d","name":"上総三又","name_kana":"かずさみつまた","lat":35.46592,"lng":140.12672,"prefecture":12,"lines":[99325],"attr":"eco","postal_code":"290-0207","address":"市原市海士有木２７６-１","next":[9932505,2300506,9932503,9932502,1132410,9932506],"voronoi":{"lat":35.45567,"lng":140.213082,"delta_lat":[0,2809,23329,-11810,-5070,-3735],"delta_lng":[0,267,-36462,-76026,-5817,7817]},"impl":true},
    {"code":9932505,"id":"24895d","name":"上総山田","name_kana":"かずさやまだ","lat":35.454105,"lng":140.126128,"prefecture":12,"lines":[99325],"attr":"eco","postal_code":"290-0204","address":"市原市磯ケ谷２０７９-３","next":[9932504,9932510,9932507,1132410,9932506,9932508],"voronoi":{"lat":35.430086,"lng":140.143972,"delta_lat":[0,2435,28673,-5523,-1896,-6871],"delta_lng":[0,-6468,-34643,110221,-51,-12858]},"impl":true},
    {"code":1132505,"id":"d13d13","name":"八幡宿","name_kana":"やわたじゅく","lat":35.536189,"lng":140.120072,"prefecture":12,"lines":[11325],"attr":"cool","postal_code":"290-0062","address":"市原市八幡","next":[1132506,1132403,9932503,1132617,9932502,1132504,2300506],"voronoi":{"lat":35.565509,"lng":140.098046,"delta_lat":[0,1462,-3988,-47565,-6279,1510,18935],"delta_lng":[0,-6271,-16140,36127,12743,19619,819]},"impl":true},
    {"code":2300503,"left":2300504,"right":2300502,"id":"1761e4","name":"大森台","name_kana":"おおもりだい","lat":35.584126,"lng":140.149398,"prefecture":12,"lines":[23005],"attr":"eco","postal_code":"260-0811","address":"千葉市中央区大森町４６３-３","next":[9933213,1132403,9933210,1132404,2300504,9933211,2300502],"voronoi":{"lat":35.606777,"lng":140.159012,"delta_lat":[0,-6726,-6656,-16320,-9428,17044,24591],"delta_lng":[0,13058,6490,-11929,-24840,-1885,8862]},"impl":true},
    {"code":2300504,"left":1132504,"id":"3abab1","name":"学園前(千葉)","original_name":"学園前","name_kana":"がくえんまえ","lat":35.560364,"lng":140.158416,"prefecture":12,"lines":[23005],"attr":"cool","postal_code":"266-0032","address":"千葉市緑区おゆみ野中央１-１４-２","next":[1132404,1132504,1132403,2300505,2300503],"voronoi":{"lat":35.560017,"lng":140.168688,"delta_lat":[0,-15062,22462,230,9428],"delta_lng":[0,-19835,-7242,181,24840]},"impl":true},
    {"code":1132504,"id":"2fd27f","name":"浜野","name_kana":"はまの","lat":35.551876,"lng":140.132089,"prefecture":12,"lines":[11325],"attr":"cool","postal_code":"260-0825","address":"千葉市中央区村田町","next":[2300506,2300504,1132403,1132505,2300505],"voronoi":{"lat":35.567416,"lng":140.14161,"delta_lat":[0,-1908,-35925,7448,7923],"delta_lng":[0,-43565,46897,3482,428]},"impl":true},
    {"code":2300502,"id":"b1dd3e","name":"千葉寺","name_kana":"ちばでら","lat":35.590311,"lng":140.132236,"prefecture":12,"lines":[23005],"attr":"eco","postal_code":"260-0844","address":"千葉市中央区千葉寺町９１２-１","next":[1131411,9933210,1132402,9933106,1132403,2300503],"voronoi":{"lat":35.584691,"lng":140.139906,"delta_lat":[0,3648,10616,11459,446,-1578],"delta_lng":[0,-20477,10278,15613,1194,2254]},"impl":true},
    {"code":9933105,"left":9933202,"right":1131412,"id":"8379f9","name":"葭川公園","name_kana":"よしかわこうえん","lat":35.608551,"lng":140.120142,"prefecture":12,"lines":[99331],"attr":"cool","postal_code":"260-0013","address":"千葉市中央区中央２-１","next":[2300410,9933106,9933104,1131411],"voronoi":{"lat":35.612199,"lng":140.123534,"delta_lat":[0,-2061,-4373,4696],"delta_lng":[0,-5679,2244,10378]},"impl":true},
    {"code":9933202,"left":9933104,"right":9933203,"id":"52a9c4","name":"千葉公園","name_kana":"ちばこうえん","lat":35.619774,"lng":140.117944,"prefecture":12,"lines":[99332],"attr":"cool","postal_code":"260-0045","address":"千葉市中央区弁天３-４６４","next":[1131339,1131338,9933104,1131411,9933203],"voronoi":{"lat":35.620083,"lng":140.11042,"delta_lat":[0,-249,-3737,251,10241],"delta_lng":[0,-49,5730,2692,6548]},"impl":true},
    {"code":9933104,"left":2300410,"id":"5481e7","name":"栄町(千葉)","original_name":"栄町","name_kana":"さかえちょう","lat":35.612822,"lng":140.118592,"prefecture":12,"lines":[99331],"attr":"cool","postal_code":"260-0016","address":"千葉市中央区栄町２９-９","next":[2300410,1131339,9933202,1131411,9933105,2300409],"voronoi":{"lat":35.610138,"lng":140.117854,"delta_lat":[0,2061,4149,-251,-2513,-3320],"delta_lng":[0,5679,-4740,-2692,-51,922]},"impl":true},
    {"code":2300410,"id":"2aab90","name":"千葉中央","name_kana":"ちばちゅうおう","lat":35.607354,"lng":140.117809,"prefecture":12,"lines":[23004,23005],"attr":"eco","postal_code":"260-0014","address":"千葉市中央区本千葉町１５-１","next":[9933106,9933104,9933105,1132402,2300409,9933102],"voronoi":{"lat":35.603897,"lng":140.11866,"delta_lat":[0,1868,4373,126,-3467,-5786],"delta_lng":[0,1438,-2244,-882,-4174,274]},"impl":true},
    {"code":9933203,"id":"416505","name":"作草部","name_kana":"さくさべ","lat":35.625806,"lng":140.115314,"prefecture":12,"lines":[99332],"attr":"cool","postal_code":"263-0015","address":"千葉市稲毛区作草部２-１-１９","next":[1131338,9933204,1131411,9933207,9933202,9933208],"voronoi":{"lat":35.630752,"lng":140.126083,"delta_lat":[0,1752,-6163,-6259,6506,1811],"delta_lng":[0,-2904,-14413,1655,14921,2292]},"impl":true},
    {"code":1131412,"left":1131411,"right":9933208,"id":"10343a","name":"都賀","name_kana":"つが","lat":35.636088,"lng":140.149222,"prefecture":12,"lines":[11314,99332],"attr":"cool","postal_code":"264-0025","address":"千葉市若葉区都賀３丁目","next":[9933208,9933210,1131411,1131413],"voronoi":{"lat":35.611832,"lng":140.146155,"delta_lat":[0,9849,34633,-8978],"delta_lng":[0,-6967,6304,15152]},"impl":true},
    {"code":1131411,"left":9933106,"id":"22a68b","name":"東千葉","name_kana":"ひがしちば","lat":35.617014,"lng":140.122261,"prefecture":12,"lines":[11314],"attr":"cool","postal_code":"260-0017","address":"千葉市中央区要町１丁目","next":[2300502,1131412,9933202,9933208,9933106,9933104,9933203,9933210,9933105],"voronoi":{"lat":35.610414,"lng":140.145321,"delta_lat":[0,446,972,9849,6719,-1811,-10241,-4149,-1738],"delta_lng":[0,1194,-360,-6967,-11554,-2292,-6548,4740,6943]},"impl":true},
    {"code":9933106,"id":"2ee215","name":"県庁前(千葉)","original_name":"県庁前","name_kana":"けんちょうまえ","lat":35.603958,"lng":140.12222,"prefecture":12,"lines":[99331],"attr":"cool","postal_code":"260-0855","address":"千葉市中央区市場町１-２","next":[2300410,1132402,2300502,1131411,9933105],"voronoi":{"lat":35.610414,"lng":140.145321,"delta_lat":[0,-11459,4942,1868,4696],"delta_lng":[0,-15613,-11047,1438,10378]},"impl":true},
    {"code":9933208,"id":"7c4aeb","name":"みつわ台","name_kana":"みつわだい","lat":35.6387,"lng":140.134873,"prefecture":12,"lines":[99332],"attr":"heat","postal_code":"264-0032","address":"千葉市若葉区みつわ台３-２８","next":[1131412,1131411,1131413,9933207,9933203],"voronoi":{"lat":35.621681,"lng":140.139187,"delta_lat":[0,34633,7345,-32906,-2353],"delta_lng":[0,6304,-5860,-13549,1551]},"impl":true},
    {"code":1133103,"left":1132410,"right":1131419,"id":"42e397","name":"東金","name_kana":"とうがね","lat":35.560172,"lng":140.363743,"prefecture":12,"lines":[11331],"attr":"cool","postal_code":"283-0802","address":"東金市東金","next":[1133102,1132412,1131419,1133104],"voronoi":{"lat":35.594328,"lng":140.365243,"delta_lat":[0,-728,-117108,-4424],"delta_lng":[0,-38340,75084,37608]},"impl":true},
    {"code":1132410,"left":1132405,"right":1132407,"id":"464124","name":"新茂原","name_kana":"しんもばら","lat":35.449477,"lng":140.29983,"prefecture":12,"lines":[11324],"attr":"cool","postal_code":"297-0073","address":"茂原市長尾","next":[1132411,1132409,1132412,1132406,1132405,9932505,2300506,9932504,9932510],"voronoi":{"lat":35.445544,"lng":140.341406,"delta_lat":[0,9237,23299,-11486,-4785,-3330,-2809,-1896,-29626],"delta_lng":[0,9232,-98583,-31111,-5421,-2173,-267,-51,14971]},"impl":true},
    {"code":1132405,"left":1132406,"right":2300505,"id":"f01c66","name":"誉田","name_kana":"ほんだ","lat":35.546996,"lng":140.213748,"prefecture":12,"lines":[11324],"attr":"cool","postal_code":"266-0005","address":"千葉市緑区誉田町２丁目","next":[2300506,1132410,9933213,1132406,1132404],"voronoi":{"lat":35.543606,"lng":140.191093,"delta_lat":[0,-81796,4785,137959,-16600],"delta_lng":[0,24429,5421,39712,-49638]},"impl":true},
    {"code":1132406,"left":2300506,"id":"52f0f4","name":"土気","name_kana":"とけ","lat":35.530866,"lng":140.269783,"prefecture":12,"lines":[11324],"attr":"cool","postal_code":"267-0061","address":"千葉市緑区土気町","next":[9933213,1132410,1131418,1132409,1132405,1133102,1132408,1132407],"voronoi":{"lat":35.512716,"lng":140.287602,"delta_lat":[0,-14597,-20038,-11486,137959,3063,-10523,-27421],"delta_lng":[0,-9785,-25763,-31111,39712,3448,29310,5819]},"impl":true},
    {"code":2300506,"id":"8ceced","name":"ちはら台","name_kana":"ちはらだい","lat":35.534017,"lng":140.17029,"prefecture":12,"lines":[23005],"attr":"heat","postal_code":"290-0000","address":"市原市ちはら台７-８７","next":[1132504,1132405,2300505,1132410,9932504,1132404,9932503,1132505],"voronoi":{"lat":35.537031,"lng":140.148424,"delta_lat":[0,8793,-2219,-81796,-3330,23329,28840,18935],"delta_lng":[0,34971,7698,24429,-2173,-36462,-32764,819]},"impl":true},
    {"code":2300505,"id":"0a5f47","name":"おゆみ野","name_kana":"おゆみの","lat":35.550029,"lng":140.166264,"prefecture":12,"lines":[23005],"attr":"cool","postal_code":"266-0033","address":"千葉市緑区おゆみ野南３-２７-１","next":[1132404,2300506,1132504,2300504],"voronoi":{"lat":35.545824,"lng":140.183395,"delta_lat":[0,-8793,7923,15062],"delta_lng":[0,-34971,428,19835]},"impl":true},
    {"code":1132407,"left":1132408,"right":1133102,"id":"68b75a","name":"大網","name_kana":"おおあみ","lat":35.522427,"lng":140.311111,"prefecture":12,"lines":[11324,11331],"attr":"cool","postal_code":"299-3244","address":"千葉県大網白里市南玉21-7","next":[1132408,1133102,1132406],"voronoi":{"lat":35.512716,"lng":140.287602,"delta_lat":[0,147,56810],"delta_lng":[0,55433,-43803]},"impl":true},
    {"code":1132408,"left":1132409,"id":"a7d08a","name":"永田(千葉)","original_name":"永田","name_kana":"ながた","lat":35.503129,"lng":140.311162,"prefecture":12,"lines":[11324],"attr":"cool","postal_code":"299-3233","address":"千葉県大網白里市永田1835","next":[1132407,1133102,1132409,1132406],"voronoi":{"lat":35.512862,"lng":140.343036,"delta_lat":[0,-34156,19412,14597],"delta_lng":[0,47821,-113039,9785]},"impl":true},
    {"code":1132409,"id":"0184cf","name":"本納","name_kana":"ほんのう","lat":35.48227,"lng":140.30758,"prefecture":12,"lines":[11324],"attr":"cool","postal_code":"299-4114","address":"茂原市本納","next":[1132410,1132412,1133102,1132406,1132408],"voronoi":{"lat":35.498118,"lng":140.277817,"delta_lat":[0,-20038,-23299,21547,2378],"delta_lng":[0,-25763,98583,44646,-4427]},"impl":true},
    {"code":1133102,"id":"df3adc","name":"福俵","name_kana":"ふくたわら","lat":35.54617,"lng":140.341904,"prefecture":12,"lines":[11331],"attr":"heat","postal_code":"283-0812","address":"東金市福俵","next":[1131419,1132407,1132412,1131418,1132409,1132408,1133103,1132406],"voronoi":{"lat":35.597094,"lng":140.293414,"delta_lat":[0,2226,-5720,-117108,-163,2378,34156,56810],"delta_lng":[0,10593,22896,75084,-6703,-4427,-47821,-43803]},"impl":true},
    {"code":1131419,"left":9933212,"right":1131420,"id":"b01c2e","name":"日向","name_kana":"ひゅうが","lat":35.628402,"lng":140.362447,"prefecture":12,"lines":[11314],"attr":"heat","postal_code":"289-1205","address":"山武市椎崎","next":[1131421,1133102,1131420,1131418,1133103,1133104,9932402],"voronoi":{"lat":35.668388,"lng":140.407113,"delta_lat":[0,-63264,-10796,-728,5720,93399,-8706],"delta_lng":[0,-26400,-15471,-38340,-22896,72053,29800]},"impl":true},
    {"code":9933212,"left":9933213,"right":9933211,"id":"83947f","name":"千城台北","name_kana":"ちしろだいきた","lat":35.627436,"lng":140.181972,"prefecture":12,"lines":[99332],"attr":"eco","postal_code":"264-0005","address":"千葉市若葉区千城台北１-２-２","next":[1131413,9933211,1131414,9933213],"voronoi":{"lat":35.613574,"lng":140.17648,"delta_lat":[0,33461,8328,-3554],"delta_lng":[0,1057,17355,11314]},"impl":true},
    {"code":9933213,"left":1132404,"id":"553543","name":"千城台","name_kana":"ちしろだい","lat":35.622314,"lng":140.18856,"prefecture":12,"lines":[99332],"attr":"eco","postal_code":"264-0005","address":"千葉市若葉区千城台北３-１-４１８","next":[2300503,1131417,1132406,1131414,9933211,1132405,1132404,9933212,1131418],"voronoi":{"lat":35.615682,"lng":140.261541,"delta_lat":[0,29249,6878,-38235,-13523,-6656,-5441,16600,3063],"delta_lng":[0,-18109,-37226,-29726,-4409,6490,32457,49638,3448]},"impl":true},
    {"code":1132404,"id":"67c53b","name":"鎌取","name_kana":"かまとり","lat":35.562795,"lng":140.178583,"prefecture":12,"lines":[11324],"attr":"cool","postal_code":"266-0011","address":"千葉市緑区鎌取町","next":[2300505,2300504,2300506,2300503,9933213,1132405],"voronoi":{"lat":35.593395,"lng":140.17856,"delta_lat":[0,-16320,-17058,-14192,-2219,44348],"delta_lng":[0,-11929,2056,14708,7698,19924]},"impl":true},
    {"code":9933211,"id":"f3338d","name":"小倉台","name_kana":"おぐらだい","lat":35.627755,"lng":140.171873,"prefecture":12,"lines":[99332],"attr":"eco","postal_code":"264-0006","address":"千葉市若葉区小倉台４-１７３１-１","next":[1131413,9933212,9933213,9933210,2300503],"voronoi":{"lat":35.606777,"lng":140.159012,"delta_lat":[0,39119,1139,-33461,-13523],"delta_lng":[0,12707,5817,-1057,-4409]},"impl":true},
    {"code":1131420,"left":1133104,"right":1131421,"id":"e0d49b","name":"成東","name_kana":"なるとう","lat":35.608513,"lng":140.410109,"prefecture":12,"lines":[11314,11331],"attr":"heat","postal_code":"289-1345","address":"山武市津辺","next":[1131421,1131419,1133104],"voronoi":{"lat":35.605124,"lng":140.380714,"delta_lat":[0,63264,-105801],"delta_lng":[0,26400,61342]},"impl":true},
    {"code":1133104,"id":"03068c","name":"求名","name_kana":"ぐみょう","lat":35.579947,"lng":140.39626,"prefecture":12,"lines":[11331],"attr":"cool","postal_code":"283-0002","address":"東金市求名","next":[1131421,1132413,1131420,1132414,1131419,1132412,1133103],"voronoi":{"lat":35.594328,"lng":140.365243,"delta_lat":[0,10796,-42537,-114954,31,15494,8910],"delta_lng":[0,15471,87742,105143,-364,-102833,-30807]},"impl":true},
    {"code":1131421,"id":"c9271f","name":"松尾(千葉)","original_name":"松尾","name_kana":"まつお","lat":35.63604,"lng":140.457587,"prefecture":12,"lines":[11314],"attr":"heat","postal_code":"289-1523","address":"山武市松尾町五反田","next":[1133104,1131419,1131420,9932402,1131422,1132414],"voronoi":{"lat":35.69868,"lng":140.435561,"delta_lat":[0,-14667,-15625,-105801,-114954,-20194],"delta_lng":[0,-29702,1254,61342,105143,72245]},"impl":true}
  ]
}