{
  "name":"segment9",
  "root":1180159,
  "east":133.556693,
  "west":131.97669,
  "south":-90.0,
  "north":33.715973,
  "station_size":145,
  "node_list":[
    {"code":1180159,"left":1180815,"right":9981818,"id":"26cdc4","name":"仁井田(高知)","original_name":"仁井田","name_kana":"にいだ","lat":33.245097,"lng":133.161204,"prefecture":39,"lines":[11801],"attr":"heat","postal_code":"786-0021","address":"高岡郡四万十町仁井田","next":[9981406,1180805,1180160,9981403,1180158,1180156,1180157],"voronoi":{"lat":33.309847,"lng":133.044054,"delta_lat":[0,-4265,-173067,-89599,-1850,122066,136527],"delta_lng":[0,1156,234728,223830,6112,-156839,-283542]}},
    {"code":1180815,"left":9981415,"right":1180724,"id":"7f5cd2","name":"近永","name_kana":"ちかなが","lat":33.255693,"lng":132.676335,"prefecture":38,"lines":[11808],"attr":"heat","postal_code":"798-1300","address":"北宇和郡鬼北町","next":[1180740,1180816,1180813,1180814],"voronoi":{"lat":33.210752,"lng":132.630136,"delta_lat":[0,-32362,44489,74148],"delta_lng":[0,8893,37454,18430]}},
    {"code":9981415,"left":1180808,"right":9981406,"id":"6d4913","name":"中村","name_kana":"なかむら","lat":32.984641,"lng":132.943927,"prefecture":39,"lines":[99814,99815],"attr":"eco","postal_code":"787-0014","address":"四万十市駅前町","next":[9981414,1180805,9981413,9981502],"voronoi":{"lat":33.097467,"lng":132.908436,"delta_lat":[0,-38,-74467,-231354],"delta_lng":[0,252,41994,14091]}},
    {"code":1180808,"left":9981506,"right":1180812,"id":"30cfab","name":"半家","name_kana":"はげ","lat":33.201666,"lng":132.791428,"prefecture":39,"lines":[11808],"attr":"cool","postal_code":"787-1606","address":"四万十市西土佐半家","next":[1180809,1180811,1180810,1180807],"voronoi":{"lat":33.270935,"lng":132.796473,"delta_lat":[0,-58016,-20732,-24434],"delta_lng":[0,-28074,12357,68916]}},
    {"code":9981506,"left":1180809,"right":9981503,"id":"82edca","name":"平田(高知)","original_name":"平田","name_kana":"ひらた","lat":32.955639,"lng":132.794977,"prefecture":39,"lines":[99815],"attr":"heat","postal_code":"788-0783","address":"宿毛市平田町戸内","next":[9981505,9981507,1180809],"voronoi":{"lat":32.783296,"lng":132.815365,"delta_lat":[0,280017,3483],"delta_lng":[0,-92855,65092]}},
    {"code":1180809,"left":9981507,"right":1180810,"id":"5bbe22","name":"江川崎","name_kana":"えかわさき","lat":33.178104,"lng":132.783074,"prefecture":39,"lines":[11808],"attr":"eco","postal_code":"787-1601","address":"四万十市西土佐江川崎","next":[1180807,1180808,9981504,9981506,1180806,9981508,9981505,1180810,9981507,9981503],"voronoi":{"lat":33.072975,"lng":132.822425,"delta_lat":[0,-5100,-1080,-3483,2520,1055,125300,-24434,-4987,-62477],"delta_lng":[0,-22117,-12707,-65092,-11336,-3733,73315,68916,3891,22919]}},
    {"code":9981507,"left":9981508,"id":"d7172e","name":"東宿毛","name_kana":"ひがしすくも","lat":32.933673,"lng":132.728736,"prefecture":39,"lines":[99815],"attr":"heat","postal_code":"788-0000","address":"宿毛市宿毛字鎌田","next":[9981504,9981505,9981506,9981508,9981414,1192812,1180809],"voronoi":{"lat":32.783296,"lng":132.815365,"delta_lat":[0,-196298,-1282860,-193953,458272,1497376,-2520],"delta_lng":[0,60736,338798,43289,-434036,-112978,11336]}},
    {"code":9981508,"id":"0f03b4","name":"宿毛","name_kana":"すくも","lat":32.932534,"lng":132.71364,"prefecture":39,"lines":[99815],"attr":"heat","postal_code":"788-0010","address":"宿毛市駅前町１","next":[1180813,1192811,1190718,9981507,1190723,1192812,1190660,1190714,1180809,1180740,1190713,1190657,1180810],"voronoi":{"lat":33.065832,"lng":132.711174,"delta_lat":[0,-1497376,100848,57285,141431,308955,125020,203202,406129,983,166978,117,-12517],"delta_lng":[0,112978,-96578,-53967,-97068,-160094,-51121,-79610,20006,137,334961,7240,59383]}},
    {"code":1180810,"id":"c23d00","name":"西ヶ方","name_kana":"にしがほう","lat":33.187309,"lng":132.767342,"prefecture":39,"lines":[11808],"attr":"eco","postal_code":"787-1602","address":"高知県四万十市西土佐西ヶ方馬引田","next":[1180811,1180813,1180809,1180812,1180808,9981508],"voronoi":{"lat":33.079405,"lng":132.648058,"delta_lat":[0,85050,29016,19449,-20732,-125300],"delta_lng":[0,59632,28362,32347,12357,-73315]}},
    {"code":9981503,"left":9981504,"right":9981502,"id":"2e6c8e","name":"国見(高知)","original_name":"国見","name_kana":"くにみ","lat":32.978932,"lng":132.883716,"prefecture":39,"lines":[99815],"attr":"cool","postal_code":"787-0667","address":"四万十市国見","next":[9981504,1180806,9981502,1180809],"voronoi":{"lat":33.072975,"lng":132.822425,"delta_lat":[0,-226327,252428,1213],"delta_lng":[0,79122,-3720,-21346]}},
    {"code":9981504,"left":9981505,"id":"595103","name":"有岡","name_kana":"ありおか","lat":32.961229,"lng":132.833077,"prefecture":39,"lines":[99815],"attr":"cool","postal_code":"787-0771","address":"四万十市有岡","next":[9981507,9981503,9981414,1180809,9981505,9981502],"voronoi":{"lat":32.846648,"lng":132.901547,"delta_lat":[0,226327,-5100,-480878,-1282860,881364],"delta_lng":[0,-79122,-22117,75792,338798,-167547]}},
    {"code":9981505,"id":"4c7a2f","name":"工業団地","name_kana":"こうぎょうだんち","lat":32.95632,"lng":132.801931,"prefecture":39,"lines":[99815],"attr":"heat","postal_code":"788-0000","address":"宿毛市平田町字扇","next":[9981506,9981507,9981504,1180809],"voronoi":{"lat":33.066795,"lng":132.787602,"delta_lat":[0,-283500,-196298,480878],"delta_lng":[0,27763,60736,-75792]}},
    {"code":9981502,"id":"0c8e39","name":"具同","name_kana":"ぐどう","lat":32.9794,"lng":132.915473,"prefecture":39,"lines":[99815],"attr":"eco","postal_code":"787-0019","address":"四万十市具同","next":[1180806,1180805,9981415,9981503,9981504,9981414],"voronoi":{"lat":32.846648,"lng":132.901547,"delta_lat":[0,252428,287,-1897,-305859,-606106],"delta_lng":[0,-3720,3815,6793,56337,82579]}},
    {"code":1180812,"left":1180739,"right":1180811,"id":"1c29a5","name":"吉野生","name_kana":"よしのぶ","lat":33.224612,"lng":132.72918,"prefecture":38,"lines":[11808],"attr":"heat","postal_code":"798-2111","address":"北宇和郡松野町大字吉野","next":[1180814,1180813,1180811,1180810],"voronoi":{"lat":33.164455,"lng":132.707689,"delta_lat":[0,93040,19958,-83982],"delta_lng":[0,16986,14589,-3213]}},
    {"code":1180739,"left":1180813,"right":1180814,"id":"180cfb","name":"北宇和島","name_kana":"きたうわじま","lat":33.239442,"lng":132.569643,"prefecture":38,"lines":[11807,11808],"attr":"eco","postal_code":"798-0024","address":"宇和島市伊吹町北通り","next":[1180738,1180816,1180820,1180737,1180740],"voronoi":{"lat":33.238297,"lng":132.532932,"delta_lat":[0,14151,-16135,-170,-12438],"delta_lng":[0,18748,68512,241,3867]}},
    {"code":1180813,"left":1180740,"id":"698b5b","name":"松丸","name_kana":"まつまる","lat":33.228325,"lng":132.708843,"prefecture":38,"lines":[11808],"attr":"heat","postal_code":"798-2101","address":"北宇和郡松野町大字松丸","next":[9981508,1180815,1180812,1180810,1180740,1180814],"voronoi":{"lat":33.222879,"lng":132.676484,"delta_lat":[0,-44489,-99103,117,85050,93040],"delta_lng":[0,-37454,1788,7240,59632,16986]}},
    {"code":1180740,"id":"d028b5","name":"宇和島","name_kana":"うわじま","lat":33.225774,"lng":132.56746,"prefecture":38,"lines":[11807,11808],"attr":"eco","postal_code":"798-0034","address":"宇和島市錦町","next":[1180815,1190657,1180816,1180813,9981508,1190656,1180737,1180739],"voronoi":{"lat":33.210752,"lng":132.630136,"delta_lat":[0,-32362,-99103,-166978,150152,38737,137098,-14592],"delta_lng":[0,8893,1788,-334961,-42212,-9539,278827,91368]}},
    {"code":1180814,"id":"1d5bff","name":"出目","name_kana":"いずめ","lat":33.251805,"lng":132.691978,"prefecture":38,"lines":[11808],"attr":"heat","postal_code":"798-1332","address":"北宇和郡鬼北町出目","next":[1180811,1180817,1180812,1180815,1180816,1180711,1180813,1180807,1180712],"voronoi":{"lat":33.415808,"lng":132.77095,"delta_lat":[0,-79426,-39355,-74148,34615,19958,91229,50800,-1739],"delta_lng":[0,-56281,-19755,-18430,48192,14589,47594,5251,-11304]}},
    {"code":1180811,"left":1180806,"right":1180807,"id":"55f49d","name":"真土","name_kana":"まつち","lat":33.223996,"lng":132.745283,"prefecture":38,"lines":[11808],"attr":"heat","postal_code":"798-2112","address":"北宇和郡松野町大字蕨生","next":[1180814,1180810,1180807,1180812,1180808],"voronoi":{"lat":33.212919,"lng":132.768398,"delta_lat":[0,-19449,83982,91229,-97746],"delta_lng":[0,-32347,3213,47594,9614]}},
    {"code":1180806,"id":"dde596","name":"土佐昭和","name_kana":"とさしょうわ","lat":33.220047,"lng":132.897413,"prefecture":39,"lines":[11808],"attr":"cool","postal_code":"786-0511","address":"高岡郡四万十町昭和","next":[9981502,9981503,9980713,1180805,1180807,1180709,1180809,1180157],"voronoi":{"lat":33.510456,"lng":132.982408,"delta_lat":[0,-150,-717,-346823,-62477,-1213,287,312233],"delta_lng":[0,-3573,-1658,-123614,22919,21346,3815,100747]}},
    {"code":1180807,"id":"736480","name":"十川(高知)","original_name":"十川","name_kana":"とおかわ","lat":33.234869,"lng":132.855827,"prefecture":39,"lines":[11808],"attr":"cool","postal_code":"786-0504","address":"高岡郡四万十町十川","next":[1180809,1180811,1180711,1180806,1180710,1180814,1180709,1180808],"voronoi":{"lat":33.162766,"lng":132.853563,"delta_lat":[0,346823,-27386,-22344,-40378,-50800,-97746,-103182],"delta_lng":[0,123614,-78819,-45680,-60568,-5251,9614,53199]}},
    {"code":9981406,"left":9981410,"right":9981405,"id":"1978ad","name":"佐賀公園","name_kana":"さがこうえん","lat":33.064604,"lng":133.106582,"prefecture":39,"lines":[99814],"attr":"heat","postal_code":"789-1723","address":"幡多郡黒潮町佐賀","next":[9981403,1180159,1180153,9981620,9981617,1180156,9981405,9981407],"voronoi":{"lat":33.069597,"lng":133.093888,"delta_lat":[0,21728,-48409,-1850,-44040,-33516,-162336,-807795],"delta_lng":[0,69930,339950,6112,97104,58912,72027,319492]}},
    {"code":9981410,"left":9981412,"right":9981409,"id":"35d703","name":"海の王迎","name_kana":"うみのおうむかえ","lat":33.040407,"lng":133.046482,"prefecture":39,"lines":[99814],"attr":"cool","postal_code":"789-1901","address":"幡多郡黒潮町上川口字拾五代地１３１６-１","next":[9981412,9981408,9981409,9981411],"voronoi":{"lat":32.977257,"lng":133.05511,"delta_lat":[0,41191,84185,-93127],"delta_lng":[0,2482,-22781,4991]}},
    {"code":9981412,"left":9981413,"right":9981411,"id":"0a78c6","name":"土佐入野","name_kana":"とさいりの","lat":33.023866,"lng":133.011636,"prefecture":39,"lines":[99814],"attr":"cool","postal_code":"789-1931","address":"幡多郡黒潮町入野字厩尻","next":[9981413,9981410,9981411,9981408,1180805],"voronoi":{"lat":33.099873,"lng":132.948695,"delta_lat":[0,-213309,90694,32249,92773],"delta_lng":[0,129305,-22890,-15308,-79687]}},
    {"code":9981413,"left":9981414,"id":"d57186","name":"西大方","name_kana":"にしおおがた","lat":33.008912,"lng":132.986967,"prefecture":39,"lines":[99814],"attr":"eco","postal_code":"789-1935","address":"幡多郡黒潮町上田の口字下新田","next":[9981412,9981414,9981415,9981408,1180805],"voronoi":{"lat":32.886564,"lng":133.078,"delta_lat":[0,-988,137386,74467,2444],"delta_lng":[0,352,-127670,-41994,40007]}},
    {"code":9981414,"id":"7f1645","name":"古津賀","name_kana":"こつか","lat":32.985744,"lng":132.962036,"prefecture":39,"lines":[99814],"attr":"eco","postal_code":"787-0010","address":"四万十市古津賀道廣","next":[1192818,9981408,9981415,1192820,9981507,1192812,9981504,9981413,1192813,9981502,1192819],"voronoi":{"lat":29.401766,"lng":134.774293,"delta_lat":[0,3483809,137386,-231354,-606106,-881364,-193953,-79636,-505247,-108028,-73476],"delta_lng":[0,-1695942,-127670,14091,82579,167547,43289,66433,427675,96506,66449]}},
    {"code":9981411,"id":"20df78","name":"浮鞭","name_kana":"うきぶち","lat":33.039516,"lng":133.029856,"prefecture":39,"lines":[99814],"attr":"cool","postal_code":"789-1911","address":"幡多郡黒潮町浮鞭字丸田","next":[1180805,1180804,9981409,9981404,9981412,9981410],"voronoi":{"lat":33.102279,"lng":132.960115,"delta_lat":[0,5693,-488,-4348,-503,-93127],"delta_lng":[0,16302,54170,4157,67,4991]}},
    {"code":9981409,"left":9981408,"right":9981407,"id":"3f79cb","name":"土佐上川口","name_kana":"とさかみかわぐち","lat":33.043013,"lng":133.056112,"prefecture":39,"lines":[99814],"attr":"cool","postal_code":"789-1901","address":"幡多郡黒潮町上川口字弓湯ノ谷","next":[9981404,9981405,9981408,9981411,9981407,9981410],"voronoi":{"lat":33.102633,"lng":133.03481,"delta_lat":[0,503,-15379,-14025,-5988,-49296],"delta_lng":[0,-67,22542,11704,1943,-13341]}},
    {"code":9981408,"id":"7e4427","name":"有井川","name_kana":"ありいがわ","lat":33.038914,"lng":133.071258,"prefecture":39,"lines":[99814],"attr":"cool","postal_code":"789-1903","address":"幡多郡黒潮町有井川字塩屋ヶ原","next":[9981414,9981407,1163915,1192820,9981409,9981410,1163918,9981413,9981412,9981620],"voronoi":{"lat":30.994065,"lng":134.457607,"delta_lat":[0,2073679,-49296,-41191,-90694,-988,-3483809,-377491,45959,602887],"delta_lng":[0,-1386675,-13341,-2482,22890,352,1695942,333920,-7403,-104408]}},
    {"code":9981407,"id":"249284","name":"土佐白浜","name_kana":"とさしらはま","lat":33.05643,"lng":133.097452,"prefecture":39,"lines":[99814],"attr":"heat","postal_code":"789-1725","address":"幡多郡黒潮町白浜","next":[9981408,9981409,9981406,9981620,9981405],"voronoi":{"lat":33.073732,"lng":133.068989,"delta_lat":[0,-5988,-2073679,999314,1076218],"delta_lng":[0,1943,1386675,-400193,-963527]}},
    {"code":9981405,"left":1180804,"right":1180802,"id":"135052","name":"土佐佐賀","name_kana":"とささが","lat":33.080905,"lng":133.101517,"prefecture":39,"lines":[99814],"attr":"heat","postal_code":"789-1723","address":"幡多郡黒潮町佐賀","next":[9981409,9981406,9981404,9981407,9981403],"voronoi":{"lat":33.098013,"lng":133.140292,"delta_lat":[0,-10256,-14025,-4135,21728],"delta_lng":[0,-83007,11704,24898,69930]}},
    {"code":1180804,"left":9981404,"right":1180805,"id":"f6f445","name":"打井川","name_kana":"うついがわ","lat":33.175455,"lng":133.031082,"prefecture":39,"lines":[11808],"attr":"heat","postal_code":"786-0322","address":"高岡郡四万十町打井川","next":[1180160,1180803,9981411,1180802,1180805,9981404],"voronoi":{"lat":33.107484,"lng":133.030586,"delta_lat":[0,488,197227,-13509,-86898,-93496],"delta_lng":[0,-54170,68835,4732,14645,-30069]}},
    {"code":9981404,"left":1180803,"id":"3b278e","name":"伊与喜","name_kana":"いよき","lat":33.105169,"lng":133.098519,"prefecture":39,"lines":[99814],"attr":"heat","postal_code":"789-1713","address":"幡多郡黒潮町伊与喜","next":[9981409,9981403,9981411,9981405,1180803,1180804],"voronoi":{"lat":33.107484,"lng":133.030586,"delta_lat":[0,-4348,-15379,10256,34905,-21622],"delta_lng":[0,4157,22542,83007,-54509,-51224]}},
    {"code":1180803,"id":"494b85","name":"家地川","name_kana":"いえぢがわ","lat":33.1614,"lng":133.074784,"prefecture":39,"lines":[11808],"attr":"heat","postal_code":"786-0064","address":"高岡郡四万十町家地川","next":[9981403,1180804,1180802,9981404],"voronoi":{"lat":33.159122,"lng":133.103727,"delta_lat":[0,45671,-93496,21622],"delta_lng":[0,-39098,-30069,51224]}},
    {"code":1180805,"id":"8e9d02","name":"土佐大正","name_kana":"とさたいしょう","lat":33.194815,"lng":132.975612,"prefecture":39,"lines":[11808],"attr":"heat","postal_code":"786-0301","address":"高岡郡四万十町大正田野々","next":[9981411,1180159,1180806,1180157,1180804,9981415,1180160,9981502,9981413,9981412],"voronoi":{"lat":33.107973,"lng":132.976416,"delta_lat":[0,197227,383,4265,101749,-312233,-1897,-38,2444,2407],"delta_lng":[0,68835,-42,-1156,-41664,-100747,6793,252,40007,11420]}},
    {"code":1180802,"left":9981403,"right":1180160,"id":"257e33","name":"若井","name_kana":"わかい","lat":33.18807,"lng":133.105937,"prefecture":39,"lines":[11808,99814],"attr":"heat","postal_code":"786-0068","address":"高岡郡四万十町若井","next":[1180804,9981403,1180803,1180160],"voronoi":{"lat":33.29169,"lng":133.049984,"delta_lat":[0,-86898,-45671,8243],"delta_lng":[0,14645,39098,43765]}},
    {"code":9981403,"id":"cd840c","name":"荷稲","name_kana":"かいな","lat":33.132961,"lng":133.116316,"prefecture":39,"lines":[99814],"attr":"heat","postal_code":"789-1705","address":"幡多郡黒潮町荷稲","next":[9981406,1180803,1180159,1180802,9981404,1180160,9981405],"voronoi":{"lat":33.042917,"lng":133.503768,"delta_lat":[0,89599,34849,-8243,-26203,-34905,-6688],"delta_lng":[0,-223830,-132446,-43765,-17943,54509,23525]}},
    {"code":1180160,"id":"55d0a6","name":"窪川","name_kana":"くぼかわ","lat":33.212656,"lng":133.137285,"prefecture":39,"lines":[11801,11808,99814],"attr":"heat","postal_code":"786-0013","address":"高岡郡四万十町琴平町","next":[1180804,1180159,1180805,9981403,1180802],"voronoi":{"lat":33.132516,"lng":133.279937,"delta_lat":[0,173067,-383,-13509,-124326],"delta_lng":[0,-234728,42,4732,97508]}},
    {"code":1180724,"left":1180729,"right":1180712,"id":"d60195","name":"春賀","name_kana":"はるか","lat":33.555636,"lng":132.555329,"prefecture":38,"lines":[11807],"attr":"cool","postal_code":"795-0046","address":"大洲市春賀甲","next":[1180722,1180723,1180726,1180717,1180718,1180714,1180725],"voronoi":{"lat":33.53665,"lng":132.551744,"delta_lat":[0,3615,60258,73,-2039,-3292,-10941],"delta_lng":[0,-12775,28943,59,24307,9662,-5377]}},
    {"code":1180729,"left":1180734,"right":1180727,"id":"599d65","name":"千丈","name_kana":"せんじょう","lat":33.465432,"lng":132.457369,"prefecture":38,"lines":[11807],"attr":"cool","postal_code":"796-8020","address":"八幡浜市大字郷字堀田","next":[1180728,1180730,1180731,1180721],"voronoi":{"lat":33.445533,"lng":132.505156,"delta_lat":[0,-728,105862,-13952],"delta_lng":[0,-52439,-37068,44049]}},
    {"code":1180734,"left":1180731,"right":1180736,"id":"344641","name":"卯之町","name_kana":"うのまち","lat":33.363192,"lng":132.50994,"prefecture":38,"lines":[11807],"attr":"eco","postal_code":"797-0015","address":"西予市宇和町卯之町","next":[1180736,1180735,1180733,1180732],"voronoi":{"lat":33.283167,"lng":132.418894,"delta_lat":[0,34338,72604,-34268],"delta_lng":[0,77048,45843,-66868]}},
    {"code":1180731,"left":1180733,"right":1180730,"id":"ec8a44","name":"双岩","name_kana":"ふたいわ","lat":33.424314,"lng":132.45794,"prefecture":38,"lines":[11807],"attr":"cool","postal_code":"796-8035","address":"八幡浜市若山","next":[1180728,1180730,1180732,1180729,1180733],"voronoi":{"lat":33.425592,"lng":132.50359,"delta_lat":[0,-133168,152381,728,-8513],"delta_lng":[0,-287296,236422,52439,10110]}},
    {"code":1180733,"left":1180732,"id":"3619fe","name":"上宇和","name_kana":"かみうわ","lat":33.379979,"lng":132.501337,"prefecture":38,"lines":[11807],"attr":"eco","postal_code":"797-0018","address":"西予市宇和町下松葉","next":[1180728,1180732,1180734,1180731,1180735],"voronoi":{"lat":33.390109,"lng":132.541784,"delta_lat":[0,-34268,69750,11428,-9313],"delta_lng":[0,-66868,28674,11675,64567]}},
    {"code":1180732,"id":"9df15a","name":"伊予石城","name_kana":"いよいわき","lat":33.391582,"lng":132.473112,"prefecture":38,"lines":[11807],"attr":"cool","postal_code":"797-0026","address":"西予市宇和町岩木","next":[1190656,1180733,1180730,1180731,1180734,1180737,1180736],"voronoi":{"lat":33.355841,"lng":132.474917,"delta_lat":[0,69750,-133168,-24177,-101556,85102,31375],"delta_lng":[0,28674,-287296,-43534,59639,141819,44675]}},
    {"code":1180730,"id":"c06aa0","name":"八幡浜","name_kana":"やわたはま","lat":33.458024,"lng":132.436213,"prefecture":38,"lines":[11807],"attr":"cool","postal_code":"796-0031","address":"八幡浜市江戸岡１丁目","next":[1190656,1180721,1161208,1180731,1180732,1180729,1161210,1180720,1190649],"voronoi":{"lat":33.268247,"lng":132.17276,"delta_lat":[0,24177,152381,105862,2674,80023,-44578,-34816,-212310],"delta_lng":[0,43534,236422,-37068,-5905,-248489,-73882,-44462,74238]}},
    {"code":1180736,"left":1180737,"right":1180735,"id":"d0ca65","name":"立間","name_kana":"たちま","lat":33.297371,"lng":132.539275,"prefecture":38,"lines":[11807],"attr":"eco","postal_code":"799-3730","address":"宇和島市吉田町立間","next":[1180820,1180734,1180735,1180819,1180732,1180737],"voronoi":{"lat":33.311601,"lng":132.57487,"delta_lat":[0,18464,-12560,-34338,-31375,39199],"delta_lng":[0,2316,-81244,-77048,-44675,195746]}},
    {"code":1180737,"id":"a3f4cc","name":"伊予吉田","name_kana":"いよよしだ","lat":33.273287,"lng":132.544098,"prefecture":38,"lines":[11807],"attr":"eco","postal_code":"799-3710","address":"宇和島市吉田町立間尻","next":[1180738,1180820,1180732,1190656,1180740,1180736,1180739],"voronoi":{"lat":33.285374,"lng":132.570923,"delta_lat":[0,5617,-39199,-85102,-65492,137098,14151],"delta_lng":[0,-959,-195746,-141819,21706,278827,18748]}},
    {"code":1180735,"id":"7a75b2","name":"下宇和","name_kana":"しもうわ","lat":33.349786,"lng":132.531172,"prefecture":38,"lines":[11807],"attr":"eco","postal_code":"797-0012","address":"西予市宇和町皆田","next":[1180819,1180728,1180818,1180736,1180734,1180726,1180733,1180713],"voronoi":{"lat":33.429195,"lng":132.599698,"delta_lat":[0,143,-1632,-37597,-72604,12560,38920,44620],"delta_lng":[0,-1761,-18104,-38048,-45843,81244,31668,26517]}},
    {"code":1180727,"left":1180721,"right":1180723,"id":"c8096d","name":"西大洲","name_kana":"にしおおず","lat":33.508204,"lng":132.527041,"prefecture":38,"lines":[11807],"attr":"cool","postal_code":"795-0025","address":"大洲市阿蔵甲","next":[1180723,1180722,1180726,1180728,1180721],"voronoi":{"lat":33.543305,"lng":132.502572,"delta_lat":[0,-4696,-61611,61901,4339],"delta_lng":[0,18657,35969,-86041,13558]}},
    {"code":1180721,"left":1180722,"right":1180720,"id":"f0fe00","name":"伊予出石","name_kana":"いよいずし","lat":33.596338,"lng":132.498833,"prefecture":38,"lines":[11807],"attr":"cool","postal_code":"799-3444","address":"大洲市長浜町上老松甲","next":[1180730,1180728,1180719,1180722,1180727,1180729,1180720],"voronoi":{"lat":33.55334,"lng":132.409743,"delta_lat":[0,-2674,-13952,2185,4339,64857,10351],"delta_lng":[0,5905,44049,11460,13558,41195,-13064]}},
    {"code":1180722,"left":1180728,"id":"016544","name":"伊予白滝","name_kana":"いよしらたき","lat":33.578588,"lng":132.526778,"prefecture":38,"lines":[11807],"attr":"cool","postal_code":"799-3431","address":"大洲市白滝甲","next":[1180724,1180719,1180723,1180718,1180727,1180721],"voronoi":{"lat":33.543238,"lng":132.484715,"delta_lat":[0,67,57218,73,5065,2434],"delta_lng":[0,17857,65340,59,-9574,-32487]}},
    {"code":1180728,"id":"8a570a","name":"伊予平野","name_kana":"いよひらの","lat":33.495672,"lng":132.518025,"prefecture":38,"lines":[11807],"attr":"cool","postal_code":"795-0021","address":"大洲市平野町野田","next":[1180729,1180733,1180731,1180735,1180726,1180721,1180727],"voronoi":{"lat":33.538899,"lng":132.471158,"delta_lat":[0,-2185,-91182,-8513,-9313,1632,47660],"delta_lng":[0,-11460,45458,10110,64567,18104,-40738]}},
    {"code":1180720,"id":"393343","name":"伊予長浜","name_kana":"いよながはま","lat":33.615297,"lng":132.486861,"prefecture":38,"lines":[11807],"attr":"heat","postal_code":"799-3402","address":"大洲市長浜乙","next":[1161207,1161208,1180730,1180719,1161206,1180721],"voronoi":{"lat":33.55334,"lng":132.409743,"delta_lat":[0,80023,29324,168243,14378,-226862],"delta_lng":[0,-248489,28537,191304,19877,111874]}},
    {"code":1180723,"left":1180726,"right":1180719,"id":"99af1a","name":"八多喜","name_kana":"はたき","lat":33.562643,"lng":132.540741,"prefecture":38,"lines":[11807],"attr":"cool","postal_code":"795-0041","address":"大洲市八多喜町","next":[1180727,1180724,1180722,1180726],"voronoi":{"lat":33.600523,"lng":132.567913,"delta_lat":[0,-57218,-4696,1656],"delta_lng":[0,-65340,18657,17740]}},
    {"code":1180726,"id":"4a4199","name":"伊予大洲","name_kana":"いよおおず","lat":33.518601,"lng":132.54485,"prefecture":38,"lines":[11807],"attr":"cool","postal_code":"795-0054","address":"大洲市中村","next":[1180714,1180728,1180725,1180724,1180727,1180713,1180723,1180735],"voronoi":{"lat":33.429338,"lng":132.597937,"delta_lat":[0,47660,61611,1656,-3615,-28620,-76696,-2139],"delta_lng":[0,-40738,-35969,17740,12775,25465,22012,476]}},
    {"code":1180719,"id":"ee8dc0","name":"喜多灘","name_kana":"きたなだ","lat":33.637145,"lng":132.531165,"prefecture":38,"lines":[11807],"attr":"heat","postal_code":"799-3411","address":"大洲市長浜町今坊甲","next":[1180722,1161206,9980601,1180720,1180721,1180718],"voronoi":{"lat":33.854409,"lng":132.481119,"delta_lat":[0,27266,-36366,-226862,-10351,-2434],"delta_lng":[0,-39264,-40882,111874,13064,32487]}},
    {"code":1180712,"left":1180713,"right":1180711,"id":"dd43af","name":"五十崎","name_kana":"いかざき","lat":33.537809,"lng":132.635859,"prefecture":38,"lines":[11807],"attr":"heat","postal_code":"795-0301","address":"喜多郡内子町五十崎","next":[1180713,1180818,1180711,1180817,1180814],"voronoi":{"lat":33.563754,"lng":132.618596,"delta_lat":[0,-149414,-923,2392,1934],"delta_lng":[0,26806,33719,91829,9856]}},
    {"code":1180713,"left":1180819,"right":1180817,"id":"bea497","name":"喜多山(愛媛)","original_name":"喜多山","name_kana":"きたやま","lat":33.533426,"lng":132.611428,"prefecture":38,"lines":[11807],"attr":"heat","postal_code":"795-0075","address":"大洲市喜多山","next":[1180711,1180712,1180714,1180726,1180735,1180818],"voronoi":{"lat":33.413605,"lng":132.63537,"delta_lat":[0,15590,2139,154943,-22524,-149414],"delta_lng":[0,-35673,-476,9091,10283,26806]}},
    {"code":1180819,"left":1180820,"right":1180714,"id":"2173a1","name":"伊予宮野下","name_kana":"いよみやのした","lat":33.289023,"lng":132.605849,"prefecture":38,"lines":[11808],"attr":"cool","postal_code":"798-1112","address":"宇和島市三間町宮野下","next":[1180735,1180818,1180736,1180820],"voronoi":{"lat":33.311601,"lng":132.57487,"delta_lat":[0,18464,38920,-98139],"delta_lng":[0,2316,31668,10766]}},
    {"code":1180820,"left":1180738,"id":"cc7ffc","name":"務田","name_kana":"むでん","lat":33.282862,"lng":132.600238,"prefecture":38,"lines":[11808],"attr":"cool","postal_code":"798-1113","address":"宇和島市三間町迫目","next":[1180817,1180818,1180736,1180816,1180737,1180738,1180819,1180739],"voronoi":{"lat":33.236312,"lng":132.620193,"delta_lat":[0,49062,5617,20610,-40755,-14913,-3770,-16021],"delta_lng":[0,-49269,-959,4905,44750,4499,365,-4050]}},
    {"code":1180738,"id":"d933c1","name":"高光","name_kana":"たかみつ","lat":33.25607,"lng":132.573559,"prefecture":38,"lines":[11807],"attr":"eco","postal_code":"798-0020","address":"宇和島市高串","next":[1180739,1180737,1180820],"voronoi":{"lat":33.285374,"lng":132.570923,"delta_lat":[0,-32927,-16135],"delta_lng":[0,-19243,68512]}},
    {"code":1180714,"id":"42a479","name":"新谷","name_kana":"にいや","lat":33.534153,"lng":132.599037,"prefecture":38,"lines":[11807],"attr":"heat","postal_code":"795-0071","address":"大洲市新谷乙","next":[1180726,1180713,1180725,1180711,1180724,1180717],"voronoi":{"lat":33.595265,"lng":132.601941,"delta_lat":[0,-10941,-76294,-76696,154943,9263],"delta_lng":[0,-5377,-19354,22012,9091,-2976]}},
    {"code":1180817,"left":1180816,"right":1180818,"id":"045271","name":"大内","name_kana":"おおうち","lat":33.286941,"lng":132.642393,"prefecture":38,"lines":[11808],"attr":"cool","postal_code":"798-1135","address":"宇和島市三間町古藤田","next":[1180820,1180814,1180816,1180818,1180712],"voronoi":{"lat":33.413417,"lng":132.679121,"delta_lat":[0,-157483,-3770,84219,79426],"delta_lng":[0,-55002,365,90185,56281]}},
    {"code":1180816,"id":"845851","name":"深田","name_kana":"ふかた","lat":33.267655,"lng":132.660403,"prefecture":38,"lines":[11808],"attr":"heat","postal_code":"798-1363","address":"北宇和郡鬼北町内深田","next":[1180740,1180815,1180820,1180814,1180817,1180739],"voronoi":{"lat":33.210752,"lng":132.630136,"delta_lat":[0,86275,39355,-84219,-16021,-12438],"delta_lng":[0,64777,19755,-90185,-4050,3867]}},
    {"code":1180818,"id":"367615","name":"二名","name_kana":"ふたな","lat":33.291576,"lng":132.629122,"prefecture":38,"lines":[11808],"attr":"cool","postal_code":"798-1133","address":"宇和島市三間町中野中","next":[1180820,1180819,1180735,1180712,1180817,1180713],"voronoi":{"lat":33.413605,"lng":132.63537,"delta_lat":[0,-44620,-98139,-14913,157483,923],"delta_lng":[0,-26517,10766,4499,55002,-33719]}},
    {"code":1180711,"left":1180717,"right":1180709,"id":"526f12","name":"内子","name_kana":"うちこ","lat":33.549305,"lng":132.646207,"prefecture":38,"lines":[11807],"attr":"heat","postal_code":"791-3301","address":"喜多郡内子町大字内子","next":[1180713,1180710,1180807,1180714,1180814,1180717,1180712],"voronoi":{"lat":33.419481,"lng":132.792109,"delta_lat":[0,40378,141920,-6239,-9263,-22524,-146011],"delta_lng":[0,60568,-235757,-11584,2976,10283,162210]}},
    {"code":1180717,"left":1180725,"right":1180716,"id":"65ce6e","name":"下灘","name_kana":"しもなだ","lat":33.655109,"lng":132.589219,"prefecture":38,"lines":[11807],"attr":"heat","postal_code":"799-3311","address":"伊予市双海町大久保","next":[1180716,1180724,1180711,1180718,1180714,1180710],"voronoi":{"lat":33.60178,"lng":132.61692,"delta_lat":[0,-6239,-275,3292,188684,-155462],"delta_lng":[0,-11584,-3396,-9662,-58103,101422]}},
    {"code":1180725,"left":1180718,"id":"6b4465","name":"五郎","name_kana":"ごろう","lat":33.541399,"lng":132.570473,"prefecture":38,"lines":[11807],"attr":"cool","postal_code":"795-0051","address":"大洲市五郎大谷甲","next":[1180726,1180714,1180724],"voronoi":{"lat":33.53665,"lng":132.551744,"delta_lat":[0,-28620,76294],"delta_lng":[0,25465,19354]}},
    {"code":1180718,"id":"d7b412","name":"串","name_kana":"くし","lat":33.647034,"lng":132.562996,"prefecture":38,"lines":[11807],"attr":"heat","postal_code":"799-3313","address":"伊予市双海町串","next":[1180716,1180722,9980601,1180724,1180717,1180719],"voronoi":{"lat":33.854409,"lng":132.481119,"delta_lat":[0,-15243,-51924,-188684,2039,5065],"delta_lng":[0,25889,27168,58103,-24307,-9574]}},
    {"code":1180716,"id":"82991c","name":"伊予上灘","name_kana":"いよかみなだ","lat":33.683626,"lng":132.632931,"prefecture":38,"lines":[11807],"attr":"heat","postal_code":"799-3207","address":"伊予市双海町高岸","next":[1180718,1180710,1180715,1180717,9980601,1180709,9980508],"voronoi":{"lat":33.829698,"lng":132.534323,"delta_lat":[0,9467,-51924,-155462,14869,12633,148201],"delta_lng":[0,-27315,27168,101422,28062,5416,-103229]}},
    {"code":1180709,"left":1180710,"right":1180715,"id":"716176","name":"伊予中山","name_kana":"いよなかやま","lat":33.649881,"lng":132.711629,"prefecture":38,"lines":[11807],"attr":"heat","postal_code":"791-3206","address":"伊予市中山町中山","next":[9981303,9980711,1180715,9980712,1180716,1180708,1180806,1180807,9980713,1180710],"voronoi":{"lat":33.646649,"lng":132.663659,"delta_lat":[0,12633,22754,5624,-11811,-913,-35742,-128887,-717,-27386],"delta_lng":[0,5416,22274,118009,21484,918,33252,113822,-1658,-78819]}},
    {"code":1180710,"id":"181706","name":"伊予立川","name_kana":"いよたちかわ","lat":33.600458,"lng":132.677,"prefecture":38,"lines":[11807],"attr":"heat","postal_code":"791-3331","address":"喜多郡内子町立山","next":[1180716,1180711,1180807,1180717,1180709],"voronoi":{"lat":33.459859,"lng":132.852677,"delta_lat":[0,141920,30000,14869,-164445],"delta_lng":[0,-235757,18677,28062,234698]}},
    {"code":1180715,"id":"cfe2b6","name":"高野川","name_kana":"こうのかわ","lat":33.701624,"lng":132.65877,"prefecture":38,"lines":[11807],"attr":"heat","postal_code":"799-3201","address":"伊予市双海町高野川","next":[1180709,1180716,9980512,1180708,9980509,1180707,9980510,9980508],"voronoi":{"lat":33.807483,"lng":132.565847,"delta_lat":[0,-148201,22754,31225,54441,5584,4338,20641],"delta_lng":[0,103229,22274,-9013,-50437,-7011,-6746,-35497]}},
    {"code":9981818,"left":9981833,"right":9981809,"id":"26c6c5","name":"曙町東町","name_kana":"あけぼのちょうひがしまち","lat":33.551624,"lng":133.493307,"prefecture":39,"lines":[99818],"attr":"heat","postal_code":"780-8062","address":"高知市朝倉乙","next":[9981817,9981819,9981816,1180138],"voronoi":{"lat":33.554995,"lng":133.494822,"delta_lat":[0,-77802,80570,-2072],"delta_lng":[0,11919,-15869,3404]}},
    {"code":9981833,"left":1180149,"right":9981830,"id":"f29fad","name":"伊野(とさでん交通)","original_name":"伊野","name_kana":"いの","lat":33.548602,"lng":133.428397,"prefecture":39,"lines":[99818],"attr":"eco","postal_code":"781-2100","address":"高知県吾川郡いの町1419-3","next":[1180141,9981829,1180142,1180629,9981832,9981831,1180632,1180161],"voronoi":{"lat":33.539232,"lng":133.423682,"delta_lat":[0,8454,32271,52078,120237,-4166,-1113,-92679],"delta_lng":[0,5348,0,-2808,-14814,-47509,-2400,22464]}},
    {"code":1180149,"left":1180154,"right":1180144,"id":"5e5f3c","name":"斗賀野","name_kana":"とがの","lat":33.475453,"lng":133.286397,"prefecture":39,"lines":[11801],"attr":"heat","postal_code":"789-1232","address":"高岡郡佐川町大字東組","next":[1180152,1180156,1180146,1180147,1180148,1180155,1180150],"voronoi":{"lat":33.488357,"lng":133.287478,"delta_lat":[0,5820,1628,-32953,-23298,518,17845],"delta_lng":[0,-22694,-237165,80566,91961,27976,87724]}},
    {"code":1180154,"left":1180156,"right":1180151,"id":"7a3247","name":"土佐新荘","name_kana":"とさしんじょう","lat":33.386369,"lng":133.278065,"prefecture":39,"lines":[11801],"attr":"heat","postal_code":"785-0009","address":"須崎市西町２丁目","next":[1180155,1180153,1180152],"voronoi":{"lat":33.427545,"lng":133.216825,"delta_lat":[0,-88363,57539],"delta_lng":[0,89677,-23853]}},
    {"code":1180156,"left":1180157,"right":1180155,"id":"8d83b1","name":"土佐久礼","name_kana":"とさくれ","lat":33.328972,"lng":133.226483,"prefecture":39,"lines":[11801],"attr":"heat","postal_code":"789-1301","address":"高岡郡中土佐町大字久礼","next":[1180153,1180158,1180149,1180157,9981406,1180155,1180146,1180159],"voronoi":{"lat":33.163133,"lng":133.353041,"delta_lat":[0,78921,264280,-10528,-32953,-250946,-214880,44040],"delta_lng":[0,-92504,-265049,32131,80566,293754,205045,-97104]}},
    {"code":1180157,"left":1180158,"id":"ff6e5b","name":"影野","name_kana":"かげの","lat":33.275854,"lng":133.173519,"prefecture":39,"lines":[11801],"attr":"heat","postal_code":"786-0032","address":"高岡郡四万十町影野宮の前甲","next":[1180146,1180805,1180156,1180806,9980713,1180158,1180159],"voronoi":{"lat":33.309847,"lng":133.044054,"delta_lat":[0,101749,98860,1167,-5290,-264280,57606],"delta_lng":[0,-41664,-19982,2010,11070,265049,-191038]}},
    {"code":1180158,"id":"29bf4d","name":"六反地","name_kana":"ろくたんじ","lat":33.261992,"lng":133.169339,"prefecture":39,"lines":[11801],"attr":"heat","postal_code":"786-0035","address":"高岡郡四万十町六反地","next":[1180156,1180159,1180157],"voronoi":{"lat":33.163133,"lng":133.353041,"delta_lat":[0,136527,-57606],"delta_lng":[0,-283542,191038]}},
    {"code":1180155,"id":"bbce88","name":"安和","name_kana":"あわ","lat":33.36692,"lng":133.258901,"prefecture":39,"lines":[11801],"attr":"heat","postal_code":"785-0024","address":"須崎市安和","next":[1180152,1180154,1180156,1180149,1180153],"voronoi":{"lat":33.462852,"lng":133.108184,"delta_lat":[0,-23298,-12009,-88363,-127276],"delta_lng":[0,91961,16680,89677,95436]}},
    {"code":1180151,"left":1180153,"right":1180150,"id":"a795bc","name":"多ノ郷","name_kana":"おおのごう","lat":33.410655,"lng":133.294641,"prefecture":39,"lines":[11801],"attr":"heat","postal_code":"785-0042","address":"須崎市妙見町","next":[1180142,1180161,1180153,1180150,1180152],"voronoi":{"lat":33.420973,"lng":133.284531,"delta_lat":[0,-6743,-1340,-23801,12473],"delta_lng":[0,139663,1764,26488,-157387]}},
    {"code":1180153,"left":1180152,"id":"abd7a0","name":"須崎","name_kana":"すさき","lat":33.392649,"lng":133.293214,"prefecture":39,"lines":[11801],"attr":"heat","postal_code":"785-0001","address":"須崎市原町１丁目","next":[9981820,1180156,1180141,9981406,9981821,1180142,1180154,1180152,1180151,9981617,9981609,1180155,9981911],"voronoi":{"lat":32.963615,"lng":133.665887,"delta_lat":[0,-104,33516,214880,127276,57539,4841,-12473,-7043,-6260,-11367,-14149,-250692],"delta_lng":[0,8,-58912,-205045,-95436,-23853,12410,157387,8793,7081,9334,11472,142503]}},
    {"code":1180152,"id":"9a91a4","name":"大間","name_kana":"おおま","lat":33.406872,"lng":133.287666,"prefecture":39,"lines":[11801],"attr":"heat","postal_code":"785-0035","address":"須崎市大間東町１丁目","next":[1180155,1180149,1180150,1180153,1180154,1180151],"voronoi":{"lat":33.420973,"lng":133.284531,"delta_lat":[0,19099,-518,-12009,-30824,4841],"delta_lng":[0,-56410,-27976,16680,65824,12410]}},
    {"code":1180150,"id":"396e12","name":"吾桑","name_kana":"あそう","lat":33.43027,"lng":133.295588,"prefecture":39,"lines":[11801],"attr":"heat","postal_code":"785-0047","address":"須崎市吾井郷甲","next":[1180152,1180161,1180148,1180151,1180144,1180149,1180143],"voronoi":{"lat":33.451098,"lng":133.375343,"delta_lat":[0,2206,4613,-17845,-19099,-6743,5526],"delta_lng":[0,-3951,-55546,-87724,56410,139663,-6233]}},
    {"code":1180144,"left":1180146,"right":1180161,"id":"e5ba3d","name":"岡花","name_kana":"おかばな","lat":33.529922,"lng":133.35123,"prefecture":39,"lines":[11801],"attr":"heat","postal_code":"781-2153","address":"高岡郡日高村本郷","next":[1180145,1180143,1180632,1180148,1180150,1180161],"voronoi":{"lat":33.733461,"lng":133.324047,"delta_lat":[0,-7434,-240213,-32509,-2206,249471],"delta_lng":[0,-30083,50939,26488,3951,-43342]}},
    {"code":1180146,"left":1180148,"right":1180145,"id":"e26324","name":"西佐川","name_kana":"にしさかわ","lat":33.512604,"lng":133.286652,"prefecture":39,"lines":[11801],"attr":"heat","postal_code":"789-1200","address":"高岡郡佐川町字垣添","next":[1180636,1180149,1180145,1180147,1180634,1180157,1180635,9980715,9980714,1180156,9980713],"voronoi":{"lat":33.619403,"lng":133.057618,"delta_lat":[0,32434,12864,10998,35457,-197143,-19835,1628,10528,5290,100846],"delta_lng":[0,23440,29141,27129,105424,62473,-40441,-237165,-32131,-11070,68353]}},
    {"code":1180148,"left":1180147,"id":"452b1a","name":"襟野々","name_kana":"えりのの","lat":33.488527,"lng":133.300426,"prefecture":39,"lines":[11801],"attr":"heat","postal_code":"789-1231","address":"高岡郡佐川町大字永野","next":[1180145,1180149,1180144,1180150,1180147],"voronoi":{"lat":33.485814,"lng":133.344903,"delta_lat":[0,-32509,4613,30440,16594],"delta_lng":[0,26488,-55546,-28368,25182]}},
    {"code":1180147,"id":"3b2032","name":"佐川","name_kana":"さかわ","lat":33.500189,"lng":133.292741,"prefecture":39,"lines":[11801],"attr":"heat","postal_code":"789-1200","address":"高岡郡佐川町大字寺中","next":[1180149,1180146,1180148,1180145],"voronoi":{"lat":33.514012,"lng":133.305225,"delta_lat":[0,-19835,-5820,16594],"delta_lng":[0,-40441,22694,25182]}},
    {"code":1180145,"id":"4825b4","name":"土佐加茂","name_kana":"とさかも","lat":33.523558,"lng":133.321219,"prefecture":39,"lines":[11801],"attr":"heat","postal_code":"789-1204","address":"高岡郡佐川町加茂字保木屋敷","next":[1180632,1180148,1180144,1180146,1180634,1180147],"voronoi":{"lat":33.514012,"lng":133.305225,"delta_lat":[0,197143,10120,4751,-240213,19138],"delta_lng":[0,-62473,23049,28164,50939,-32244]}},
    {"code":1180161,"left":1180143,"right":1180142,"id":"255b0c","name":"小村神社前","name_kana":"おむらじんじゃまえ","lat":33.539989,"lng":133.392863,"prefecture":39,"lines":[11801],"attr":"heat","postal_code":"781-2151","address":"高岡郡日高村下分字椋ノ島","next":[1180143,1180150,1180151,1180632,1180144,9981833,1180142],"voronoi":{"lat":33.654314,"lng":133.383963,"delta_lat":[0,92679,-13533,-32891,-280813,-5526,-1340],"delta_lng":[0,-22464,-37451,7953,85961,6233,1764]}},
    {"code":1180143,"id":"e72f7b","name":"日下","name_kana":"くさか","lat":33.533436,"lng":133.371456,"prefecture":39,"lines":[11801],"attr":"heat","postal_code":"781-2153","address":"高岡郡日高村本郷字米神の前","next":[1180161,1180144,1180150],"voronoi":{"lat":33.451098,"lng":133.375343,"delta_lat":[0,249471,-280813],"delta_lng":[0,-43342,85961]}},
    {"code":1180142,"id":"2481b1","name":"波川","name_kana":"はかわ","lat":33.543699,"lng":133.414191,"prefecture":39,"lines":[11801],"attr":"heat","postal_code":"781-2128","address":"吾川郡いの町波川","next":[1180151,1180153,9981833,1180141,1180161],"voronoi":{"lat":33.389089,"lng":133.452447,"delta_lat":[0,-7043,157186,115082,-241424],"delta_lng":[0,8793,-37558,-39719,41996]}},
    {"code":9981830,"left":9981908,"right":9981821,"id":"b9d1be","name":"北山(高知)","original_name":"北山","name_kana":"きたやま","lat":33.549425,"lng":133.438504,"prefecture":39,"lines":[99818],"attr":"eco","postal_code":"781-2100","address":"吾川郡いの町北山","next":[9981834,9981829,1180141,9981831],"voronoi":{"lat":33.613535,"lng":133.429025,"delta_lat":[0,-51788,-61386,35854],"delta_lng":[0,10114,6193,-8210]}},
    {"code":9981908,"left":9981831,"right":9981910,"id":"827526","name":"桟橋通三丁目","name_kana":"さんばしどおりさんちょうめ","lat":33.547082,"lng":133.548303,"prefecture":39,"lines":[99819],"attr":"heat","postal_code":"781-8010","address":"高知市桟橋通３","next":[9981909,9981730,9981807,9981907,9981729],"voronoi":{"lat":33.55139,"lng":133.554336,"delta_lat":[0,539,-15964,-4663,19047],"delta_lng":[0,-1166,-23366,-2270,28209]}},
    {"code":9981831,"left":1180141,"right":9981907,"id":"e969a7","name":"鳴谷","name_kana":"なるたに","lat":33.548852,"lng":133.433032,"prefecture":39,"lines":[99818],"attr":"eco","postal_code":"781-2108","address":"吾川郡いの町駅東町","next":[1180141,9981830,9981833,9981832,9981829],"voronoi":{"lat":33.632036,"lng":133.426221,"delta_lat":[0,-52078,-31285,-12457,77320],"delta_lng":[0,2808,2322,5770,-8097]}},
    {"code":1180141,"left":9981832,"id":"a07767","name":"伊野(JR)","original_name":"伊野","name_kana":"いの","lat":33.547507,"lng":133.430128,"prefecture":39,"lines":[11801],"attr":"heat","postal_code":"781-2100","address":"高知県吾川郡いの町1419-3","next":[9981833,9981832,9981834,1180153,9981830,9981831,1180142,9981821],"voronoi":{"lat":33.382047,"lng":133.46124,"delta_lat":[0,157186,8454,986,-12457,-35854,-119714,-4861],"delta_lng":[0,-37558,5348,2322,5770,8210,22699,290]}},
    {"code":9981832,"id":"0b7b51","name":"伊野駅前","name_kana":"いのえきまえ","lat":33.548602,"lng":133.429663,"prefecture":39,"lines":[99818],"attr":"eco","postal_code":"781-2100","address":"吾川郡いの町和田前","next":[1180141,9981833,9981831],"voronoi":{"lat":33.579958,"lng":133.42903,"delta_lat":[0,-32271,986],"delta_lng":[0,0,2322]}},
    {"code":9981907,"id":"1440c7","name":"桟橋通二丁目","name_kana":"さんばしどおりにちょうめ","lat":33.549156,"lng":133.546886,"prefecture":39,"lines":[99819],"attr":"heat","postal_code":"781-8010","address":"高知市桟橋通２","next":[9981906,9981730,9981908,9981807],"voronoi":{"lat":33.553044,"lng":133.551599,"delta_lat":[0,-1115,-15964,3223],"delta_lng":[0,1571,-23366,1343]}},
    {"code":9981910,"left":9981911,"right":9981909,"id":"617c3a","name":"桟橋車庫前","name_kana":"さんばししゃこまえ","lat":33.541073,"lng":133.552315,"prefecture":39,"lines":[99819],"attr":"eco","postal_code":"781-8010","address":"高知市桟橋通四丁目","next":[9981810,9981727,9981911,9981909,9981728,9981813,9981812,9981809],"voronoi":{"lat":33.548213,"lng":133.559187,"delta_lat":[0,-218,-720,-33291,2292,1839,1659,5249],"delta_lng":[0,491,1281,-42055,801,744,829,2909]}},
    {"code":9981911,"id":"1c9ad3","name":"桟橋通五丁目","name_kana":"さんばしどおりごちょうめ","lat":33.540286,"lng":133.552938,"prefecture":39,"lines":[99819],"attr":"eco","postal_code":"781-8010","address":"高知市桟橋通５","next":[9981820,9981609,9981605,9981721,9981606,9981726,9981910,9981817,9981720,1180153,9981813,9981725,9981727,9981819],"voronoi":{"lat":33.509096,"lng":133.517131,"delta_lat":[0,4887,33291,-782,-2322,-16329,-12212,-67570,-51862,-244665,-51954,250692,101445,16251],"delta_lng":[0,1772,42055,1561,3287,16267,8790,44288,1912,-569,-4865,-142503,16327,2851]}},
    {"code":9981909,"id":"7fa12e","name":"桟橋通四丁目","name_kana":"さんばしどおりよんちょうめ","lat":33.544668,"lng":133.549933,"prefecture":39,"lines":[99819],"attr":"heat","postal_code":"781-8010","address":"高知市桟橋通４","next":[9981908,9981809,9981807,9981729,9981910,9981728],"voronoi":{"lat":33.525022,"lng":133.524187,"delta_lat":[0,1773,4506,19047,-820,-1316],"delta_lng":[0,834,2514,28209,1669,1774]}},
    {"code":9981821,"left":1180140,"right":9981820,"id":"ca615c","name":"朝倉駅前","name_kana":"あさくらえきまえ","lat":33.550828,"lng":133.485844,"prefecture":39,"lines":[99818],"attr":"heat","postal_code":"780-0000","address":"高知市朝倉字横田","next":[1180140,1180153,9981822,9981820,9981823,9981824,9981834,1180139,9981825,1180141],"voronoi":{"lat":33.364419,"lng":133.477655,"delta_lat":[0,187459,-1944,-35984,-14787,-28302,-54134,-16147,-19933,-4861],"delta_lng":[0,9402,-3906,-8065,-2270,-2878,-2419,43,469,290]}},
    {"code":1180140,"left":9981829,"right":1180139,"id":"71e1bb","name":"枝川","name_kana":"えだがわ","lat":33.55073,"lng":133.44849,"prefecture":39,"lines":[11801,99818],"attr":"heat","postal_code":"781-2120","address":"吾川郡いの町枝川字スミ澤","next":[9981821,9981829,9981834,9981827,9981825,9981826],"voronoi":{"lat":33.416727,"lng":133.467519,"delta_lat":[0,-16147,139757,28890,-40774,-2635],"delta_lng":[0,43,-20733,-1127,11062,494]}},
    {"code":9981829,"left":9981834,"id":"ae9852","name":"伊野商業前","name_kana":"いのしょうぎょうまえ","lat":33.550569,"lng":133.444362,"prefecture":39,"lines":[99818],"attr":"eco","postal_code":"781-2100","address":"吾川郡いの町字桑ノ木","next":[9981833,9981830,1180140,9981827,9981834,9981831,1180629],"voronoi":{"lat":33.752272,"lng":133.411407,"delta_lat":[0,-120237,-18500,-51788,-21410,28890,183773],"delta_lng":[0,14814,2803,10114,7690,-1127,-28580]}},
    {"code":9981834,"id":"b13482","name":"北内","name_kana":"きたうち","lat":33.5498,"lng":133.442221,"prefecture":39,"lines":[99818],"attr":"eco","postal_code":"781-2100","address":"吾川郡いの町北大内４３２-３地先","next":[9981830,1180141,1180140,9981829,9981821],"voronoi":{"lat":33.40058,"lng":133.467561,"delta_lat":[0,139757,21410,-61386,-119714],"delta_lng":[0,-20733,-7690,6193,22699]}},
    {"code":1180139,"id":"165562","name":"朝倉(JR)","original_name":"朝倉","name_kana":"あさくら","lat":33.551545,"lng":133.485487,"prefecture":39,"lines":[11801],"attr":"heat","postal_code":"780-8063","address":"高知県高知市朝倉丙133-2","next":[9981822,9981819,9981821,1180138,9981820],"voronoi":{"lat":33.551879,"lng":133.487056,"delta_lat":[0,-1944,17150,-7469,-2773],"delta_lng":[0,-3906,1356,4294,-196]}},
    {"code":9981820,"left":9981906,"right":9981819,"id":"543cfc","name":"朝倉(とさでん交通)","original_name":"朝倉","name_kana":"あさくら","lat":33.550712,"lng":133.488157,"prefecture":39,"lines":[99818],"attr":"heat","postal_code":"780-8063","address":"高知県高知市朝倉丙133-2","next":[9981911,1180153,9981821,9981819,1180139],"voronoi":{"lat":33.551879,"lng":133.487056,"delta_lat":[0,-187459,-14149,101445,105127],"delta_lng":[0,-9402,11472,16327,-16849]}},
    {"code":9981906,"id":"4cdc8c","name":"桟橋通一丁目","name_kana":"さんばしどおりいっちょうめ","lat":33.550108,"lng":133.546241,"prefecture":39,"lines":[99819],"attr":"cool","postal_code":"781-8010","address":"高知市桟橋通１","next":[9981805,9981905,9981807,9981907,9981731,9981730,9981806],"voronoi":{"lat":33.544662,"lng":133.533805,"delta_lat":[0,9725,-718,-626,-13856,143,2679],"delta_lng":[0,14372,2695,727,-20452,55,1211]}},
    {"code":9981819,"id":"fb2513","name":"曙町","name_kana":"あけぼのちょう","lat":33.551159,"lng":133.490946,"prefecture":39,"lines":[99818],"attr":"heat","postal_code":"780-8062","address":"高知市朝倉乙","next":[1180138,9981820,9981817,1180139,9981818,9981911],"voronoi":{"lat":33.451715,"lng":133.505454,"delta_lat":[0,105127,2773,-1853,-80570,-9226],"delta_lng":[0,-16849,196,2071,15869,1564]}},
    {"code":9981809,"left":9981816,"right":9981731,"id":"61565e","name":"上町二丁目","name_kana":"かみまちにちょうめ","lat":33.557382,"lng":133.522897,"prefecture":39,"lines":[99818],"attr":"cool","postal_code":"780-0901","address":"高知市上町２","next":[9981909,9981807,9981810,9981808,1180136,9981910],"voronoi":{"lat":33.526796,"lng":133.525021,"delta_lat":[0,9593,25693,-624,-41684,5249],"delta_lng":[0,0,-1243,-2500,0,2909]}},
    {"code":9981816,"left":9981823,"right":9981812,"id":"6f7a4a","name":"鏡川橋","name_kana":"かがみがわばし","lat":33.555665,"lng":133.498456,"prefecture":39,"lines":[99818],"attr":"cool","postal_code":"780-0945","address":"高知市本宮町字水神通","next":[9981817,1180138,9981815,9981818],"voronoi":{"lat":33.553063,"lng":133.500442,"delta_lat":[0,4973,-2346,-696],"delta_lng":[0,212,-6378,546]}},
    {"code":9981823,"left":9981826,"right":9981817,"id":"3205f7","name":"宮の奥","name_kana":"みやのおく","lat":33.552357,"lng":133.475883,"prefecture":39,"lines":[99818],"attr":"heat","postal_code":"780-0000","address":"高知市朝倉字宮の奥","next":[9981822,9981821,9981824,1180138],"voronoi":{"lat":33.602207,"lng":133.473499,"delta_lat":[0,-103044,14787,62720],"delta_lng":[0,-683,2270,5594]}},
    {"code":9981826,"left":9981825,"right":9981824,"id":"223478","name":"八代通","name_kana":"やしろどおり","lat":33.552214,"lng":133.456399,"prefecture":39,"lines":[99818],"attr":"heat","postal_code":"781-2120","address":"吾川郡いの町枝川東浦","next":[1180628,1180138,9981825,9981827,9981824,1180140],"voronoi":{"lat":33.528454,"lng":133.456763,"delta_lat":[0,226673,786,-102846,-36854,-90394],"delta_lng":[0,-21550,11382,15548,469,-5355]}},
    {"code":9981825,"left":9981827,"id":"5ec58c","name":"宇治団地前","name_kana":"うじだんちまえ","lat":33.551928,"lng":133.461227,"prefecture":39,"lines":[99818],"attr":"heat","postal_code":"781-2120","address":"吾川郡いの町枝川","next":[9981826,1180140,9981821,9981824],"voronoi":{"lat":33.416727,"lng":133.467519,"delta_lat":[0,109091,90394,-145351],"delta_lng":[0,-10261,5355,7325]}},
    {"code":9981827,"id":"5e348a","name":"中山(高知)","original_name":"中山","name_kana":"なかやま","lat":33.551857,"lng":133.452644,"prefecture":39,"lines":[99818],"attr":"heat","postal_code":"781-2120","address":"吾川郡いの町枝川西浦","next":[1180628,1180629,9981829,9981826,1180140],"voronoi":{"lat":33.569227,"lng":133.445701,"delta_lat":[0,183773,1748,378,-226673],"delta_lng":[0,-28580,11775,6317,21550]}},
    {"code":9981824,"id":"0eb2aa","name":"咥内","name_kana":"こうない","lat":33.552393,"lng":133.470454,"prefecture":39,"lines":[99818],"attr":"heat","postal_code":"780-0000","address":"高知市朝倉字咥内","next":[9981821,9981823,1180138,9981826,9981825],"voronoi":{"lat":33.499163,"lng":133.472816,"delta_lat":[0,103044,50859,-36854,-145351],"delta_lng":[0,683,-11355,469,7325]}},
    {"code":9981817,"left":9981822,"right":9981815,"id":"49d53e","name":"鴨部","name_kana":"かもべ","lat":33.552232,"lng":133.497276,"prefecture":39,"lines":[99818],"attr":"cool","postal_code":"780-8071","address":"高知市鴨部高町","next":[9981818,9981816,9981813,9981819,9981814,9981911,9981815],"voronoi":{"lat":33.553063,"lng":133.500442,"delta_lat":[0,1931,-77802,-9226,41130,22677,13557],"delta_lng":[0,-5620,11919,1564,8827,-6890,-5108]}},
    {"code":9981822,"id":"23ec40","name":"朝倉神社前","name_kana":"あさくらじんじゃまえ","lat":33.551892,"lng":133.481097,"prefecture":39,"lines":[99818],"attr":"heat","postal_code":"780-0000","address":"高知市朝倉字宮の前","next":[9981823,9981821,1180138,1180139],"voronoi":{"lat":33.549935,"lng":133.483151,"delta_lat":[0,-35984,62720,-9586],"delta_lng":[0,-8065,5594,3827]}},
    {"code":9981815,"id":"a5df06","name":"蛍橋","name_kana":"ほたるばし","lat":33.555487,"lng":133.502641,"prefecture":39,"lines":[99818],"attr":"cool","postal_code":"780-0935","address":"高知市旭町３","next":[9981816,9981817,1180137,9981814,1180138],"voronoi":{"lat":33.559319,"lng":133.504354,"delta_lat":[0,-13988,7733,4973,3920],"delta_lng":[0,780,-4692,212,2211]}},
    {"code":9981812,"left":1180138,"right":9981810,"id":"d788a2","name":"旭町一丁目","name_kana":"あさひまちいっちょうめ","lat":33.556774,"lng":133.51352,"prefecture":39,"lines":[99818],"attr":"cool","postal_code":"780-0935","address":"高知市旭町１","next":[9981813,1180136,9981810,1180137,9981811,9981910],"voronoi":{"lat":33.531984,"lng":133.519075,"delta_lat":[0,31835,330,-5911,-41962,1839],"delta_lng":[0,-5057,-411,-2405,8503,744]}},
    {"code":1180138,"left":9981813,"right":1180137,"id":"18bd5e","name":"高知商業前","name_kana":"こうちしょうぎょうまえ","lat":33.558419,"lng":133.497443,"prefecture":39,"lines":[11801],"attr":"eco","postal_code":"780-0946","address":"高知市上本宮町月の輪","next":[1180136,9981819,9981826,9981816,9981822,9981824,1180628,1180139,9981818,1180137,9981823,9981815],"voronoi":{"lat":33.558036,"lng":133.500653,"delta_lat":[0,-2346,2072,1853,7469,9586,25537,50859,102846,184,-171762,-22378],"delta_lng":[0,-6378,-3404,-2071,-4294,-3827,-7181,-11355,-15548,1066,54417,786]}},
    {"code":9981813,"left":9981814,"id":"1d44b9","name":"旭駅前通","name_kana":"あさひえきまえどおり","lat":33.555987,"lng":133.509636,"prefecture":39,"lines":[99818],"attr":"cool","postal_code":"780-0935","address":"高知市旭町３","next":[9981812,9981814,9981817,1180137,9981911,9981910],"voronoi":{"lat":33.513984,"lng":133.518904,"delta_lat":[0,-4887,22677,25181,1283,-41962],"delta_lng":[0,-1772,-6890,-2283,3243,8503]}},
    {"code":9981814,"id":"05c1a0","name":"旭町三丁目","name_kana":"あさひまちさんちょうめ","lat":33.555701,"lng":133.506482,"prefecture":39,"lines":[99818],"attr":"cool","postal_code":"780-0935","address":"高知市旭町３","next":[1180137,9981813,9981817,9981815],"voronoi":{"lat":33.559319,"lng":133.504354,"delta_lat":[0,-2364,-25181,13557],"delta_lng":[0,3605,2283,-5108]}},
    {"code":1180137,"id":"0ad534","name":"旭(高知)","original_name":"旭","name_kana":"あさひ","lat":33.558808,"lng":133.50852,"prefecture":39,"lines":[11801],"attr":"eco","postal_code":"780-0938","address":"高知市旭駅前町","next":[9981814,1180136,9981812,9981813,9981815,1180138],"voronoi":{"lat":33.559319,"lng":133.504354,"delta_lat":[0,-2364,1283,5911,20186,-22378],"delta_lng":[0,3605,3243,2405,-11528,786]}},
    {"code":9981810,"left":9981811,"right":1180136,"id":"e1e948","name":"上町四丁目","name_kana":"かみまちよんちょうめ","lat":33.557382,"lng":133.519657,"prefecture":39,"lines":[99818],"attr":"cool","postal_code":"780-0901","address":"高知市上町４","next":[9981910,9981812,1180136,9981809,9981811],"voronoi":{"lat":33.518115,"lng":133.520449,"delta_lat":[0,1659,41684,440,-29914],"delta_lng":[0,829,0,-3276,1073]}},
    {"code":9981811,"id":"0537d7","name":"上町五丁目","name_kana":"かみまちごちょうめ","lat":33.557275,"lng":133.516674,"prefecture":39,"lines":[99818],"attr":"cool","postal_code":"780-0901","address":"高知市上町５","next":[1180136,9981812,9981810],"voronoi":{"lat":33.563818,"lng":133.514018,"delta_lat":[0,-1921,-29914],"delta_lng":[0,3984,1073]}},
    {"code":1180136,"id":"6f22da","name":"円行寺口","name_kana":"えんぎょうじぐち","lat":33.565816,"lng":133.520791,"prefecture":39,"lines":[11801],"attr":"eco","postal_code":"780-0000","address":"高知市西新屋敷","next":[1180121,1180138,9981811,1180133,9981812,1180137,9981808,9981810,1180135,1180628,9981809],"voronoi":{"lat":33.561457,"lng":133.521277,"delta_lat":[0,440,1921,330,20186,171762,3392,-18233,-69631,-108356,-1187],"delta_lng":[0,-3276,-3984,-411,-11528,-54417,14419,24785,22037,17165,-2290]}},
    {"code":9981731,"left":9981804,"right":9981902,"id":"62ff9f","name":"菜園場町","name_kana":"さえんばちょう","lat":33.559063,"lng":133.548625,"prefecture":39,"lines":[99817],"attr":"cool","postal_code":"780-0823","address":"高知市菜園場町","next":[9981903,9981905,9981901,9981902,9981906,9981732,9981730],"voronoi":{"lat":33.55367,"lng":133.550872,"delta_lat":[0,718,2090,5507,264,2732,1497],"delta_lng":[0,-2695,-1986,326,95,2752,2228]}},
    {"code":9981804,"left":9981806,"right":9981730,"id":"e70b3d","name":"高知城前","name_kana":"こうちじょうまえ","lat":33.558491,"lng":133.534248,"prefecture":39,"lines":[99818],"attr":"cool","postal_code":"780-0870","address":"高知市本町４","next":[9981905,9981803,1180135,9981805],"voronoi":{"lat":33.551984,"lng":133.536836,"delta_lat":[0,11789,-995,-15642],"delta_lng":[0,-2627,-2225,2590]}},
    {"code":9981806,"left":9981807,"right":9981805,"id":"7443e0","name":"グランド通","name_kana":"ぐらんどどおり","lat":33.55774,"lng":133.529356,"prefecture":39,"lines":[99818],"attr":"cool","postal_code":"780-0870","address":"高知市本町５","next":[9981805,9981807,9981906,1180135],"voronoi":{"lat":33.54201,"lng":133.532413,"delta_lat":[0,-2679,23438,-221],"delta_lng":[0,-1211,-3795,2254]}},
    {"code":9981807,"left":9981808,"id":"e304dc","name":"枡形","name_kana":"ますがた","lat":33.557382,"lng":133.527145,"prefecture":39,"lines":[99818],"attr":"cool","postal_code":"780-0861","address":"高知市升形","next":[9981809,1180135,9981908,9981906,9981909,9981806,9981907,9981808],"voronoi":{"lat":33.536389,"lng":133.525021,"delta_lat":[0,-9593,4506,4663,3223,143,23438,313],"delta_lng":[0,0,2514,2270,1343,55,-3795,-985]}},
    {"code":9981808,"id":"1749fa","name":"上町一丁目","name_kana":"かみまちいっちょうめ","lat":33.557489,"lng":133.525107,"prefecture":39,"lines":[99818],"attr":"cool","postal_code":"780-0901","address":"高知市上町１","next":[1180135,1180136,9981809,9981807],"voronoi":{"lat":33.536389,"lng":133.525021,"delta_lat":[0,25693,1187,-187],"delta_lng":[0,-1243,2290,355]}},
    {"code":9981805,"id":"069804","name":"県庁前(高知)","original_name":"県庁前","name_kana":"けんちょうまえ","lat":33.55799,"lng":133.531222,"prefecture":39,"lines":[99818],"attr":"cool","postal_code":"780-0870","address":"高知市本町５","next":[9981906,9981806,9981905,9981804,1180135],"voronoi":{"lat":33.562547,"lng":133.529662,"delta_lat":[0,-20538,2653,2473,15642],"delta_lng":[0,2752,1392,768,-2590]}},
    {"code":9981730,"left":9981905,"right":9981803,"id":"737005","name":"宝永町","name_kana":"ほうえいちょう","lat":33.558777,"lng":133.55371,"prefecture":39,"lines":[99817],"attr":"cool","postal_code":"780-0818","address":"高知市宝永町","next":[9981908,9981729,9981901,1180133,9981906,9981907,9981731],"voronoi":{"lat":33.55367,"lng":133.550872,"delta_lat":[0,-626,-1115,-539,17275,818,-3005],"delta_lng":[0,727,1571,1166,2073,-2511,-2306]}},
    {"code":9981905,"id":"cc4157","name":"梅の辻","name_kana":"うめのつじ","lat":33.554181,"lng":133.543485,"prefecture":39,"lines":[99819],"attr":"cool","postal_code":"780-8011","address":"高知市梅ノ辻","next":[9981906,9981804,9981732,9981731,9981803,9981733,9981805,9981802],"voronoi":{"lat":33.55483,"lng":133.538765,"delta_lat":[0,-2847,-4848,-2473,9725,2090,386,-193],"delta_lng":[0,-1930,-2262,-768,14372,-1986,-3331,-1653]}},
    {"code":9981803,"id":"c707a1","name":"大橋通","name_kana":"おおはしどおり","lat":33.558974,"lng":133.536415,"prefecture":39,"lines":[99818],"attr":"cool","postal_code":"780-0870","address":"高知市本町２","next":[9981802,9981905,9981804,1180135],"voronoi":{"lat":33.55483,"lng":133.538765,"delta_lat":[0,-2847,11789,1845],"delta_lng":[0,-1930,-2627,2518]}},
    {"code":9981902,"left":9981903,"right":9981901,"id":"03e2d6","name":"高知橋","name_kana":"こうちばし","lat":33.564284,"lng":133.543442,"prefecture":39,"lines":[99819],"attr":"cool","postal_code":"780-0053","address":"高知市駅前町","next":[9981903,9981731,9981901,9981802,1180134],"voronoi":{"lat":33.565733,"lng":133.53692,"delta_lat":[0,-2657,-828,2732,629],"delta_lng":[0,3147,6546,2752,-8609]}},
    {"code":9981903,"left":9981733,"right":1180135,"id":"61684d","name":"蓮池町通","name_kana":"はすいけまちどおり","lat":33.561066,"lng":133.543035,"prefecture":39,"lines":[99819],"attr":"cool","postal_code":"780-0822","address":"高知市はりまや町３","next":[9981731,9981732,9981902,9981802,9981733],"voronoi":{"lat":33.561985,"lng":133.546518,"delta_lat":[0,264,828,-2505,-319],"delta_lng":[0,95,-6546,1059,2521]}},
    {"code":9981733,"left":9981802,"id":"7e4b0d","name":"はりまや橋","name_kana":"はりまやばし","lat":33.559617,"lng":133.542852,"prefecture":39,"lines":[99817,99818,99819],"attr":"cool","postal_code":"780-0822","address":"高知市はりまや町１","next":[9981732,9981905,9981802,9981903],"voronoi":{"lat":33.560571,"lng":133.541126,"delta_lat":[0,-3901,193,3389],"delta_lng":[0,82,1653,786]}},
    {"code":9981802,"id":"b3a928","name":"堀詰","name_kana":"ほりづめ","lat":33.559546,"lng":133.539441,"prefecture":39,"lines":[99818],"attr":"cool","postal_code":"780-0870","address":"高知市本町１","next":[1180134,9981803,9981903,1180135,9981902,9981733,9981905],"voronoi":{"lat":33.55483,"lng":133.538765,"delta_lat":[0,10787,152,-36,-2657,-2505,-3901],"delta_lng":[0,-2039,129,64,3147,1059,82]}},
    {"code":1180135,"id":"9f8bec","name":"入明","name_kana":"いりあけ","lat":33.567322,"lng":133.530298,"prefecture":39,"lines":[11801],"attr":"eco","postal_code":"780-0045","address":"高知市幸町","next":[9981807,9981808,9981804,9981802,9981805,1180136,9981806,1180133,1180134,9981803],"voronoi":{"lat":33.56577,"lng":133.536856,"delta_lat":[0,26596,79259,-108356,-187,-313,-221,230,995,1845],"delta_lng":[0,1135,-29088,17165,355,985,2254,2322,2225,2518]}},
    {"code":9981901,"left":9981732,"right":1180134,"id":"3b833c","name":"高知駅前","name_kana":"こうちえきまえ","lat":33.56653,"lng":133.543606,"prefecture":39,"lines":[99819],"attr":"cool","postal_code":"780-0056","address":"高知市北本町２","next":[1180133,9981731,9981730,1180134,9981902],"voronoi":{"lat":33.565609,"lng":133.540755,"delta_lat":[0,4641,-768,-3005,-1497],"delta_lng":[0,12597,546,-2306,-2228]}},
    {"code":9981732,"id":"a54479","name":"デンテツターミナルビル前","name_kana":"でんてつたーみなるびるまえ","lat":33.559332,"lng":133.544081,"prefecture":39,"lines":[99817],"attr":"cool","postal_code":"780-0822","address":"高知市はりまや町１","next":[9981905,9981733,9981903,9981731],"voronoi":{"lat":33.560253,"lng":133.543647,"delta_lat":[0,-3389,-386,5507],"delta_lng":[0,-786,3331,326]}},
    {"code":1180134,"id":"0de670","name":"高知","name_kana":"こうち","lat":33.566758,"lng":133.543522,"prefecture":39,"lines":[11801],"attr":"eco","postal_code":"780-0056","address":"高知市北本町２丁目","next":[9981802,9981901,1180133,9981902,1180135],"voronoi":{"lat":33.56577,"lng":133.536856,"delta_lat":[0,-36,-124,4641,22115],"delta_lng":[0,64,3836,12597,-15362]}}
  ]
}