{
  "name":"segment35",
  "root":1140211,
  "east":139.574291,
  "west":137.924297,
  "south":-90.0,
  "north":35.233555,
  "station_size":145,
  "node_list":[
    {"code":1140211,"left":9950405,"right":9950203,"id":"13d476","name":"稲子","name_kana":"いなこ","lat":35.230454,"lng":138.536892,"prefecture":22,"lines":[11402],"attr":"eco","postal_code":"419-0312","address":"静岡県富士宮市下稲子355","next":[1140215,1140216,1140214,1140208,1140210,1140217,1140213,1140212],"voronoi":{"lat":35.270896,"lng":138.525768,"delta_lat":[0,37668,6683,17157,9490,7861,-120058,-34935],"delta_lng":[0,13946,3708,12357,10947,12273,-9136,-43008]}},
    {"code":9950405,"left":9950706,"right":9950810,"id":"1ee2ad","name":"柚木(静岡鉄道)","original_name":"柚木","name_kana":"ゆのき","lat":34.981891,"lng":138.406084,"prefecture":22,"lines":[99504],"attr":"eco","postal_code":"420-0822","address":"静岡市葵区宮前町","next":[9950403,1150117,9950406,9950404],"voronoi":{"lat":34.986857,"lng":138.40803,"delta_lat":[0,13112,-11681,-59610],"delta_lng":[0,-13840,3970,37703]}},
    {"code":9950706,"left":9950507,"right":1150122,"id":"446f05","name":"門出","name_kana":"かどで","lat":34.850161,"lng":138.119229,"prefecture":22,"lines":[99507],"attr":"heat","postal_code":"428-0005","address":"静岡県島田市横岡新田２７５−１","open_date":"2020-11-12","next":[1150125,9950705,100209,9950707],"voronoi":{"lat":34.833311,"lng":138.0489,"delta_lat":[0,-5152,28680,40412],"delta_lng":[0,3987,99599,14912]}},
    {"code":9950507,"left":9950504,"right":9950712,"id":"7b6fd0","name":"原谷","name_kana":"はらのや","lat":34.808434,"lng":137.955023,"prefecture":22,"lines":[99505],"attr":"eco","postal_code":"436-0111","address":"掛川市本郷","next":[9950503,9950508,9950511,9950509,9950506,9950539],"voronoi":{"lat":34.796904,"lng":137.926686,"delta_lat":[0,-10744,32127,5278,-12781,-2257],"delta_lng":[0,-2798,76761,4815,-71101,-2153]}},
    {"code":9950504,"left":9950505,"right":9950502,"id":"886f9c","name":"桜木(静岡)","original_name":"桜木","name_kana":"さくらぎ","lat":34.778216,"lng":137.972764,"prefecture":22,"lines":[99505],"attr":"eco","postal_code":"436-0224","address":"掛川市富部","next":[9950505,9950506,1150129,9950503],"voronoi":{"lat":34.759931,"lng":137.97962,"delta_lat":[0,10732,32969,1126],"delta_lng":[0,-25095,36255,1462]}},
    {"code":9950505,"left":1150129,"right":9950506,"id":"e07ab0","name":"いこいの広場","name_kana":"いこいのひろば","lat":34.788103,"lng":137.963773,"prefecture":22,"lines":[99505],"attr":"eco","postal_code":"436-0112","address":"掛川市細谷字松向","next":[9950506,1150130,9950504,1150129],"voronoi":{"lat":34.77174,"lng":137.936217,"delta_lat":[0,3919,27973,-32969],"delta_lng":[0,-4842,59406,-36255]}},
    {"code":1150129,"left":1150130,"id":"d395f0","name":"愛野(静岡)","original_name":"愛野","name_kana":"あいの","lat":34.752257,"lng":137.961663,"prefecture":22,"lines":[11501],"attr":"eco","postal_code":"437-0031","address":"袋井市愛野６９１-８","next":[1150127,9950505,1150135,100209,9950503,9950502,9950504,1150130],"voronoi":{"lat":34.77174,"lng":137.936217,"delta_lat":[0,-1077,-10732,-15669,-32864,-92871,-161097,105742],"delta_lng":[0,18309,25095,9254,15400,29995,12348,-46843]}},
    {"code":1150130,"id":"3f2047","name":"袋井","name_kana":"ふくろい","lat":34.741377,"lng":137.92596,"prefecture":22,"lines":[11501],"attr":"eco","postal_code":"437-0023","address":"袋井市高尾","next":[9950505,9950512,9950506,1150135,9950511,1150129],"voronoi":{"lat":34.768372,"lng":137.883939,"delta_lat":[0,9872,4020,-6606,-3919,-208568],"delta_lng":[0,20560,17363,9512,4842,63558]}},
    {"code":9950506,"id":"ff4df0","name":"細谷(静岡)","original_name":"細谷","name_kana":"ほそや","lat":34.792705,"lng":137.961606,"prefecture":22,"lines":[99505],"attr":"eco","postal_code":"436-0112","address":"掛川市細谷","next":[9950503,9950505,9950504,9950511,1150130,9950507],"voronoi":{"lat":34.786161,"lng":137.923887,"delta_lat":[0,-3896,-6606,27973,1126,13530],"delta_lng":[0,-2025,9512,59406,1462,8406]}},
    {"code":9950502,"left":1150127,"right":9950503,"id":"16278e","name":"掛川市役所前","name_kana":"かけがわしやくしょまえ","lat":34.770289,"lng":138.000143,"prefecture":22,"lines":[99505],"attr":"eco","postal_code":"436-0025","address":"掛川市下俣ノ谷","next":[9950503,100209,1150129],"voronoi":{"lat":34.744262,"lng":137.988875,"delta_lat":[0,64275,-97139],"delta_lng":[0,20824,-5424]}},
    {"code":1150127,"left":100209,"id":"8a81c2","name":"菊川(静岡)","original_name":"菊川","name_kana":"きくがわ","lat":34.76176,"lng":138.085648,"prefecture":22,"lines":[11501],"attr":"heat","postal_code":"439-0006","address":"菊川市堀之内","next":[1150125,1150122,1150126,9950704,1150129,9950116,1150135,1150124,100209,1150123],"voronoi":{"lat":34.234276,"lng":138.468442,"delta_lat":[0,-1197865,1421019,161097,204444,-3518,-72149,-68326,-138483,-283042],"delta_lng":[0,-114556,-307269,-12348,22271,7396,103516,53234,87748,148637]}},
    {"code":100209,"id":"adfe18","name":"掛川","name_kana":"かけがわ","lat":34.769463,"lng":138.014937,"prefecture":22,"lines":[1002,11501,99505],"attr":"eco","postal_code":"436-0024","address":"掛川市南西郷","next":[9950503,9950502,9950705,9950704,9950508,9950706,1150129,9950707,1150127],"voronoi":{"lat":34.618527,"lng":138.03427,"delta_lat":[0,92871,97139,21017,19516,-15759,-5152,-4579,-609],"delta_lng":[0,-29995,5424,2625,15959,20618,3987,3259,394]}},
    {"code":9950503,"id":"6e4225","name":"西掛川","name_kana":"にしかけがわ","lat":34.771952,"lng":137.99501,"prefecture":22,"lines":[99505],"attr":"eco","postal_code":"436-0043","address":"掛川市大池","next":[9950508,100209,9950502,9950506,9950507,1150129,9950504],"voronoi":{"lat":34.818287,"lng":138.000648,"delta_lat":[0,5278,5988,-21017,-64275,15669,44827],"delta_lng":[0,4815,6860,-2625,-20824,-9254,12622]}},
    {"code":9950712,"left":9950709,"right":9950708,"id":"a05512","name":"川根温泉笹間渡","name_kana":"かわねおんせんささまど","lat":34.962291,"lng":138.086114,"prefecture":22,"lines":[99507],"attr":"cool","postal_code":"428-0101","address":"島田市川根町笹間渡タマブチ","next":[9950711,9950710,9950713],"voronoi":{"lat":34.977777,"lng":138.011165,"delta_lat":[0,-22646,15501],"delta_lng":[0,60264,88726]}},
    {"code":9950709,"left":9950508,"right":9950710,"id":"cf23bf","name":"大和田(静岡)","original_name":"大和田","name_kana":"おわだ","lat":34.921104,"lng":138.08215,"prefecture":22,"lines":[99507],"attr":"heat","postal_code":"428-0104","address":"島田市川根町家山大和田新地","next":[9950508,9950708,9950710,9950711],"voronoi":{"lat":34.934897,"lng":138.098594,"delta_lat":[0,-25706,-29189,49568],"delta_lng":[0,-111164,22793,119496]}},
    {"code":9950508,"left":9950509,"id":"b04044","name":"原田(静岡)","original_name":"原田","name_kana":"はらだ","lat":34.820183,"lng":137.952911,"prefecture":22,"lines":[99505],"attr":"eco","postal_code":"436-0000","address":"掛川市板谷","next":[9950503,9950709,9950509,9950710,100209,9950507,9950708,9950707],"voronoi":{"lat":34.851125,"lng":138.027416,"delta_lat":[0,28878,29189,2043,-100450,12781,5988,19516],"delta_lng":[0,-17194,-22793,-1963,-51104,71101,6860,15959]}},
    {"code":9950509,"id":"a060e3","name":"戸綿","name_kana":"とわた","lat":34.831311,"lng":137.931038,"prefecture":22,"lines":[99505],"attr":"eco","postal_code":"437-0213","address":"周智郡森町睦実","next":[9950510,9950508,9950710,9950539,9950507,1141334],"voronoi":{"lat":34.981335,"lng":137.922968,"delta_lat":[0,-162042,-10765,2257,100450,72474],"delta_lng":[0,5072,4169,2153,51104,-53720]}},
    {"code":9950710,"id":"de7993","name":"家山","name_kana":"いえやま","lat":34.940071,"lng":138.077764,"prefecture":22,"lines":[99507],"attr":"heat","postal_code":"428-0104","address":"島田市川根町家山大島新地","next":[9950713,9950508,9950711,9950509,9950709,9950712,1141334],"voronoi":{"lat":34.977777,"lng":138.011165,"delta_lat":[0,-22646,-20233,-25706,2043,72474,9011],"delta_lng":[0,60264,27164,-111164,-1963,-53720,7055]}},
    {"code":9950708,"left":9950707,"right":9950711,"id":"c3694a","name":"福用","name_kana":"ふくよう","lat":34.901881,"lng":138.090124,"prefecture":22,"lines":[99507],"attr":"heat","postal_code":"428-0002","address":"島田市福用","next":[9950709,9950508,9950711,9950707],"voronoi":{"lat":34.851125,"lng":138.027416,"delta_lat":[0,28878,49568,1443],"delta_lng":[0,-17194,119496,30293]}},
    {"code":9950707,"id":"812d4b","name":"神尾","name_kana":"かみお","lat":34.882842,"lng":138.101595,"prefecture":22,"lines":[99507],"attr":"heat","postal_code":"428-0003","address":"島田市神尾","next":[1150124,1150125,9950711,100209,9950508,9950706,9950708],"voronoi":{"lat":34.851125,"lng":138.027416,"delta_lat":[0,-2055,-15759,63940,8193,31001,-5431],"delta_lng":[0,866,20618,118498,6008,14117,-27512]}},
    {"code":9950711,"id":"9a1bca","name":"抜里","name_kana":"ぬくり","lat":34.953373,"lng":138.087672,"prefecture":22,"lines":[99507],"attr":"heat","postal_code":"428-0106","address":"島田市川根町抜里追出","next":[1150124,9950712,9950710,9950707,1150123,9950714,9950713,9950708,9950709],"voronoi":{"lat":34.931013,"lng":138.160012,"delta_lat":[0,5431,12379,18560,3276,-28,-15501,-20233,-5327],"delta_lng":[0,27512,12498,11677,-49354,-2189,-88726,27164,31125]}},
    {"code":1150122,"left":9950702,"right":100208,"id":"34899e","name":"西焼津","name_kana":"にしやいづ","lat":34.859824,"lng":138.28552,"prefecture":22,"lines":[11501],"attr":"heat","postal_code":"425-0076","address":"焼津市小屋敷","next":[1150121,1150127,9950116,1150119,1150123,9950714],"voronoi":{"lat":34.95491,"lng":138.268432,"delta_lat":[0,-609899,-110735,23177,727811,5185],"delta_lng":[0,230297,-30287,-11371,-229035,3667]}},
    {"code":9950702,"left":9950704,"right":1150124,"id":"0f04cc","name":"新金谷","name_kana":"しんかなや","lat":34.825737,"lng":138.137645,"prefecture":22,"lines":[99507],"attr":"heat","postal_code":"428-0013","address":"静岡県島田市金谷東2丁目1112-2","next":[1150125,9950703,1150126],"voronoi":{"lat":34.827171,"lng":138.128963,"delta_lat":[0,27534,-89466],"delta_lng":[0,23271,11054]}},
    {"code":9950704,"left":9950703,"right":9950705,"id":"7a8f66","name":"日切","name_kana":"ひぎり","lat":34.839012,"lng":138.122394,"prefecture":22,"lines":[99507],"attr":"heat","postal_code":"428-0007","address":"島田市島","next":[1150127,100209,9950703,1150126,9950705],"voronoi":{"lat":34.823579,"lng":138.056147,"delta_lat":[0,-609,-3518,8161,16999],"delta_lng":[0,394,7396,51164,16132]}},
    {"code":9950703,"left":1150126,"id":"b1e272","name":"代官町","name_kana":"だいかんちょう","lat":34.835493,"lng":138.126102,"prefecture":22,"lines":[99507],"attr":"heat","postal_code":"428-0012","address":"静岡県島田市金谷代官町","next":[1150125,9950702,9950705,1150126,9950704],"voronoi":{"lat":34.827613,"lng":138.1151,"delta_lat":[0,-442,27534,2062,-12155],"delta_lng":[0,13863,23271,232,-21234]}},
    {"code":1150126,"id":"50cef0","name":"金谷","name_kana":"かなや","lat":34.819049,"lng":138.125578,"prefecture":22,"lines":[11501,99507],"attr":"heat","postal_code":"428-0047","address":"静岡県島田市金谷新町","next":[1150127,9950703,9950702,1150125,9950704],"voronoi":{"lat":34.819453,"lng":138.063936,"delta_lat":[0,-72149,17936,61932,442],"delta_lng":[0,103516,-4164,-34325,-13863]}},
    {"code":9950705,"id":"44c691","name":"合格","name_kana":"ごうかく","lat":34.844806,"lng":138.120771,"prefecture":22,"lines":[99507],"attr":"heat","postal_code":"428-0008","address":"島田市竹下","next":[9950706,100209,9950703,1150125,9950704],"voronoi":{"lat":34.823579,"lng":138.056147,"delta_lat":[0,4579,28680,-71,-12155],"delta_lng":[0,-3259,99599,-20,-21234]}},
    {"code":1150124,"left":1150125,"right":1150123,"id":"4e405b","name":"六合","name_kana":"ろくごう","lat":34.836436,"lng":138.203502,"prefecture":22,"lines":[11501],"attr":"heat","postal_code":"427-0019","address":"島田市道悦１丁目","next":[9950711,9950707,1150123,1150125,1150127],"voronoi":{"lat":34.678978,"lng":138.220687,"delta_lat":[0,226466,31001,12379,-408329],"delta_lng":[0,-47280,14117,12498,108413]}},
    {"code":1150125,"id":"9908d0","name":"島田(静岡)","original_name":"島田","name_kana":"しまだ","lat":34.830159,"lng":138.173436,"prefecture":22,"lines":[11501],"attr":"heat","postal_code":"427-0028","address":"島田市栄町","next":[9950702,9950706,1150127,9950703,9950707,1150124,1150126,9950705],"voronoi":{"lat":34.856767,"lng":138.152467,"delta_lat":[0,-2062,-89466,-17936,-68326,226466,-8193,-40412],"delta_lng":[0,-232,11054,4164,53234,-47280,-6008,-14912]}},
    {"code":1150123,"id":"8d2d46","name":"藤枝","name_kana":"ふじえだ","lat":34.849511,"lng":138.252748,"prefecture":22,"lines":[11501],"attr":"heat","postal_code":"426-0034","address":"藤枝市駅前１丁目","next":[9950711,1150124,1150122,9950714,1150127],"voronoi":{"lat":34.540494,"lng":138.308434,"delta_lat":[0,408329,18560,17880,-727811],"delta_lng":[0,-108413,11677,16338,229035]}},
    {"code":100208,"left":1150119,"right":9950403,"id":"a16783","name":"静岡","name_kana":"しずおか","lat":34.971629,"lng":138.388579,"prefecture":22,"lines":[1002,11501],"attr":"cool","postal_code":"420-0851","address":"静岡市葵区黒金町","next":[1150119,9950402,9950401,9950404,1150120,9950403],"voronoi":{"lat":34.971816,"lng":138.395174,"delta_lat":[0,2451,-7404,-48348,-2567,52689],"delta_lng":[0,-5210,-26862,60396,4420,-29759]}},
    {"code":1150119,"left":1150120,"right":9950401,"id":"d18649","name":"安倍川","name_kana":"あべかわ","lat":34.940961,"lng":138.364029,"prefecture":22,"lines":[11501],"attr":"heat","postal_code":"421-0133","address":"静岡市駿河区鎌田","next":[100208,9950714,1150121,9950720,1150122,9950719,1150120,9950401],"voronoi":{"lat":34.918516,"lng":138.423498,"delta_lat":[0,31904,4490,35539,5850,33383,6877,-69695],"delta_lng":[0,-148297,-6769,-36729,1214,21281,5043,103861]}},
    {"code":1150120,"left":1150121,"id":"189e96","name":"用宗","name_kana":"もちむね","lat":34.922512,"lng":138.36006,"prefecture":22,"lines":[11501],"attr":"heat","postal_code":"421-0124","address":"静岡市駿河区用宗城山町","next":[9950404,1150117,9950115,9950409,1150119,9950408,100208,9950413,1150121,9950415],"voronoi":{"lat":34.680898,"lng":138.600749,"delta_lat":[0,269522,-31904,-2567,-17865,-17910,-40147,-15588,-76590,-33801],"delta_lng":[0,-325547,148297,4420,24657,21180,40612,14979,59046,25068]}},
    {"code":1150121,"id":"2d45e5","name":"焼津","name_kana":"やいづ","lat":34.872261,"lng":138.318457,"prefecture":22,"lines":[11501],"attr":"heat","postal_code":"425-0027","address":"焼津市栄町１丁目","next":[1150122,9950116,1150119,9950115,1150120],"voronoi":{"lat":34.950419,"lng":138.275202,"delta_lat":[0,4490,-609899,291444,44443],"delta_lng":[0,-6769,230297,89701,12318]}},
    {"code":9950401,"id":"dc079b","name":"新静岡","name_kana":"しんしずおか","lat":34.975823,"lng":138.387423,"prefecture":22,"lines":[99504],"attr":"eco","postal_code":"420-0839","address":"静岡市葵区鷹匠１-１-１","next":[9950814,9950802,100208,9950720,9950406,1150119,9950402,9950810],"voronoi":{"lat":35.113517,"lng":138.331964,"delta_lat":[0,-65841,-73408,-7404,69695,17971,2393,37808],"delta_lng":[0,34254,23746,-26862,-103861,9451,1366,35201]}},
    {"code":9950403,"left":9950402,"right":9950404,"id":"1a34f7","name":"音羽町","name_kana":"おとわちょう","lat":34.978387,"lng":138.395775,"prefecture":22,"lines":[99504],"attr":"eco","postal_code":"420-0834","address":"静岡市葵区音羽町","next":[9950406,9950405,9950402,9950404,100208],"voronoi":{"lat":34.971816,"lng":138.395174,"delta_lat":[0,50215,-22062,-11681,-19651],"delta_lng":[0,-14760,13775,3970,0]}},
    {"code":9950402,"id":"96ecb6","name":"日吉町","name_kana":"ひよしちょう","lat":34.977017,"lng":138.391114,"prefecture":22,"lines":[99504],"attr":"eco","postal_code":"420-0839","address":"静岡市葵区鷹匠２","next":[9950406,100208,9950403,9950401],"voronoi":{"lat":35.047675,"lng":138.366218,"delta_lat":[0,-25644,-50215,2451],"delta_lng":[0,14196,14760,-5210]}},
    {"code":9950404,"id":"2632b4","name":"春日町","name_kana":"かすがちょう","lat":34.978387,"lng":138.400544,"prefecture":22,"lines":[99504],"attr":"eco","postal_code":"420-0823","address":"静岡市葵区春日２","next":[1150120,100208,9950405,9950403,1150117],"voronoi":{"lat":34.928679,"lng":138.435862,"delta_lat":[0,59610,-19651,-52689,-17865],"delta_lng":[0,-37703,0,29759,24657]}},
    {"code":9950810,"left":9950802,"right":9950413,"id":"b19930","name":"奥大井湖上","name_kana":"おくおおいこじょう","lat":35.1682,"lng":138.180792,"prefecture":22,"lines":[99508],"attr":"cool","postal_code":"428-0401","address":"榛原郡川根本町梅地","next":[9950814,9950802,9950813,9950809,9950811,9950401],"voronoi":{"lat":35.056922,"lng":138.270059,"delta_lat":[0,66436,55056,-28733,-6821,-48130],"delta_lng":[0,-84887,-14065,69595,11984,52574]}},
    {"code":9950802,"left":9950717,"right":9950806,"id":"69b17f","name":"川根両国","name_kana":"かわねりょうごく","lat":35.116836,"lng":138.140592,"prefecture":22,"lines":[99508],"attr":"heat","postal_code":"428-0411","address":"榛原郡川根本町千頭","next":[9950810,9950401,9950720,9950803,9950806,9950804,9950809],"voronoi":{"lat":35.056922,"lng":138.270059,"delta_lat":[0,-2393,61124,11177,1565,-3468,-1569],"delta_lng":[0,-1366,-137681,14125,21400,15839,2796]}},
    {"code":9950717,"left":9950715,"right":9950719,"id":"46c38f","name":"駿河徳山","name_kana":"するがとくやま","lat":35.074758,"lng":138.110516,"prefecture":22,"lines":[99507],"attr":"cool","postal_code":"428-0301","address":"榛原郡川根本町徳山","next":[9950715,9950719,9950718,9950716],"voronoi":{"lat":35.0141,"lng":138.188758,"delta_lat":[0,64503,31210,-86168],"delta_lng":[0,-65076,-93395,133863]}},
    {"code":9950715,"left":9950714,"right":9950716,"id":"eafc46","name":"下泉","name_kana":"しもいずみ","lat":35.022064,"lng":138.090078,"prefecture":22,"lines":[99507],"attr":"cool","postal_code":"428-0304","address":"榛原郡川根本町下泉","next":[9950717,1141334,9950714,9950719,9950713,9950716],"voronoi":{"lat":35.0141,"lng":138.188758,"delta_lat":[0,-2001,-3535,6267,44519,-35705],"delta_lng":[0,3738,-161522,-79928,17549,195555]}},
    {"code":9950714,"left":9950713,"id":"ec94df","name":"塩郷","name_kana":"しおごう","lat":34.997664,"lng":138.090612,"prefecture":22,"lines":[99507],"attr":"cool","postal_code":"428-0304","address":"榛原郡川根本町下泉","next":[1150119,9950715,9950713,9950711,1150123,9950719,1150122],"voronoi":{"lat":34.996299,"lng":138.232917,"delta_lat":[0,15801,-3535,-37905,-3276,17880,5185],"delta_lng":[0,-40422,-161522,131371,49354,16338,3667]}},
    {"code":9950713,"id":"8a41b0","name":"地名","name_kana":"じな","lat":34.986019,"lng":138.087252,"prefecture":22,"lines":[99507],"attr":"cool","postal_code":"428-0305","address":"榛原郡川根本町地名","next":[9950710,1141334,9950714,9950711,9950712,9950715],"voronoi":{"lat":35.014831,"lng":137.951045,"delta_lat":[0,-22112,-14943,-7145,28,37905],"delta_lng":[0,-12244,72364,148990,2189,-131371]}},
    {"code":9950716,"id":"cbc92b","name":"田野口","name_kana":"たのくち","lat":35.0513,"lng":138.095416,"prefecture":22,"lines":[99507],"attr":"cool","postal_code":"428-0306","address":"榛原郡川根本町田野口","next":[9950718,1141335,1141334,1141336,9950717,9950715],"voronoi":{"lat":35.05935,"lng":137.968594,"delta_lat":[0,11659,32892,24784,-18872,-86168],"delta_lng":[0,3080,11310,11272,36030,133863]}},
    {"code":9950719,"left":9950718,"right":9950720,"id":"0346a5","name":"崎平","name_kana":"さきだいら","lat":35.091803,"lng":138.127411,"prefecture":22,"lines":[99507],"attr":"eco","postal_code":"428-0418","address":"榛原郡川根本町崎平","next":[9950717,9950715,1150119,9950718,9950720,9950714],"voronoi":{"lat":35.029681,"lng":138.254198,"delta_lat":[0,77943,-29021,-64503,-2001,-15801],"delta_lng":[0,-135891,5374,65076,3738,40422]}},
    {"code":9950718,"id":"0f8e9c","name":"青部","name_kana":"あおべ","lat":35.089592,"lng":138.115473,"prefecture":22,"lines":[99507],"attr":"eco","postal_code":"428-0417","address":"榛原郡川根本町青部","next":[1141337,9950716,9950719,9950717,1141336,9950720,9950803],"voronoi":{"lat":35.107624,"lng":138.118307,"delta_lat":[0,-29021,31210,18872,15481,26763,-57562],"delta_lng":[0,5374,-93395,-36030,4057,8060,106987]}},
    {"code":9950720,"id":"423e1b","name":"千頭","name_kana":"せんず","lat":35.107754,"lng":138.13656,"prefecture":22,"lines":[99507,99508],"attr":"eco","postal_code":"428-0411","address":"榛原郡川根本町千頭","next":[9950803,1150119,9950401,9950802,9950719,9950718],"voronoi":{"lat":35.113367,"lng":138.11336,"delta_lat":[0,2286,-61124,-17971,-6877,77943],"delta_lng":[0,17651,137681,-9451,-5043,-135891]}},
    {"code":9950806,"left":9950805,"right":9950808,"id":"b389d4","name":"奥泉","name_kana":"おくいずみ","lat":35.149739,"lng":138.147796,"prefecture":22,"lines":[99508],"attr":"heat","postal_code":"428-0412","address":"榛原郡川根本町奥泉","next":[9950805,9950809,9950807,9950804,9950802,9950808],"voronoi":{"lat":35.159555,"lng":138.151864,"delta_lat":[0,-3321,-24025,-3813,-3468,31463],"delta_lng":[0,-19870,28484,6058,15839,-24050]}},
    {"code":9950805,"left":9950804,"right":9950807,"id":"828854","name":"川根小山","name_kana":"かわねこやま","lat":35.141753,"lng":138.14106,"prefecture":22,"lines":[99508],"attr":"heat","postal_code":"428-0412","address":"榛原郡川根本町奥泉","next":[9950806,9950807,9950804],"voronoi":{"lat":35.167947,"lng":138.051852,"delta_lat":[0,-11713,-24025],"delta_lng":[0,80143,28484]}},
    {"code":9950804,"left":9950803,"id":"3d4b2d","name":"土本","name_kana":"どもと","lat":35.136057,"lng":138.139186,"prefecture":22,"lines":[99508],"attr":"heat","postal_code":"428-0412","address":"榛原郡川根本町奥泉","next":[9950807,9950803,9950806,9950802,9950805],"voronoi":{"lat":35.128396,"lng":138.166536,"delta_lat":[0,-1565,42212,-1096,-35738],"delta_lng":[0,-21400,-99396,6111,108627]}},
    {"code":9950803,"id":"095582","name":"沢間","name_kana":"さわま","lat":35.124705,"lng":138.134365,"prefecture":22,"lines":[99508],"attr":"heat","postal_code":"428-0411","address":"榛原郡川根本町千頭","next":[9950720,9950807,9950804,1141337,9950802,9950718],"voronoi":{"lat":35.115653,"lng":138.131012,"delta_lat":[0,11177,42212,9351,-7464,-57562],"delta_lng":[0,14125,-99396,-38273,-1094,106987]}},
    {"code":9950807,"id":"25bd88","name":"アプトいちしろ","name_kana":"あぷといちしろ","lat":35.167514,"lng":138.144825,"prefecture":22,"lines":[99508],"attr":"heat","postal_code":"428-0401","address":"榛原郡川根本町梅地","next":[9950804,9950803,1141344,9950806,1141337,9950808,9950805,9950812,1141343],"voronoi":{"lat":35.240689,"lng":138.006527,"delta_lat":[0,-62296,-9351,-1096,-11713,3321,33740,132021,-8202],"delta_lng":[0,941,38273,6111,80143,19870,-3492,-110005,-3990]}},
    {"code":9950808,"left":9950809,"right":9950812,"id":"f400bf","name":"長島ダム","name_kana":"ながしまだむ","lat":35.168787,"lng":138.157124,"prefecture":22,"lines":[99508],"attr":"cool","postal_code":"428-0402","address":"榛原郡川根本町犬間","next":[9950812,9950809,9950807,9950806],"voronoi":{"lat":35.159555,"lng":138.151864,"delta_lat":[0,33740,-13876,-23028],"delta_lng":[0,-3492,18782,-8829]}},
    {"code":9950809,"id":"ee0a35","name":"ひらんだ","name_kana":"ひらんだ","lat":35.164806,"lng":138.167507,"prefecture":22,"lines":[99508],"attr":"cool","postal_code":"428-0402","address":"榛原郡川根本町犬間","next":[9950812,9950806,9950810,9950811,9950808,9950802],"voronoi":{"lat":35.124928,"lng":138.182376,"delta_lat":[0,31463,23028,-989,-15,-55056],"delta_lng":[0,-24050,8829,3940,12,14065]}},
    {"code":9950812,"id":"cf6343","name":"尾盛","name_kana":"おもり","lat":35.192131,"lng":138.174369,"prefecture":22,"lines":[99508],"attr":"eco","postal_code":"428-0402","address":"榛原郡川根本町犬間","next":[1141415,9950808,9950809,9950813,1141344,9950811,9950814,1141345,9950807],"voronoi":{"lat":35.325315,"lng":138.038368,"delta_lat":[0,62070,12361,27670,-195778,-42549,-10660,989,13876],"delta_lng":[0,22773,5349,34344,84235,-846,-13128,-3940,-18782]}},
    {"code":9950413,"left":9950409,"right":9950415,"id":"5da020","name":"桜橋(静岡)","original_name":"桜橋","name_kana":"さくらばし","lat":35.013107,"lng":138.477573,"prefecture":22,"lines":[99504],"attr":"heat","postal_code":"424-0842","address":"静岡市清水区春日１","next":[9950409,1150115,9950411,9950415,9950414,1150120,9950412],"voronoi":{"lat":34.961356,"lng":138.475207,"delta_lat":[0,-136918,-76590,225301,59428,4530,-59219],"delta_lng":[0,54140,59046,-89230,-28724,-4035,5376]}},
    {"code":9950409,"left":9950407,"right":9950411,"id":"4f05f4","name":"県立美術館前","name_kana":"けんりつびじゅつかんまえ","lat":34.997494,"lng":138.438088,"prefecture":22,"lines":[99504],"attr":"cool","postal_code":"424-0888","address":"静岡市清水区中之郷２","next":[9950411,9950408,1150116,9950413,1150120],"voronoi":{"lat":34.840026,"lng":138.514367,"delta_lat":[0,170093,-21000,-27763,-136918],"delta_lng":[0,-87852,28591,20100,54140]}},
    {"code":9950407,"left":1150117,"right":9950408,"id":"88e6dd","name":"古庄","name_kana":"ふるしょう","lat":34.992855,"lng":138.419581,"prefecture":22,"lines":[99504],"attr":"eco","postal_code":"420-0812","address":"静岡市葵区古庄","next":[9950408,9950406,9950814,1150117,1150116],"voronoi":{"lat":34.981334,"lng":138.425429,"delta_lat":[0,6148,134701,21513,-130215],"delta_lng":[0,-7228,-76151,23780,58012]}},
    {"code":1150117,"left":9950406,"id":"7d2bb2","name":"東静岡","name_kana":"ひがししずおか","lat":34.985256,"lng":138.413118,"prefecture":22,"lines":[11501],"attr":"cool","postal_code":"420-0813","address":"静岡市葵区長沼５８４番地８","next":[9950406,1150120,9950405,9950407,9950404,9950408],"voronoi":{"lat":34.898084,"lng":138.452576,"delta_lat":[0,30595,58179,624,-6148,-101160],"delta_lng":[0,-16713,-27833,10171,7228,48327]}},
    {"code":9950406,"id":"5cee3e","name":"長沼(静岡)","original_name":"長沼","name_kana":"ながぬま","lat":34.989069,"lng":138.412884,"prefecture":22,"lines":[99504],"attr":"eco","postal_code":"420-0813","address":"静岡市葵区長沼１","next":[1150117,9950403,9950402,9950814,9950407,9950401,9950405],"voronoi":{"lat":34.987482,"lng":138.4182,"delta_lat":[0,134701,-8666,-65841,-25644,-22062,-13112],"delta_lng":[0,-76151,-10085,34254,14196,13775,13840]}},
    {"code":9950408,"id":"94a2d7","name":"県総合運動場","name_kana":"けんそうごううんどうじょう","lat":34.993375,"lng":138.430113,"prefecture":22,"lines":[99504],"attr":"eco","postal_code":"422-8008","address":"静岡市駿河区栗原","next":[9950407,9950409,1150120,1150116,1150117],"voronoi":{"lat":34.840026,"lng":138.514367,"delta_lat":[0,170093,3361,-32147,-101160],"delta_lng":[0,-87852,-2674,1587,48327]}},
    {"code":9950411,"left":1150116,"right":9950412,"id":"0368dc","name":"御門台","name_kana":"みかどだい","lat":35.007902,"lng":138.452464,"prefecture":22,"lines":[99504],"attr":"cool","postal_code":"424-0066","address":"静岡市清水区七ツ新屋","next":[9950409,1150116,9950412,9950413,1140213],"voronoi":{"lat":35.142258,"lng":138.381053,"delta_lat":[0,-153138,-27763,16532,162674],"delta_lng":[0,74053,20100,-3427,-80185]}},
    {"code":1150116,"id":"1d3f30","name":"草薙","name_kana":"くさなぎ","lat":35.002854,"lng":138.442025,"prefecture":22,"lines":[11501,99504],"attr":"cool","postal_code":"424-0886","address":"静岡市清水区草薙","next":[9950411,9950409,1140213,9950407,9950814,9950408],"voronoi":{"lat":35.01348,"lng":138.423841,"delta_lat":[0,130215,1353,-2791,-153138,21000],"delta_lng":[0,-58012,1283,13941,74053,-28591]}},
    {"code":9950412,"id":"bd7a97","name":"狐ヶ崎","name_kana":"きつねがさき","lat":35.011488,"lng":138.459739,"prefecture":22,"lines":[99504],"attr":"cool","postal_code":"424-0871","address":"静岡市清水区上原","next":[1150114,9950411,1140213,1150115,9950413],"voronoi":{"lat":35.140563,"lng":138.391594,"delta_lat":[0,-3988,-18039,-81428,-59219],"delta_lng":[0,30117,11919,32773,5376]}},
    {"code":9950415,"left":9950813,"right":1150114,"id":"573d06","name":"新清水","name_kana":"しんしみず","lat":35.017054,"lng":138.487539,"prefecture":22,"lines":[99504],"attr":"heat","postal_code":"424-0821","address":"静岡市清水区相生町２-２８","next":[9950114,1150115,1150114,9950413,9950414,1150120,9950115],"voronoi":{"lat":34.843878,"lng":138.702066,"delta_lat":[0,166789,10799,-48317,-225301,-33801,93355],"delta_lng":[0,-172420,-47139,16655,89230,25068,65309]}},
    {"code":9950813,"left":9950414,"right":9950814,"id":"2eb835","name":"閑蔵","name_kana":"かんぞう","lat":35.191737,"lng":138.194189,"prefecture":22,"lines":[99508],"attr":"eco","postal_code":"428-0504","address":"静岡市葵区井川","next":[9950810,9950812,9950814,9950811],"voronoi":{"lat":35.14286,"lng":138.252686,"delta_lat":[0,88778,-42549,-39408],"delta_lng":[0,-67617,-846,56479]}},
    {"code":9950414,"left":9950811,"id":"a56db4","name":"入江岡","name_kana":"いりえおか","lat":35.014891,"lng":138.481264,"prefecture":22,"lines":[99504],"attr":"heat","postal_code":"424-0834","address":"静岡市清水区浜田町","next":[9950413,9950415,1150115],"voronoi":{"lat":35.032578,"lng":138.470439,"delta_lat":[0,-59428,48317],"delta_lng":[0,28724,-16655]}},
    {"code":9950811,"id":"77966c","name":"接岨峡温泉","name_kana":"せっそきょうおんせん","lat":35.178821,"lng":138.185177,"prefecture":22,"lines":[99508],"attr":"cool","postal_code":"428-0402","address":"榛原郡川根本町犬間","next":[9950812,9950809,9950810,9950813],"voronoi":{"lat":35.178415,"lng":138.171106,"delta_lat":[0,15,10660,-39408],"delta_lng":[0,-12,13128,56479]}},
    {"code":9950814,"id":"85fa4f","name":"井川","name_kana":"いかわ","lat":35.212242,"lng":138.221111,"prefecture":22,"lines":[99508],"attr":"eco","postal_code":"428-0504","address":"静岡市葵区井川","next":[1140217,9950810,1141415,1140215,9950401,9950406,9950813,1140224,9950812,9950407,1141418,1140216,1140213,1140218,1140219,1150116,1140214,1141417],"voronoi":{"lat":35.493474,"lng":138.178638,"delta_lat":[0,-26610,-35137,-52874,-30137,-77821,-63109,-59095,-3642,-1353,-21513,-8666,-18786,48130,88778,195778,9523,23069],"delta_lng":[0,30828,30388,38021,19383,39042,18094,12244,475,-1283,-23780,-10085,-26705,-52574,-67617,-84235,9595,26530]}},
    {"code":1150114,"left":1150115,"right":1140212,"id":"00ca40","name":"興津","name_kana":"おきつ","lat":35.052539,"lng":138.521865,"prefecture":22,"lines":[11501],"attr":"cool","postal_code":"424-0204","address":"静岡市清水区興津中町","next":[9950412,1150107,1150115,1150113,9950415,1140213,1140212,1150112,9950114,1150111,9950211],"voronoi":{"lat":34.907975,"lng":138.703457,"delta_lat":[0,111263,1285,118301,-394,-1856,-18039,-107868,-166789,4002,40453],"delta_lng":[0,-86505,-1298,-170683,-11538,-11721,11919,96016,172420,3093,5652]}},
    {"code":1150115,"id":"a2014a","name":"清水(静岡)","original_name":"清水","name_kana":"しみず","lat":35.023248,"lng":138.488958,"prefecture":22,"lines":[11501],"attr":"cool","postal_code":"424-0816","address":"静岡市清水区真砂町","next":[1150114,9950415,9950413,9950412,9950414],"voronoi":{"lat":35.032578,"lng":138.470439,"delta_lat":[0,4530,81428,-107868,10799],"delta_lng":[0,-4035,-32773,96016,-47139]}},
    {"code":1140212,"id":"221d42","name":"十島","name_kana":"とおしま","lat":35.230153,"lng":138.515802,"prefecture":19,"lines":[11402],"attr":"heat","postal_code":"409-2303","address":"南巨摩郡南部町十島","next":[1150114,1140210,1150113,1140213,1140211],"voronoi":{"lat":35.270896,"lng":138.525768,"delta_lat":[0,-132466,394,14952,40986],"delta_lng":[0,-92335,11538,53833,28051]}},
    {"code":9950203,"left":9950113,"right":9950305,"id":"2e9bc4","name":"三島田町","name_kana":"みしまたまち","lat":35.116205,"lng":138.918421,"prefecture":22,"lines":[99502],"attr":"cool","postal_code":"411-0854","address":"三島市北田町","next":[1150518,9950204,100206,9950202],"voronoi":{"lat":35.083456,"lng":138.900247,"delta_lat":[0,-2058,57930,-16509],"delta_lng":[0,3,39481,-22760]}},
    {"code":9950113,"left":9950207,"right":9950104,"id":"309c5a","name":"河津","name_kana":"かわづ","lat":34.747711,"lng":138.996179,"prefecture":22,"lines":[99501],"attr":"cool","postal_code":"413-0513","address":"賀茂郡河津町浜字中耕地","next":[9950213,9950112,9950114,9950116],"voronoi":{"lat":34.695085,"lng":138.99461,"delta_lat":[0,155675,3570,-233569],"delta_lng":[0,-85342,18101,164703]}},
    {"code":9950207,"left":9950210,"right":9950204,"id":"4f915e","name":"原木","name_kana":"ばらき","lat":35.065653,"lng":138.943695,"prefecture":22,"lines":[99502],"attr":"cool","postal_code":"410-2124","address":"伊豆の国市原木","next":[1150102,9950206,1150104,9950208],"voronoi":{"lat":35.051184,"lng":138.887085,"delta_lat":[0,12785,13318,-10984],"delta_lng":[0,5714,80224,17355]}},
    {"code":9950210,"left":9950211,"right":9950212,"id":"5b51f7","name":"田京","name_kana":"たきょう","lat":35.014551,"lng":138.945767,"prefecture":22,"lines":[99502],"attr":"heat","postal_code":"410-2315","address":"伊豆の国市田京","next":[1150403,9950211,9950212,1150104,9950209],"voronoi":{"lat":35.022036,"lng":139.011844,"delta_lat":[0,-20668,30447,387,-9512],"delta_lng":[0,-62543,-74211,399,136113]}},
    {"code":9950211,"left":9950116,"right":9950208,"id":"ba769c","name":"大仁","name_kana":"おおひと","lat":34.994467,"lng":138.937527,"prefecture":22,"lines":[99502],"attr":"heat","postal_code":"410-2323","address":"伊豆の国市大仁","next":[1150105,9950212,1150106,1150107,9950210,1150104,9950213,9950114,1150114],"voronoi":{"lat":34.890937,"lng":138.712733,"delta_lat":[0,51637,26491,62750,-30447,-14311,-135739,-3438,40453],"delta_lng":[0,46732,27651,87973,74211,-4935,-160327,-78879,5652]}},
    {"code":9950116,"left":9950115,"id":"8fbb8b","name":"伊豆急下田","name_kana":"いずきゅうしもだ","lat":34.679647,"lng":138.944274,"prefecture":22,"lines":[99501],"attr":"cool","postal_code":"415-0035","address":"下田市東本郷１","next":[1150121,9992719,9950114,1150127,1150122,9950113,9950115,1163910,9950111,9950112,3101516,1150131,1163912,1132524,1163915,1150135,1132526],"voronoi":{"lat":15.971515,"lng":144.256605,"delta_lat":[0,12118257,1847791,1477225,557221,843662,220740,1197865,110735,291444,59672,-1042,-74324,-35942,-522622,-85022,-19609179],"delta_lng":[0,-4613904,-686669,-536469,-97315,23551,8088,114556,30287,89701,397556,8623,97462,44062,534248,29302,5764722]}},
    {"code":9950115,"id":"e01b60","name":"蓮台寺","name_kana":"れんだいじ","lat":34.699634,"lng":138.941274,"prefecture":22,"lines":[99501],"attr":"cool","postal_code":"415-0011","address":"下田市河内山ノ瀬","next":[9950116,1150121,1150120,9950114,9950415],"voronoi":{"lat":34.714047,"lng":138.61346,"delta_lat":[0,-33150,-44443,59672,111276],"delta_lng":[0,-12712,-12318,397556,-307217]}},
    {"code":9950208,"id":"b92fab","name":"韮山","name_kana":"にらやま","lat":35.053547,"lng":138.945467,"prefecture":22,"lines":[99502],"attr":"heat","postal_code":"410-2123","address":"伊豆の国市四日町","next":[1150403,1150104,9950209,9950207,1150102],"voronoi":{"lat":35.055794,"lng":139.00619,"delta_lat":[0,-19394,14785,15119,-7232],"delta_lng":[0,-127672,8567,103293,15653]}},
    {"code":9950212,"left":9950213,"right":9950209,"id":"803676","name":"牧之郷","name_kana":"まきのこう","lat":34.988677,"lng":138.954317,"prefecture":22,"lines":[99502],"attr":"eco","postal_code":"410-2401","address":"伊豆市牧之郷","next":[9950211,1150403,9950213,9950102,9950210,1150405],"voronoi":{"lat":34.958227,"lng":139.017636,"delta_lat":[0,28831,14311,20668,-3737,-47399],"delta_lng":[0,-73270,4935,62543,2349,6395]}},
    {"code":9950213,"left":9950114,"id":"bedaff","name":"修善寺","name_kana":"しゅぜんじ","lat":34.979091,"lng":138.950545,"prefecture":22,"lines":[99502],"attr":"eco","postal_code":"410-2407","address":"伊豆市柏久保","next":[9950113,9950114,9950212,9950112,9950102,9950107,9950211],"voronoi":{"lat":34.851318,"lng":138.784039,"delta_lat":[0,-559,3570,7309,47371,49217,28831],"delta_lng":[0,125229,18101,30422,52133,7712,-73270]}},
    {"code":9950114,"id":"43b2d2","name":"稲梓","name_kana":"いなずさ","lat":34.722066,"lng":138.949399,"prefecture":22,"lines":[99501],"attr":"cool","postal_code":"413-0701","address":"下田市落合字道庭","next":[9950116,9950113,9950415,9950213,9950115,1150114,9950211],"voronoi":{"lat":34.847881,"lng":138.70516,"delta_lat":[0,-4002,-36476,-111276,-1042,155675,559],"delta_lng":[0,-3093,-23297,307217,8623,-85342,-125229]}},
    {"code":9950209,"id":"da0a36","name":"伊豆長岡","name_kana":"いずながおか","lat":35.039907,"lng":138.947539,"prefecture":22,"lines":[99502],"attr":"heat","postal_code":"410-2114","address":"伊豆の国市南條","next":[1150403,1150104,9950208,9950210],"voronoi":{"lat":35.032202,"lng":138.875489,"delta_lat":[0,4197,19394,-33103],"delta_lng":[0,3030,127672,5411]}},
    {"code":9950204,"left":1150112,"right":9950205,"id":"57b46d","name":"三島二日町","name_kana":"みしまふつかまち","lat":35.111039,"lng":138.926001,"prefecture":22,"lines":[99502],"attr":"cool","postal_code":"411-0832","address":"三島市南二日町","next":[1150518,9950205,9950206,9950203,1150102,100206],"voronoi":{"lat":35.113395,"lng":138.948668,"delta_lat":[0,-33473,-1273,2750,57930,10529],"delta_lng":[0,-46094,-2645,320,39481,10775]}},
    {"code":1150112,"left":1150104,"right":1150518,"id":"9256f7","name":"蒲原","name_kana":"かんばら","lat":35.114005,"lng":138.582752,"prefecture":22,"lines":[11501],"attr":"cool","postal_code":"421-3214","address":"静岡市清水区蒲原堰沢","next":[1150111,1140210,1150114,1150110,1140209,1150113],"voronoi":{"lat":35.148843,"lng":138.54337,"delta_lat":[0,7896,-8,-15001,-122491,1285],"delta_lng":[0,34770,442,11354,27015,-1298]}},
    {"code":1150104,"left":1150113,"id":"6650f8","name":"沼津","name_kana":"ぬまづ","lat":35.103011,"lng":138.860104,"prefecture":22,"lines":[11501,11505],"attr":"cool","postal_code":"410-0801","address":"沼津市大手町１丁目","next":[9950206,1150518,9950209,9950208,9950207,9950211,9950210,1150105],"voronoi":{"lat":34.969066,"lng":138.787117,"delta_lat":[0,62750,387,4197,14785,12785,6293,72190],"delta_lng":[0,87973,399,3030,8567,5714,1870,-43369]}},
    {"code":1150113,"id":"8119bf","name":"由比","name_kana":"ゆい","lat":35.097108,"lng":138.552756,"prefecture":22,"lines":[11501],"attr":"cool","postal_code":"421-3111","address":"静岡市清水区由比今宿","next":[1150114,1140210,1140212,1150112],"voronoi":{"lat":35.148843,"lng":138.54337,"delta_lat":[0,4934,-14952,-118301],"delta_lng":[0,-44567,-53833,170683]}},
    {"code":1150518,"id":"e5a514","name":"大岡","name_kana":"おおおか","lat":35.116158,"lng":138.881988,"prefecture":22,"lines":[11505],"attr":"eco","postal_code":"410-0022","address":"沼津市大岡","next":[1150104,9950204,1150517,9950206,9950203,1150105,9950202,1150516],"voronoi":{"lat":35.153432,"lng":138.851665,"delta_lat":[0,-10980,-72190,8386,2750,2058,29642,31364],"delta_lng":[0,-364,43369,5260,320,-3,-3159,-29175]}},
    {"code":9950205,"left":9950206,"right":1150102,"id":"638977","name":"大場","name_kana":"だいば","lat":35.092569,"lng":138.939414,"prefecture":22,"lines":[99502],"attr":"cool","postal_code":"411-0803","address":"三島市大場","next":[1150102,9950204,9950206],"voronoi":{"lat":35.079922,"lng":138.902575,"delta_lat":[0,33473,-24530],"delta_lng":[0,46094,12591]}},
    {"code":9950206,"id":"1f8e60","name":"伊豆仁田","name_kana":"いずにった","lat":35.078821,"lng":138.941509,"prefecture":22,"lines":[99502],"attr":"cool","postal_code":"419-0114","address":"田方郡函南町仁田","next":[1150104,9950207,1150102,1150518,9950204,9950205],"voronoi":{"lat":35.077287,"lng":138.973023,"delta_lat":[0,-13318,6293,8386,1273,8943],"delta_lng":[0,-80224,1870,5260,2645,58685]}},
    {"code":1150102,"id":"7d8863","name":"函南","name_kana":"かんなみ","lat":35.108773,"lng":138.970984,"prefecture":22,"lines":[11501],"attr":"cool","postal_code":"419-0121","address":"田方郡函南町大竹","next":[9950205,9950207,1150403,1150515,9950206,9933909,100206,1150402,9950204,9950208,1150514],"voronoi":{"lat":35.17834,"lng":138.97897,"delta_lat":[0,-27878,-605,-36463,-24530,-11577,-10984,-7232,18354,89107,19212],"delta_lng":[0,-28288,-176,-1837,12591,11764,17355,15653,9451,9468,-30767]}},
    {"code":9950104,"left":9950107,"right":1150404,"id":"a433c7","name":"富戸","name_kana":"ふと","lat":34.91005,"lng":139.131676,"prefecture":22,"lines":[99501],"attr":"heat","postal_code":"413-0231","address":"伊東市富戸字的場","next":[9950102,9950105,1132524,9950103,2700509],"voronoi":{"lat":34.702364,"lng":139.526246,"delta_lat":[0,214862,8804,52145,-183748],"delta_lng":[0,-434462,9555,316090,97993]}},
    {"code":9950107,"left":9950110,"right":9950106,"id":"916802","name":"伊豆大川","name_kana":"いずおおかわ","lat":34.843208,"lng":139.074014,"prefecture":22,"lines":[99501],"attr":"heat","postal_code":"413-0301","address":"賀茂郡東伊豆町大川字川原田","next":[9950110,9950111,9950112,9950108,9950106,9950102,9950213,9950109],"voronoi":{"lat":34.838676,"lng":139.112681,"delta_lat":[0,65900,4434,-47371,-687,-11309,-7133,-9219],"delta_lng":[0,-66219,-36538,-52133,887,21040,23096,51250]}},
    {"code":9950110,"left":9950111,"right":9950109,"id":"3766d0","name":"片瀬白田","name_kana":"かたせしらた","lat":34.801783,"lng":139.06122,"prefecture":22,"lines":[99501],"attr":"cool","postal_code":"413-0304","address":"賀茂郡東伊豆町白田字墹下","next":[9950107,1132524,9950111,9950108,9950105,9950109],"voronoi":{"lat":34.601625,"lng":139.447169,"delta_lat":[0,-71197,-237353,556567,-7133,-146074],"delta_lng":[0,103705,57545,-628701,23096,275622]}},
    {"code":9950111,"left":9950112,"id":"0fe146","name":"伊豆稲取","name_kana":"いずいなとり","lat":34.774546,"lng":139.037108,"prefecture":22,"lines":[99501],"attr":"cool","postal_code":"413-0411","address":"賀茂郡東伊豆町稲取字出口","next":[9950107,9950112,9950116,9950110,1132524],"voronoi":{"lat":34.584819,"lng":139.136134,"delta_lat":[0,276133,-11309,-556567,-230879],"delta_lng":[0,-177456,21040,628701,61963]}},
    {"code":9950112,"id":"b178be","name":"今井浜海岸","name_kana":"いまいはまかいがん","lat":34.753714,"lng":139.004692,"prefecture":22,"lines":[99501],"attr":"cool","postal_code":"413-0503","address":"賀茂郡河津町見高字中浜","next":[9950107,9950113,9950111,9950213,9950116],"voronoi":{"lat":34.620761,"lng":139.092072,"delta_lat":[0,233569,7309,-687,-276133],"delta_lng":[0,-164703,30422,887,177456]}},
    {"code":9950109,"id":"bc8c52","name":"伊豆熱川","name_kana":"いずあたがわ","lat":34.817042,"lng":139.069307,"prefecture":22,"lines":[99501],"attr":"cool","postal_code":"413-0302","address":"賀茂郡東伊豆町奈良本字浜田","next":[9950108,9950110,9950107],"voronoi":{"lat":34.696435,"lng":139.278435,"delta_lat":[0,146074,-9219],"delta_lng":[0,-275622,51250]}},
    {"code":9950106,"left":9950108,"right":9950105,"id":"fcc1d9","name":"伊豆高原","name_kana":"いずこうげん","lat":34.87732,"lng":139.107961,"prefecture":22,"lines":[99501],"attr":"heat","postal_code":"413-0232","address":"伊東市八幡野","next":[9950102,9950108,9950105,9950107],"voronoi":{"lat":34.904575,"lng":139.046461,"delta_lat":[0,10013,-144486,68573],"delta_lng":[0,40043,132067,-105891]}},
    {"code":9950108,"id":"76a160","name":"伊豆北川","name_kana":"いずほっかわ","lat":34.827174,"lng":139.075487,"prefecture":22,"lines":[99501],"attr":"heat","postal_code":"413-0302","address":"賀茂郡東伊豆町奈良本字宮ノ上","next":[9950106,9950107,9950105,9950109,9950110],"voronoi":{"lat":34.696435,"lng":139.278435,"delta_lat":[0,136855,5385,-68573,-168477],"delta_lng":[0,-224372,58617,105891,228597]}},
    {"code":9950105,"id":"b4e7c3","name":"城ヶ崎海岸","name_kana":"じょうがさきかいがん","lat":34.889878,"lng":139.1217,"prefecture":22,"lines":[99501],"attr":"heat","postal_code":"413-0231","address":"静岡県伊東市富戸字四辻下","next":[1132524,9950108,9950104,9950106,9950110,9950102],"voronoi":{"lat":34.702364,"lng":139.526246,"delta_lat":[0,-171935,71197,168477,144486,2637],"delta_lng":[0,24627,-103705,-228597,-132067,5280]}},
    {"code":1150404,"left":1150402,"right":9950102,"id":"19695b","name":"網代","name_kana":"あじろ","lat":35.043545,"lng":139.081245,"prefecture":22,"lines":[11504],"attr":"heat","postal_code":"413-0102","address":"熱海市下多賀","next":[9950103,1150403,100205,1150405,1130119],"voronoi":{"lat":35.078098,"lng":139.155868,"delta_lat":[0,-3336,-48849,-4218,29091],"delta_lng":[0,-56164,-53829,109098,61683]}},
    {"code":1150402,"left":1150405,"right":100205,"id":"17373e","name":"来宮","name_kana":"きのみや","lat":35.098723,"lng":139.065575,"prefecture":22,"lines":[11504],"attr":"cool","postal_code":"413-0017","address":"熱海市福道町","next":[9933909,100205,1150102,1150403,1130120],"voronoi":{"lat":35.079523,"lng":139.080292,"delta_lat":[0,-2097,89107,134,-21066],"delta_lng":[0,-64810,9468,1527,27338]}},
    {"code":1150405,"left":1150403,"id":"5911d0","name":"宇佐美","name_kana":"うさみ","lat":35.005602,"lng":139.079778,"prefecture":22,"lines":[11504],"attr":"heat","postal_code":"414-0001","address":"伊東市宇佐美","next":[1150406,9950102,1150403,1150404,9950103,9950212],"voronoi":{"lat":34.97593,"lng":139.05036,"delta_lat":[0,38079,7685,4218,-7613,-47399],"delta_lng":[0,95304,9308,-109098,-31682,6395]}},
    {"code":1150403,"id":"693d42","name":"伊豆多賀","name_kana":"いずたが","lat":35.059411,"lng":139.066847,"prefecture":22,"lines":[11504],"attr":"cool","postal_code":"413-0101","address":"熱海市上多賀","next":[9950208,9950209,1150102,9950212,100205,1150404,9950210,1150405,1150402],"voronoi":{"lat":35.077426,"lng":139.015483,"delta_lat":[0,-18354,-3278,-33103,-654,-3737,7613,48849,4761],"delta_lng":[0,-9451,159,5411,242,2349,31682,53829,-19411]}},
    {"code":100205,"id":"e9c3c7","name":"熱海","name_kana":"あたみ","lat":35.103573,"lng":139.077679,"prefecture":22,"lines":[1002,11301,11501,11504],"attr":"heat","postal_code":"413-0011","address":"熱海市田原本町","next":[1150403,1150404,1150402,1130119,1130120],"voronoi":{"lat":35.145601,"lng":139.053815,"delta_lat":[0,-66078,-4761,3336,20310],"delta_lng":[0,26477,19411,56164,-19860]}},
    {"code":9950102,"left":9950103,"right":1150406,"id":"bad314","name":"南伊東","name_kana":"みなみいとう","lat":34.95757,"lng":139.087893,"prefecture":22,"lines":[99501],"attr":"eco","postal_code":"414-0037","address":"伊東市桜が丘町１","next":[9950106,9950104,9950213,9950212,1150405,9950107,9950105,1150406,9950103],"voronoi":{"lat":34.97593,"lng":139.05036,"delta_lat":[0,-5030,-12674,-49217,-4434,10013,2637,8804,35719],"delta_lng":[0,-29773,-2952,-7712,36538,40043,5280,9555,6426]}},
    {"code":9950103,"id":"f7a6a1","name":"川奈","name_kana":"かわな","lat":34.950906,"lng":139.124936,"prefecture":22,"lines":[99501],"attr":"eco","postal_code":"414-0044","address":"伊東市川奈字出口","next":[1150404,1130119,9950104,1150406,1130112,1150405,2700509,9950102],"voronoi":{"lat":35.01401,"lng":139.145665,"delta_lat":[0,7685,29091,-5859,-2527,-64225,-52145,35719],"delta_lng":[0,9308,61683,167309,4831,28634,-316090,6426]}},
    {"code":1150406,"id":"e5cd24","name":"伊東","name_kana":"いとう","lat":34.9747,"lng":139.092125,"prefecture":22,"lines":[11504,99501],"attr":"eco","postal_code":"414-0002","address":"伊東市湯川３丁目","next":[1150405,9950103,9950102],"voronoi":{"lat":34.97593,"lng":139.05036,"delta_lat":[0,38079,-52261],"delta_lng":[0,95304,-37899]}},
    {"code":9950305,"left":9950304,"right":9950310,"id":"f07a05","name":"岳南原田","name_kana":"がくなんはらだ","lat":35.166076,"lng":138.704517,"prefecture":22,"lines":[99503],"attr":"cool","postal_code":"417-0852","address":"富士市原田２１７-１","next":[9950306,1140205,1150108,9950308,9950307,9950309,9950304,1140206,1140204],"voronoi":{"lat":35.201413,"lng":138.685527,"delta_lat":[0,-46303,-223,30120,44656,8215,76947,-1483,-75480],"delta_lng":[0,16205,2834,15221,12153,1572,10082,-927,-42918]}},
    {"code":9950304,"left":100207,"right":1140206,"id":"3c8015","name":"本吉原","name_kana":"ほんよしわら","lat":35.161946,"lng":138.692716,"prefecture":22,"lines":[99503],"attr":"cool","postal_code":"417-0001","address":"富士市今泉１-１７-３９","next":[1140204,9950305,9950303,9950302,1150108],"voronoi":{"lat":35.154273,"lng":138.700223,"delta_lat":[0,5227,31989,9924,-46303],"delta_lng":[0,-8258,-12233,5794,16205]}},
    {"code":100207,"left":1140201,"right":9950302,"id":"d12d73","name":"新富士(静岡)","original_name":"新富士","name_kana":"しんふじ","lat":35.142,"lng":138.663299,"prefecture":22,"lines":[1002],"attr":"heat","postal_code":"416-0939","address":"静岡県富士市川成島６５４−１０","next":[1140201,1150108,1150110,9950303,1150111,9950302],"voronoi":{"lat":34.99747,"lng":138.689833,"delta_lat":[0,119248,9653,35462,-4295,-18751],"delta_lng":[0,-48408,-190,27893,3053,11046]}},
    {"code":1140201,"left":1150110,"right":1140202,"id":"056f2a","name":"富士","name_kana":"ふじ","lat":35.151497,"lng":138.651225,"prefecture":22,"lines":[11402,11501],"attr":"cool","postal_code":"416-0914","address":"富士市本町１丁目","next":[1140202,100207,1140203,9950303,1150110],"voronoi":{"lat":35.138619,"lng":138.637342,"delta_lat":[0,20884,6584,-4253,-35462],"delta_lng":[0,10334,20423,1029,-27893]}},
    {"code":1150110,"left":1150111,"id":"f22253","name":"富士川","name_kana":"ふじかわ","lat":35.141119,"lng":138.618571,"prefecture":22,"lines":[11501],"attr":"cool","postal_code":"421-3306","address":"静岡県富士市中之郷1228-4","next":[1140202,1150111,1140209,1150112,100207,1140201],"voronoi":{"lat":35.116718,"lng":138.641424,"delta_lat":[0,25011,15001,17819,-35931,-12247],"delta_lng":[0,-51488,-11354,30224,28535,3893]}},
    {"code":1150111,"id":"0ab3fd","name":"新蒲原","name_kana":"しんかんばら","lat":35.119599,"lng":138.608117,"prefecture":22,"lines":[11501],"attr":"cool","postal_code":"421-3203","address":"静岡市清水区蒲原","next":[1150112,1150110,1150107,1150108,1150114,100207],"voronoi":{"lat":35.116718,"lng":138.641424,"delta_lat":[0,25011,-122491,-111263,68962,20533],"delta_lng":[0,-51488,27015,86505,-8364,-5260]}},
    {"code":1140202,"id":"3e8a64","name":"柚木(JR)","original_name":"柚木","name_kana":"ゆのき","lat":35.157468,"lng":138.639157,"prefecture":22,"lines":[11402],"attr":"cool","postal_code":"416-0908","address":"静岡県富士市柚木213","next":[1140201,1140205,1140209,1150110,1140203],"voronoi":{"lat":35.179756,"lng":138.615726,"delta_lat":[0,-232,-4975,-35931,20884],"delta_lng":[0,-3129,-3791,28535,10334]}},
    {"code":9950302,"left":1150108,"right":9950303,"id":"ad37dd","name":"ジヤトコ前（ジヤトコ１地区前）","name_kana":"じゃとこまえ","lat":35.157775,"lng":138.690076,"prefecture":22,"lines":[99503],"attr":"cool","postal_code":"417-0061","address":"静岡県富士市伝法3653-2","next":[9950303,1150108,9950304,100207],"voronoi":{"lat":35.157539,"lng":138.67218,"delta_lat":[0,1962,-5227,-15486],"delta_lng":[0,19785,8258,-16997]}},
    {"code":1150108,"id":"48fa60","name":"吉原","name_kana":"よしわら","lat":35.143845,"lng":138.702768,"prefecture":22,"lines":[11501,99503],"attr":"cool","postal_code":"417-0015","address":"富士市鈴川町","next":[9950305,9950307,1150107,9950306,100207,9950302,1150111,9950304],"voronoi":{"lat":35.154888,"lng":138.704566,"delta_lat":[0,-8059,-7557,-162334,20533,141317,15486,837],"delta_lng":[0,13123,6278,-28874,-5260,-6606,16997,1508]}},
    {"code":9950303,"id":"2144ea","name":"吉原本町","name_kana":"よしわらほんちょう","lat":35.160821,"lng":138.689774,"prefecture":22,"lines":[99503],"attr":"cool","postal_code":"417-0051","address":"富士市吉原１-８４-２","next":[9950302,1140203,1140204,9950304,100207,1140201],"voronoi":{"lat":35.157539,"lng":138.67218,"delta_lat":[0,1962,31989,-15298,-10105,-4253],"delta_lng":[0,19785,-12233,-9964,-1670,1029]}},
    {"code":1140206,"left":1140207,"right":1140204,"id":"86325e","name":"源道寺","name_kana":"げんどうじ","lat":35.214463,"lng":138.627057,"prefecture":22,"lines":[11402],"attr":"cool","postal_code":"418-0034","address":"富士宮市黒田源道寺町","next":[9940117,9940116,1140209,9950305,9950309,1140207,1140205],"voronoi":{"lat":35.191176,"lng":138.611242,"delta_lat":[0,6007,157511,-17109,-11911,-10848,-1483],"delta_lng":[0,-2132,90173,30304,19005,-4998,-927]}},
    {"code":1140207,"left":1140209,"right":1140208,"id":"35637c","name":"富士宮","name_kana":"ふじのみや","lat":35.221409,"lng":138.614924,"prefecture":22,"lines":[11402],"attr":"heat","postal_code":"418-0065","address":"富士宮市中央町","next":[9940117,1140209,9940118,1140206,1140208],"voronoi":{"lat":35.363935,"lng":138.684488,"delta_lat":[0,-9241,-157511,8536,172200],"delta_lng":[0,14794,-90173,-6165,56396]}},
    {"code":1140209,"left":1140210,"id":"0f0873","name":"沼久保","name_kana":"ぬまくぼ","lat":35.199278,"lng":138.584283,"prefecture":22,"lines":[11402],"attr":"heat","postal_code":"418-0036","address":"富士宮市沼久保","next":[1140210,1140206,1140205,1140202,1150110,1150112,1140207,1140208],"voronoi":{"lat":35.227922,"lng":138.571154,"delta_lat":[0,-71184,-8,17819,4975,11651,6007,8536],"delta_lng":[0,6986,442,30224,3791,-1356,-2132,-6165]}},
    {"code":1140210,"id":"e9c597","name":"芝川","name_kana":"しばかわ","lat":35.197272,"lng":138.563845,"prefecture":22,"lines":[11402],"attr":"eco","postal_code":"419-0316","address":"静岡県富士宮市羽鮒1231","next":[1140209,1140208,1140211,1150113,1150112,1140212],"voronoi":{"lat":35.229697,"lng":138.569862,"delta_lat":[0,-1775,-71184,-7896,4934,40986],"delta_lng":[0,1292,6986,-34770,-44567,28051]}},
    {"code":1140208,"id":"854d0f","name":"西富士宮","name_kana":"にしふじのみや","lat":35.225456,"lng":138.602567,"prefecture":22,"lines":[11402],"attr":"heat","postal_code":"418-0042","address":"富士宮市貴船町","next":[1140210,1140211,9940118,1140217,1140220,1140209,1140207],"voronoi":{"lat":35.390944,"lng":138.637974,"delta_lat":[0,-34222,-6966,-120058,-1775,-22204,172200],"delta_lng":[0,-52643,-6332,-9136,1292,31790,56396]}},
    {"code":1140204,"left":1140203,"right":1140205,"id":"934559","name":"入山瀬","name_kana":"いりやませ","lat":35.188276,"lng":138.647622,"prefecture":22,"lines":[11402],"attr":"cool","postal_code":"419-0202","address":"富士市久沢","next":[1140203,9950304,9950303,9950305,1140205],"voronoi":{"lat":35.180589,"lng":138.618745,"delta_lat":[0,-4398,15298,9924,36449],"delta_lng":[0,51024,9964,5794,14222]}},
    {"code":1140203,"id":"e229e4","name":"竪堀","name_kana":"たてぼり","lat":35.168075,"lng":138.645881,"prefecture":22,"lines":[11402],"attr":"cool","postal_code":"416-0907","address":"富士市中島","next":[1140204,9950303,1140205,1140202,1140201],"voronoi":{"lat":35.159503,"lng":138.647675,"delta_lat":[0,20254,833,-4398,-10105],"delta_lng":[0,-31949,3018,51024,-1670]}},
    {"code":1140205,"id":"1f48ad","name":"富士根","name_kana":"ふじね","lat":35.205251,"lng":138.63562,"prefecture":22,"lines":[11402],"attr":"cool","postal_code":"419-0205","address":"富士市天間","next":[9950305,1140202,1140209,1140203,1140204,1140206],"voronoi":{"lat":35.191176,"lng":138.611242,"delta_lat":[0,-11651,232,833,57273,75480],"delta_lng":[0,1356,3129,3018,81004,42918]}},
    {"code":9950310,"left":1150516,"right":1150515,"id":"83b5af","name":"岳南江尾","name_kana":"がくなんえのお","lat":35.155261,"lng":138.751793,"prefecture":22,"lines":[99503],"attr":"eco","postal_code":"417-0811","address":"富士市江尾１４３-２","next":[1150106,1150515,1150514,1150107,9950309,1150513],"voronoi":{"lat":35.251444,"lng":138.808833,"delta_lat":[0,-103121,-10117,74405,956,25530],"delta_lng":[0,-67889,30272,54284,-98,-9102]}},
    {"code":1150516,"left":1150517,"right":100206,"id":"6a7034","name":"長泉なめり","name_kana":"ながいずみなめり","lat":35.147633,"lng":138.899364,"prefecture":22,"lines":[11505],"attr":"heat","postal_code":"411-0933","address":"駿東郡長泉町納米里５８-６","next":[1150515,1150517,100206,1150105,1150518],"voronoi":{"lat":35.153432,"lng":138.851665,"delta_lat":[0,33165,-37054,-13100,8019],"delta_lng":[0,-12117,88592,-23798,-36429]}},
    {"code":1150517,"left":1150105,"right":1150107,"id":"583dfc","name":"下土狩","name_kana":"しもとがり","lat":35.128379,"lng":138.895126,"prefecture":22,"lines":[11505],"attr":"heat","postal_code":"411-0943","address":"駿東郡長泉町下土狩","next":[1150518,100206,1150516,9950202],"voronoi":{"lat":35.136444,"lng":138.904342,"delta_lat":[0,8019,-31364,9578],"delta_lng":[0,-36429,29175,5426]}},
    {"code":1150105,"left":1150106,"id":"d2f4e4","name":"片浜","name_kana":"かたはま","lat":35.11825,"lng":138.818937,"prefecture":22,"lines":[11501],"attr":"cool","postal_code":"410-0875","address":"沼津市今沢","next":[9950211,1150515,1150518,1150516,1150104,1150106],"voronoi":{"lat":34.942575,"lng":138.759466,"delta_lat":[0,26491,173387,10980,33165,19353],"delta_lng":[0,27651,64184,364,-12117,-11377]}},
    {"code":1150106,"id":"cf81b1","name":"原(静岡)","original_name":"原","name_kana":"はら","lat":35.124915,"lng":138.793387,"prefecture":22,"lines":[11501],"attr":"cool","postal_code":"410-0312","address":"沼津市原","next":[9950310,9950211,1150515,1150107,1150105],"voronoi":{"lat":34.942575,"lng":138.759466,"delta_lat":[0,-51637,247268,74405,-6660],"delta_lng":[0,-46732,58483,54284,2670]}},
    {"code":1150107,"id":"8da4fa","name":"東田子の浦","name_kana":"ひがしたごのうら","lat":35.136255,"lng":138.745441,"prefecture":22,"lines":[11501],"attr":"cool","postal_code":"417-0832","address":"富士市中柏原新田","next":[9950307,1150114,1150108,9950211,9950309,9950310,1150111,1150106,9950308],"voronoi":{"lat":35.148322,"lng":138.740944,"delta_lat":[0,-10117,-247268,-2604,19642,68962,162334,3421,5470],"delta_lng":[0,30272,-58483,-1922,-7355,-8364,28874,3825,11507]}},
    {"code":100206,"left":9950202,"right":1130120,"id":"909cad","name":"三島","name_kana":"みしま","lat":35.126253,"lng":138.911133,"prefecture":22,"lines":[1002,11501,99502],"attr":"cool","postal_code":"411-0036","address":"三島市一番町","next":[9950202,1150515,1150517,1150102,9950203,1150516,9950204],"voronoi":{"lat":35.150463,"lng":138.950682,"delta_lat":[0,-919,-13100,-13767,143,16509,10529],"delta_lng":[0,-22542,-23798,-1828,14457,22760,10775]}},
    {"code":9950202,"id":"d45e17","name":"三島広小路","name_kana":"みしまひろこうじ","lat":35.119272,"lng":138.911202,"prefecture":22,"lines":[99502],"attr":"cool","postal_code":"411-0856","address":"三島市広小路町","next":[100206,1150517,1150518,9950203],"voronoi":{"lat":35.083456,"lng":138.900247,"delta_lat":[0,29642,9578,143],"delta_lng":[0,-3159,5426,14457]}},
    {"code":1130120,"id":"643229","name":"湯河原","name_kana":"ゆがわら","lat":35.146178,"lng":139.102142,"prefecture":14,"lines":[11301],"attr":"eco","postal_code":"259-0304","address":"足柄下郡湯河原町宮下","next":[1130118,1130119,9933909,100205,9933907,9933905,9933906,1150402],"voronoi":{"lat":35.166666,"lng":139.026477,"delta_lat":[0,16846,4620,1889,-29,-6216,-85369,47193],"delta_lng":[0,32398,15102,20531,1553,9621,30325,-82192]}},
    {"code":1150515,"left":9950309,"right":1130118,"id":"01cb22","name":"裾野","name_kana":"すその","lat":35.171372,"lng":138.909293,"prefecture":22,"lines":[11505],"attr":"heat","postal_code":"410-1127","address":"裾野市平松","next":[1150514,1150102,1150106,9950310,1150516,100206,1150105],"voronoi":{"lat":35.20595,"lng":138.82817,"delta_lat":[0,6660,956,-35226,-27878,-919,37054],"delta_lng":[0,-2670,-98,153567,-28288,-22542,-88592]}},
    {"code":9950309,"left":9950308,"right":9950306,"id":"61da1d","name":"神谷","name_kana":"かみや","lat":35.16103,"lng":138.74303,"prefecture":22,"lines":[99503],"attr":"eco","postal_code":"417-0821","address":"富士市神谷３７９-２","next":[1150512,9950305,9940116,1150513,1150107,9950308,1140206,9950310],"voronoi":{"lat":35.148322,"lng":138.740944,"delta_lat":[0,-160,89716,76947,10848,-3291,-17120,-53819],"delta_lng":[0,-1646,-5787,10082,4998,20160,10888,29194]}},
    {"code":9950308,"left":9950307,"id":"4a5db5","name":"須津","name_kana":"すど","lat":35.160444,"lng":138.733944,"prefecture":22,"lines":[99503],"attr":"heat","postal_code":"417-0826","address":"富士市中里１０６-２","next":[9950305,9950307,9950309,1150107],"voronoi":{"lat":35.142693,"lng":138.727791,"delta_lat":[0,86971,8215,-89716],"delta_lng":[0,4148,1572,5787]}},
    {"code":9950307,"id":"009bbf","name":"岳南富士岡","name_kana":"がくなんふじおか","lat":35.160949,"lng":138.723356,"prefecture":22,"lines":[99503],"attr":"heat","postal_code":"417-0841","address":"富士市富士岡５３８-１","next":[1150107,9950305,1150108,9950306,9950308],"voronoi":{"lat":35.185008,"lng":138.719786,"delta_lat":[0,-38179,-7557,3421,86971],"delta_lng":[0,-2098,6278,3825,4148]}},
    {"code":9950306,"id":"301801","name":"比奈","name_kana":"ひな","lat":35.161485,"lng":138.713602,"prefecture":22,"lines":[99503],"attr":"heat","postal_code":"417-0847","address":"富士市比奈１-６６６-１","next":[9950305,1150108,9950307],"voronoi":{"lat":35.146828,"lng":138.717688,"delta_lat":[0,8059,30120],"delta_lng":[0,-13123,15221]}},
    {"code":1130118,"left":1130119,"right":1150514,"id":"040305","name":"根府川","name_kana":"ねぶかわ","lat":35.202455,"lng":139.138504,"prefecture":14,"lines":[11301],"attr":"eco","postal_code":"250-0024","address":"小田原市根府川","next":[9933904,1130114,9933905,1130120,1130119,1130117],"voronoi":{"lat":35.16239,"lng":139.259177,"delta_lat":[0,21387,6216,27578,4901,-14149],"delta_lng":[0,-153494,-9621,24674,10914,79157]}},
    {"code":1130119,"id":"9923f7","name":"真鶴","name_kana":"まなづる","lat":35.156837,"lng":139.132148,"prefecture":14,"lines":[11301],"attr":"eco","postal_code":"259-0201","address":"足柄下郡真鶴町真鶴","next":[9950103,5000103,1130120,1130118,1130112,1150404,100205,1130114],"voronoi":{"lat":35.16239,"lng":139.259177,"delta_lat":[0,21387,-85369,-20310,-27312,-5859,63515,29994],"delta_lng":[0,-153494,30325,19860,60788,167309,-54131,-33890]}},
    {"code":1150514,"id":"b2a56d","name":"岩波","name_kana":"いわなみ","lat":35.21498,"lng":138.919296,"prefecture":22,"lines":[11505],"attr":"cool","postal_code":"410-1101","address":"裾野市岩波","next":[1150515,9933909,9950310,1150513,9933911,1150102],"voronoi":{"lat":35.215923,"lng":138.988459,"delta_lat":[0,18405,4768,-25530,-35226,7404],"delta_lng":[0,-5123,-167035,9102,153567,15214]}}
  ]
}