{
  "name":"segment56",
  "root":9910621,
  "east":140.998611,
  "west":140.497616,
  "south":40.555824,
  "north":90.0,
  "station_size":154,
  "node_list":[
    {"code":9910621,"left":1111913,"right":1110117,"id":"db9436","name":"末広町(北海道)","original_name":"末広町","name_kana":"すえひろちょう","lat":41.766879,"lng":140.711989,"prefecture":1,"lines":[99106],"attr":"heat","postal_code":"040-0053","address":"函館市末広町２１番","next":[9910518,9910522,9910622,9910523,1110101,9910520,9910623,9910519],"voronoi":{"lat":41.769951,"lng":140.717244,"delta_lat":[0,-9655,-1376,-4979,5530,14733,-375,-494],"delta_lng":[0,-4263,-2337,-15324,4451,17579,178,78]},"impl":true},
    {"code":1111913,"left":9920208,"right":1110405,"id":"2aed11","name":"釜谷","name_kana":"かまや","lat":41.712153,"lng":140.53718,"prefecture":1,"lines":[11119,99108],"attr":"eco","postal_code":"049-0403","address":"上磯郡木古内町字釜谷","next":[1111912,1111915,1111914,1111911,9910523,1112603],"voronoi":{"lat":41.534518,"lng":140.672266,"delta_lat":[0,280164,32497,-35262,-256032,-125426],"delta_lng":[0,-168089,-27918,6575,95105,118200]},"impl":true},
    {"code":9920208,"left":1120259,"right":1120504,"id":"07efe1","name":"津軽尾上","name_kana":"つがるおのえ","lat":40.613869,"lng":140.576068,"prefecture":2,"lines":[99202],"attr":"heat","postal_code":"036-0221","address":"平川市中佐渡南田１８-２","next":[9920206,9920213,9920209,1120254,9920207,9920212],"voronoi":{"lat":40.618858,"lng":140.611746,"delta_lat":[0,2732,-489,-33160,-14819,16531],"delta_lng":[0,-50958,-4144,34013,28439,59873]},"impl":true},
    {"code":1120259,"left":9920205,"right":101102,"id":"4cc983","name":"川部","name_kana":"かわべ","lat":40.646862,"lng":140.521376,"prefecture":2,"lines":[11202,11204,10201,99223],"attr":"eco","postal_code":"038-1141","address":"南津軽郡田舎館村大字川部","next":[9920210,1120258,9922302,1120442,9920207,9920205,9920204,1120260],"voronoi":{"lat":40.672551,"lng":140.517721,"delta_lat":[0,-35318,-20262,-129,783,6598,49,30670],"delta_lng":[0,-11617,21800,5110,2803,6905,10,-6249]},"impl":true},
    {"code":9920205,"left":9920204,"right":9920213,"id":"05dfc1","name":"館田","name_kana":"たちた","lat":40.585135,"lng":140.538617,"prefecture":2,"lines":[99202],"attr":"eco","postal_code":"036-0155","address":"平川市館田中前田９８-４","next":[9920206,9920305,1120256,9920306,1120259,9920207,9920204],"voronoi":{"lat":40.572566,"lng":140.527556,"delta_lat":[0,-276,-3970,510,27156,21638,-783],"delta_lng":[0,726,15076,6408,110,-14059,-2803]},"impl":true},
    {"code":9920204,"left":1120256,"right":9920203,"id":"ce9e50","name":"新里(青森)","original_name":"新里","name_kana":"にさと","lat":40.587445,"lng":140.519879,"prefecture":2,"lines":[99202],"attr":"eco","postal_code":"036-8083","address":"弘前市大字新里字東里見１４-２","next":[9920307,1120258,9920203,1120259,9920306,9920205],"voronoi":{"lat":40.61697,"lng":140.527905,"delta_lat":[0,-9327,-33978,-1784,685,44275],"delta_lng":[0,-14182,-4160,15137,2857,5458]},"impl":true},
    {"code":1120256,"left":9920307,"id":"235148","name":"石川(JR)","original_name":"石川","name_kana":"いしかわ","lat":40.556021,"lng":140.530951,"prefecture":2,"lines":[11202],"attr":"heat","postal_code":"036-8124","address":"青森県弘前市大字石川字野崎25-2","next":[9920306,9920205,9920305],"voronoi":{"lat":40.57229,"lng":140.528282,"delta_lat":[0,-31320,27350],"delta_lng":[0,1767,13309]},"impl":true},
    {"code":9920307,"id":"92fe1c","name":"津軽大沢","name_kana":"つがるおおさわ","lat":40.557865,"lng":140.516392,"prefecture":2,"lines":[99203],"attr":"heat","postal_code":"036-8125","address":"弘前市大字大沢字稲元１-１","next":[9920204,9920303,9920203,9920306,9920308,9920302],"voronoi":{"lat":40.49093,"lng":140.496785,"delta_lat":[0,82407,328,-1784,-58939,-2448],"delta_lng":[0,12010,768,15137,-10868,-1501]},"impl":true},
    {"code":9920203,"id":"c0d35d","name":"運動公園前(青森)","original_name":"運動公園前","name_kana":"うんどうこうえんまえ","lat":40.589527,"lng":140.502875,"prefecture":2,"lines":[99202],"attr":"eco","postal_code":"036-8102","address":"弘前市大字小比内字富田９１-３","next":[9920308,9920204,9920307,1120258,1120257,9920309,9920202],"voronoi":{"lat":40.577926,"lng":140.49319,"delta_lat":[0,-2128,-2460,328,33978,-2257,-4209],"delta_lng":[0,3323,12281,768,4160,-13633,-2403]},"impl":true},
    {"code":9920213,"left":9920207,"right":9920210,"id":"ab2efb","name":"田んぼアート","name_kana":"たんぼあーと","lat":40.632659,"lng":140.573849,"prefecture":2,"lines":[99202],"attr":"heat","postal_code":"038-1100","address":"青森県南津軽郡田舎館村","open_date":"2013-07-27","next":[9920210,9920207,9920209,9920208,9920212,9920211],"voronoi":{"lat":40.636489,"lng":140.586106,"delta_lat":[0,-14898,-489,1332,17545,-320],"delta_lng":[0,-25318,-4144,-4325,28126,2770]},"impl":true},
    {"code":9920207,"left":9920206,"id":"ad46ab","name":"柏農高校前","name_kana":"はくのうこうこうまえ","lat":40.601867,"lng":140.564367,"prefecture":2,"lines":[99202],"attr":"eco","postal_code":"036-0112","address":"平川市荒田南岡部７４-５","next":[9920213,1120259,9920205,9920208,9920210,9920206],"voronoi":{"lat":40.595987,"lng":140.549877,"delta_lat":[0,21638,6598,-1789,-1332,-33160],"delta_lng":[0,-14059,6905,9596,4325,34013]},"impl":true},
    {"code":9920206,"id":"b4af63","name":"平賀","name_kana":"ひらか","lat":40.585044,"lng":140.561048,"prefecture":2,"lines":[99202],"attr":"eco","postal_code":"036-0103","address":"平川市本町北柳田２３-５","next":[9920304,9920205,9920208,1120254,9920301,9920305,9920207],"voronoi":{"lat":40.595987,"lng":140.549877,"delta_lat":[0,-27156,-5670,-7479,204,17237,14819],"delta_lng":[0,-110,9802,28995,2240,28292,-28439]},"impl":true},
    {"code":9920210,"id":"1f7736","name":"田舎館","name_kana":"いなかだて","lat":40.637274,"lng":140.57097,"prefecture":2,"lines":[99202],"attr":"cool","postal_code":"038-1111","address":"南津軽郡田舎館村大字高樋字深山林１０-７","next":[1120259,9920213,9920211,9920207,9922302],"voronoi":{"lat":40.639979,"lng":140.580444,"delta_lat":[0,-17545,1789,49,22667],"delta_lng":[0,-28126,-9596,10,21002]},"impl":true},
    {"code":101102,"left":1120515,"right":1120260,"id":"7b5595","name":"奥津軽いまべつ","name_kana":"おくつがるいまべつ","lat":41.144877,"lng":140.51563,"prefecture":2,"lines":[1011,11118],"attr":"cool","postal_code":"030-1505","address":"青森県東津軽郡今別町大字大川平清川","next":[1120513,1111801,9920112,1120514,1120511,1120515],"voronoi":{"lat":41.160518,"lng":140.52638,"delta_lat":[0,-95563,-2495,83689,44714,46461],"delta_lng":[0,-72406,6022,151157,51328,39020]},"impl":true},
    {"code":1120515,"left":1120514,"right":1111912,"id":"dba32e","name":"大川平","name_kana":"おおかわだい","lat":41.163204,"lng":140.507592,"prefecture":2,"lines":[11205],"attr":"eco","postal_code":"030-1505","address":"東津軽郡今別町大字大川平","next":[9922408,1120517,9910523,1120516,1120514,101102,1120511],"voronoi":{"lat":41.237324,"lng":140.7015,"delta_lat":[0,-76806,-19918,11110,263358,-21715,-39201],"delta_lng":[0,-175121,-51806,5384,254033,61363,14282]},"impl":true},
    {"code":1120514,"left":1120442,"id":"e37f5b","name":"津軽二股","name_kana":"つがるふたまた","lat":41.145937,"lng":140.514231,"prefecture":2,"lines":[11205],"attr":"eco","postal_code":"030-1505","address":"東津軽郡今別町大字大川平","next":[9920112,1120517,101102,1120515,1120518],"voronoi":{"lat":41.075354,"lng":140.428251,"delta_lat":[0,-10399,95563,-19918,-37588],"delta_lng":[0,25722,72406,-51806,-30672]},"impl":true},
    {"code":1120442,"id":"f5e3fa","name":"藤崎(青森)","original_name":"藤崎","name_kana":"ふじさき","lat":40.654047,"lng":140.499531,"prefecture":2,"lines":[11204],"attr":"eco","postal_code":"038-3802","address":"南津軽郡藤崎町大字藤崎","next":[1120258,1120259,1120260,1120441],"voronoi":{"lat":40.639798,"lng":140.462228,"delta_lat":[0,-2565,35318,12777],"delta_lng":[0,43877,11617,-4780]},"impl":true},
    {"code":1111912,"id":"1ab83d","name":"泉沢","name_kana":"いずみさわ","lat":41.700867,"lng":140.506797,"prefecture":1,"lines":[11119,99108],"attr":"eco","postal_code":"049-0405","address":"上磯郡木古内町字泉沢","next":[1111911,1111913,1112603,1112602],"voronoi":{"lat":41.555884,"lng":140.57794,"delta_lat":[0,256032,-172423,-27815],"delta_lng":[0,-95105,7111,23673]},"impl":true},
    {"code":1120260,"left":9920211,"right":1120513,"id":"f7becb","name":"北常盤","name_kana":"きたときわ","lat":40.67053,"lng":140.54359,"prefecture":2,"lines":[11202],"attr":"eco","postal_code":"038-1214","address":"南津軽郡藤崎町常盤","next":[1120440,9922302,1120261,1120441,9920211,1120442,1120259],"voronoi":{"lat":40.672551,"lng":140.517721,"delta_lat":[0,12777,39081,6994,-51611,-5544,-19306],"delta_lng":[0,-4780,2984,2285,55239,-3786,-33180]},"impl":true},
    {"code":9920211,"left":9922302,"id":"b60f9b","name":"境松","name_kana":"さかいまつ","lat":40.648609,"lng":140.575691,"prefecture":2,"lines":[99202],"attr":"cool","postal_code":"036-0389","address":"黒石市境松２-４６","next":[1120261,1120260,9922302,9920210,9920212,9920213],"voronoi":{"lat":40.639979,"lng":140.580444,"delta_lat":[0,6960,27309,5544,-844,-39289],"delta_lng":[0,-16710,5929,3786,10448,-683]},"impl":true},
    {"code":9922302,"id":"4b52de","name":"前田屋敷","name_kana":"まえだやしき","closed":true,"lat":40.653417,"lng":140.553547,"prefecture":2,"lines":[10201,99223],"postal_code":"038-1102","address":"青森県南津軽郡田舎館村大字堂野前西田４９−４","open_date":"1935-04-15","closed_date":"1998-04-01","next":[1120260,1120259,9920211,9920210],"voronoi":{"lat":40.624271,"lng":140.542732,"delta_lat":[0,30670,19306,-27309],"delta_lng":[0,-6249,33180,-5929]},"impl":false},
    {"code":1120513,"id":"fb4e52","name":"大平","name_kana":"おおだい","lat":41.065866,"lng":140.559375,"prefecture":2,"lines":[11205],"attr":"eco","postal_code":"030-1307","address":"東津軽郡外ヶ浜町字蟹田大平","next":[101102,9920112,1111801],"voronoi":{"lat":40.965477,"lng":140.542771,"delta_lat":[0,96983,83689],"delta_lng":[0,-82776,151157]},"impl":true},
    {"code":1120504,"left":1120263,"right":1120508,"id":"d06ea4","name":"奥内","name_kana":"おくない","lat":40.903044,"lng":140.672382,"prefecture":2,"lines":[11205],"attr":"cool","postal_code":"038-0052","address":"青森市大字清水","next":[1120116,1120502,1120506,1120503,1120505,1120115,1120120],"voronoi":{"lat":40.938938,"lng":140.769967,"delta_lat":[0,13330,-12083,-52495,17321,3954,3993],"delta_lng":[0,848,-35661,-115273,125045,10052,4764]},"impl":true},
    {"code":1120263,"left":1120261,"right":1120502,"id":"a5f6af","name":"鶴ヶ坂","name_kana":"つるがさか","lat":40.791228,"lng":140.634878,"prefecture":2,"lines":[11202],"attr":"cool","postal_code":"038-0045","address":"青森県青森市大字鶴ケ坂字川合91-3","next":[1120503,9920212,1120261,100423,9920104,1120264,1120262,9920608,9920105],"voronoi":{"lat":40.860641,"lng":140.60292,"delta_lat":[0,-79450,-44148,-48273,7769,27162,114690,11191,22067],"delta_lng":[0,78696,27329,5119,-25325,-40592,-83986,2786,9366]},"impl":true},
    {"code":1120261,"left":9920212,"right":1120262,"id":"5bd1bb","name":"浪岡","name_kana":"なみおか","lat":40.71021,"lng":140.580664,"prefecture":2,"lines":[11202],"attr":"eco","postal_code":"038-1311","address":"青森市浪岡浪岡","next":[1120260,1120263,9920211,1120440,1120262,9920212],"voronoi":{"lat":40.723701,"lng":140.648147,"delta_lat":[0,20068,-12367,-51611,-844,17592],"delta_lng":[0,-131283,1347,55239,10448,104841]},"impl":true},
    {"code":9920212,"left":9920209,"id":"6311a9","name":"黒石(青森)","original_name":"黒石","name_kana":"くろいし","lat":40.648342,"lng":140.591045,"prefecture":2,"lines":[99202,10201,99223],"attr":"cool","postal_code":"036-0383","address":"黒石市緑町１-１１５","next":[1120263,9920608,1120254,9920213,9920209,9920211,9920208,1120261],"voronoi":{"lat":40.68877,"lng":140.714063,"delta_lat":[0,-88833,-10284,29205,17630,3170,39289,17592],"delta_lng":[0,78040,-113135,-67223,-25640,-2891,683,104841]},"impl":true},
    {"code":9920209,"id":"58dec1","name":"尾上高校前","name_kana":"おのえこうこうまえ","lat":40.627634,"lng":140.576806,"prefecture":2,"lines":[99202],"attr":"heat","postal_code":"036-0242","address":"平川市猿賀上川５０-３","next":[9920213,9920208,9920212],"voronoi":{"lat":40.621591,"lng":140.560788,"delta_lat":[0,14898,-17630],"delta_lng":[0,25318,25640]},"impl":true},
    {"code":1120262,"id":"7603e0","name":"大釈迦","name_kana":"だいしゃか","lat":40.756736,"lng":140.587776,"prefecture":2,"lines":[11202],"attr":"eco","postal_code":"038-1301","address":"青森市浪岡大釈迦","next":[1120440,1120263,9920104,9920103,1120261],"voronoi":{"lat":40.838392,"lng":140.564161,"delta_lat":[0,-19709,-65236,-9677,-20068],"delta_lng":[0,-13325,-38541,4569,131283]},"impl":true},
    {"code":1120502,"left":100423,"right":1120503,"id":"a10748","name":"油川","name_kana":"あぶらかわ","lat":40.857035,"lng":140.690476,"prefecture":2,"lines":[11205],"attr":"cool","postal_code":"038-0058","address":"青森市大字羽白","next":[1120264,1120504,100423,1120503,1120120],"voronoi":{"lat":40.905011,"lng":140.744926,"delta_lat":[0,-46678,-16967,3100,64499],"delta_lng":[0,-88526,26680,30562,41336]},"impl":true},
    {"code":100423,"left":1120264,"id":"6d47f7","name":"新青森","name_kana":"しんあおもり","lat":40.8275,"lng":140.693472,"prefecture":2,"lines":[1004,1011,11202],"attr":"cool","postal_code":"038-0003","address":"青森県青森市大字石江字高間140-2","open_date":"1986-11-01","next":[9920608,1120263,1120502,1120264,1120120],"voronoi":{"lat":40.844465,"lng":140.713641,"delta_lat":[0,-3100,-60174,-44148,24560],"delta_lng":[0,-30562,-1464,27329,7042]},"impl":true},
    {"code":1120264,"id":"fd22c6","name":"津軽新城","name_kana":"つがるしんじょう","lat":40.828022,"lng":140.672025,"prefecture":2,"lines":[11202],"attr":"cool","postal_code":"038-0042","address":"青森市大字新城","next":[1120502,1120503,100423,1120263],"voronoi":{"lat":40.860641,"lng":140.60292,"delta_lat":[0,-2309,-16967,-60174],"delta_lng":[0,53480,26680,-1464]},"impl":true},
    {"code":1120503,"id":"5c7f42","name":"津軽宮田","name_kana":"つがるみやた","lat":40.887184,"lng":140.674579,"prefecture":2,"lines":[11205],"attr":"cool","postal_code":"038-0054","address":"青森市大字奥内","next":[1120263,1120264,1120505,1120504,1120502,9920105],"voronoi":{"lat":40.860641,"lng":140.60292,"delta_lat":[0,-2309,46678,-17321,-12693,-3347],"delta_lng":[0,53480,88526,-125045,-44066,498]},"impl":true},
    {"code":1120508,"left":1120511,"right":1120506,"id":"ffa502","name":"蓬田","name_kana":"よもぎた","lat":40.969042,"lng":140.654533,"prefecture":2,"lines":[11205],"attr":"heat","postal_code":"030-1212","address":"東津軽郡蓬田村大字阿弥陀川","next":[1120507,1120506,1111801,1120509,1120115,9920107],"voronoi":{"lat":40.965136,"lng":140.726604,"delta_lat":[0,10709,17242,-24808,-10803,-7245],"delta_lng":[0,49002,6480,-216685,-15467,2464]},"impl":true},
    {"code":1120511,"left":1120509,"right":1111801,"id":"50628d","name":"蟹田","name_kana":"かにた","lat":41.038274,"lng":140.642565,"prefecture":2,"lines":[11205],"attr":"eco","postal_code":"030-1303","address":"東津軽郡外ヶ浜町蟹田","next":[1120114,1111801,1120510,1120113,9922408,101102,1120311,1120515],"voronoi":{"lat":41.237324,"lng":140.7015,"delta_lat":[0,-46461,-174061,36923,117373,40710,135056,7288],"delta_lng":[0,-39020,-51069,199974,52112,14195,-62968,-5089]},"impl":true},
    {"code":1120509,"left":1120510,"id":"3e2cbe","name":"郷沢","name_kana":"ごうさわ","lat":40.987682,"lng":140.652399,"prefecture":2,"lines":[11205],"attr":"heat","postal_code":"030-1203","address":"東津軽郡蓬田村大字郷沢","next":[1111801,1120508,1120115,1120510],"voronoi":{"lat":40.993087,"lng":140.782087,"delta_lat":[0,-24808,15476,45009],"delta_lng":[0,-216685,17819,215310]},"impl":true},
    {"code":1120510,"id":"27066a","name":"瀬辺地","name_kana":"せへじ","lat":41.007869,"lng":140.648179,"prefecture":2,"lines":[11205],"attr":"heat","postal_code":"030-1202","address":"東津軽郡蓬田村大字瀬辺地","next":[1120511,1120114,1111801,1120115,1120509],"voronoi":{"lat":40.983755,"lng":140.58322,"delta_lat":[0,33046,36923,-3742,-21218],"delta_lng":[0,28191,199974,-1268,-11587]},"impl":true},
    {"code":1111801,"id":"ae7081","name":"中小国","name_kana":"なかおぐに","lat":41.051702,"lng":140.596798,"prefecture":2,"lines":[11118,11205],"attr":"cool","postal_code":"030-1305","address":"東津軽郡外ヶ浜町蟹田小国","next":[1120511,9920112,101102,1120508,1120509,1120513,1120510,9920107],"voronoi":{"lat":40.96828,"lng":140.565402,"delta_lat":[0,15476,33046,174061,-44714,-180672,-2903,-5097],"delta_lng":[0,17819,28191,51069,-51328,-68381,1618,5545]},"impl":true},
    {"code":1120506,"left":1120505,"right":1120507,"id":"ddb580","name":"後潟","name_kana":"うしろがた","lat":40.931519,"lng":140.662734,"prefecture":2,"lines":[11205],"attr":"heat","postal_code":"030-1271","address":"青森市大字六枚橋","next":[1120504,9920106,1120505,1120508,1120507,9920105,1120115],"voronoi":{"lat":40.965136,"lng":140.726604,"delta_lat":[0,-59413,-2178,-896,37535,12083,23578],"delta_lng":[0,-160432,568,357,168056,35661,4792]},"impl":true},
    {"code":1120505,"id":"f56599","name":"左堰","name_kana":"ひだりせき","lat":40.917214,"lng":140.665929,"prefecture":2,"lines":[11205],"attr":"cool","postal_code":"030-1273","address":"青森市大字左堰","next":[1120506,1120503,1120504,9920105],"voronoi":{"lat":40.902649,"lng":140.567097,"delta_lat":[0,37535,-52495,-12693],"delta_lng":[0,168056,-115273,-44066]},"impl":true},
    {"code":1120507,"id":"668e0b","name":"中沢","name_kana":"なかさわ","lat":40.949044,"lng":140.656244,"prefecture":2,"lines":[11205],"attr":"heat","postal_code":"030-1261","address":"青森市大字四戸橋","next":[9920106,1120508,1120506,9920107],"voronoi":{"lat":40.905724,"lng":140.566172,"delta_lat":[0,59413,-14905,-18784],"delta_lng":[0,160432,-174206,4418]},"impl":true},
    {"code":1110405,"left":1110124,"right":1110108,"id":"01fab0","name":"大岸","name_kana":"おおきし","lat":42.585969,"lng":140.639036,"prefecture":1,"lines":[11104],"attr":"eco","postal_code":"049-5332","address":"虻田郡豊浦町字大岸","next":[1110404,1110208,1110406,1110407,1110408,1110209],"voronoi":{"lat":42.699155,"lng":140.653023,"delta_lat":[0,-9992,-299556,50760,6679,245511],"delta_lng":[0,-49350,37745,23819,1894,18161]},"impl":true},
    {"code":1110124,"left":1111915,"right":1010305,"id":"8e86e6","name":"桂川(北海道)","original_name":"桂川","name_kana":"かつらがわ","closed":true,"lat":42.1156004,"lng":140.5427876,"prefecture":1,"lines":[11101],"attr":"unknown","postal_code":"049-2321","address":"茅部郡森町字鷲ノ木町","open_date":"1944-09-30","closed_date":"2017-03-04","next":[1110123,1110125,1110113,1110111],"voronoi":{"lat":42.074087,"lng":140.550103,"delta_lat":[0,160790,-291877,77926],"delta_lng":[0,34600,-160324,88405]},"impl":true},
    {"code":1111915,"left":1110122,"right":1110112,"id":"e0dcae","name":"茂辺地","name_kana":"もへじ","lat":41.766604,"lng":140.600561,"prefecture":1,"lines":[11119,99108],"attr":"eco","postal_code":"049-0281","address":"北斗市茂辺地","next":[1111914,1111913,1110107,9910623,1111911,1111916,9910523],"voronoi":{"lat":41.768925,"lng":140.652531,"delta_lat":[0,100087,13057,-34891,-32497,-108469,23137],"delta_lng":[0,-132379,-61628,17736,27918,148126,2662]},"impl":true},
    {"code":1110122,"left":1110113,"right":1110123,"id":"705d7d","name":"東森","name_kana":"ひがしもり","lat":42.106823,"lng":140.59353,"prefecture":1,"lines":[11101],"attr":"eco","postal_code":"049-2302","address":"茅部郡森町字港町","next":[1110121,1110113,1110123],"voronoi":{"lat":42.092992,"lng":140.607039,"delta_lat":[0,1841,74240],"delta_lng":[0,-24737,7897]},"impl":true},
    {"code":1110113,"left":1111914,"id":"611954","name":"姫川(北海道)","original_name":"姫川","name_kana":"ひめかわ","closed":true,"lat":42.081312,"lng":140.591632,"prefecture":1,"lines":[11101],"attr":"unknown","postal_code":"049-2306","address":"茅部郡森町字姫川","open_date":"1951-05-19","closed_date":"2017-03-04","next":[1110112,1110121,1110111,1110122,1110123,1110124],"voronoi":{"lat":42.020925,"lng":140.512784,"delta_lat":[0,15616,48506,7944,1841,-20746],"delta_lng":[0,35222,69929,-10896,-24737,-32199]},"impl":true},
    {"code":1111914,"id":"94b9f4","name":"渡島当別","name_kana":"おしまとうべつ","lat":41.737309,"lng":140.579109,"prefecture":1,"lines":[11119,99108],"attr":"eco","postal_code":"049-0282","address":"北斗市当別","open_date":"1930-10-25","next":[1111915,1111913,9910523],"voronoi":{"lat":41.814682,"lng":140.504177,"delta_lat":[0,-108469,-171695],"delta_lng":[0,148126,19963]},"impl":true},
    {"code":1110123,"id":"3b6a82","name":"森(北海道)","original_name":"森","name_kana":"もり","lat":42.108917,"lng":140.573846,"prefecture":1,"lines":[11101],"attr":"eco","postal_code":"049-2325","address":"茅部郡森町字本町","next":[1110125,1110124,1110113,1110121,1110122],"voronoi":{"lat":42.094832,"lng":140.582301,"delta_lat":[0,-20746,160790,3636,-69440],"delta_lng":[0,-32199,34600,1437,4059]},"impl":true},
    {"code":1110112,"left":1110107,"right":1110121,"id":"469432","name":"東山(北海道)","original_name":"東山","name_kana":"ひがしやま","closed":true,"lat":42.06172,"lng":140.605222,"prefecture":1,"lines":[11101],"attr":"unknown","postal_code":"049-2141","address":"茅部郡森町字駒ケ岳","open_date":"1943-02-26","closed_date":"2017-03-04","next":[1110113,1110120,1110111,1110121],"voronoi":{"lat":42.063165,"lng":140.664102,"delta_lat":[0,-26623,48506,-3322],"delta_lng":[0,-116096,69929,19989]},"impl":true},
    {"code":1110107,"left":1110111,"id":"e51cf1","name":"仁山","name_kana":"にやま","lat":41.930011,"lng":140.635183,"prefecture":1,"lines":[11101],"attr":"heat","postal_code":"041-1101","address":"亀田郡七飯町字仁山","next":[1111915,1111907,1110111,1110125,101104,1110110,1110108,1111916,1111911],"voronoi":{"lat":41.869012,"lng":140.520152,"delta_lat":[0,825,63251,34239,5967,-34930,-12123,-3732,-40440],"delta_lng":[0,16834,137248,-42036,-58316,-153816,-19363,1975,55846]},"impl":true},
    {"code":1110111,"id":"a3c96d","name":"駒ヶ岳","name_kana":"こまがたけ","lat":42.038809,"lng":140.610476,"prefecture":1,"lines":[11101],"attr":"cool","postal_code":"049-2300","address":"北海道茅部郡森町字駒ヶ岳","next":[1110120,1110125,1110110,1110107,1110113,1110112,1110124],"voronoi":{"lat":42.036541,"lng":140.548005,"delta_lat":[0,26623,-2663,-87207,-34930,4635,77926],"delta_lng":[0,116096,6032,-96252,-153816,4313,88405]},"impl":true},
    {"code":1110121,"id":"c96830","name":"尾白内","name_kana":"おしろない","lat":42.111232,"lng":140.613449,"prefecture":1,"lines":[11101],"attr":"eco","postal_code":"049-2301","address":"茅部郡森町字尾白内町","next":[1110113,1110122,1110125,1110123,1110120,1110112],"voronoi":{"lat":42.266797,"lng":140.592564,"delta_lat":[0,-28285,-69440,-76081,-7944,-3322],"delta_lng":[0,-6425,4059,16840,10896,19989]},"impl":true},
    {"code":1010305,"left":1110207,"right":1010303,"id":"b772eb","name":"西前田(北海道)","original_name":"西前田","name_kana":"にしまえだ","closed":true,"lat":43.000056,"lng":140.542583,"prefecture":1,"lines":[10103],"postal_code":"045-0031","address":"北海道岩内郡共和町梨野舞納１９","open_date":"1963-10-01","closed_date":"1985-07-01","next":[1010306,1010304,1110216,1111551,1110214],"voronoi":{"lat":43.601837,"lng":140.292432,"delta_lat":[0,1446785,587,-2090715,173862],"delta_lng":[0,-1070309,-1235,1329695,44469]},"impl":false},
    {"code":1110207,"left":1110403,"right":1010306,"id":"fca41a","name":"蘭越","name_kana":"らんこし","lat":42.804542,"lng":140.52894,"prefecture":1,"lines":[11102],"attr":"heat","postal_code":"048-1301","address":"磯谷郡蘭越町蘭越町","next":[1110206,1010306,1110208,1010304],"voronoi":{"lat":42.896475,"lng":140.558434,"delta_lat":[0,-9317,-185474,191389],"delta_lng":[0,-132152,126519,18687]},"impl":true},
    {"code":1110403,"left":1110125,"id":"c48d1f","name":"小幌","name_kana":"こぼろ","lat":42.589731,"lng":140.537361,"prefecture":1,"lines":[11104],"attr":"eco","postal_code":"049-5333","address":"虻田郡豊浦町字礼文華","next":[1110206,1110138,1110404,1110208,1110402],"voronoi":{"lat":42.671795,"lng":140.492473,"delta_lat":[0,25659,-8187,-302065,51924],"delta_lng":[0,61514,29023,-48774,-24717]},"impl":true},
    {"code":1110125,"id":"de62e7","name":"石谷","name_kana":"いしや","lat":42.135519,"lng":140.506525,"prefecture":1,"lines":[11101],"attr":"eco","postal_code":"049-2464","address":"茅部郡森町字本茅部町","next":[1110111,1110127,1110126,1111907,1110123,1110107,1110121,1110124,1110120,1111906],"voronoi":{"lat":41.926242,"lng":140.400702,"delta_lat":[0,12123,4635,291877,3636,28285,34375,-713,-344210,-24232],"delta_lng":[0,19363,4313,160324,1437,6425,4021,-553,-240463,35515]},"impl":true},
    {"code":1010306,"id":"94ccac","name":"岩内","name_kana":"いわない","closed":true,"lat":42.983361,"lng":140.516333,"prefecture":1,"lines":[10103],"postal_code":"045-0003","address":"北海道岩内郡岩内町字万代４７-４","open_date":"1912-11-01","closed_date":"1985-07-01","next":[1010305,1010304,1111551,9911105,1110207,9911103,1110206],"voronoi":{"lat":42.901144,"lng":140.364929,"delta_lat":[0,4384,2355788,-212108,-2090715,-62018,-9317],"delta_lng":[0,-4383,-1578353,438695,1329695,7851,-132152]},"impl":false},
    {"code":1010303,"left":1110208,"right":1010304,"id":"88730b","name":"幌似","name_kana":"ほろに","closed":true,"lat":42.984667,"lng":140.61375,"prefecture":1,"lines":[10103],"postal_code":"045-0121","address":"北海道岩内郡共和町幌似９６−７","open_date":"1919-12-05","closed_date":"1985-07-01","next":[1110208,1010304,1010302,1110213],"voronoi":{"lat":43.100879,"lng":140.61577,"delta_lat":[0,-207094,-3925,160629],"delta_lng":[0,-36871,41527,23236]},"impl":false},
    {"code":1110208,"left":1110404,"id":"1a622d","name":"昆布","name_kana":"こんぶ","lat":42.797984,"lng":140.596107,"prefecture":1,"lines":[11102],"attr":"heat","postal_code":"048-1302","address":"磯谷郡蘭越町昆布町","next":[1110404,1010304,1110405,1010303,1010302,1110403,1110206,1110207,1110209],"voronoi":{"lat":42.886748,"lng":140.630206,"delta_lat":[0,3113,3925,-712,-191389,-4231,-8187,-104,9992],"delta_lng":[0,-9780,-41527,-7411,-18687,1187,29023,20662,49350]},"impl":true},
    {"code":1110404,"id":"f3b4e4","name":"礼文","name_kana":"れぶん","lat":42.580422,"lng":140.595013,"prefecture":1,"lines":[11104],"attr":"eco","postal_code":"049-5333","address":"虻田郡豊浦町字礼文華","next":[1110208,1110405,1110408,1110403,1110127,1110120,1110138],"voronoi":{"lat":42.387202,"lng":140.534236,"delta_lat":[0,302065,-104,-299556,-38933,-2001,23936],"delta_lng":[0,48774,20662,37745,-13142,-18103,-71428]},"impl":true},
    {"code":1010304,"id":"8ea4ea","name":"前田","name_kana":"まえだ","closed":true,"lat":42.991111,"lng":140.577556,"prefecture":1,"lines":[10103],"postal_code":"048-2201","address":"北海道岩内郡共和町前田１１−２","open_date":"1912-11-01","closed_date":"1985-07-01","next":[1110208,1010306,1010303,1110214,1110207,1110213,1010305],"voronoi":{"lat":42.958493,"lng":140.550583,"delta_lat":[0,-62018,-3402,712,207094,12027,19449],"delta_lng":[0,7851,13054,7411,36871,-4345,-16373]},"impl":false},
    {"code":1110108,"left":1111919,"right":1110212,"id":"9c8c93","name":"大沼","name_kana":"おおぬま","lat":41.971954,"lng":140.669347,"prefecture":1,"lines":[11101],"attr":"heat","postal_code":"041-1354","address":"北海道亀田郡七飯町字大沼町４","open_date":"1903-06-28","next":[101104,1110110,1110107,1110105,1110109,1110114],"voronoi":{"lat":41.9756,"lng":140.688301,"delta_lat":[0,2010,-10283,-34239,-2828,6609],"delta_lng":[0,-44030,-12073,42036,8248,29240]},"impl":true},
    {"code":1111919,"left":1111918,"right":1111920,"id":"077d91","name":"東久根別","name_kana":"ひがしくねべつ","lat":41.826005,"lng":140.679731,"prefecture":1,"lines":[11119,99108],"attr":"eco","postal_code":"049-0121","address":"北斗市久根別","next":[1110105,1110103,1111920,9910623,1111918,1110104],"voronoi":{"lat":41.840428,"lng":140.699355,"delta_lat":[0,-43537,-7142,68089,-1310,-11780],"delta_lng":[0,-12898,-15351,3706,9053,13445]},"impl":true},
    {"code":1111918,"left":1111917,"right":101104,"id":"f23100","name":"久根別","name_kana":"くねべつ","lat":41.826727,"lng":140.666468,"prefecture":1,"lines":[11119,99108],"attr":"eco","postal_code":"049-0121","address":"北斗市久根別","next":[101104,9910623,1110105,1111917,1111919],"voronoi":{"lat":41.78975,"lng":140.671106,"delta_lat":[0,-3704,79262,139,-7608],"delta_lng":[0,-5249,-12343,548,20750]},"impl":true},
    {"code":1111917,"left":1111916,"id":"9fb53f","name":"清川口","name_kana":"きよかわぐち","lat":41.824615,"lng":140.652906,"prefecture":1,"lines":[11119,99108],"attr":"eco","postal_code":"049-0100","address":"北斗市会所町","next":[101104,9910623,1111916,1111918],"voronoi":{"lat":41.783002,"lng":140.662806,"delta_lat":[0,80430,1875,-79262],"delta_lng":[0,-33036,23744,12343]},"impl":true},
    {"code":1111916,"id":"002870","name":"上磯","name_kana":"かみいそ","lat":41.81956,"lng":140.640599,"prefecture":1,"lines":[11119,99108],"attr":"eco","postal_code":"049-0161","address":"北斗市飯生","next":[9910623,101104,1110107,1111915,1111917],"voronoi":{"lat":41.863432,"lng":140.629771,"delta_lat":[0,6405,-825,-100087,14077],"delta_lng":[0,-92785,-16834,132379,10276]},"impl":true},
    {"code":101104,"id":"fbe0a2","name":"新函館北斗","name_kana":"しんはこだてほくと","lat":41.9054,"lng":140.646525,"prefecture":1,"lines":[1011,11101],"attr":"eco","postal_code":"041-1242","address":"北海道北斗市市渡","open_date":"1902-12-10","next":[1110108,1111918,1111916,1110107,1111917,1110105],"voronoi":{"lat":41.865447,"lng":140.654063,"delta_lat":[0,-139,-1875,6405,63251,-2828],"delta_lng":[0,-548,-23744,-92785,137248,8248]},"impl":true},
    {"code":1111920,"left":9910622,"right":1110105,"id":"1160b7","name":"七重浜","name_kana":"ななえはま","lat":41.817643,"lng":140.707957,"prefecture":1,"lines":[11119,99108],"attr":"eco","postal_code":"049-0111","address":"北斗市七重浜２丁目","next":[1110103,9910623,1110102,1111919],"voronoi":{"lat":41.825131,"lng":140.728749,"delta_lat":[0,-30285,2045,43537],"delta_lng":[0,-16676,-25616,12898]},"impl":true},
    {"code":9910622,"left":9910623,"id":"dd490a","name":"大町(北海道)","original_name":"大町","name_kana":"おおまち","lat":41.770207,"lng":140.7092,"prefecture":1,"lines":[99106],"attr":"heat","postal_code":"040-0052","address":"函館市大町７番","next":[9910621,9910623,1110101],"voronoi":{"lat":41.785757,"lng":140.714999,"delta_lat":[0,-26286,14733],"delta_lng":[0,-15229,17579]},"impl":true},
    {"code":9910623,"id":"5d2ab7","name":"函館どつく前","name_kana":"はこだてどっくまえ","lat":41.772992,"lng":140.704393,"prefecture":1,"lines":[99106],"attr":"heat","postal_code":"040-0057","address":"函館市入舟町１番","next":[1111916,9910523,1110102,1111918,1111920,1111915,9910622,1111917,1111919,9910621,1110101],"voronoi":{"lat":41.759472,"lng":140.69977,"delta_lat":[0,-5530,-24592,39576,14077,3043,3704,7142,-2045,-2587,-6502],"delta_lng":[0,-4451,-40354,-2435,10276,3051,5249,15351,25616,2714,212]},"impl":true},
    {"code":1110105,"id":"233872","name":"七飯","name_kana":"ななえ","lat":41.886971,"lng":140.688556,"prefecture":1,"lines":[11101],"attr":"heat","postal_code":"041-1111","address":"亀田郡七飯町字本町","next":[1111919,1110104,1110108,1110114,101104,1111918],"voronoi":{"lat":41.856528,"lng":140.683866,"delta_lat":[0,75822,4519,-6609,-64814,-7608],"delta_lng":[0,67659,-39803,-29240,-28419,20750]},"impl":true},
    {"code":1110212,"left":1110120,"right":1110119,"id":"f6aa1e","name":"小沢","name_kana":"こざわ","lat":42.97185,"lng":140.677657,"prefecture":1,"lines":[11102,10103],"attr":"heat","postal_code":"048-2142","address":"岩内郡共和町小沢","next":[1010221,1110210,1110211,1110213,1110209,1010302],"voronoi":{"lat":42.888558,"lng":140.640175,"delta_lat":[0,29,12216,72475,3030,40268],"delta_lng":[0,676,33500,75035,2206,-73813]},"impl":true},
    {"code":1110120,"left":1110109,"right":1010302,"id":"c7d1b0","name":"掛澗","name_kana":"かかりま","lat":42.119205,"lng":140.64598,"prefecture":1,"lines":[11101],"attr":"eco","postal_code":"049-2221","address":"茅部郡森町砂原西３丁目","next":[1110119,1110112,1110111,1110110,1110125,1110408,1110404,1110121,1110127],"voronoi":{"lat":42.350673,"lng":140.628276,"delta_lat":[0,-10182,-280017,27,2663,18561,185072,34375,47500],"delta_lng":[0,27113,15685,-940,-6032,-26178,-45359,4021,13587]},"impl":true},
    {"code":1110109,"left":1110110,"id":"82d18d","name":"大沼公園","name_kana":"おおぬまこうえん","lat":41.980958,"lng":140.669758,"prefecture":1,"lines":[11101],"attr":"cool","postal_code":"041-1354","address":"北海道亀田郡七飯町字大沼町８５","open_date":"1907-06-05","next":[1110114,1110110,1110108],"voronoi":{"lat":41.97761,"lng":140.644271,"delta_lat":[0,37988,-39998],"delta_lng":[0,31296,12734]},"impl":true},
    {"code":1110110,"id":"7ea221","name":"赤井川","name_kana":"あかいがわ","lat":42.003267,"lng":140.642678,"prefecture":1,"lines":[11101],"attr":"cool","postal_code":"049-2142","address":"茅部郡森町字赤井川","next":[1110114,1110111,1110120,1110119,1110107,1110109,1110108,1110116],"voronoi":{"lat":42.059381,"lng":140.67384,"delta_lat":[0,1093,27,-87207,-5967,10283,37988,13682],"delta_lng":[0,-2766,-940,-96252,58316,12073,31296,2984]},"impl":true},
    {"code":1010302,"id":"d17f1b","name":"国富","name_kana":"くにとみ","closed":true,"lat":42.978889,"lng":140.653694,"prefecture":1,"lines":[10103],"postal_code":"048-2143","address":"北海道岩内郡共和町国富６３−５","open_date":"1913-09-21","closed_date":"1985-07-01","next":[1110208,1010303,1110212,1110213,1110209],"voronoi":{"lat":43.016576,"lng":140.67778,"delta_lat":[0,33914,-160629,-3113,1810],"delta_lng":[0,-34118,-23236,9780,9970]},"impl":false},
    {"code":1110119,"left":1110114,"right":1110209,"id":"250722","name":"渡島砂原","name_kana":"おしまさはら","lat":42.12164,"lng":140.689451,"prefecture":1,"lines":[11101],"attr":"cool","postal_code":"049-2222","address":"茅部郡森町砂原４丁目","next":[1110120,1110409,1110118,1110110,1110410,1110116,1110408,1110413],"voronoi":{"lat":42.323223,"lng":140.714708,"delta_lat":[0,1101,2949,13218,-280017,-1093,9804,215645],"delta_lng":[0,-2302,-7490,-49527,15685,2766,33359,54073]},"impl":true},
    {"code":1110114,"id":"95298f","name":"池田園","name_kana":"いけだえん","lat":41.990692,"lng":140.700333,"prefecture":1,"lines":[11101],"attr":"cool","postal_code":"041-1352","address":"亀田郡七飯町字軍川","next":[1110116,1110110,1110115,1110109,1110105,1110108,1110104],"voronoi":{"lat":41.93235,"lng":140.751525,"delta_lat":[0,4519,38731,39998,13682,-9733,-86374],"delta_lng":[0,-39803,-23421,-12734,2984,11868,68942]},"impl":true},
    {"code":1110209,"id":"4f1c32","name":"ニセコ","name_kana":"にせこ","lat":42.808746,"lng":140.684588,"prefecture":1,"lines":[11102],"attr":"heat","postal_code":"048-1512","address":"虻田郡ニセコ町字中央通","next":[1110406,1010213,1110208,1110212,1110210,1010302,1110405],"voronoi":{"lat":42.706537,"lng":140.789072,"delta_lat":[0,40865,141184,-29,-1810,-187593,-6598],"delta_lng":[0,-401,-147819,-676,-9970,22817,32269]},"impl":true},
    {"code":1110117,"left":9910511,"right":1110411,"id":"c3e36f","name":"鹿部","name_kana":"しかべ","lat":42.06439,"lng":140.771393,"prefecture":1,"lines":[11101],"attr":"cool","postal_code":"041-1404","address":"茅部郡鹿部町字本別","next":[1110104,1110417,1110116,1110118,9910501,1110416,1110115,1110103],"voronoi":{"lat":41.947647,"lng":141.162033,"delta_lat":[0,162031,56747,-101599,-86516,-47102,-1390,-1351],"delta_lng":[0,-187437,-70400,-182176,83416,52127,4804,6079]},"impl":true},
    {"code":9910511,"left":1110101,"right":9910501,"id":"0e86e0","name":"千代台","name_kana":"ちよがだい","lat":41.784257,"lng":140.748532,"prefecture":1,"lines":[99105,99106],"attr":"cool","postal_code":"040-0013","address":"函館市千代台町１６番","next":[9910507,1110102,9910512,9910510,9910509,9910508],"voronoi":{"lat":41.763613,"lng":140.761835,"delta_lat":[0,28206,1359,-2527,-11000,-8246],"delta_lng":[0,-23489,1750,3970,12659,3392]},"impl":true},
    {"code":1110101,"left":9910519,"right":1110102,"id":"d8aab0","name":"函館","name_kana":"はこだて","lat":41.773709,"lng":140.726413,"prefecture":1,"lines":[11101,11119],"attr":"eco","postal_code":"040-0063","address":"北海道函館市若松町１２-１３","open_date":"1902-12-10","next":[9910514,1110102,9910518,9910622,9910621,9910515,9910623,9910517],"voronoi":{"lat":41.771256,"lng":140.72591,"delta_lat":[0,2574,375,11553,6502,-3565,-4175,-5611],"delta_lng":[0,-8383,-178,-2350,-212,14933,841,513]},"impl":true},
    {"code":9910519,"left":9910521,"right":9910516,"id":"ec60fc","name":"魚市場通","name_kana":"うおいちばどおり","lat":41.765838,"lng":140.721731,"prefecture":1,"lines":[99105,99106],"attr":"eco","postal_code":"040-0065","address":"函館市豊川町２２番","next":[9910521,9910520,9910518,9910621],"voronoi":{"lat":41.769951,"lng":140.717244,"delta_lat":[0,-6590,-4152,14126],"delta_lng":[0,3769,10219,-13626]},"impl":true},
    {"code":9910521,"left":9910522,"right":9910520,"id":"dcc331","name":"宝来町","name_kana":"ほうらいちょう","lat":41.761085,"lng":140.7198,"prefecture":1,"lines":[99105],"attr":"eco","postal_code":"040-0043","address":"函館市宝来町１０番","next":[9910520,9910522,9910516,9910519,9910518],"voronoi":{"lat":41.753085,"lng":140.736527,"delta_lat":[0,7177,3099,-4152,-758],"delta_lng":[0,-22530,7015,10219,1157]},"impl":true},
    {"code":9910522,"left":9910523,"id":"2bf7b6","name":"青柳町","name_kana":"あおやぎちょう","lat":41.756235,"lng":140.718255,"prefecture":1,"lines":[99105],"attr":"eco","postal_code":"040-0044","address":"函館市青柳町２１番","next":[9910621,9910521,9910523,9910520,9910516],"voronoi":{"lat":41.758921,"lng":140.710643,"delta_lat":[0,1376,-34,-7177,-28151],"delta_lng":[0,2337,1017,22530,28678]},"impl":true},
    {"code":9910523,"id":"4656eb","name":"谷地頭","name_kana":"やちがしら","lat":41.753273,"lng":140.71641,"prefecture":1,"lines":[99105],"attr":"eco","postal_code":"040-0046","address":"函館市谷地頭町２５番","next":[9910516,9922408,9910623,9910621,9910522,1120516,1120515,9910501,1111913,1111915,1111914,9910502,1112603],"voronoi":{"lat":41.430459,"lng":140.69614,"delta_lat":[0,104059,171695,23137,24592,4979,-33986,-2634,-148335,-95310,-85303,21715,14794],"delta_lng":[0,-23873,-19963,2662,40354,15324,54562,2855,58181,36053,-66941,-61363,-37549]},"impl":true},
    {"code":9910520,"id":"bb807b","name":"十字街","name_kana":"じゅうじがい","lat":41.763998,"lng":140.718513,"prefecture":1,"lines":[99105,99106],"attr":"eco","postal_code":"040-0053","address":"函館市末広町９番","next":[9910521,9910522,9910621,9910519],"voronoi":{"lat":41.769951,"lng":140.717244,"delta_lat":[0,-9655,-34,3099],"delta_lng":[0,-4263,1017,7015]},"impl":true},
    {"code":9910516,"left":1120120,"right":9910517,"id":"bea3b4","name":"松風町","name_kana":"まつかぜちょう","lat":41.771296,"lng":140.733039,"prefecture":1,"lines":[99105,99106],"attr":"heat","postal_code":"040-0035","address":"函館市松風町１１番","next":[9910523,9910514,9910521,9910517,9910502,9910518,9910515,9910522],"voronoi":{"lat":41.7223,"lng":140.768061,"delta_lat":[0,18268,4813,30934,-8045,-9819,-5366,-28151],"delta_lng":[0,-3113,-4229,-29042,-2144,2856,4139,28678]},"impl":true},
    {"code":1120120,"left":9910518,"id":"f1cf2c","name":"青森","name_kana":"あおもり","lat":40.828668,"lng":140.734738,"prefecture":2,"lines":[11201,11202,11205,99206],"attr":"cool","postal_code":"038-0012","address":"青森市柳川１丁目","next":[1120117,9920608,1120116,100423,1120119,1120502,1120504],"voronoi":{"lat":40.874626,"lng":140.767901,"delta_lat":[0,-25839,-12655,-74529,82862,64499,3993],"delta_lng":[0,1812,-4877,-48849,-2345,41336,4764]},"impl":true},
    {"code":9910518,"id":"348c47","name":"市役所前(北海道)","original_name":"市役所前","name_kana":"しやくしょまえ","lat":41.768943,"lng":140.72495,"prefecture":1,"lines":[99105,99106],"attr":"heat","postal_code":"040-0064","address":"函館市大手町１１番","next":[9910621,9910517,1110101,9910516,9910521,9910519],"voronoi":{"lat":41.758451,"lng":140.732389,"delta_lat":[0,9819,2985,2574,-494,-14126],"delta_lng":[0,-2856,-3622,-8383,78,13626]},"impl":true},
    {"code":9910517,"id":"e16e64","name":"函館駅前","name_kana":"はこだてえきまえ","lat":41.77264,"lng":140.727997,"prefecture":1,"lines":[99105,99106],"attr":"heat","postal_code":"040-0063","address":"函館市若松町１５番","next":[9910515,9910518,9910516,1110101],"voronoi":{"lat":41.776316,"lng":140.731677,"delta_lat":[0,-8045,2985,7653],"delta_lng":[0,-2144,-3622,5164]},"impl":true},
    {"code":1110102,"left":1110115,"right":9910513,"id":"61b622","name":"五稜郭","name_kana":"ごりょうかく","lat":41.803557,"lng":140.733539,"prefecture":1,"lines":[11101,11119,99108],"attr":"eco","postal_code":"041-0813","address":"函館市亀田本町","next":[9910513,1110103,9910511,9910623,1111920,1110101,9910512,9910507,9910508,9910514,9910509],"voronoi":{"lat":41.833528,"lng":140.768007,"delta_lat":[0,1470,-9867,-30285,-2587,-3565,115,1048,1961,1359,22550],"delta_lng":[0,725,-39982,-16676,2714,14933,629,3637,4360,1750,17638]},"impl":true},
    {"code":1110115,"left":1110103,"right":1110116,"id":"a3b416","name":"流山温泉","name_kana":"ながれやまおんせん","lat":42.003483,"lng":140.716358,"prefecture":1,"lines":[11101],"attr":"cool","postal_code":"041-1351","address":"亀田郡七飯町字東大沼２３６","next":[1110114,1110104,1110116,1110117],"voronoi":{"lat":41.978311,"lng":140.805436,"delta_lat":[0,41237,-86374,-1965],"delta_lng":[0,-115018,68942,98203]},"impl":true},
    {"code":1110103,"left":1110104,"id":"d35955","name":"桔梗","name_kana":"ききょう","lat":41.846457,"lng":140.722952,"prefecture":1,"lines":[11101],"attr":"heat","postal_code":"041-0801","address":"北海道函館市桔梗３丁目４１-３６","open_date":"1902-12-10","next":[1110102,9910507,9910506,1111920,1111919,9910501,1110104,1110117],"voronoi":{"lat":41.929819,"lng":140.862367,"delta_lat":[0,-85070,-4320,-15297,9867,5529,21654,66286],"delta_lng":[0,-165057,2045,29394,39982,7654,27325,64736]},"impl":true},
    {"code":1110104,"id":"5a1ac2","name":"大中山","name_kana":"おおなかやま","lat":41.864641,"lng":140.71358,"prefecture":1,"lines":[11101],"attr":"heat","postal_code":"041-1121","address":"亀田郡七飯町大字大中山","next":[1110105,1110117,1110115,1110103,1111919,1110114],"voronoi":{"lat":41.931209,"lng":140.857564,"delta_lat":[0,-1390,-85070,11780,75822,823],"delta_lng":[0,4804,-165057,-13445,67659,7836]},"impl":true},
    {"code":1110116,"id":"44013a","name":"銚子口","name_kana":"ちょうしぐち","lat":42.015471,"lng":140.720656,"prefecture":1,"lines":[11101],"attr":"cool","postal_code":"041-1351","address":"亀田郡七飯町字東大沼","next":[1110114,1110118,1110117,1110115,1110110,1110119],"voronoi":{"lat":42.059381,"lng":140.67384,"delta_lat":[0,-30101,-9733,-41237,86516,4359],"delta_lng":[0,4711,11868,115018,-83416,-14822]},"impl":true},
    {"code":9910513,"left":9910514,"right":9910512,"id":"f13cee","name":"昭和橋","name_kana":"しょうわばし","lat":41.778017,"lng":140.740893,"prefecture":1,"lines":[99105,99106],"attr":"cool","postal_code":"040-0025","address":"函館市堀川町６番","next":[9910502,1110102,9910512,9910505,9910514],"voronoi":{"lat":41.78881,"lng":140.730349,"delta_lat":[0,1048,-37430,-3456,-2770],"delta_lng":[0,3637,29678,668,133]},"impl":true},
    {"code":9910514,"left":9910515,"id":"afab18","name":"千歳町(北海道)","original_name":"千歳町","name_kana":"ちとせちょう","lat":41.776161,"lng":140.738575,"prefecture":1,"lines":[99105,99106],"attr":"heat","postal_code":"040-0032","address":"函館市新川町２３番","next":[9910516,1110101,9910515,9910502,9910513,1110102],"voronoi":{"lat":41.788694,"lng":140.72972,"delta_lat":[0,-4175,-39138,-4813,5633,42608],"delta_lng":[0,841,30157,4229,-482,-34116]},"impl":true},
    {"code":9910515,"id":"9ab459","name":"新川町(北海道)","original_name":"新川町","name_kana":"しんかわちょう","lat":41.77464,"lng":140.736601,"prefecture":1,"lines":[99105,99106],"attr":"heat","postal_code":"040-0032","address":"函館市新川町１番","next":[9910517,9910514,9910516,1110101],"voronoi":{"lat":41.776316,"lng":140.731677,"delta_lat":[0,-30934,39138,-5611],"delta_lng":[0,29042,-30157,513]},"impl":true},
    {"code":9910512,"id":"2a9692","name":"堀川町","name_kana":"ほりかわちょう","lat":41.780433,"lng":140.74394,"prefecture":1,"lines":[99105,99106],"attr":"cool","postal_code":"040-0014","address":"函館市中島町２１番","next":[9910511,9910513,1110102,9910507,9910505],"voronoi":{"lat":41.789857,"lng":140.733986,"delta_lat":[0,1961,-28206,-1476,-9709],"delta_lng":[0,4360,23489,520,1309]},"impl":true},
    {"code":9910501,"left":1120117,"right":9910506,"id":"c96dff","name":"湯の川","name_kana":"ゆのかわ","lat":41.781073,"lng":140.789902,"prefecture":1,"lines":[99105,99106],"attr":"cool","postal_code":"042-0932","address":"函館市湯川町２-１８","next":[9910503,9922408,1110103,9910523,1110117,9910506,1110417,9910502,9910504],"voronoi":{"lat":41.862181,"lng":140.803711,"delta_lat":[0,66286,19180,-47531,-421461,95310,211606,15094,34004],"delta_lng":[0,64736,293587,127362,-427101,-36053,-39785,1897,6975]},"impl":true},
    {"code":1120117,"left":1120118,"right":1120114,"id":"0a01d0","name":"矢田前","name_kana":"やだまえ","lat":40.833744,"lng":140.807151,"prefecture":2,"lines":[11201,99206],"attr":"cool","postal_code":"030-0936","address":"青森市矢田前字本泉","next":[1120120,1120118,1120119,1120116],"voronoi":{"lat":40.874626,"lng":140.767901,"delta_lat":[0,-25839,-8068,-74876],"delta_lng":[0,1812,7530,129100]},"impl":true},
    {"code":1120118,"left":1120119,"right":9910502,"id":"157f80","name":"小柳(青森)","original_name":"小柳","name_kana":"こやなぎ","lat":40.818223,"lng":140.798149,"prefecture":2,"lines":[11201,99206],"attr":"cool","postal_code":"030-0915","address":"青森市小柳字唐橋","next":[9922011,9922002,1120117,9922810,1120116,100422,1120119],"voronoi":{"lat":40.557783,"lng":140.91552,"delta_lat":[0,38973,123186,8063,37839,74876,-282933],"delta_lng":[0,12910,34072,194,-56354,-129100,138250]},"impl":true},
    {"code":1120119,"left":9920608,"id":"fda6c7","name":"東青森","name_kana":"ひがしあおもり","lat":40.810402,"lng":140.782143,"prefecture":2,"lines":[11201,99206],"attr":"cool","postal_code":"030-0946","address":"青森市大字古館字安田","next":[1120253,9922810,1120117,9920608,1120120,1120118],"voronoi":{"lat":40.840719,"lng":140.777243,"delta_lat":[0,8068,-12655,-274331,-652,-3363],"delta_lng":[0,-7530,-4877,109480,1354,39823]},"impl":true},
    {"code":9920608,"id":"50f5a9","name":"筒井(青森)","original_name":"筒井","name_kana":"つつい","lat":40.805556,"lng":140.77,"prefecture":2,"lines":[99206],"attr":"cool","postal_code":"030-0944","address":"青森県青森市筒井","open_date":"2014-03-15","next":[100423,1120120,1120253,1120254,9920212,1120119,1120263],"voronoi":{"lat":40.737044,"lng":140.708944,"delta_lat":[0,24560,74529,-274331,33566,4570,88833],"delta_lng":[0,7042,48849,109480,-74287,-7925,-78040]},"impl":true},
    {"code":9910502,"id":"ddae88","name":"湯の川温泉","name_kana":"ゆのかわおんせん","lat":41.780129,"lng":140.784881,"prefecture":1,"lines":[99105,99106],"attr":"cool","postal_code":"042-0932","address":"函館市湯川町１-２８","next":[9910513,9910503,9910505,9910514,9910516,9910504,9910501,9910523],"voronoi":{"lat":41.785572,"lng":140.786457,"delta_lat":[0,-18889,-12871,-4840,-2770,-5633,-18268,-148335],"delta_lng":[0,-12720,-7125,-2279,133,482,3113,58181]},"impl":true},
    {"code":1120114,"left":1120115,"right":1120113,"id":"8032aa","name":"西平内","name_kana":"にしひらない","lat":40.918138,"lng":140.913146,"prefecture":2,"lines":[11201,99206],"attr":"cool","postal_code":"039-3364","address":"東津軽郡平内町大字小豆沢","next":[1120115,1120511,1120112,9922002,1120510,1120113],"voronoi":{"lat":41.171097,"lng":140.863498,"delta_lat":[0,-117373,-3742,-295787,12251,16912],"delta_lng":[0,-52112,-1268,157765,6059,-556]},"impl":true},
    {"code":1120115,"left":1120116,"id":"5513d9","name":"浅虫温泉","name_kana":"あさむしおんせん","lat":40.890976,"lng":140.862221,"prefecture":2,"lines":[11201,99206],"attr":"cool","postal_code":"039-3501","address":"青森市浅虫","next":[1120114,1120116,9922002,1120509,1120504,1120508,1120510,1120506],"voronoi":{"lat":40.993087,"lng":140.782087,"delta_lat":[0,35677,21218,-295787,-11793,196535,13330,23578],"delta_lng":[0,16444,11587,157765,-3540,-194376,848,4792]},"impl":true},
    {"code":1120116,"id":"1da7c0","name":"野内","name_kana":"のない","lat":40.84615948,"lng":140.8169067,"prefecture":2,"lines":[11201,99206],"attr":"cool","postal_code":"039-3503","address":"青森市大字野内","next":[1120504,1120115,9922002,1120118,1120120,1120117],"voronoi":{"lat":40.874626,"lng":140.767901,"delta_lat":[0,38331,25980,-196535,-14398,37839],"delta_lng":[0,-8159,10225,194376,-1646,-56354]},"impl":true},
    {"code":1120113,"id":"470fc7","name":"小湊","name_kana":"こみなと","lat":40.929703,"lng":140.953953,"prefecture":2,"lines":[11201,99206],"attr":"cool","postal_code":"039-3321","address":"東津軽郡平内町大字小湊","next":[1120311,1120511,1120114,1120112],"voronoi":{"lat":40.783359,"lng":140.973386,"delta_lat":[0,387739,40710,-79812],"delta_lng":[0,-109888,14195,134661]},"impl":true},
    {"code":9910506,"left":9910508,"right":9910504,"id":"3ae7b3","name":"深堀町","name_kana":"ふかぼりちょう","lat":41.787153,"lng":140.769947,"prefecture":1,"lines":[99105,99106],"attr":"cool","postal_code":"042-0942","address":"函館市柏木町３５番","next":[9910504,1110103,9910507,9910505,9910501],"voronoi":{"lat":41.840527,"lng":140.776385,"delta_lat":[0,-72091,63133,3100,27512],"delta_lng":[0,-11972,29614,1301,8382]},"impl":true},
    {"code":9910508,"left":9910507,"right":9910509,"id":"6141cd","name":"杉並町","name_kana":"すぎなみちょう","lat":41.788689,"lng":140.759304,"prefecture":1,"lines":[99105,99106],"attr":"cool","postal_code":"040-0004","address":"函館市杉並町２１番","next":[9910510,9910507,9910511,1110102,9910509],"voronoi":{"lat":41.786897,"lng":140.755353,"delta_lat":[0,-7247,-8246,62124,-17801],"delta_lng":[0,1372,3392,7889,-10272]},"impl":true},
    {"code":9910507,"left":9910510,"id":"46653a","name":"柏木町","name_kana":"かしわぎちょう","lat":41.787937,"lng":140.765226,"prefecture":1,"lines":[99105,99106],"attr":"cool","postal_code":"042-0942","address":"函館市柏木町３番","next":[9910511,9910505,1110103,9910506,9910512,9910508,1110102],"voronoi":{"lat":41.833528,"lng":140.768007,"delta_lat":[0,-62124,-7792,-1476,6300,72091,-5529],"delta_lng":[0,-7889,1718,520,2058,11972,-7654]},"impl":true},
    {"code":9910510,"id":"5efc17","name":"中央病院前","name_kana":"ちゅうおうびょういんまえ","lat":41.787121,"lng":140.751021,"prefecture":1,"lines":[99105,99106],"attr":"cool","postal_code":"040-0011","address":"函館市本町２番","next":[9910508,9910511,9910509],"voronoi":{"lat":41.77965,"lng":140.756725,"delta_lat":[0,11000,-3753],"delta_lng":[0,-12659,11287]},"impl":true},
    {"code":9910509,"id":"e2391f","name":"五稜郭公園前","name_kana":"ごりょうかくこうえん","lat":41.789313,"lng":140.75175,"prefecture":1,"lines":[99105,99106],"attr":"cool","postal_code":"040-0011","address":"函館市本町２５番","next":[9910511,9910510,9910508,1110102],"voronoi":{"lat":41.793178,"lng":140.740097,"delta_lat":[0,-2527,-3753,28830],"delta_lng":[0,3970,11287,2381]},"impl":true},
    {"code":9910504,"left":9910503,"right":9910505,"id":"b48d30","name":"駒場車庫前","name_kana":"こまばしゃこまえ","lat":41.783265,"lng":140.779216,"prefecture":1,"lines":[99105,99106],"attr":"cool","postal_code":"042-0941","address":"函館市深堀町２４番","next":[9910506,9910505,9910502,9910501,9910503],"voronoi":{"lat":41.766682,"lng":140.773737,"delta_lat":[0,-12871,77758,3100,-34004],"delta_lng":[0,-7125,27416,1301,-6975]},"impl":true},
    {"code":9910503,"id":"4b183e","name":"函館アリーナ前","name_kana":"はこだてありーなまえ","lat":41.782065,"lng":140.782006,"prefecture":1,"lines":[99105,99106],"attr":"cool","postal_code":"042-0932","address":"函館市湯川町１-３２","next":[9910502,9910501,9910504],"voronoi":{"lat":41.766682,"lng":140.773737,"delta_lat":[0,18889,15094],"delta_lng":[0,12720,1897]},"impl":true},
    {"code":9910505,"id":"50bc3e","name":"競馬場前(北海道)","original_name":"競馬場前","name_kana":"けいばじょうまえ","lat":41.784657,"lng":140.775268,"prefecture":1,"lines":[99105,99106],"attr":"cool","postal_code":"042-0941","address":"函館市深堀町２２番","next":[9910507,9910502,9910506,9910504,9910512,9910513],"voronoi":{"lat":41.752427,"lng":140.763665,"delta_lat":[0,9709,6300,63133,-77758,-4840],"delta_lng":[0,-1309,2058,29614,-27416,-2279]},"impl":true},
    {"code":1110411,"left":1010219,"right":1010211,"id":"2eab44","name":"北舟岡","name_kana":"きたふなおか","lat":42.450528,"lng":140.880259,"prefecture":1,"lines":[11104],"attr":"eco","postal_code":"052-0014","address":"伊達市舟岡町","next":[1110412,1010202,1110410,1010203,1010204,1110413],"voronoi":{"lat":42.490381,"lng":140.959865,"delta_lat":[0,7734,1699,-9249,-109319,6010],"delta_lng":[0,-13104,-31882,-23241,-84332,13994]},"impl":true},
    {"code":1010219,"left":1110408,"right":1110215,"id":"19a5fd","name":"寒別","name_kana":"かんべつ","closed":true,"lat":42.896306,"lng":140.834583,"prefecture":1,"lines":[10102],"postal_code":"044-0071","address":"北海道虻田郡倶知安町字寒別６７９−１","open_date":"1919-11-15","closed_date":"1986-11-01","next":[1010220,1010217,1110213,1110215,1010216,1110218,1010218,1110217],"voronoi":{"lat":43.034738,"lng":140.929301,"delta_lat":[0,-64399,-40572,-71290,152288,29009,4352,-1609],"delta_lng":[0,-14447,-26157,-78712,16088,35168,17519,24072]},"impl":false},
    {"code":1110408,"left":1110406,"right":1010202,"id":"371781","name":"有珠","name_kana":"うす","lat":42.513267,"lng":140.793969,"prefecture":1,"lines":[11104],"attr":"eco","postal_code":"059-0151","address":"伊達市有珠町","next":[1110409,1110404,1110120,1010203,1010202,1110407,1110405,1110119],"voronoi":{"lat":42.518563,"lng":140.825054,"delta_lat":[0,46357,3684,-128238,-50760,-38933,-10182,-13218],"delta_lng":[0,1074,-1576,-159316,-23819,-13142,27113,49527]},"impl":true},
    {"code":1110406,"left":1110407,"right":1110210,"id":"423ecb","name":"豊浦","name_kana":"とようら","lat":42.580323,"lng":140.71536,"prefecture":1,"lines":[11104],"attr":"eco","postal_code":"049-5412","address":"虻田郡豊浦町字旭町","next":[1110209,1110407,1010213,1110405],"voronoi":{"lat":42.706537,"lng":140.789072,"delta_lat":[0,-19279,-240213,245511],"delta_lng":[0,25219,-147160,18161]},"impl":true},
    {"code":1110407,"left":1110118,"id":"873f83","name":"洞爺","name_kana":"とうや","lat":42.55055,"lng":140.763959,"prefecture":1,"lines":[11104],"attr":"eco","postal_code":"049-5611","address":"虻田郡洞爺湖町旭町","next":[1010203,1110406,1010213,1110408,1110405],"voronoi":{"lat":42.687259,"lng":140.814291,"delta_lat":[0,-4131,-114523,-128238,6679],"delta_lng":[0,8428,1834,-159316,1894]},"impl":true},
    {"code":1110118,"id":"9cb1e4","name":"渡島沼尻","name_kana":"おしまぬまじり","lat":42.10706,"lng":140.747596,"prefecture":1,"lines":[11101],"attr":"cool","postal_code":"049-2223","address":"茅部郡森町砂原東４丁目","next":[1110116,1110119,1110413,1110117,1110414,1110416],"voronoi":{"lat":42.243428,"lng":140.833037,"delta_lat":[0,1735,39668,-215645,-4359,101599],"delta_lng":[0,-2579,-69187,-54073,14822,182176]},"impl":true},
    {"code":1110210,"id":"3dd729","name":"比羅夫","name_kana":"ひらふ","lat":42.84856,"lng":140.722615,"prefecture":1,"lines":[11102],"attr":"heat","postal_code":"044-0077","address":"虻田郡倶知安町比羅夫","next":[1110212,1010218,1010221,1010220,1110209,1010213,1110211],"voronoi":{"lat":42.853375,"lng":140.773726,"delta_lat":[0,-30880,-19755,-55338,141184,12216,-37998],"delta_lng":[0,22569,4753,-12378,-147819,33500,88245]},"impl":true},
    {"code":1010202,"left":1110410,"right":1010218,"id":"dae925","name":"上長和","name_kana":"かみながわ","closed":true,"lat":42.511833,"lng":140.855861,"prefecture":1,"lines":[10102],"postal_code":"052-0036","address":"北海道伊達市上長和町３９９−１９","open_date":"1940-12-15","closed_date":"1986-11-01","next":[1110411,1110409,1110408,1110410,1010203],"voronoi":{"lat":42.564921,"lng":140.826128,"delta_lat":[0,-46357,-27948,-51,9249],"delta_lng":[0,-1074,29838,36746,23241]},"impl":false},
    {"code":1110410,"left":1110409,"id":"2fed5c","name":"伊達紋別","name_kana":"だてもんべつ","lat":42.469395,"lng":140.855802,"prefecture":1,"lines":[11104,10102],"attr":"eco","postal_code":"052-0032","address":"伊達市山下町","next":[1110411,1110413,1110409,1010202,1110119],"voronoi":{"lat":42.381245,"lng":140.807306,"delta_lat":[0,109319,51,-166291,-1101],"delta_lng":[0,84332,-36746,-142487,2302]},"impl":true},
    {"code":1110409,"id":"08953e","name":"長和","name_kana":"ながわ","lat":42.488262,"lng":140.833783,"prefecture":1,"lines":[11104],"attr":"eco","postal_code":"052-0035","address":"伊達市長和町","next":[1110119,1110408,1010202,1110410],"voronoi":{"lat":42.518563,"lng":140.825054,"delta_lat":[0,-191290,-2949,166291],"delta_lng":[0,-120139,7490,142487]},"impl":true},
    {"code":1010218,"id":"b78c2e","name":"北岡","name_kana":"きたおか","closed":true,"lat":42.879222,"lng":140.850056,"prefecture":1,"lines":[10102],"postal_code":"044-0111","address":"北海道虻田郡京極町字北岡３２","open_date":"1960-10-01","closed_date":"1986-11-01","next":[1010214,1010219,1110210,1010213,1010220,1010217],"voronoi":{"lat":42.858478,"lng":140.809984,"delta_lat":[0,-35982,-19755,23803,8160,95064],"delta_lng":[0,-13689,4753,39283,9233,39132]},"impl":false},
    {"code":1110215,"left":1110213,"right":1110216,"id":"7e1209","name":"仁木","name_kana":"にき","lat":43.154091,"lng":140.770546,"prefecture":1,"lines":[11102],"attr":"cool","postal_code":"048-2405","address":"余市郡仁木町字北町１丁目","next":[1010219,1110216,1110217,1110214,1110213],"voronoi":{"lat":43.044126,"lng":140.87876,"delta_lat":[0,87546,151271,-225054,-18115],"delta_lng":[0,-44159,-203451,192959,37132]},"impl":true},
    {"code":1110213,"left":1010221,"right":1110214,"id":"0e7570","name":"銀山","name_kana":"ぎんざん","lat":43.040888,"lng":140.715321,"prefecture":1,"lines":[11102],"attr":"cool","postal_code":"048-2335","address":"余市郡仁木町銀山２丁目","next":[1010219,1110214,1010221,1110215,1110212,1010304,1010220,1010303,1010302],"voronoi":{"lat":42.976307,"lng":140.751592,"delta_lat":[0,18388,16070,29009,18115,55017,-12027,-50390,-33914],"delta_lng":[0,45768,28712,35168,-37132,-212684,4345,27892,34118]},"impl":true},
    {"code":1010221,"left":1110211,"id":"15c4bd","name":"六郷","name_kana":"ろくごう","closed":true,"lat":42.904583,"lng":140.770083,"prefecture":1,"lines":[10102],"postal_code":"044-0004","address":"北海道虻田郡倶知安町北４条東８丁目３１","open_date":"1919-11-15","closed_date":"1986-11-01","next":[1110212,1110211,1110213,1010220,1110210],"voronoi":{"lat":42.862805,"lng":140.762597,"delta_lat":[0,110473,3030,18388,-141320],"delta_lng":[0,-13210,2206,45768,-23634]},"impl":false},
    {"code":1110211,"id":"b3c49c","name":"倶知安","name_kana":"くっちゃん","lat":42.90164,"lng":140.745471,"prefecture":1,"lines":[11102,10102],"attr":"heat","postal_code":"044-0051","address":"虻田郡倶知安町北三条西４丁目","next":[1010221,1110212,1110210],"voronoi":{"lat":42.900803,"lng":140.674352,"delta_lat":[0,72475,-110473],"delta_lng":[0,75035,13210]},"impl":true},
    {"code":1110214,"id":"042391","name":"然別","name_kana":"しかりべつ","lat":43.12551,"lng":140.737211,"prefecture":1,"lines":[11102],"attr":"cool","postal_code":"048-2403","address":"余市郡仁木町然別","next":[1110213,1010304,1110215,1110216,1010305],"voronoi":{"lat":43.112906,"lng":140.611424,"delta_lat":[0,-55017,225054,318893,-469481],"delta_lng":[0,212684,-192959,-338718,302620]},"impl":true},
    {"code":1110216,"left":1010220,"right":1110217,"id":"2d8fb2","name":"余市","name_kana":"よいち","lat":43.186558,"lng":140.794686,"prefecture":1,"lines":[11102],"attr":"cool","postal_code":"046-0003","address":"余市郡余市町黒川町５丁目","next":[1110215,1111321,1111551,1110217,1011314,1110214,1010305],"voronoi":{"lat":43.282943,"lng":140.63115,"delta_lat":[0,-151271,912785,415167,326341,262656,-1446785],"delta_lng":[0,203451,-151509,-379529,-423074,-658366,1070309]},"impl":true},
    {"code":1010220,"id":"d3a200","name":"参郷","name_kana":"さんごう","closed":true,"lat":42.900611,"lng":140.793833,"prefecture":1,"lines":[10102],"postal_code":"044-0072","address":"北海道虻田郡倶知安町字八幡２９８","open_date":"1960-10-01","closed_date":"1986-11-01","next":[1010219,1010221,1010218,1110213,1110210],"voronoi":{"lat":42.858478,"lng":140.809984,"delta_lat":[0,152288,-16070,-141320,-30880],"delta_lng":[0,16088,-28712,-23634,22569]},"impl":false},
    {"code":1110217,"id":"b0cc39","name":"蘭島","name_kana":"らんしま","lat":43.19651,"lng":140.854643,"prefecture":1,"lines":[11102],"attr":"cool","postal_code":"048-2562","address":"小樽市蘭島１丁目","next":[1110218,1010219,1110215,1111321,1110216],"voronoi":{"lat":44.044458,"lng":140.683091,"delta_lat":[0,-150847,-851093,1609,87546],"delta_lng":[0,147954,71786,-24072,-44159]},"impl":true},
    {"code":1010211,"left":1010204,"right":1110218,"id":"9a1056","name":"北鈴川","name_kana":"きたすずかわ","closed":true,"lat":42.765306,"lng":140.973806,"prefecture":1,"lines":[10102],"postal_code":"044-0451","address":"北海道虻田郡喜茂別町字鈴川８","open_date":"1941-10-12","closed_date":"1986-11-01","next":[1010213,1010216,1010212,1010210,1010204,1010209,1010203],"voronoi":{"lat":42.681968,"lng":140.874044,"delta_lat":[0,1636,136244,16513,-24198,-135538,3955],"delta_lng":[0,905,105085,95228,-16064,-139843,-41959]},"impl":false},
    {"code":1010204,"left":1110412,"right":1110418,"id":"677108","name":"久保内","name_kana":"くぼない","closed":true,"lat":42.579333,"lng":140.956278,"prefecture":1,"lines":[10102],"postal_code":"052-0112","address":"北海道有珠郡壮瞥町字久保内８９−６","open_date":"1940-12-15","closed_date":"1986-11-01","next":[1010203,1110412,1010205,1010206,1110411,1010211,1010210],"voronoi":{"lat":42.676626,"lng":140.919355,"delta_lat":[0,3955,-182466,-7734,-15120,127658,63255],"delta_lng":[0,-41959,69366,13104,40475,-10646,-41195]},"impl":false},
    {"code":1110412,"left":1110414,"right":1010203,"id":"fc13c9","name":"稀府","name_kana":"まれっぷ","lat":42.425567,"lng":140.898836,"prefecture":1,"lines":[11104],"attr":"eco","postal_code":"059-0273","address":"伊達市南稀府町","next":[1110411,1010205,1110413,1010204,1110415,1110414],"voronoi":{"lat":42.414255,"lng":140.939399,"delta_lat":[0,-26999,103125,-15120,-4009,-38963],"delta_lng":[0,-118098,138565,40475,5010,-33077]},"impl":true},
    {"code":1110414,"left":1110413,"id":"5b62da","name":"崎守","name_kana":"さきもり","lat":42.373968,"lng":140.927141,"prefecture":1,"lines":[11104],"attr":"eco","postal_code":"050-0055","address":"室蘭市崎守町","next":[1110416,1110118,1110415,1110412,1110413],"voronoi":{"lat":42.245163,"lng":140.830458,"delta_lat":[0,-1735,96335,92526,-18034],"delta_lng":[0,2579,111280,27956,-32875]},"impl":true},
    {"code":1110413,"id":"cda027","name":"黄金(北海道)","original_name":"黄金","name_kana":"こがね","lat":42.386441,"lng":140.907781,"prefecture":1,"lines":[11104],"attr":"eco","postal_code":"059-0271","address":"伊達市南黄金町","next":[1110118,1110412,1110410,1110414,1110411,1110119],"voronoi":{"lat":42.245163,"lng":140.830458,"delta_lat":[0,169092,-26999,-6010,-58022,-38393],"delta_lng":[0,108940,-118098,-13994,-92599,46564]},"impl":true},
    {"code":1010203,"id":"186471","name":"壮瞥","name_kana":"そうべつ","closed":true,"lat":42.5525,"lng":140.885694,"prefecture":1,"lines":[10102],"postal_code":"052-0101","address":"北海道有珠郡壮瞥町字滝之町２８７−７","open_date":"1940-12-15","closed_date":"1986-11-01","next":[1110407,1010204,1010213,1110408,1110411,1010202,1010211],"voronoi":{"lat":42.681968,"lng":140.874044,"delta_lat":[0,1159,-114523,-3684,-65107,-1699,182466],"delta_lng":[0,-51325,1834,1576,88751,31882,-69366]},"impl":false},
    {"code":1110418,"left":1110417,"right":1110415,"id":"15ab8b","name":"御崎","name_kana":"みさき","lat":42.329014,"lng":140.993881,"prefecture":1,"lines":[11104],"attr":"cool","postal_code":"051-0001","address":"室蘭市御崎町２丁目","next":[1110419,1110415,1110417,1110416],"voronoi":{"lat":42.338344,"lng":140.97565,"delta_lat":[0,9617,-29049,7127],"delta_lng":[0,17513,11660,-21622]},"impl":true},
    {"code":1110417,"left":1110416,"id":"10dbbd","name":"母恋","name_kana":"ぼこい","lat":42.317295,"lng":140.990018,"prefecture":1,"lines":[11104],"attr":"cool","postal_code":"051-0004","address":"室蘭市母恋北町１丁目","next":[1110419,1110421,1110420,1110117,1110416,1110418,9922408,9910501],"voronoi":{"lat":41.947647,"lng":141.162033,"delta_lat":[0,162031,216360,-7127,-96701,-40629,-268615,-12850],"delta_lng":[0,-187437,8604,21622,101344,35812,215107,-67690]},"impl":true},
    {"code":1110416,"id":"c1a600","name":"室蘭","name_kana":"むろらん","lat":42.317864,"lng":140.97571,"prefecture":1,"lines":[11104],"attr":"cool","postal_code":"051-0023","address":"室蘭市入江町１","next":[1110414,1110417,1110415,1110117,1110418,1110118],"voronoi":{"lat":42.243428,"lng":140.833037,"delta_lat":[0,96335,-1419,-12305,-216360,56747],"delta_lng":[0,111280,31332,7551,-8604,-70400]},"impl":true},
    {"code":1110415,"id":"20b241","name":"本輪西","name_kana":"もとわにし","lat":42.358734,"lng":140.977561,"prefecture":1,"lines":[11104],"attr":"eco","postal_code":"050-0065","address":"室蘭市本輪西町１丁目","next":[1110418,1110419,1010205,1110416,1110412,1110421,1110414,1110420,1110422],"voronoi":{"lat":42.470579,"lng":141.008461,"delta_lat":[0,673,-38963,-92526,-1419,9617,11031,35471,75228],"delta_lng":[0,-3110,-33077,-27956,31332,17513,9769,6797,-918]},"impl":true},
    {"code":1110218,"left":1010215,"right":1010216,"id":"325bd8","name":"塩谷","name_kana":"しおや","lat":43.202406,"lng":140.924546,"prefecture":1,"lines":[11102],"attr":"cool","postal_code":"048-2672","address":"小樽市塩谷２丁目","next":[1111321,1010219,1110217,1010216,1110302,1011103,1110219],"voronoi":{"lat":43.128967,"lng":140.953736,"delta_lat":[0,-93609,-619,7779,851093,-65390,-610536],"delta_lng":[0,-17834,-6601,-26469,-71786,70932,58477]},"impl":true},
    {"code":1010215,"left":1010214,"right":1010217,"id":"c2b5a2","name":"東京極","name_kana":"ひがしきょうごく","closed":true,"lat":42.859528,"lng":140.891194,"prefecture":1,"lines":[10102],"postal_code":"044-0121","address":"北海道虻田郡京極町字三崎２１８−７","open_date":"1962-12-17","closed_date":"1986-11-01","next":[1010216,1010217,1010214],"voronoi":{"lat":42.842854,"lng":140.87229,"delta_lat":[0,66383,-61677],"delta_lng":[0,44549,9147]},"impl":false},
    {"code":1010214,"left":1010213,"id":"73644b","name":"南京極","name_kana":"みなみきょうごく","closed":true,"lat":42.829722,"lng":140.893806,"prefecture":1,"lines":[10102],"postal_code":"044-0132","address":"北海道虻田郡京極町字更進４１７−２","open_date":"1928-10-21","closed_date":"1986-11-01","next":[1010212,1010216,1010218,1010217,1010215,1010213],"voronoi":{"lat":42.838725,"lng":140.931598,"delta_lat":[0,8834,-4706,-8150,-8160,-8831],"delta_lng":[0,-5613,-53696,-22725,-9233,73434]},"impl":false},
    {"code":1010213,"id":"7627ef","name":"留産","name_kana":"るさん","closed":true,"lat":42.810778,"lng":140.891528,"prefecture":1,"lines":[10102],"postal_code":"044-0212","address":"北海道虻田郡喜茂別町字留産２１","open_date":"1928-10-21","closed_date":"1986-11-01","next":[1010211,1010212,1010218,1010203,1110209,1110407,1110406,1110210,1010214],"voronoi":{"lat":42.826543,"lng":140.840332,"delta_lat":[0,-23803,-55338,-40865,-19279,-4131,-1159,1636,134108],"delta_lng":[0,-39283,-12378,401,25219,8428,51325,905,38817]},"impl":false},
    {"code":1010217,"id":"efbc6c","name":"京極","name_kana":"きょうごく","closed":true,"lat":42.866667,"lng":140.880556,"prefecture":1,"lines":[10102],"postal_code":"044-0101","address":"北海道虻田郡京極町字京極２３","open_date":"1919-11-15","closed_date":"1986-11-01","next":[1010219,1010214,1010215,1010216,1010218],"voronoi":{"lat":42.97034,"lng":140.914854,"delta_lat":[0,-61103,-66383,-8150,95064],"delta_lng":[0,1985,-44549,-22725,39132]},"impl":false},
    {"code":1010216,"left":1010212,"right":1110219,"id":"1274c2","name":"脇方","name_kana":"わきかた","closed":true,"lat":42.869111,"lng":140.955806,"prefecture":1,"lines":[10102],"postal_code":"044-0123","address":"北海道虻田郡京極町字脇方９５２","open_date":"1920-07-15","closed_date":"1970-11-01","next":[1110303,1010215,1010211,1010212,1010214,1010219,1010209,9911020,1110218,1010217,1110302],"voronoi":{"lat":43.020337,"lng":141.011975,"delta_lat":[0,-174116,-9860,-16513,18877,8834,61677,61103,64399,619,-6611],"delta_lng":[0,79532,-16246,-95228,-48435,-5613,-9147,-1985,14447,6601,40293]},"impl":false},
    {"code":1010212,"id":"eff19e","name":"喜茂別","name_kana":"きもべつ","closed":true,"lat":42.799972,"lng":140.928861,"prefecture":1,"lines":[10102],"postal_code":"044-0201","address":"北海道虻田郡喜茂別町字喜茂別１−２２","open_date":"1928-10-21","closed_date":"1986-11-01","next":[1010214,1010216,1010211,1010213],"voronoi":{"lat":42.838725,"lng":140.931598,"delta_lat":[0,-18877,-136244,134108],"delta_lng":[0,48435,-105085,38817]},"impl":false},
    {"code":1110219,"id":"078e9b","name":"小樽","name_kana":"おたる","lat":43.197172,"lng":140.993653,"prefecture":1,"lines":[11102,11103],"attr":"cool","postal_code":"047-0032","address":"小樽市稲穂２丁目","next":[1011103,1011102,1110302,1110218],"voronoi":{"lat":43.202927,"lng":140.997148,"delta_lat":[0,-17800,-56161,88718],"delta_lng":[0,-1408,-42004,6719]},"impl":true}
  ]
}