{
  "name":"segment7",
  "root":1190612,
  "east":132.440572,
  "west":130.806197,
  "south":33.264212,
  "north":34.042008,
  "station_size":155,
  "node_list":[
    {"code":1190612,"left":1191407,"right":1172312,"id":"b1c52e","name":"小波瀬西工大前","name_kana":"おばせにしこうだいまえ","lat":33.752992,"lng":130.97197,"prefecture":40,"lines":[11906],"attr":"cool","postal_code":"800-0344","address":"京都郡苅田町新津","next":[1191409,1190611,1191408,1190614,1190610,1190615,1190613],"voronoi":{"lat":33.744331,"lng":130.916712,"delta_lat":[0,18226,3483,9042,-20505,-7312,-8156],"delta_lng":[0,324,1050,29023,91580,-11635,-32687]},"impl":true},
    {"code":1191407,"left":9990406,"right":100318,"id":"2f80cd","name":"志井(JR)","original_name":"志井","name_kana":"しい","lat":33.803569,"lng":130.874596,"prefecture":40,"lines":[11914],"attr":"heat","postal_code":"802-0985","address":"北九州市小倉南区大字志井","next":[1191408,1190609,9990813,9990811,9990812,1190610,1191406],"voronoi":{"lat":33.811802,"lng":130.875168,"delta_lat":[0,843,-1109,-7571,-31050,23200,2230],"delta_lng":[0,-4636,-6476,-14706,67006,-1101,-1072]},"impl":true},
    {"code":9990406,"left":1191413,"right":9990408,"id":"d330d4","name":"赤","name_kana":"あか","lat":33.617703,"lng":130.871827,"prefecture":40,"lines":[99904],"attr":"eco","postal_code":"824-0432","address":"田川郡赤村大字内田","next":[9990408,9990405,1191416,1191418,9990407,1191417],"voronoi":{"lat":33.591155,"lng":130.868636,"delta_lat":[0,41304,1548,-16256,-16590,-9165],"delta_lng":[0,16242,98,-42480,6965,16422]},"impl":true},
    {"code":1191413,"left":1191429,"right":1191411,"id":"ba5347","name":"田川伊田","name_kana":"たがわいた","lat":33.642046,"lng":130.817688,"prefecture":40,"lines":[11914,99902,99904],"attr":"eco","postal_code":"825-0002","address":"田川市伊田","next":[9990402,1191415,9990305,9990214,1191414,1191416],"voronoi":{"lat":33.620309,"lng":130.829255,"delta_lat":[0,5526,14032,1116,13553,-33624],"delta_lng":[0,-13336,-9447,282,12597,16251]},"impl":true},
    {"code":1191429,"left":1191417,"right":1191419,"id":"867455","name":"歓遊舎ひこさん","name_kana":"かんゆうしゃひこさん","lat":33.548853,"lng":130.859727,"prefecture":40,"lines":[11914],"attr":"eco","postal_code":"824-0604","address":"田川郡添田町野田１３４７番地","next":[1191418,9990408,1191419,1191417],"voronoi":{"lat":33.566773,"lng":130.907093,"delta_lat":[0,-10799,-29036,28300],"delta_lng":[0,20059,-140465,55210]},"impl":true},
    {"code":1191417,"left":1191418,"right":1191416,"id":"3e4b84","name":"西添田","name_kana":"にしそえだ","lat":33.57344,"lng":130.847124,"prefecture":40,"lines":[11914],"attr":"eco","postal_code":"824-0601","address":"田川郡添田町大字庄","next":[1191416,1191419,1191418,1191429,9990406],"voronoi":{"lat":33.555238,"lng":130.841898,"delta_lat":[0,-28300,-4018,78241,-9165],"delta_lng":[0,-55210,-9886,72660,16422]},"impl":true},
    {"code":1191418,"left":1191310,"id":"e3fe89","name":"添田","name_kana":"そえだ","lat":33.567352,"lng":130.856454,"prefecture":40,"lines":[11914],"attr":"eco","postal_code":"824-0602","address":"田川郡添田町大字添田","next":[1191429,9990407,9990406,9990408,1191417],"voronoi":{"lat":33.555238,"lng":130.841898,"delta_lat":[0,11535,3042,21340,841],"delta_lng":[0,65196,-3759,-34698,-2753]},"impl":true},
    {"code":1191310,"id":"5b732c","name":"筑後大石","name_kana":"ちくごおおいし","lat":33.347215,"lng":130.816899,"prefecture":40,"lines":[11913],"attr":"cool","postal_code":"839-1406","address":"うきは市浮羽町高見","next":[1191311,1191421,1191309,1191425,1191422,1191423,1191308],"voronoi":{"lat":33.298183,"lng":130.821789,"delta_lat":[0,44594,21473,13982,52343,16077,-52307],"delta_lng":[0,25034,712,-7067,-45020,-20729,5013]},"impl":true},
    {"code":1191416,"id":"1197a1","name":"豊前川崎","name_kana":"ぶぜんかわさき","lat":33.596782,"lng":130.821989,"prefecture":40,"lines":[11914],"attr":"eco","postal_code":"827-0003","address":"田川郡川崎町大字川崎","next":[1191419,1191417,9990406,1191415,9990402,1191413,9990405,1191504],"voronoi":{"lat":33.51023,"lng":130.75766,"delta_lat":[0,12689,78241,16590,2434,727,-603,-59560],"delta_lng":[0,19142,72660,-6965,-2334,-4561,-6347,-59758]},"impl":true},
    {"code":1191419,"left":1191420,"right":9990405,"id":"2a5477","name":"豊前桝田","name_kana":"ぶぜんますだ","lat":33.535777,"lng":130.86243,"prefecture":40,"lines":[11914],"attr":"cool","postal_code":"824-0723","address":"田川郡添田町大字桝田","next":[1191203,9990408,1191416,1191503,1191429,1191417,1191504,1191420],"voronoi":{"lat":33.496132,"lng":130.749401,"delta_lat":[0,1219,2223,10657,12689,4018,29036,-17895],"delta_lng":[0,23,1309,6927,19142,9886,140465,42897]},"impl":true},
    {"code":1191420,"left":1191311,"id":"a739e1","name":"彦山","name_kana":"ひこさん","lat":33.500728,"lng":130.869093,"prefecture":40,"lines":[11914],"attr":"cool","postal_code":"824-0722","address":"田川郡添田町大字落合","next":[1190618,1191308,1191203,9990409,9990408,3600312,1191421,1191419],"voronoi":{"lat":33.532837,"lng":130.992561,"delta_lat":[0,-2311,-39250,-43585,7487,38456,2497,41947],"delta_lng":[0,6417,21116,-246093,-10230,-14793,423,220649]},"impl":true},
    {"code":1191311,"id":"aa8ac4","name":"夜明","name_kana":"よあけ","lat":33.319541,"lng":130.866195,"prefecture":44,"lines":[11913,11914],"attr":"heat","postal_code":"877-1112","address":"日田市夜明中町","next":[1191310,1191312,1191309,1191425,9991713,1192312,1191313,1192316,1191314,1191316],"voronoi":{"lat":33.098781,"lng":130.867635,"delta_lat":[0,-254,-2,10281,189378,44594,-19422,-51476,-11353,-134530],"delta_lng":[0,-704,-44773,-38493,38125,25034,46262,7790,-395,-21662]},"impl":true},
    {"code":9990405,"id":"137285","name":"内田","name_kana":"うちだ","lat":33.637367,"lng":130.864302,"prefecture":40,"lines":[99904],"attr":"eco","postal_code":"824-0432","address":"田川郡赤村大字内田","next":[9990403,9990409,9990404,9990406,9990408,1191416,9990402],"voronoi":{"lat":33.636496,"lng":130.848058,"delta_lat":[0,31267,-24403,-9354,-16256,2434,7666],"delta_lng":[0,43669,-493,-6258,-42480,-2334,2406]},"impl":true},
    {"code":1191411,"left":9990214,"right":1191409,"id":"4fec8e","name":"香春","name_kana":"かわら","lat":33.666003,"lng":130.846972,"prefecture":40,"lines":[11914],"attr":"heat","postal_code":"822-1403","address":"田川郡香春町大字高野","next":[9990403,1191412,1191410,9990404,9990212],"voronoi":{"lat":33.659331,"lng":130.84289,"delta_lat":[0,-1787,22690,10631,-8711],"delta_lng":[0,5126,45767,-71380,230]},"impl":true},
    {"code":9990214,"left":9990403,"right":1191412,"id":"b8dcea","name":"下伊田","name_kana":"しもいた","lat":33.651965,"lng":130.807016,"prefecture":40,"lines":[99902],"attr":"cool","postal_code":"825-0002","address":"田川市伊田","next":[1191412,1191413,9990213,9990402,9990305],"voronoi":{"lat":33.653792,"lng":130.800133,"delta_lat":[0,10123,-3022,-6357,-13553],"delta_lng":[0,19854,431,-1067,-12597]},"impl":true},
    {"code":9990403,"left":9990402,"id":"2297a3","name":"勾金","name_kana":"まがりかね","lat":33.651568,"lng":130.841939,"prefecture":40,"lines":[99904],"attr":"eco","postal_code":"822-1405","address":"田川郡香春町大字中津原","next":[1191411,9990405,1191412,9990402,9990404],"voronoi":{"lat":33.627851,"lng":130.842568,"delta_lat":[0,22085,9396,-1787,-21048],"delta_lng":[0,-6547,6868,5126,43]},"impl":true},
    {"code":9990402,"id":"d483e8","name":"上伊田","name_kana":"かみいた","lat":33.648079,"lng":130.83017,"prefecture":40,"lines":[99904],"attr":"eco","postal_code":"825-0002","address":"田川市大字伊田１１９５-２","next":[1191413,1191412,9990403,1191416,9990214,9990405],"voronoi":{"lat":33.649936,"lng":130.836021,"delta_lat":[0,10957,-6357,-33624,-727,7666],"delta_lng":[0,-15604,-1067,16251,4561,2406]},"impl":true},
    {"code":1191412,"id":"4aad31","name":"一本松(福岡)","original_name":"一本松","name_kana":"いっぽんまつ","lat":33.65607,"lng":130.835781,"prefecture":40,"lines":[11914],"attr":"heat","postal_code":"822-1405","address":"田川郡香春町中津原１８０５-２","next":[1191411,9990213,9990402,9990214,9990403,9990212],"voronoi":{"lat":33.659331,"lng":130.84289,"delta_lat":[0,-9396,10957,3022,15961,2279],"delta_lng":[0,-6868,-15604,-431,2106,540]},"impl":true},
    {"code":1191409,"left":9990404,"right":1191408,"id":"74a3e2","name":"呼野","name_kana":"よぶの","lat":33.754949,"lng":130.861796,"prefecture":40,"lines":[11914],"attr":"heat","postal_code":"803-0181","address":"北九州市小倉南区大字呼野","next":[1191408,1190612,1190613,9990920,1191410,9990414,9990919,9990206],"voronoi":{"lat":33.759938,"lng":130.797558,"delta_lat":[0,18414,744,-16538,-18226,-18143,-4536,18862],"delta_lng":[0,551,77,118849,-324,-4447,-2272,-103549]},"impl":true},
    {"code":9990404,"left":1191410,"id":"a45a6d","name":"柿下温泉口","name_kana":"かきしたおんせんぐち","lat":33.651593,"lng":130.854116,"prefecture":40,"lines":[99904],"attr":"eco","postal_code":"822-1404","address":"田川郡香春町柿下","next":[1191410,9990405,9990409,1191411,9990403],"voronoi":{"lat":33.657544,"lng":130.848015,"delta_lat":[0,22690,16,-12487,-31267],"delta_lng":[0,45767,941,-2996,-43669]},"impl":true},
    {"code":1191410,"id":"e259c3","name":"採銅所","name_kana":"さいどうしょ","lat":33.707489,"lng":130.853151,"prefecture":40,"lines":[11914],"attr":"heat","postal_code":"822-1401","address":"田川郡香春町大字採銅所","next":[9990207,9990413,9990404,1191411,9990410,9990414,9990206,9990212,9990210,9990409,1191409,9990411,9990211],"voronoi":{"lat":33.690866,"lng":130.822403,"delta_lat":[0,-10631,16,5187,6252,8230,4318,17415,18862,-1956,-23505,-4415,-12658],"delta_lng":[0,71380,941,5705,4120,3960,785,699,-103549,-12,1980,1421,6936]},"impl":true},
    {"code":1191408,"id":"048e60","name":"石原町","name_kana":"いしはらまち","lat":33.784959,"lng":130.865972,"prefecture":40,"lines":[11914],"attr":"heat","postal_code":"803-0186","address":"北九州市小倉南区大字新道寺","next":[9990919,1191409,9990811,1191407,9990909,1190610,1190612,1190211],"voronoi":{"lat":33.79821,"lng":130.796509,"delta_lat":[0,-1258,-17856,-16538,3483,6874,31050,-2826],"delta_lng":[0,-482,2159,118849,1050,-1730,-67006,-49366]},"impl":true},
    {"code":9990408,"left":9990407,"right":9990412,"id":"e6b0a8","name":"源じいの森","name_kana":"げんじいのもり","lat":33.616179,"lng":130.895972,"prefecture":40,"lines":[99904],"attr":"eco","postal_code":"824-0431","address":"田川郡赤村赤","next":[1191419,9990409,9990406,9990407,1191420,1191429,1191418,9990405],"voronoi":{"lat":33.634007,"lng":130.884977,"delta_lat":[0,-1548,-62644,-3042,-10799,-17895,-5241,110523],"delta_lng":[0,-98,18456,3759,20059,42897,22511,-101326]},"impl":true},
    {"code":9990407,"left":1191422,"right":1191312,"id":"123c05","name":"油須原","name_kana":"ゆすばる","lat":33.612765,"lng":130.884384,"prefecture":40,"lines":[99904],"attr":"eco","postal_code":"824-0431","address":"田川郡赤村大字赤","next":[9990408,1191418,9990406],"voronoi":{"lat":33.569815,"lng":130.903335,"delta_lat":[0,21340,41304],"delta_lng":[0,-34698,16242]},"impl":true},
    {"code":1191422,"left":1191423,"right":1191421,"id":"263ac2","name":"大行司","name_kana":"だいぎょうじ","lat":33.396897,"lng":130.874662,"prefecture":40,"lines":[11914],"attr":"cool","postal_code":"838-1701","address":"朝倉郡東峰村宝珠山","next":[1191423,1191310,1191421],"voronoi":{"lat":33.430575,"lng":130.795448,"delta_lat":[0,-52343,24316],"delta_lng":[0,45020,92387]},"impl":true},
    {"code":1191423,"left":1191425,"id":"266170","name":"宝珠山","name_kana":"ほうしゅやま","lat":33.378819,"lng":130.87942,"prefecture":40,"lines":[11914],"attr":"cool","postal_code":"838-1702","address":"朝倉郡東峰村福井","next":[1191422,1191421,1191425,1191424,1191310],"voronoi":{"lat":33.378232,"lng":130.840468,"delta_lat":[0,24316,-341,-39078,1121],"delta_lng":[0,92387,8360,-78267,-15413]},"impl":true},
    {"code":1191425,"id":"a2ff96","name":"今山","name_kana":"いまやま","lat":33.345223,"lng":130.876977,"prefecture":44,"lines":[11914],"attr":"cool","postal_code":"877-1111","address":"日田市夜明上町","next":[1191311,1191423,1191424,1191310,1191312],"voronoi":{"lat":33.36313,"lng":130.862949,"delta_lat":[0,1121,-21473,-19422,24217],"delta_lng":[0,-15413,-712,46262,9904]},"impl":true},
    {"code":1191421,"id":"0b5ed5","name":"筑前岩屋","name_kana":"ちくぜんいわや","lat":33.430539,"lng":130.881524,"prefecture":40,"lines":[11914],"attr":"cool","postal_code":"838-1701","address":"朝倉郡東峰村宝珠山","next":[1191424,1191315,1190618,1191423,1191312,1191308,1191310,1191420,1191422,1191313],"voronoi":{"lat":33.452309,"lng":131.055062,"delta_lat":[0,38967,-43585,-1039,-16077,-28027,-341,1553,4002,31188],"delta_lng":[0,-34968,-246093,719,20729,137407,8360,25591,10728,61832]},"impl":true},
    {"code":1191312,"left":1191314,"right":1191424,"id":"ed6642","name":"光岡","name_kana":"てるおか","lat":33.327668,"lng":130.919901,"prefecture":44,"lines":[11913,11914],"attr":"heat","postal_code":"877-0078","address":"日田市北友田町１丁目","next":[1191311,1191421,1191424,1191313,1191425],"voronoi":{"lat":33.323356,"lng":130.893086,"delta_lat":[0,-51476,135883,-4002,-56188],"delta_lng":[0,7790,76659,-10728,-63817]},"impl":true},
    {"code":1191314,"left":1191313,"id":"bbc0de","name":"豊後三芳","name_kana":"ぶんごみよし","lat":33.305796,"lng":130.951557,"prefecture":44,"lines":[11913],"attr":"heat","postal_code":"877-0035","address":"日田市日高町","next":[1191313,1191311,1191315,1191316],"voronoi":{"lat":33.125997,"lng":130.878818,"delta_lat":[0,134530,133050,-160752],"delta_lng":[0,21662,116871,-63126]},"impl":true},
    {"code":1191313,"id":"c78a5c","name":"日田","name_kana":"ひた","lat":33.317014,"lng":130.938786,"prefecture":44,"lines":[11913,11914],"attr":"heat","postal_code":"877-0013","address":"日田市元町","next":[1191315,1191312,1191311,1191314,1191421],"voronoi":{"lat":33.407763,"lng":130.977534,"delta_lat":[0,-135883,-11353,133050,45374],"delta_lng":[0,-76659,-395,116871,22015]},"impl":true},
    {"code":1191424,"id":"50bd3a","name":"大鶴","name_kana":"おおつる","lat":33.366868,"lng":130.885387,"prefecture":44,"lines":[11914],"attr":"cool","postal_code":"877-1106","address":"日田市大肥本町","next":[1191421,1191312,1191425,1191423],"voronoi":{"lat":33.403761,"lng":130.966807,"delta_lat":[0,-56188,15557,39078],"delta_lng":[0,-63817,-40041,78267]},"impl":true},
    {"code":9990412,"left":9990411,"right":9990415,"id":"9554de","name":"新豊津","name_kana":"しんとよつ","lat":33.679717,"lng":130.963987,"prefecture":40,"lines":[99904],"attr":"heat","postal_code":"824-0122","address":"京都郡みやこ町彦徳","next":[9990413,1190616,9990411,1190615],"voronoi":{"lat":33.636928,"lng":130.997511,"delta_lat":[0,44130,5511,-35400],"delta_lng":[0,-53856,42798,12327]},"impl":true},
    {"code":9990411,"left":9990410,"right":9990413,"id":"9ad9ac","name":"東犀川三四郎","name_kana":"ひがしさいがわさんしろう","lat":33.661385,"lng":130.948966,"prefecture":40,"lines":[99904],"attr":"heat","postal_code":"824-0203","address":"京都郡みやこ町犀川続命院","next":[1190616,9990412,1190617,9990413,9990410,1191410],"voronoi":{"lat":33.681057,"lng":130.943655,"delta_lat":[0,-44130,-21700,-9192,85654,8230],"delta_lng":[0,53856,2858,-675,-95145,3960]},"impl":true},
    {"code":9990410,"left":9990409,"id":"216804","name":"犀川","name_kana":"さいがわ","lat":33.650689,"lng":130.939337,"prefecture":40,"lines":[99904],"attr":"heat","postal_code":"824-0231","address":"京都郡みやこ町犀川本庄","next":[1190617,1191410,9990411,9990409,1190618],"voronoi":{"lat":33.537934,"lng":130.999554,"delta_lat":[0,147504,6252,-85654,-59827],"delta_lng":[0,-99125,4120,95145,1355]},"impl":true},
    {"code":9990409,"id":"fe1d07","name":"崎山","name_kana":"さきやま","lat":33.636285,"lng":130.917903,"prefecture":40,"lines":[99904],"attr":"heat","postal_code":"824-0224","address":"京都郡みやこ町犀川崎山","next":[9990408,9990405,1191420,9990404,1191410,9990410,1190618],"voronoi":{"lat":33.685438,"lng":130.900428,"delta_lat":[0,-5187,-12487,-24403,-110523,-2311,7407],"delta_lng":[0,-5705,-2996,-493,101326,6417,576]},"impl":true},
    {"code":9990413,"id":"84aa49","name":"豊津(福岡)","original_name":"豊津","name_kana":"とよつ","lat":33.687505,"lng":130.962984,"prefecture":40,"lines":[99904],"attr":"heat","postal_code":"824-0037","address":"行橋市大字矢留","next":[9990412,9990414,1191410,1190615,9990411],"voronoi":{"lat":33.686569,"lng":130.986453,"delta_lat":[0,5185,12484,-4318,-18862],"delta_lng":[0,-874,-76285,-785,35146]},"impl":true},
    {"code":9990415,"left":9990414,"right":1190613,"id":"9390ff","name":"美夜古泉","name_kana":"みやこいずみ","lat":33.709108,"lng":130.969052,"prefecture":40,"lines":[99904],"attr":"cool","postal_code":"824-0000","address":"行橋市大字福富","next":[9990417,1190614,1190613,9990414],"voronoi":{"lat":33.720531,"lng":130.942186,"delta_lat":[0,-1150,-10104,-13634],"delta_lng":[0,17553,17408,8163]},"impl":true},
    {"code":9990414,"id":"a7e153","name":"今川河童","name_kana":"いまがわかっぱ","lat":33.702983,"lng":130.965517,"prefecture":40,"lines":[99904],"attr":"cool","postal_code":"824-0043","address":"行橋市大字流末","next":[9990413,1190613,1191410,1190614,9990415,1190615,1191409],"voronoi":{"lat":33.721653,"lng":130.909992,"delta_lat":[0,-17415,-12484,2945,944,24888,5658],"delta_lng":[0,-699,76285,539,-808,-43124,-29921]},"impl":true},
    {"code":1190613,"id":"7640c5","name":"行橋","name_kana":"ゆくはし","lat":33.72835,"lng":130.970313,"prefecture":40,"lines":[11906,99904],"attr":"cool","postal_code":"824-0031","address":"行橋市西宮市２丁目","next":[9990417,1191409,9990414,1190614,9990415,1190612],"voronoi":{"lat":33.744331,"lng":130.916712,"delta_lat":[0,-18143,-5658,-1150,4341,15388],"delta_lng":[0,-4447,29921,17553,17513,17115]},"impl":true},
    {"code":100318,"left":9990805,"right":9992802,"id":"456856","name":"小倉(福岡)","original_name":"小倉","name_kana":"こくら","lat":33.886756,"lng":130.882678,"prefecture":40,"lines":[1003,11902,11906,11914,99908],"attr":"heat","postal_code":"802-0001","address":"北九州市小倉北区浅野１丁目","next":[9990804,9990802,1161237,1161236,1190206,1190607],"voronoi":{"lat":33.920771,"lng":130.89933,"delta_lat":[0,7712,-41960,-9853,-1058,644],"delta_lng":[0,-12143,-9160,24751,6790,5155]},"impl":true},
    {"code":9990805,"left":9990808,"right":1190606,"id":"1049f8","name":"片野","name_kana":"かたの","lat":33.865511,"lng":130.880039,"prefecture":40,"lines":[99908],"attr":"eco","postal_code":"802-0072","address":"北九州市小倉北区東篠崎１","next":[1190607,9990806,9990804,1190606],"voronoi":{"lat":33.862502,"lng":130.870924,"delta_lat":[0,-745,6847,1232],"delta_lng":[0,12100,8068,-18008]},"impl":true},
    {"code":9990808,"left":9990810,"right":9990807,"id":"5e497f","name":"競馬場前(福岡)","original_name":"競馬場前","name_kana":"けいばじょうまえ","lat":33.842878,"lng":130.876526,"prefecture":40,"lines":[99908],"attr":"heat","postal_code":"802-0841","address":"北九州市小倉南区北方４","next":[1190606,9990809,9990807,1191405],"voronoi":{"lat":33.83588,"lng":130.881315,"delta_lat":[0,14494,412,-7408],"delta_lng":[0,-24699,960,30368]},"impl":true},
    {"code":9990810,"left":9990812,"right":9990809,"id":"31d438","name":"徳力公団前","name_kana":"とくりきこうだんまえ","lat":33.830421,"lng":130.867554,"prefecture":40,"lines":[99908],"attr":"heat","postal_code":"802-0974","address":"北九州市小倉南区徳力１","next":[9990812,9990809,9990811,1190606],"voronoi":{"lat":33.848125,"lng":130.835412,"delta_lat":[0,-22261,3403,19962],"delta_lng":[0,32741,7059,-23383]},"impl":true},
    {"code":9990812,"left":9990811,"id":"a82e8f","name":"志井(北九州高速鉄道)","original_name":"志井","name_kana":"しい","lat":33.822556,"lng":130.871345,"prefecture":40,"lines":[99908],"attr":"cool","postal_code":"802-0985","address":"北九州市小倉南区大字志井","next":[9990809,9990810,9990811,9990813,1191407],"voronoi":{"lat":33.811536,"lng":130.864055,"delta_lat":[0,14328,3403,-307,-16315],"delta_lng":[0,4097,7059,2830,-7510]},"impl":true},
    {"code":9990811,"id":"cb3102","name":"徳力嵐山口","name_kana":"とくりきあらしやまぐち","lat":33.824744,"lng":130.863694,"prefecture":40,"lines":[99908],"attr":"heat","postal_code":"802-0974","address":"北九州市小倉南区徳力６","next":[1191408,9990812,1191407,1190606,1190210,1190211,9990810],"voronoi":{"lat":33.848125,"lng":130.835412,"delta_lat":[0,10,-29082,-17914,2826,7571,14328],"delta_lng":[0,-353,-23521,-11554,49366,14706,4097]},"impl":true},
    {"code":9990809,"id":"1cd54e","name":"守恒","name_kana":"もりつね","lat":33.836648,"lng":130.87287,"prefecture":40,"lines":[99908],"attr":"heat","postal_code":"802-0971","address":"北九州市小倉南区守恒本町１","next":[9990812,9990808,9990810,9990813,1190606,1191405],"voronoi":{"lat":33.850374,"lng":130.856616,"delta_lat":[0,-1146,-19962,-307,375,6546],"delta_lng":[0,-4787,23383,2830,1363,1910]},"impl":true},
    {"code":9990807,"left":1191406,"right":9990806,"id":"a444d9","name":"北方(福岡)","original_name":"北方","name_kana":"きたがた","lat":33.84908,"lng":130.878039,"prefecture":40,"lines":[99908],"attr":"heat","postal_code":"802-0841","address":"北九州市小倉南区北方３","next":[9990806,1191405,9990808,1190607,1190606,1190608],"voronoi":{"lat":33.845331,"lng":130.891033,"delta_lat":[0,-1952,7408,5143,-2852,-7478],"delta_lng":[0,-3089,-30368,8175,17017,8316]},"impl":true},
    {"code":1191406,"left":9990813,"id":"9bd655","name":"志井公園","name_kana":"しいこうえん","lat":33.818636,"lng":130.879793,"prefecture":40,"lines":[11914],"attr":"heat","postal_code":"802-0981","address":"北九州市小倉南区企救丘２丁目","next":[1190609,9990813,1191407,1191405],"voronoi":{"lat":33.798344,"lng":130.914183,"delta_lat":[0,13457,14919,-20279],"delta_lng":[0,-39015,7074,29898]},"impl":true},
    {"code":9990813,"id":"0edd33","name":"企救丘","name_kana":"きくがおか","lat":33.819708,"lng":130.877532,"prefecture":40,"lines":[99908],"attr":"cool","postal_code":"802-0981","address":"北九州市小倉南区企救丘２","next":[1191405,1191406,9990809,1191407,9990812],"voronoi":{"lat":33.829335,"lng":130.879405,"delta_lat":[0,-2614,-14919,843,16315],"delta_lng":[0,2837,-7074,-4636,7510]},"impl":true},
    {"code":9990806,"id":"b1e1e5","name":"城野(北九州高速鉄道)","original_name":"城野","name_kana":"じょうの","lat":33.858398,"lng":130.879601,"prefecture":40,"lines":[99908],"attr":"heat","postal_code":"802-0801","address":"北九州市小倉南区富士見三丁目","next":[9990807,1190607,9990805,1190606],"voronoi":{"lat":33.85593,"lng":130.865751,"delta_lat":[0,-2852,8680,745],"delta_lng":[0,17017,256,-12100]},"impl":true},
    {"code":1190606,"left":1190207,"right":9990802,"id":"465c6e","name":"南小倉","name_kana":"みなみこくら","lat":33.869972,"lng":130.864895,"prefecture":40,"lines":[11906,11914],"attr":"heat","postal_code":"803-0851","address":"北九州市小倉北区木町３丁目","next":[9990808,9990803,1190209,1190206,1190210,9990807,1190207,9990806,9990811,9990809,9990804,9990810,9990805],"voronoi":{"lat":33.87647,"lng":130.871728,"delta_lat":[0,2602,7547,-12419,-21171,-4894,-10,1104,1146,412,5143,6573,7334],"delta_lng":[0,-1812,-15677,-15219,-3856,-106,353,16417,4787,960,8175,5173,2160]},"impl":true},
    {"code":1190207,"left":1190208,"right":1191001,"id":"28496c","name":"九州工大前","name_kana":"きゅうしゅうこうだいまえ","lat":33.900396,"lng":130.840068,"prefecture":40,"lines":[11902],"attr":"eco","postal_code":"804-0011","address":"北九州市戸畑区中原西１丁目","next":[1191001,1170235,1190206,1190208,1161235,1190606,1161236,1190209],"voronoi":{"lat":33.88134,"lng":130.833408,"delta_lat":[0,54024,59867,-11302,-7777,-36148,-53385,-12419],"delta_lng":[0,-9418,1388,18381,7236,21745,-18500,-15219]},"impl":true},
    {"code":1190208,"left":1190209,"id":"7430da","name":"戸畑","name_kana":"とばた","lat":33.897018,"lng":130.820692,"prefecture":40,"lines":[11902],"attr":"eco","postal_code":"804-0067","address":"北九州市戸畑区汐井町","next":[1190207,1190209,1191001],"voronoi":{"lat":33.88134,"lng":130.833408,"delta_lat":[0,9335,44689],"delta_lng":[0,-22345,12927]},"impl":true},
    {"code":1190209,"id":"f5e734","name":"枝光","name_kana":"えだみつ","lat":33.879367,"lng":130.813318,"prefecture":40,"lines":[11902],"attr":"eco","postal_code":"805-0002","address":"北九州市八幡東区枝光２丁目","next":[1191001,1191002,1190606,1190208,1190207,1190210],"voronoi":{"lat":33.886102,"lng":130.797446,"delta_lat":[0,230,4343,-9335,-7140,-21171],"delta_lng":[0,102,13514,22345,5613,-3856]},"impl":true},
    {"code":1191001,"id":"d0d1df","name":"若松","name_kana":"わかまつ","lat":33.901179,"lng":130.806307,"prefecture":40,"lines":[11910],"attr":"heat","postal_code":"808-0035","address":"北九州市若松区白山１丁目","next":[1190207,1190209,1191002,1170235,1191004,1170233,1190208],"voronoi":{"lat":33.995231,"lng":130.825378,"delta_lat":[0,21302,31426,-6307,-155320,4343,44689],"delta_lng":[0,-23891,-54403,1252,49213,13514,12927]},"impl":true},
    {"code":9990802,"left":9990804,"right":1190206,"id":"cb2b5c","name":"平和通","name_kana":"へいわどおり","lat":33.883159,"lng":130.881246,"prefecture":40,"lines":[99908],"attr":"eco","postal_code":"802-0006","address":"北九州市小倉北区魚町２","next":[9990803,100318,9990804,1190206],"voronoi":{"lat":33.883842,"lng":130.876016,"delta_lat":[0,-6396,-776,9853],"delta_lng":[0,15419,11344,-24751]},"impl":true},
    {"code":9990804,"left":9990803,"id":"1a8629","name":"香春口三萩野","name_kana":"かわらぐちみはぎの","lat":33.873174,"lng":130.880563,"prefecture":40,"lines":[99908],"attr":"eco","postal_code":"802-0084","address":"北九州市小倉北区香春口１","next":[100318,1190607,9990802,9990805,9990803,1190606],"voronoi":{"lat":33.87647,"lng":130.871728,"delta_lat":[0,977,-776,-1058,-7008,1232],"delta_lng":[0,19706,11344,6790,-18477,-18008]},"impl":true},
    {"code":9990803,"id":"3fb10b","name":"旦過","name_kana":"たんが","lat":33.880623,"lng":130.880194,"prefecture":40,"lines":[99908],"attr":"eco","postal_code":"802-0006","address":"北九州市小倉北区魚町４","next":[1190206,9990802,1190606,9990804],"voronoi":{"lat":33.87647,"lng":130.871728,"delta_lat":[0,2602,4771,-6396],"delta_lng":[0,-1812,6099,15419]},"impl":true},
    {"code":1190206,"id":"5a5215","name":"西小倉","name_kana":"にしこくら","lat":33.888673,"lng":130.873897,"prefecture":40,"lines":[11902,11906,11914],"attr":"heat","postal_code":"803-0812","address":"北九州市小倉北区室町３丁目","next":[9990803,1190207,1190606,1161236,100318,9990802],"voronoi":{"lat":33.928483,"lng":130.887188,"delta_lat":[0,11520,-53385,-7547,4771,2681],"delta_lng":[0,-14448,-18500,15677,6099,2012]},"impl":true},
    {"code":9992802,"left":1190609,"right":1161235,"id":"66533e","name":"出光美術館","name_kana":"いでみつびじゅつかん","lat":33.947792,"lng":130.965292,"prefecture":40,"lines":[99928],"attr":"eco","postal_code":"800-0000","address":"福岡県北九州市門司区","next":[1190611,9992803,1190202,9992804,1172312,9992801],"voronoi":{"lat":33.874141,"lng":131.067529,"delta_lat":[0,63617,15262,-1743,-4811,-73694],"delta_lng":[0,1541,-95326,-13737,3412,87823]},"impl":true},
    {"code":1190609,"left":1190607,"right":9992801,"id":"acffe6","name":"下曽根","name_kana":"しもそね","lat":33.832522,"lng":130.934829,"prefecture":40,"lines":[11906],"attr":"heat","postal_code":"800-0217","address":"北九州市小倉南区下曽根１丁目","next":[1191407,1191406,1190610,1191405,1161237,1190608],"voronoi":{"lat":33.818191,"lng":130.912002,"delta_lat":[0,-11750,-8097,-2230,73713,-1470],"delta_lng":[0,137,2043,1072,91751,-75890]},"impl":true},
    {"code":1190607,"left":1190608,"right":1161237,"id":"8febcb","name":"城野(JR)","original_name":"城野","name_kana":"じょうの","lat":33.858202,"lng":130.886242,"prefecture":40,"lines":[11906,11914],"attr":"heat","postal_code":"802-0802","address":"北九州市小倉南区城野一丁目6-1","next":[1190608,9990805,9990806,9990807,9990804,1161237,100318],"voronoi":{"lat":33.875613,"lng":130.909568,"delta_lat":[0,-7008,-6847,-8680,-7478,30612,45],"delta_lng":[0,-18477,-8068,-256,8316,23684,-44]},"impl":true},
    {"code":1190608,"left":1191405,"id":"337170","name":"安部山公園","name_kana":"あべやまこうえん","lat":33.844078,"lng":130.904498,"prefecture":40,"lines":[11906],"attr":"heat","postal_code":"800-0256","address":"北九州市小倉南区湯川新町４丁目","next":[1161237,1191405,1190607,9990807,1190609],"voronoi":{"lat":33.818191,"lng":130.912002,"delta_lat":[0,27139,269,30612,-7854],"delta_lng":[0,-20970,51,23684,16348]},"impl":true},
    {"code":1191405,"id":"39752e","name":"石田(福岡)","original_name":"石田","name_kana":"いしだ","lat":33.831985,"lng":130.888847,"prefecture":40,"lines":[11914],"attr":"heat","postal_code":"802-0833","address":"北九州市小倉南区上石田","next":[1190608,9990813,1190609,9990807,9990808,9990809,1191406],"voronoi":{"lat":33.82672,"lng":130.882241,"delta_lat":[0,2614,6546,7498,1952,-27139,-11750],"delta_lng":[0,-2837,1910,6629,3089,20970,137]},"impl":true},
    {"code":1161237,"id":"9834f5","name":"門司","name_kana":"もじ","lat":33.904309,"lng":130.933438,"prefecture":40,"lines":[11612,11902,11906],"attr":"heat","postal_code":"800-0039","address":"北九州市門司区中町","next":[1190608,9992801,1190609,1190203,1190610,100318,1190607,1161236],"voronoi":{"lat":33.920771,"lng":130.89933,"delta_lat":[0,-44515,-45,-7854,1470,2774,3674,46387],"delta_lng":[0,15393,44,16348,75890,12456,-5077,-106692]},"impl":true},
    {"code":9992801,"left":1190610,"right":1190202,"id":"e90452","name":"九州鉄道記念館","name_kana":"きゅうしゅうてつどうきねんかん","lat":33.944392,"lng":130.962439,"prefecture":40,"lines":[99928],"attr":"eco","postal_code":"800-0000","address":"福岡県北九州市門司区","next":[1190610,1161237,1190203,1190611,1190202,9992802],"voronoi":{"lat":33.946466,"lng":130.96342,"delta_lat":[0,-15784,-54407,-3674,-1071,1242],"delta_lng":[0,-13229,64194,5077,19797,11984]},"impl":true},
    {"code":1190610,"left":1190203,"id":"9bb330","name":"朽網","name_kana":"くさみ","lat":33.807384,"lng":130.955025,"prefecture":40,"lines":[11906],"attr":"heat","postal_code":"802-0000","address":"北九州市小倉南区井無田","next":[9992801,1190611,1190609,1191408,1161237,1191407,1190612],"voronoi":{"lat":33.766041,"lng":130.918086,"delta_lat":[0,6874,23200,73713,2774,-1071,-96448],"delta_lng":[0,-1730,-1101,91751,12456,19797,-92150]},"impl":true},
    {"code":1190203,"id":"ebf907","name":"小森江","name_kana":"こもりえ","lat":33.916352,"lng":130.938674,"prefecture":40,"lines":[11902,11906],"attr":"heat","postal_code":"800-0007","address":"北九州市門司区小森江３丁目","next":[9992801,1161237,1190202,1161236],"voronoi":{"lat":33.930683,"lng":130.95019,"delta_lat":[0,-54407,46387,15332],"delta_lng":[0,64194,-106692,33296]},"impl":true},
    {"code":1190202,"id":"4f17c1","name":"門司港","name_kana":"もじこう","lat":33.945138,"lng":130.961549,"prefecture":40,"lines":[11902,11906],"attr":"heat","postal_code":"801-0841","address":"北九州市門司区西海岸１丁目","next":[9992802,1190203,9992803,1161236,9992801],"voronoi":{"lat":33.930683,"lng":130.95019,"delta_lat":[0,7312,17447,-4164,-4811],"delta_lng":[0,-9202,2341,16678,3412]},"impl":true},
    {"code":1161235,"left":1170240,"right":9992804,"id":"098f19","name":"幡生","name_kana":"はたぶ","lat":33.981592,"lng":130.92734,"prefecture":35,"lines":[11612,11702],"attr":"heat","postal_code":"751-0829","address":"下関市幡生宮の下町","next":[100317,1161236,1190207,9992804,1170236,9992803,1170235],"voronoi":{"lat":33.993104,"lng":130.938282,"delta_lat":[0,-12201,-10197,-7098,12543,7777,7190],"delta_lng":[0,14193,-5343,-4926,-91212,-7236,29101]},"impl":true},
    {"code":1170240,"left":1170236,"right":1170235,"id":"b11de8","name":"梶栗郷台地","name_kana":"かじくりごうだいち","lat":34.013477,"lng":130.923601,"prefecture":35,"lines":[11702],"attr":"heat","postal_code":"751-0865","address":"下関市綾羅木新町３丁目","next":[1170235,100317,1170236],"voronoi":{"lat":33.993621,"lng":130.878098,"delta_lat":[0,39780,-20978],"delta_lng":[0,65353,-6723]},"impl":true},
    {"code":1170236,"left":1161236,"id":"ab6ac3","name":"綾羅木","name_kana":"あやらぎ","lat":34.003932,"lng":130.926662,"prefecture":35,"lines":[11702],"attr":"heat","postal_code":"751-0849","address":"下関市綾羅木本町２","next":[100317,1170235,1170240,1161235],"voronoi":{"lat":33.991119,"lng":130.87286,"delta_lat":[0,2503,18802,-19319],"delta_lng":[0,5238,58630,1555]},"impl":true},
    {"code":1161236,"id":"fc3cbd","name":"下関","name_kana":"しものせき","lat":33.950306,"lng":130.923038,"prefecture":35,"lines":[11612,11702,11902],"attr":"heat","postal_code":"750-0025","address":"下関市大字竹崎町４丁目","next":[9992803,1161235,1190207,1190206,100318,1190202,1161237,1190203],"voronoi":{"lat":33.922662,"lng":130.907693,"delta_lat":[0,-1891,7712,11520,36148,-12543,-8167,-17447],"delta_lng":[0,-8362,-12143,-14448,-21745,91212,1123,-2341]},"impl":true},
    {"code":1170235,"id":"fe4c6a","name":"安岡","name_kana":"やすおか","lat":34.024921,"lng":130.916635,"prefecture":35,"lines":[11702],"attr":"heat","postal_code":"759-6612","address":"下関市安岡駅前１","next":[1190207,1170234,1170240,1191001,1170236,100317,1170233,1161235],"voronoi":{"lat":33.993621,"lng":130.878098,"delta_lat":[0,39780,3915,-3640,-17144,-21302,-11302,7190],"delta_lng":[0,65353,2403,-84078,-60289,23891,18381,29101]},"impl":true},
    {"code":9992804,"left":9992803,"right":100317,"id":"a66925","name":"関門海峡めかり","name_kana":"かんもんかいきょうめかり","lat":33.960627,"lng":130.967347,"prefecture":40,"lines":[99928],"attr":"heat","postal_code":"801-0855","address":"福岡県北九州市門司区門司","next":[9992803,1172312,1161235,9992802,1161233,100317],"voronoi":{"lat":33.980903,"lng":130.952476,"delta_lat":[0,-10197,-17686,-15262,4977,49591],"delta_lng":[0,-5343,26612,95326,432,-90415]},"impl":true},
    {"code":9992803,"id":"d6367f","name":"ノーフォーク広場","name_kana":"のーふぉーくひろば","lat":33.955973,"lng":130.964254,"prefecture":40,"lines":[99928],"attr":"heat","postal_code":"801-0854","address":"福岡県北九州市門司区旧門司","next":[1161236,9992802,9992804,1190202,1161235],"voronoi":{"lat":33.963609,"lng":130.942206,"delta_lat":[0,-8167,-4164,1743,17686],"delta_lng":[0,1123,16678,13737,-26612]},"impl":true},
    {"code":100317,"id":"78a2be","name":"新下関","name_kana":"しんしものせき","lat":34.005651,"lng":130.948021,"prefecture":35,"lines":[1003,11612],"attr":"heat","postal_code":"751-0872","address":"下関市秋根南町１丁目","next":[1170236,1161233,1161235,1170240,1170235,1170234,9992804],"voronoi":{"lat":34.05111,"lng":130.963545,"delta_lat":[0,-13793,-3915,-20978,-19319,-12201,11423],"delta_lng":[0,-17691,-2403,-6723,1555,14193,26612]},"impl":true},
    {"code":1172312,"left":1172110,"right":1161226,"id":"4fe46a","name":"長門本山","name_kana":"ながともとやま","lat":33.942755,"lng":131.173213,"prefecture":35,"lines":[11723],"attr":"heat","postal_code":"756-0817","address":"山陽小野田市小野田","next":[1190620,1172306,9992804,1190611,1172311,1172112,1161231,1161233,1190616,9992802,1190619],"voronoi":{"lat":33.776741,"lng":131.202929,"delta_lat":[0,138167,43264,4809,-13852,-6394,-4977,-63617,-79638,-14021,-2426],"delta_lng":[0,12564,-53344,-72758,-17072,-2816,-432,-1541,64913,27976,16640]},"impl":true},
    {"code":1172110,"left":1190619,"right":1190632,"id":"a1e3af","name":"常盤(山口)","original_name":"常盤","name_kana":"ときわ","lat":33.940907,"lng":131.292636,"prefecture":35,"lines":[11721],"attr":"eco","postal_code":"755-0151","address":"宇部市大字西岐波","next":[1172111,1190627,1172108,1172113,1172109,1190628,1190626],"voronoi":{"lat":33.761978,"lng":131.376142,"delta_lat":[0,13997,90314,101454,-6634,-205897,1878],"delta_lng":[0,58109,-60127,-94514,-1390,48352,23330]},"impl":true},
    {"code":1190619,"left":1190620,"right":1190616,"id":"7d54d3","name":"宇島","name_kana":"うのしま","lat":33.62131,"lng":131.126354,"prefecture":40,"lines":[11906],"attr":"eco","postal_code":"828-0021","address":"豊前市大字八屋","next":[1190620,1190616,1190618,1190617,1190621,1172312],"voronoi":{"lat":33.780482,"lng":131.160418,"delta_lat":[0,-9683,-88624,-194962,50343,240500],"delta_lng":[0,-5683,-41554,-7419,17794,53502]},"impl":true},
    {"code":1190620,"left":1191319,"right":1190622,"id":"0b6e21","name":"三毛門","name_kana":"みけかど","lat":33.614597,"lng":131.15653,"prefecture":40,"lines":[11906],"attr":"eco","postal_code":"828-0031","address":"豊前市大字三毛門","next":[1190622,1172112,1190619,1190621,1172312],"voronoi":{"lat":33.778056,"lng":131.177059,"delta_lat":[0,-240500,145563,80097,13525],"delta_lng":[0,-53502,84364,36014,-41006]},"impl":true},
    {"code":1191319,"left":1191318,"right":1191315,"id":"501a39","name":"豊後森","name_kana":"ぶんごもり","lat":33.282954,"lng":131.155202,"prefecture":44,"lines":[11913],"attr":"heat","postal_code":"879-4403","address":"玖珠郡玖珠町大字帆足","next":[1191318,1191323,1191320,1190621,1190622,1190625,1190624],"voronoi":{"lat":33.440565,"lng":131.177551,"delta_lat":[0,4976,475,-202169,67506,92005,14000],"delta_lng":[0,-44249,-8105,3538,96672,40514,-28631]},"impl":true},
    {"code":1191318,"left":1191317,"id":"021be8","name":"北山田(大分)","original_name":"北山田","name_kana":"きたやまだ","lat":33.282004,"lng":131.100917,"prefecture":44,"lines":[11913],"attr":"heat","postal_code":"879-4331","address":"玖珠郡玖珠町大字戸畑","next":[1190618,1191319,1191315,1191321,1191317,1191320,1190621],"voronoi":{"lat":33.243846,"lng":131.128736,"delta_lat":[0,-21839,-10633,119305,120914,645,-6223],"delta_lng":[0,-7941,-6793,-59390,3151,39980,27455]},"impl":true},
    {"code":1191317,"id":"80430b","name":"杉河内","name_kana":"すぎかわち","lat":33.264391,"lng":131.065535,"prefecture":44,"lines":[11913],"attr":"heat","postal_code":"879-4202","address":"日田市天瀬町赤岩","next":[1191321,1191318,1191315,1191316],"voronoi":{"lat":33.211374,"lng":131.114001,"delta_lat":[0,119305,-46420,-182642],"delta_lng":[0,-59390,-15621,42282]},"impl":true},
    {"code":1191315,"id":"13f8c4","name":"豊後中川","name_kana":"ぶんごなかがわ","lat":33.284482,"lng":131.005834,"prefecture":44,"lines":[11913],"attr":"heat","postal_code":"879-4122","address":"日田市天瀬町合田","next":[1191421,1191318,1190618,1191316,1191313,1191317,1191314],"voronoi":{"lat":33.438951,"lng":131.039367,"delta_lat":[0,13359,-716,-120914,-46420,-51435,160752],"delta_lng":[0,15695,2701,-3151,-15621,-84765,63126]},"impl":true},
    {"code":1190622,"left":1190624,"right":1190621,"id":"5664eb","name":"中津(大分)","original_name":"中津","name_kana":"なかつ","lat":33.599202,"lng":131.190769,"prefecture":44,"lines":[11906],"attr":"eco","postal_code":"871-0033","address":"中津市大字島田","next":[1190620,1190623,1190624,1172112,1191319,1190621],"voronoi":{"lat":33.763216,"lng":131.243935,"delta_lat":[0,-2206,-312035,-8411,4976,237579],"delta_lng":[0,10371,-73763,-2991,-44249,74618]},"impl":true},
    {"code":1190624,"left":1190623,"id":"eb18e1","name":"今津(大分)","original_name":"今津","name_kana":"いまづ","lat":33.571929,"lng":131.267462,"prefecture":44,"lines":[11906],"attr":"eco","postal_code":"879-0101","address":"中津市大字今津","next":[1190622,1190623,1190625,1190626,1191319],"voronoi":{"lat":33.440565,"lng":131.177551,"delta_lat":[0,8411,225601,-26530,-230689],"delta_lng":[0,2991,124959,-2614,-65597]},"impl":true},
    {"code":1190623,"id":"ee09c8","name":"東中津","name_kana":"ひがしなかつ","lat":33.58788,"lng":131.238664,"prefecture":44,"lines":[11906],"attr":"eco","postal_code":"871-0003","address":"中津市大字是則","next":[1172111,1172112,1190622,1190624,1190626],"voronoi":{"lat":33.674577,"lng":131.305501,"delta_lat":[0,-225601,312035,-2836,-3038],"delta_lng":[0,-124959,73763,41967,29726]},"impl":true},
    {"code":1190621,"id":"b3393e","name":"吉富(福岡)","original_name":"吉富","name_kana":"よしとみ","lat":33.604465,"lng":131.174012,"prefecture":40,"lines":[11906],"attr":"eco","postal_code":"871-0811","address":"築上郡吉富町大字広津","next":[1190620,1191319,1190618,1190622,1190619,1191318],"voronoi":{"lat":33.452239,"lng":131.097743,"delta_lat":[0,34975,50343,145563,-237579,475],"delta_lng":[0,8020,17794,84364,-74618,-8105]},"impl":true},
    {"code":1190616,"left":9990417,"right":1172112,"id":"5da3d0","name":"築城","name_kana":"ついき","lat":33.673119,"lng":131.038069,"prefecture":40,"lines":[11906],"attr":"eco","postal_code":"829-0101","address":"築上郡築上町東築城","next":[9990411,1190617,9990412,1190619,1190615,1190611,1172312],"voronoi":{"lat":33.794504,"lng":131.132443,"delta_lat":[0,-24036,-119299,-14241,-21700,155572,9683],"delta_lng":[0,-45318,-88345,-1269,2858,154367,5683]},"impl":true},
    {"code":9990417,"left":1190615,"right":1190611,"id":"589a5d","name":"令和コスタ行橋","name_kana":"れいわこすたゆくはし","lat":33.716389,"lng":130.973278,"prefecture":40,"lines":[99904],"attr":"cool","postal_code":"824-0038","address":"福岡県行橋市西泉6丁目2736-4","open_date":"2019-08-24","next":[9990415,1190613,1190614],"voronoi":{"lat":33.719381,"lng":130.959738,"delta_lat":[0,-10104,14445],"delta_lng":[0,17408,105]},"impl":true},
    {"code":1190615,"left":1190614,"id":"735cda","name":"新田原","name_kana":"しんでんばる","lat":33.695152,"lng":131.008316,"prefecture":40,"lines":[11906],"attr":"cool","postal_code":"824-0026","address":"行橋市大字道場寺","next":[1190611,9990413,1190616,1190614,9990414,9990412,1190612],"voronoi":{"lat":33.770468,"lng":131.087124,"delta_lat":[0,-119299,35400,5185,2945,52567,7312],"delta_lng":[0,-88345,-12327,-874,539,40936,11635]},"impl":true},
    {"code":1190614,"id":"2b432f","name":"南行橋","name_kana":"みなみゆくはし","lat":33.716332,"lng":130.981118,"prefecture":40,"lines":[11906],"attr":"cool","postal_code":"824-0034","address":"行橋市泉中央２丁目","next":[9990415,1190613,9990414,1190615,9990417,1190612],"voronoi":{"lat":33.739109,"lng":130.994366,"delta_lat":[0,-15388,-14445,-13634,-944,52567],"delta_lng":[0,-17115,-105,8163,808,40936]},"impl":true},
    {"code":1190611,"id":"474baf","name":"苅田","name_kana":"かんだ","lat":33.784462,"lng":130.979016,"prefecture":40,"lines":[11906],"attr":"heat","postal_code":"800-0361","address":"京都郡苅田町神田町１丁目","next":[1190615,9992802,1190610,1190612,1172312,1190616,9992801],"voronoi":{"lat":33.87153,"lng":131.039259,"delta_lat":[0,-96448,-20505,15890,24036,79638,-1369],"delta_lng":[0,-92150,91580,48436,45318,-64913,-16287]},"impl":true},
    {"code":1172112,"left":1190618,"right":1172111,"id":"2ee3c0","name":"宇部岬","name_kana":"うべみさき","lat":33.934672,"lng":131.262102,"prefecture":35,"lines":[11721],"attr":"eco","postal_code":"755-0026","address":"宇部市松山町５丁目","next":[1190623,1172114,1190620,1172111,1172115,1190622,1172113,1172311,1172312],"voronoi":{"lat":33.776741,"lng":131.202929,"delta_lat":[0,-13525,-2206,-2836,186129,-10481,-3485,-14124,-1305],"delta_lng":[0,41006,10371,41967,-29440,-27694,-6372,-17023,-251]},"impl":true},
    {"code":1190618,"left":1190617,"id":"9dafb5","name":"豊前松江","name_kana":"ぶぜんしょうえ","lat":33.622487,"lng":131.095421,"prefecture":40,"lines":[11906],"attr":"eco","postal_code":"828-0002","address":"豊前市大字松江","next":[1191420,1191318,1191421,1190617,1191315,1190619,1190621,9990409,9990410],"voronoi":{"lat":33.537934,"lng":130.999554,"delta_lat":[0,-7407,-39250,-38967,-716,645,34975,194962,-135967],"delta_lng":[0,-576,21116,34968,2701,39980,8020,7419,-112133]},"impl":true},
    {"code":1190617,"id":"12059f","name":"椎田","name_kana":"しいだ","lat":33.653377,"lng":131.057965,"prefecture":40,"lines":[11906],"attr":"eco","postal_code":"829-0301","address":"築上郡築上町椎田","next":[1190616,9990410,1190618,9990411,1190619],"voronoi":{"lat":33.682176,"lng":131.113181,"delta_lat":[0,-135967,59827,9192,155572],"delta_lng":[0,-112133,-1355,675,154367]},"impl":true},
    {"code":1172111,"id":"9cad45","name":"草江","name_kana":"くさえ","lat":33.936602,"lng":131.274304,"prefecture":35,"lines":[11721],"attr":"eco","postal_code":"755-0004","address":"宇部市草江３丁目","next":[1190623,1172110,1190626,1172112,1172113],"voronoi":{"lat":33.944304,"lng":131.266832,"delta_lat":[0,-186129,-3038,75,205897],"delta_lng":[0,29440,29726,574,-48352]},"impl":true},
    {"code":1190632,"left":1190641,"right":1190629,"id":"a00370","name":"中山香","name_kana":"なかやまが","lat":33.448636,"lng":131.505721,"prefecture":44,"lines":[11906],"attr":"eco","postal_code":"879-1307","address":"杵築市山香町野原","next":[1190633,1190631,1190636,1190637],"voronoi":{"lat":33.413689,"lng":131.53178,"delta_lat":[0,162397,-166943,-3935],"delta_lng":[0,87660,-192890,78440]},"impl":true},
    {"code":1190641,"left":1190638,"right":1190634,"id":"07dd11","name":"東別府","name_kana":"ひがしべっぷ","lat":33.267753,"lng":131.510537,"prefecture":44,"lines":[11906],"attr":"heat","postal_code":"874-0947","address":"別府市大字浜脇","next":[1190642,1190639,1191331,1190640,1191333,1191330],"voronoi":{"lat":33.233004,"lng":131.528686,"delta_lat":[0,14357,57227,-7062,-55533,-10480],"delta_lng":[0,15116,17883,-28492,-64739,30256]},"impl":true},
    {"code":1190638,"left":1190640,"right":1190637,"id":"0bbbab","name":"亀川","name_kana":"かめがわ","lat":33.330688,"lng":131.493019,"prefecture":44,"lines":[11906],"attr":"eco","postal_code":"874-0014","address":"別府市亀川浜田町","next":[1191324,1190639,1190637,1190636],"voronoi":{"lat":33.33928,"lng":131.523471,"delta_lat":[0,37121,-80172,37588],"delta_lng":[0,-138843,39586,104990]},"impl":true},
    {"code":1190640,"left":1190639,"id":"ff1ac7","name":"別府(大分)","original_name":"別府","name_kana":"べっぷ","lat":33.279665,"lng":131.500319,"prefecture":44,"lines":[11906],"attr":"eco","postal_code":"874-0935","address":"別府市駅前町","next":[1190639,1191330,1191328,1190641,1191324],"voronoi":{"lat":33.294098,"lng":131.424964,"delta_lat":[0,3427,-55533,2813,15620],"delta_lng":[0,108229,-64739,-16027,-23497]},"impl":true},
    {"code":1190639,"id":"96a9ef","name":"別府大学","name_kana":"べっぷだいがく","lat":33.31327,"lng":131.499255,"prefecture":44,"lines":[11906],"attr":"eco","postal_code":"874-0023","address":"別府市上人ケ浜町","next":[1190635,1190638,1190636,1190641,1190640,1191324,1190642],"voronoi":{"lat":33.304587,"lng":131.561685,"delta_lat":[0,-7062,-3427,2131,37588,-2194,-24224],"delta_lng":[0,-28492,-108229,-749,104990,3981,30792]},"impl":true},
    {"code":1190637,"id":"628c23","name":"豊後豊岡","name_kana":"ぶんごとよおか","lat":33.361923,"lng":131.50137,"prefecture":44,"lines":[11906],"attr":"eco","postal_code":"879-1507","address":"速見郡日出町大字豊岡","next":[1190638,1190636,1190631,1190630,1190632,1191324],"voronoi":{"lat":33.33928,"lng":131.523471,"delta_lat":[0,65927,3935,-2935,-17949,-11857],"delta_lng":[0,-18482,-78440,-14441,-35532,8052]},"impl":true},
    {"code":1190634,"left":1190635,"right":1190633,"id":"18d11c","name":"大神","name_kana":"おおが","lat":33.383576,"lng":131.57524,"prefecture":44,"lines":[11906],"attr":"eco","postal_code":"879-1504","address":"速見郡日出町大字大神","next":[1190642,1190635,1190647,1190644,1190633,1190645,1190646],"voronoi":{"lat":33.397023,"lng":131.727914,"delta_lat":[0,356,-82560,1870,107,28318,22536],"delta_lng":[0,-178393,37571,34426,251,49504,28402]},"impl":true},
    {"code":1190635,"left":1190636,"id":"e1f675","name":"日出","name_kana":"ひじ","lat":33.368921,"lng":131.543036,"prefecture":44,"lines":[11906],"attr":"eco","postal_code":"879-1505","address":"速見郡日出町川崎字則次","next":[1190639,1190634,1190636,1190642,1190633],"voronoi":{"lat":33.404545,"lng":131.540158,"delta_lat":[0,-72921,-24224,7420,82560],"delta_lng":[0,-6973,30792,23115,-37571]},"impl":true},
    {"code":1190636,"id":"9b9a08","name":"暘谷","name_kana":"ようこく","lat":33.370112,"lng":131.530581,"prefecture":44,"lines":[11906],"attr":"eco","postal_code":"879-1505","address":"速見郡日出町大字川崎字佐尾","next":[1190639,1190637,1190635,1190632,1190633,1190638],"voronoi":{"lat":33.331624,"lng":131.533185,"delta_lat":[0,72921,9144,-8481,-65927,-5463],"delta_lng":[0,6973,-8379,-26790,18482,5733]},"impl":true},
    {"code":1190633,"id":"420b38","name":"杵築","name_kana":"きつき","lat":33.411081,"lng":131.575295,"prefecture":44,"lines":[11906],"attr":"eco","postal_code":"873-0015","address":"杵築市大字八坂野添","next":[1190631,1190632,1190649,1161213,1190647,1190636,1190634,1190648,1190635],"voronoi":{"lat":33.404545,"lng":131.540158,"delta_lat":[0,9144,162397,134021,-114380,-146430,-3837,-48436,356],"delta_lng":[0,-8379,87660,96454,189649,-118074,-3795,-55759,-178393]},"impl":true},
    {"code":1190629,"left":1190627,"right":1190631,"id":"9171e9","name":"宇佐","name_kana":"うさ","lat":33.531373,"lng":131.41231,"prefecture":44,"lines":[11906],"attr":"eco","postal_code":"879-1132","address":"宇佐市大字岩崎","next":[1190628,1161220,1190630,1190627,1190626,1190631],"voronoi":{"lat":33.557689,"lng":131.483783,"delta_lat":[0,-95023,14473,48657,220577,-1071],"delta_lng":[0,-150061,5674,32940,252708,2442]},"impl":true},
    {"code":1190627,"left":1190628,"right":1190626,"id":"353650","name":"柳ヶ浦","name_kana":"やなぎがうら","lat":33.564982,"lng":131.362665,"prefecture":44,"lines":[11906],"attr":"eco","postal_code":"872-0032","address":"大分県宇佐市大字江須賀","next":[1172110,1190626,1190629,1190628],"voronoi":{"lat":33.525796,"lng":131.372336,"delta_lat":[0,-48657,279950,4888],"delta_lng":[0,-32940,10507,26240]},"impl":true},
    {"code":1190628,"left":1190625,"id":"4814ab","name":"豊前長洲","name_kana":"ぶぜんながす","lat":33.56465,"lng":131.383264,"prefecture":44,"lines":[11906],"attr":"eco","postal_code":"872-0001","address":"宇佐市大字長洲","next":[1172108,1161220,1190629,1161221,1190627,1172110],"voronoi":{"lat":33.787347,"lng":131.533349,"delta_lat":[0,-19098,-21875,-220577,236181,13997],"delta_lng":[0,50311,41384,-252708,3807,58109]},"impl":true},
    {"code":1190625,"id":"c738f7","name":"天津","name_kana":"あまつ","lat":33.564678,"lng":131.292962,"prefecture":44,"lines":[11906],"attr":"eco","postal_code":"879-0161","address":"宇佐市大字下敷田","next":[1191324,1190630,1190624,1191319,1190626,1191323],"voronoi":{"lat":33.409943,"lng":131.306117,"delta_lat":[0,22191,215913,-230689,-14000,-638],"delta_lng":[0,9813,-13043,-65597,28631,5032]},"impl":true},
    {"code":1190626,"id":"6e617c","name":"豊前善光寺","name_kana":"ぶぜんぜんこうじ","lat":33.566479,"lng":131.322776,"prefecture":44,"lines":[11906],"attr":"eco","postal_code":"879-0309","address":"宇佐市大字東高家","next":[1190630,1172111,1190627,1190629,1190624,1190625,1190623,1172110],"voronoi":{"lat":33.755212,"lng":131.326572,"delta_lat":[0,-75,-80560,-26530,-215913,30533,14473,279950],"delta_lng":[0,-574,-20497,-2614,13043,17791,5674,10507]},"impl":true},
    {"code":1190631,"left":1180730,"right":1190630,"id":"0556b8","name":"立石","name_kana":"たていし","lat":33.481829,"lng":131.476993,"prefecture":44,"lines":[11906],"attr":"eco","postal_code":"879-1302","address":"杵築市山香町立石","next":[1190633,1190630,1161220,1190632,1190637,1190629,1161213],"voronoi":{"lat":33.724721,"lng":131.699465,"delta_lat":[0,20582,-187613,-151482,2935,166943,134021],"delta_lng":[0,-71979,-143703,-71674,14441,192890,96454]},"impl":true},
    {"code":1180730,"id":"c06aa0","name":"八幡浜","name_kana":"やわたはま","lat":33.458024,"lng":132.436213,"prefecture":38,"lines":[11807],"attr":"cool","postal_code":"796-0031","address":"八幡浜市江戸岡１丁目","next":[1190656,1180721,1161208,1180731,1180732,1180729,1161210,1180720,1190649],"voronoi":{"lat":33.268247,"lng":132.17276,"delta_lat":[0,24177,152381,105862,2674,80023,-44578,-34816,-212310],"delta_lng":[0,43534,236422,-37068,-5905,-248489,-73882,-44462,74238]},"impl":true},
    {"code":1190630,"id":"551e26","name":"西屋敷","name_kana":"にしやしき","lat":33.504332,"lng":131.429433,"prefecture":44,"lines":[11906],"attr":"eco","postal_code":"879-1127","address":"宇佐市大字西屋敷","next":[1190631,1190626,1190629,1191324,1190625,1190637],"voronoi":{"lat":33.557689,"lng":131.483783,"delta_lat":[0,-95023,-30533,-22191,-21684,17949],"delta_lng":[0,-150061,-17791,-9813,70459,35532]},"impl":true},
    {"code":1161226,"left":1172303,"right":1161214,"id":"adc67f","name":"本由良","name_kana":"ほんゆら","lat":34.031997,"lng":131.343621,"prefecture":35,"lines":[11612],"attr":"cool","postal_code":"754-0894","address":"山口市大字佐山","next":[1161227,1172103,1172104,1172106,1172107,1161225,1172105],"voronoi":{"lat":34.019741,"lng":131.347634,"delta_lat":[0,-10449,-2734,78656,-30021,-3814,-19723],"delta_lng":[0,-17191,-27278,6964,38838,2065,2875]},"impl":true},
    {"code":1172303,"left":1172115,"right":1172309,"id":"238d5a","name":"妻崎","name_kana":"つまざき","lat":33.970359,"lng":131.20278,"prefecture":35,"lines":[11723],"attr":"cool","postal_code":"759-0206","address":"宇部市大字東須恵","next":[1172304,1172309,1172308,1161228,1172117,1172116],"voronoi":{"lat":33.988591,"lng":131.20895,"delta_lat":[0,2924,-6340,-4632,-32588,22226],"delta_lng":[0,-5049,-8553,-3218,20643,2889]},"impl":true},
    {"code":1172115,"left":1172304,"right":1172109,"id":"abc42f","name":"宇部新川","name_kana":"うべしんかわ","lat":33.958369,"lng":131.242441,"prefecture":35,"lines":[11721,11723],"attr":"heat","postal_code":"755-0051","address":"宇部市上町１丁目","next":[1172112,1172114,1172116,1172311,1161227,1172117],"voronoi":{"lat":33.97693,"lng":131.243953,"delta_lat":[0,-48792,-11925,14124,63637,1235],"delta_lng":[0,-29695,1486,17023,36814,-3910]},"impl":true},
    {"code":1172304,"left":1172305,"right":1172116,"id":"c62555","name":"長門長沢","name_kana":"ながとながさわ","lat":33.966562,"lng":131.196786,"prefecture":35,"lines":[11723],"attr":"cool","postal_code":"759-0206","address":"宇部市大字東須恵","next":[1172303,1172305,1172306,1172307,1172311,1172308,1172116],"voronoi":{"lat":33.93854,"lng":131.206726,"delta_lat":[0,33792,2832,2249,3129,-32588,-16203],"delta_lng":[0,-19994,712,1119,3566,20643,257]},"impl":true},
    {"code":1172305,"left":1172311,"id":"22f500","name":"雀田","name_kana":"すずめだ","lat":33.960743,"lng":131.186951,"prefecture":35,"lines":[11723],"attr":"cool","postal_code":"756-0817","address":"山陽小野田市小野田","next":[1172311,1172304,1172306],"voronoi":{"lat":33.960973,"lng":131.175901,"delta_lat":[0,-22433,33792],"delta_lng":[0,30826,-19994]},"impl":true},
    {"code":1172311,"id":"ec8289","name":"浜河内","name_kana":"はまごうち","lat":33.950529,"lng":131.179518,"prefecture":35,"lines":[11723],"attr":"heat","postal_code":"756-0817","address":"山陽小野田市小野田","next":[1172305,1172116,1172112,1172312,1172306,1172115,1172304],"voronoi":{"lat":33.928139,"lng":131.214258,"delta_lat":[0,-11925,-1305,43264,2801,-22433,-6789],"delta_lng":[0,1486,-251,-53344,13752,30826,6303]},"impl":true},
    {"code":1172116,"id":"0c556a","name":"居能","name_kana":"いのう","lat":33.96706,"lng":131.228161,"prefecture":35,"lines":[11721,11723],"attr":"heat","postal_code":"755-0055","address":"宇部市居能町２丁目","next":[1172117,1172311,1172303,1172115,1172304],"voronoi":{"lat":33.947955,"lng":131.212773,"delta_lat":[0,22226,6750,-48792,3613],"delta_lng":[0,2889,28291,-29695,-1228]},"impl":true},
    {"code":1172109,"left":1172113,"right":1172108,"id":"955958","name":"床波","name_kana":"とこなみ","lat":33.952851,"lng":131.305457,"prefecture":35,"lines":[11721],"attr":"cool","postal_code":"755-0151","address":"宇部市大字西岐波","next":[1172114,1161227,1172108,1172110,1172113],"voronoi":{"lat":33.866289,"lng":131.374124,"delta_lat":[0,134920,-8891,-15558,-9017],"delta_lng":[0,-75114,-20274,45,829]},"impl":true},
    {"code":1172113,"left":1172114,"id":"414ef9","name":"東新川(山口)","original_name":"東新川","name_kana":"ひがししんかわ","lat":33.94839,"lng":131.25691,"prefecture":35,"lines":[11721],"attr":"eco","postal_code":"755-0019","address":"宇部市東新川町","next":[1172114,1172112,1172110,1172111,1172109],"voronoi":{"lat":33.961108,"lng":131.278221,"delta_lat":[0,-16805,-10481,42937,-9017],"delta_lng":[0,-11388,-27694,39643,829]},"impl":true},
    {"code":1172114,"id":"5986ca","name":"琴芝","name_kana":"ことしば","lat":33.952698,"lng":131.252244,"prefecture":35,"lines":[11721],"attr":"eco","postal_code":"755-0033","address":"宇部市琴芝町２丁目","next":[1172113,1172109,1172112,1172115,1161227],"voronoi":{"lat":33.993975,"lng":131.269581,"delta_lat":[0,-63637,3485,42937,15558],"delta_lng":[0,-36814,6372,39643,-45]},"impl":true},
    {"code":1172108,"id":"8a121e","name":"丸尾","name_kana":"まるお","lat":33.970255,"lng":131.336718,"prefecture":35,"lines":[11721],"attr":"cool","postal_code":"755-0241","address":"宇部市大字東岐波","next":[1161227,1172107,1190628,1172110,1172109,1161222,1161221],"voronoi":{"lat":33.775974,"lng":131.434252,"delta_lat":[0,90314,134920,2300,-97053,-108045,-11064],"delta_lng":[0,-60127,-75114,2285,168917,59167,3969]},"impl":true},
    {"code":1172309,"left":1172308,"right":1161229,"id":"863a9e","name":"目出","name_kana":"めで","lat":33.996595,"lng":131.183334,"prefecture":35,"lines":[11723],"attr":"eco","postal_code":"756-0817","address":"山陽小野田市小野田","next":[1161229,1172303,100316,1161228,1172308],"voronoi":{"lat":34.011433,"lng":131.138748,"delta_lat":[0,4,-12875,-7048,-6340],"delta_lng":[0,9,63963,1180,-8553]},"impl":true},
    {"code":1172308,"left":1172306,"right":1161233,"id":"1d41db","name":"南中川","name_kana":"みなみなかがわ","lat":33.986973,"lng":131.17887,"prefecture":35,"lines":[11723],"attr":"eco","postal_code":"756-0806","address":"山陽小野田市中川２丁目","next":[100316,1172303,1172307,1172309,1161231,1172304],"voronoi":{"lat":33.977413,"lng":131.188564,"delta_lat":[0,26748,3615,3657,-26259,-4632],"delta_lng":[0,-65101,2444,12842,56599,-3218]},"impl":true},
    {"code":1172306,"left":1172307,"id":"155a57","name":"小野田港","name_kana":"おのだこう","lat":33.972,"lng":131.175146,"prefecture":35,"lines":[11723],"attr":"cool","postal_code":"756-0833","address":"山陽小野田市北竜王町","next":[1172304,1172312,1161231,1172307,1172311,1172305],"voronoi":{"lat":33.975165,"lng":131.187445,"delta_lat":[0,-3275,-8908,-4809,2801,11359],"delta_lng":[0,-90267,-7787,72758,13752,10832]},"impl":true},
    {"code":1172307,"id":"ded1b5","name":"南小野田","name_kana":"みなみおのだ","lat":33.97743,"lng":131.174949,"prefecture":35,"lines":[11723],"attr":"cool","postal_code":"756-0837","address":"山陽小野田市平成町","next":[1172308,1172306,1172304,1161231],"voronoi":{"lat":33.977413,"lng":131.188564,"delta_lat":[0,-2249,-3275,32272],"delta_lng":[0,-1119,-90267,26285]},"impl":true},
    {"code":1161233,"id":"3249be","name":"長府","name_kana":"ちょうふ","lat":34.019264,"lng":130.999508,"prefecture":35,"lines":[11612],"attr":"heat","postal_code":"752-0933","address":"下関市長府松小田本町","next":[100317,1161231,1161232,1170234,1172312,9992804],"voronoi":{"lat":33.94913,"lng":131.072319,"delta_lat":[0,73067,52361,-23448,-58783,-49591],"delta_lng":[0,-25016,-75961,-7797,15543,90415]},"impl":true},
    {"code":1161229,"left":1172117,"right":1161227,"id":"bc6384","name":"小野田","name_kana":"おのだ","lat":34.007877,"lng":131.185605,"prefecture":35,"lines":[11612,11723],"attr":"cool","postal_code":"756-0088","address":"山陽小野田市東高泊","next":[1172309,1161228,100316],"voronoi":{"lat":34.011437,"lng":131.138758,"delta_lat":[0,-12875,52952],"delta_lng":[0,63963,7132]},"impl":true},
    {"code":1172117,"left":1161228,"id":"e5f561","name":"岩鼻","name_kana":"いわはな","lat":33.978608,"lng":131.225406,"prefecture":35,"lines":[11721],"attr":"heat","postal_code":"755-0057","address":"宇部市大字藤曲","next":[1161227,1172116,1161228,1172303,1172115],"voronoi":{"lat":33.97693,"lng":131.243953,"delta_lat":[0,-6750,18410,8275,-1656],"delta_lng":[0,-28291,-6712,54372,2349]},"impl":true},
    {"code":1161228,"id":"2d52df","name":"宇部","name_kana":"うべ","lat":34.003017,"lng":131.221691,"prefecture":35,"lines":[11612,11721],"attr":"cool","postal_code":"759-0207","address":"宇部市大字際波","next":[100316,1161227,1172303,1172117,1172309,1161229,1172202],"voronoi":{"lat":33.996866,"lng":131.263322,"delta_lat":[0,-8275,2924,7048,52952,712,4087],"delta_lng":[0,-54372,-5049,-1180,7132,581,6878]},"impl":true},
    {"code":1161227,"id":"319aa4","name":"厚東","name_kana":"ことう","lat":34.038709,"lng":131.267807,"prefecture":35,"lines":[11612],"attr":"cool","postal_code":"759-0122","address":"宇部市大字吉見字宮の下","next":[1161226,1172108,1172117,1161228,1172109,1161225,1172107,1172202,1172114,1172115,1172206],"voronoi":{"lat":34.10704,"lng":131.242322,"delta_lat":[0,-50727,-59448,-1656,-1235,-1657,8891,2300,3050,78656,48621],"delta_lng":[0,-25011,46010,2349,3910,9156,20274,2285,1869,6964,-13076]},"impl":true},
    {"code":1161214,"left":1161210,"right":1172414,"id":"e8a6a2","name":"下松(山口)","original_name":"下松","name_kana":"くだまつ","lat":34.008933,"lng":131.86799,"prefecture":35,"lines":[11612],"attr":"eco","postal_code":"744-0011","address":"下松市大字西豊井","next":[1172412,1172413,1161213,1172414,1161215,1161220],"voronoi":{"lat":34.021986,"lng":131.84968,"delta_lat":[0,671,-15585,-4103,-262845,35025],"delta_lng":[0,27354,21333,1623,-196361,6053]},"impl":true},
    {"code":1161210,"left":1172107,"right":1161209,"id":"33ad8f","name":"田布施","name_kana":"たぶせ","lat":33.958805,"lng":132.044084,"prefecture":35,"lines":[11612],"attr":"eco","postal_code":"742-1502","address":"熊毛郡田布施町大字波野","next":[1172408,1180730,1190649,1161209,1161211,1172407,1161213,1161208],"voronoi":{"lat":33.588786,"lng":132.087373,"delta_lat":[0,-34816,36932,265687,163523,4464,-83,-183724],"delta_lng":[0,-44462,-107530,31171,76466,17606,7454,20546]},"impl":true},
    {"code":1172107,"left":1161211,"right":1161212,"id":"35ccf9","name":"岐波","name_kana":"きわ","lat":33.989654,"lng":131.347864,"prefecture":35,"lines":[11721],"attr":"cool","postal_code":"755-0241","address":"宇部市大字東岐波","next":[1172108,1161222,1161227,1172106,1161226],"voronoi":{"lat":34.006559,"lng":131.303165,"delta_lat":[0,-3050,-97053,54291,48546],"delta_lng":[0,-1869,168917,-24593,-115177]},"impl":true},
    {"code":1161211,"left":1161213,"id":"ce7c7c","name":"岩田","name_kana":"いわた","lat":33.981624,"lng":131.995285,"prefecture":35,"lines":[11612],"attr":"eco","postal_code":"743-0103","address":"光市岩田","next":[1172408,1161213,1161212,1161210,1172409],"voronoi":{"lat":34.020112,"lng":132.043017,"delta_lat":[0,-163523,61970,100691,7474],"delta_lng":[0,-76466,-5888,25971,24819]},"impl":true},
    {"code":1161213,"id":"287390","name":"光","name_kana":"ひかり","lat":33.973975,"lng":131.914784,"prefecture":35,"lines":[11612],"attr":"eco","postal_code":"743-0022","address":"光市虹ケ浜３丁目","next":[1161212,1161211,1190649,1190633,1172412,1161210,1161220,1161214,1172411,1190631],"voronoi":{"lat":33.724721,"lng":131.699465,"delta_lat":[0,15404,262845,-2443,-407,-81561,-61970,-265687,4825,114380],"delta_lng":[0,4164,196361,30226,1196,29252,5888,-31171,-29838,-189649]},"impl":true},
    {"code":1161212,"id":"dbebbb","name":"島田(山口)","original_name":"島田","name_kana":"しまた","lat":33.990502,"lng":131.960865,"prefecture":35,"lines":[11612],"attr":"eco","postal_code":"743-0063","address":"光市大字島田","next":[1161213,1172410,1161211,1172409,1172411],"voronoi":{"lat":34.00012,"lng":131.931411,"delta_lat":[0,-81561,100691,533,-3786],"delta_lng":[0,29252,25971,-2831,-28313]},"impl":true},
    {"code":1161209,"left":1161207,"right":1161206,"id":"87a48c","name":"柳井","name_kana":"やない","lat":33.965728,"lng":132.105988,"prefecture":35,"lines":[11612],"attr":"eco","postal_code":"742-0032","address":"柳井市大字古開作","next":[1172407,1161204,1161210,1161208,1172406,1172405],"voronoi":{"lat":34.033196,"lng":132.138664,"delta_lat":[0,-192427,183724,3594,7330,606],"delta_lng":[0,-50040,-20546,7434,40088,20137]},"impl":true},
    {"code":1161207,"left":1161208,"id":"3bdc16","name":"大畠","name_kana":"おおばたけ","lat":33.963377,"lng":132.180741,"prefecture":35,"lines":[11612],"attr":"eco","postal_code":"749-0102","address":"柳井市大畠鍋網代","next":[1161206,1180720,1161208],"voronoi":{"lat":34.016265,"lng":132.151545,"delta_lat":[0,-185335,-168243],"delta_lng":[0,229551,-191304]},"impl":true},
    {"code":1161208,"id":"0556d6","name":"柳井港","name_kana":"やないみなと","lat":33.958357,"lng":132.134333,"prefecture":35,"lines":[11612],"attr":"eco","postal_code":"742-0021","address":"柳井市大字柳井","next":[1180730,1161206,1180720,1161204,1161205,1161209,1161207,1161210],"voronoi":{"lat":33.588786,"lng":132.087373,"delta_lat":[0,44578,29324,353578,11081,4538,1311,-192427],"delta_lng":[0,73882,28537,-38247,-5981,-4861,-2039,-50040]},"impl":true},
    {"code":1161206,"id":"cf517c","name":"神代(山口)","original_name":"神代","name_kana":"こうじろ","lat":33.998871,"lng":132.209398,"prefecture":35,"lines":[11612],"attr":"eco","postal_code":"740-1432","address":"岩国市由宇町神東","next":[9980601,1161207,1180719,1161208,1161205,1180720],"voronoi":{"lat":33.881674,"lng":132.441854,"delta_lat":[0,114935,30737,-11081,-185335,14378],"delta_lng":[0,26928,-323219,5981,229551,19877]},"impl":true},
    {"code":1172414,"left":1161215,"right":1172411,"id":"f25be4","name":"周防花岡","name_kana":"すおうはなおか","lat":34.035922,"lng":131.867328,"prefecture":35,"lines":[11724],"attr":"heat","postal_code":"744-0024","address":"下松市大字末武上","next":[1161215,9971810,1172413,1161214,100314],"voronoi":{"lat":34.075434,"lng":131.842805,"delta_lat":[0,-53447,671,139816,8379],"delta_lng":[0,6875,27354,3329,-14405]},"impl":true},
    {"code":1161215,"left":1172105,"right":1172104,"id":"b29405","name":"櫛ヶ浜","name_kana":"くしがはま","lat":34.031002,"lng":131.829079,"prefecture":35,"lines":[11612,11724],"attr":"eco","postal_code":"745-0801","address":"山口県周南市大字久米字院内3975-1","next":[1161220,1172414,100314,1161218,1161214],"voronoi":{"lat":33.775149,"lng":131.709682,"delta_lat":[0,141832,13091,145361,-53447],"delta_lng":[0,13064,5937,114122,6875]},"impl":true},
    {"code":1172105,"left":1172106,"id":"e20a51","name":"岩倉(山口)","original_name":"岩倉","name_kana":"いわくら","lat":34.02337,"lng":131.360009,"prefecture":35,"lines":[11721],"attr":"cool","postal_code":"754-1277","address":"山口市阿知須","next":[1172104,1172106,1161222,1172103,1161226],"voronoi":{"lat":34.013752,"lng":131.410436,"delta_lat":[0,-10493,-5954,22437,11915],"delta_lng":[0,21926,1388,-86116,6273]},"impl":true},
    {"code":1172106,"id":"bdbaf3","name":"阿知須","name_kana":"あじす","lat":34.010535,"lng":131.356665,"prefecture":35,"lines":[11721],"attr":"cool","postal_code":"754-1277","address":"山口市阿知須","next":[1161222,1172105,1161226,1172107],"voronoi":{"lat":34.009292,"lng":131.330442,"delta_lat":[0,10449,-22437,-36558],"delta_lng":[0,17191,86116,11870]},"impl":true},
    {"code":1172104,"id":"98d804","name":"周防佐山","name_kana":"すおうさやま","lat":34.034919,"lng":131.363667,"prefecture":35,"lines":[11721],"attr":"cool","postal_code":"754-0894","address":"山口市大字佐山","next":[1172103,1161226,1172105],"voronoi":{"lat":34.031657,"lng":131.353907,"delta_lat":[0,19723,-37628],"delta_lng":[0,-2875,59404]},"impl":true},
    {"code":1172411,"left":1172412,"right":1172413,"id":"7a2126","name":"大河内","name_kana":"おおかわち","lat":34.03098,"lng":131.934175,"prefecture":35,"lines":[11724],"attr":"heat","postal_code":"745-0651","address":"周南市大河内","next":[1172412,1172410,1161212,1161213],"voronoi":{"lat":34.015997,"lng":131.955491,"delta_lat":[0,61843,-77313,-407],"delta_lng":[0,-34437,9162,1196]},"impl":true},
    {"code":1172412,"id":"1474aa","name":"周防久保","name_kana":"すおうくぼ","lat":34.029211,"lng":131.919248,"prefecture":35,"lines":[11724],"attr":"heat","postal_code":"744-0061","address":"下松市大字河内","next":[1172411,1172413,1161214,1161213,1172410],"voronoi":{"lat":34.000526,"lng":131.930216,"delta_lat":[0,2443,4103,86465,-15698],"delta_lng":[0,-30226,-1623,16903,5784]},"impl":true},
    {"code":1172413,"id":"98a467","name":"生野屋","name_kana":"いくのや","lat":34.035445,"lng":131.887359,"prefecture":35,"lines":[11724],"attr":"heat","postal_code":"744-0031","address":"下松市大字生野屋","next":[1172410,1172409,1172412,9971809,1161214,1172414,9971810],"voronoi":{"lat":34.145984,"lng":131.906807,"delta_lat":[0,-24552,-27894,-86465,15585,139816,-1004],"delta_lng":[0,5715,2748,-16903,-21333,3329,2088]},"impl":true}
  ]
}