{
  "name":"segment64",
  "root":1111407,
  "east":180.0,
  "west":141.676999,
  "south":43.474418,
  "north":90.0,
  "station_size":144,
  "node_list":[
    {"code":1111407,"left":1111311,"right":1111710,"id":"5cbbd2","name":"西聖和","name_kana":"にしせいわ","lat":43.669047,"lng":142.415209,"prefecture":1,"lines":[11114],"attr":"heat","postal_code":"078-8382","address":"旭川市西神楽二線１７号","next":[1111606,1111408,1111406,1111605,1111411,1111410,1111405],"voronoi":{"lat":43.713123,"lng":142.467924,"delta_lat":[0,-1808,-105806,-17807,-4700,133208,5134],"delta_lng":[0,4006,-74772,-29862,-19344,81254,5156]}},
    {"code":1111311,"left":1110603,"right":1111532,"id":"062a92","name":"大和田(北海道)","original_name":"大和田","name_kana":"おおわだ","lat":43.913418,"lng":141.696528,"prefecture":1,"lines":[11113],"attr":"cool","postal_code":"077-0012","address":"留萌市大和田","next":[1111313,1111307,1111316,1111536,1111308,1111312,1111310,1111315],"voronoi":{"lat":43.89498,"lng":141.655364,"delta_lat":[0,9911,402942,-3764,-244645,-58912,-143754,15984],"delta_lng":[0,3448,262969,8879,-82190,-30156,-157365,-3353]}},
    {"code":1110603,"left":1111302,"right":1110344,"id":"32b018","name":"赤平","name_kana":"あかびら","lat":43.555144,"lng":142.048669,"prefecture":1,"lines":[11106],"attr":"eco","postal_code":"079-1134","address":"赤平市泉町１丁目","next":[1110335,1110344,1110604,1110602,1110343,1110605],"voronoi":{"lat":43.640283,"lng":142.097092,"delta_lat":[0,-2644,-146944,-42801,156913,32938],"delta_lng":[0,-62413,-40612,18988,83547,6020]}},
    {"code":1111302,"left":1110335,"right":1111306,"id":"1acf7b","name":"北一已","name_kana":"きたいちやん","lat":43.742021,"lng":142.014721,"prefecture":1,"lines":[11113],"attr":"heat","postal_code":"074-0028","address":"深川市一已町一已","next":[1111303,1111304,1110342,1110343,1110344],"voronoi":{"lat":43.794224,"lng":142.077093,"delta_lat":[0,-91763,27372,66395,78448],"delta_lng":[0,-71581,-29107,38281,69041]}},
    {"code":1110335,"left":1111230,"right":1110342,"id":"cbc4f3","name":"砂川","name_kana":"すながわ","lat":43.493468,"lng":141.909642,"prefecture":1,"lines":[11103],"attr":"eco","postal_code":"073-0152","address":"砂川市東２条北２丁目","next":[1110603,1110604,1110602,1111229,1110340,1111230,1110334],"voronoi":{"lat":43.486139,"lng":141.880565,"delta_lat":[0,29041,8072,7321,-39879,-42801,-823],"delta_lng":[0,4964,11859,51212,45466,18988,209]}},
    {"code":1111230,"left":1111229,"right":1110340,"id":"77dc55","name":"新十津川","name_kana":"しんとつかわ","closed":true,"lat":43.545575,"lng":141.874172,"prefecture":1,"lines":[11112],"attr":"unknown","postal_code":"073-1103","address":"樺戸郡新十津川町字中央","closed_date":"2020-05-07","next":[1111319,1110340,1110335,1111228,1110341,1111309,1111229],"voronoi":{"lat":43.604571,"lng":141.679499,"delta_lat":[0,19913,16047,44401,-66455,-95225,-8072],"delta_lng":[0,-40225,16319,118891,88215,34690,-11859]}},
    {"code":1111229,"left":1111228,"id":"0270d6","name":"下徳富","name_kana":"しもとっぷ","closed":true,"lat":43.50271,"lng":141.855574,"prefecture":1,"lines":[11112],"attr":"unknown","postal_code":"073-1105","address":"樺戸郡新十津川町字花月","closed_date":"2020-05-07","next":[1111228,1110335,1110334,1111230],"voronoi":{"lat":43.604571,"lng":141.679499,"delta_lat":[0,-126054,7622,29041],"delta_lng":[0,194614,6453,4964]}},
    {"code":1111228,"id":"e96bea","name":"南下徳富","name_kana":"みなみしもとっぷ","closed":true,"lat":43.485542,"lng":141.844454,"prefecture":1,"lines":[11112],"attr":"unknown","postal_code":"073-1105","address":"樺戸郡新十津川町字花月","closed_date":"2020-05-07","next":[1111223,1111227,1111221,1111229,1111319,1111230,1110334],"voronoi":{"lat":43.604571,"lng":141.679499,"delta_lat":[0,19913,-18165,-44412,-28981,-63629,9220],"delta_lng":[0,-40225,-24326,40486,38032,177173,3474]}},
    {"code":1110340,"id":"514b6b","name":"滝川","name_kana":"たきかわ","lat":43.555278,"lng":141.900807,"prefecture":1,"lines":[11103,11106],"attr":"eco","postal_code":"073-0031","address":"滝川市栄町４丁目","next":[1110602,1111230,1110335,1110341],"voronoi":{"lat":43.530573,"lng":141.948601,"delta_lat":[0,-7321,95225,-35769],"delta_lng":[0,-51212,-34690,73601]}},
    {"code":1110342,"left":1110602,"right":1110343,"id":"a30b2a","name":"妹背牛","name_kana":"もせうし","lat":43.690841,"lng":141.966591,"prefecture":1,"lines":[11103],"attr":"heat","postal_code":"079-0500","address":"雨竜郡妹背牛町字妹背牛","next":[1111308,1111305,1110602,1110343,1111302,1111303,1110341],"voronoi":{"lat":43.716204,"lng":141.8336,"delta_lat":[0,3608,11461,-1440,-27372,-63268,-3628],"delta_lng":[0,3907,42259,96640,29107,25441,-30895]}},
    {"code":1110602,"left":1110341,"id":"ea2122","name":"東滝川","name_kana":"ひがしたきかわ","lat":43.574037,"lng":141.98031,"prefecture":1,"lines":[11106],"attr":"eco","postal_code":"073-0026","address":"滝川市東滝川","next":[1110341,1110343,1110335,1110340,1110342,1110603],"voronoi":{"lat":43.490695,"lng":141.994066,"delta_lat":[0,39879,52135,52856,3628,-1554],"delta_lng":[0,-45466,-12301,63759,30895,3725]}},
    {"code":1110341,"id":"ec27fb","name":"江部乙","name_kana":"えべおつ","lat":43.627564,"lng":141.935937,"prefecture":1,"lines":[11103],"attr":"heat","postal_code":"079-0462","address":"滝川市江部乙町西町１２丁目","next":[1110602,1111308,1111230,1110340,1111309,1110342],"voronoi":{"lat":43.716204,"lng":141.8336,"delta_lat":[0,-30442,-829,-66455,-35769,52856],"delta_lng":[0,-58052,-1064,88215,73601,63759]}},
    {"code":1110343,"id":"57162b","name":"深川","name_kana":"ふかがわ","lat":43.721021,"lng":142.041642,"prefecture":1,"lines":[11103,11113],"attr":"heat","postal_code":"074-0001","address":"深川市１条","next":[1110602,1110344,1110342,1111302,1110603],"voronoi":{"lat":43.794224,"lng":142.077093,"delta_lat":[0,-91763,-63268,-1554,2644],"delta_lng":[0,-71581,25441,3725,62413]}},
    {"code":1111306,"left":1111309,"right":1111304,"id":"fb1d9c","name":"真布","name_kana":"まっぷ","lat":43.832965,"lng":141.906756,"prefecture":1,"lines":[11113],"attr":"heat","postal_code":"078-2221","address":"雨竜郡沼田町字真布","next":[1111307,1111308,1111305,1111513],"voronoi":{"lat":43.723484,"lng":141.838804,"delta_lat":[0,58735,300159,-49634],"delta_lng":[0,11913,217341,28552]}},
    {"code":1111309,"left":1111307,"right":1111310,"id":"74be81","name":"幌糠","name_kana":"ほろぬか","lat":43.855521,"lng":141.758418,"prefecture":1,"lines":[11113],"attr":"cool","postal_code":"078-3168","address":"留萌市幌糠町幌糠","next":[1111319,1111308,1111310,1111318,1111317,1110341,1111230],"voronoi":{"lat":43.640531,"lng":141.655592,"delta_lat":[0,65500,39108,36075,156975,-252428,-829],"delta_lng":[0,1740,2980,4038,130953,-19756,-1064]}},
    {"code":1111307,"left":1111308,"id":"edcd5a","name":"恵比島","name_kana":"えびしま","lat":43.851296,"lng":141.88144,"prefecture":1,"lines":[11113],"attr":"heat","postal_code":"078-2224","address":"雨竜郡沼田町字恵比島","next":[1111306,1111518,1111513,1111311,1111514,1111527,1111528,1111536,1111308],"voronoi":{"lat":44.082378,"lng":142.068059,"delta_lat":[0,152410,27507,24231,14093,3295,155,-244645,-277205],"delta_lng":[0,-77302,-15962,-19535,-18974,-4795,-830,-82190,2247]}},
    {"code":1111308,"id":"bef1f5","name":"峠下","name_kana":"とうげした","lat":43.850789,"lng":141.818879,"prefecture":1,"lines":[11113],"attr":"heat","postal_code":"078-3161","address":"留萌市留萌村峠下","next":[1111306,1111309,1111310,1110342,1111305,1111307,1110341,1111311],"voronoi":{"lat":44.000513,"lng":141.818315,"delta_lat":[0,-62323,-252428,30442,3608,3673,58735,277205],"delta_lng":[0,-23011,-19756,58052,3907,1298,11913,-2247]}},
    {"code":1111310,"id":"161f5a","name":"藤山","name_kana":"ふじやま","lat":43.88708,"lng":141.720588,"prefecture":1,"lines":[11113],"attr":"cool","postal_code":"078-3165","address":"留萌市藤山町藤山","next":[1111316,1111308,1111309,1111317,1111311],"voronoi":{"lat":43.938189,"lng":141.795304,"delta_lat":[0,-156975,51410,24134,143754],"delta_lng":[0,-130953,-4924,1523,157365]}},
    {"code":1111304,"left":1111303,"right":1111305,"id":"6ddf89","name":"北秩父別","name_kana":"きたちっぷべつ","lat":43.789375,"lng":141.960915,"prefecture":1,"lines":[11113],"attr":"heat","postal_code":"078-2106","address":"雨竜郡秩父別町６条１丁目","next":[1111302,1111303,1111305,1111513,1110344],"voronoi":{"lat":44.010792,"lng":142.111216,"delta_lat":[0,-246456,31892,78448,119454],"delta_lng":[0,-191041,94512,69041,40157]}},
    {"code":1111303,"id":"f38230","name":"秩父別","name_kana":"ちっぷべつ","lat":43.769099,"lng":141.967757,"prefecture":1,"lines":[11113],"attr":"heat","postal_code":"078-2100","address":"雨竜郡秩父別町２６区","next":[1111302,1111305,1110342,1111304],"voronoi":{"lat":43.764335,"lng":141.920175,"delta_lat":[0,-33063,-1440,66395],"delta_lng":[0,-40409,96640,38281]}},
    {"code":1111305,"id":"044f0c","name":"石狩沼田","name_kana":"いしかりぬまた","lat":43.810032,"lng":141.934266,"prefecture":1,"lines":[11113],"attr":"heat","postal_code":"078-2222","address":"雨竜郡沼田町沼田","next":[1111303,1110342,1111308,1111306,1111304,1111513],"voronoi":{"lat":44.032744,"lng":142.096611,"delta_lat":[0,-309260,-3673,11461,33063,246456],"delta_lng":[0,-257806,-1298,42259,40409,191041]}},
    {"code":1110344,"left":1111403,"right":1111402,"id":"8a48bf","name":"納内","name_kana":"おさむない","lat":43.732509,"lng":142.130072,"prefecture":1,"lines":[11103],"attr":"heat","postal_code":"078-0151","address":"深川市納内町字納内","next":[1110343,1110603,1110345,1111513,1111304,1111302,1110605,1110346],"voronoi":{"lat":43.976551,"lng":142.151143,"delta_lat":[0,17579,-119454,-80452,-153941,-2538,-2075,275590],"delta_lng":[0,-27259,-40157,-6634,19998,5530,63963,-1241]}},
    {"code":1111403,"left":1110604,"right":1111405,"id":"d12762","name":"緑が丘(北海道)","original_name":"緑が丘","name_kana":"みどりがおか","lat":43.731074,"lng":142.365701,"prefecture":1,"lines":[11114],"attr":"heat","postal_code":"078-8323","address":"旭川市神楽岡１３条９丁目","next":[1111404,1110346,1111502,1111402],"voronoi":{"lat":43.707758,"lng":142.30517,"delta_lat":[0,-22058,54708,5393],"delta_lng":[0,-7561,96488,-17588]}},
    {"code":1110604,"left":1110607,"right":1110605,"id":"ed4c57","name":"茂尻","name_kana":"もしり","lat":43.537314,"lng":142.082156,"prefecture":1,"lines":[11106],"attr":"eco","postal_code":"079-1100","address":"赤平市字茂尻町南２丁目","next":[1110335,1110605,1110607,1110603,1110333,1110606,1110334,1110332],"voronoi":{"lat":43.422083,"lng":142.112166,"delta_lat":[0,7795,174928,-156913,-823,-42973,-61597,-12934],"delta_lng":[0,1574,-17138,-83547,209,17341,36247,10374]}},
    {"code":1110607,"left":1110606,"id":"44d8a5","name":"上芦別","name_kana":"かみあしべつ","lat":43.48871,"lng":142.210855,"prefecture":1,"lines":[11106],"attr":"eco","postal_code":"079-1371","address":"芦別市上芦別町","next":[1110609,1110604,1110612,1110332,1111012,1110331,1110608,1110606],"voronoi":{"lat":43.422083,"lng":142.112166,"delta_lat":[0,-92517,-43713,-24003,-13251,5627,68951,236550],"delta_lng":[0,-34940,15396,10874,23834,8046,56480,66398]}},
    {"code":1110606,"id":"d3b6bc","name":"芦別","name_kana":"あしべつ","lat":43.516636,"lng":142.184543,"prefecture":1,"lines":[11106],"attr":"eco","postal_code":"075-0041","address":"芦別市本町","next":[1111406,1110345,1110604,1110605,1110608,1110607],"voronoi":{"lat":43.422083,"lng":142.112166,"delta_lat":[0,7795,194865,-6626,-11861,-46529],"delta_lng":[0,1574,79541,81020,9389,-25436]}},
    {"code":1110605,"id":"fe65b1","name":"平岸(JR)","original_name":"平岸","name_kana":"ひらぎし","lat":43.541401,"lng":142.123872,"prefecture":1,"lines":[11106],"attr":"eco","postal_code":"079-1282","address":"北海道赤平市平岸仲町１丁目","next":[1110604,1110345,1110606,1110344,1110603],"voronoi":{"lat":43.604807,"lng":142.096602,"delta_lat":[0,-174928,194865,10926,2075],"delta_lng":[0,17138,79541,-26696,-63963]}},
    {"code":1111405,"left":1111406,"right":1111404,"id":"d398c2","name":"西瑞穂","name_kana":"にしみずほ","lat":43.70242,"lng":142.381982,"prefecture":1,"lines":[11114],"attr":"heat","postal_code":"078-8381","address":"旭川市西神楽一線９号","next":[1111404,1111407,1111406,1110345,1111605,1111604,1110346],"voronoi":{"lat":43.734257,"lng":142.416527,"delta_lat":[0,-1035,-11879,-5134,-87963,20629,11640],"delta_lng":[0,3046,14789,-5156,-152225,3490,6425]}},
    {"code":1111406,"id":"70ce4f","name":"西神楽","name_kana":"にしかぐら","lat":43.682181,"lng":142.393677,"prefecture":1,"lines":[11114],"attr":"heat","postal_code":"071-0171","address":"旭川市西神楽南１条１丁目","next":[1111407,1111405,1110606,1110345,1110608,1111411],"voronoi":{"lat":43.716209,"lng":142.429205,"delta_lat":[0,-87963,-10129,-11861,-29711,6456],"delta_lng":[0,-152225,-2680,9389,46798,17464]}},
    {"code":1111404,"id":"d302cf","name":"西御料","name_kana":"にしごりょう","lat":43.720834,"lng":142.371507,"prefecture":1,"lines":[11114],"attr":"heat","postal_code":"078-8381","address":"旭川市西神楽一線５号","next":[1111403,1110346,1111502,1111405,1111604],"voronoi":{"lat":43.660515,"lng":142.286895,"delta_lat":[0,25185,54708,-1486,-4665],"delta_lng":[0,10713,96488,14906,7524]}},
    {"code":1111402,"left":1110348,"right":1111503,"id":"821137","name":"神楽岡","name_kana":"かぐらおか","lat":43.745033,"lng":142.358257,"prefecture":1,"lines":[11114],"attr":"heat","postal_code":"078-8314","address":"旭川市神楽岡４条１４丁目","next":[1110346,1110347,1111403,1110348,1111502],"voronoi":{"lat":43.707758,"lng":142.30517,"delta_lat":[0,38030,7623,1074,-8684],"delta_lng":[0,8025,10223,43682,9409]}},
    {"code":1110348,"left":1110346,"right":1110347,"id":"e3f638","name":"旭川","name_kana":"あさひかわ","lat":43.763492,"lng":142.357803,"prefecture":1,"lines":[11103,11114,11115,11116],"attr":"heat","postal_code":"070-0030","address":"旭川市宮下通８丁目","next":[1111503,1110347,1111502,1111402],"voronoi":{"lat":43.753411,"lng":142.323418,"delta_lat":[0,42046,-15549,-25423],"delta_lng":[0,33275,9611,796]}},
    {"code":1110346,"left":1110345,"id":"207f69","name":"伊納","name_kana":"いのう","lat":43.763305,"lng":142.27167,"prefecture":1,"lines":[11103],"attr":"heat","postal_code":"070-8052","address":"旭川市江丹別町春日","next":[1111513,1111404,1111402,1111403,1110345,1110344,1110347,1111405],"voronoi":{"lat":43.648875,"lng":142.280471,"delta_lat":[0,262384,65291,-16379,-214383,-38030,-22058,-25185],"delta_lng":[0,-115127,-14200,58617,103434,-8025,-7561,-10713]}},
    {"code":1110345,"id":"78e3a3","name":"神居古潭","name_kana":"かむいこたん","closed":true,"lat":43.732834,"lng":142.202224,"prefecture":1,"lines":[11103],"attr":"unknown","postal_code":"078-0185","address":"北海道旭川市神居町神居古潭","next":[1110344,1110605,1111405,1110606,1110346,1111406],"voronoi":{"lat":43.648875,"lng":142.280471,"delta_lat":[0,262384,-275590,-10926,-6626,10129],"delta_lng":[0,-115127,1241,26696,81020,2680]}},
    {"code":1110347,"id":"7b3ef7","name":"近文","name_kana":"ちかぶみ","lat":43.789193,"lng":142.325327,"prefecture":1,"lines":[11103],"attr":"heat","postal_code":"070-0821","address":"旭川市近文町１９丁目","next":[1111510,1110348,1111402,1111512,1111513,1111511,1111503,1111504,1110346],"voronoi":{"lat":43.960172,"lng":142.209761,"delta_lat":[0,-2362,-5910,-27522,-21398,-42924,-64598,-42046,-7623],"delta_lng":[0,18408,26330,72715,29450,9827,-9798,-33275,-10223]}},
    {"code":1111503,"left":1111502,"right":1111604,"id":"8c1ae4","name":"新旭川","name_kana":"しんあさひかわ","lat":43.780174,"lng":142.384789,"prefecture":1,"lines":[11115,11116],"attr":"heat","postal_code":"070-0028","address":"旭川市東八条６丁目","next":[1111504,1110348,1111502,1110347,1111604],"voronoi":{"lat":43.779909,"lng":142.366304,"delta_lat":[0,15549,64598,-43183,-54019],"delta_lng":[0,-9611,9798,29591,855]}},
    {"code":1111502,"id":"e2d592","name":"旭川四条","name_kana":"あさひかわよじょう","lat":43.764056,"lng":142.375815,"prefecture":1,"lines":[11115,11116],"attr":"heat","postal_code":"078-8214","address":"旭川市四条通１８丁目","next":[1111604,1111404,1111403,1111503,1110348,1111402],"voronoi":{"lat":43.754486,"lng":142.3671,"delta_lat":[0,25423,-17055,-23931,1486,5393],"delta_lng":[0,-796,30633,12066,-14906,-17588]}},
    {"code":1111604,"id":"51f3bc","name":"南永山","name_kana":"みなみながやま","lat":43.78055,"lng":142.40853,"prefecture":1,"lines":[11116],"attr":"heat","postal_code":"079-8420","address":"旭川市永山十条３丁目","next":[1111502,1111504,1111405,1111404,1111503,1111605],"voronoi":{"lat":43.816873,"lng":142.396081,"delta_lat":[0,-54019,-23931,-4665,-1035,60016],"delta_lng":[0,855,12066,7524,3046,7234]}},
    {"code":1111532,"left":1111543,"right":1111525,"id":"85ab7b","name":"天塩川温泉","name_kana":"てしおがわおんせん","lat":44.665041,"lng":142.258682,"prefecture":1,"lines":[11115],"attr":"cool","postal_code":"098-2502","address":"中川郡音威子府村字咲来","next":[1111531,1111536,1111533,1111535],"voronoi":{"lat":44.611647,"lng":142.118731,"delta_lat":[0,-31306,87282,25790],"delta_lng":[0,-11762,191167,-80271]}},
    {"code":1111543,"left":1111536,"right":1111546,"id":"87174b","name":"南幌延","name_kana":"みなみほろのべ","lat":44.965084,"lng":141.884892,"prefecture":1,"lines":[11115],"attr":"eco","postal_code":"098-3200","address":"天塩郡幌延町字南幌延","next":[1111544,1111545,1111546,1111542],"voronoi":{"lat":44.871054,"lng":141.747566,"delta_lat":[0,46203,49097,19281],"delta_lng":[0,26284,61892,100122]}},
    {"code":1111536,"left":1111540,"right":1111537,"id":"babcad","name":"佐久","name_kana":"さく","lat":44.743986,"lng":142.048562,"prefecture":1,"lines":[11115],"attr":"cool","postal_code":"098-2622","address":"中川郡中川町字佐久","next":[1111312,1111531,1111532,1111535,1111537,1111542,1111541,1111311,1111307,1111528],"voronoi":{"lat":44.580342,"lng":142.106969,"delta_lat":[0,31306,141963,60116,-283114,-23076,-199703,-3764,-155,135969],"delta_lng":[0,11762,4855,-152404,-421499,-30767,402866,8879,830,109307]}},
    {"code":1111540,"left":1111539,"right":1111542,"id":"c30d20","name":"糠南","name_kana":"ぬかなん","lat":44.920778,"lng":142.000931,"prefecture":1,"lines":[11115],"attr":"cool","postal_code":"098-3200","address":"天塩郡幌延町字糠南","next":[1111538,1111541,1111544,1111542,1111539,1111548],"voronoi":{"lat":45.334911,"lng":142.147617,"delta_lat":[0,-338857,-16469,-139428,18166,492940],"delta_lng":[0,-183534,-4479,19385,14285,169069]}},
    {"code":1111539,"left":1111541,"id":"94f056","name":"問寒別","name_kana":"といかんべつ","lat":44.91233,"lng":142.025562,"prefecture":1,"lines":[11115],"attr":"cool","postal_code":"098-2943","address":"天塩郡幌延町字問寒別","next":[1111540,1111534,1111538,1111553,1111552,1111548],"voronoi":{"lat":45.719569,"lng":142.654699,"delta_lat":[0,283834,-716015,-429066,492940,52898],"delta_lng":[0,410948,-558833,-513540,169069,44995]}},
    {"code":1111541,"id":"e5576c","name":"雄信内","name_kana":"おのっぷない","lat":44.911735,"lng":141.935888,"prefecture":1,"lines":[11115],"attr":"cool","postal_code":"098-3251","address":"天塩郡幌延町字雄興","next":[1111542,1111540,1111537,1111538,1111536],"voronoi":{"lat":44.530613,"lng":141.549683,"delta_lat":[0,448972,-139428,-24852,-1578],"delta_lng":[0,409922,19385,-6678,-1130]}},
    {"code":1111542,"id":"da9e14","name":"安牛","name_kana":"やすうし","lat":44.949809,"lng":141.894187,"prefecture":1,"lines":[11115],"attr":"cool","postal_code":"098-3226","address":"天塩郡幌延町字開進","next":[1111544,1111541,1111312,1111540,1111536,1111543,1111546],"voronoi":{"lat":44.985636,"lng":141.935864,"delta_lat":[0,10418,-16469,-448972,-23076,1012,362506],"delta_lng":[0,28219,-4479,-409922,-30767,-4198,232849]}},
    {"code":1111537,"left":1111535,"right":1111538,"id":"930c71","name":"天塩中川","name_kana":"てしおなかがわ","lat":44.81186,"lng":142.075335,"prefecture":1,"lines":[11115],"attr":"cool","postal_code":"098-2802","address":"中川郡中川町字中川","next":[1111541,1111536,1111535,1111538],"voronoi":{"lat":44.75361,"lng":142.123586,"delta_lat":[0,60116,1578,79486],"delta_lng":[0,-152404,1130,235420]}},
    {"code":1111535,"id":"14e305","name":"筬島","name_kana":"おさしま","lat":44.738883,"lng":142.197777,"prefecture":1,"lines":[11115],"attr":"cool","postal_code":"098-2500","address":"中川郡音威子府村字物満内","next":[1111534,1111533,1111536,1111537,1111532,1111538],"voronoi":{"lat":44.89479,"lng":142.207731,"delta_lat":[0,-141180,-141963,81766,9365,247461],"delta_lng":[0,-84146,-4855,99134,6197,37594]}},
    {"code":1111538,"id":"f56bc6","name":"歌内","name_kana":"うたない","lat":44.880493,"lng":142.052162,"prefecture":1,"lines":[11115],"attr":"cool","postal_code":"098-2801","address":"中川郡中川町字歌内","next":[1111540,1111539,1111541,1111537,1111535,1111534],"voronoi":{"lat":44.95024,"lng":142.261655,"delta_lat":[0,-55449,-79486,24852,18166,429066],"delta_lng":[0,-53924,-235420,6678,14285,513540]}},
    {"code":1111546,"left":1111550,"right":1111545,"id":"3b9263","name":"下沼","name_kana":"しもぬま","lat":45.037146,"lng":141.758218,"prefecture":1,"lines":[11115],"attr":"eco","postal_code":"098-3228","address":"天塩郡幌延町字下沼","next":[1111551,1111313,1111548,1111545,1111547,1111321,1111543,1111312,1111549,1111542],"voronoi":{"lat":44.508548,"lng":141.514718,"delta_lat":[0,13977,30591,123107,183102,220754,6927,-25580,-144169,-46203],"delta_lng":[0,-143230,-272604,-630120,450691,662393,104873,124449,-37319,-26284]}},
    {"code":1111550,"left":1111548,"right":1111552,"id":"a6c845","name":"勇知","name_kana":"ゆうち","lat":45.259339,"lng":141.685151,"prefecture":1,"lines":[11115],"attr":"eco","postal_code":"098-4581","address":"稚内市字抜海村上勇知","next":[1111551,1111552,1111549,1111548],"voronoi":{"lat":45.29955,"lng":141.885124,"delta_lat":[0,-111642,141446,3350],"delta_lng":[0,-362316,200541,218888]}},
    {"code":1111548,"left":1111549,"id":"9fbda9","name":"徳満","name_kana":"とくみつ","lat":45.145838,"lng":141.751039,"prefecture":1,"lines":[11115],"attr":"eco","postal_code":"098-4137","address":"天塩郡豊富町字徳満","next":[1111552,1111547,1111549,1111546,1111539,1111544,1111545,1111540,1111550],"voronoi":{"lat":45.40416,"lng":142.207338,"delta_lat":[0,-52898,-16352,-27185,-8371,-212348,-6927,219470,33154],"delta_lng":[0,-44995,-14726,-33504,-11615,-415778,-104873,303276,57113]}},
    {"code":1111549,"id":"bcd162","name":"兜沼","name_kana":"かぶとぬま","lat":45.220236,"lng":141.6972,"prefecture":1,"lines":[11115],"attr":"eco","postal_code":"098-4451","address":"天塩郡豊富町字兜沼","next":[1111548,1111550,1111551,1111546],"voronoi":{"lat":45.29955,"lng":141.885124,"delta_lat":[0,-111642,-328582,220754],"delta_lng":[0,-362316,-603353,662393]}},
    {"code":1111552,"id":"975c91","name":"南稚内","name_kana":"みなみわっかない","lat":45.398166,"lng":141.683026,"prefecture":1,"lines":[11115],"attr":"eco","postal_code":"097-0005","address":"稚内市大黒１丁目","next":[1111551,1111548,1111550,1111553,1111539],"voronoi":{"lat":45.384278,"lng":141.607214,"delta_lat":[0,-54925,3350,71457,315409],"delta_lng":[0,116135,218888,265102,447361]}},
    {"code":1111545,"left":1111544,"right":1111547,"id":"a37100","name":"幌延","name_kana":"ほろのべ","lat":45.014503,"lng":141.84569,"prefecture":1,"lines":[11115],"attr":"eco","postal_code":"098-3211","address":"天塩郡幌延町１条南１丁目","next":[1111547,1111546,1111543,1111544,1111548],"voronoi":{"lat":44.966354,"lng":141.835743,"delta_lat":[0,-49097,144169,237928,8371],"delta_lng":[0,-61892,37319,291329,11615]}},
    {"code":1111544,"id":"d62b10","name":"上幌延","name_kana":"かみほろのべ","lat":44.985787,"lng":141.880905,"prefecture":1,"lines":[11115],"attr":"eco","postal_code":"098-3225","address":"天塩郡幌延町字上幌延","next":[1111543,1111542,1111540,1111545,1111548],"voronoi":{"lat":45.307726,"lng":142.114114,"delta_lat":[0,-341371,19281,10418,338857],"delta_lng":[0,-278371,100122,28219,183534]}},
    {"code":1111547,"id":"fa21b1","name":"豊富","name_kana":"とよとみ","lat":45.104624,"lng":141.772088,"prefecture":1,"lines":[11115],"attr":"eco","postal_code":"098-4100","address":"天塩郡豊富町字上サロベツ","next":[1111545,1111548,1111546],"voronoi":{"lat":45.299355,"lng":142.102498,"delta_lat":[0,-212348,-25580],"delta_lng":[0,-415778,124449]}},
    {"code":1111525,"left":1111518,"right":1111529,"id":"70501f","name":"智北","name_kana":"ちほく","lat":44.46103,"lng":142.394007,"prefecture":1,"lines":[11115],"attr":"cool","postal_code":"098-2181","address":"名寄市字智恵文","next":[1111526,1111527,1111528,1111529,1111524,1111523],"voronoi":{"lat":44.391,"lng":142.376658,"delta_lat":[0,101724,32109,7979,17528,-126800],"delta_lng":[0,6115,16214,7138,22544,-33445]}},
    {"code":1111518,"left":1111514,"right":1111517,"id":"c2f2d1","name":"瑞穂","name_kana":"みずほ","lat":44.266349,"lng":142.396244,"prefecture":1,"lines":[11115],"attr":"cool","postal_code":"098-0475","address":"士別市多寄町３１線東","next":[1111307,1111514,1111519,1111527,1111517,1111526],"voronoi":{"lat":44.338138,"lng":142.200167,"delta_lat":[0,-51612,-24231,-9481,1117,102975],"delta_lng":[0,-244908,19535,65800,394210,-105040]}},
    {"code":1111514,"left":1111512,"right":1111515,"id":"720553","name":"北剣淵","name_kana":"きたけんぶち","lat":44.139423,"lng":142.377955,"prefecture":1,"lines":[11115],"attr":"cool","postal_code":"098-0300","address":"上川郡剣淵町第１３区","next":[1111517,1111518,1111307,1111515,1111512,1111513],"voronoi":{"lat":44.234789,"lng":141.990757,"delta_lat":[0,27507,-9481,-13278,-119090,-13107],"delta_lng":[0,-15962,65800,73673,383156,-91588]}},
    {"code":1111512,"left":1111513,"id":"cee556","name":"東六線","name_kana":"ひがしろくせん","lat":44.068723,"lng":142.388073,"prefecture":1,"lines":[11115],"attr":"heat","postal_code":"098-0300","address":"上川郡剣淵町第１０区","next":[1111515,1110347,1111514,1111511,1111513],"voronoi":{"lat":44.120446,"lng":142.497424,"delta_lat":[0,-26,-168521,5910,149530],"delta_lng":[0,15654,-258579,-26330,177667]}},
    {"code":1111513,"id":"5ffc00","name":"剣淵","name_kana":"けんぶち","lat":44.09643,"lng":142.364754,"prefecture":1,"lines":[11115],"attr":"heat","postal_code":"098-0300","address":"上川郡剣淵町栄町","next":[1110346,1111307,1110347,1110344,1111514,1111304,1111306,1111305,1111512],"voronoi":{"lat":44.234789,"lng":141.990757,"delta_lat":[0,-152410,-49634,-21953,-16662,-17579,-16379,-2362,149530],"delta_lng":[0,77302,28552,14605,12669,27259,58617,18408,177667]}},
    {"code":1111515,"id":"c54df5","name":"士別","name_kana":"しべつ","lat":44.172536,"lng":142.388247,"prefecture":1,"lines":[11115],"attr":"cool","postal_code":"095-0023","address":"士別市西３条８丁目","next":[1111517,1111512,1111511,1111514,1111516,1111520],"voronoi":{"lat":44.12042,"lng":142.513077,"delta_lat":[0,26,119090,-14072,-83462,-787],"delta_lng":[0,-15654,-383156,119934,389244,1518]}},
    {"code":1111517,"left":1111516,"right":1111524,"id":"63ce2a","name":"多寄","name_kana":"たよろ","lat":44.241296,"lng":142.396315,"prefecture":1,"lines":[11115],"attr":"cool","postal_code":"098-0475","address":"士別市多寄町３６線東","next":[1111515,1111514,1111519,1111520,1111518,1111516],"voronoi":{"lat":44.227597,"lng":142.487811,"delta_lat":[0,26335,-1117,-13278,-14072,748],"delta_lng":[0,-53007,-394210,73673,119934,255174]}},
    {"code":1111516,"id":"cc5db8","name":"下士別","name_kana":"しもしべつ","lat":44.210583,"lng":142.396405,"prefecture":1,"lines":[11115],"attr":"cool","postal_code":"095-0061","address":"士別市下士別町","next":[1111520,1111515,1111517],"voronoi":{"lat":44.142003,"lng":142.623446,"delta_lat":[0,83462,748],"delta_lng":[0,-389244,255174]}},
    {"code":1111524,"id":"20fbb7","name":"智恵文","name_kana":"ちえぶん","lat":44.455553,"lng":142.414772,"prefecture":1,"lines":[11115],"attr":"cool","postal_code":"098-2181","address":"名寄市智恵文１１線","next":[1111530,1111523,1111534,1111525,1111529],"voronoi":{"lat":44.868829,"lng":142.825967,"delta_lat":[0,49837,-495125,126800,105038],"delta_lng":[0,88128,-518872,33445,107633]}},
    {"code":1111529,"left":1111533,"right":1111527,"id":"84db5f","name":"紋穂内","name_kana":"もんぽない","lat":44.538761,"lng":142.33357,"prefecture":1,"lines":[11115],"attr":"cool","postal_code":"098-2366","address":"中川郡美深町字紋穂内","next":[1111525,1111530,1111528,1111524],"voronoi":{"lat":44.510209,"lng":142.176882,"delta_lat":[0,22604,17528,105038],"delta_lng":[0,229242,22544,107633]}},
    {"code":1111533,"left":1111530,"right":1111534,"id":"0c931f","name":"咲来","name_kana":"さっくる","lat":44.692702,"lng":142.267569,"prefecture":1,"lines":[11115],"attr":"cool","postal_code":"098-2502","address":"中川郡音威子府村字咲来","next":[1111530,1111531,1111535,1111534,1111532],"voronoi":{"lat":44.669982,"lng":142.343375,"delta_lat":[0,109087,-76290,-9365,-25790],"delta_lng":[0,245420,-364733,-6197,80271]}},
    {"code":1111530,"left":1111531,"id":"10f875","name":"恩根内","name_kana":"おんねない","lat":44.598486,"lng":142.309447,"prefecture":1,"lines":[11115],"attr":"cool","postal_code":"098-2361","address":"中川郡美深町字恩根内","next":[1111533,1111524,1111534,1111528,1111529,1111531],"voronoi":{"lat":44.779068,"lng":142.588795,"delta_lat":[0,89760,-213450,-145170,-505,160278],"delta_lng":[0,237173,-289666,-359419,-1623,168115]}},
    {"code":1111531,"id":"06c3fa","name":"豊清水","name_kana":"とよしみず","lat":44.639503,"lng":142.270342,"prefecture":1,"lines":[11115],"attr":"cool","postal_code":"098-2368","address":"中川郡美深町字清水","next":[1111532,1111533,1111536,1111528,1111530],"voronoi":{"lat":44.509704,"lng":142.17526,"delta_lat":[0,-69820,140458,87282,2358],"delta_lng":[0,-134462,66171,191167,45239]}},
    {"code":1111534,"id":"c43c2f","name":"音威子府","name_kana":"おといねっぷ","lat":44.729448,"lng":142.259883,"prefecture":1,"lines":[11115],"attr":"cool","postal_code":"098-2501","address":"中川郡音威子府村字音威子府","next":[1111530,1111553,1111535,1111623,1111539,1111533,1111523,1111524,1111642,1111538],"voronoi":{"lat":44.95024,"lng":142.261655,"delta_lat":[0,-247461,76290,89760,49837,215337,1398221,407005,-935825,-716015],"delta_lng":[0,-37594,364733,237173,88128,368483,742116,144814,-1103861,-558833]}},
    {"code":1111527,"left":1111526,"right":1111528,"id":"3fe000","name":"美深","name_kana":"びふか","lat":44.482951,"lng":142.350597,"prefecture":1,"lines":[11115],"attr":"cool","postal_code":"098-2238","address":"中川郡美深町字開運町","next":[1111525,1111528,1111518,1111307,1111526],"voronoi":{"lat":44.524833,"lng":142.398986,"delta_lat":[0,-224214,-14093,51612,154586],"delta_lng":[0,-462701,18974,244908,182605]}},
    {"code":1111526,"id":"759eaa","name":"南美深","name_kana":"みなみびふか","lat":44.462604,"lng":142.367822,"prefecture":1,"lines":[11115],"attr":"cool","postal_code":"098-2205","address":"中川郡美深町字美深","next":[1111523,1111525,1111519,1111518,1111527],"voronoi":{"lat":44.338138,"lng":142.200167,"delta_lat":[0,18768,12422,21672,101724],"delta_lng":[0,129597,39332,7561,6115]}},
    {"code":1111528,"id":"0d983c","name":"初野","name_kana":"はつの","lat":44.512808,"lng":142.336129,"prefecture":1,"lines":[11115],"attr":"cool","postal_code":"098-2211","address":"中川郡美深町字富岡","next":[1111525,1111530,1111527,1111531,1111307,1111529,1111536],"voronoi":{"lat":44.303915,"lng":141.931491,"delta_lat":[0,-3295,224214,7979,-22604,-505,-69820],"delta_lng":[0,4795,462701,7138,-229242,-1623,-134462]}},
    {"code":1111710,"left":1111627,"right":1111622,"id":"57609c","name":"中斜里","name_kana":"なかしゃり","lat":43.874608,"lng":144.659033,"prefecture":1,"lines":[11117],"attr":"cool","postal_code":"099-4142","address":"斜里郡斜里町字中斜里","next":[1110812,1111719,1110821,1110811,1111709,1111720,1110813,1111712,1111711,1111714],"voronoi":{"lat":43.561861,"lng":144.914739,"delta_lat":[0,-3006,21074,19143,226094,23569,45410,-129101,-134546,-43410],"delta_lng":[0,34227,34294,24245,246421,13975,-627835,36955,74210,44199]}},
    {"code":1111627,"left":1111608,"right":1111632,"id":"bbc234","name":"金華","name_kana":"かねはな","closed":true,"lat":43.803484,"lng":143.57114,"prefecture":1,"lines":[11116],"attr":"unknown","postal_code":"091-0021","address":"北見市留辺蘂町金華","open_date":"1914-10-05","closed_date":"2016-03-26","next":[1111620,1111619,1111629,1111618,1110713,1111628,1111626],"voronoi":{"lat":43.837936,"lng":143.611778,"delta_lat":[0,-445594,12694,284095,66491,60239,70909],"delta_lng":[0,-251662,-75175,58917,23148,28801,233414]}},
    {"code":1111608,"left":1111410,"right":1111613,"id":"9f9414","name":"当麻","name_kana":"とうま","lat":43.825477,"lng":142.516987,"prefecture":1,"lines":[11116],"attr":"heat","postal_code":"078-1300","address":"上川郡当麻町市街","next":[1111614,1111611,1111609,1111506,1111409,1111613,1111607],"voronoi":{"lat":43.831652,"lng":142.487781,"delta_lat":[0,13254,-12537,-22186,-19127,-92461,7091],"delta_lng":[0,7428,87688,24898,4786,13870,-39367]}},
    {"code":1111410,"left":1111605,"right":1111606,"id":"7b9c76","name":"美瑛","name_kana":"びえい","lat":43.591186,"lng":142.461639,"prefecture":1,"lines":[11114],"attr":"heat","postal_code":"071-0208","address":"上川郡美瑛町本町１丁目","next":[1111412,1111409,1111407,1111411,1111408],"voronoi":{"lat":43.605509,"lng":142.397158,"delta_lat":[0,-17807,-54256,365,82884],"delta_lng":[0,-29862,201964,6520,-123244]}},
    {"code":1111605,"left":1111408,"right":1111504,"id":"7392ba","name":"東旭川","name_kana":"ひがしあさひかわ","lat":43.776571,"lng":142.441544,"prefecture":1,"lines":[11116],"attr":"heat","postal_code":"078-8253","address":"旭川市東旭川北三条５丁目","next":[1111407,1111606,1111405,1111504,1111604],"voronoi":{"lat":43.733222,"lng":142.419573,"delta_lat":[0,-11879,-8221,84517,-4401],"delta_lng":[0,14789,33562,-18022,-23095]}},
    {"code":1111408,"left":1111411,"id":"dac453","name":"千代ヶ岡","name_kana":"ちよがおか","lat":43.643737,"lng":142.451024,"prefecture":1,"lines":[11114],"attr":"heat","postal_code":"078-8381","address":"北海道旭川市西神楽1線24号","next":[1111407,1111606,1111409,1111410],"voronoi":{"lat":43.605509,"lng":142.397158,"delta_lat":[0,105806,-6592,-88028],"delta_lng":[0,74772,60263,-79657]}},
    {"code":1111411,"id":"bc4157","name":"美馬牛","name_kana":"びばうし","lat":43.537408,"lng":142.447192,"prefecture":1,"lines":[11114],"attr":"eco","postal_code":"071-0471","address":"上川郡美瑛町字美馬牛","next":[1111414,1111407,1110608,1111410,1111413,1111406,1111412],"voronoi":{"lat":43.587701,"lng":142.367295,"delta_lat":[0,-4700,-6456,-88646,-427,-2076,48049],"delta_lng":[0,-19344,-17464,30114,3114,42117,163427]}},
    {"code":1111504,"id":"a24ea9","name":"永山","name_kana":"ながやま","lat":43.814158,"lng":142.434382,"prefecture":1,"lines":[11115],"attr":"heat","postal_code":"079-8411","address":"旭川市永山１条１９丁目","next":[1111505,1111510,1111503,1111606,1111507,1111506,1111604,1110347,1111605],"voronoi":{"lat":43.793239,"lng":142.426806,"delta_lat":[0,23634,43183,42924,-55,-25626,-17559,-56748,-5352],"delta_lng":[0,-30725,-29591,-9827,402,41877,20921,35491,-5453]}},
    {"code":1111606,"left":1111409,"right":1111607,"id":"34937a","name":"北日ノ出","name_kana":"きたひので","lat":43.781813,"lng":142.466127,"prefecture":1,"lines":[11116],"attr":"heat","postal_code":"078-8203","address":"旭川市東旭川町日ノ出","next":[1111407,1111504,1111505,1111408,1111409,1111605,1111607],"voronoi":{"lat":43.805162,"lng":142.463737,"delta_lat":[0,-2171,-5352,-84517,-1808,-6592,2127],"delta_lng":[0,-8383,-5453,18022,4006,60263,25886]}},
    {"code":1111409,"id":"4cbf19","name":"北美瑛","name_kana":"きたびえい","lat":43.617884,"lng":142.479594,"prefecture":1,"lines":[11114],"attr":"heat","postal_code":"071-0226","address":"上川郡美瑛町字下宇莫別","next":[1111410,1111412,1111607,1111614,1111606,1111616,1111608,1111408,1111615],"voronoi":{"lat":43.682148,"lng":142.644423,"delta_lat":[0,16448,7091,1163,-2127,-88028,-82884,-15489,32054],"delta_lng":[0,-17971,-39367,-29006,-25886,-79657,123244,219950,-25730]}},
    {"code":1111607,"id":"126e16","name":"桜岡","name_kana":"さくらおか","lat":43.801812,"lng":142.486968,"prefecture":1,"lines":[11116],"attr":"heat","postal_code":"078-8204","address":"旭川市東旭川町桜岡","next":[1111505,1111506,1111409,1111606,1111608],"voronoi":{"lat":43.706849,"lng":142.558078,"delta_lat":[0,98313,24481,2009,-125966],"delta_lng":[0,-94341,18789,5255,99303]}},
    {"code":1111613,"left":1111609,"right":1111616,"id":"2109c8","name":"愛山","name_kana":"あいざん","lat":43.866442,"lng":142.680699,"prefecture":1,"lines":[11116],"attr":"eco","postal_code":"078-1653","address":"上川郡愛別町字愛山","next":[1111612,1111616,1111608,1111615,1111614,1111611],"voronoi":{"lat":43.943909,"lng":142.74178,"delta_lat":[0,-30999,-23375,-98478,19127,27657],"delta_lng":[0,-6450,-14835,-107914,-4786,9037]}},
    {"code":1111609,"left":1111506,"right":1111507,"id":"b5baf6","name":"将軍山","name_kana":"しょうぐんざん","lat":43.857455,"lng":142.521559,"prefecture":1,"lines":[11116],"attr":"eco","postal_code":"078-1334","address":"上川郡当麻町北星２区","next":[1111611,1111610,1111608,1111507,1111506],"voronoi":{"lat":43.859181,"lng":142.494128,"delta_lat":[0,12504,-13193,-26122,12537],"delta_lng":[0,4234,66788,17747,-87688]}},
    {"code":1111506,"left":1111505,"id":"5a2f9e","name":"南比布","name_kana":"みなみぴっぷ","lat":43.853342,"lng":142.467271,"prefecture":1,"lines":[11115],"attr":"heat","postal_code":"078-0311","address":"上川郡比布町南１線５号","next":[1111607,1111504,1111608,1111507,1111505,1111609],"voronoi":{"lat":43.859181,"lng":142.494128,"delta_lat":[0,18118,-17559,-30096,2009,13254],"delta_lng":[0,-95186,20921,62663,5255,7428]}},
    {"code":1111505,"id":"b83a30","name":"北永山","name_kana":"きたながやま","lat":43.826736,"lng":142.454493,"prefecture":1,"lines":[11115],"attr":"heat","postal_code":"079-8431","address":"旭川市永山町１５丁目","next":[1111504,1111607,1111606,1111506],"voronoi":{"lat":43.859739,"lng":142.419863,"delta_lat":[0,-56748,2171,24481],"delta_lng":[0,35491,8383,18789]}},
    {"code":1111507,"id":"d01dfe","name":"比布","name_kana":"ぴっぷ","lat":43.874478,"lng":142.471294,"prefecture":1,"lines":[11115],"attr":"heat","postal_code":"078-0341","address":"上川郡比布町市街地","next":[1111610,1111504,1111509,1111508,1111506,1111510,1111609],"voronoi":{"lat":43.859181,"lng":142.494128,"delta_lat":[0,18118,25626,1832,-1249,-20050,-11773],"delta_lng":[0,-95186,-41877,10637,26276,104047,337]}},
    {"code":1111616,"left":1111615,"right":1111614,"id":"14af3a","name":"上川","name_kana":"かみかわ","lat":43.848508,"lng":142.766895,"prefecture":1,"lines":[11116],"attr":"eco","postal_code":"078-1741","address":"上川郡上川町中央町","next":[1111617,1111412,1111615,1111613,1111409,1111612,1110618,1111520],"voronoi":{"lat":43.481269,"lng":142.983917,"delta_lat":[0,-10819,47872,32054,362534,30999,305941,33556],"delta_lng":[0,-126454,-61734,-25730,-34669,6450,130938,51718]}},
    {"code":1111615,"id":"a81e7a","name":"東雲(北海道)","original_name":"東雲","name_kana":"とううん","lat":43.843693,"lng":142.716544,"prefecture":1,"lines":[11116],"attr":"eco","postal_code":"078-1731","address":"上川郡上川町東雲","next":[1111616,1111409,1111614,1111613],"voronoi":{"lat":43.550375,"lng":142.769999,"delta_lat":[0,131772,207387,23375],"delta_lng":[0,-125577,76073,14835]}},
    {"code":1111614,"id":"8cc98a","name":"安足間","name_kana":"あんたろま","lat":43.852011,"lng":142.693868,"prefecture":1,"lines":[11116],"attr":"eco","postal_code":"078-1653","address":"上川郡愛別町字愛山","next":[1111608,1111409,1111615,1111613],"voronoi":{"lat":43.791057,"lng":142.612581,"delta_lat":[0,-92461,-16448,207387],"delta_lng":[0,13870,17971,76073]}},
    {"code":1111632,"left":1111715,"right":1111636,"id":"f7c7e4","name":"西北見","name_kana":"にしきたみ","lat":43.803114,"lng":143.841586,"prefecture":1,"lines":[11116],"attr":"cool","postal_code":"090-0055","address":"北見市緑町６丁目","next":[1111636,1111631,1111630,1111633,1111634,1111635,1110724],"voronoi":{"lat":43.35814,"lng":143.836169,"delta_lat":[0,275162,311491,-1058,-40160,-50440,-484817],"delta_lng":[0,-23161,22833,505,16838,14630,20478]}},
    {"code":1111715,"left":1111629,"right":1111714,"id":"af16ce","name":"川湯温泉","name_kana":"かわゆおんせん","lat":43.616258,"lng":144.457749,"prefecture":1,"lines":[11117],"attr":"eco","postal_code":"088-3462","address":"川上郡弟子屈町字川湯駅前","next":[1111638,1111718,1111717,1111716,1111714,1111639],"voronoi":{"lat":43.578599,"lng":144.671081,"delta_lat":[0,-19765,-3228,99661,58064,36746],"delta_lng":[0,-65076,-66762,-302274,36395,31332]}},
    {"code":1111629,"left":1111716,"right":1111630,"id":"f1781b","name":"留辺蘂","name_kana":"るべしべ","lat":43.785534,"lng":143.621394,"prefecture":1,"lines":[11116],"attr":"cool","postal_code":"091-0002","address":"北見市留辺蘂町東町","next":[1111630,1111628,1111627,1110713,1110724,1111626,1110714],"voronoi":{"lat":43.338079,"lng":143.618136,"delta_lat":[0,266,499590,48834,31330,-593062,-5461],"delta_lng":[0,-1152,-5206,17443,49879,45731,-11814]}},
    {"code":1111716,"left":1111628,"id":"5be483","name":"美留和","name_kana":"びるわ","lat":43.555316,"lng":144.437656,"prefecture":1,"lines":[11117],"attr":"eco","postal_code":"088-3331","address":"川上郡弟子屈町字美留和","next":[1111638,1111717,1111633,1111715,1110727],"voronoi":{"lat":43.398572,"lng":144.037209,"delta_lat":[0,46781,209914,-99661,-178209],"delta_lng":[0,21694,178066,302274,-459946]}},
    {"code":1111628,"id":"34cd62","name":"西留辺蘂","name_kana":"にしるべしべ","lat":43.785345,"lng":143.603257,"prefecture":1,"lines":[11116],"attr":"cool","postal_code":"091-0027","address":"北見市留辺蘂町旭西３３４番地の１","next":[1111629,1110713,1111627],"voronoi":{"lat":43.338346,"lng":143.616985,"delta_lat":[0,53996,445594],"delta_lng":[0,-256868,251662]}},
    {"code":1111630,"id":"9b9cc9","name":"相内","name_kana":"あいのない","lat":43.795948,"lng":143.756449,"prefecture":1,"lines":[11116],"attr":"cool","postal_code":"099-0871","address":"北見市相内町","next":[1111629,1111625,1111632,1111631,1111626,1111624,1110724],"voronoi":{"lat":43.633302,"lng":143.813009,"delta_lat":[0,373103,-44298,-12729,-31279,-593062,33103],"delta_lng":[0,-66940,-39618,-9339,-18011,45731,111338]}},
    {"code":1111714,"left":1111717,"right":1111713,"id":"71096e","name":"緑","name_kana":"みどり","lat":43.718282,"lng":144.505499,"prefecture":1,"lines":[11117],"attr":"eco","postal_code":"099-4525","address":"斜里郡清里町緑町","next":[1111706,1111639,1111705,1111719,1111713,1111718,1111712,1111715,1111710],"voronoi":{"lat":43.581276,"lng":144.755088,"delta_lat":[0,-2678,171478,12918,15584,22657,-101649,-69089,-43410],"delta_lng":[0,-84007,-366385,5852,24480,55418,266717,94068,44199]}},
    {"code":1111717,"id":"dbecb2","name":"摩周","name_kana":"ましゅう","lat":43.487373,"lng":144.463981,"prefecture":1,"lines":[11117],"attr":"eco","postal_code":"088-3204","address":"川上郡弟子屈町字朝日１丁目","next":[1110727,1110728,1111716,1111718,1111715,1111722],"voronoi":{"lat":43.558834,"lng":144.606006,"delta_lat":[0,-3228,-178209,-38797,-30815,16051],"delta_lng":[0,-66762,-459946,62251,77531,115026]}},
    {"code":1111713,"id":"07a497","name":"札弦","name_kana":"さっつる","lat":43.786574,"lng":144.531526,"prefecture":1,"lines":[11117],"attr":"cool","postal_code":"099-4521","address":"斜里郡清里町札弦町","next":[1111708,1111707,1111714,1111706,1111712],"voronoi":{"lat":43.801236,"lng":144.390446,"delta_lat":[0,16582,31573,4875,-154679],"delta_lng":[0,21872,59449,56205,129191]}},
    {"code":1111636,"left":1111634,"right":1111712,"id":"c44e3b","name":"端野","name_kana":"たんの","lat":43.851172,"lng":143.942336,"prefecture":1,"lines":[11116],"attr":"cool","postal_code":"099-2104","address":"北見市端野町端野","next":[1111632,1111637,1111624,1111635,1111638,1111631,1111623],"voronoi":{"lat":44.087345,"lng":143.796772,"delta_lat":[0,-14386,-128166,-1058,-174236,4326,374962],"delta_lng":[0,-5030,44099,505,181150,376,-190631]}},
    {"code":1111634,"left":1111633,"right":1111635,"id":"4ec5b7","name":"柏陽","name_kana":"はくよう","lat":43.824911,"lng":143.916737,"prefecture":1,"lines":[11116],"attr":"cool","postal_code":"090-0012","address":"北見市並木町","next":[1111638,1111632,1111633,1111635],"voronoi":{"lat":43.70847,"lng":144.019,"delta_lat":[0,144665,50440,-160750],"delta_lng":[0,-151185,-14630,163623]}},
    {"code":1111633,"left":1111631,"id":"8705c2","name":"北見","name_kana":"きたみ","lat":43.805504,"lng":143.898167,"prefecture":1,"lines":[11116],"attr":"cool","postal_code":"090-0040","address":"北見市大通西１丁目","next":[1110726,1111638,1111716,1111632,1110724,1111634,1110727],"voronoi":{"lat":43.445352,"lng":144.058903,"delta_lat":[0,263118,144665,-484817,10783,5146,14324],"delta_lng":[0,-39904,-151185,20478,83745,18426,46746]}},
    {"code":1111631,"id":"6ade48","name":"東相内","name_kana":"ひがしあいのない","lat":43.805466,"lng":143.809499,"prefecture":1,"lines":[11116],"attr":"cool","postal_code":"099-0878","address":"北見市東相内町","next":[1111632,1111636,1111630,1111624],"voronoi":{"lat":44.006405,"lng":143.746069,"delta_lat":[0,-373103,311491,128166],"delta_lng":[0,66940,22833,-44099]}},
    {"code":1111635,"id":"8e21a7","name":"愛し野","name_kana":"いとしの","lat":43.841426,"lng":143.932962,"prefecture":1,"lines":[11116],"attr":"cool","postal_code":"099-2103","address":"北見市端野町三区","next":[1111638,1111636,1111634,1111632],"voronoi":{"lat":43.742825,"lng":144.016807,"delta_lat":[0,26674,174236,-40160],"delta_lng":[0,689,-181150,16838]}},
    {"code":1111712,"left":1111638,"right":1111711,"id":"0207dc","name":"清里町","name_kana":"きよさとちょう","lat":43.83871,"lng":144.593948,"prefecture":1,"lines":[11117],"attr":"cool","postal_code":"099-4406","address":"斜里郡清里町水元町","next":[1111714,1111711,1111710,1111708,1111713],"voronoi":{"lat":43.630498,"lng":144.751231,"delta_lat":[0,134546,135813,-46591,-154679],"delta_lng":[0,-74210,-96979,-52070,129191]}},
    {"code":1111638,"id":"c145da","name":"美幌","name_kana":"びほろ","lat":43.836967,"lng":144.10563,"prefecture":1,"lines":[11116],"attr":"cool","postal_code":"092-0015","address":"網走郡美幌町字新町３丁目","next":[1111635,1111716,1111715,1111636,1111634,1111633,1111639,1111637],"voronoi":{"lat":43.713331,"lng":144.273364,"delta_lat":[0,-58064,-209914,263118,34355,26674,4326,137054],"delta_lng":[0,-36395,-178066,-39904,-2192,689,376,56334]}},
    {"code":1111711,"id":"10c3d0","name":"南斜里","name_kana":"みなみしゃり","lat":43.867531,"lng":144.63431,"prefecture":1,"lines":[11117],"attr":"cool","postal_code":"099-4143","address":"斜里郡斜里町字川上","next":[1111708,1111709,1111712,1111710],"voronoi":{"lat":43.900856,"lng":144.580043,"delta_lat":[0,24071,-30783,-129101],"delta_lng":[0,11359,48665,36955]}},
    {"code":1111622,"left":1111620,"right":1111705,"id":"41c614","name":"瀬戸瀬","name_kana":"せとせ","lat":44.008753,"lng":143.420937,"prefecture":1,"lines":[11116],"attr":"cool","postal_code":"099-0342","address":"紋別郡遠軽町字瀬戸瀬西町","next":[1111623,1111620,1111626,1111624,1111625,1111621],"voronoi":{"lat":44.225288,"lng":143.37224,"delta_lat":[0,-209276,-34442,-43338,-76622,40989],"delta_lng":[0,108121,-4628,-18892,-57339,-18167]}},
    {"code":1111620,"left":1111612,"right":1111520,"id":"e6f14b","name":"下白滝","name_kana":"しもしらたき","closed":true,"lat":43.944553,"lng":143.276088,"prefecture":1,"lines":[11116],"attr":"unknown","postal_code":"099-0101","address":"紋別郡遠軽町下白滝","open_date":"1929-08-12","closed_date":"2016-03-26","next":[1111627,1111622,1111619,1111626,1111621],"voronoi":{"lat":44.163021,"lng":143.111879,"delta_lat":[0,-407399,60239,45749,40989],"delta_lng":[0,255128,28801,3695,-18167]}},
    {"code":1111612,"left":1111508,"right":1111618,"id":"660425","name":"中愛別","name_kana":"なかあいべつ","lat":43.896216,"lng":142.655424,"prefecture":1,"lines":[11116],"attr":"eco","postal_code":"078-1652","address":"上川郡愛別町字中央","next":[1111511,1111613,1111520,1111611,1111616],"voronoi":{"lat":43.943909,"lng":142.74178,"delta_lat":[0,-106068,291035,11100,109874],"delta_lng":[0,-124948,9611,6043,240232]}},
    {"code":1111508,"left":1111611,"right":1111509,"id":"48febd","name":"北比布","name_kana":"きたぴっぷ","lat":43.901728,"lng":142.476545,"prefecture":1,"lines":[11115],"attr":"heat","postal_code":"078-0325","address":"上川郡比布町北５線１０号","next":[1111507,1111509,1111610],"voronoi":{"lat":43.903507,"lng":142.393979,"delta_lat":[0,-20050,34987],"delta_lng":[0,104047,18472]}},
    {"code":1111611,"left":1111610,"id":"9490c7","name":"愛別","name_kana":"あいべつ","lat":43.898635,"lng":142.582176,"prefecture":1,"lines":[11116],"attr":"eco","postal_code":"078-1401","address":"上川郡愛別町字愛別","next":[1111609,1111608,1111509,1111612,1111510,1111613,1111610,1111511],"voronoi":{"lat":44.124386,"lng":142.622992,"delta_lat":[0,-143190,-44327,-78377,-26122,-22186,27657,291035],"delta_lng":[0,-78155,-10803,31117,17747,24898,9037,9611]}},
    {"code":1111610,"id":"682d13","name":"伊香牛","name_kana":"いかうし","lat":43.876025,"lng":142.525227,"prefecture":1,"lines":[11116],"attr":"eco","postal_code":"078-1333","address":"上川郡当麻町伊香牛","next":[1111507,1111609,1111508,1111611,1111509],"voronoi":{"lat":43.918444,"lng":142.516497,"delta_lat":[0,-34987,-11773,-13193,78377],"delta_lng":[0,-18472,337,66788,-31117]}},
    {"code":1111509,"id":"606441","name":"蘭留","name_kana":"らんる","lat":43.925072,"lng":142.473699,"prefecture":1,"lines":[11115],"attr":"heat","postal_code":"078-0329","address":"上川郡比布町北９線１４号","next":[1111510,1111611,1111507,1111508,1111610],"voronoi":{"lat":43.918444,"lng":142.516497,"delta_lat":[0,-14937,1249,76439,-44327],"delta_lng":[0,-122519,-26276,177134,-10803]}},
    {"code":1111618,"left":1111617,"right":1111619,"id":"8f0137","name":"白滝","name_kana":"しらたき","lat":43.884435,"lng":143.180795,"prefecture":1,"lines":[11116],"attr":"eco","postal_code":"099-0111","address":"紋別郡遠軽町白滝","next":[1110713,1111617,1111627,1111619,1110708],"voronoi":{"lat":43.405035,"lng":143.284942,"delta_lat":[0,284095,335342,-619412,-301],"delta_lng":[0,58917,-212654,135030,17632]}},
    {"code":1111617,"id":"1a3f91","name":"上白滝","name_kana":"かみしらたき","closed":true,"lat":43.876501,"lng":143.1444,"prefecture":1,"lines":[11116],"attr":"unknown","postal_code":"099-0127","address":"紋別郡遠軽町上白滝","open_date":"1932-10-01","closed_date":"2016-03-26","next":[1111618,1111619,1111616,1110618,1110708,1111621,1111521,1111522,1111520],"voronoi":{"lat":44.332887,"lng":142.957938,"delta_lat":[0,11662,-67683,-252394,-619412,-1779,77987,802137,18991],"delta_lng":[0,8702,45915,118650,135030,-83831,-198486,-59481,12271]}},
    {"code":1111619,"id":"711b96","name":"旧白滝","name_kana":"きゅうしらたき","closed":true,"lat":43.919905,"lng":143.236729,"prefecture":1,"lines":[11116],"attr":"unknown","postal_code":"099-0102","address":"紋別郡遠軽町旧白滝","open_date":"1947-02-11","closed_date":"2016-03-26","next":[1111617,1111627,1111620,1111621,1111618],"voronoi":{"lat":43.755621,"lng":143.367006,"delta_lat":[0,407399,113846,-252394,-335342],"delta_lng":[0,-255128,-99324,118650,212654]}},
    {"code":1111520,"left":1111519,"right":1111521,"id":"9718c2","name":"東風連","name_kana":"ひがしふうれん","lat":44.316748,"lng":142.463087,"prefecture":1,"lines":[11115],"attr":"cool","postal_code":"098-0512","address":"名寄市風連町東風連","next":[1111519,1111516,1111612,1111511,1111517,1111617,1111515,1111521,1111616],"voronoi":{"lat":44.302396,"lng":142.936708,"delta_lat":[0,33291,-108091,-1384,-84210,-787,-1240,109874,33556],"delta_lng":[0,-512792,63896,1564,134070,1518,7523,240232,51718]}},
    {"code":1111519,"left":1111510,"right":1111523,"id":"2afba8","name":"風連","name_kana":"ふうれん","lat":44.292238,"lng":142.421624,"prefecture":1,"lines":[11115],"attr":"cool","postal_code":"098-0504","address":"名寄市風連町本町","next":[1111517,1111520,1111521,1111526,1111518,1111523],"voronoi":{"lat":44.369328,"lng":142.369097,"delta_lat":[0,-12422,-102975,-26335,108091,33148],"delta_lng":[0,-39332,105040,53007,-63896,-43478]}},
    {"code":1111510,"left":1111511,"id":"a76210","name":"塩狩","name_kana":"しおかり","lat":43.96794,"lng":142.4552,"prefecture":1,"lines":[11115],"attr":"heat","postal_code":"098-0125","address":"上川郡和寒町塩狩","next":[1111504,1111509,1110347,1111511,1111611,1111507],"voronoi":{"lat":43.981196,"lng":142.544837,"delta_lat":[0,143190,-200008,-21398,-55,1832],"delta_lng":[0,78155,-295778,29450,402,10637]}},
    {"code":1111511,"id":"f06bdc","name":"和寒","name_kana":"わっさむ","lat":44.026932,"lng":142.415309,"prefecture":1,"lines":[11115],"attr":"heat","postal_code":"098-0133","address":"上川郡和寒町北町","next":[1111612,1111520,1111510,1111515,1110347,1111512,1111611],"voronoi":{"lat":44.139975,"lng":142.632486,"delta_lat":[0,1240,-20795,-168521,-27522,200008,4490],"delta_lng":[0,-7523,-111886,-258579,72715,295778,3452]}},
    {"code":1111523,"id":"b1e6c6","name":"北星","name_kana":"ほくせい","lat":44.441569,"lng":142.428116,"prefecture":1,"lines":[11115],"attr":"cool","postal_code":"098-2181","address":"名寄市智恵文北星","next":[1111526,1111524,1111522,1111519,1111534,1111521,1111623,1111525],"voronoi":{"lat":44.918666,"lng":142.914096,"delta_lat":[0,215337,-227027,-536057,-2083,493,21672,32540],"delta_lng":[0,368483,-79230,-817734,-5177,-11341,7561,18566]}},
    {"code":1111521,"left":1111621,"right":1111522,"id":"a105d5","name":"名寄","name_kana":"なよろ","lat":44.349403,"lng":142.465207,"prefecture":1,"lines":[11115],"attr":"cool","postal_code":"096-0001","address":"名寄市東１条南６丁目","next":[1111519,1111617,1111522,1111520,1111523],"voronoi":{"lat":44.368835,"lng":142.380438,"delta_lat":[0,-33148,-33291,30491,38031],"delta_lng":[0,43478,512792,21230,-572323]}},
    {"code":1111621,"id":"28757f","name":"丸瀬布","name_kana":"まるせっぷ","lat":44.006354,"lng":143.335817,"prefecture":1,"lines":[11116],"attr":"cool","postal_code":"099-0203","address":"紋別郡遠軽町丸瀬布中町","next":[1111617,1111522,1111619,1111622,1111623,1111620],"voronoi":{"lat":44.225288,"lng":143.37224,"delta_lat":[0,631481,-512219,-67683,-113846,-260422],"delta_lng":[0,-184214,-221387,45915,99324,269457]}},
    {"code":1111522,"id":"07fbee","name":"日進(北海道)","original_name":"日進","name_kana":"にっしん","lat":44.381713,"lng":142.467354,"prefecture":1,"lines":[11115],"attr":"cool","postal_code":"096-0066","address":"名寄市字日進","next":[1111623,1111523,1111521,1111617,1111621],"voronoi":{"lat":44.906976,"lng":143.203348,"delta_lat":[0,-536057,-38031,11662,512219],"delta_lng":[0,-817734,572323,8702,221387]}},
    {"code":1111705,"left":1111706,"right":1111642,"id":"c420b1","name":"北浜(北海道)","original_name":"北浜","name_kana":"きたはま","lat":43.958549,"lng":144.352541,"prefecture":1,"lines":[11117],"attr":"heat","postal_code":"099-3112","address":"網走市字北浜","next":[1111639,1111714,1111706,1111702,1111704],"voronoi":{"lat":43.813694,"lng":144.291057,"delta_lat":[0,-50700,15584,388793,-108699],"delta_lng":[0,19491,24480,110037,-79983]}},
    {"code":1111706,"left":1111640,"right":1111708,"id":"914630","name":"原生花園","name_kana":"げんせいかえん","lat":43.941033,"lng":144.41443,"prefecture":1,"lines":[11117],"attr":"heat","postal_code":"099-3452","address":"斜里郡小清水町浜小清水","next":[1111707,1111714,1111705,1111713,1111702],"voronoi":{"lat":44.167372,"lng":144.445066,"delta_lat":[0,-388793,22657,16582,433350],"delta_lng":[0,-110037,55418,21872,77776]}},
    {"code":1111640,"left":1111639,"right":1111626,"id":"f2910a","name":"女満別","name_kana":"めまんべつ","lat":43.915886,"lng":144.170665,"prefecture":1,"lines":[11116],"attr":"cool","postal_code":"099-2310","address":"網走郡大空町女満別本通１丁目","next":[1111641,1111637,1111704,1111639],"voronoi":{"lat":43.95099,"lng":144.074308,"delta_lat":[0,139793,-231402,-42109],"delta_lng":[0,-29022,229144,14788]}},
    {"code":1111639,"left":1111637,"id":"069441","name":"西女満別","name_kana":"にしめまんべつ","lat":43.880057,"lng":144.148372,"prefecture":1,"lines":[11116],"attr":"cool","postal_code":"099-2301","address":"網走郡大空町女満別本郷","next":[1111714,1111705,1111704,1111637,1111638,1111640,1111715],"voronoi":{"lat":43.762995,"lng":144.310549,"delta_lat":[0,50700,3578,133718,-40111,-197549,36746],"delta_lng":[0,-19491,-1840,-214910,-101,199158,31332]}},
    {"code":1111637,"id":"797c75","name":"緋牛内","name_kana":"ひうしない","lat":43.880431,"lng":143.999887,"prefecture":1,"lines":[11116],"attr":"cool","postal_code":"099-2231","address":"北見市端野町緋牛内","next":[1111636,1111641,1111640,1111642,1111639,1111623,1111638],"voronoi":{"lat":43.95099,"lng":144.074308,"delta_lat":[0,139793,27411,237207,-206614,-374962,137054],"delta_lng":[0,-29022,-10419,-130085,-77540,190631,56334]}},
    {"code":1111626,"id":"e99cb4","name":"生田原","name_kana":"いくたはら","lat":43.923674,"lng":143.534627,"prefecture":1,"lines":[11116],"attr":"cool","postal_code":"099-0701","address":"紋別郡遠軽町生田原","next":[1111622,1111625,1111630,1111620,1111629,1111627],"voronoi":{"lat":43.81586,"lng":143.395808,"delta_lat":[0,45749,76622,11147,-31279,-31330],"delta_lng":[0,3695,57339,240270,-18011,-49879]}},
    {"code":1111708,"left":1111709,"right":1111707,"id":"98edbb","name":"止別","name_kana":"やむべつ","lat":43.921558,"lng":144.519818,"prefecture":1,"lines":[11117],"attr":"cool","postal_code":"099-3454","address":"斜里郡小清水町字止別","next":[1111711,1111713,1111707,1111709,1111712,1111702],"voronoi":{"lat":44.461002,"lng":144.58668,"delta_lat":[0,-611612,4875,46591,24071,682869],"delta_lng":[0,-114913,56205,52070,11359,52042]}},
    {"code":1111709,"id":"e4a553","name":"知床斜里","name_kana":"しれとこしゃり","lat":43.910749,"lng":144.661647,"prefecture":1,"lines":[11117],"attr":"cool","postal_code":"099-4112","address":"斜里郡斜里町港町","next":[1111553,1111711,1110821,1111702,1111710,1110820,1111708],"voronoi":{"enclosed":false,"lat":129.628338,"lng":199.102638,"delta_lat":[0,-84703983,-1075620,45410,30783,682869,6494293,89275527],"delta_lng":[0,-53152941,-681795,-627835,-48665,52042,1775019,45054193]}},
    {"code":1111707,"id":"1e3449","name":"浜小清水","name_kana":"はまこしみず","lat":43.934077,"lng":144.453187,"prefecture":1,"lines":[11117],"attr":"cool","postal_code":"099-3452","address":"斜里郡小清水町字浜小清水","next":[1111706,1111702,1111708,1111713],"voronoi":{"lat":43.817817,"lng":144.412318,"delta_lat":[0,433350,209835,-611612],"delta_lng":[0,77776,96586,-114913]}},
    {"code":1111642,"left":1111624,"right":1111703,"id":"05b582","name":"網走","name_kana":"あばしり","lat":44.019873,"lng":144.254156,"prefecture":1,"lines":[11116,11117],"attr":"cool","postal_code":"093-0046","address":"網走市新町２丁目","next":[1111703,1111553,1111702,1111641,1111637,1111623,1111534],"voronoi":{"lat":46.532223,"lng":144.024694,"delta_lat":[0,-2176822,-237207,-138719,2006,4373233,-1415486],"delta_lng":[0,-119913,130085,221322,1771,678909,-767360]}},
    {"code":1111624,"left":1111641,"right":1111623,"id":"f1bfba","name":"安国","name_kana":"やすくに","lat":43.993322,"lng":143.535762,"prefecture":1,"lines":[11116],"attr":"cool","postal_code":"099-0622","address":"紋別郡遠軽町生田原安国","next":[1111636,1111631,1111622,1111625,1111630,1111623],"voronoi":{"lat":44.016012,"lng":143.480362,"delta_lat":[0,-34442,-19462,44298,66554,14386],"delta_lng":[0,-4628,230717,39618,45674,5030]}},
    {"code":1111641,"left":1111625,"id":"395441","name":"呼人","name_kana":"よびと","lat":43.963695,"lng":144.218945,"prefecture":1,"lines":[11116],"attr":"cool","postal_code":"099-2421","address":"網走市呼人","next":[1111640,1111637,1111642,1111703,1111704],"voronoi":{"lat":43.914677,"lng":144.27188,"delta_lat":[0,64799,138719,-27411,-231402],"delta_lng":[0,-15691,-221322,10419,229144]}},
    {"code":1111625,"id":"b476e2","name":"生野(北海道)","original_name":"生野","name_kana":"いくの","lat":43.959928,"lng":143.532945,"prefecture":1,"lines":[11116],"attr":"cool","postal_code":"099-0701","address":"紋別郡遠軽町生田原","next":[1111630,1111626,1111624,1111622],"voronoi":{"lat":43.938231,"lng":143.456842,"delta_lat":[0,11147,12729,19462],"delta_lng":[0,240270,9339,-230717]}},
    {"code":1111623,"id":"0e8284","name":"遠軽","name_kana":"えんがる","lat":44.060278,"lng":143.520667,"prefecture":1,"lines":[11116],"attr":"cool","postal_code":"099-0415","address":"紋別郡遠軽町岩見通南１丁目","next":[1111522,1111534,1111622,1111636,1111637,1111642,1111621,1111624,1111523],"voronoi":{"lat":46.532223,"lng":144.024694,"delta_lat":[0,-2176822,-206614,-61442,-71334,209276,631481,50207,227027],"delta_lng":[0,-119913,-77540,-30469,-316411,-108121,-184214,15322,79230]}},
    {"code":1111703,"left":1111704,"right":1111702,"id":"a74ec6","name":"鱒浦","name_kana":"ますうら","lat":43.982481,"lng":144.296526,"prefecture":1,"lines":[11117],"attr":"heat","postal_code":"099-3119","address":"網走市字鱒浦","next":[1111642,1111702,1111641,1111704],"voronoi":{"lat":43.914677,"lng":144.27188,"delta_lat":[0,64799,2006,61481],"delta_lng":[0,-15691,1771,90844]}},
    {"code":1111704,"id":"05c5b4","name":"藻琴","name_kana":"もこと","lat":43.968358,"lng":144.320079,"prefecture":1,"lines":[11117],"attr":"heat","postal_code":"099-3111","address":"網走市字藻琴","next":[1111639,1111702,1111640,1111705,1111703,1111641],"voronoi":{"lat":43.817272,"lng":144.289217,"delta_lat":[0,-3578,244978,-15710,-128286,-55295],"delta_lng":[0,1840,74025,-16279,-76924,2550]}},
    {"code":1111702,"id":"0e5032","name":"桂台","name_kana":"かつらだい","lat":44.016913,"lng":144.273223,"prefecture":1,"lines":[11117],"attr":"heat","postal_code":"093-0031","address":"網走市台町１丁目","next":[1111707,1111703,1111705,1111709,1111704,1111642,1111553,1111706,1111708],"voronoi":{"lat":51.102089,"lng":146.418463,"delta_lat":[0,-2747375,-4373233,61481,15710,108699,83796,209835,146794],"delta_lng":[0,-1481594,-678909,90844,16279,79983,45029,96586,56763]}}
  ]
}