{
  "name":"segment24",
  "root":9965606,
  "east":135.65663,
  "west":134.470646,
  "south":34.886258,
  "north":90.0,
  "station_size":144,
  "node_list":[
    {"code":9965606,"left":9965602,"right":1161507,"id":"80f3a6","name":"公庄(北丹鉄道)","name_kana":"ぐじょう","closed":true,"lat":35.371558,"lng":135.127947,"prefecture":26,"lines":[99656],"attr":"unknown","postal_code":"620-0312","address":"京都府福知山市大江町公庄２２０１","next":[9960809,9960806,9960810,9965607,9960805,9965605],"voronoi":{"lat":35.364618,"lng":135.120528,"delta_lat":[0,76877,-213,-20807,-30933,-38759],"delta_lng":[0,-56651,425,32832,26884,9814]}},
    {"code":9965602,"left":1163209,"right":9960917,"id":"6ae152","name":"福知山西","name_kana":"ふくちやまにし","closed":true,"lat":35.30353,"lng":135.117472,"prefecture":26,"lines":[99656],"attr":"unknown","postal_code":"620-0051","address":"京都府福知山市昭和新町１６１−７１","next":[9960802,1161514,1161513,9960803,9965603],"voronoi":{"lat":35.304409,"lng":135.148948,"delta_lat":[0,-5627,16224,4287,8025],"delta_lng":[0,-38068,5553,5816,27657]}},
    {"code":1163209,"left":1163509,"right":1163218,"id":"a0f569","name":"青野ヶ原","name_kana":"あおのがはら","lat":34.897297,"lng":134.927933,"prefecture":28,"lines":[11632],"attr":"eco","postal_code":"675-1352","address":"兵庫県小野市復井町字十郎260","next":[9964304,1163211,1163210,9963518,9963515,1163208,9964308],"voronoi":{"lat":34.918895,"lng":134.882114,"delta_lat":[0,-13152,-32617,5156,1788,14425,27986],"delta_lng":[0,4051,70071,44914,3639,-23379,-98078]}},
    {"code":1163509,"left":1163507,"right":1163514,"id":"ec5d0d","name":"甘地","name_kana":"あまじ","lat":34.98814,"lng":134.758525,"prefecture":28,"lines":[11635],"attr":"eco","postal_code":"679-2323","address":"神崎郡市川町甘地","next":[1163508,1163510,9964308],"voronoi":{"lat":34.997224,"lng":134.675143,"delta_lat":[0,-35306,52913],"delta_lng":[0,122807,41761]}},
    {"code":1163507,"left":1163307,"right":9964308,"id":"b71074","name":"溝口","name_kana":"みぞぐち","lat":34.927859,"lng":134.742347,"prefecture":28,"lines":[11635],"attr":"eco","postal_code":"679-2161","address":"姫路市香寺町溝口","next":[1163508,1163304,1163303,9964307,1163307,1163506],"voronoi":{"lat":34.955704,"lng":134.647019,"delta_lat":[0,2141,5713,6912,-36425,-30629],"delta_lng":[0,-1535,-2697,-226,144355,-6421]}},
    {"code":1163307,"left":1163506,"right":1163308,"id":"6a0530","name":"播磨新宮","name_kana":"はりましんぐう","lat":34.921442,"lng":134.545766,"prefecture":28,"lines":[11633],"attr":"heat","postal_code":"679-4313","address":"たつの市新宮町新宮","next":[1163510,1163508,1163512,1163306,1163304,1163507,1163308],"voronoi":{"lat":35.012155,"lng":134.630872,"delta_lat":[0,-12452,-29232,-6912,-40198,-36505,193783],"delta_lng":[0,6096,5593,226,-37657,-103561,79361]}},
    {"code":1163506,"left":1163306,"id":"0ddee7","name":"香呂","name_kana":"こうろ","lat":34.911389,"lng":134.735895,"prefecture":28,"lines":[11635],"attr":"eco","postal_code":"679-2144","address":"姫路市香寺町中屋","next":[1163303,1163505,9964306,9964307,1163507],"voronoi":{"lat":34.955704,"lng":134.647019,"delta_lat":[0,-39609,-30984,17040,1265],"delta_lng":[0,23357,107276,2830,13]}},
    {"code":1163306,"id":"d0339b","name":"東觜崎","name_kana":"ひがしはしさき","lat":34.887629,"lng":134.557685,"prefecture":28,"lines":[11633],"attr":"eco","postal_code":"679-4108","address":"たつの市神岡町大住寺","next":[1163305,1163308,1160904,1163307,1163304],"voronoi":{"lat":34.886855,"lng":134.501568,"delta_lat":[0,-5536,-2119,-6451,50611],"delta_lng":[0,-4795,3690,80457,24209]}},
    {"code":1163308,"id":"fc518f","name":"千本","name_kana":"せんぼん","lat":34.942508,"lng":134.494327,"prefecture":28,"lines":[11633],"attr":"heat","postal_code":"679-4346","address":"たつの市新宮町千本","next":[100305,1163310,1163512,1163306,1160904,1163309,1163307],"voronoi":{"lat":35.10721,"lng":134.567805,"delta_lat":[0,-62287,-160029,-5450,1876,5536,193783],"delta_lng":[0,-44689,-66699,32427,7930,4795,79361]}},
    {"code":9964308,"left":9964306,"right":1163508,"id":"428aee","name":"北条町","name_kana":"ほうじょうまち","lat":34.929664,"lng":134.832617,"prefecture":28,"lines":[99643],"attr":"cool","postal_code":"675-2312","address":"加西市北条町北条","next":[9964304,9964307,9964305,1163211,1163213,1163209,1163210,1163510,1163509,1163508],"voronoi":{"lat":34.93577,"lng":134.788074,"delta_lat":[0,-24939,3048,5016,3586,63045,3925,52544,-27165,-52913],"delta_lng":[0,64908,17650,11481,1218,5772,-365,-16221,-32806,-41761]}},
    {"code":9964306,"left":9964307,"id":"c8c18f","name":"長","name_kana":"おさ","lat":34.896484,"lng":134.82566,"prefecture":28,"lines":[99643],"attr":"eco","postal_code":"675-2342","address":"加西市西長町字二反田","next":[9964307,1163504,1160819,1163505,9964305,1163506,1160818],"voronoi":{"lat":34.845861,"lng":134.795961,"delta_lat":[0,10537,9468,19245,17040,1814,-59954],"delta_lng":[0,-13246,-2822,-2242,2830,61316,-42417]}},
    {"code":9964307,"id":"2d47c0","name":"播磨横田","name_kana":"はりまよこた","lat":34.91048,"lng":134.825246,"prefecture":28,"lines":[99643],"attr":"cool","postal_code":"675-2335","address":"加西市西横田町字下モ田","next":[9964306,9964305,9964308,1163507,1163506,1163508],"voronoi":{"lat":34.934045,"lng":134.786915,"delta_lat":[0,-30629,-1265,1814,6866,24939],"delta_lng":[0,-6421,-13,61316,11185,-64908]}},
    {"code":1163508,"id":"b47b2f","name":"福崎","name_kana":"ふくさき","lat":34.960637,"lng":134.750618,"prefecture":28,"lines":[11635],"attr":"eco","postal_code":"679-2212","address":"神崎郡福崎町福田","next":[1163507,1163509,1163307,1163510,9964307,9964308],"voronoi":{"lat":34.997224,"lng":134.675143,"delta_lat":[0,2479,-29232,-36425,1725,26147],"delta_lng":[0,-38176,5593,144355,1159,9876]}},
    {"code":1163514,"left":1163512,"right":1163516,"id":"6e2154","name":"生野(兵庫)","name_kana":"いくの","lat":35.163227,"lng":134.789259,"prefecture":28,"lines":[11635],"attr":"heat","postal_code":"679-3301","address":"朝来市生野町口銀谷","next":[1163513,1163515,1163219,1163218,1163511,1163006,1163516],"voronoi":{"lat":35.189906,"lng":134.917281,"delta_lat":[0,17843,-119098,-15465,91969,8917,13592],"delta_lng":[0,-224505,133688,47495,49083,4064,521]}},
    {"code":1163512,"left":1163510,"right":1163513,"id":"1419cf","name":"寺前","name_kana":"てらまえ","lat":35.065462,"lng":134.743255,"prefecture":28,"lines":[11635],"attr":"heat","postal_code":"679-3112","address":"神崎郡神河町鍛治","next":[1163510,1163308,1163310,1163307,1163513,1163511],"voronoi":{"lat":35.107987,"lng":134.567601,"delta_lat":[0,-778,-26571,-68484,20941,53500],"delta_lng":[0,203,13125,49942,76228,88040]}},
    {"code":1163510,"left":1163511,"id":"c36c7a","name":"鶴居","name_kana":"つるい","lat":35.023742,"lng":134.754716,"prefecture":28,"lines":[11635],"attr":"eco","postal_code":"679-2334","address":"神崎郡市川町鶴居","next":[1163307,1163512,1163509,1163217,1163213,1163511,1163508,9964308],"voronoi":{"lat":35.046958,"lng":134.873724,"delta_lat":[0,166,-14028,-20941,-12452,-2479,17607,27165],"delta_lng":[0,0,-166625,-76228,6096,38176,164568,32806]}},
    {"code":1163511,"id":"43aaea","name":"新野(兵庫)","name_kana":"にいの","lat":35.050278,"lng":134.752482,"prefecture":28,"lines":[11635],"attr":"heat","postal_code":"679-3114","address":"神崎郡神河町新野","next":[1163218,1163513,1163514,1163217,1163512,1163510],"voronoi":{"lat":35.033095,"lng":134.707099,"delta_lat":[0,53500,2055,-15465,-21930,-4132],"delta_lng":[0,88040,31325,47495,240,-475]}},
    {"code":1163513,"id":"5b4038","name":"長谷(兵庫)","name_kana":"はせ","lat":35.117029,"lng":134.748103,"prefecture":28,"lines":[11635],"attr":"heat","postal_code":"679-3102","address":"神崎郡神河町栗","next":[1163514,1163511,9964411,1163512,1163310,9964407,1163515,9970109],"voronoi":{"lat":35.207748,"lng":134.692777,"delta_lat":[0,-119098,-2055,21392,46928,18466,22224,54347],"delta_lng":[0,133688,-31325,-227538,-19832,-1643,3885,35458]}},
    {"code":1163516,"left":1163515,"right":1163517,"id":"545a48","name":"青倉","name_kana":"あおくら","lat":35.26719,"lng":134.811789,"prefecture":28,"lines":[11635],"attr":"cool","postal_code":"679-3401","address":"朝来市物部","next":[1161518,1161520,1163006,1161521,1163517,1163514,1163515],"voronoi":{"lat":35.317291,"lng":134.683087,"delta_lat":[0,1885,51,-99296,-28115,-4152,2242],"delta_lng":[0,9124,83231,131379,22692,-1886,-10346]}},
    {"code":1163515,"id":"f8c8f4","name":"新井(兵庫)","name_kana":"にい","lat":35.236471,"lng":134.79508,"prefecture":28,"lines":[11635],"attr":"heat","postal_code":"679-3431","address":"朝来市新井","next":[9970109,1163514,1161521,1163513,1163516],"voronoi":{"lat":35.207748,"lng":134.692777,"delta_lat":[0,42204,61119,6219,-127385],"delta_lng":[0,-107307,16755,80863,234194]}},
    {"code":1163517,"id":"938b29","name":"竹田(兵庫)","name_kana":"たけだ","lat":35.298459,"lng":134.835422,"prefecture":28,"lines":[11635],"attr":"cool","postal_code":"669-5252","address":"朝来市和田山町竹田","next":[1161519,1163516,1161520,1161518],"voronoi":{"lat":35.319226,"lng":134.775442,"delta_lat":[0,12113,-15883,-95526],"delta_lng":[0,37239,42774,51366]}},
    {"code":1163218,"left":1163214,"right":1163005,"id":"94125d","name":"本黒田","name_kana":"ほんくろだ","lat":35.052941,"lng":134.99591,"prefecture":28,"lines":[11632],"attr":"cool","postal_code":"679-0302","address":"西脇市黒田庄町黒田","next":[1163511,1163217,1163219,1163514],"voronoi":{"lat":35.073186,"lng":134.87396,"delta_lat":[0,-21930,-16291,130190],"delta_lng":[0,240,145468,-96625]}},
    {"code":1163214,"left":1163212,"right":1163216,"id":"582ad2","name":"新西脇","name_kana":"しんにしわき","lat":34.977907,"lng":134.977563,"prefecture":28,"lines":[11632],"attr":"heat","postal_code":"677-0053","address":"西脇市和布町","next":[1163215,1163212,1163213,1163217,1163216],"voronoi":{"lat":34.941631,"lng":135.011591,"delta_lat":[0,12365,59384,-7574,-7688],"delta_lng":[0,-23686,-42026,22676,9255]}},
    {"code":1163212,"left":1163211,"right":1163213,"id":"c6d054","name":"滝(兵庫)","name_kana":"たき","lat":34.948812,"lng":134.962374,"prefecture":28,"lines":[11632],"attr":"heat","postal_code":"679-0211","address":"加東市上滝野","next":[1162918,9963512,1163214,1163211,1163213,1163215],"voronoi":{"lat":34.941631,"lng":135.011591,"delta_lat":[0,12365,15358,-85898,8644,10063],"delta_lng":[0,-23686,-54748,89620,36024,69]}},
    {"code":1163211,"left":1163210,"id":"6b669f","name":"滝野","name_kana":"たきの","lat":34.941034,"lng":134.954919,"prefecture":28,"lines":[11632],"attr":"eco","postal_code":"679-0211","address":"加東市上滝野","next":[9963515,1163210,1163212,1163209,9964308,1163213,9963512],"voronoi":{"lat":34.969353,"lng":134.933158,"delta_lat":[0,20098,-3925,-91031,-14425,1460,1925],"delta_lng":[0,-44419,365,92306,23379,11677,6312]}},
    {"code":1163210,"id":"5f108d","name":"社町","name_kana":"やしろちょう","lat":34.920336,"lng":134.934507,"prefecture":28,"lines":[11632],"attr":"eco","postal_code":"679-0221","address":"加東市河高","next":[1163211,1163209,9964308],"voronoi":{"lat":34.894495,"lng":134.98141,"delta_lat":[0,27986,63045],"delta_lng":[0,-98078,5772]}},
    {"code":1163213,"id":"6204aa","name":"西脇市","name_kana":"にしわきし","lat":34.971702,"lng":134.968795,"prefecture":28,"lines":[11632],"attr":"heat","postal_code":"677-0054","address":"西脇市野村町","next":[1163214,1163212,1163211,1163510,9964308,1163217],"voronoi":{"lat":34.953996,"lng":134.987905,"delta_lat":[0,15358,20098,52544,4962,-33578],"delta_lng":[0,-54748,-44419,-16221,1207,72155]}},
    {"code":1163216,"left":1163215,"right":1163217,"id":"b7ae4d","name":"日本へそ公園","name_kana":"にほんへそこうえん","lat":35.002069,"lng":134.997633,"prefecture":28,"lines":[11632],"attr":"heat","postal_code":"677-0039","address":"西脇市上比延町大字芦谷滝ノ上","next":[1163220,1163215,1163219,1163217,1162920,1163004,1163214],"voronoi":{"lat":35.005805,"lng":134.968556,"delta_lat":[0,18805,-597,-6693,-8269,-24752,13818],"delta_lng":[0,75870,3102,14991,12819,-829,-96698]}},
    {"code":1163215,"id":"1abf35","name":"比延","name_kana":"ひえ","lat":34.988773,"lng":134.995733,"prefecture":28,"lines":[11632],"attr":"heat","postal_code":"677-0033","address":"西脇市鹿野町","next":[1162920,1163216,1163214,1162918,1162919,1163212],"voronoi":{"lat":34.941631,"lng":135.011591,"delta_lat":[0,56487,-13818,-9799,-13525,-58813],"delta_lng":[0,-33781,96698,507,-993,-15152]}},
    {"code":1163217,"id":"0712be","name":"黒田庄","name_kana":"くろだしょう","lat":35.022689,"lng":134.992522,"prefecture":28,"lines":[11632],"attr":"heat","postal_code":"679-0313","address":"西脇市黒田庄町岡","next":[1163219,1163218,1163216,1163214,1163510,1163511,1163213],"voronoi":{"lat":35.046958,"lng":134.873724,"delta_lat":[0,166,4132,-16291,-10354,-18805,7574],"delta_lng":[0,0,475,145468,24758,-75870,-22676]}},
    {"code":1163005,"left":1163004,"right":1163007,"id":"5b1de3","name":"柏原(兵庫)","name_kana":"かいばら","lat":35.127206,"lng":135.077082,"prefecture":28,"lines":[11630],"attr":"heat","postal_code":"669-3309","address":"丹波市柏原町柏原","next":[1163003,1163007,1163004,1163006],"voronoi":{"lat":35.121886,"lng":135.035919,"delta_lat":[0,-21110,26166,21359],"delta_lng":[0,34250,59828,-43672]}},
    {"code":1163004,"left":1163220,"right":1163006,"id":"df9660","name":"谷川","name_kana":"たにかわ","lat":35.082724,"lng":135.049666,"prefecture":28,"lines":[11630,11632],"attr":"heat","postal_code":"669-3125","address":"丹波市山南町池谷","next":[1163003,1163005,1163220,1163006,1163216,1162920],"voronoi":{"lat":35.009051,"lng":135.075337,"delta_lat":[0,8269,106996,-2430,-21110,-85949],"delta_lng":[0,-12819,-38702,12103,34250,9994]}},
    {"code":1163220,"left":1163219,"id":"1bf145","name":"久下村","name_kana":"くげむら","lat":35.075812,"lng":135.030557,"prefecture":28,"lines":[11632],"attr":"cool","postal_code":"669-3131","address":"丹波市山南町谷川","next":[1163216,1163219,1163004,1163006],"voronoi":{"lat":35.146116,"lng":134.973271,"delta_lat":[0,-122102,-6693,106996],"delta_lng":[0,74257,14991,-38702]}},
    {"code":1163219,"id":"55dfe3","name":"船町口","name_kana":"ふなまちぐち","lat":35.06291,"lng":135.009342,"prefecture":28,"lines":[11632],"attr":"cool","postal_code":"679-0304","address":"西脇市黒田庄町船町","next":[1163217,1163216,1163514,1163218,1163220,1163006],"voronoi":{"lat":35.174071,"lng":134.927106,"delta_lat":[0,-8917,-130190,-10354,-597,122102],"delta_lng":[0,-4064,96625,24758,3102,-74257]}},
    {"code":1163006,"id":"be2dc4","name":"石生","name_kana":"いそう","lat":35.152706,"lng":135.063719,"prefecture":28,"lines":[11630],"attr":"eco","postal_code":"669-3464","address":"丹波市氷上町石生","next":[1163007,1161518,1161516,1163514,1163516,1163005,1163219,1163220,1163004],"voronoi":{"lat":35.124317,"lng":135.023817,"delta_lat":[0,21799,27956,13592,4152,7825,41092,-92431,-26415],"delta_lng":[0,-50546,-46164,521,1886,7272,105935,43605,-50406]}},
    {"code":1163007,"left":1163003,"right":1161514,"id":"b4f113","name":"黒井(兵庫)","name_kana":"くろい","lat":35.168549,"lng":135.097302,"prefecture":28,"lines":[11630],"attr":"eco","postal_code":"669-4141","address":"丹波市春日町黒井","next":[1163009,1163006,1163005,1163008,1163003,1163002,1161516],"voronoi":{"lat":35.233264,"lng":135.059898,"delta_lat":[0,-88522,-18217,418,21359,92431,511],"delta_lng":[0,105807,-24597,-11110,-43672,-43605,787]}},
    {"code":1163003,"id":"dde95c","name":"下滝","name_kana":"しもたき","lat":35.08791,"lng":135.094268,"prefecture":28,"lines":[11630],"attr":"heat","postal_code":"669-3102","address":"丹波市山南町下滝","next":[1163005,1162921,1163004,1163007,1163002,1162920],"voronoi":{"lat":35.014827,"lng":135.080163,"delta_lat":[0,85949,26166,-418,-69803,-40466],"delta_lng":[0,-9994,59828,11110,-14608,-44100]}},
    {"code":1161514,"id":"19826e","name":"福知山","name_kana":"ふくちやま","lat":35.296143,"lng":135.118564,"prefecture":26,"lines":[11615,11622,11630,99608,99656,99655],"attr":"heat","postal_code":"620-0000","address":"福知山市字天田無番地","next":[9960802,9965602,1161513,1163009],"voronoi":{"lat":35.25075,"lng":135.060699,"delta_lat":[0,48031,5627,-27208],"delta_lng":[0,50182,38068,2100]}},
    {"code":9960917,"left":1161602,"right":9965605,"id":"12a52b","name":"久美浜","name_kana":"くみはま","lat":35.60235,"lng":134.894997,"prefecture":26,"lines":[99609,99654],"attr":"cool","postal_code":"629-3405","address":"京丹後市久美浜町栄町","next":[1161603,9960918,9960915,9960916],"voronoi":{"lat":35.596138,"lng":134.849775,"delta_lat":[0,71977,-41965,-121094],"delta_lng":[0,18898,34796,21997]}},
    {"code":1161602,"left":1161524,"right":1161607,"id":"dad59d","name":"玄武洞","name_kana":"げんぶどう","lat":35.588645,"lng":134.799305,"prefecture":28,"lines":[11616],"attr":"heat","postal_code":"669-6116","address":"豊岡市城崎町上山","next":[1161523,1161603,1161604,1161607,1161522,1161606,9960918,1161524],"voronoi":{"lat":35.592921,"lng":134.839381,"delta_lat":[0,25322,-41274,-23575,-7253,-4303,60,27345],"delta_lng":[0,-62927,-58843,-13402,-3096,21772,7810,85178]}},
    {"code":1161524,"left":1161522,"right":1161519,"id":"0e175d","name":"豊岡(兵庫)","name_kana":"とよおか","lat":35.543825,"lng":134.813694,"prefecture":28,"lines":[11615,11616,99609,99654],"attr":"heat","postal_code":"668-0031","address":"豊岡市大手町","next":[1161523,9960918,1161602],"voronoi":{"lat":35.541899,"lng":134.730694,"delta_lat":[0,-31472,58817],"delta_lng":[0,109551,-24373]}},
    {"code":1161522,"left":1161520,"right":1161523,"id":"16e225","name":"江原","name_kana":"えばら","lat":35.469477,"lng":134.77575,"prefecture":28,"lines":[11615],"attr":"cool","postal_code":"669-5311","address":"豊岡市日高町日置","next":[9970109,1161611,1161523,1161602,1161608,1161521,1161607],"voronoi":{"lat":35.529321,"lng":134.674501,"delta_lat":[0,-82962,-10500,-14084,25117,94946,4303],"delta_lng":[0,-90436,-6424,4635,245218,-104610,-21772]}},
    {"code":1161520,"left":1161521,"id":"eee9b5","name":"養父","name_kana":"やぶ","lat":35.371306,"lng":134.811726,"prefecture":28,"lines":[11615],"attr":"eco","postal_code":"667-0126","address":"養父市堀畑","next":[1163516,1161523,1161521,1161517,1163517,1161519],"voronoi":{"lat":35.441899,"lng":134.892692,"delta_lat":[0,-2868,-119855,51,12113,103943],"delta_lng":[0,-30593,-169887,83231,37239,78385]}},
    {"code":1161521,"id":"6e5000","name":"八鹿","name_kana":"ようか","lat":35.414287,"lng":134.781403,"prefecture":28,"lines":[11615],"attr":"cool","postal_code":"667-0021","address":"養父市八鹿町八鹿","next":[1161523,9970109,1163515,1161520,1161522,1163516],"voronoi":{"lat":35.317291,"lng":134.683087,"delta_lat":[0,-6219,110704,25117,-7862,-119855],"delta_lng":[0,-80863,-19948,245218,34604,-169887]}},
    {"code":1161523,"id":"d67660","name":"国府(兵庫)","name_kana":"こくふ","lat":35.496213,"lng":134.800016,"prefecture":28,"lines":[11615],"attr":"heat","postal_code":"669-5331","address":"豊岡市日高町上石","next":[1161602,1161521,1161524,1161522,1161520,1161517,9960918],"voronoi":{"lat":35.441899,"lng":134.892692,"delta_lat":[0,-2868,7862,94946,60,-31472,-47894],"delta_lng":[0,-30593,-34604,-104610,7810,109551,76635]}},
    {"code":1161519,"left":1161518,"right":9960918,"id":"e58f15","name":"和田山","name_kana":"わだやま","lat":35.34141,"lng":134.85137,"prefecture":28,"lines":[11615,11635],"attr":"eco","postal_code":"669-5202","address":"朝来市和田山町東谷","next":[1163517,1161518,1161517,1161520],"voronoi":{"lat":35.331339,"lng":134.812681,"delta_lat":[0,-15883,56586,63240],"delta_lng":[0,42774,35933,-322]}},
    {"code":1161518,"id":"a40fab","name":"梁瀬","name_kana":"やなせ","lat":35.322796,"lng":134.880682,"prefecture":28,"lines":[11615],"attr":"eco","postal_code":"669-5101","address":"朝来市山東町滝田","next":[1163516,1163006,1161516,1161519,1161517,1163517],"voronoi":{"lat":35.191815,"lng":134.929514,"delta_lat":[0,7825,47486,124916,-56586,-95526],"delta_lng":[0,7272,1166,-46563,-35933,51366]}},
    {"code":9960918,"id":"88f9df","name":"コウノトリの郷","name_kana":"こうのとりのさと","lat":35.552816,"lng":134.835391,"prefecture":28,"lines":[99609,99654],"attr":"cool","postal_code":"668-0815","address":"豊岡市日撫","next":[1161517,1161603,1161602,1161524,1161523,9960917,9960916],"voronoi":{"lat":35.505056,"lng":134.925466,"delta_lat":[0,91082,-3216,-23678,-58817,-47894,12652],"delta_lng":[0,-75691,-10394,-23508,24373,76635,27714]}},
    {"code":1161607,"left":1161610,"right":1161604,"id":"abab24","name":"柴山","name_kana":"しばやま","lat":35.646454,"lng":134.663886,"prefecture":28,"lines":[11616],"attr":"cool","postal_code":"669-6431","address":"美方郡香美町香住区浦上","next":[1161602,1161606,1161608,1161609,1161522],"voronoi":{"lat":35.553395,"lng":134.704209,"delta_lat":[0,248639,-87326,-185386,16820],"delta_lng":[0,-75667,-5153,51113,26611]}},
    {"code":1161610,"left":1161608,"right":1161609,"id":"8f183f","name":"餘部","name_kana":"あまるべ","lat":35.648658,"lng":134.556918,"prefecture":28,"lines":[11616],"attr":"eco","postal_code":"669-6671","address":"美方郡香美町香住区余部","next":[9941807,1161612,1170516,1161609,1161613,1161611,1161608],"voronoi":{"lat":35.566761,"lng":134.575229,"delta_lat":[0,197091,168237,3509242,200654,-644245,-3418188],"delta_lng":[0,-105209,-45203,-833672,-15590,433405,568823]}},
    {"code":1161608,"left":1161611,"id":"15e65f","name":"香住","name_kana":"かすみ","lat":35.635344,"lng":134.62359,"prefecture":28,"lines":[11616],"attr":"cool","postal_code":"669-6546","address":"美方郡香美町香住区七日市","next":[1161609,1161522,1161610,1161607,1161611],"voronoi":{"lat":35.566761,"lng":134.575229,"delta_lat":[0,12791,135155,-185386,-82962],"delta_lng":[0,2554,45605,51113,-90436]}},
    {"code":1161611,"id":"1e639f","name":"久谷","name_kana":"くたに","lat":35.627549,"lng":134.517374,"prefecture":28,"lines":[11616],"attr":"eco","postal_code":"669-6721","address":"美方郡新温泉町久谷","next":[1161612,1161522,9970109,1161610,1161608],"voronoi":{"lat":35.566761,"lng":134.575229,"delta_lat":[0,197091,-295943,-32050,10500],"delta_lng":[0,-105209,31646,75975,6424]}},
    {"code":1161609,"id":"ccfd0f","name":"鎧","name_kana":"よろい","lat":35.651691,"lng":134.575144,"prefecture":28,"lines":[11616],"attr":"eco","postal_code":"669-6672","address":"美方郡香美町香住区鎧","next":[1161608,1161606,9941807,1161610,9942021,1161607],"voronoi":{"lat":38.022572,"lng":134.599479,"delta_lat":[0,221375,753793,-3418188,135155,87326],"delta_lng":[0,-80432,-510087,568823,45605,5153]}},
    {"code":1161604,"left":1161603,"right":1161606,"id":"deeb7e","name":"竹野","name_kana":"たけの","lat":35.649807,"lng":134.756405,"prefecture":28,"lines":[11616],"attr":"heat","postal_code":"669-6215","address":"豊岡市竹野町草飼","next":[9960913,1161606,1161603,1161602,9960914,9960915],"voronoi":{"lat":35.803896,"lng":134.86123,"delta_lat":[0,-185652,-41274,1590165,-1092009,-245719],"delta_lng":[0,-84776,-58843,75126,71132,289]}},
    {"code":1161603,"id":"5a7ecf","name":"城崎温泉","name_kana":"きのさきおんせん","lat":35.623764,"lng":134.813437,"prefecture":28,"lines":[11616],"attr":"heat","postal_code":"669-6103","address":"豊岡市城崎町今津稗田","next":[9960917,1161602,1161604,9960915,9960918],"voronoi":{"lat":35.668115,"lng":134.868673,"delta_lat":[0,135781,-185652,-25322,3216],"delta_lng":[0,-7443,-84776,62927,10394]}},
    {"code":1161606,"id":"3695dd","name":"佐津","name_kana":"さつ","lat":35.65314,"lng":134.685856,"prefecture":28,"lines":[11616],"attr":"cool","postal_code":"669-6401","address":"美方郡香美町香住区無南垣","next":[1161604,1161609,9960913,9942021,1161602,1161607],"voronoi":{"lat":35.57697,"lng":134.717611,"delta_lat":[0,1590165,403105,452333,-2220539,-248639],"delta_lng":[0,75126,-16851,-176406,29062,75667]}},
    {"code":9965605,"left":9960803,"right":9960912,"id":"06941f","name":"下天津(北丹鉄道)","name_kana":"しもあまず","closed":true,"lat":35.357476,"lng":135.113303,"prefecture":26,"lines":[99656],"attr":"unknown","postal_code":"620-0072","address":"京都府福知山市字下天津２６９","next":[9965603,9960806,9965604,9965606,9960805],"voronoi":{"lat":35.351259,"lng":135.102913,"delta_lat":[0,-11144,-526,11195,13835],"delta_lng":[0,37007,4088,-10177,-13304]}},
    {"code":9960803,"left":9960804,"right":9965603,"id":"705d62","name":"荒河かしの木台","name_kana":"あらがかしのきだい","lat":35.319394,"lng":135.105779,"prefecture":26,"lines":[99608,99655],"attr":"eco","postal_code":"620-0065","address":"福知山市上荒河","next":[9965603,9960804,1161515,9960802,9965602],"voronoi":{"lat":35.315006,"lng":135.116433,"delta_lat":[0,-6997,17615,2132,-8463],"delta_lng":[0,-32017,5480,9795,22558]}},
    {"code":9960804,"left":1161515,"right":1161517,"id":"585666","name":"牧(京都)","name_kana":"まき","lat":35.337892,"lng":135.101751,"prefecture":26,"lines":[99608,99655],"attr":"eco","postal_code":"620-0913","address":"福知山市牧","next":[9960803,9965604,9960805,1161515,9965603],"voronoi":{"lat":35.351779,"lng":135.1001,"delta_lat":[0,9498,-35654,2132,7062],"delta_lng":[0,-20709,10506,9795,6900]}},
    {"code":1161515,"left":1161516,"id":"e5e3fc","name":"上川口","name_kana":"かみかわぐち","lat":35.329504,"lng":135.073284,"prefecture":26,"lines":[11615],"attr":"eco","postal_code":"620-0916","address":"福知山市六十内","next":[9960802,9960805,9960803,9960804,1161516],"voronoi":{"lat":35.308009,"lng":135.084416,"delta_lat":[0,17615,35654,73467,-186038],"delta_lng":[0,5480,-10506,-57527,24027]}},
    {"code":1161516,"id":"362bdf","name":"下夜久野","name_kana":"しもやくの","lat":35.319893,"lng":134.998868,"prefecture":26,"lines":[11615],"attr":"eco","postal_code":"629-1304","address":"福知山市夜久野町額田","next":[9960910,9960802,9960805,1163006,1161518,1161517,1163009,1163007,1161515],"voronoi":{"lat":35.24458,"lng":135.04539,"delta_lat":[0,-3337,-511,-41092,47486,215575,-2629,-25328,-186038],"delta_lng":[0,-1882,-787,-105935,1166,70394,4608,8910,24027]}},
    {"code":1161517,"id":"d32a2a","name":"上夜久野","name_kana":"かみやくの","lat":35.34182,"lng":134.931718,"prefecture":26,"lines":[11615],"attr":"eco","postal_code":"629-1322","address":"福知山市夜久野町平野","next":[9960916,9960918,9960910,1161523,1161519,9960911,1161516,1161518,1161520],"voronoi":{"lat":35.462532,"lng":134.91688,"delta_lat":[0,12652,1982,-11230,-3235,-215575,124916,63240,6616],"delta_lng":[0,27714,43962,16439,3350,-70394,-46563,-322,1625]}},
    {"code":9965603,"left":9960802,"right":9965604,"id":"870620","name":"下川停留所","name_kana":"しもかわていりゅうじょ","closed":true,"lat":35.33005,"lng":135.109777,"prefecture":26,"lines":[99656],"attr":"unknown","postal_code":"620-0075","address":"京都府福知山市波江","next":[9960803,9965604,9965605,1161513,9960804,9960806,9965602],"voronoi":{"lat":35.335327,"lng":135.153219,"delta_lat":[0,4262,526,-5297,-7062,-8463,8025],"delta_lng":[0,-9211,-4088,-33329,-6900,22558,27657]}},
    {"code":9960802,"id":"9acab3","name":"福知山市民病院口","name_kana":"ふくちやましみんびょういんぐち","lat":35.306573,"lng":135.108581,"prefecture":26,"lines":[99608,99655],"attr":"eco","postal_code":"620-0926","address":"福知山市新庄","next":[9965602,1161514,1161516,1161515,9960803,1163009],"voronoi":{"lat":35.298781,"lng":135.110881,"delta_lat":[0,16224,-6997,-59302,-4126,6170],"delta_lng":[0,5553,-32017,-38526,-501,15309]}},
    {"code":9965604,"id":"bf753c","name":"上天津","name_kana":"かみあまず","closed":true,"lat":35.340338,"lng":135.108142,"prefecture":26,"lines":[99656],"attr":"unknown","postal_code":"620-0000","address":"京都府福知山市字上天津１７８３","next":[9960805,9965603,9965605,9960804],"voronoi":{"lat":35.351779,"lng":135.1001,"delta_lat":[0,-521,-11144,-5297],"delta_lng":[0,2814,37007,-33329]}},
    {"code":9960912,"left":9960914,"right":9960910,"id":"c447cf","name":"峰山","name_kana":"みねやま","lat":35.625928,"lng":135.07214,"prefecture":26,"lines":[99609,99654],"attr":"heat","postal_code":"627-0012","address":"京丹後市峰山町杉谷","next":[9960914,9960906,9960908,9960913,9960911],"voronoi":{"lat":35.565966,"lng":135.00482,"delta_lat":[0,42794,389950,-145580,-216919],"delta_lng":[0,10348,346993,-73322,-134102]}},
    {"code":9960914,"left":9960915,"right":9960913,"id":"9f3000","name":"夕日ヶ浦木津温泉","name_kana":"ゆうひがうらきつおんせん","lat":35.650061,"lng":134.972332,"prefecture":26,"lines":[99609,99654],"attr":"heat","postal_code":"629-3241","address":"京丹後市網野町木津","next":[9960913,9960915,9960912,1161604,9960911,9960916],"voronoi":{"lat":35.602238,"lng":134.967603,"delta_lat":[0,227168,245719,-466365,-42794,-5271],"delta_lng":[0,-103446,-289,151299,-10348,-3065]}},
    {"code":9960915,"left":9960916,"id":"f7130d","name":"小天橋","name_kana":"しょうてんきょう","lat":35.630067,"lng":134.928425,"prefecture":26,"lines":[99609,99654],"attr":"cool","postal_code":"629-3438","address":"京丹後市久美浜町浦明","next":[9960914,1161603,9960916,9960917,1161604],"voronoi":{"lat":35.602238,"lng":134.967603,"delta_lat":[0,23911,41965,135781,25511],"delta_lng":[0,-64135,-34796,-7443,2928]}},
    {"code":9960916,"id":"b1de33","name":"かぶと山","name_kana":"かぶとやま","lat":35.60685,"lng":134.919769,"prefecture":26,"lines":[99609,99654],"attr":"cool","postal_code":"629-3442","address":"京丹後市久美浜町甲山","next":[1161517,9960915,9960918,9960911,9960917,9960914],"voronoi":{"lat":35.602238,"lng":134.967603,"delta_lat":[0,23911,-121094,-29871,1982,83529],"delta_lng":[0,-64135,21997,19129,43962,13198]}},
    {"code":9960913,"id":"26cd38","name":"網野","name_kana":"あみの","lat":35.667342,"lng":135.025599,"prefecture":26,"lines":[99609,99654],"attr":"heat","postal_code":"629-3102","address":"京丹後市網野町下岡","next":[1161604,1161606,9960914,9942021,9960912,9960906,9942813],"voronoi":{"lat":36.305489,"lng":135.403378,"delta_lat":[0,1264751,-403105,-1092009,-466365,389950,146558],"delta_lng":[0,-627492,16851,71132,151299,346993,86376]}},
    {"code":9960910,"left":9960805,"right":9960911,"id":"f576e0","name":"与謝野","name_kana":"よさの","lat":35.543516,"lng":135.126469,"prefecture":26,"lines":[99609,99654],"attr":"heat","postal_code":"629-2302","address":"与謝郡与謝野町下山田","next":[9960911,1161516,9960811,9960805,1161517,9960812,9960909,9960810],"voronoi":{"lat":35.458053,"lng":135.038112,"delta_lat":[0,2020,2629,3235,113372,-67739,-13553,-20975],"delta_lng":[0,-25158,-4608,-3350,124941,18727,-7594,-36344]}},
    {"code":9960805,"id":"2edf4e","name":"下天津(京都丹後鉄道)","name_kana":"しもあまづ","lat":35.359587,"lng":135.111702,"prefecture":26,"lines":[99608,99655],"attr":"eco","postal_code":"620-0072","address":"福知山市下天津","next":[9965604,1161516,9960910,1161515,9960810,9965606,9960804,9965605],"voronoi":{"lat":35.441495,"lng":135.063877,"delta_lat":[0,16557,2020,-25328,-73467,-9498,-521,13360],"delta_lng":[0,-25765,-25158,8910,57527,20709,2814,17614]}},
    {"code":9960911,"id":"635233","name":"京丹後大宮","name_kana":"きょうたんごおおみや","lat":35.579324,"lng":135.093977,"prefecture":26,"lines":[99609,99654],"attr":"heat","postal_code":"629-2501","address":"京丹後市大宮町口大野","next":[9960910,9960909,9960908,9960912,1161517,9960914,9960916],"voronoi":{"lat":35.477167,"lng":134.988557,"delta_lat":[0,-11230,113372,41824,15079,-70245,-5271],"delta_lng":[0,16439,124941,21119,3681,-149917,-3065]}},
    {"code":1161507,"left":1161506,"right":9960905,"id":"bd0cde","name":"和知","name_kana":"わち","lat":35.261101,"lng":135.399015,"prefecture":26,"lines":[11615],"attr":"heat","postal_code":"629-1121","address":"船井郡京丹波町本庄","next":[1142203,1142202,1161508,1161506,1142201,1161505],"voronoi":{"lat":35.264319,"lng":135.467902,"delta_lat":[0,-44498,145696,568,-1558,-31407],"delta_lng":[0,-91864,53556,27869,6856,68709]}},
    {"code":1161506,"left":1162918,"right":1161411,"id":"820fbc","name":"下山(京都)","name_kana":"しもやま","lat":35.21226,"lng":135.422673,"prefecture":26,"lines":[11615],"attr":"heat","postal_code":"622-0201","address":"船井郡京丹波町下山","next":[1161508,1161415,1161507,1161509,1161505,1161502,1162923],"voronoi":{"lat":35.13369,"lng":135.300413,"delta_lat":[0,67843,18287,44498,-121472,-5932,-48200],"delta_lng":[0,49276,26348,91864,-44831,-6757,-87282]}},
    {"code":1162918,"left":1162915,"right":1162919,"id":"b7e5a5","name":"相野","name_kana":"あいの","lat":34.947482,"lng":135.155998,"prefecture":28,"lines":[11629],"attr":"heat","postal_code":"669-1345","address":"三田市下相野","next":[1163212,1163215,9963512,1162917,9963406,1162919],"voronoi":{"lat":34.927088,"lng":135.167762,"delta_lat":[0,-61517,26528,10063,58813,1778],"delta_lng":[0,-83732,-25228,69,15152,113011]}},
    {"code":1162915,"left":1162916,"right":9961511,"id":"2a618f","name":"三田(兵庫)","name_kana":"さんだ","lat":34.888787,"lng":135.22979,"prefecture":28,"lines":[11629,99633,99634],"attr":"heat","postal_code":"669-1528","address":"三田市駅前町１丁目","next":[9963309,9964002,9963404,1162916,1162913,9963308,1162914],"voronoi":{"lat":34.956788,"lng":135.305109,"delta_lat":[0,25059,-86459,-5155,-4717,-710,63675],"delta_lng":[0,-2707,-87341,625,5679,26938,53150]}},
    {"code":1162916,"left":9963405,"right":1162917,"id":"ac2f5e","name":"新三田","name_kana":"しんさんだ","lat":34.910183,"lng":135.20861,"prefecture":28,"lines":[11629],"attr":"heat","postal_code":"669-1313","address":"三田市福島字道野上","next":[1162922,9964002,9963404,1162915,9963405,1162917,9963406],"voronoi":{"lat":34.91562,"lng":135.196064,"delta_lat":[0,82389,5322,-21484,-86459,3218,14087],"delta_lng":[0,86654,20117,-434,-87341,-12679,-6268]}},
    {"code":9963405,"left":9963406,"id":"fce311","name":"南ウッディタウン","name_kana":"みなみうっでぃたうん","lat":34.901729,"lng":135.189612,"prefecture":28,"lines":[99634],"attr":"eco","postal_code":"669-1323","address":"三田市あかしあ台５-１０１-５","next":[9963209,9963406,9963404,1162916,9963507],"voronoi":{"lat":34.839971,"lng":135.127399,"delta_lat":[0,58634,14087,-67315,-29],"delta_lng":[0,74982,-6268,-91632,31]}},
    {"code":9963406,"id":"83d5a7","name":"ウッディタウン中央","name_kana":"うっでぃたうんちゅうおう","lat":34.909767,"lng":135.183707,"prefecture":28,"lines":[99634],"attr":"cool","postal_code":"669-1324","address":"三田市ゆりのき台１-１０２","next":[9963507,9963512,9963405,1162918,1162917,1162916],"voronoi":{"lat":34.91562,"lng":135.196064,"delta_lat":[0,11469,-61517,-6698,-13496,67315],"delta_lng":[0,-28303,-83732,4052,16400,91632]}},
    {"code":1162917,"id":"089c94","name":"広野(兵庫)","name_kana":"ひろの","lat":34.928424,"lng":135.191267,"prefecture":28,"lines":[11629],"attr":"heat","postal_code":"669-1331","address":"三田市広野","next":[1162922,1162918,1162919,9963406,1162916],"voronoi":{"lat":34.91562,"lng":135.196064,"delta_lat":[0,11469,35665,26261,8994],"delta_lng":[0,-28303,19272,35729,59956]}},
    {"code":9961511,"left":9961510,"right":9964002,"id":"d4e9a5","name":"笹部","name_kana":"ささべ","lat":34.893765,"lng":135.416269,"prefecture":28,"lines":[99615],"attr":"cool","postal_code":"666-0104","address":"川西市笹部字川原２７７-２","next":[9964002,9961510,9961509,9961508,9961512],"voronoi":{"lat":34.888615,"lng":135.425646,"delta_lat":[0,814,21398,7919,-29780],"delta_lng":[0,-10624,-4382,4356,12026]}},
    {"code":9961510,"id":"b83898","name":"山下(兵庫)","name_kana":"やました","lat":34.892926,"lng":135.412172,"prefecture":28,"lines":[99615,99640],"attr":"cool","postal_code":"666-0105","address":"川西市見野１-１９-１","next":[9961511,9961509,9964002],"voronoi":{"lat":34.889429,"lng":135.415023,"delta_lat":[0,-12154,33552],"delta_lng":[0,-28314,23932]}},
    {"code":9964002,"id":"3615ca","name":"日生中央","name_kana":"にっせいちゅうおう","lat":34.906447,"lng":135.393216,"prefecture":28,"lines":[99640],"attr":"heat","postal_code":"666-0261","address":"川辺郡猪名川町松尾台１-２-２","next":[9961514,1162916,9961511,9961507,1162923,9961506,9961513,1161415,1162915,9961509,1162922,3400216,1162913,9961510,9961512],"voronoi":{"lat":34.918746,"lng":135.414997,"delta_lat":[0,-7919,-33552,-3884,-4621,-2773,3967,86823,25059,21484,24002,24853,-33922,-79267,-15422],"delta_lng":[0,-4356,-23932,-3730,-7249,-5435,-14379,-50807,-2707,434,14429,17252,73561,7856,-108]}},
    {"code":1162919,"left":1163008,"right":1162923,"id":"dd9903","name":"藍本","name_kana":"あいもと","lat":34.977041,"lng":135.155533,"prefecture":28,"lines":[11629],"attr":"heat","postal_code":"669-1358","address":"三田市藍本","next":[1163215,1162922,1162917,1162918,1162920],"voronoi":{"lat":34.989015,"lng":135.222763,"delta_lat":[0,-26261,-1778,13525,20407],"delta_lng":[0,-35729,-113011,993,129268]}},
    {"code":1163008,"left":1162921,"right":1163009,"id":"912734","name":"市島","name_kana":"いちじま","lat":35.207868,"lng":135.130198,"prefecture":28,"lines":[11630],"attr":"eco","postal_code":"669-4324","address":"丹波市市島町市島","next":[1161509,1163009,1163007,1163002,1161512,1161511],"voronoi":{"lat":35.170402,"lng":135.256407,"delta_lat":[0,-25661,88522,-16421,-4141,-41797],"delta_lng":[0,-90702,-105807,158728,5226,32394]}},
    {"code":1162921,"left":1162920,"id":"cb850b","name":"古市(兵庫)","name_kana":"ふるいち","lat":35.021932,"lng":135.154808,"prefecture":28,"lines":[11629],"attr":"cool","postal_code":"669-2123","address":"篠山市古市","next":[1163003,1162922,1163002,1162920],"voronoi":{"lat":35.016256,"lng":135.082399,"delta_lat":[0,40466,-5955,-44193],"delta_lng":[0,44100,21881,34720]}},
    {"code":1162920,"id":"cd6e5e","name":"草野(兵庫)","name_kana":"くさの","lat":34.996887,"lng":135.1524,"prefecture":28,"lines":[11629],"attr":"cool","postal_code":"669-2113","address":"篠山市草野","next":[1163215,1163003,1163216,1162921,1162919,1162922,1163004],"voronoi":{"lat":35.009051,"lng":135.075337,"delta_lat":[0,-24752,-9799,20407,11666,9682,-1428],"delta_lng":[0,-829,507,129268,-21183,-100701,-2236]}},
    {"code":1163009,"id":"c6116d","name":"丹波竹田","name_kana":"たんばたけだ","lat":35.24373,"lng":135.133908,"prefecture":28,"lines":[11630],"attr":"eco","postal_code":"669-4302","address":"丹波市市島町中竹田","next":[1163007,1163008,1161513,1161512,1161514,1161516,9960802],"voronoi":{"lat":35.24458,"lng":135.04539,"delta_lat":[0,-3337,-7980,-16421,17354,43004,-26450],"delta_lng":[0,-1882,16390,158728,-14511,-53066,-90350]}},
    {"code":1162923,"left":1162922,"right":1163002,"id":"edaaaf","name":"篠山口","name_kana":"ささやまぐち","lat":35.056223,"lng":135.177452,"prefecture":28,"lines":[11629,11630],"attr":"cool","postal_code":"669-2212","address":"篠山市大沢","next":[1162922,9964002,1161506,1161509,1161415,1163002],"voronoi":{"lat":35.0508,"lng":135.14856,"delta_lat":[0,-23467,24853,36529,44976,566],"delta_lng":[0,168704,17252,-5485,-28618,-772]}},
    {"code":1162922,"id":"0a0acf","name":"南矢代","name_kana":"みなみやしろ","lat":35.037697,"lng":135.174875,"prefecture":28,"lines":[11629],"attr":"cool","postal_code":"669-2102","address":"篠山市南矢代","next":[1162916,1162917,1162919,1162923,1163002,9964002,1162921,1162920],"voronoi":{"lat":34.989015,"lng":135.222763,"delta_lat":[0,8994,5322,24002,23467,-33,-44193,-11666],"delta_lng":[0,59956,20117,14429,-168704,-180,34720,21183]}},
    {"code":1163002,"id":"afbf39","name":"丹波大山","name_kana":"たんばおおやま","lat":35.072369,"lng":135.168533,"prefecture":28,"lines":[11630],"attr":"cool","postal_code":"669-2221","address":"篠山市西古佐","next":[1163008,1161509,1163003,1162922,1163007,1162921,1162923],"voronoi":{"lat":35.0508,"lng":135.14856,"delta_lat":[0,-33,5955,69803,18217,25661,-36146],"delta_lng":[0,-180,-21881,14608,24597,90702,43235]}},
    {"code":1161411,"left":1161409,"right":1161414,"id":"9d464d","name":"並河","name_kana":"なみかわ","lat":35.032479,"lng":135.554959,"prefecture":26,"lines":[11614],"attr":"cool","postal_code":"621-0012","address":"亀岡市大井町かすみケ丘","next":[1161412,1161413,1161410,9961514],"voronoi":{"lat":35.00232,"lng":135.466562,"delta_lat":[0,8852,43543,-106359],"delta_lng":[0,14061,105283,-60208]}},
    {"code":1161409,"left":9961514,"right":1161408,"id":"e8c5d3","name":"馬堀","name_kana":"うまほり","lat":35.010664,"lng":135.602359,"prefecture":26,"lines":[11614],"attr":"cool","postal_code":"621-0823","address":"亀岡市篠町馬堀","next":[1161410,1160215,3400310,9960504,9962705,1160206],"voronoi":{"lat":34.927593,"lng":135.573361,"delta_lat":[0,3309,95363,-70319,-15325,-10688],"delta_lng":[0,-6466,29563,39643,-14627,-22651]}},
    {"code":9961514,"left":9961513,"right":1161410,"id":"bf39f9","name":"妙見口","name_kana":"みょうけんぐち","lat":34.911539,"lng":135.444597,"prefecture":27,"lines":[99615],"attr":"heat","postal_code":"563-0101","address":"豊能郡豊能町吉川１４６-１","next":[9964002,1161415,1161410,9962705,1161414,9961513,1161413,1161411,3400704],"voronoi":{"lat":34.945337,"lng":135.527997,"delta_lat":[0,3019,53964,2082,8482,5379,-79267,-62310,4048],"delta_lng":[0,-2299,-59136,-3753,-28354,-26377,7856,52606,13235]}},
    {"code":9961513,"left":9961512,"id":"cb5092","name":"ときわ台(大阪)","name_kana":"ときわだい","lat":34.906134,"lng":135.438195,"prefecture":27,"lines":[99615],"attr":"eco","postal_code":"563-0102","address":"豊能郡豊能町ときわ台１-９-４","next":[3400704,9964002,9961512,9961514],"voronoi":{"lat":34.938996,"lng":135.415933,"delta_lat":[0,-15422,-49731,2843],"delta_lng":[0,-108,45916,6798]}},
    {"code":9961512,"id":"016c64","name":"光風台(大阪)","name_kana":"こうふうだい","lat":34.899887,"lng":135.431429,"prefecture":27,"lines":[99615],"attr":"eco","postal_code":"563-0104","address":"豊能郡豊能町光風台３-５７-７","next":[9961508,9961513,3400704,9961511,9964002],"voronoi":{"lat":34.918746,"lng":135.414997,"delta_lat":[0,-29780,-17421,2298,49731],"delta_lng":[0,12026,30625,4094,-45916]}},
    {"code":1161410,"id":"1435fb","name":"亀岡","name_kana":"かめおか","lat":35.016738,"lng":135.582766,"prefecture":26,"lines":[11614],"attr":"cool","postal_code":"621-0804","address":"亀岡市追分町谷筋","next":[1161409,9960504,9961514,1161412,9962705,1161411],"voronoi":{"lat":34.948356,"lng":135.525698,"delta_lat":[0,-3019,-14435,95363,47593,-19143],"delta_lng":[0,2299,38898,29563,7140,-17692]}},
    {"code":1161408,"left":9960504,"right":9960503,"id":"0b62be","name":"保津峡","name_kana":"ほづきょう","lat":35.023083,"lng":135.64025,"prefecture":26,"lines":[11614],"attr":"cool","postal_code":"621-0005","address":"亀岡市保津町保津山３番地１４３４","next":[3400903,9960503,9960504,1161412,9960502],"voronoi":{"lat":35.090963,"lng":135.609566,"delta_lat":[0,-13388,-116220,11935,33078],"delta_lng":[0,-3715,34496,5662,6528]}},
    {"code":9960504,"id":"38358a","name":"トロッコ亀岡","name_kana":"とろっこかめおか","lat":35.01314,"lng":135.606751,"prefecture":26,"lines":[99605],"attr":"eco","postal_code":"621-0825","address":"亀岡市篠町山本地黒","next":[1161410,1161409,3400310,3400903,1161408,1161412],"voronoi":{"lat":34.961354,"lng":135.640347,"delta_lat":[0,-1527,-3881,70319,47593,3716],"delta_lng":[0,-240,-4006,-39643,7140,2253]}},
    {"code":9960503,"id":"b253a6","name":"トロッコ保津峡","name_kana":"とろっこほづきょう","lat":35.026148,"lng":135.646284,"prefecture":26,"lines":[99605],"attr":"eco","postal_code":"610-0000","address":"京都市西京区嵐山北松尾山","next":[9960708,1161412,1161503,1161408,9960709,9960502,1161407,9960501,1161413,9961304],"voronoi":{"lat":35.081389,"lng":135.676333,"delta_lat":[0,-27535,-47487,84595,28653,29497,13161,-52616,-2130,-22579],"delta_lng":[0,-5993,-17804,-42971,6564,11056,12530,35717,1304,355]}},
    {"code":1161414,"left":1161504,"right":1161413,"id":"e49239","name":"吉富(京都)","name_kana":"よしとみ","lat":35.092012,"lng":135.498585,"prefecture":26,"lines":[11614],"attr":"eco","postal_code":"629-0165","address":"南丹市八木町木原","next":[1161502,1161413,9961514,1161415],"voronoi":{"lat":35.120477,"lng":135.542837,"delta_lat":[0,-116075,8482,101007],"delta_lng":[0,-80029,-28354,67861]}},
    {"code":1161504,"left":1161502,"right":1161505,"id":"b127d1","name":"鍼灸大学前","name_kana":"しんきゅうだいがくまえ","lat":35.179141,"lng":135.489899,"prefecture":26,"lines":[11615],"attr":"heat","postal_code":"629-0301","address":"南丹市日吉町保野田小字岩ヶ下９番地の６","next":[1161502,1142208,1142207,1161503,1161505],"voronoi":{"lat":35.154754,"lng":135.454593,"delta_lat":[0,998,134177,6739,23440],"delta_lng":[0,23373,168453,-11530,-55170]}},
    {"code":1161502,"left":1161415,"id":"83c876","name":"船岡(京都)","name_kana":"ふなおか","lat":35.133463,"lng":135.491848,"prefecture":26,"lines":[11615],"attr":"heat","postal_code":"622-0031","address":"南丹市園部町船岡","next":[1161503,1161504,1161414,1161413,1161505,1161506,1161415],"voronoi":{"lat":35.136914,"lng":135.416313,"delta_lat":[0,5932,11907,998,-29768,-5506,-6586],"delta_lng":[0,6757,31522,23373,73720,-8848,-40522]}},
    {"code":1161415,"id":"c19ed5","name":"園部","name_kana":"そのべ","lat":35.102167,"lng":135.48347,"prefecture":26,"lines":[11614,11615],"attr":"eco","postal_code":"622-0041","address":"南丹市園部町小山東町溝辺","next":[1161506,9961514,9964002,1161414,1162923,1161502],"voronoi":{"lat":35.012885,"lng":135.434455,"delta_lat":[0,5379,33922,36529,48200,-23023],"delta_lng":[0,-26377,-73561,-5485,87282,86002]}},
    {"code":1161505,"id":"e22500","name":"胡麻","name_kana":"ごま","lat":35.195359,"lng":135.468467,"prefecture":26,"lines":[11615],"attr":"heat","postal_code":"629-0311","address":"南丹市日吉町胡麻","next":[1142205,1142207,1161506,1142203,1161502,1161507,1161504],"voronoi":{"lat":35.154754,"lng":135.454593,"delta_lat":[0,-11907,121472,68801,-659,-9658,-2695],"delta_lng":[0,-31522,44831,65126,6012,35530,5149]}},
    {"code":1161413,"left":1161412,"right":1161503,"id":"e95833","name":"八木","name_kana":"やぎ","lat":35.068995,"lng":135.531969,"prefecture":26,"lines":[11614],"attr":"eco","postal_code":"629-0141","address":"南丹市八木町八木字東久保","next":[1161502,1161503,1161414,9960503,1161411,1161412,9961514],"voronoi":{"lat":35.004403,"lng":135.462808,"delta_lat":[0,116075,5506,23129,-29497,-108443,-8852],"delta_lng":[0,80029,8848,75500,-11056,-135507,-14061]}},
    {"code":1161412,"id":"f52ca9","name":"千代川","name_kana":"ちよかわ","lat":35.048597,"lng":135.548293,"prefecture":26,"lines":[11614],"attr":"cool","postal_code":"621-0051","address":"亀岡市千代川町今津１","next":[9960503,1161410,1161411,9960504,1161413,1161408],"voronoi":{"lat":35.119616,"lng":135.61613,"delta_lat":[0,-108443,43543,19143,3716,13388],"delta_lng":[0,-135507,105283,17692,2253,3715]}},
    {"code":1161503,"id":"f74131","name":"日吉(京都)","name_kana":"ひよし","lat":35.162151,"lng":135.503432,"prefecture":26,"lines":[11615],"attr":"heat","postal_code":"629-0301","address":"南丹市日吉町保野田","next":[9960710,1161502,9960503,1161413,9960709,1142208,1161504],"voronoi":{"lat":35.155751,"lng":135.477966,"delta_lat":[0,-29768,23129,13161,82382,36228,9045],"delta_lng":[0,73720,75500,12530,17791,6619,-17707]}},
    {"code":9960905,"left":9960809,"right":1142201,"id":"48faef","name":"丹後由良","name_kana":"たんごゆら","lat":35.515736,"lng":135.279582,"prefecture":26,"lines":[99653,99654],"attr":"eco","postal_code":"626-0071","address":"宮津市由良","next":[9960906,9960904,9960812,9960903,1142202],"voronoi":{"lat":35.675798,"lng":135.395337,"delta_lat":[0,-181287,-5315,4819,281040],"delta_lng":[0,-119683,-40487,-336,177802]}},
    {"code":9960809,"left":9960808,"right":9960812,"id":"0a296b","name":"二俣","name_kana":"ふたまた","lat":35.413495,"lng":135.154524,"prefecture":26,"lines":[99608,99655],"attr":"heat","postal_code":"620-0324","address":"福知山市大江町二俣","next":[9965606,9960902,9965608,9960810,9965607,9960808],"voronoi":{"lat":35.408427,"lng":135.227638,"delta_lat":[0,32856,-20807,-6664,-6928,-11125],"delta_lng":[0,-163336,32832,15271,21000,97277]}},
    {"code":9960808,"left":9960807,"right":1161511,"id":"ab435d","name":"大江高校前","name_kana":"おおえこうこうまえ","lat":35.395675,"lng":135.152486,"prefecture":26,"lines":[99608,99655],"attr":"heat","postal_code":"620-0303","address":"福知山市大江町金屋","next":[9965608,1161512,9960807,1162205,9960902,9960809],"voronoi":{"lat":35.406884,"lng":135.133404,"delta_lat":[0,-13094,-33094,21859,2657,10547],"delta_lng":[0,14460,49155,36260,1260,-3858]}},
    {"code":9960807,"left":9965607,"right":9965608,"id":"67b9ef","name":"大江(京都)","name_kana":"おおえ","lat":35.388798,"lng":135.147856,"prefecture":26,"lines":[99608,99655],"attr":"eco","postal_code":"620-0301","address":"福知山市大江町河守","next":[1161513,9965607,9960808,9965608,1161512],"voronoi":{"lat":35.39379,"lng":135.147864,"delta_lat":[0,-9962,-34538,3693,7713],"delta_lng":[0,-1455,29686,10023,10901]}},
    {"code":9965607,"left":9960806,"id":"79ad65","name":"蓼原停留所","name_kana":"たではるていりゅうじょ","closed":true,"lat":35.383145,"lng":135.141279,"prefecture":26,"lines":[99656],"attr":"unknown","postal_code":"620-0311","address":"京都府福知山市大江町蓼原３７９−４","next":[9965608,9960807,1161513,9960809,9965606,9960806],"voronoi":{"lat":35.389543,"lng":135.124017,"delta_lat":[0,30933,-6664,-29984,-34538,-4837],"delta_lng":[0,-26884,15271,34005,29686,-10210]}},
    {"code":9960806,"id":"446943","name":"公庄(京都丹後鉄道)","name_kana":"ぐじょう","lat":35.371855,"lng":135.12912,"prefecture":26,"lines":[99608,99655],"attr":"eco","postal_code":"620-0312","address":"福知山市大江町公庄","next":[9965606,1161513,9965605,9965607,9965603],"voronoi":{"lat":35.344453,"lng":135.165885,"delta_lat":[0,45090,-38759,-11195,-4262],"delta_lng":[0,-41868,9814,10177,9211]}},
    {"code":9965608,"id":"408de5","name":"河守","name_kana":"こうもり","closed":true,"lat":35.389004,"lng":135.146445,"prefecture":26,"lines":[99656],"attr":"unknown","postal_code":"620-0301","address":"京都府福知山市大江町河守２９８−７","next":[9960808,9965607,9960809,9960807],"voronoi":{"lat":35.383828,"lng":135.14641,"delta_lat":[0,29984,-6928,-13094],"delta_lng":[0,-34005,21000,14460]}},
    {"code":1161511,"left":1161513,"right":1161512,"id":"59afe4","name":"綾部","name_kana":"あやべ","lat":35.302188,"lng":135.251896,"prefecture":26,"lines":[11615,11622],"attr":"cool","postal_code":"623-0052","address":"綾部市幸通東石ケ坪","next":[1161512,1162205,1161510,1163008,1161509],"voronoi":{"lat":35.170904,"lng":135.256246,"delta_lat":[0,41797,166272,-82969,-60384],"delta_lng":[0,-32394,10384,50772,-7601]}},
    {"code":1161513,"id":"c1a9b5","name":"石原(京都)","name_kana":"いさ","lat":35.300904,"lng":135.180241,"prefecture":26,"lines":[11615,11622],"attr":"heat","postal_code":"620-0804","address":"福知山市字石原","next":[9960807,9960806,9965603,1163009,9965607,1161512,1161514,9965602],"voronoi":{"lat":35.335327,"lng":135.153219,"delta_lat":[0,9126,4837,3693,-118786,43004,27208,22909],"delta_lng":[0,12666,10210,10023,17996,-53066,-2100,958]}},
    {"code":1161512,"id":"2e167f","name":"高津(京都)","name_kana":"たかつ","lat":35.304982,"lng":135.207158,"prefecture":26,"lines":[11615,11622],"attr":"heat","postal_code":"623-0045","address":"綾部市高津町","next":[1162205,9960808,1161511,1163009,1161513,1163008,9960807],"voronoi":{"lat":35.382554,"lng":135.23328,"delta_lat":[0,-3581,-166272,4141,17354,118786,7713],"delta_lng":[0,956,-10384,-5226,-14511,-17996,10901]}},
    {"code":9960812,"left":9960909,"right":9960814,"id":"001fc9","name":"喜多","name_kana":"きた","lat":35.509318,"lng":135.187498,"prefecture":26,"lines":[99608,99655],"attr":"heat","postal_code":"626-0035","address":"宮津市喜多","next":[9960906,9960903,9960910,9960909,9960811,9960905,9960813],"voronoi":{"lat":35.494014,"lng":135.23483,"delta_lat":[0,-4819,-18107,26928,13553,13357,-21163],"delta_lng":[0,336,-6375,-87722,7594,15150,63992]}},
    {"code":9960909,"left":9960811,"right":9960908,"id":"4e3958","name":"岩滝口","name_kana":"いわたきぐち","lat":35.55038,"lng":135.151297,"prefecture":26,"lines":[99609,99654],"attr":"eco","postal_code":"629-2251","address":"宮津市須津","next":[9960813,9960911,9960812,9960910,9960908],"voronoi":{"lat":35.621132,"lng":135.151056,"delta_lat":[0,-41824,-67739,13357,11060],"delta_lng":[0,-21119,18727,15150,7325]}},
    {"code":9960811,"left":9960810,"id":"0babaa","name":"辛皮","name_kana":"からかわ","lat":35.462612,"lng":135.173161,"prefecture":26,"lines":[99608,99655],"attr":"heat","postal_code":"626-0037","address":"宮津市小田","next":[9960910,9960812,9960902,9960903,9960810],"voronoi":{"lat":35.477041,"lng":135.104725,"delta_lat":[0,20975,-26928,-21362,-32118],"delta_lng":[0,36344,87722,2371,-4506]}},
    {"code":9960810,"id":"cdcdef","name":"大江山口内宮","name_kana":"おおえやまぐちないく","lat":35.432023,"lng":135.158251,"prefecture":26,"lines":[99608,99655],"attr":"heat","postal_code":"620-0323","address":"福知山市大江町内宮","next":[9965606,9960902,9960809,9960805,9960910,9960811],"voronoi":{"lat":35.477041,"lng":135.104725,"delta_lat":[0,-18989,-16557,-213,-32856,9182],"delta_lng":[0,-66614,25765,425,163336,-981]}},
    {"code":9960908,"id":"ced99f","name":"天橋立","name_kana":"あまのはしだて","lat":35.557729,"lng":135.182456,"prefecture":26,"lines":[99609,99654],"attr":"eco","postal_code":"626-0001","address":"宮津市文珠","next":[9960906,9960911,9960912,9960814,9960909,9960813],"voronoi":{"lat":35.561403,"lng":135.211692,"delta_lat":[0,291728,-216919,-15079,-85146,2947],"delta_lng":[0,77146,-134102,-3681,20083,10474]}},
    {"code":9960814,"left":9960813,"right":9960906,"id":"1d24a2","name":"宮津","name_kana":"みやづ","lat":35.53441,"lng":135.199875,"prefecture":26,"lines":[99608,99609,99653,99654,99655],"attr":"eco","postal_code":"626-0041","address":"宮津市鶴賀","next":[9960906,9960908,9960813],"voronoi":{"lat":35.538933,"lng":135.181612,"delta_lat":[0,22469,-53336],"delta_lng":[0,30080,14076]}},
    {"code":9960813,"id":"29387d","name":"宮村","name_kana":"みやむら","lat":35.523336,"lng":135.192134,"prefecture":26,"lines":[99608,99655],"attr":"eco","postal_code":"626-0033","address":"宮津市宮村","next":[9960909,9960814,9960812,9960906,9960908],"voronoi":{"lat":35.508067,"lng":135.225769,"delta_lat":[0,-4303,21163,11060,2947],"delta_lng":[0,2037,-63992,7325,10474]}},
    {"code":9960906,"id":"8b5e08","name":"栗田","name_kana":"くんだ","lat":35.543757,"lng":135.235291,"prefecture":26,"lines":[99653,99654],"attr":"eco","postal_code":"626-0074","address":"宮津市上司","next":[9960814,9960908,9960812,9942813,9960905,1142204,9960912,9960913,1142202,9960813],"voronoi":{"lat":35.494014,"lng":135.23483,"delta_lat":[0,281040,199772,97732,72710,-146558,-145580,-291728,-53336,-4303],"delta_lng":[0,177802,53689,18839,-36624,-86376,-73322,-77146,14076,2037]}},
    {"code":1142201,"left":1162207,"right":1142204,"id":"8e39bb","name":"東舞鶴","name_kana":"ひがしまいづる","lat":35.468601,"lng":135.394788,"prefecture":26,"lines":[11422,11622],"attr":"heat","postal_code":"625-0036","address":"舞鶴市浜","next":[1142202,1162208,9960904,1161508,1162207,1161507],"voronoi":{"lat":35.365517,"lng":135.429594,"delta_lat":[0,215,52379,75685,102645,-230356],"delta_lng":[0,-4567,-46881,-31593,38418,72492]}},
    {"code":1162207,"left":1162206,"right":1161509,"id":"482a5c","name":"真倉","name_kana":"まぐら","lat":35.407146,"lng":135.326126,"prefecture":26,"lines":[11622],"attr":"cool","postal_code":"624-0824","address":"舞鶴市字真倉","next":[1162208,9960902,1161508,1142201,1162206],"voronoi":{"lat":35.390754,"lng":135.269027,"delta_lat":[0,36222,-8865,-52379,-9437],"delta_lng":[0,39628,69491,46881,-22499]}},
    {"code":1162206,"left":1161510,"right":9960902,"id":"5343be","name":"梅迫","name_kana":"うめざこ","lat":35.348774,"lng":135.311059,"prefecture":26,"lines":[11622],"attr":"cool","postal_code":"623-0103","address":"綾部市梅迫町溝尻","next":[1161508,1162205,1161510,1162207,9960902],"voronoi":{"lat":35.385556,"lng":135.244439,"delta_lat":[0,-63170,6803,27106,34459],"delta_lng":[0,78429,49480,30179,-133501]}},
    {"code":1161510,"left":1162205,"id":"0dc983","name":"山家","name_kana":"やまが","lat":35.29379,"lng":135.318618,"prefecture":26,"lines":[11615],"attr":"cool","postal_code":"629-1271","address":"綾部市上原町戸尻","next":[1161509,1161511,1162205,1162206,1161508],"voronoi":{"lat":35.322386,"lng":135.322868,"delta_lat":[0,-26381,-60384,89125,4443],"delta_lng":[0,-37861,-7601,93100,1842]}},
    {"code":1162205,"id":"250825","name":"淵垣","name_kana":"ふちがき","lat":35.328302,"lng":135.29457,"prefecture":26,"lines":[11622],"attr":"heat","postal_code":"623-0115","address":"綾部市渕垣町","next":[1161512,9960902,9960808,1161511,1161510,1162206],"voronoi":{"lat":35.385556,"lng":135.244439,"delta_lat":[0,-344,-2657,-3581,-82969,26381],"delta_lng":[0,-9900,-1260,956,50772,37861]}},
    {"code":9960902,"id":"7343f2","name":"四所","name_kana":"ししょ","lat":35.446154,"lng":135.290471,"prefecture":26,"lines":[99653,99654],"attr":"eco","postal_code":"624-0951","address":"舞鶴市上福井","next":[9960903,1162207,9960810,9960809,1162205,9960808,9960811,1162206,1162208],"voronoi":{"lat":35.426976,"lng":135.308655,"delta_lat":[0,-36222,-5198,-344,10547,12668,9182,32118,15690],"delta_lng":[0,-39628,-24587,-9900,-3858,-3044,-981,4506,81684]}},
    {"code":1161509,"left":1161508,"right":1162208,"id":"d4f5d5","name":"立木","name_kana":"たちき","lat":35.274256,"lng":135.337318,"prefecture":26,"lines":[11615],"attr":"heat","postal_code":"629-1144","address":"船井郡京丹波町広野","next":[1163008,1161508,1161510,1161506,1163002,1162923,1161511],"voronoi":{"lat":35.170904,"lng":135.256246,"delta_lat":[0,-502,-36146,-566,67843,123212,-89125],"delta_lng":[0,161,43235,772,49276,20817,-93100]}},
    {"code":1161508,"id":"cac15e","name":"安栖里","name_kana":"あせり","lat":35.266155,"lng":135.385266,"prefecture":26,"lines":[11615],"attr":"heat","postal_code":"629-1141","address":"船井郡京丹波町安栖里","next":[1161506,1161509,1161507,1162207,1162206,1142201,1161510],"voronoi":{"lat":35.324746,"lng":135.370507,"delta_lat":[0,-123212,18287,145696,215,-9437,-27106],"delta_lng":[0,-20817,26348,53556,-4567,-22499,-30179]}},
    {"code":1162208,"id":"f9685e","name":"西舞鶴","name_kana":"にしまいづる","lat":35.441784,"lng":135.330545,"prefecture":26,"lines":[11622,99653,99654],"attr":"eco","postal_code":"624-0816","address":"舞鶴市字伊佐津","next":[1142201,1162207,9960903,9960904,9960902],"voronoi":{"lat":35.481064,"lng":135.324247,"delta_lat":[0,12731,-75685,8865,38441],"delta_lng":[0,22306,31593,-69491,4192]}},
    {"code":1142204,"left":1142202,"right":1142205,"id":"dbb206","name":"三松","name_kana":"みつまつ","lat":35.488767,"lng":135.520561,"prefecture":18,"lines":[11422],"attr":"cool","postal_code":"919-2382","address":"大飯郡高浜町東三松","next":[1142203,1142206,1142202,9960906,1142205,9942813],"voronoi":{"lat":36.072558,"lng":135.48516,"delta_lat":[0,-97732,-409030,-135355,256897,308733],"delta_lng":[0,-18839,15965,46831,22280,522]}},
    {"code":1142202,"left":1142203,"right":9960904,"id":"0108ae","name":"松尾寺","name_kana":"まつのおでら","lat":35.486018,"lng":135.450133,"prefecture":26,"lines":[11422],"attr":"heat","postal_code":"625-0011","address":"舞鶴市字吉坂","next":[1161507,1142201,1142204,9960904,1142203,9960906,9960905],"voronoi":{"lat":35.675798,"lng":135.395337,"delta_lat":[0,-79357,-230356,-1558,201270,409030,-199772],"delta_lng":[0,-10366,72492,6856,17968,-15965,-53689]}},
    {"code":1142203,"left":9960903,"id":"bffe37","name":"青郷","name_kana":"あおのごう","lat":35.481584,"lng":135.4998,"prefecture":18,"lines":[11422],"attr":"cool","postal_code":"919-2200","address":"大飯郡高浜町青郷","next":[1161507,1142204,1142205,1142202,1161505],"voronoi":{"lat":35.430441,"lng":135.529118,"delta_lat":[0,135355,-201270,-31407,-659],"delta_lng":[0,-46831,-17968,68709,6012]}},
    {"code":9960903,"id":"bc7b93","name":"東雲(京都)","name_kana":"しののめ","lat":35.475018,"lng":135.284927,"prefecture":26,"lines":[99653,99654],"attr":"eco","postal_code":"624-0965","address":"舞鶴市水間","next":[9960902,9960812,1162208,9960811,9960904,9960905],"voronoi":{"lat":35.489196,"lng":135.235166,"delta_lat":[0,-18107,-21362,15690,15648,13446],"delta_lng":[0,-6375,2371,81684,11400,-48593]}},
    {"code":9960904,"id":"c01203","name":"丹後神崎","name_kana":"たんごかんざき","lat":35.506463,"lng":135.293628,"prefecture":26,"lines":[99653,99654],"attr":"eco","postal_code":"624-0963","address":"舞鶴市油江","next":[1142201,9960905,1142202,1162208,9960903],"voronoi":{"lat":35.493796,"lng":135.346552,"delta_lat":[0,102645,79357,-181287,-13446],"delta_lng":[0,38418,10366,-119683,48593]}},
    {"code":1142205,"left":1142207,"right":1142206,"id":"34bb7b","name":"若狭高浜","name_kana":"わかさたかはま","lat":35.486423,"lng":135.547588,"prefecture":18,"lines":[11422],"attr":"cool","postal_code":"919-2225","address":"大飯郡高浜町宮崎","next":[1142206,1161505,1142207,1142203,1142204],"voronoi":{"lat":35.330109,"lng":135.57496,"delta_lat":[0,-7306,9658,97981,256897],"delta_lng":[0,-391,-35530,-9922,22280]}},
    {"code":1142207,"id":"e344ea","name":"若狭本郷","name_kana":"わかさほんごう","lat":35.482616,"lng":135.618834,"prefecture":18,"lines":[11422],"attr":"cool","postal_code":"919-2111","address":"大飯郡おおい町本郷","next":[1142206,1142208,1142205,1161505,1161504],"voronoi":{"lat":35.320107,"lng":135.579719,"delta_lat":[0,2695,7306,505860,-539301],"delta_lng":[0,-5149,391,82088,-22160]}},
    {"code":1142206,"id":"de533f","name":"若狭和田","name_kana":"わかさわだ","lat":35.488664,"lng":135.581564,"prefecture":18,"lines":[11422],"attr":"cool","postal_code":"919-2201","address":"大飯郡高浜町和田","next":[1142219,1142204,1142207,1142205,1142208,9942812,9942813],"voronoi":{"lat":35.910478,"lng":135.635906,"delta_lat":[0,-72659,-1851,-505860,357230,308733,-71853],"delta_lng":[0,21318,-175,-82088,-23563,522,70746]}}
  ]
}