{
  "name":"segment48",
  "root":9932209,
  "east":180.0,
  "west":139.916031,
  "south":36.075568,
  "north":36.642513,
  "station_size":154,
  "node_list":[
    {"code":9932209,"left":1133905,"right":9935308,"id":"edf7ef","name":"桃浦","name_kana":"ももうら","closed":true,"lat":36.143056,"lng":140.377583,"prefecture":8,"lines":[99322],"postal_code":"311-3507","address":"茨城県行方市羽生７９","open_date":"1926-08-15","closed_date":"2007-04-01","next":[9932211,9932208,1122909,9932214,1122908,9932215,9932210],"voronoi":{"lat":36.191819,"lng":140.418626,"delta_lat":[0,16734,-104191,-13855,-17283,31249,73582],"delta_lng":[0,-2635,-92172,-3484,3033,36383,58529]},"impl":false},
    {"code":1133905,"left":9930920,"right":9935116,"id":"fac0dc","name":"川島","name_kana":"かわしま","lat":36.295918,"lng":139.916382,"prefecture":8,"lines":[11339],"attr":"heat","postal_code":"308-0856","address":"筑西市伊佐山","next":[9931822,1131920,1133906,9933003,1133904,9933004,9931820,9931823,9931821],"voronoi":{"lat":36.238202,"lng":139.918134,"delta_lat":[0,30982,76234,492,12827,-592,-132482,5961,763],"delta_lng":[0,12623,-9082,-402,-14807,-952,-3384,10275,926]},"impl":true},
    {"code":9930920,"left":9935109,"right":9932207,"id":"8ee741","name":"つくば","name_kana":"つくば","lat":36.0825,"lng":140.110604,"prefecture":8,"lines":[99309],"attr":"cool","postal_code":"305-0031","address":"つくば市吾妻２-４-１","next":[9935103,9935104,9935106,9930919,9935107,9935105,1122905,9930918,1122906,9930917],"voronoi":{"lat":36.039843,"lng":140.099339,"delta_lat":[0,5074,72690,95,-12803,-5739,-23475,-8969,-32504,-4980],"delta_lng":[0,-2382,-1026,4374,28890,5324,11550,1763,-30525,-7763]},"impl":true},
    {"code":9935109,"left":9931815,"right":9935111,"id":"56e6aa","name":"筑波","name_kana":"つくば","closed":true,"lat":36.206809,"lng":140.080083,"prefecture":8,"lines":[99351],"postal_code":"300-4353","address":"茨城県つくば市沼田２８３","open_date":"1918-04-17","closed_date":"1987-04-01","next":[9935110,9935113,9935114,9935111,9935112,9931818,9935108,9931820],"voronoi":{"lat":36.179596,"lng":140.025981,"delta_lat":[0,49967,3566,638,-1191,-14018,-49810,10053],"delta_lng":[0,62820,6696,13473,8647,39781,-126505,-4886]},"impl":false},
    {"code":9931815,"left":9931819,"right":9935107,"id":"8d2a5a","name":"南石下","name_kana":"みなみいしげ","lat":36.102262,"lng":139.973938,"prefecture":8,"lines":[99318],"attr":"eco","postal_code":"300-2716","address":"常総市大房７４２-４","next":[9931816,9930918,2100414,2100413,9931814,9931817],"voronoi":{"lat":36.108172,"lng":140.030916,"delta_lat":[0,-4387,-44381,5632,39033,7278],"delta_lng":[0,-2251,-140025,-6114,-34297,60796]},"impl":true},
    {"code":9931819,"left":9931818,"right":9931820,"id":"ab6c23","name":"下妻","name_kana":"しもつま","lat":36.182325,"lng":139.964461,"prefecture":8,"lines":[99318],"attr":"eco","postal_code":"304-0067","address":"下妻市下妻乙３６３-２","next":[1133904,9931818,9931817,1131916,1131917,9931820,1133903,2100304],"voronoi":{"lat":36.150328,"lng":139.838021,"delta_lat":[0,7313,28270,19547,8908,-35626,-30894,-3897],"delta_lng":[0,1517,10504,24741,13945,129490,-145251,-33191]},"impl":true},
    {"code":9931818,"left":9931817,"id":"e69985","name":"宗道","name_kana":"そうどう","lat":36.153589,"lng":139.970573,"prefecture":8,"lines":[99318],"attr":"eco","postal_code":"304-0814","address":"下妻市宗道１６４","next":[9931819,9931820,9935108,9935109,9931817],"voronoi":{"lat":36.147846,"lng":139.872966,"delta_lat":[0,30894,60,-10053,-26414],"delta_lng":[0,145251,7790,4886,4505]},"impl":true},
    {"code":9931817,"id":"2e922a","name":"玉村","name_kana":"たまむら","lat":36.135499,"lng":139.969959,"prefecture":8,"lines":[99318],"attr":"eco","postal_code":"300-2703","address":"常総市小保川１６４-５","next":[9931819,2100304,9931818,2100413,9931816,9935108,9931815],"voronoi":{"lat":36.104069,"lng":139.848229,"delta_lat":[0,4696,35184,3897,-5513,-1030,-29956],"delta_lng":[0,-5394,-3059,33191,162432,326,-126700]},"impl":true},
    {"code":9931820,"id":"e7936d","name":"大宝","name_kana":"だいほう","lat":36.203159,"lng":139.970193,"prefecture":8,"lines":[99318],"attr":"heat","postal_code":"304-0022","address":"下妻市大宝２３３-９","next":[9931818,9931821,9935110,1133905,1133904,9935109,9931819],"voronoi":{"lat":36.1788,"lng":140.026008,"delta_lat":[0,795,19025,33003,-5961,-11296,-35626],"delta_lng":[0,-26,-4637,-108939,-10275,-13403,129490]},"impl":true},
    {"code":9935107,"left":9930919,"right":9935108,"id":"12640e","name":"常陸小田","name_kana":"ひたちおだ","closed":true,"lat":36.153317,"lng":140.109072,"prefecture":8,"lines":[99351],"postal_code":"300-4223","address":"茨城県つくば市小田２５０９","open_date":"1918-04-17","closed_date":"1987-04-01","next":[9935106,9935108,9930920,9935114,9930919],"voronoi":{"lat":36.117702,"lng":140.100305,"delta_lat":[0,99792,-403,-85543,-13941],"delta_lng":[0,80718,-10877,-111237,37022]},"impl":false},
    {"code":9930919,"left":9931816,"id":"b44f75","name":"研究学園","name_kana":"けんきゅうがくえん","lat":36.0821,"lng":140.082256,"prefecture":8,"lines":[99309],"attr":"cool","postal_code":"305-0822","address":"つくば市苅間１","next":[9930918,9935108,9930920,9931816,9935107],"voronoi":{"lat":36.131548,"lng":140.058909,"delta_lat":[0,2237,-25180,-63688,72690],"delta_lng":[0,-19544,-8151,65743,-1026]},"impl":true},
    {"code":9931816,"id":"6700f0","name":"石下","name_kana":"いしげ","lat":36.117041,"lng":139.974323,"prefecture":8,"lines":[99318],"attr":"eco","postal_code":"300-2706","address":"常総市新石下３７６-１","next":[9931815,9930918,9935108,9930919,9931817],"voronoi":{"lat":36.111348,"lng":139.909025,"delta_lat":[0,-3175,433,25180,7518],"delta_lng":[0,121891,299,8151,-3641]},"impl":true},
    {"code":9935108,"id":"c101a8","name":"常陸北条","name_kana":"ひたちほうじょう","closed":true,"lat":36.17444,"lng":140.092828,"prefecture":8,"lines":[99351],"postal_code":"300-4231","address":"茨城県つくば市北条４４１０−１","open_date":"1918-04-17","closed_date":"1987-04-01","next":[9935114,9930919,9935107,9931818,9931816,9935109,9931817],"voronoi":{"lat":36.142333,"lng":140.035398,"delta_lat":[0,26414,49810,-1466,-85543,2237,7518],"delta_lng":[0,-4505,126505,12748,-111237,-19544,-3641]},"impl":false},
    {"code":9935111,"left":9931822,"right":9935114,"id":"6c2760","name":"酒寄","name_kana":"さかより","closed":true,"lat":36.235028,"lng":140.065056,"prefecture":8,"lines":[99351],"postal_code":"300-4413","address":"茨城県桜川市真壁町酒寄","open_date":"1959-07-01","closed_date":"1987-04-01","next":[9931822,9935112,9935110,9931821,9935109],"voronoi":{"lat":36.229562,"lng":140.088802,"delta_lat":[0,2995,4815,35004,-39248],"delta_lng":[0,-68592,-640,4815,71113]},"impl":false},
    {"code":9931822,"left":9935110,"right":9931823,"id":"020784","name":"黒子","name_kana":"くろご","lat":36.247396,"lng":139.97514,"prefecture":8,"lines":[99318],"attr":"heat","postal_code":"308-0103","address":"筑西市辻１５２０-３","next":[9935111,1133905,9931821,9935112,9931823,1133907],"voronoi":{"lat":36.274887,"lng":139.991576,"delta_lat":[0,-36686,-5815,4986,35004,480],"delta_lng":[0,-73441,-4803,106238,4815,-49]},"impl":true},
    {"code":9935110,"left":9931821,"id":"26bc8a","name":"上大島","name_kana":"かみおおしま","closed":true,"lat":36.226187,"lng":140.06467,"prefecture":8,"lines":[99351],"postal_code":"300-4351","address":"城県つくば市上大島１１７０−４","open_date":"1918-06-07","closed_date":"1987-04-01","next":[9931821,9935109,9935111,9931820],"voronoi":{"lat":36.229562,"lng":140.088802,"delta_lat":[0,2995,-33937,-19025],"delta_lng":[0,-68592,1135,4637]},"impl":false},
    {"code":9931821,"id":"fb9f8c","name":"騰波ノ江","name_kana":"とばのえ","lat":36.223232,"lng":139.976274,"prefecture":8,"lines":[99318],"attr":"heat","postal_code":"304-0012","address":"下妻市若柳甲５３３-７","next":[9935110,9931820,9935111,9931822,1133905],"voronoi":{"lat":36.237372,"lng":140.01957,"delta_lat":[0,-4815,-33937,33003,763],"delta_lng":[0,640,1135,-108939,926]},"impl":true},
    {"code":9931823,"id":"e70c99","name":"大田郷","name_kana":"おおたごう","lat":36.278258,"lng":139.959724,"prefecture":8,"lines":[99318],"attr":"heat","postal_code":"308-0847","address":"筑西市玉戸１５２３-２","next":[1133907,1133905,9931822,1133906],"voronoi":{"lat":36.274887,"lng":139.991576,"delta_lat":[0,-36686,30982,29537],"delta_lng":[0,-73441,12623,28170]},"impl":true},
    {"code":9935114,"left":9935113,"right":9935115,"id":"d43684","name":"真壁","name_kana":"まかべ","closed":true,"lat":36.27618,"lng":140.104527,"prefecture":8,"lines":[99351],"postal_code":"300-4407","address":"茨城県桜川市真壁町古城５３−１","open_date":"1918-06-07","closed_date":"1987-04-01","next":[1122911,9935108,1122910,9935113,9935109,9935106,1133912,9935107,9935115,1122912],"voronoi":{"lat":36.261883,"lng":140.193203,"delta_lat":[0,7358,19129,-55795,-14018,-1466,403,713,13060,21505],"delta_lng":[0,-6701,-98901,30016,39781,12748,10877,3530,6309,3365]},"impl":false},
    {"code":9935113,"left":9935112,"id":"8369dc","name":"常陸桃山","name_kana":"ひたちももやま","closed":true,"lat":36.267529,"lng":140.088446,"prefecture":8,"lines":[99351],"postal_code":"300-4412","address":"茨城県桜川市真壁町羽鳥","open_date":"1957-12-14","closed_date":"1987-04-01","next":[9935116,9935109,9935114,9935112,1133908,9935115],"voronoi":{"lat":36.232575,"lng":140.117617,"delta_lat":[0,1191,58315,9954,-400,-13265],"delta_lng":[0,-8647,-52231,12210,987,17665]},"impl":false},
    {"code":9935112,"id":"371ce3","name":"紫尾","name_kana":"しいお","closed":true,"lat":36.257872,"lng":140.077664,"prefecture":8,"lines":[99351],"postal_code":"300-4414","address":"茨城県桜川市真壁町椎尾４５０","open_date":"1918-06-07","closed_date":"1987-04-01","next":[9935111,9935113,9935109,1133908,9931822,1133907],"voronoi":{"lat":36.272857,"lng":140.024336,"delta_lat":[0,-480,-39248,638,58315,-17320],"delta_lng":[0,49,71113,13473,-52231,-31513]},"impl":false},
    {"code":9935115,"id":"9e59c2","name":"樺穂","name_kana":"かばほ","closed":true,"lat":36.293371,"lng":140.107852,"prefecture":8,"lines":[99351],"postal_code":"300-4403","address":"茨城県桜川市真壁町長岡２１７−５","open_date":"1922-03-20","closed_date":"1987-04-01","next":[1133912,9935116,1133911,9935114,9935113],"voronoi":{"lat":36.301636,"lng":140.069937,"delta_lat":[0,3959,-1381,-34972,19129],"delta_lng":[0,88523,2436,25607,-98901]},"impl":false},
    {"code":9932207,"left":9935102,"right":9932203,"id":"bc933d","name":"常陸小川","name_kana":"ひたちおがわ","closed":true,"lat":36.166528,"lng":140.349694,"prefecture":8,"lines":[99322],"postal_code":"311-3435","address":"茨城県小美玉市田木谷","open_date":"1924-06-08","closed_date":"2007-04-01","next":[9932208,9932206,1122914,1122915,9932306,1122911,1122909],"voronoi":{"lat":36.250561,"lng":140.411533,"delta_lat":[0,16525,420,122,-3479,-123862,-17372],"delta_lng":[0,-5897,-1379,-7940,-4488,-68410,836]},"impl":false},
    {"code":9935102,"left":9935105,"right":9932208,"id":"61f1a1","name":"新土浦","name_kana":"しんつちうら","closed":true,"lat":36.090551,"lng":140.199996,"prefecture":8,"lines":[99351],"postal_code":"300-0051","address":"茨城県土浦市真鍋１丁目１１","open_date":"1959-07-01","closed_date":"1987-04-01","next":[9935103,9935104,1122907,1122908],"voronoi":{"lat":36.074794,"lng":140.184416,"delta_lat":[0,56845,11280,-44830],"delta_lng":[0,11685,5205,27545]},"impl":false},
    {"code":9935105,"left":9935103,"right":9935106,"id":"1d7e71","name":"常陸藤沢","name_kana":"ひたちふじさわ","closed":true,"lat":36.121755,"lng":140.15293,"prefecture":8,"lines":[99351],"postal_code":"300-4115","address":"茨城県土浦市藤沢","open_date":"1918-04-17","closed_date":"1987-04-01","next":[1122908,9930920,9935106,1122910,9935104],"voronoi":{"lat":36.183321,"lng":140.201638,"delta_lat":[0,21244,-99665,-5739,45212],"delta_lng":[0,-11696,-60747,5324,66577]},"impl":false},
    {"code":9935103,"left":9935104,"id":"2aae57","name":"虫掛","name_kana":"むしかけ","closed":true,"lat":36.095419,"lng":140.176315,"prefecture":8,"lines":[99351],"postal_code":"300-0066","address":"茨城県土浦市虫掛","open_date":"1918-04-17","closed_date":"1987-04-01","next":[9935102,9930920,9935104,1122906,1122907],"voronoi":{"lat":36.131639,"lng":140.196101,"delta_lat":[0,-55953,-8969,-4713,12790],"delta_lng":[0,-50032,1763,29413,7171]},"impl":false},
    {"code":9935104,"id":"e1d09d","name":"坂田(茨城)","original_name":"坂田","name_kana":"さかた","closed":true,"lat":36.107941,"lng":140.162311,"prefecture":8,"lines":[99351],"postal_code":"300-4114","address":"茨城県土浦市上坂田","open_date":"1955-10-01","closed_date":"1987-04-01","next":[9935103,9935102,9930920,1122908,9935105],"voronoi":{"lat":36.09916,"lng":140.134519,"delta_lat":[0,-23475,55953,11280,1454],"delta_lng":[0,11550,50032,5205,-210]},"impl":false},
    {"code":9935106,"id":"4401ca","name":"田土部","name_kana":"たどべ","closed":true,"lat":36.133719,"lng":140.133301,"prefecture":8,"lines":[99351],"postal_code":"300-4118","address":"茨城県土浦市田土部","open_date":"1918-02-17","closed_date":"1987-04-01","next":[9935107,9930920,9935114,9935105,1122910],"voronoi":{"lat":36.1049,"lng":140.129196,"delta_lat":[0,12803,99792,713,-13643],"delta_lng":[0,-28890,80718,3530,5389]},"impl":false},
    {"code":9932208,"left":1122908,"right":1122909,"id":"8cd24c","name":"小川高校下","name_kana":"おがわこうこうした","closed":true,"lat":36.162444,"lng":140.355667,"prefecture":8,"lines":[99322],"postal_code":"311-3423","address":"茨城県小美玉市小川８１１−１","open_date":"1988-04-01","closed_date":"2007-04-01","next":[9932207,9932306,9932215,9932209,1122909],"voronoi":{"lat":36.250561,"lng":140.411533,"delta_lat":[0,-13918,-28090,-104191,18553],"delta_lng":[0,5517,-1060,-92172,437]},"impl":false},
    {"code":1122908,"left":1122907,"id":"1ed370","name":"神立","name_kana":"かんだつ","lat":36.120424,"lng":140.248615,"prefecture":8,"lines":[11229],"attr":"eco","postal_code":"300-0011","address":"土浦市神立中央","next":[9935105,9932209,9935104,9932211,1122907,1132707,1122910,9935102,1122909],"voronoi":{"lat":36.073223,"lng":140.323368,"delta_lat":[0,-64947,-1221,91033,44830,1454,38948,-23231,-69583],"delta_lng":[0,-1772,-2993,-89751,-27545,-210,542,53144,65552]},"impl":true},
    {"code":1122907,"id":"ec441e","name":"土浦","name_kana":"つちうら","lat":36.078644,"lng":140.206238,"prefecture":8,"lines":[11229,99351],"attr":"eco","postal_code":"300-0035","address":"土浦市有明町","next":[1132707,1122905,9931903,9935102,1122908,1122906,9935103],"voronoi":{"lat":36.062003,"lng":140.177246,"delta_lat":[0,-79224,-2454,-679,27409,91033,-23295],"delta_lng":[0,94500,3625,4225,39007,-89751,-44435]},"impl":true},
    {"code":1122909,"id":"d2be36","name":"高浜(茨城)","original_name":"高浜","name_kana":"たかはま","lat":36.163882,"lng":140.294745,"prefecture":8,"lines":[11229],"attr":"eco","postal_code":"315-0044","address":"石岡市北根本","next":[9932204,9932208,9932202,9932209,1122910,9932203,9932207,9932206,1122908,9932205],"voronoi":{"lat":36.140287,"lng":140.323419,"delta_lat":[0,-17372,-18553,-13855,69583,11610,2565,-5525,-9522,-11639],"delta_lng":[0,836,-437,-3484,-65552,21369,20335,10746,7344,6349]},"impl":true},
    {"code":9932203,"left":1122911,"right":9932205,"id":"8228ac","name":"東田中","name_kana":"ひがしたなか","closed":true,"lat":36.181722,"lng":140.303917,"prefecture":8,"lines":[99322],"postal_code":"315-0033","address":"茨城県石岡市東光台３丁目７","open_date":"1964-11-18","closed_date":"2007-04-01","next":[1122911,9932204,9932202,1122909],"voronoi":{"lat":36.174264,"lng":140.296487,"delta_lat":[0,42780,3295,-51600],"delta_lng":[0,7927,12686,-9867]},"impl":false},
    {"code":1122911,"left":9932202,"right":1122912,"id":"d6069e","name":"羽鳥","name_kana":"はとり","lat":36.247661,"lng":140.28679,"prefecture":8,"lines":[11229],"attr":"eco","postal_code":"319-0123","address":"小美玉市羽鳥","next":[9935114,9932203,1122913,1122914,9932204,1122910,1122912,9932207,9932202,9932206,9932205],"voronoi":{"lat":36.224312,"lng":140.326651,"delta_lat":[0,-3973,-3295,-43,14266,21505,34958,-692,-19411,-3479,-35082],"delta_lng":[0,-9552,-12686,-512,-113039,3365,162440,3654,35996,-4488,-55664]},"impl":true},
    {"code":9932202,"left":1122910,"id":"f9ca33","name":"石岡南台","name_kana":"いしおかみなみだい","closed":true,"lat":36.183889,"lng":140.292222,"prefecture":8,"lines":[99322],"postal_code":"315-0037","address":"茨城県石岡市東石岡３丁目１","open_date":"1989-06-15","closed_date":"2007-04-01","next":[1122909,9932203,1122911,1122910],"voronoi":{"lat":36.1717,"lng":140.276151,"delta_lat":[0,2565,42780,-43],"delta_lng":[0,20335,7927,-512]},"impl":false},
    {"code":1122910,"id":"b64f4e","name":"石岡","name_kana":"いしおか","lat":36.191554,"lng":140.279709,"prefecture":8,"lines":[11229,99322],"attr":"eco","postal_code":"315-0014","address":"石岡市国府１","next":[9935114,1122911,1122909,1122908,9935106,9932202,9935105],"voronoi":{"lat":36.204564,"lng":140.189942,"delta_lat":[0,13643,13060,-14266,-45302,-11610,23231],"delta_lng":[0,-5389,6309,113039,-27750,-21369,-53144]},"impl":true},
    {"code":1122912,"id":"d2460d","name":"岩間","name_kana":"いわま","lat":36.295508,"lng":140.276493,"prefecture":8,"lines":[11229],"attr":"eco","postal_code":"319-0202","address":"笠間市下郷","next":[1133914,1133915,1122911,1133913,1122913,9935114,1133912],"voronoi":{"lat":36.324754,"lng":140.236856,"delta_lat":[0,3858,-14628,-26253,-34958,9111,55448],"delta_lng":[0,9981,61321,48510,-162440,-1024,34792]},"impl":true},
    {"code":9932205,"left":9932206,"right":9932204,"id":"93d35b","name":"新高浜","name_kana":"しんたかはま","closed":true,"lat":36.178417,"lng":140.321389,"prefecture":8,"lines":[99322],"postal_code":"311-3434","address":"茨城県小美玉市栗又四ケ２４００−１１","open_date":"1924-06-08","closed_date":"2007-04-01","next":[9932206,9932204,1122911,1122909],"voronoi":{"lat":36.229067,"lng":140.336166,"delta_lat":[0,-4754,-65095,-11639],"delta_lng":[0,-9514,-12075,6349]},"impl":false},
    {"code":9932206,"id":"e3d44c","name":"四箇村","name_kana":"しかむら","closed":true,"lat":36.1765,"lng":140.331639,"prefecture":8,"lines":[99322],"postal_code":"311-3434","address":"茨城県小美玉市栗又四ケ１５１７−１０","open_date":"1931-02-01","closed_date":"2007-04-01","next":[9932205,9932207,1122911,1122909],"voronoi":{"lat":36.147578,"lng":140.320926,"delta_lat":[0,81488,35082,-123862],"delta_lng":[0,15240,55664,-68410]},"impl":false},
    {"code":9932204,"id":"0e7e36","name":"玉里","name_kana":"たまり","closed":true,"lat":36.179583,"lng":140.315103,"prefecture":8,"lines":[99322],"postal_code":"311-3434","address":"茨城県小美玉市栗又四ケ","open_date":"1988-04-01","closed_date":"2007-04-01","next":[1122909,9932203,1122911,9932205],"voronoi":{"lat":36.22034,"lng":140.317099,"delta_lat":[0,-51600,-9522,65095],"delta_lng":[0,-9867,7344,12075]},"impl":false},
    {"code":9935116,"left":9933006,"right":9935313,"id":"f18f9b","name":"東飯田","name_kana":"ひがしいいだ","closed":true,"lat":36.313252,"lng":140.106963,"prefecture":8,"lines":[99351],"postal_code":"309-1233","address":"茨城県桜川市東飯田","open_date":"1955-12-23","closed_date":"1987-04-01","next":[9935117,1133911,1133908,9935113,9935115],"voronoi":{"lat":36.301636,"lng":140.069937,"delta_lat":[0,400,5026,19895,-21362],"delta_lng":[0,-987,1098,63454,24958]},"impl":false},
    {"code":9933006,"left":9933002,"right":9933009,"id":"c12616","name":"寺内","name_kana":"てらうち","lat":36.410876,"lng":139.980077,"prefecture":9,"lines":[99330,11344],"attr":"cool","postal_code":"321-4345","address":"真岡市寺内","open_date":"1912-04-01","next":[1131922,1133908,9933007,1131921,1133909,9933005],"voronoi":{"lat":36.406945,"lng":139.919525,"delta_lat":[0,47725,11611,-76114,-5107,-3642],"delta_lng":[0,10775,9328,95394,-3581,-5110]},"impl":true},
    {"code":9933002,"left":9933004,"right":1133908,"id":"d754e5","name":"下館二高前","name_kana":"しもだてにこうまえ","lat":36.319137,"lng":139.972193,"prefecture":8,"lines":[99330],"attr":"cool","postal_code":"308-0051","address":"筑西市岡芹","open_date":"1988-04-11","next":[9933003,1133906,1133908,1133907],"voronoi":{"lat":36.304192,"lng":139.958159,"delta_lat":[0,24448,2737,-6697],"delta_lng":[0,-14918,61355,896]},"impl":true},
    {"code":9933004,"left":9933003,"right":9933005,"id":"6cbec6","name":"ひぐち","name_kana":"ひぐち","lat":36.357882,"lng":139.970057,"prefecture":8,"lines":[99330],"attr":"cool","postal_code":"308-0007","address":"筑西市折本","open_date":"1994-03-14","next":[9933005,1133908,1131920,1133905,9933003],"voronoi":{"lat":36.34591,"lng":139.921274,"delta_lat":[0,12827,13837,-9557,-11154],"delta_lng":[0,-14807,4497,102253,-4816]},"impl":true},
    {"code":9933003,"left":1133906,"id":"665a65","name":"折本","name_kana":"おりもと","lat":36.340684,"lng":139.971232,"prefecture":8,"lines":[99330,11344],"attr":"cool","postal_code":"308-0007","address":"筑西市折本","open_date":"1912-04-01","next":[9933002,1133908,1133905,1133906,9933004],"voronoi":{"lat":36.34591,"lng":139.921274,"delta_lat":[0,-492,-16777,2737,20485],"delta_lng":[0,402,21565,61355,3805]},"impl":true},
    {"code":1133906,"id":"d1d53e","name":"玉戸","name_kana":"たまど","lat":36.298547,"lng":139.93845,"prefecture":8,"lines":[11339],"attr":"heat","postal_code":"308-0847","address":"筑西市玉戸","next":[1133907,9933002,1133905,9933003,9931823],"voronoi":{"lat":36.269183,"lng":139.930758,"delta_lat":[0,76234,-16777,-24448,-5472],"delta_lng":[0,-9082,21565,14918,769]},"impl":true},
    {"code":9933005,"id":"94a0c9","name":"久下田","name_kana":"くげた","lat":36.37606,"lng":139.971756,"prefecture":9,"lines":[99330,11344],"attr":"cool","postal_code":"321-4521","address":"栃木県真岡市久下田","open_date":"1912-04-01","next":[9933004,1131921,1131920,9933006,1133908],"voronoi":{"lat":36.406945,"lng":139.919525,"delta_lat":[0,-7043,-27329,-9557,18402],"delta_lng":[0,-4046,-4516,102253,13115]},"impl":true},
    {"code":1133908,"left":9935117,"right":1133909,"id":"d12374","name":"新治","name_kana":"にいはり","lat":36.328082,"lng":140.039076,"prefecture":8,"lines":[11339],"attr":"heat","postal_code":"309-1106","address":"筑西市新治","next":[1133909,9933003,9935116,9933004,9933006,9935117,9935112,1133907,9933002,9935113,9933005],"voronoi":{"lat":36.38506,"lng":140.031442,"delta_lat":[0,-75723,-2276,-5026,-9954,-17320,49919,6697,20485,11154,18402],"delta_lng":[0,38782,-176,-1098,-12210,-31513,-19735,-896,3805,4816,13115]},"impl":true},
    {"code":9935117,"left":1133907,"id":"295fe3","name":"雨引","name_kana":"あまびき","closed":true,"lat":36.323056,"lng":140.103889,"prefecture":8,"lines":[99351],"postal_code":"309-1231","address":"茨城県桜川市本木１６１４","open_date":"1918-09-07","closed_date":"1987-04-01","next":[1133909,9935116,1133910,1133908,1133911],"voronoi":{"lat":36.307061,"lng":140.070047,"delta_lat":[0,2276,33423,-3858,-11946],"delta_lng":[0,176,24530,28888,9860]},"impl":false},
    {"code":1133907,"id":"bc7bc4","name":"下館","name_kana":"しもだて","lat":36.304197,"lng":139.97866,"prefecture":8,"lines":[11339,99318,99330,11344],"attr":"heat","postal_code":"308-0041","address":"茨城県筑西市乙86","next":[1133906,1133908,9931823,9935112,9931822,9933002],"voronoi":{"lat":36.304192,"lng":139.958159,"delta_lat":[0,-5472,-23833,-2031,1905,49919],"delta_lng":[0,769,32648,32760,891,-19735]},"impl":true},
    {"code":1133909,"id":"253c1c","name":"大和(茨城)","original_name":"大和","name_kana":"やまと","lat":36.345567,"lng":140.073216,"prefecture":8,"lines":[11339],"attr":"heat","postal_code":"309-1246","address":"桜川市高森","next":[1133908,9935117,9933007,9933010,9933009,1133910,9933006],"voronoi":{"lat":36.38506,"lng":140.031442,"delta_lat":[0,-75723,33423,57944,-377,-5254,-4906],"delta_lng":[0,38782,24530,-22527,-7533,-23166,-6505]},"impl":true},
    {"code":9933009,"left":1131924,"right":9933012,"id":"5e5c40","name":"西田井","name_kana":"にしだい","lat":36.453407,"lng":140.04876,"prefecture":9,"lines":[99330,11344],"attr":"cool","postal_code":"321-4301","address":"真岡市西田井","open_date":"1913-07-11","next":[9933008,9933012,1133909,9933010,9933013,9933007],"voronoi":{"lat":36.400327,"lng":140.064694,"delta_lat":[0,93728,2121,18526,-102699,-16930],"delta_lng":[0,-11169,-1785,-28223,12777,5234]},"impl":true},
    {"code":1131924,"left":9933008,"right":1131925,"id":"1f0f7d","name":"岡本(栃木)","original_name":"岡本","name_kana":"おかもと","lat":36.598182,"lng":139.944363,"prefecture":9,"lines":[11319],"attr":"heat","postal_code":"329-1104","address":"宇都宮市下岡本町","next":[1131925,2100812,9933013,9933008,100405,1131926],"voronoi":{"lat":36.557114,"lng":140.017114,"delta_lat":[0,-21425,-15801,96099,42960,-14970],"delta_lng":[0,-12119,-33800,-81387,-26076,70482]},"impl":true},
    {"code":9933008,"left":9933007,"id":"be9771","name":"北真岡","name_kana":"きたもおか","lat":36.44909,"lng":140.014061,"prefecture":9,"lines":[99330,11344],"attr":"cool","postal_code":"321-4362","address":"真岡市熊倉町","open_date":"1955-04-01","next":[9933009,9933013,100405,1131924,9933007],"voronoi":{"lat":36.504093,"lng":139.956153,"delta_lat":[0,15796,15801,-20987,-102699],"delta_lng":[0,15042,33800,18521,12777]},"impl":true},
    {"code":9933007,"id":"5a124f","name":"真岡","name_kana":"もおか","lat":36.439144,"lng":140.002632,"prefecture":9,"lines":[99330,11344],"attr":"cool","postal_code":"321-4306","address":"真岡市台町","open_date":"1912-04-01","next":[1133909,1131922,9933006,9933008,100405,9933009],"voronoi":{"lat":36.412003,"lng":140.036293,"delta_lat":[0,92089,-120,-37691,-76114,4906],"delta_lng":[0,-80140,-138,-16387,95394,6505]},"impl":true},
    {"code":1131925,"id":"073c24","name":"宝積寺","name_kana":"ほうしゃくじ","lat":36.631703,"lng":139.979487,"prefecture":9,"lines":[11319,11334],"attr":"cool","postal_code":"329-1233","address":"塩谷郡高根沢町宝積寺","next":[1131924,1131926,1133402,9933013],"voronoi":{"lat":36.660498,"lng":139.981714,"delta_lat":[0,-16520,-86863,17556],"delta_lng":[0,-47500,82900,18427]},"impl":true},
    {"code":9933012,"left":9933011,"right":9933013,"id":"bf2d44","name":"七井","name_kana":"なない","lat":36.491814,"lng":140.09439,"prefecture":9,"lines":[99330,11344],"attr":"eco","postal_code":"321-4104","address":"芳賀郡益子町大沢","open_date":"1913-07-11","next":[9933014,9933009,9933011,9933013,9933010,9933015,9933016],"voronoi":{"lat":36.481697,"lng":140.070269,"delta_lat":[0,12359,2121,12894,-1626,-13212,-29349],"delta_lng":[0,-16744,-1785,67648,4747,11025,17822]},"impl":true},
    {"code":9933011,"left":9933010,"id":"f409c1","name":"益子","name_kana":"ましこ","lat":36.462965,"lng":140.088526,"prefecture":9,"lines":[99330,11344],"attr":"cool","postal_code":"321-4217","address":"芳賀郡益子町益子","open_date":"1913-07-11","next":[1133910,9933016,9933012,9933010,1133913,1133911],"voronoi":{"lat":36.444485,"lng":140.173001,"delta_lat":[0,20398,16813,-71189,7384,16317],"delta_lng":[0,-20019,-82713,24963,37843,32284]},"impl":true},
    {"code":9933010,"id":"ba6cb0","name":"北山(栃木)","original_name":"北山","name_kana":"きたやま","lat":36.455665,"lng":140.067708,"prefecture":9,"lines":[99330],"attr":"cool","postal_code":"321-4301","address":"真岡市西田井","open_date":"1989-03-11","next":[1133909,9933009,1133910,9933011,9933012],"voronoi":{"lat":36.494056,"lng":140.053525,"delta_lat":[0,-93728,377,9803,71189],"delta_lng":[0,11169,7533,23005,-24963]},"impl":true},
    {"code":9933013,"id":"541f2a","name":"多田羅","name_kana":"たたら","lat":36.515922,"lng":140.089795,"prefecture":9,"lines":[99330,11344],"attr":"eco","postal_code":"321-3425","address":"芳賀郡市貝町多田羅","open_date":"1955-04-01","next":[9933014,1131924,1133402,9933008,9933012,9933009,1131925],"voronoi":{"lat":36.579367,"lng":140.043295,"delta_lat":[0,-70296,-12894,18526,20987,21425,17556],"delta_lng":[0,76092,-67648,-28223,-18521,12119,18427]},"impl":true},
    {"code":9935313,"left":1133914,"right":9935316,"id":"3c7eec","name":"常陸岩船","closed":true,"lat":36.497249,"lng":140.366538,"prefecture":8,"lines":[99353],"postal_code":"311-4324","address":"茨城県東茨城郡城里町大字高久５","closed_date":"1966-06-01","next":[9935312,9935314,9935315,1133815,1133914,9935311,9935316],"voronoi":{"lat":36.468654,"lng":140.271861,"delta_lat":[0,-5185,33810,4782,832,6053,-16225],"delta_lng":[0,5365,119390,5652,-102,-55291,-37442]},"impl":false},
    {"code":1133914,"left":1133910,"right":1122914,"id":"5da04d","name":"笠間","name_kana":"かさま","lat":36.373056,"lng":140.246515,"prefecture":8,"lines":[11339],"attr":"cool","postal_code":"309-1626","address":"笠間市下市毛","next":[9933017,9935312,1122912,1122914,1133913,9935313,9935316,1122913,1133915],"voronoi":{"lat":36.328612,"lng":140.246836,"delta_lat":[0,-3858,129604,18366,-4069,-5185,-27788,-7786,-42744],"delta_lng":[0,-9981,-17084,44496,7593,5365,24218,-216,-16056]},"impl":true},
    {"code":1133910,"left":1133912,"right":1133913,"id":"01d7f7","name":"岩瀬","name_kana":"いわせ","lat":36.359377,"lng":140.108739,"prefecture":8,"lines":[11339,99351],"attr":"eco","postal_code":"309-1217","address":"桜川市犬田","next":[9935117,9933011,9933010,1133911,1133909],"voronoi":{"lat":36.338903,"lng":140.123642,"delta_lat":[0,78989,-7384,-9803,-57944],"delta_lng":[0,9433,-37843,-23005,22527]},"impl":true},
    {"code":1133912,"left":1133911,"id":"5113ef","name":"福原","name_kana":"ふくはら","lat":36.351507,"lng":140.187249,"prefecture":8,"lines":[11339],"attr":"eco","postal_code":"309-1634","address":"笠間市福原","next":[9935115,1133913,1133911,9935114,1122912],"voronoi":{"lat":36.409989,"lng":140.169933,"delta_lat":[0,-105776,-34972,-7358,55448],"delta_lng":[0,-9037,25607,6701,34792]},"impl":true},
    {"code":1133911,"id":"acb510","name":"羽黒(茨城)","original_name":"羽黒","name_kana":"はぐろ","lat":36.355292,"lng":140.142947,"prefecture":8,"lines":[11339],"attr":"eco","postal_code":"309-1453","address":"桜川市友部","next":[9935116,1133910,1133912,9935115,1133913,9935117,9933011],"voronoi":{"lat":36.417892,"lng":140.133075,"delta_lat":[0,-78989,-11946,-21362,-1381,105776,24219],"delta_lng":[0,-9433,9860,24958,2436,9037,-4574]},"impl":true},
    {"code":1133913,"id":"c66624","name":"稲田","name_kana":"いなだ","lat":36.368903,"lng":140.21501,"prefecture":8,"lines":[11339],"attr":"eco","postal_code":"309-1635","address":"笠間市稲田","next":[1133912,9933016,1133914,1122912,1133911,9933017,9933011],"voronoi":{"lat":36.434209,"lng":140.165358,"delta_lat":[0,-24219,-92658,7422,129604,-9504,-368],"delta_lng":[0,4574,58063,8860,-17084,-45769,-1002]},"impl":true},
    {"code":1122914,"left":1122913,"right":9935312,"id":"18378d","name":"内原","name_kana":"うちはら","lat":36.370111,"lng":140.35282,"prefecture":8,"lines":[11229],"attr":"eco","postal_code":"319-0315","address":"水戸市内原町","next":[1122911,1122913,9935308,9932207,1133914,1122915,9935309,9935311,9935312],"voronoi":{"lat":36.435681,"lng":140.301443,"delta_lat":[0,-7786,-140857,-19411,-122,131548,11326,14085,3344],"delta_lng":[0,-216,59094,35996,7940,-24536,-8062,-13525,-8406]},"impl":true},
    {"code":1122913,"left":1133915,"id":"11cbb8","name":"友部","name_kana":"ともべ","lat":36.350597,"lng":140.306306,"prefecture":8,"lines":[11229,11339],"attr":"eco","postal_code":"309-1735","address":"笠間市友部駅前１番","next":[1122911,1122914,1133914,1122912,1133915],"voronoi":{"lat":36.287731,"lng":140.356668,"delta_lat":[0,-692,140857,-42744,-71168],"delta_lng":[0,3654,-59094,-16056,22986]},"impl":true},
    {"code":1133915,"id":"29ecd6","name":"宍戸","name_kana":"ししど","lat":36.344763,"lng":140.288243,"prefecture":8,"lines":[11339],"attr":"cool","postal_code":"309-1738","address":"笠間市大田町","next":[1122912,1133914,1122913],"voronoi":{"lat":36.385151,"lng":140.285172,"delta_lat":[0,-56540,-14628],"delta_lng":[0,-38335,61321]},"impl":true},
    {"code":9935312,"id":"810e2e","name":"石塚","name_kana":"いしつか","closed":true,"lat":36.481535,"lng":140.370988,"prefecture":8,"lines":[99353],"postal_code":"311-4303","address":"茨城県東茨城郡城里町大字石塚１１８０−１","open_date":"1926-10-24","closed_date":"1968-06-16","next":[9935313,1133914,9935311,1122914],"voronoi":{"lat":36.435681,"lng":140.301443,"delta_lat":[0,27788,33810,-69471],"delta_lng":[0,-24218,119390,-46887]},"impl":false},
    {"code":9935316,"left":9933015,"right":9935315,"id":"3304e2","name":"御前山","name_kana":"ごぜんやま","closed":true,"lat":36.542701,"lng":140.337424,"prefecture":8,"lines":[99353],"postal_code":"311-4341","address":"茨城県東茨城郡城里町大字御前山１２２−２","open_date":"1927-03-26","closed_date":"1966-06-01","next":[1133408,1133817,1133821,9935315,1133914,9933017,9935313],"voronoi":{"lat":36.468654,"lng":140.271861,"delta_lat":[0,4069,136773,31568,-2762,-81738,-63843],"delta_lng":[0,-7593,-10387,18654,7033,80581,-50716]},"impl":false},
    {"code":9933015,"left":9933017,"right":9933014,"id":"1dda0c","name":"笹原田","name_kana":"ささはらだ","lat":36.533911,"lng":140.144837,"prefecture":9,"lines":[99330],"attr":"heat","postal_code":"321-3421","address":"芳賀郡市貝町笹原田","open_date":"1994-03-14","next":[1133408,1133406,9933017,1133407,9933012,9933016,9933014],"voronoi":{"lat":36.591216,"lng":140.141173,"delta_lat":[0,694,-1310,-20441,-75926,13212,81881],"delta_lng":[0,11896,14915,-1712,-31113,-11025,9740]},"impl":true},
    {"code":9933017,"left":9933016,"id":"0597a3","name":"茂木","name_kana":"もてぎ","lat":36.530851,"lng":140.181382,"prefecture":9,"lines":[99330,11344],"attr":"heat","postal_code":"321-3531","address":"芳賀郡茂木町茂木","open_date":"1920-12-15","next":[1133914,9933015,9933016,1133408,9935316,1133913],"voronoi":{"lat":36.472724,"lng":140.264267,"delta_lat":[0,136773,-18897,-20441,-125305,9504],"delta_lng":[0,-10387,-85896,-1712,7730,45769]},"impl":true},
    {"code":9933016,"id":"69540e","name":"天矢場","name_kana":"てんやば","lat":36.529292,"lng":140.156109,"prefecture":9,"lines":[99330],"attr":"heat","postal_code":"321-3622","address":"芳賀郡茂木町北高岡","open_date":"1994-03-14","next":[9933011,1133913,9933017,9933015,9933012],"voronoi":{"lat":36.444485,"lng":140.173001,"delta_lat":[0,368,125305,-75926,-29349],"delta_lng":[0,1002,-7730,-31113,17822]},"impl":true},
    {"code":9933014,"id":"dca826","name":"市塙","name_kana":"いちはな","lat":36.538029,"lng":140.110218,"prefecture":9,"lines":[99330,11344],"attr":"heat","postal_code":"321-3423","address":"芳賀郡市貝町市塙","open_date":"1920-12-15","next":[9933012,9933013,1133403,1133406,1133405,1133402,9933015],"voronoi":{"lat":36.593153,"lng":140.070465,"delta_lat":[0,-1087,-11550,-1150,-70296,-1626,81881],"delta_lng":[0,-8825,-17078,-1266,76092,4747,9740]},"impl":true},
    {"code":9935315,"left":9935314,"right":1133817,"id":"26abbd","name":"阿野沢","closed":true,"lat":36.531293,"lng":140.351785,"prefecture":8,"lines":[99353],"postal_code":"311-4342","address":"茨城県東茨城郡城里町大字上阿野沢７７２","closed_date":"1966-06-01","next":[1133816,9935313,9935316,9935314,1133817],"voronoi":{"lat":36.546022,"lng":140.380339,"delta_lat":[0,-37075,-16225,63843,-9379],"delta_lng":[0,-33464,-37442,50716,19878]},"impl":false},
    {"code":9935314,"id":"5ad41f","name":"阿波山","name_kana":"あはやま","closed":true,"lat":36.516113,"lng":140.368603,"prefecture":8,"lines":[99353],"postal_code":"311-4344","address":"茨城県東茨城郡城里町大字阿波山１８９−２","open_date":"1927-02-23","closed_date":"1966-06-01","next":[1133815,9935313,9935315,1133816],"voronoi":{"lat":36.546022,"lng":140.380339,"delta_lat":[0,-37075,-6053,10562],"delta_lng":[0,-33464,55291,1535]},"impl":false},
    {"code":1133817,"id":"ceae4b","name":"玉川村","name_kana":"たまがわむら","lat":36.579088,"lng":140.374334,"prefecture":8,"lines":[11338],"attr":"heat","postal_code":"319-2224","address":"常陸大宮市東野","next":[1133820,1133821,9935316,1133818,1133816,9935315],"voronoi":{"lat":36.556564,"lng":140.360148,"delta_lat":[0,81738,-2181,-6519,-51100,-31317],"delta_lng":[0,-80581,15453,24242,86686,-25922]},"impl":true},
    {"code":9935308,"left":9932306,"right":9935214,"id":"48b27b","name":"田野(茨城)","original_name":"田野","closed":true,"lat":36.414997,"lng":140.415876,"prefecture":8,"lines":[99353],"postal_code":"310-0901","address":"茨城県水戸市田野町３４３","closed_date":"1968-06-16","next":[1122914,9935307,1122915,9935309],"voronoi":{"lat":36.410379,"lng":140.371659,"delta_lat":[0,-11326,-526,28814],"delta_lng":[0,8062,27810,30421]},"impl":false},
    {"code":9932306,"left":1122916,"right":9931510,"id":"6b8137","name":"鹿島旭","name_kana":"かしまあさひ","lat":36.224658,"lng":140.512601,"prefecture":8,"lines":[99323],"attr":"heat","postal_code":"311-1415","address":"鉾田市造谷","next":[9932307,1122915,9932208,9932215,9932207,9932305,1122916],"voronoi":{"lat":36.271876,"lng":140.413367,"delta_lat":[0,-4790,-16525,-13918,-31492,7609,65036],"delta_lng":[0,-7730,5897,5517,52545,141836,-182465]},"impl":true},
    {"code":1122916,"left":9932214,"right":9935306,"id":"f2cb3d","name":"偕楽園","name_kana":"かいらくえん","lat":36.373041,"lng":140.456292,"prefecture":8,"lines":[11229],"attr":"eco","postal_code":"310-0033","address":"水戸市常磐町字神崎","next":[1122917,9932305,9935304,9935303,1122915,1133802,9935302,9932306],"voronoi":{"lat":36.297603,"lng":140.458786,"delta_lat":[0,87423,2888,-7921,-11117,-14573,-82427,5920],"delta_lng":[0,9098,-1080,-19625,-9127,-7186,-17500,15600]},"impl":true},
    {"code":9932214,"left":9932213,"right":9932215,"id":"6baff7","name":"借宿前","name_kana":"かりやどまえ","closed":true,"lat":36.141056,"lng":140.457167,"prefecture":8,"lines":[99322],"postal_code":"311-1526","address":"茨城県鉾田市半原２１４−２６","open_date":"1951-10-01","closed_date":"2007-04-01","next":[9932216,9932213,9932215,9932210,9932209,9932309],"voronoi":{"lat":36.09726,"lng":140.488343,"delta_lat":[0,66590,14205,13764,-51932,-31678],"delta_lng":[0,-67720,-2343,346,56864,15684]},"impl":false},
    {"code":9932213,"left":9932212,"right":9932210,"id":"950a72","name":"榎本","name_kana":"えのきもと","closed":true,"lat":36.127694,"lng":140.444028,"prefecture":8,"lines":[99322],"postal_code":"311-3501","address":"茨城県行方市芹沢１７６４","open_date":"1929-05-16","closed_date":"2007-04-01","next":[1132904,9932214,9932210,9932309,9932212],"voronoi":{"lat":36.024516,"lng":140.482667,"delta_lat":[0,72744,66590,-25792,-115957],"delta_lng":[0,5675,-67720,-1442,59117]},"impl":false},
    {"code":9932212,"left":9932211,"id":"d253fd","name":"玉造町","name_kana":"たまつくりまち","closed":true,"lat":36.111861,"lng":140.412972,"prefecture":8,"lines":[99322],"postal_code":"311-3512","address":"茨城県行方市玉造甲９４−３","open_date":"1928-02-01","closed_date":"2007-04-01","next":[1132708,9932211,1132709,1132904,9932213,9932210],"voronoi":{"lat":36.131574,"lng":140.413018,"delta_lat":[0,-127771,-832,2264,16865,115957],"delta_lng":[0,-45554,78020,11196,21617,-59117]},"impl":false},
    {"code":9932211,"id":"c7ee1e","name":"浜","name_kana":"はま","closed":true,"lat":36.116278,"lng":140.400583,"prefecture":8,"lines":[99322],"postal_code":"311-3505","address":"茨城県行方市浜２６６−２","open_date":"1926-08-15","closed_date":"2007-04-01","next":[9932209,1132707,9932212,9932210,1122908,1132708],"voronoi":{"lat":36.002839,"lng":140.34627,"delta_lat":[0,5437,64947,31249,27102,-127771],"delta_lng":[0,-24674,1772,36383,53268,-45554]},"impl":false},
    {"code":9932210,"id":"a7c949","name":"八木蒔","name_kana":"やきまき","closed":true,"lat":36.130528,"lng":140.393333,"prefecture":8,"lines":[99322],"postal_code":"311-3506","address":"茨城県行方市八木蒔４９７","open_date":"1931-02-01","closed_date":"2007-04-01","next":[9932213,9932214,9932211,9932209,9932212],"voronoi":{"lat":36.16385,"lng":140.420622,"delta_lat":[0,14205,-73582,27102,6483],"delta_lng":[0,-2343,-58529,53268,6162]},"impl":false},
    {"code":9932215,"left":9932217,"right":1122917,"id":"36f610","name":"巴川","name_kana":"ともえがわ","closed":true,"lat":36.158028,"lng":140.472667,"prefecture":8,"lines":[99322],"postal_code":"311-1527","address":"茨城県鉾田市借宿３６６","open_date":"1929-05-26","closed_date":"2007-04-01","next":[9932306,9932208,9932307,9932214,9932216,9932209],"voronoi":{"lat":36.208552,"lng":140.415991,"delta_lat":[0,28090,-31492,-20380,-44884,51932],"delta_lng":[0,1060,52545,15772,-9878,-56864]},"impl":false},
    {"code":9932217,"left":9932216,"id":"88eb4a","name":"鉾田","name_kana":"ほこた","closed":true,"lat":36.153333,"lng":140.5075,"prefecture":8,"lines":[99322],"postal_code":"311-1517","address":"茨城県鉾田市鉾田２４５６","open_date":"1929-05-16","closed_date":"2007-04-01","next":[9932307,9932308,9932216,9932309],"voronoi":{"lat":36.110803,"lng":140.492934,"delta_lat":[0,63424,-3110,-42635],"delta_lng":[0,5328,16584,-2100]},"impl":false},
    {"code":9932216,"id":"3715a5","name":"坂戸(茨城)","original_name":"坂戸","name_kana":"さかど","closed":true,"lat":36.155167,"lng":140.485667,"prefecture":8,"lines":[99322],"postal_code":"311-1528","address":"茨城県鉾田市当間２２９６","open_date":"1931-02-01","closed_date":"2007-04-01","next":[9932214,9932309,9932217,9932215,9932307],"voronoi":{"lat":36.184771,"lng":140.485367,"delta_lat":[0,-44884,-31678,2595,63424],"delta_lng":[0,-9878,15684,1760,5328]},"impl":false},
    {"code":1122917,"id":"7204b1","name":"水戸","name_kana":"みと","lat":36.370911,"lng":140.47676,"prefecture":8,"lines":[11229,11338,99323],"attr":"eco","postal_code":"310-0015","address":"水戸市宮町１丁目","next":[9932302,1122916,1133802,9932305],"voronoi":{"lat":36.367465,"lng":140.496651,"delta_lat":[0,17561,-87423,11721],"delta_lng":[0,-28767,-9098,24289]},"impl":true},
    {"code":9935306,"left":9935303,"right":9935305,"id":"f0773e","name":"大学前(茨城)","original_name":"大学前","closed":true,"lat":36.398113,"lng":140.441341,"prefecture":8,"lines":[99353],"postal_code":"310-0055","address":"茨城県水戸市袴塚３丁目６","closed_date":"1971-02-11","next":[1133804,1133803,9935302,1133813,9935303,9935305,9935307,9935309],"voronoi":{"lat":36.435966,"lng":140.452398,"delta_lat":[0,-12166,-3622,-27745,2285,2111,35387,4176],"delta_lng":[0,6427,528,-17814,-8745,-2329,16434,4288]},"impl":false},
    {"code":9935303,"left":9935302,"right":9935307,"id":"2531fa","name":"西原町","closed":true,"lat":36.387577,"lng":140.438588,"prefecture":8,"lines":[99353],"postal_code":"310-0043","address":"茨城県水戸市松が丘１丁目２-４０","closed_date":"1971-02-11","next":[9935305,1122916,9935304,9935302,9935306],"voronoi":{"lat":36.390157,"lng":140.443494,"delta_lat":[0,-10164,-11117,25843,-2285],"delta_lng":[0,3685,-9127,-5258,8745]},"impl":false},
    {"code":9935302,"left":1122915,"id":"030ef5","name":"東石川","closed":true,"lat":36.385881,"lng":140.430252,"prefecture":8,"lines":[99353],"postal_code":"311-4142","address":"茨城県水戸市東赤塚２１０８","closed_date":"1971-02-11","next":[9935303,9935307,9935306,1122915,1122916],"voronoi":{"lat":36.354302,"lng":140.430867,"delta_lat":[0,39495,3032,-2111,-25843],"delta_lng":[0,-10861,10460,2329,5258]},"impl":false},
    {"code":1122915,"id":"b80311","name":"赤塚","name_kana":"あかつか","lat":36.381755,"lng":140.415248,"prefecture":8,"lines":[11229,99353],"attr":"eco","postal_code":"311-4141","address":"水戸市赤塚１","next":[9932306,9935307,1122916,9932207,1122914,9935308,9935302],"voronoi":{"lat":36.393798,"lng":140.420006,"delta_lat":[0,4730,526,-131548,-420,4790,82427],"delta_lng":[0,-12474,-27810,24536,1379,7730,17500]},"impl":true},
    {"code":9935307,"id":"3b33ea","name":"堀","closed":true,"lat":36.405967,"lng":140.424429,"prefecture":8,"lines":[99353],"postal_code":"310-0903","address":"茨城県水戸市堀町５０５−９","closed_date":"1968-06-16","next":[9935309,1122915,9935302,9935308,9935306],"voronoi":{"lat":36.39683,"lng":140.430465,"delta_lat":[0,-3032,4730,28814,4875],"delta_lng":[0,-10460,-12474,30421,8947]},"impl":false},
    {"code":9935305,"left":1133802,"right":1133803,"id":"9560d8","name":"曙町(茨城)","original_name":"曙町","closed":true,"lat":36.394617,"lng":140.446786,"prefecture":8,"lines":[99353],"postal_code":"310-0055","address":"茨城県水戸市袴塚１丁目６-１６銀星映画劇場","closed_date":"1971-02-11","next":[9935303,1133803,9935306,9935304],"voronoi":{"lat":36.420179,"lng":140.459353,"delta_lat":[0,-27745,-2277,13125],"delta_lng":[0,-17814,1955,20328]},"impl":false},
    {"code":1133802,"left":9935304,"id":"d63f1a","name":"常陸青柳","name_kana":"ひたちあおやぎ","lat":36.383582,"lng":140.484495,"prefecture":8,"lines":[11338],"attr":"eco","postal_code":"312-0035","address":"ひたちなか市枝川","next":[9935304,1122917,1122916,1122918,9932302,1133803,9931508],"voronoi":{"lat":36.367465,"lng":140.496651,"delta_lat":[0,17561,2888,4745,2683,-4483,-11056],"delta_lng":[0,-28767,-1080,1032,34944,1172,1247]},"impl":true},
    {"code":9935304,"id":"eb06bc","name":"上水戸","name_kana":"かみみと","closed":true,"lat":36.391321,"lng":140.448914,"prefecture":8,"lines":[99353],"postal_code":"310-0041","address":"茨城県水戸市上水戸３丁目７-３６","open_date":"1926-10-24","closed_date":"1971-02-11","next":[1133802,1122916,9935303,9935305,1133803],"voronoi":{"lat":36.403281,"lng":140.463822,"delta_lat":[0,-13125,-10164,7921,4745],"delta_lng":[0,-20328,3685,19625,1032]},"impl":false},
    {"code":1133803,"id":"004229","name":"常陸津田","name_kana":"ひたちつだ","lat":36.404171,"lng":140.482914,"prefecture":8,"lines":[11338],"attr":"eco","postal_code":"312-0032","address":"ひたちなか市津田","next":[9935306,9935305,1133804,9935304,1122918,1133802],"voronoi":{"lat":36.407109,"lng":140.505651,"delta_lat":[0,16691,-3622,-16897,-10623,2683],"delta_lng":[0,-46825,528,4469,4014,34944]},"impl":true},
    {"code":9931510,"left":9932303,"right":9931506,"id":"f12c45","name":"高田の鉄橋","name_kana":"たかだのてっきょう","lat":36.352556,"lng":140.580028,"prefecture":8,"lines":[99315],"attr":"eco","postal_code":"312-0000","address":"茨城県ひたちなか市横堰","open_date":"2014-10-01","next":[9931506,9931504,9931503,9931505,9932303,9931501],"voronoi":{"lat":36.363199,"lng":140.592326,"delta_lat":[0,-5985,-18761,15039,24860,-4129],"delta_lng":[0,-869,-17333,-8491,20750,3946]},"impl":true},
    {"code":9932303,"left":9932307,"right":9931505,"id":"0135f7","name":"常澄","name_kana":"つねずみ","lat":36.340683,"lng":140.558997,"prefecture":8,"lines":[99323],"attr":"eco","postal_code":"311-1114","address":"水戸市塩崎町","next":[9932304,9931505,9931510,9932302,9931506],"voronoi":{"lat":36.356485,"lng":140.540087,"delta_lat":[0,-33895,7551,8311,15039],"delta_lng":[0,-16609,52025,-1380,-8491]},"impl":true},
    {"code":9932307,"left":9932309,"right":9932305,"id":"7e3a9c","name":"徳宿","name_kana":"とくしゅく","lat":36.190356,"lng":140.514441,"prefecture":8,"lines":[99323],"attr":"heat","postal_code":"311-1503","address":"鉾田市徳宿","next":[9932306,9932217,9932308,9932215,9932310,9932305,9932216],"voronoi":{"lat":36.184771,"lng":140.485367,"delta_lat":[0,20380,7609,-2494,-27240,-11908,3110],"delta_lng":[0,-15772,141836,14614,-36050,-75150,-16584]},"impl":true},
    {"code":9932309,"left":9932308,"id":"eddfa7","name":"北浦湖畔","name_kana":"きたうらこはん","lat":36.120453,"lng":140.536841,"prefecture":8,"lines":[99323],"attr":"heat","postal_code":"311-2104","address":"鉾田市梶山","next":[9932216,1132904,9932213,9932310,9932308,9932311,9932214,9932217],"voronoi":{"lat":36.157583,"lng":140.569845,"delta_lat":[0,-93918,-37036,-2113,72744,10949,2595,17679],"delta_lng":[0,-28746,-27731,-30701,5675,2831,1760,19812]},"impl":true},
    {"code":9932308,"id":"a9acc2","name":"新鉾田","name_kana":"しんほこた","lat":36.152697,"lng":140.520408,"prefecture":8,"lines":[99323],"attr":"heat","postal_code":"311-1516","address":"鉾田市新鉾田","next":[9932217,9932307,9932310,9932309],"voronoi":{"lat":36.128482,"lng":140.512745,"delta_lat":[0,42635,11908,-25443],"delta_lng":[0,2100,75150,-20150]},"impl":true},
    {"code":9932305,"id":"b4f0d8","name":"涸沼","name_kana":"ひぬま","lat":36.266054,"lng":140.527356,"prefecture":8,"lines":[99323],"attr":"heat","postal_code":"311-1402","address":"鉾田市下太田","next":[1122916,9932302,9932307,9932306,9932310,1122917,9932304],"voronoi":{"lat":36.210266,"lng":140.626046,"delta_lat":[0,2494,65036,19807,11721,3656,-95944],"delta_lng":[0,-14614,-182465,29820,24289,30846,133890]},"impl":true},
    {"code":9931505,"left":9932310,"right":9931504,"id":"9e76a8","name":"那珂湊","name_kana":"なかみなと","lat":36.345453,"lng":140.587716,"prefecture":8,"lines":[99315],"attr":"eco","postal_code":"311-1225","address":"ひたちなか市釈迦町２２-２","next":[9932304,9931504,9932303,9931510],"voronoi":{"lat":36.338453,"lng":140.574123,"delta_lat":[0,-8311,-26822,53894],"delta_lng":[0,1380,32253,-16300]},"impl":true},
    {"code":9932310,"left":9932304,"id":"3af9fc","name":"大洋","name_kana":"たいよう","lat":36.108341,"lng":140.576413,"prefecture":8,"lines":[99323],"attr":"cool","postal_code":"311-2103","address":"鉾田市汲上","next":[9931504,9932304,9932309,9932308,9932307,9932305,9932311],"voronoi":{"lat":36.063665,"lng":140.541099,"delta_lat":[0,93918,25443,27240,6770,2298,-9580],"delta_lng":[0,28746,20150,36050,21766,34623,93635]},"impl":true},
    {"code":9932304,"id":"60d597","name":"大洗","name_kana":"おおあらい","lat":36.315342,"lng":140.562675,"prefecture":8,"lines":[99323],"attr":"eco","postal_code":"311-1307","address":"東茨城郡大洗町桜道","next":[9931504,9931505,9932310,9932303,9932302,9932305],"voronoi":{"lat":36.31298,"lng":140.513921,"delta_lat":[0,9611,7551,-26822,-83986,-2298],"delta_lng":[0,9557,52025,32253,74678,-34623]},"impl":true},
    {"code":9931504,"id":"b05cae","name":"殿山","name_kana":"とのやま","lat":36.349497,"lng":140.601087,"prefecture":8,"lines":[99315],"attr":"eco","postal_code":"311-1213","address":"ひたちなか市牛久保２-１０３-２","next":[9932310,9932304,9931503,9931510,9931505,9932311],"voronoi":{"lat":36.363199,"lng":140.592326,"delta_lat":[0,-5985,-53894,-83986,-9580,-106],"delta_lng":[0,-869,16300,74678,93635,6751]},"impl":true},
    {"code":9931506,"left":9931508,"right":9931502,"id":"6d5e7f","name":"中根","name_kana":"なかね","lat":36.367488,"lng":140.562138,"prefecture":8,"lines":[99315],"attr":"eco","postal_code":"312-0021","address":"ひたちなか市三反田中丸４４５８","next":[9931510,9932302,9931507,9932303,1122919,9931501],"voronoi":{"lat":36.407791,"lng":140.576994,"delta_lat":[0,-4818,-43880,-2608,-2994,24860],"delta_lng":[0,-13994,-23238,325,25545,20750]},"impl":true},
    {"code":9931508,"left":9931507,"right":1122918,"id":"f4131a","name":"工機前","name_kana":"こうきまえ","lat":36.388099,"lng":140.524542,"prefecture":8,"lines":[99315],"attr":"cool","postal_code":"312-0025","address":"ひたちなか市武田字大塚前１０９２-１５","next":[1122918,9931507,9932302,1133802],"voronoi":{"lat":36.390858,"lng":140.503953,"delta_lat":[0,292,-17003,5655],"delta_lng":[0,28966,-10248,-17471]},"impl":true},
    {"code":9931507,"left":9932302,"id":"967047","name":"金上","name_kana":"かねあげ","lat":36.382319,"lng":140.534132,"prefecture":8,"lines":[99315],"attr":"eco","postal_code":"312-0023","address":"ひたちなか市大平４-３４３３","next":[9932302,9931508,9931506,1122918,1122919],"voronoi":{"lat":36.404763,"lng":140.549441,"delta_lat":[0,-13612,-17003,-15054,43880],"delta_lng":[0,-16523,-10248,17092,23238]},"impl":true},
    {"code":9932302,"id":"23c75c","name":"東水戸","name_kana":"ひがしみと","lat":36.361746,"lng":140.516012,"prefecture":8,"lines":[99323],"attr":"eco","postal_code":"310-0827","address":"水戸市吉沼町","next":[1122917,9931507,9932305,9931506,1133802,9932303,9932304,9931508],"voronoi":{"lat":36.359094,"lng":140.539763,"delta_lat":[0,-2608,-33895,-9611,-3656,58141,12338,-5655],"delta_lng":[0,325,-16609,-9557,-30846,13576,8548,17471]},"impl":true},
    {"code":1122918,"id":"7c1f97","name":"勝田","name_kana":"かつた","lat":36.394033,"lng":140.524482,"prefecture":8,"lines":[11229,99315],"attr":"cool","postal_code":"312-0045","address":"ひたちなか市勝田中央","next":[1133804,9931508,1133802,1133803,1122919,9931507],"voronoi":{"lat":36.391151,"lng":140.532918,"delta_lat":[0,-292,4483,11768,12270,-14617],"delta_lng":[0,-28966,-1172,2870,10550,33241]},"impl":true},
    {"code":9931502,"left":9931503,"right":9931501,"id":"937073","name":"磯崎","name_kana":"いそざき","lat":36.37781,"lng":140.617934,"prefecture":8,"lines":[99315],"attr":"heat","postal_code":"311-1202","address":"ひたちなか市磯崎町西ノ三３８４７-４","next":[9932312,9935207,9932313,9935202,1132907,1122923,9931501,9932314,9935203,9935205,9923407,9933505,9931503],"voronoi":{"lat":36.205496,"lng":140.968025,"delta_lat":[0,185,805,4112,100727,12585,99064,15098,3050,2260,-3421,-68583,-164896],"delta_lng":[0,69942,40029,87379,273729,-24252,-479214,-107805,-26188,-38590,-86147,-71392,322565]},"impl":true},
    {"code":9931503,"id":"302829","name":"平磯","name_kana":"ひらいそ","lat":36.357546,"lng":140.607575,"prefecture":8,"lines":[99315],"attr":"heat","postal_code":"312-0000","address":"ひたちなか市平磯町字根本の上２６５-７","next":[9931501,9931504,9931510,9932311,9932312,9931502],"voronoi":{"lat":36.206094,"lng":140.875721,"delta_lat":[0,3554,153551,11024,-2844,-164896],"delta_lng":[0,-92900,-190495,-1997,15187,322565]},"impl":true},
    {"code":9931501,"id":"fa4efc","name":"阿字ヶ浦","name_kana":"あじがうら","lat":36.383529,"lng":140.61244,"prefecture":8,"lines":[99315],"attr":"heat","postal_code":"311-1201","address":"茨城県ひたちなか市阿字ヶ浦町","next":[9931503,9931502,1122919,1122920,9935207,9931506,9931510],"voronoi":{"lat":36.371379,"lng":140.605516,"delta_lat":[0,68583,396,-17071,-15495,-29440,-4129],"delta_lng":[0,71392,-59839,-29980,-10094,9388,3946]},"impl":true},
    {"code":9935214,"left":1133809,"right":9935213,"id":"302b21","name":"常北太田","name_kana":"じょうほくおおた","closed":true,"lat":36.532028,"lng":140.528972,"prefecture":8,"lines":[99352],"postal_code":"313-0013","address":"茨城県常陸太田市山下町１７２２−１","open_date":"1929-07-03","closed_date":"2005-04-01","next":[9935201,1122922,1122924,9935213,1133812,1122923,9935212,1133819],"voronoi":{"lat":36.645408,"lng":140.558448,"delta_lat":[0,-7888,-3995,-16620,-60489,-32573,77498,75136],"delta_lng":[0,3465,1178,3224,-16988,-15756,-51773,54455]},"impl":false},
    {"code":1133809,"left":1133804,"right":1133814,"id":"82b36d","name":"額田(茨城)","original_name":"額田","name_kana":"ぬかだ","lat":36.485705,"lng":140.503462,"prefecture":8,"lines":[11338],"attr":"eco","postal_code":"311-0100","address":"那珂市額田南郷","next":[1122920,1133813,1122919,1133810,1133808,1133814],"voronoi":{"lat":36.498154,"lng":140.47841,"delta_lat":[0,-4016,-30318,213,17079,32975],"delta_lng":[0,1482,50686,320,5566,-54418]},"impl":true},
    {"code":1133804,"left":9935311,"right":1133807,"id":"d9a918","name":"後台","name_kana":"ごだい","lat":36.423767,"lng":140.489899,"prefecture":8,"lines":[11338],"attr":"eco","postal_code":"311-0111","address":"那珂市後台","next":[9935306,1122918,1133805,1133813,1133803,1122919,1133806],"voronoi":{"lat":36.438792,"lng":140.458523,"delta_lat":[0,-2826,-12166,-16691,12270,1686,16296],"delta_lng":[0,-6125,6427,46825,10550,-222,-45965]},"impl":true},
    {"code":9935311,"left":9935309,"right":1133813,"id":"6776c1","name":"那珂西","name_kana":"なかさい","closed":true,"lat":36.467623,"lng":140.391601,"prefecture":8,"lines":[99353],"postal_code":"311-4302","address":"茨城県東茨城郡城里町大字那珂西２４６９−１","open_date":"1926-10-24","closed_date":"1968-06-16","next":[9935310,1133815,9935309,9935312,1122914,9935313],"voronoi":{"lat":36.497279,"lng":140.396615,"delta_lat":[0,-69471,-3344,7818,43657,26122],"delta_lng":[0,-46887,8406,14871,50826,-21564]},"impl":false},
    {"code":9935309,"left":9935310,"id":"e01e71","name":"飯富","name_kana":"いいとみ","closed":true,"lat":36.427566,"lng":140.41266,"prefecture":8,"lines":[99353],"postal_code":"311-4206","address":"茨城県水戸市飯富町３５６２−７","open_date":"1926-10-24","closed_date":"1968-06-16","next":[9935307,9935311,1133813,1122914,9935310,9935306,9935308],"voronoi":{"lat":36.432217,"lng":140.446899,"delta_lat":[0,4176,3959,-8069,-7818,-14085,16962],"delta_lng":[0,4288,-3241,-74941,-14871,13525,66293]},"impl":false},
    {"code":9935310,"id":"9615a2","name":"藤井(茨城)","original_name":"藤井","name_kana":"ふじい","closed":true,"lat":36.445333,"lng":140.410747,"prefecture":8,"lines":[99353],"postal_code":"311-4201","address":"茨城県水戸市藤井町２４７−４","open_date":"1926-10-24","closed_date":"1968-06-16","next":[9935311,1133814,1133815,1133813,9935309],"voronoi":{"lat":36.432283,"lng":140.373006,"delta_lat":[0,43657,-1096,-6171,-28321],"delta_lng":[0,50826,2432,8158,13525]},"impl":false},
    {"code":1133813,"id":"affc75","name":"常陸鴻巣","name_kana":"ひたちこうのす","lat":36.472414,"lng":140.467455,"prefecture":8,"lines":[11338],"attr":"eco","postal_code":"311-0133","address":"那珂市鴻巣","next":[1133804,1133809,1133814,1133806,9935309,9935306,9935310,1133808,1133807],"voronoi":{"lat":36.494139,"lng":140.479892,"delta_lat":[0,4016,-29482,-28321,-3959,-426,2826,11801,18879],"delta_lng":[0,-1482,-43989,13525,3241,1211,6125,12542,12761]},"impl":true},
    {"code":1133807,"left":1133805,"right":1133808,"id":"cacb9c","name":"上菅谷","name_kana":"かみすがや","lat":36.455378,"lng":140.492659,"prefecture":8,"lines":[11338],"attr":"eco","postal_code":"311-0105","address":"那珂市菅谷","next":[1122919,1133806,1133808,1133813],"voronoi":{"lat":36.450593,"lng":140.471065,"delta_lat":[0,-168,8217,10830],"delta_lng":[0,49435,4291,-40965]},"impl":true},
    {"code":1133805,"left":1133806,"id":"dba81f","name":"下菅谷","name_kana":"しもすがや","lat":36.435394,"lng":140.494021,"prefecture":8,"lines":[11338],"attr":"eco","postal_code":"311-0105","address":"那珂市菅谷","next":[1133804,1133806,1122919],"voronoi":{"lat":36.437361,"lng":140.470013,"delta_lat":[0,-16296,22874],"delta_lng":[0,45965,2455]},"impl":true},
    {"code":1133806,"id":"54af66","name":"中菅谷","name_kana":"なかすがや","lat":36.445662,"lng":140.492626,"prefecture":8,"lines":[11338],"attr":"eco","postal_code":"311-0105","address":"那珂市菅谷","next":[1122919,1133813,1133807,1133805,1133804],"voronoi":{"lat":36.443939,"lng":140.518433,"delta_lat":[0,6486,168,-11801,-1431],"delta_lng":[0,2067,-49435,-12542,11490]},"impl":true},
    {"code":1133808,"id":"558ac8","name":"南酒出","name_kana":"みなみさかいで","lat":36.477361,"lng":140.498471,"prefecture":8,"lines":[11338],"attr":"eco","postal_code":"311-0132","address":"那珂市南酒出","next":[1133807,1122919,1133813,1133809],"voronoi":{"lat":36.494139,"lng":140.479892,"delta_lat":[0,-24666,-10830,5178],"delta_lng":[0,3934,40965,5787]},"impl":true},
    {"code":1133814,"left":1133818,"right":1133811,"id":"f22ebe","name":"瓜連","name_kana":"うりづら","lat":36.497805,"lng":140.450438,"prefecture":8,"lines":[11338],"attr":"eco","postal_code":"319-2102","address":"那珂市瓜連","next":[1133812,9935310,1133813,1133810,1133815,1133809],"voronoi":{"lat":36.498154,"lng":140.47841,"delta_lat":[0,-29482,6171,72879,-7361,-26274],"delta_lng":[0,-43989,-8158,48489,3182,4112]},"impl":true},
    {"code":1133818,"left":1133815,"right":1133819,"id":"899ff9","name":"野上原","name_kana":"のがみはら","lat":36.605879,"lng":140.390127,"prefecture":8,"lines":[11338],"attr":"heat","postal_code":"319-3114","address":"常陸大宮市野上","next":[1133816,1133817,1133819,1133820],"voronoi":{"lat":36.629603,"lng":140.319262,"delta_lat":[0,-51100,12003,36049],"delta_lng":[0,86686,31389,-60706]},"impl":true},
    {"code":1133815,"left":1133816,"id":"8b374a","name":"静","name_kana":"しず","lat":36.506012,"lng":140.438103,"prefecture":8,"lines":[11338],"attr":"heat","postal_code":"319-2107","address":"那珂市下大賀","next":[9935311,9935314,1133812,9935310,9935313,1133814,1133816],"voronoi":{"lat":36.513456,"lng":140.403701,"delta_lat":[0,-10562,-832,-26122,-1096,72879,8214],"delta_lng":[0,-1535,102,21564,2432,48489,-2309]},"impl":true},
    {"code":1133816,"id":"75fc27","name":"常陸大宮","name_kana":"ひたちおおみや","lat":36.547554,"lng":140.412431,"prefecture":8,"lines":[11338],"attr":"heat","postal_code":"319-2200","address":"常陸大宮市南町９６６","next":[1133812,9935315,1133818,1133817,9935314,1133819,1133815],"voronoi":{"lat":36.596435,"lng":140.478177,"delta_lat":[0,-5930,-12003,-31317,-1164,-32566,42481],"delta_lng":[0,-40839,-31389,-25922,312,23362,68743]},"impl":true},
    {"code":1133819,"id":"11bd0f","name":"山方宿","name_kana":"やまがたじゅく","lat":36.6246,"lng":140.401244,"prefecture":8,"lines":[11338],"attr":"heat","postal_code":"319-3111","address":"常陸大宮市山方","next":[1133812,1133820,1122924,1133818,1133822,1133816,9935214],"voronoi":{"lat":36.689606,"lng":140.535681,"delta_lat":[0,-4636,-58415,-36049,5930,4906,75136],"delta_lng":[0,-22239,-136810,60706,40839,3621,54455]},"impl":true},
    {"code":1133811,"left":1133810,"right":1133812,"id":"80122e","name":"谷河原","name_kana":"やがわら","lat":36.519782,"lng":140.52502,"prefecture":8,"lines":[11338],"attr":"eco","postal_code":"313-0042","address":"常陸太田市磯部町","next":[1133812,1133810,9935213],"voronoi":{"lat":36.533691,"lng":140.492327,"delta_lat":[0,-9906,-23266],"delta_lng":[0,41220,7229]},"impl":true},
    {"code":1133810,"id":"f29851","name":"河合","name_kana":"かわい","lat":36.508241,"lng":140.517118,"prefecture":8,"lines":[11338],"attr":"eco","postal_code":"313-0046","address":"常陸太田市上河合町","next":[1133814,1122920,1133812,1133809,1133811,9935213],"voronoi":{"lat":36.500518,"lng":140.540776,"delta_lat":[0,33172,6671,-26274,-32975,11139],"delta_lng":[0,-48449,-14393,4112,54418,9800]},"impl":true},
    {"code":1133812,"id":"b10785","name":"常陸太田","name_kana":"ひたちおおた","lat":36.531225,"lng":140.52777,"prefecture":8,"lines":[11338],"attr":"eco","postal_code":"313-0013","address":"常陸太田市山下町","next":[1133814,9935213,1133819,1133816,1133815,9935214,1133810,1133811],"voronoi":{"lat":36.523843,"lng":140.533571,"delta_lat":[0,77498,-4906,-40499,-8214,-7361,-6671,-9906],"delta_lng":[0,-51773,-3621,-5733,2309,3182,14393,41220]},"impl":true},
    {"code":9935213,"left":9935210,"right":9935202,"id":"5a9ee6","name":"小沢(茨城)","original_name":"小沢","name_kana":"おざわ","closed":true,"lat":36.525319,"lng":140.542842,"prefecture":8,"lines":[99352],"postal_code":"313-0038","address":"茨城県常陸太田市小沢町８１０−３","open_date":"1929-07-03","closed_date":"2005-04-01","next":[1133812,9935214,1133811,1133810,9935212,1122920],"voronoi":{"lat":36.492251,"lng":140.546264,"delta_lat":[0,8267,23266,59,32573,-63695],"delta_lng":[0,-5488,-7229,23,15756,-1837]},"impl":false},
    {"code":9935210,"left":9935211,"right":9935209,"id":"b266b5","name":"大橋(茨城)","original_name":"大橋","name_kana":"おおはし","closed":true,"lat":36.511661,"lng":140.588067,"prefecture":8,"lines":[99352],"postal_code":"319-1234","address":"茨城県日立市大和田町１丁目７","open_date":"1929-07-03","closed_date":"2005-04-01","next":[9935208,9935209,9935211,1122922,9935204,1122920,9935205,1122921],"voronoi":{"lat":36.530943,"lng":140.602888,"delta_lat":[0,14995,362,2954,-56873,-5438,100,41180],"delta_lng":[0,-5366,-212,-2680,-25718,11322,91,22684]},"impl":false},
    {"code":9935211,"left":1122920,"right":9935212,"id":"8dc7c2","name":"川中子","name_kana":"かわなかご","closed":true,"lat":36.519497,"lng":140.570739,"prefecture":8,"lines":[99352],"postal_code":"313-0033","address":"茨城県常陸太田市小目町７８５","open_date":"1929-07-03","closed_date":"2005-04-01","next":[1122920,9935210,1122922,9935212],"voronoi":{"lat":36.49382,"lng":140.553029,"delta_lat":[0,-1440,56873,27319],"delta_lng":[0,15884,25718,-14399]},"impl":false},
    {"code":1122920,"left":1122919,"id":"de7b96","name":"東海","name_kana":"とうかい","lat":36.465378,"lng":140.565835,"prefecture":8,"lines":[11229],"attr":"cool","postal_code":"319-1111","address":"那珂郡東海村大字舟石川","next":[1133809,9935211,1122919,9935212,9935207,9931501,1133810,9935208,9935210,9935213],"voronoi":{"lat":36.49382,"lng":140.553029,"delta_lat":[0,-1440,-5438,-35466,-11119,-17071,40747,17079,11139,470],"delta_lng":[0,15884,11322,29352,7482,-29980,-56190,5566,9800,1225]},"impl":true},
    {"code":1122919,"id":"2417cf","name":"佐和","name_kana":"さわ","lat":36.430409,"lng":140.540477,"prefecture":8,"lines":[11229],"attr":"cool","postal_code":"312-0062","address":"ひたちなか市大字高場","next":[1133807,1122920,1133809,1133806,9931501,1133804,1133808,1122918,9931506,1133805,9931507],"voronoi":{"lat":36.404763,"lng":140.549441,"delta_lat":[0,14617,1686,22874,6486,8217,5178,213,-40747,-15495,-4818],"delta_lng":[0,-33241,-222,2455,2067,4291,5787,320,56190,-10094,-13994]},"impl":true},
    {"code":9935212,"id":"d54fdd","name":"常陸岡田","name_kana":"ひたちおかだ","closed":true,"lat":36.524997,"lng":140.554008,"prefecture":8,"lines":[99352],"postal_code":"313-0031","address":"茨城県常陸太田市岡田町１７４６−２","open_date":"1929-07-03","closed_date":"2005-04-01","next":[1122922,1122920,9935214,9935213,9935211],"voronoi":{"lat":36.49382,"lng":140.553029,"delta_lat":[0,-1099,63695,60489,-40333],"delta_lng":[0,-5539,1837,16988,13917]},"impl":false},
    {"code":9935209,"left":9935207,"right":1122921,"id":"3f48ef","name":"茂宮","name_kana":"もみや","closed":true,"lat":36.506742,"lng":140.596997,"prefecture":8,"lines":[99352],"postal_code":"319-1225","address":"茨城県日立市石名坂町１丁目３４-１３","open_date":"1929-07-03","closed_date":"2005-04-01","next":[9935210,9935207,1122921,9935208],"voronoi":{"lat":36.487042,"lng":140.580326,"delta_lat":[0,41180,-20112,-423],"delta_lng":[0,22684,5674,-248]},"impl":false},
    {"code":9935207,"left":9935208,"id":"9a8b18","name":"久慈浜","name_kana":"くじはま","closed":true,"lat":36.497242,"lng":140.613192,"prefecture":8,"lines":[99352],"postal_code":"319-1222","address":"茨城県日立市久慈町３丁目４０-２","open_date":"1928-12-27","closed_date":"2005-04-01","next":[9931502,1122921,9935205,9935208,1122920,9935209,9931501],"voronoi":{"lat":36.443382,"lng":140.763055,"delta_lat":[0,25209,39519,-423,-56211,-11119,-396],"delta_lng":[0,-53109,-101262,-248,1151,7482,59839]},"impl":false},
    {"code":9935208,"id":"c96174","name":"南高野","name_kana":"みなみこうや","closed":true,"lat":36.497056,"lng":140.604111,"prefecture":8,"lines":[99352],"postal_code":"319-1222","address":"茨城県日立市久慈町５丁目４８-２５","open_date":"1929-08-16","closed_date":"2005-04-01","next":[9935210,9935207,1122920,9935209],"voronoi":{"lat":36.451476,"lng":140.609587,"delta_lat":[0,35466,100,20645],"delta_lng":[0,-29352,91,28110]},"impl":false},
    {"code":1122921,"id":"fdb18c","name":"大甕","name_kana":"おおみか","lat":36.513052,"lng":140.619362,"prefecture":8,"lines":[11229,99352],"attr":"cool","postal_code":"319-1221","address":"日立市大みか町２","next":[9935207,9935205,9935209,9935210],"voronoi":{"lat":36.50811,"lng":140.608684,"delta_lat":[0,-39519,62351,-2720],"delta_lng":[0,101262,-107057,121]},"impl":true},
    {"code":9935202,"left":9935203,"right":1122923,"id":"1c0090","name":"桜川(茨城)","original_name":"桜川","name_kana":"さくらがわ","closed":true,"lat":36.553678,"lng":140.642564,"prefecture":8,"lines":[99352],"postal_code":"316-0035","address":"茨城県日立市国分町１丁目２","open_date":"1947-09-01","closed_date":"2005-04-01","next":[1122922,9935203,9931502,1122923,9935201],"voronoi":{"lat":36.563031,"lng":140.636053,"delta_lat":[0,-12539,-112420,-15098,111791],"delta_lng":[0,1945,189834,107805,-212541]},"impl":false},
    {"code":9935203,"left":9935204,"right":1122922,"id":"7a29bf","name":"河原子","name_kana":"かわらご","closed":true,"lat":36.544958,"lng":140.6374,"prefecture":8,"lines":[99352],"postal_code":"316-0004","address":"茨城県日立市東多賀町３丁目６-１８","open_date":"1947-09-01","closed_date":"2005-04-01","next":[9935205,9935202,9931502,9935204,1122922],"voronoi":{"lat":36.544884,"lng":140.629454,"delta_lat":[0,-38326,-65435,-3050,112420],"delta_lng":[0,54188,118002,26188,-189834]},"impl":false},
    {"code":9935204,"left":9935205,"id":"7ecae3","name":"大沼(茨城)","original_name":"大沼","name_kana":"おおぬま","closed":true,"lat":36.537367,"lng":140.632031,"prefecture":8,"lines":[99352],"postal_code":"316-0014","address":"茨城県日立市東金沢町２丁目１６-１１","open_date":"1947-09-01","closed_date":"2005-04-01","next":[1122922,9935205,9935203,9935210],"voronoi":{"lat":36.5463,"lng":140.597311,"delta_lat":[0,-1416,-38326,39380],"delta_lng":[0,32144,54188,-86120]},"impl":false},
    {"code":9935205,"id":"05daa1","name":"水木","name_kana":"みずき","closed":true,"lat":36.525442,"lng":140.626578,"prefecture":8,"lines":[99352],"postal_code":"316-0024","address":"茨城県日立市水木町２丁目２-１５","open_date":"1947-09-01","closed_date":"2005-04-01","next":[9935203,9935207,1122921,9935204,9931502,9935210],"voronoi":{"lat":36.545938,"lng":140.597522,"delta_lat":[0,-39380,-65435,2260,25209,62351],"delta_lng":[0,86120,118002,-38590,-53109,-107057]},"impl":false},
    {"code":1122922,"id":"801c57","name":"常陸多賀","name_kana":"ひたちたが","lat":36.552145,"lng":140.632682,"prefecture":8,"lines":[11229],"attr":"cool","postal_code":"316-0003","address":"日立市多賀町１","next":[9935202,9935214,9935212,9935201,9935204,9935211,9935210,9935203],"voronoi":{"lat":36.544884,"lng":140.629454,"delta_lat":[0,1416,2954,27319,40333,16620,-70494,-12539],"delta_lng":[0,-32144,-2680,-14399,-13917,-3224,72963,1945]},"impl":true},
    {"code":1122923,"left":9935201,"right":1122924,"id":"eb7f84","name":"日立","name_kana":"ひたち","lat":36.590408,"lng":140.661883,"prefecture":8,"lines":[11229],"attr":"cool","postal_code":"317-0073","address":"日立市幸町１","next":[1122926,9935202,9931502,9935201,1122924,9935214,9923407],"voronoi":{"lat":36.422975,"lng":140.935637,"delta_lat":[0,111791,102755,7888,-125034,-172186,-24278],"delta_lng":[0,-212541,-161184,-3465,431126,390907,34371]},"impl":true},
    {"code":9935201,"id":"399713","name":"鮎川(茨城)","original_name":"鮎川","name_kana":"あゆかわ","closed":true,"lat":36.566775,"lng":140.646817,"prefecture":8,"lines":[99352],"postal_code":"316-0035","address":"茨城県日立市国分町１丁目６番1号","open_date":"1947-09-01","closed_date":"2005-04-01","next":[9935214,1122922,9935202,1122923],"voronoi":{"lat":36.63752,"lng":140.561912,"delta_lat":[0,-3995,-70494,-28266],"delta_lng":[0,1178,72963,87043]},"impl":false},
    {"code":1122924,"id":"8ec400","name":"小木津","name_kana":"おぎつ","lat":36.636533,"lng":140.67526,"prefecture":8,"lines":[11229],"attr":"cool","postal_code":"319-1414","address":"日立市日高町１","next":[1122926,1133822,9935214,1133819,1122923,1122925],"voronoi":{"lat":36.520375,"lng":140.989573,"delta_lat":[0,125034,31069,13128,9409,-88833],"delta_lng":[0,-431126,-22195,-572,1921,282226]},"impl":true}
  ]
}