{
  "name":"segment30",
  "root":1142108,
  "east":136.728351,
  "west":135.65663,
  "south":35.947308,
  "north":90.0,
  "station_size":144,
  "node_list":[
    {"code":1142108,"left":9942005,"right":9941612,"id":"a3c672","name":"市波","name_kana":"いちなみ","lat":36.019813,"lng":136.330463,"prefecture":18,"lines":[11421],"attr":"heat","postal_code":"910-2222","address":"福井市市波町","next":[1142110,1142106,1142107,9941914,1142109],"voronoi":{"lat":36.054062,"lng":136.337892,"delta_lat":[0,-51057,-34403,24086,59934],"delta_lng":[0,-21411,6383,14782,7246]}},
    {"code":9942005,"left":9942114,"right":1141524,"id":"9f0978","name":"田原町(福井)","name_kana":"たわらまち","lat":36.074888,"lng":136.21738,"prefecture":18,"lines":[99420,99421],"attr":"heat","postal_code":"910-0018","address":"福井市田原下町２字７-３","next":[9942006,9942004,9942023,9942022,9942122],"voronoi":{"lat":36.088295,"lng":136.219364,"delta_lat":[0,-3694,-4211,-8723,735],"delta_lng":[0,-3719,-2340,830,6041]}},
    {"code":9942114,"left":9942108,"right":9942116,"id":"93d69c","name":"ベル前","name_kana":"べるまえ","lat":36.033685,"lng":136.213882,"prefecture":18,"lines":[99421],"attr":"cool","postal_code":"918-8015","address":"福井市花堂南１-８","next":[9942113,9942126,1141522,1142103,9942115],"voronoi":{"lat":36.04638,"lng":136.16407,"delta_lat":[0,-5298,-13691,506,9328],"delta_lng":[0,13685,48225,108,-11320]}},
    {"code":9942108,"left":9942804,"right":9942112,"id":"c26f73","name":"神明(福井)","name_kana":"しんめい","lat":35.972731,"lng":136.181885,"prefecture":18,"lines":[99421],"attr":"eco","postal_code":"916-0017","address":"鯖江市神明町１-７-６","next":[1141520,9942109,9942804,9942107,9942803],"voronoi":{"lat":35.968441,"lng":136.189895,"delta_lat":[0,5102,21737,-3530,-25332],"delta_lng":[0,381,-33697,948,16224]}},
    {"code":9942804,"left":9942813,"right":9942107,"id":"06b76e","name":"川去","name_kana":"かわさり","closed":true,"lat":35.963087,"lng":136.145974,"prefecture":18,"lines":[99428],"attr":"unknown","postal_code":"916-0071","address":"福井県鯖江市持明寺町","next":[9942807,9942805,9942108,9942803,9942103,9942109,9942806],"voronoi":{"lat":35.9341,"lng":136.142495,"delta_lat":[0,7425,50225,3530,501,-36202,-25445],"delta_lng":[0,11214,3818,-948,-222,-23094,9206]}},
    {"code":9942813,"left":9942806,"right":9942805,"id":"10bb42","name":"織田","name_kana":"おた","closed":true,"lat":35.958557,"lng":136.058806,"prefecture":18,"lines":[99428],"attr":"unknown","postal_code":"916-0215","address":"福井県丹生郡越前町織田","next":[9942008,9942809,9942805,9960906,9942021,9942806,9942812,9942810,9960913,1142206,1142204],"voronoi":{"lat":36.072558,"lng":135.48516,"delta_lat":[0,72710,160220,-204495,-8353,-110960,-1639,-14953,-10400,-30470,71853],"delta_lng":[0,-36624,-45159,658739,8167,21535,-115,-9228,-11022,-448788,-70746]}},
    {"code":9942806,"left":9942812,"id":"19ea22","name":"佐々生","name_kana":"さそう","closed":true,"lat":35.954142,"lng":136.12125,"prefecture":18,"lines":[99428],"attr":"unknown","postal_code":"916-0144","address":"福井県丹生郡越前町佐々生４３−１１−１","next":[9942805,9942809,9942813,9942807,9942804],"voronoi":{"lat":35.953976,"lng":136.101776,"delta_lat":[0,26065,1639,-22101,-25445],"delta_lng":[0,-10073,115,41444,9206]}},
    {"code":9942812,"id":"7f1e2a","name":"矢倉(福井)","name_kana":"やくら","closed":true,"lat":35.949145,"lng":136.059445,"prefecture":18,"lines":[99428],"attr":"unknown","postal_code":"916-0223","address":"福井県丹生郡越前町下河原１２−２６","next":[9942810,9942811,1142219,1142206,9942813,1142220],"voronoi":{"lat":35.947158,"lng":136.067819,"delta_lat":[0,7530,-30470,-13740,-29897,-43679],"delta_lng":[0,3635,-448788,13240,72642,122214]}},
    {"code":9942805,"id":"9f06b3","name":"西田中","name_kana":"にしたなか","closed":true,"lat":35.972585,"lng":136.131085,"prefecture":18,"lines":[99428],"attr":"unknown","postal_code":"916-0146","address":"福井県丹生郡越前町朝日１丁目５０１","next":[9942112,9942023,9942813,9942806,9942804,9942008,9942022,9942125,9942007,9942109,9942111],"voronoi":{"lat":36.014269,"lng":136.153431,"delta_lat":[0,-18488,-36202,22101,110960,-6030,-8873,-4315,-24781,-7441,-14452],"delta_lng":[0,2926,-23094,-41444,-21535,10544,14335,6561,35617,4163,6983]}},
    {"code":9942107,"left":9942106,"right":1141520,"id":"105246","name":"水落","name_kana":"みずおち","lat":35.962308,"lng":136.183191,"prefecture":18,"lines":[99421],"attr":"eco","postal_code":"916-0022","address":"鯖江市水落町２-１０-２２","next":[1141520,9942803,9942108,9942106,9942105],"voronoi":{"lat":35.95501,"lng":136.174142,"delta_lat":[0,11409,2023,-8292,-5235],"delta_lng":[0,-392,16144,4992,-19560]}},
    {"code":9942106,"left":9942803,"id":"b4baf8","name":"西山公園","name_kana":"にしやまこうえん","lat":35.952437,"lng":136.185833,"prefecture":18,"lines":[99421],"attr":"eco","postal_code":"916-0024","address":"鯖江市長泉寺町１-８-３","next":[9942802,9942105,9942107,1141520],"voronoi":{"lat":35.960149,"lng":136.194887,"delta_lat":[0,-5235,-6250,8119],"delta_lng":[0,-19560,9669,14975]}},
    {"code":9942803,"id":"57ea27","name":"越前平井","name_kana":"えちぜんへいい","closed":true,"lat":35.96167,"lng":136.164614,"prefecture":18,"lines":[99428],"attr":"unknown","postal_code":"916-0061","address":"福井県鯖江市平井町２７−９−５","next":[9942107,9942103,9942104,9942105,9942804,9942108],"voronoi":{"lat":35.95501,"lng":136.174142,"delta_lat":[0,-11259,-662,-1563,50225,-25332],"delta_lng":[0,-9978,-1043,-9413,3818,16224]}},
    {"code":1141520,"id":"7dbede","name":"北鯖江","name_kana":"きたさばえ","lat":35.971496,"lng":136.198452,"prefecture":18,"lines":[11415],"attr":"cool","postal_code":"916-0038","address":"鯖江市下河端町","next":[9942125,9942108,9942107,1142104,1141519,9942110,9942802,1142105,1141521,9942106,9942109,1142106],"voronoi":{"lat":35.947397,"lng":136.223048,"delta_lat":[0,9386,3366,8292,5102,6909,5013,26,-12731,-10186,-23847,-8952],"delta_lng":[0,-23077,-5084,-4992,381,6357,19039,3765,27518,9109,14824,3816]}},
    {"code":9942112,"left":9942125,"right":9942113,"id":"4932f9","name":"ハーモニーホール","name_kana":"はーもにーほーる","lat":36.014187,"lng":136.205433,"prefecture":18,"lines":[99421],"attr":"cool","postal_code":"918-8152","address":"福井市今市町３７字板取１６","next":[9942805,9942022,9942126,9942111,1141521],"voronoi":{"lat":36.048493,"lng":136.146762,"delta_lat":[0,148,-7441,-33626,8291],"delta_lng":[0,-9422,4163,67899,2723]}},
    {"code":9942125,"left":9942110,"right":9942111,"id":"02bc19","name":"泰澄の里","name_kana":"たいちょうのさと","lat":35.999197,"lng":136.198261,"prefecture":18,"lines":[99421],"attr":"eco","postal_code":"918-8181","address":"福井県福井市浅水町139","open_date":"2011-03-20","next":[9942109,1141520,1141521,9942111,9942805,9942110],"voronoi":{"lat":35.985492,"lng":136.219436,"delta_lat":[0,11912,29345,-12479,-4541,-24263],"delta_lng":[0,-7405,-63545,4944,7497,54744]}},
    {"code":9942110,"left":9942109,"id":"9bd9cd","name":"三十八社","name_kana":"さんじゅうはっしゃ","lat":35.989143,"lng":136.193805,"prefecture":18,"lines":[99421],"attr":"eco","postal_code":"918-8173","address":"福井市下江尻町５-２７-４","next":[9942109,1141520,9942125],"voronoi":{"lat":36.009729,"lng":136.160928,"delta_lat":[0,-29276,5013],"delta_lng":[0,35705,19039]}},
    {"code":9942109,"id":"1d7964","name":"鳥羽中","name_kana":"とばなか","lat":35.981522,"lng":136.187556,"prefecture":18,"lines":[99421],"attr":"eco","postal_code":"916-0017","address":"鯖江市神明町５-２-２０","next":[9942125,9942110,9942108,1141520,9942804,9942805],"voronoi":{"lat":36.014269,"lng":136.153431,"delta_lat":[0,-4541,-29276,-6909,21737,501],"delta_lng":[0,7497,35705,-6357,-33697,-222]}},
    {"code":9942111,"id":"1af600","name":"浅水","name_kana":"あそうず","lat":36.006724,"lng":136.201737,"prefecture":18,"lines":[99421],"attr":"eco","postal_code":"918-8181","address":"福井市浅水町１０４庄境１５","next":[1141521,9942125,9942112,9942805],"voronoi":{"lat":36.041201,"lng":136.141504,"delta_lat":[0,-33626,-10171,29345],"delta_lng":[0,67899,2629,-63545]}},
    {"code":9942113,"left":9942126,"right":9942006,"id":"ce045b","name":"江端","name_kana":"えばた","lat":36.028391,"lng":136.212379,"prefecture":18,"lines":[99421],"attr":"cool","postal_code":"918-8016","address":"福井市江端町２１-４９-３","next":[9942114,1142103,9942126,1141521],"voronoi":{"lat":36.02083,"lng":136.22032,"delta_lat":[0,20251,-13691,-5257],"delta_lng":[0,-42565,48225,-42]}},
    {"code":9942126,"id":"22d8a0","name":"清明","name_kana":"せいめい","lat":36.022222,"lng":136.209444,"prefecture":18,"lines":[99421],"attr":"eco","postal_code":"918-8152","address":"福井県福井市今市町65","open_date":"2011-03-20","next":[9942115,1141521,9942112,9942114,9942117,9942113,9942022],"voronoi":{"lat":36.046576,"lng":136.163431,"delta_lat":[0,-197,-5298,-20251,-4965,32628,230],"delta_lng":[0,638,13685,42565,-8194,-65363,4564]}},
    {"code":9942006,"id":"068893","name":"福大前西福井","name_kana":"ふくだいまえにしふくい","lat":36.074218,"lng":136.210339,"prefecture":18,"lines":[99420],"attr":"heat","postal_code":"910-0017","address":"福井市文京４-３０２","next":[9942005,9942118,9942122,9942022,9942119,9942117],"voronoi":{"lat":36.053376,"lng":136.166226,"delta_lat":[0,27014,-8723,-4682,-2553,-7948],"delta_lng":[0,47079,830,-2972,-3778,-27460]}},
    {"code":9942116,"left":1142104,"right":9942120,"id":"04752a","name":"赤十字前","name_kana":"せきじゅうじまえ","lat":36.048683,"lng":136.216623,"prefecture":18,"lines":[99421],"attr":"cool","postal_code":"918-8005","address":"福井県福井市みのり1丁目","open_date":"1925-07-26","next":[9942117,1142103,1141523,9942115,1141522],"voronoi":{"lat":36.044068,"lng":136.219681,"delta_lat":[0,3015,6551,-6441,-860],"delta_lng":[0,-16318,20073,12497,-768]}},
    {"code":1142104,"left":1141522,"right":1142105,"id":"04b8d7","name":"足羽","name_kana":"あすわ","lat":36.020821,"lng":136.253607,"prefecture":18,"lines":[11421],"attr":"cool","postal_code":"910-2177","address":"福井市稲津町","next":[1142103,1141521,9941906,1141520,1142105,9941905],"voronoi":{"lat":36.050355,"lng":136.26766,"delta_lat":[0,-87781,10186,34303,43851,84],"delta_lng":[0,-11596,-9109,-9503,23012,2176]}},
    {"code":1141522,"left":1142103,"right":9942115,"id":"5632c4","name":"越前花堂","name_kana":"えちぜんはなんどう","lat":36.038771,"lng":136.218073,"prefecture":18,"lines":[11415,11421],"attr":"cool","postal_code":"918-8014","address":"福井市花堂中１丁目１番","next":[1142103,9942114,9942116,9942115],"voronoi":{"lat":36.037225,"lng":136.214768,"delta_lat":[0,-9328,18437,-2265],"delta_lng":[0,11320,9078,-15484]}},
    {"code":1142103,"left":1141521,"id":"ad4f2e","name":"六条","name_kana":"ろくじょう","lat":36.028175,"lng":136.239594,"prefecture":18,"lines":[11421],"attr":"cool","postal_code":"918-8136","address":"福井市天王町","next":[1141521,9942116,1142104,1141522,1141523,9941902,9942114,9941903,9942113,9941905,9941904],"voronoi":{"lat":36.051499,"lng":136.247953,"delta_lat":[0,-115,-3302,-888,-860,-18437,-506,-5257,-15070,43851,165],"delta_lng":[0,-777,-9370,-1872,-768,-9078,-108,-42,11514,23012,-732]}},
    {"code":1141521,"id":"06f60b","name":"大土呂","name_kana":"おおどろ","lat":36.010546,"lng":136.216519,"prefecture":18,"lines":[11415],"attr":"cool","postal_code":"919-0326","address":"福井市半田町","next":[1142103,1142104,9942126,9942111,1141520,9942125,9942112,9942113],"voronoi":{"lat":36.007064,"lng":136.237451,"delta_lat":[0,-34303,12731,11912,10171,8291,4965,1303],"delta_lng":[0,9503,-27518,-7405,-2629,2723,8194,5618]}},
    {"code":9942115,"id":"99bfaf","name":"花堂","name_kana":"はなんどう","lat":36.040851,"lng":136.215176,"prefecture":18,"lines":[99421],"attr":"cool","postal_code":"918-8012","address":"福井市花堂北１-１１-１１","next":[9942126,9942117,9942116,1141522,9942114],"voronoi":{"lat":36.044068,"lng":136.219681,"delta_lat":[0,3015,-507,-197,-9155],"delta_lng":[0,-16318,-39932,638,50698]}},
    {"code":1142105,"left":1142106,"right":1142107,"id":"9eedf6","name":"越前東郷","name_kana":"えちぜんとうごう","lat":36.018185,"lng":136.273561,"prefecture":18,"lines":[11421],"attr":"heat","postal_code":"910-2165","address":"福井市東郷二ケ町","next":[1142107,9941907,9941906,1142106,1141520,1142104,9941909],"voronoi":{"lat":36.050112,"lng":136.291941,"delta_lat":[0,-111384,23847,87781,2620,394,-597],"delta_lng":[0,-21054,-14824,11596,13979,7233,2682]}},
    {"code":1142106,"id":"032dfe","name":"一乗谷","name_kana":"いちじょうだに","lat":36.013679,"lng":136.2974,"prefecture":18,"lines":[11421],"attr":"heat","postal_code":"910-2151","address":"福井市安波賀中島町","next":[1141519,1142108,1141516,1142110,1142105,1142107,1141520],"voronoi":{"lat":35.892057,"lng":136.29914,"delta_lat":[0,-3366,79912,34403,47106,-111384,-8952],"delta_lng":[0,5880,17843,-6383,-24539,-21054,3816]}},
    {"code":1142107,"id":"ea1232","name":"越前高田","name_kana":"えちぜんたかだ","lat":36.024759,"lng":136.318669,"prefecture":18,"lines":[11421],"attr":"heat","postal_code":"910-2226","address":"福井市高田町","next":[1142105,9941913,1142108,9941914,9941910,9941909,1142106],"voronoi":{"lat":36.054062,"lng":136.337892,"delta_lat":[0,2550,4196,-3257,-4779,-2661,-47106],"delta_lng":[0,-6268,-15645,-13298,-11127,388,24539]}},
    {"code":9942120,"left":9942119,"right":9941902,"id":"1bde6a","name":"福井駅","name_kana":"ふくいえき","lat":36.061871,"lng":136.220625,"prefecture":18,"lines":[99421],"attr":"cool","postal_code":"910-0006","address":"福井市中央１-９-２８","open_date":"1933-10-15","next":[9942117,9942122,9942118,9942119,1141523],"voronoi":{"lat":36.066436,"lng":136.221783,"delta_lat":[0,-283,-6091,-4526,-1008],"delta_lng":[0,-820,-3290,3393,1483]}},
    {"code":9942119,"left":9942118,"right":9942122,"id":"34cd8a","name":"福井城址大名町","name_kana":"ふくいじょうしだいみょうまち","lat":36.063523,"lng":136.217566,"prefecture":18,"lines":[99421],"attr":"cool","postal_code":"910-0005","address":"福井市大手１-１１-９","next":[9942122,9942118,9942006,9942120],"voronoi":{"lat":36.060063,"lng":136.217673,"delta_lat":[0,4370,2553,-832],"delta_lng":[0,-10288,3778,9800]}},
    {"code":9942118,"left":9942117,"id":"34e686","name":"足羽山公園口","name_kana":"あすわやまこうえんぐち","lat":36.057737,"lng":136.215109,"prefecture":18,"lines":[99421],"attr":"cool","postal_code":"918-8003","address":"福井市毛矢町２-７-２","open_date":"1933-10-15","next":[9942120,9942006,9942117,9942119],"voronoi":{"lat":36.055537,"lng":136.221065,"delta_lat":[0,948,7948,-4370],"delta_lng":[0,-41141,27460,10288]}},
    {"code":9942117,"id":"b21e79","name":"商工会議所前","name_kana":"しょうこうかいぎしょまえ","lat":36.053613,"lng":136.215014,"prefecture":18,"lines":[99421],"attr":"cool","postal_code":"918-8004","address":"福井市西木田２-４-５","open_date":"1933-10-15","next":[9942116,9942120,9942115,9942118,1141523,9942126,9942006,9942022],"voronoi":{"lat":36.048724,"lng":136.151327,"delta_lat":[0,-2147,507,6551,894,1008,948,-3108],"delta_lng":[0,12105,39932,20073,-888,-1483,-41141,-13699]}},
    {"code":9942122,"id":"4e3ead","name":"仁愛女子高校","name_kana":"じんあいじょしこうこう","lat":36.069319,"lng":136.218058,"prefecture":18,"lines":[99421],"attr":"cool","postal_code":"910-0019","address":"福井県福井市春山一丁目","open_date":"1950-11-27","next":[9942119,9942120,9942004,9942006,9942005,9941902,1141523],"voronoi":{"lat":36.069565,"lng":136.223744,"delta_lat":[0,2838,-735,-4682,-832,283,373],"delta_lng":[0,-3568,-6041,-2972,9800,820,497]}},
    {"code":9941902,"left":1141523,"right":9941903,"id":"caa636","name":"新福井","name_kana":"しんふくい","lat":36.064714,"lng":136.226721,"prefecture":18,"lines":[99419,99420],"attr":"cool","postal_code":"910-0859","address":"福井市日之出１-２５０２","next":[1142103,9942004,9941903,9942122,1141523],"voronoi":{"lat":36.051383,"lng":136.247176,"delta_lat":[0,19458,-1277,-2755,-18728],"delta_lng":[0,-20112,-3320,-1464,15526]}},
    {"code":1141523,"id":"7960cf","name":"福井(福井)","name_kana":"ふくい","lat":36.062057,"lng":136.223516,"prefecture":18,"lines":[11415,11421,99419,99420],"attr":"cool","postal_code":"910-0006","address":"福井市中央１丁目","next":[9942116,1142103,9942117,9942122,9942120,9941902],"voronoi":{"lat":36.06681,"lng":136.22228,"delta_lat":[0,-373,-11908,-894,-6441,888],"delta_lng":[0,-497,766,888,12497,1872]}},
    {"code":9941903,"id":"e7a131","name":"福井口","name_kana":"ふくいぐち","lat":36.071386,"lng":136.233176,"prefecture":18,"lines":[99419,99420],"attr":"cool","postal_code":"910-0003","address":"福井市松本上町８字１３-１","next":[9942024,9941904,9942004,1142103,9941902],"voronoi":{"lat":36.070841,"lng":136.227064,"delta_lat":[0,462,5978,-25783,-115],"delta_lng":[0,167,8078,12644,-777]}},
    {"code":1141524,"left":9942013,"right":9941910,"id":"6fa2cc","name":"森田","name_kana":"もりた","lat":36.109381,"lng":136.222516,"prefecture":18,"lines":[11415],"attr":"heat","postal_code":"910-0151","address":"福井市栄町","next":[9942009,9942007,9942024,9942008,9941907,9941905,1141525,9941906],"voronoi":{"lat":36.108709,"lng":136.250829,"delta_lat":[0,-13157,-3094,5328,13009,10742,-10529,-77],"delta_lng":[0,-13244,-15359,-5230,-6003,6806,34601,-38]}},
    {"code":9942013,"left":9942023,"right":9942017,"id":"b72e0e","name":"下兵庫こうふく","name_kana":"しもひょうごこうふく","lat":36.170129,"lng":136.202507,"prefecture":18,"lines":[99420],"attr":"heat","postal_code":"919-0527","address":"坂井市坂井町下兵庫８７字５-３","next":[9942012,9942011,9942014,9942020,1141526,9942019],"voronoi":{"lat":36.148176,"lng":136.135823,"delta_lat":[0,-1921,1236,17549,12055,3732],"delta_lng":[0,-1703,10471,73092,2930,-52011]}},
    {"code":9942023,"left":9942009,"right":9942011,"id":"10b412","name":"八ツ島","name_kana":"やつしま","lat":36.086407,"lng":136.205943,"prefecture":18,"lines":[99420],"attr":"heat","postal_code":"910-0065","address":"福井市八ツ島町５-２０","next":[9942805,9942022,9942005,9942007,9942004],"voronoi":{"lat":36.077737,"lng":136.095163,"delta_lat":[0,-4315,11179,3694,2806],"delta_lng":[0,6561,113921,3719,1883]}},
    {"code":9942009,"left":9942007,"right":9942010,"id":"832de9","name":"鷲塚針原","name_kana":"わしづかはりばら","lat":36.12061,"lng":136.204793,"prefecture":18,"lines":[99420],"attr":"heat","postal_code":"910-0102","address":"福井市川合鷲塚町３３字４６","next":[9942021,1141525,9942020,1141524,9942010,9942008],"voronoi":{"lat":36.112124,"lng":136.082666,"delta_lat":[0,21644,84,-8902,-3414,-10742],"delta_lng":[0,33315,147,100462,1209,-6806]}},
    {"code":9942007,"left":9942008,"id":"47062a","name":"新田塚","name_kana":"にったづか","lat":36.092483,"lng":136.205299,"prefecture":18,"lines":[99420],"attr":"heat","postal_code":"910-0067","address":"福井市新田塚２-６００１","next":[9942024,1141524,9942008,9942023,9942004,9942805],"voronoi":{"lat":36.091101,"lng":136.221247,"delta_lat":[0,270,1086,5328,-11175,-8873],"delta_lng":[0,270,709,-5230,-136168,14335]}},
    {"code":9942008,"id":"0660ba","name":"中角","name_kana":"なかつの","lat":36.10111,"lng":136.204591,"prefecture":18,"lines":[99420],"attr":"heat","postal_code":"910-0103","address":"福井市中角町５２字１３９","next":[9942021,9942813,9942805,9942007,1141524,9942009],"voronoi":{"lat":36.097785,"lng":136.216996,"delta_lat":[0,-11175,6030,8353,11131,-1330],"delta_lng":[0,-136168,-10544,-8167,20549,128327]}},
    {"code":9942010,"id":"bdfdfb","name":"太郎丸エンゼルランド","name_kana":"たろうまるえんぜるらんど","lat":36.131298,"lng":136.20574,"prefecture":18,"lines":[99420],"attr":"heat","postal_code":"919-0474","address":"坂井市春江町西太郎丸５字４０-２","next":[1141525,9942011,9942020,9942009],"voronoi":{"lat":36.134456,"lng":136.217548,"delta_lat":[0,5381,-5984,-8902],"delta_lng":[0,-92281,-9139,100462]}},
    {"code":9942011,"left":9942022,"right":9942012,"id":"075c2a","name":"西春江ハートピア","name_kana":"にしはるえはーとぴあ","lat":36.138964,"lng":136.206187,"prefecture":18,"lines":[99420],"attr":"heat","postal_code":"919-0473","address":"坂井市春江町本堂２字６５-２","next":[9942020,9942013,9942010,9942012,1141525],"voronoi":{"lat":36.134456,"lng":136.217548,"delta_lat":[0,5381,6418,1236,-1519],"delta_lng":[0,-92281,8854,10471,78099]}},
    {"code":9942022,"id":"1fa3f3","name":"日華化学前","name_kana":"にっかかがくまえ","lat":36.080945,"lng":136.206479,"prefecture":18,"lines":[99420],"attr":"heat","postal_code":"910-0065","address":"福井市八ツ島町３０-９","next":[9942112,9942023,9942006,9942805,9942005,9942117,9942126],"voronoi":{"lat":36.053376,"lng":136.166226,"delta_lat":[0,27014,4211,-11179,-24781,-148,230],"delta_lng":[0,47079,2340,-113921,35617,9422,4564]}},
    {"code":9942012,"id":"bc5bbb","name":"西長田ゆりの里","name_kana":"にしながたゆりのさと","lat":36.153615,"lng":136.206472,"prefecture":18,"lines":[99420],"attr":"heat","postal_code":"919-0404","address":"坂井市春江町西長田２０字１１-２","next":[9942013,1141525,1141526,9942011],"voronoi":{"lat":36.14749,"lng":136.144591,"delta_lat":[0,17549,-18153,-915],"delta_lng":[0,73092,6031,-1024]}},
    {"code":9942017,"left":9942018,"right":9942015,"id":"f80d98","name":"あわら湯のまち","name_kana":"あわらゆのまち","lat":36.223159,"lng":136.193695,"prefecture":18,"lines":[99420],"attr":"cool","postal_code":"910-4103","address":"あわら市二面３３字１-１","next":[9942021,9942016,9942018,1141527,1141528,1141529,1141530],"voronoi":{"lat":36.413954,"lng":136.156498,"delta_lat":[0,-73931,-132361,25585,15487,110622,10862],"delta_lng":[0,3990,24901,31992,3225,-31629,-4478]}},
    {"code":9942018,"left":9942019,"right":9942021,"id":"23791e","name":"水居","name_kana":"みずい","lat":36.219081,"lng":136.172019,"prefecture":18,"lines":[99420],"attr":"cool","postal_code":"913-0011","address":"坂井市三国町水居２２字５２-１","next":[9942019,9942014,9942021,9942020,9942017,9942015,9942016],"voronoi":{"lat":36.340022,"lng":136.160487,"delta_lat":[0,-84535,-19523,-46984,5775,12640,266],"delta_lng":[0,-3128,1803,14476,5929,5762,59]}},
    {"code":9942019,"left":9942020,"id":"b82cc6","name":"三国神社","name_kana":"みくにじんじゃ","lat":36.214773,"lng":136.158037,"prefecture":18,"lines":[99420],"attr":"cool","postal_code":"913-0054","address":"坂井市三国町滝谷７字１-１","next":[9942018,9942020,9942014,9942013],"voronoi":{"lat":36.148176,"lng":136.135823,"delta_lat":[0,87789,-46984,-8154],"delta_lng":[0,23339,14476,-5036]}},
    {"code":9942020,"id":"a92986","name":"三国(福井)","name_kana":"みくに","lat":36.217012,"lng":136.149615,"prefecture":18,"lines":[99420],"attr":"cool","postal_code":"913-0054","address":"坂井市三国町滝谷２３字１-１０","next":[9942021,9942011,9942018,9942009,9942013,9942019,9942010],"voronoi":{"lat":36.133852,"lng":136.116127,"delta_lat":[0,-84,121719,-19523,-87789,-1921,-6418],"delta_lng":[0,-147,41379,1803,-23339,-1703,-8854]}},
    {"code":9942021,"id":"080e30","name":"三国港","name_kana":"みくにみなと","lat":36.220264,"lng":136.140049,"prefecture":18,"lines":[99420],"attr":"cool","postal_code":"913-0056","address":"坂井市三国町宿２３字","next":[9942008,9942017,9942020,9942009,9942018,9942813,1161606,9960913,1141536,1141537,1161609,9941804,9941807,1141530],"voronoi":{"lat":36.741614,"lng":136.005896,"delta_lat":[0,20286,798454,550157,133437,-221375,-452333,-1264751,-204495,11131,21644,121719,84535,73931],"delta_lng":[0,-14709,-610642,-685612,-175885,80432,176406,627492,658739,20549,33315,41379,3128,-3990]}},
    {"code":9942015,"left":9942014,"right":9942016,"id":"a5352d","name":"本荘","name_kana":"ほんじょう","lat":36.205011,"lng":136.202881,"prefecture":18,"lines":[99420],"attr":"heat","postal_code":"910-4137","address":"あわら市中番１５字１","next":[1141527,9942018,9942016,9942014],"voronoi":{"lat":36.194756,"lng":136.179567,"delta_lat":[0,12640,2507,-13254],"delta_lng":[0,5762,33608,3925]}},
    {"code":9942014,"id":"330c19","name":"大関","name_kana":"おおぜき","lat":36.186574,"lng":136.203687,"prefecture":18,"lines":[99420],"attr":"heat","postal_code":"919-0547","address":"坂井市坂井町大味４７字９-２","next":[9942018,1141527,9942013,1141526,9942015,9942019],"voronoi":{"lat":36.194756,"lng":136.179567,"delta_lat":[0,1893,-7949,-11605,3732,8154],"delta_lng":[0,43295,7084,-9333,-52011,5036]}},
    {"code":9942016,"id":"1acb13","name":"番田(福井)","name_kana":"ばんでん","lat":36.212358,"lng":136.202333,"prefecture":18,"lines":[99420],"attr":"cool","postal_code":"910-4123","address":"あわら市番田３４字４８-３","next":[1141527,9942017,9942015,9942018],"voronoi":{"lat":36.233246,"lng":136.21738,"delta_lat":[0,-23344,-2507,266],"delta_lng":[0,1557,-33608,59]}},
    {"code":9941910,"left":9941906,"right":1141529,"id":"c90146","name":"松岡","name_kana":"まつおか","lat":36.09402,"lng":136.301703,"prefecture":18,"lines":[99419],"attr":"eco","postal_code":"910-1117","address":"吉田郡永平寺町松岡神明１-９８-１","next":[9941913,1141526,9941911,1142107,9941912,9941909],"voronoi":{"lat":36.060808,"lng":136.315978,"delta_lat":[0,4437,7131,74114,-425,-88514],"delta_lng":[0,428,-520,-30001,-427,17222]}},
    {"code":9941906,"left":9942024,"right":9941908,"id":"ea94ea","name":"追分口","name_kana":"おいわけぐち","lat":36.082478,"lng":136.261507,"prefecture":18,"lines":[99419],"attr":"eco","postal_code":"910-0826","address":"福井市上中町１３字１-４","next":[1142104,9941905,1142105,1141524,9941907],"voronoi":{"lat":36.11093,"lng":136.252362,"delta_lat":[0,-2222,-57710,-643,2620],"delta_lng":[0,-1533,11811,5020,13979]}},
    {"code":9942024,"left":9941904,"right":9941905,"id":"9ab6ae","name":"まつもと町屋","name_kana":"まつもとまちや","lat":36.07696597,"lng":136.2290465,"prefecture":18,"lines":[99420],"attr":"eco","postal_code":"910-0002","address":"福井県福井市町屋二丁目3番","open_date":"2015-09-27","next":[9941903,9942007,9941905,9941904,1141524,9942004],"voronoi":{"lat":36.077282,"lng":136.235308,"delta_lat":[0,17828,442,-3094,-1086,-20068],"delta_lng":[0,2344,-68,-15359,-709,5714]}},
    {"code":9941904,"left":9942004,"id":"2386b1","name":"越前開発","name_kana":"えちぜんかいほつ","lat":36.075358,"lng":136.241275,"prefecture":18,"lines":[99419],"attr":"cool","postal_code":"910-0841","address":"福井市開発町７２字１１-１","next":[9941905,9942024,9941903,1142103],"voronoi":{"lat":36.051499,"lng":136.247953,"delta_lat":[0,25783,17828,-44030],"delta_lng":[0,-12644,2344,22079]}},
    {"code":9942004,"id":"9b1cdf","name":"西別院","name_kana":"にしべついん","lat":36.07516,"lng":136.222704,"prefecture":18,"lines":[99420],"attr":"heat","postal_code":"910-0003","address":"福井市松本３-２４０３","next":[9942122,9941902,9942005,9941903,9942007,9942024,9942023],"voronoi":{"lat":36.088295,"lng":136.219364,"delta_lat":[0,-15893,-2838,1277,462,20068,-270],"delta_lng":[0,812,3568,3320,167,-5714,-270]}},
    {"code":9941905,"id":"8aec2e","name":"越前新保","name_kana":"えちぜんしんぼ","lat":36.080392,"lng":136.251314,"prefecture":18,"lines":[99419],"attr":"cool","postal_code":"910-0833","address":"福井市新保２-６０８","next":[9941904,9942024,9941906,1141524,1142104,1142103],"voronoi":{"lat":36.050998,"lng":136.262639,"delta_lat":[0,57710,-13157,-442,-44030,-165],"delta_lng":[0,-11811,-13244,68,22079,732]}},
    {"code":9941908,"left":9941907,"right":9941909,"id":"46ddd7","name":"越前島橋","name_kana":"えちぜんしまばし","lat":36.089967,"lng":136.277123,"prefecture":18,"lines":[99419],"attr":"eco","postal_code":"910-0816","address":"福井市中ノ郷町九字２３-４","next":[9941909,1141526,1141525,9941907],"voronoi":{"lat":36.118382,"lng":136.259946,"delta_lat":[0,20624,220,-84099],"delta_lng":[0,16554,365,11566]}},
    {"code":9941907,"id":"000fad","name":"東藤島","name_kana":"ひがしふじしま","lat":36.086686,"lng":136.269837,"prefecture":18,"lines":[99419],"attr":"eco","postal_code":"910-0827","address":"福井市藤島町４８字４-２","next":[1141525,1142105,9941909,1141524,9941906,9941908],"voronoi":{"lat":36.053369,"lng":136.288872,"delta_lat":[0,-394,57955,77,7374,-63255],"delta_lng":[0,-7233,-29277,38,7546,28485]}},
    {"code":9941909,"id":"eb6d3e","name":"観音町(福井)","name_kana":"かんのんまち","lat":36.091726,"lng":136.289913,"prefecture":18,"lines":[99419],"attr":"eco","postal_code":"910-1134","address":"吉田郡永平寺町松岡芝原３-７","next":[9941908,9941907,1142107,1142105,1141526,9941910],"voronoi":{"lat":36.146066,"lng":136.285458,"delta_lat":[0,-6840,-84099,-1757,-597,4779],"delta_lng":[0,-8594,11566,441,2682,11127]}},
    {"code":1141529,"left":1141527,"right":9941911,"id":"2d112a","name":"牛ノ谷","name_kana":"うしのや","lat":36.259409,"lng":136.281618,"prefecture":18,"lines":[11415],"attr":"eco","postal_code":"919-0721","address":"あわら市牛ノ谷","next":[1141528,9941915,9941911,9942017,1141531,9941912,1141530],"voronoi":{"lat":36.370217,"lng":136.184498,"delta_lat":[0,-10862,-176614,1938,11488,9188,375],"delta_lng":[0,4478,130107,10650,41604,19952,-334]}},
    {"code":1141527,"left":1141526,"right":1141528,"id":"b8c2ec","name":"芦原温泉","name_kana":"あわらおんせん","lat":36.214542,"lng":136.235069,"prefecture":18,"lines":[11415],"attr":"eco","postal_code":"919-0600","address":"あわら市春宮１丁目","next":[9942016,9942014,1141528,9942015,9942017,1141526],"voronoi":{"lat":36.248733,"lng":136.220606,"delta_lat":[0,-15487,-23344,-13254,-7949,-2001],"delta_lng":[0,-3225,1557,3925,7084,66316]}},
    {"code":1141526,"left":1141525,"id":"797679","name":"丸岡","name_kana":"まるおか","lat":36.162595,"lng":136.233502,"prefecture":18,"lines":[11415],"attr":"eco","postal_code":"919-0522","address":"坂井市坂井町上新庄","next":[9941911,9941908,9941910,9942012,1141527,9942014,1141528,9941909,1141525,9942013],"voronoi":{"lat":36.16504,"lng":136.217683,"delta_lat":[0,-18153,-7881,220,6840,425,34660,5548,2001,-11605],"delta_lng":[0,6031,52785,365,8594,427,28974,-18597,-66316,-9333]}},
    {"code":1141525,"id":"8053aa","name":"春江","name_kana":"はるえ","lat":36.129004,"lng":136.228487,"prefecture":18,"lines":[11415],"attr":"heat","postal_code":"919-0449","address":"坂井市春江町中筋","next":[9941907,9942010,9942012,9941908,9942009,1141526,9942011,1141524],"voronoi":{"lat":36.118382,"lng":136.259946,"delta_lat":[0,20624,7881,-915,-11516,-9505,-3414,-10529],"delta_lng":[0,16554,-52785,-1024,-5143,-958,1209,34601]}},
    {"code":1141528,"id":"d30de0","name":"細呂木","name_kana":"ほそろぎ","lat":36.24125,"lng":136.256968,"prefecture":18,"lines":[11415],"attr":"eco","postal_code":"919-0805","address":"あわら市滝","next":[1141529,1141527,9941911,9942017,1141526],"voronoi":{"lat":36.186699,"lng":136.296262,"delta_lat":[0,62035,110622,-176614,-1591],"delta_lng":[0,-75657,-31629,130107,-4224]}},
    {"code":9941911,"left":9941912,"right":1141530,"id":"a1d1ea","name":"志比堺","name_kana":"しいざかい","lat":36.097792,"lng":136.311021,"prefecture":18,"lines":[99419],"attr":"eco","postal_code":"910-1111","address":"吉田郡永平寺町松岡志比堺１２字３２-５","next":[1141526,9941910,1141529,1141528,9941912],"voronoi":{"lat":36.072377,"lng":136.315887,"delta_lat":[0,74114,34660,1591,1938],"delta_lng":[0,-30001,28974,4224,10650]}},
    {"code":9941912,"id":"896659","name":"永平寺口","name_kana":"えいへいじぐち","lat":36.095849,"lng":136.32678,"prefecture":18,"lines":[99419],"attr":"eco","postal_code":"910-1212","address":"吉田郡永平寺町東古市１字２３-４","next":[9941914,9941913,9941915,1141529,9941910,9941911],"voronoi":{"lat":36.072377,"lng":136.315887,"delta_lat":[0,-7131,64304,17743,48875,-11488],"delta_lng":[0,520,34787,7360,12784,-41604]}},
    {"code":1141530,"id":"c91745","name":"大聖寺","name_kana":"だいしょうじ","lat":36.300311,"lng":136.314205,"prefecture":17,"lines":[11415],"attr":"cool","postal_code":"922-0842","address":"加賀市熊坂町","next":[1141536,9942017,1141529,1141531,9942021],"voronoi":{"lat":36.741614,"lng":136.005896,"delta_lat":[0,-175637,-360246,164487,43736],"delta_lng":[0,183152,201908,-206457,-28001]}},
    {"code":9941612,"left":1141536,"right":9941711,"id":"0012d4","name":"道法寺","name_kana":"どうほうじ","lat":36.484315,"lng":136.613535,"prefecture":17,"lines":[99416],"attr":"heat","postal_code":"920-2162","address":"白山市道法寺町","next":[9941616,9941615,9941613,1141540,9941611],"voronoi":{"lat":36.492613,"lng":136.578319,"delta_lat":[0,-6179,-9904,812,3231],"delta_lng":[0,-5534,64787,9532,10097]}},
    {"code":1141536,"left":9941917,"right":9941923,"id":"0d3017","name":"能美根上","name_kana":"のみねあがり","lat":36.452053,"lng":136.459721,"prefecture":17,"lines":[11415],"attr":"heat","postal_code":"929-0113","address":"能美市大成町","next":[1141534,1141530,9942021,1141537,1141535,1141531],"voronoi":{"lat":36.432877,"lng":136.415684,"delta_lat":[0,10730,318293,-20286,-175637,-122147],"delta_lng":[0,84597,-509094,14709,183152,146834]}},
    {"code":9941917,"left":9941918,"right":9941916,"id":"39ce6c","name":"山王(福井)","name_kana":"さんのう","lat":36.079143,"lng":136.39243,"prefecture":18,"lines":[99419],"attr":"eco","postal_code":"910-1321","address":"吉田郡永平寺町山王２１字１５-３","next":[9941916,9941918,1142109,9941919,1141532,1142111],"voronoi":{"lat":36.043212,"lng":136.379262,"delta_lat":[0,2136,159442,373,-65754,-97802],"delta_lng":[0,-3194,38316,9881,-5671,-24687]}},
    {"code":9941918,"left":1142111,"right":9941920,"id":"19a3f9","name":"越前竹原","name_kana":"えちぜんたけはら","lat":36.073945,"lng":136.413023,"prefecture":18,"lines":[99419],"attr":"eco","postal_code":"910-1305","address":"吉田郡永平寺町竹原２字８-１","next":[1142112,9941917,1142111,9941919,1142113],"voronoi":{"lat":36.139409,"lng":136.418595,"delta_lat":[0,-97802,-4278,-982,151],"delta_lng":[0,-24687,10240,21787,529]}},
    {"code":1142111,"left":1142112,"right":1142109,"id":"ac6de3","name":"越前薬師","name_kana":"えちぜんやくし","lat":36.005283,"lng":136.384336,"prefecture":18,"lines":[11421],"attr":"cool","postal_code":"910-2339","address":"福井市薬師町","next":[1142110,1142112,9941918,9941917,1142109],"voronoi":{"lat":36.016546,"lng":136.369609,"delta_lat":[0,-54562,75345,4278,1605],"delta_lng":[0,19031,15507,-10240,-14645]}},
    {"code":1142112,"left":1142110,"id":"63cc3c","name":"越前大宮","name_kana":"えちぜんおおみや","lat":36.000064,"lng":136.409694,"prefecture":18,"lines":[11421],"attr":"cool","postal_code":"910-2334","address":"福井市大宮町","next":[9941918,1142111,1141514,1142110,1142113],"voronoi":{"lat":35.795972,"lng":136.402206,"delta_lat":[0,7645,158368,75345,-982],"delta_lng":[0,-8252,-5314,15507,21787]}},
    {"code":1142110,"id":"e59aaa","name":"美山","name_kana":"みやま","lat":35.998567,"lng":136.365082,"prefecture":18,"lines":[11421],"attr":"heat","postal_code":"910-2347","address":"福井市境寺町","next":[1142109,1142111,1142108,1142106,1142112,1141516,1141514],"voronoi":{"lat":35.819952,"lng":136.371726,"delta_lat":[0,68738,79912,24086,23858,-54562,-158368],"delta_lng":[0,-66705,17843,14782,31964,19031,5314]}},
    {"code":1142109,"id":"3d8812","name":"小和清水","name_kana":"こわしょうず","lat":36.01732,"lng":136.351085,"prefecture":18,"lines":[11421],"attr":"heat","postal_code":"910-2212","address":"福井市小和清水町","next":[1142110,9941917,9941914,9941916,9941915,1142108,1142111],"voronoi":{"lat":36.045348,"lng":136.376069,"delta_lat":[0,6116,1579,-421,-59934,23858,26666],"delta_lng":[0,-15565,-11000,-4612,-7246,31964,9653]}},
    {"code":9941920,"left":1142113,"right":9941919,"id":"66d6d4","name":"保田(福井)","name_kana":"ほた","lat":36.069838,"lng":136.451611,"prefecture":18,"lines":[99419],"attr":"eco","postal_code":"911-0848","address":"勝山市鹿谷町保田６２字８-１","next":[1142114,9941922,9941919,9941921,1142113,9941923],"voronoi":{"lat":36.04196,"lng":136.464484,"delta_lat":[0,60317,-65736,-4423,2739,5596],"delta_lng":[0,-12022,-21398,18973,12403,1864]}},
    {"code":1142113,"id":"349a61","name":"計石","name_kana":"はかりいし","lat":35.997589,"lng":136.434767,"prefecture":18,"lines":[11421],"attr":"cool","postal_code":"910-2331","address":"福井市計石町","next":[1142114,9941919,1142116,9941918,1141514,1142112,9941920],"voronoi":{"lat":35.934576,"lng":136.452964,"delta_lat":[0,-154529,15925,240376,151,42,-4423],"delta_lng":[0,-35566,-15192,23728,529,4600,18973]}},
    {"code":9941919,"id":"8adf93","name":"小舟渡","name_kana":"こぶなと","lat":36.075553,"lng":136.434054,"prefecture":18,"lines":[99419],"attr":"eco","postal_code":"910-1303","address":"吉田郡永平寺町藤巻６４字１-２９","next":[9941920,1142113,1141532,9941917,9941918,9941921],"voronoi":{"lat":36.205164,"lng":136.424266,"delta_lat":[0,-65754,-102911,42,65736,110631],"delta_lng":[0,-5671,7869,4600,21398,10178]}},
    {"code":9941916,"left":9941913,"right":1141533,"id":"9ab4ea","name":"越前野中","name_kana":"えちぜんのなか","lat":36.082887,"lng":136.37685,"prefecture":18,"lines":[99419],"attr":"eco","postal_code":"910-1324","address":"吉田郡永平寺町野中１字１２-４","next":[9941917,9941915,1142109,1141532],"voronoi":{"lat":36.205168,"lng":136.399399,"delta_lat":[0,-153703,-6116,159442],"delta_lng":[0,-38896,15565,38316]}},
    {"code":9941913,"left":9941915,"right":1141531,"id":"1e349d","name":"下志比","name_kana":"しもしい","lat":36.090674,"lng":136.336346,"prefecture":18,"lines":[99419],"attr":"eco","postal_code":"910-1214","address":"吉田郡永平寺町谷口１２字４１-２","next":[9941910,1142107,9941912,9941914],"voronoi":{"lat":36.056613,"lng":136.331623,"delta_lat":[0,4196,4437,64304],"delta_lng":[0,-15645,428,34787]}},
    {"code":9941915,"left":9941914,"id":"039ef1","name":"轟","name_kana":"どめき","lat":36.08688,"lng":136.361071,"prefecture":18,"lines":[99419],"attr":"eco","postal_code":"910-1218","address":"吉田郡永平寺町轟１０字３-４","next":[9941914,9941916,1141529,1141531,1141532,9941912,1142109],"voronoi":{"lat":36.053044,"lng":136.349503,"delta_lat":[0,94249,48875,9188,185,-373,-153703],"delta_lng":[0,9050,12784,19952,4016,4094,-38896]}},
    {"code":9941914,"id":"46e652","name":"光明寺","name_kana":"こうみょうじ","lat":36.088463,"lng":136.344586,"prefecture":18,"lines":[99419],"attr":"eco","postal_code":"910-1216","address":"吉田郡永平寺町光明寺１３字４０-２","next":[9941915,9941912,1142107,1142109,1142108,9941913],"voronoi":{"lat":36.056613,"lng":136.331623,"delta_lat":[0,-2550,-1440,421,94249,-17743],"delta_lng":[0,6268,7000,4612,9050,-7360]}},
    {"code":1141531,"id":"936e84","name":"加賀温泉","name_kana":"かがおんせん","lat":36.320562,"lng":136.350337,"prefecture":17,"lines":[11415],"attr":"cool","postal_code":"922-0423","address":"加賀市作見町","next":[9941915,1141534,1141529,1141532,1141536,1141530],"voronoi":{"lat":36.205356,"lng":136.39129,"delta_lat":[0,185,234554,3735,122147,-360246],"delta_lng":[0,4016,-56440,-2984,-146834,201908]}},
    {"code":1141533,"left":1141532,"right":1141534,"id":"bc73b2","name":"粟津(石川)","name_kana":"あわづ","lat":36.35575,"lng":136.424544,"prefecture":17,"lines":[11415],"attr":"cool","postal_code":"923-0302","address":"小松市符津町","next":[1141532,9941921,1141534,9941616,9941922],"voronoi":{"lat":36.295485,"lng":136.576673,"delta_lat":[0,143559,-219166,7100,14233],"delta_lng":[0,-236693,144231,48860,69865]}},
    {"code":1141532,"id":"6519f4","name":"動橋","name_kana":"いぶりはし","lat":36.328428,"lng":136.383027,"prefecture":17,"lines":[11415],"attr":"cool","postal_code":"922-0331","address":"加賀市動橋町","next":[1141533,1141534,9941919,9941921,9941915,9941917,1141531,9941916],"voronoi":{"lat":36.205168,"lng":136.399399,"delta_lat":[0,373,234554,-1050,-219166,-6971,-7744,-373],"delta_lng":[0,-4094,-56440,1115,144231,-21572,-38374,-9881]}},
    {"code":1141534,"id":"173dd5","name":"小松","name_kana":"こまつ","lat":36.402545,"lng":136.452926,"prefecture":17,"lines":[11415],"attr":"cool","postal_code":"923-0921","address":"小松市土居原町","next":[1141536,1141532,1141535,1141531,1141533,9941616],"voronoi":{"lat":36.439044,"lng":136.33998,"delta_lat":[0,1050,3735,-10953,-62310,-75081],"delta_lng":[0,-1115,-2984,79802,139184,21806]}},
    {"code":9941923,"left":1142118,"right":9941614,"id":"3c91a5","name":"勝山","name_kana":"かつやま","lat":36.056362,"lng":136.492079,"prefecture":18,"lines":[99419],"attr":"eco","postal_code":"911-0831","address":"勝山市遅羽町比島３４字","next":[9941616,1142117,1142115,9941922,1142114,1142121,1142118,9941920],"voronoi":{"lat":36.218288,"lng":136.666059,"delta_lat":[0,-13778,-103029,-72788,-3398,2699,6863,5596],"delta_lng":[0,41397,-87123,-96937,-6767,-38151,-16039,1864]}},
    {"code":1142118,"left":1142115,"right":1142120,"id":"a0d863","name":"越前富田","name_kana":"えちぜんとみだ","lat":35.9909,"lng":136.541233,"prefecture":18,"lines":[11421],"attr":"eco","postal_code":"912-0813","address":"大野市上野","next":[1142120,1142119,1142121,1142117,9941923],"voronoi":{"lat":36.028692,"lng":136.523396,"delta_lat":[0,-59209,36152,45480,50365],"delta_lng":[0,15894,31700,28278,21065]}},
    {"code":1142115,"left":1142117,"right":1142114,"id":"4a3c93","name":"北大野","name_kana":"きたおおの","lat":35.997992,"lng":136.48795,"prefecture":18,"lines":[11421],"attr":"eco","postal_code":"912-0021","address":"大野市中野","next":[1142117,1142116,1142114,9941923],"voronoi":{"lat":36.027993,"lng":136.478479,"delta_lat":[0,-46604,19856,24049],"delta_lng":[0,-1300,32691,6760]}},
    {"code":1142117,"left":1142116,"id":"88708c","name":"越前田野","name_kana":"えちぜんたの","lat":35.987048,"lng":136.526884,"prefecture":18,"lines":[11421],"attr":"eco","postal_code":"912-0827","address":"大野市田野","next":[1142115,9941923,1142116,1142118,1142119],"voronoi":{"lat":35.919556,"lng":136.520089,"delta_lat":[0,81689,24049,3398,-59209],"delta_lng":[0,-10220,6760,6767,15894]}},
    {"code":1142116,"id":"b59385","name":"越前大野","name_kana":"えちぜんおおの","lat":35.983294,"lng":136.496877,"prefecture":18,"lines":[11421],"attr":"eco","postal_code":"912-0052","address":"大野市弥生町","next":[1142115,9952619,1141514,1142113,1142122,1142117,1142119,1142114],"voronoi":{"lat":36.001245,"lng":136.50987,"delta_lat":[0,-81689,-99215,-33622,-21423,14750,154529,46814],"delta_lng":[0,10220,-14221,-15339,-62706,-10425,35566,24214]}},
    {"code":1142114,"id":"9b015b","name":"牛ヶ原","name_kana":"うしがはら","lat":35.998567,"lng":136.467349,"prefecture":18,"lines":[11421],"attr":"eco","postal_code":"912-0091","address":"福井県大野市牛ケ原53下正角1-5","next":[9941920,1142113,1142115,1142116,9941923],"voronoi":{"lat":35.98139,"lng":136.477178,"delta_lat":[0,-46814,97542,2739,-6863],"delta_lng":[0,-24214,-2928,12403,16039]}},
    {"code":1142120,"left":1142121,"right":1142119,"id":"016a3b","name":"柿ヶ島","name_kana":"かきがしま","lat":35.97243,"lng":136.570938,"prefecture":18,"lines":[11421],"attr":"eco","postal_code":"912-0147","address":"福井県大野市柿ケ嶋35中々川原32-2","next":[1142118,1142122,1142119,1142121],"voronoi":{"lat":35.909312,"lng":136.572664,"delta_lat":[0,-27344,123667,45480],"delta_lng":[0,-22285,20612,28278]}},
    {"code":1142121,"id":"70cb55","name":"勝原","name_kana":"かどはら","lat":35.967512,"lng":136.597151,"prefecture":18,"lines":[11421],"attr":"eco","postal_code":"912-0155","address":"大野市西勝原","next":[9952538,1142123,9941616,1142118,9941923,1142122,1142120],"voronoi":{"lat":35.909312,"lng":136.572664,"delta_lat":[0,112304,14706,165606,2581,-103029,-50365],"delta_lng":[0,140544,14411,26746,-46908,-87123,-21065]}},
    {"code":1142119,"id":"175f4c","name":"下唯野","name_kana":"しもゆいの","lat":35.974208,"lng":136.56027,"prefecture":18,"lines":[11421],"attr":"eco","postal_code":"912-0822","address":"大野市下唯野","next":[1142118,1142122,1142116,1142120,1142117],"voronoi":{"lat":36.005636,"lng":136.57099,"delta_lat":[0,-123667,-61627,99215,49927],"delta_lng":[0,-20612,-44510,14221,19201]}},
    {"code":9941614,"left":1141535,"right":9941615,"id":"dfb683","name":"小柳(石川)","name_kana":"おやなぎ","lat":36.470639,"lng":136.611466,"prefecture":17,"lines":[99416],"attr":"heat","postal_code":"920-2103","address":"白山市小柳町","next":[9941613,1141539,9941615],"voronoi":{"lat":36.424406,"lng":136.545475,"delta_lat":[0,55759,-7966],"delta_lng":[0,21429,53453]}},
    {"code":1141535,"left":9941922,"right":1141537,"id":"697d23","name":"明峰","name_kana":"めいほう","lat":36.425302,"lng":136.463114,"prefecture":17,"lines":[11415],"attr":"cool","postal_code":"923-0014","address":"小松市松梨町甲","next":[1141539,9941616,1141538,9941615,1141534,1141537,1141536],"voronoi":{"lat":36.441654,"lng":136.508724,"delta_lat":[0,-12206,-6424,-13202,-39255,62310,10730],"delta_lng":[0,28397,7753,3428,6565,-139184,84597]}},
    {"code":9941922,"left":9941921,"id":"c797cd","name":"比島","name_kana":"ひしま","lat":36.066011,"lng":136.483574,"prefecture":18,"lines":[99419],"attr":"eco","postal_code":"911-0831","address":"勝山市遅羽町比島２５字１１-１３","next":[9941920,9941616,9941921,9941923,1141533],"voronoi":{"lat":36.218288,"lng":136.666059,"delta_lat":[0,-177835,1507,185019,14233],"delta_lng":[0,-201756,180,68588,69865]}},
    {"code":9941921,"id":"db4596","name":"発坂","name_kana":"ほっさか","lat":36.072643,"lng":136.465684,"prefecture":18,"lines":[99419],"attr":"eco","postal_code":"911-0848","address":"勝山市鹿谷町保田９７字８-２","next":[1141533,1141532,9941922,9941920,9941919],"voronoi":{"lat":36.219878,"lng":136.484212,"delta_lat":[0,7100,-185019,60317,110631],"delta_lng":[0,48860,-68588,-12022,10178]}},
    {"code":1141537,"id":"405ab2","name":"小舞子","name_kana":"こまいこ","lat":36.476371,"lng":136.474925,"prefecture":17,"lines":[11415],"attr":"heat","postal_code":"929-0217","address":"白山市湊町","next":[1141538,9941712,9941804,1141912,1141535,1141536,9942021],"voronoi":{"lat":37.560354,"lng":135.380544,"delta_lat":[0,-184502,-148217,-280619,-505362,1953,318293],"delta_lng":[0,308534,202185,276660,340801,-8444,-509094]}},
    {"code":9941615,"left":9941616,"right":9941613,"id":"c12029","name":"日御子","name_kana":"ひのみこ","lat":36.46479,"lng":136.615199,"prefecture":17,"lines":[99416],"attr":"heat","postal_code":"920-2153","address":"白山市日御子町","next":[1141539,9941612,1141535,9941616,9941614,9941613],"voronoi":{"lat":36.477342,"lng":136.647104,"delta_lat":[0,-67521,13202,1382,47793,4332],"delta_lng":[0,-98801,-3428,601,74882,17214]}},
    {"code":9941616,"id":"0d17f7","name":"鶴来","name_kana":"つるぎ","lat":36.452178,"lng":136.623818,"prefecture":17,"lines":[99416],"attr":"heat","postal_code":"920-2121","address":"白山市鶴来本町４丁目","next":[9941610,1141535,9941612,1141713,9941611,9941923,9941922,1141712,9941601,9941615,1141632,9941619,1142121,1141534,1141533,9952538],"voronoi":{"lat":36.201929,"lng":136.754365,"delta_lat":[0,2581,13778,22924,54274,75081,39255,67521,3231,3820,1727,3466,-12328,-47674,-192032,-8640],"delta_lng":[0,-46908,-41397,-63123,-26263,-21806,-6565,98801,10097,15366,7997,19901,61127,15608,48264,-2684]}},
    {"code":9941613,"id":"5818de","name":"井口(石川)","name_kana":"いのくち","lat":36.476282,"lng":136.612307,"prefecture":17,"lines":[99416],"attr":"heat","postal_code":"920-2162","address":"白山市道法寺町","next":[1141540,9941612,1141539,9941614,9941615],"voronoi":{"lat":36.472198,"lng":136.620357,"delta_lat":[0,7966,1254,5016,-9904],"delta_lng":[0,-53453,394,5486,64787]}},
    {"code":9941711,"left":1141540,"right":9941706,"id":"0b0b28","name":"粟ヶ崎","name_kana":"あわがさき","lat":36.630224,"lng":136.638149,"prefecture":17,"lines":[99417],"attr":"eco","postal_code":"920-0274","address":"石川県河北郡内灘町向粟崎","next":[1141904,9941709,9941712,9941710],"voronoi":{"lat":36.626145,"lng":136.639026,"delta_lat":[0,-4424,52413,-6674],"delta_lng":[0,-10789,41205,5137]}},
    {"code":1141540,"left":9941610,"right":9941604,"id":"ea5c89","name":"松任","name_kana":"まっとう","lat":36.526706,"lng":136.566205,"prefecture":17,"lines":[11415],"attr":"eco","postal_code":"924-0022","address":"白山市相木町","next":[9941611,9941610,9941613,9941619,9941612,1141541,9941609,9941712,1141539],"voronoi":{"lat":36.486434,"lng":136.572784,"delta_lat":[0,6179,3531,4910,8549,5941,100454,61639,-196219],"delta_lng":[0,5534,2687,3338,4808,1714,-47130,-96741,120304]}},
    {"code":9941610,"left":9941619,"right":9941608,"id":"43dc7c","name":"四十万","name_kana":"しじま","lat":36.498879,"lng":136.615684,"prefecture":17,"lines":[99416],"attr":"heat","postal_code":"921-8135","address":"金沢市四十万４","next":[1141540,9941616,9941619,9941601,9941609],"voronoi":{"lat":36.489587,"lng":136.700465,"delta_lat":[0,-3466,14934,8549,-15926],"delta_lng":[0,-19901,-96220,4808,103467]}},
    {"code":9941619,"left":9941611,"right":1141539,"id":"70bf8c","name":"陽羽里","name_kana":"ひばり","lat":36.493628,"lng":136.614869,"prefecture":17,"lines":[99416],"attr":"heat","postal_code":"920-2101","address":"石川県白山市曽谷町ヲ40番地","open_date":"2015-03-14","next":[1141540,9941616,9941611,9941610],"voronoi":{"lat":36.484394,"lng":136.672567,"delta_lat":[0,11751,4910,-14934],"delta_lng":[0,-91561,3338,96220]}},
    {"code":9941611,"left":1141538,"id":"133db6","name":"曽谷","name_kana":"そだに","lat":36.490028,"lng":136.614407,"prefecture":17,"lines":[99416],"attr":"heat","postal_code":"920-2101","address":"白山市曽谷町","next":[1141540,9941616,9941619,9941612],"voronoi":{"lat":36.492613,"lng":136.578319,"delta_lat":[0,3531,-11751,-3820],"delta_lng":[0,2687,91561,-15366]}},
    {"code":1141538,"id":"815c88","name":"美川","name_kana":"みかわ","lat":36.486001,"lng":136.489205,"prefecture":17,"lines":[11415],"attr":"heat","postal_code":"929-0224","address":"白山市美川中町","next":[1141535,1141537,1141539,9941712],"voronoi":{"lat":36.947016,"lng":136.167924,"delta_lat":[0,-505362,-12206,273619],"delta_lng":[0,340801,28397,-121203]}},
    {"code":1141539,"id":"082d64","name":"加賀笠間","name_kana":"かがかさま","lat":36.502935,"lng":136.527434,"prefecture":17,"lines":[11415],"attr":"heat","postal_code":"924-0063","address":"白山市笠間町","next":[1141535,9941615,9941712,1141538,9941613,9941614,1141540],"voronoi":{"lat":36.677637,"lng":136.446994,"delta_lat":[0,25429,-273619,-6424,1382,55759,1254],"delta_lng":[0,-31076,121203,7753,601,21429,394]}},
    {"code":9941608,"left":9941609,"right":9941607,"id":"83e7f3","name":"額住宅前","name_kana":"ぬかじゅうたくまえ","lat":36.518507,"lng":136.618851,"prefecture":17,"lines":[99416],"attr":"eco","postal_code":"921-8148","address":"金沢市額新保１","next":[9941607,9941609,1141541],"voronoi":{"lat":36.510158,"lng":136.646829,"delta_lat":[0,8903,7550],"delta_lng":[0,-50631,8396]}},
    {"code":9941609,"id":"f8faff","name":"乙丸","name_kana":"おとまる","lat":36.511853,"lng":136.617681,"prefecture":17,"lines":[99416],"attr":"heat","postal_code":"921-8146","address":"金沢市額乙丸町","next":[9941607,1141540,1141541,9941608,9941610,9941601],"voronoi":{"lat":36.509604,"lng":136.589151,"delta_lat":[0,5941,3516,-8903,-8805,-7675],"delta_lng":[0,1714,5333,50631,33705,12084]}},
    {"code":9941607,"id":"5c41ac","name":"馬替","name_kana":"まがえ","lat":36.522935,"lng":136.620576,"prefecture":17,"lines":[99416],"attr":"eco","postal_code":"921-8141","address":"金沢市馬替３","next":[9941609,9941606,9941601,9941608,1141541],"voronoi":{"lat":36.526611,"lng":136.604595,"delta_lat":[0,-16453,-8805,22460,5626],"delta_lng":[0,42235,33705,-29190,-44402]}},
    {"code":9941604,"left":1141541,"right":9941602,"id":"ad44e8","name":"押野","name_kana":"おしの","lat":36.541805,"lng":136.622114,"prefecture":17,"lines":[99416],"attr":"eco","postal_code":"921-8802","address":"石川郡野々市町押野町","next":[9941605,1141541,1141542,9941602,9941603,9941606],"voronoi":{"lat":36.547134,"lng":136.62832,"delta_lat":[0,353,-885,-4857,-5049,-260],"delta_lng":[0,-6923,-11350,32,22071,7083]}},
    {"code":1141541,"left":9941606,"right":1141542,"id":"1da842","name":"野々市(JR)","name_kana":"ののいち","lat":36.541644,"lng":136.598044,"prefecture":17,"lines":[11415],"attr":"eco","postal_code":"921-8807","address":"石川県野々市市二日市町1-1","next":[9941712,1141540,9941604,1141542,9941607,9941609,9941605,9941606,9941608],"voronoi":{"lat":36.51906,"lng":136.596199,"delta_lat":[0,-3516,100454,-15526,-53870,-4857,-10232,-2075,-2828],"delta_lng":[0,-5333,-47130,39428,26883,32,-2322,-814,-2348]}},
    {"code":9941606,"left":9941605,"id":"22bc35","name":"野々市工大前","name_kana":"ののいちこうだいまえ","lat":36.532336,"lng":136.621767,"prefecture":17,"lines":[99416],"attr":"eco","postal_code":"921-8815","address":"石川郡野々市町本町２","next":[9941601,9941607,9941602,9941605,9941604,1141541],"voronoi":{"lat":36.536696,"lng":136.632149,"delta_lat":[0,-260,-122,-12502,5626,2075],"delta_lng":[0,7083,220,11892,-44402,814]}},
    {"code":9941605,"id":"608228","name":"野々市(北陸鉄道)","name_kana":"ののいち","lat":36.536459,"lng":136.620891,"prefecture":17,"lines":[99416],"attr":"eco","postal_code":"921-8815","address":"石川県野々市市本町1丁目","next":[9941604,9941606,1141541],"voronoi":{"lat":36.536696,"lng":136.632149,"delta_lat":[0,-5183,10232],"delta_lng":[0,-24393,2322]}},
    {"code":1141542,"id":"b5631d","name":"西金沢","name_kana":"にしかなざわ","lat":36.553212,"lng":136.621225,"prefecture":17,"lines":[11415],"attr":"eco","postal_code":"921-8054","address":"金沢市西金沢１丁目","next":[9941704,100913,9941603,9941604,1141541,9941708,9941712,9941703],"voronoi":{"lat":36.576898,"lng":136.624311,"delta_lat":[0,-29410,-885,53870,-1395,-3353,-6136,-3095],"delta_lng":[0,-2915,-11350,-26883,8646,9612,9817,4202]}},
    {"code":9941602,"left":9941603,"right":9941712,"id":"09e2d1","name":"西泉","name_kana":"にしいずみ","lat":36.553445,"lng":136.633524,"prefecture":17,"lines":[99416],"attr":"cool","postal_code":"921-8042","address":"金沢市泉本町７","next":[9941601,9941606,100913,9941604,9941603],"voronoi":{"lat":36.573766,"lng":136.627391,"delta_lat":[0,-6591,-30860,122,10698],"delta_lng":[0,11106,956,-220,-10913]}},
    {"code":9941603,"id":"1e5a31","name":"新西金沢","name_kana":"しんにしかなざわ","lat":36.553067,"lng":136.622688,"prefecture":17,"lines":[99416],"attr":"cool","postal_code":"921-8044","address":"金沢市米泉町７","next":[1141542,100913,9941602,9941604],"voronoi":{"lat":36.547487,"lng":136.621396,"delta_lat":[0,29410,-3132,-26631],"delta_lng":[0,2915,3079,929]}},
    {"code":9941712,"id":"cb3d34","name":"内灘","name_kana":"うちなだ","lat":36.63336,"lng":136.63416,"prefecture":17,"lines":[99417],"attr":"eco","postal_code":"920-0274","address":"河北郡内灘町向粟崎","next":[1141905,1141541,1141539,1141537,9941711,1141912,1141904,1141538,9941709,1141542,1141540,9941708,1141906],"voronoi":{"lat":36.681269,"lng":136.664467,"delta_lat":[0,-7135,-52413,-15220,-7424,1395,15526,61639,25429,243949,280619,-107463,-158636],"delta_lng":[0,4976,-41205,-22996,-13432,-8646,-39428,-96741,-31076,-247995,-276660,189977,219430]}},
    {"code":9941706,"left":9941703,"right":1141545,"id":"32bb06","name":"三口","name_kana":"みつくち","lat":36.606572,"lng":136.647579,"prefecture":17,"lines":[99417],"attr":"cool","postal_code":"920-0018","address":"金沢市三口町","next":[9941707,1141545,1141544,9941705,9941704],"voronoi":{"lat":36.5996,"lng":136.621157,"delta_lat":[0,17613,-1601,-7557,-7935],"delta_lng":[0,46333,213,-4392,-35047]}},
    {"code":9941703,"left":9941704,"right":9941702,"id":"aecb72","name":"上諸江","name_kana":"かみもろえ","lat":36.590835,"lng":136.648941,"prefecture":17,"lines":[99417],"attr":"cool","postal_code":"920-0014","address":"金沢市諸江町","next":[9941702,100913,1141542,9941704,1141544],"voronoi":{"lat":36.594836,"lng":136.659023,"delta_lat":[0,-5248,-3095,-1753,5608],"delta_lng":[0,-47785,4202,28773,15416]}},
    {"code":9941704,"left":100913,"right":9941705,"id":"ce30a3","name":"磯部(石川)","name_kana":"いそべ","lat":36.596554,"lng":136.648313,"prefecture":17,"lines":[99417],"attr":"cool","postal_code":"920-0014","address":"金沢市諸江町","next":[1141542,1141544,9941708,9941707,9941705,9941703,9941706],"voronoi":{"lat":36.5996,"lng":136.621157,"delta_lat":[0,-2684,-1192,-6136,5248,4452,832],"delta_lng":[0,-14882,-4853,9817,47785,601,-31361]}},
    {"code":100913,"left":9941601,"id":"27b8ec","name":"金沢","name_kana":"かなざわ","lat":36.578117,"lng":136.648166,"prefecture":17,"lines":[1009,11415,99426],"attr":"eco","postal_code":"920-0023","address":"金沢市北安江町","next":[1141542,9941602,9941601,9941703,9941603,9941702,9941701],"voronoi":{"lat":36.582565,"lng":136.647241,"delta_lat":[0,2175,1753,-9596,-3132,-6591,-2469],"delta_lng":[0,-3028,-28773,8871,3079,11106,15584]}},
    {"code":9941601,"id":"ecf797","name":"野町","name_kana":"のまち","lat":36.553779,"lng":136.644309,"prefecture":17,"lines":[99416],"attr":"cool","postal_code":"921-8031","address":"金沢市野町５","next":[9941606,9941602,1141544,1141711,100913,9941616,1141712,9941607,9941701,9941610,9941609],"voronoi":{"lat":36.489587,"lng":136.700465,"delta_lat":[0,-12328,13422,15840,52856,5329,2469,-30860,-12502,-22460,-7675],"delta_lng":[0,61127,843,-295,-82657,-25402,-15584,956,11892,29190,12084]}},
    {"code":9941705,"id":"64c9ab","name":"割出","name_kana":"わりだし","lat":36.602619,"lng":136.648474,"prefecture":17,"lines":[99417],"attr":"cool","postal_code":"920-0014","address":"金沢市諸江町","next":[9941706,1141544,9941704],"voronoi":{"lat":36.600121,"lng":136.628263,"delta_lat":[0,7935,-8767],"delta_lng":[0,35047,-3686]}},
    {"code":9941702,"left":9941701,"right":1141544,"id":"ffdee2","name":"七ツ屋","name_kana":"ななつや","lat":36.583108,"lng":136.651752,"prefecture":17,"lines":[99417],"attr":"heat","postal_code":"920-0022","address":"金沢市北安江１","next":[9941701,1141544,9941703,100913],"voronoi":{"lat":36.570663,"lng":136.671126,"delta_lat":[0,19686,-5608,-2175],"delta_lng":[0,-11497,-15416,3028]}},
    {"code":9941701,"id":"eaafc5","name":"北鉄金沢","name_kana":"ほくてつかなざわ","lat":36.578637,"lng":136.649524,"prefecture":17,"lines":[99417],"attr":"heat","postal_code":"920-0847","address":"金沢市堀川町","next":[9941702,100913,1141544,9941601],"voronoi":{"lat":36.564705,"lng":136.65408,"delta_lat":[0,17860,-11903,-11286],"delta_lng":[0,-6839,23885,8356]}},
    {"code":1141544,"id":"0d1d76","name":"東金沢","name_kana":"ひがしかなざわ","lat":36.593652,"lng":136.669806,"prefecture":17,"lines":[99426],"attr":"cool","postal_code":"920-0811","address":"金沢市小坂町西","next":[9941704,9941601,1141545,9941702,1141711,9941706,9941705,9941701,9941703],"voronoi":{"lat":36.594836,"lng":136.659023,"delta_lat":[0,4452,8767,7557,-101837,-7255,52856,11286,19686],"delta_lng":[0,601,3686,4392,95675,-1238,-82657,-8356,-11497]}},
    {"code":1141545,"left":9941709,"right":1141905,"id":"2448a7","name":"森本","name_kana":"もりもと","lat":36.612144,"lng":136.689489,"prefecture":17,"lines":[99426],"attr":"cool","postal_code":"920-3115","address":"金沢市弥勒町","next":[1141904,9941707,1141544,9941706,1141711,1141546,9941710],"voronoi":{"lat":36.661721,"lng":136.680523,"delta_lat":[0,-89768,-58178,101837,1601,5589,39428],"delta_lng":[0,99514,-16660,-95675,-213,-26,11703]}},
    {"code":9941709,"left":9941707,"right":9941710,"id":"711a9f","name":"北間","name_kana":"きたま","lat":36.622625,"lng":136.641265,"prefecture":17,"lines":[99417],"attr":"cool","postal_code":"920-0212","address":"金沢市北間町","next":[9941710,9941711,9941708,9941712],"voronoi":{"lat":36.626145,"lng":136.639026,"delta_lat":[0,-4778,-14866,15220],"delta_lng":[0,8093,-41878,22996]}},
    {"code":9941707,"left":9941708,"id":"cf4b15","name":"三ツ屋","name_kana":"みつや","lat":36.611941,"lng":136.645538,"prefecture":17,"lines":[99417],"attr":"cool","postal_code":"920-0214","address":"金沢市三ツ屋町","next":[9941710,1141545,9941706,9941708,9941704],"voronoi":{"lat":36.596916,"lng":136.606275,"delta_lat":[0,24710,1176,-5589,-17613],"delta_lng":[0,54204,6985,26,-46333]}},
    {"code":9941708,"id":"93bf5a","name":"大河端","name_kana":"おこばた","lat":36.616701,"lng":136.643368,"prefecture":17,"lines":[99417],"attr":"cool","postal_code":"920-0213","address":"金沢市大河端町","next":[9941709,9941704,9941707,9941710,1141542,9941712],"voronoi":{"lat":36.621368,"lng":136.647119,"delta_lat":[0,259,-24710,-1192,3353,7424],"delta_lng":[0,13359,-54204,-4853,-9612,13432]}},
    {"code":9941710,"id":"8100e7","name":"蚊爪","name_kana":"かがつめ","lat":36.625886,"lng":136.64319,"prefecture":17,"lines":[99417],"attr":"cool","postal_code":"920-0208","address":"金沢市蚊爪町","next":[9941707,9941709,9941711,9941708,1141904,1141545],"voronoi":{"lat":36.667461,"lng":136.67458,"delta_lat":[0,-41315,-4778,259,1176,39428],"delta_lng":[0,-35553,8093,13359,6985,11703]}},
    {"code":1141905,"left":1141904,"right":1141906,"id":"69835e","name":"宇野気","name_kana":"うのけ","lat":36.722795,"lng":136.70306,"prefecture":17,"lines":[11419],"attr":"cool","postal_code":"929-1125","address":"かほく市宇野気","next":[9941712,1141904,1141906],"voronoi":{"lat":36.961535,"lng":136.30067,"delta_lat":[0,-280266,40109],"delta_lng":[0,363796,70611]}},
    {"code":1141904,"id":"093d95","name":"能瀬","name_kana":"のせ","lat":36.693152,"lng":136.719898,"prefecture":17,"lines":[11419],"attr":"cool","postal_code":"929-0319","address":"河北郡津幡町字能瀬","next":[1141545,9941711,1141902,1141906,1141905,9941712,1141546,1141547,9941710,1141903],"voronoi":{"lat":36.715457,"lng":136.765156,"delta_lat":[0,7725,-1803,-40109,-7135,-6674,-5230,-509,7586,39709],"delta_lng":[0,2227,-32305,-70611,4976,5137,4587,1357,24626,53184]}},
    {"code":1141906,"id":"1df4e7","name":"横山(石川)","name_kana":"よこやま","lat":36.747739,"lng":136.71685,"prefecture":17,"lines":[11419],"attr":"cool","postal_code":"929-1105","address":"かほく市横山","next":[1141904,1141905,1141907,1141912,9941712,1141547],"voronoi":{"lat":37.09541,"lng":136.13686,"delta_lat":[0,24761,-158636,-240157,1803,5901],"delta_lng":[0,-55619,219430,434407,32305,5939]}}
  ]
}