{
  "name":"segment60",
  "root":1011212,
  "east":180.0,
  "west":141.465907,
  "south":42.430507,
  "north":43.068612,
  "station_size":155,
  "node_list":[
    {"code":1011212,"left":1111005,"right":1110713,"id":"6e8982","name":"岩知志","name_kana":"いわちし","closed":true,"lat":42.771183,"lng":142.381514,"prefecture":1,"lines":[10112],"postal_code":"055-0414","address":"北海道沙流郡平取町字岩知志１３１","open_date":"1964-11-05","closed_date":"1986-11-01","next":[1011211,1111117,1011210,1111121,1011213,1111119,1011208],"voronoi":{"lat":42.817863,"lng":142.3037,"delta_lat":[0,-18416,-245800,7693,13249,44122,215383],"delta_lng":[0,9433,210111,52067,46449,100224,-417067]},"impl":false},
    {"code":1111005,"left":1111003,"right":9911514,"id":"78694a","name":"滝ノ上","name_kana":"たきのうえ","lat":42.910244,"lng":141.97628,"prefecture":1,"lines":[11110],"attr":"cool","postal_code":"068-0756","address":"夕張市滝ノ上","next":[1111004,1011206,1111006,1011205,1111009,1011207,1110505,1111008,9911514],"voronoi":{"lat":42.947691,"lng":141.991603,"delta_lat":[0,-7142,-152035,-4965,-9561,-10737,52668,139784,5092],"delta_lng":[0,6197,13952,-4686,-13493,-29775,-33568,7680,21264]},"impl":true},
    {"code":1111003,"left":1110904,"right":1111103,"id":"0634a1","name":"東追分","name_kana":"ひがしおいわけ","closed":true,"lat":42.902377,"lng":141.83228,"prefecture":1,"lines":[11110],"attr":"unknown","postal_code":"059-1984","address":"勇払郡安平町追分向陽","open_date":"1965-03-01","closed_date":"2016-03-26","next":[1111004,1110507,1110506,1110505],"voronoi":{"lat":42.855304,"lng":141.865258,"delta_lat":[0,52363,44407,-97477],"delta_lng":[0,-70443,60125,19249]},"impl":true},
    {"code":1110904,"left":1110502,"right":1110907,"id":"32856f","name":"美々","name_kana":"びび","closed":true,"lat":42.777418,"lng":141.711387,"prefecture":1,"lines":[11109],"attr":"unknown","postal_code":"066-0012","address":"千歳市美々","open_date":"1926-08-21","closed_date":"2017-03-04","next":[1110503,1110506,1110905,1110504,1110502,1110903,1110906,1110505],"voronoi":{"lat":42.828817,"lng":141.7577,"delta_lat":[0,18505,-42821,-75620,-83,22483,30801,19761],"delta_lng":[0,-17874,-36425,-25058,479,59849,25350,2344]},"impl":true},
    {"code":1110502,"left":1110433,"right":1110503,"id":"c65c99","name":"沼ノ端","name_kana":"ぬまのはた","lat":42.672057,"lng":141.693132,"prefecture":1,"lines":[11105,11109],"attr":"eco","postal_code":"059-1364","address":"苫小牧市字沼ノ端","next":[1110905,1110434,1110904,1111102,1110903],"voronoi":{"lat":42.608804,"lng":141.660814,"delta_lat":[0,114117,5960,-83,-55790],"delta_lng":[0,-38387,55917,479,54965]},"impl":true},
    {"code":1110433,"left":1110432,"right":1110434,"id":"0485ee","name":"青葉","name_kana":"あおば","lat":42.62999,"lng":141.568278,"prefecture":1,"lines":[11104],"attr":"heat","postal_code":"053-0807","address":"苫小牧市青葉町１丁目","next":[1110432,1111102,1110908,1110434,1110909],"voronoi":{"lat":42.760249,"lng":141.511798,"delta_lat":[0,-416623,87675,322965,3353],"delta_lng":[0,141256,-1548,-109412,-13617]},"impl":true},
    {"code":1110432,"left":1110431,"id":"ac8e06","name":"糸井","name_kana":"いとい","lat":42.6225,"lng":141.546187,"prefecture":1,"lines":[11104],"attr":"heat","postal_code":"053-0816","address":"苫小牧市日吉町３丁目","next":[1110909,1110433,1111102,1110910,1110431],"voronoi":{"lat":42.76853,"lng":141.463782,"delta_lat":[0,-5833,-2447,-416623,-159910],"delta_lng":[0,37953,10063,141256,9081]},"impl":true},
    {"code":1110431,"id":"d97acf","name":"錦岡","name_kana":"にしきおか","lat":42.6025,"lng":141.48722,"prefecture":1,"lines":[11104],"attr":"heat","postal_code":"059-1275","address":"苫小牧市字錦岡","next":[1111106,1110430,9911008,1110910,1111102,1110432],"voronoi":{"lat":42.76853,"lng":141.463782,"delta_lat":[0,17897,-10014,-768897,137482,38719],"delta_lng":[0,-50713,-24163,262421,15688,-4880]},"impl":true},
    {"code":1110434,"id":"214559","name":"苫小牧","name_kana":"とまこまい","lat":42.639665,"lng":141.596837,"prefecture":1,"lines":[11104,11105,11109,11111],"attr":"eco","postal_code":"053-0022","address":"苫小牧市表町６丁目","next":[1111102,1110907,1110908,1110502,1110433,1110905],"voronoi":{"lat":42.746704,"lng":141.580552,"delta_lat":[0,4888,2675,-322965,177503,114117],"delta_lng":[0,-16718,-21739,109412,9307,-38387]},"impl":true},
    {"code":1110503,"left":1110903,"right":1110504,"id":"50b356","name":"遠浅","name_kana":"とあさ","lat":42.729533,"lng":141.769568,"prefecture":1,"lines":[11105],"attr":"heat","postal_code":"059-1433","address":"勇払郡安平町遠浅","next":[1111102,1110904,1110903,1110504,1111103],"voronoi":{"lat":42.782082,"lng":141.764022,"delta_lat":[0,-30801,-82368,-6744,25820],"delta_lng":[0,-25350,38239,15567,46974]},"impl":true},
    {"code":1110903,"left":1111102,"id":"7eedc1","name":"植苗","name_kana":"うえなえ","lat":42.713645,"lng":141.735344,"prefecture":1,"lines":[11109],"attr":"eco","postal_code":"059-1365","address":"苫小牧市字植苗","next":[1110503,1111102,1110904,1110502],"voronoi":{"lat":42.728798,"lng":141.678822,"delta_lat":[0,22483,-82368,4095],"delta_lng":[0,59849,38239,-43123]},"impl":true},
    {"code":1111102,"id":"8aef85","name":"勇払","name_kana":"ゆうふつ","lat":42.632805,"lng":141.727667,"prefecture":1,"lines":[11111],"attr":"eco","postal_code":"059-1372","address":"苫小牧市字勇払","next":[1110503,1110434,1110432,1110903,1110433,1111106,1110431,1110502,1111103],"voronoi":{"lat":42.16043,"lng":141.672872,"delta_lat":[0,-15433,38719,159910,87675,177503,64204,-4095,-6744],"delta_lng":[0,-5856,-4880,-9081,-1548,9307,72974,43123,15567]},"impl":true},
    {"code":1110504,"id":"5413b1","name":"早来","name_kana":"はやきた","lat":42.765237,"lng":141.814106,"prefecture":1,"lines":[11105],"attr":"heat","postal_code":"059-1501","address":"勇払郡安平町早来大町","next":[1111103,1110904,1110503,1111104,1011205,1110505,1011202],"voronoi":{"lat":42.757453,"lng":141.960061,"delta_lat":[0,44390,-19761,-94093,7865,7039,33274],"delta_lng":[0,-193695,-2344,75430,54286,17671,39639]},"impl":true},
    {"code":1110907,"left":1110910,"right":1110505,"id":"249f9b","name":"千歳(北海道)","original_name":"千歳","name_kana":"ちとせ","lat":42.82811,"lng":141.651934,"prefecture":1,"lines":[11109],"attr":"eco","postal_code":"066-0062","address":"千歳市千代田町７丁目","next":[1110434,1110507,1110908,1110906,1110905,1110506],"voronoi":{"lat":42.897076,"lng":141.718103,"delta_lat":[0,20599,-166083,-4888,40180,98653],"delta_lng":[0,-16181,-138089,16718,56419,84419]},"impl":true},
    {"code":1110910,"left":1110908,"right":1110911,"id":"5376fe","name":"恵庭","name_kana":"えにわ","lat":42.883076,"lng":141.586234,"prefecture":1,"lines":[11109],"attr":"heat","postal_code":"061-1448","address":"恵庭市相生町","next":[1110912,1110432,1110911,1110431,1110909,9911008],"voronoi":{"lat":42.915533,"lng":141.61798,"delta_lat":[0,5540,-158377,5833,17897,7386],"delta_lng":[0,16653,-132898,-37953,-50713,2527]},"impl":true},
    {"code":1110908,"left":1110909,"id":"c5b592","name":"長都","name_kana":"おさつ","lat":42.852178,"lng":141.622987,"prefecture":1,"lines":[11109],"attr":"eco","postal_code":"066-0077","address":"千歳市上長都","next":[1110909,1110434,1110907,1110508,1110433,1110507],"voronoi":{"lat":42.751592,"lng":141.563833,"delta_lat":[0,2675,3353,187141,-8326,-18760],"delta_lng":[0,-21739,-13617,157655,5993,9797]},"impl":true},
    {"code":1110909,"id":"d9520c","name":"サッポロビール庭園","name_kana":"さっぽろびーるていえん","lat":42.866812,"lng":141.605616,"prefecture":1,"lines":[11109],"attr":"heat","postal_code":"061-1405","address":"恵庭市戸磯","next":[1110908,1110432,1110508,1110912,1110910,9911507,1110433],"voronoi":{"lat":42.94476,"lng":141.686132,"delta_lat":[0,1558,1890,-27135,-158377,-2447,-2630],"delta_lng":[0,-898,-4101,-46500,-132898,10063,16679]},"impl":true},
    {"code":1110911,"id":"3cfda9","name":"恵み野","name_kana":"めぐみの","lat":42.902704,"lng":141.574429,"prefecture":1,"lines":[11109],"attr":"heat","postal_code":"061-1373","address":"恵庭市恵み野西１丁目","next":[9911008,1110910,1110912,1110914,9911007],"voronoi":{"lat":42.905068,"lng":141.460047,"delta_lat":[0,10465,-121721,80001,20327],"delta_lng":[0,157933,-202384,22151,8065]},"impl":true},
    {"code":1110505,"left":1110905,"right":1110506,"id":"bb1c03","name":"安平","name_kana":"あびら","lat":42.814007,"lng":141.825283,"prefecture":1,"lines":[11105],"attr":"cool","postal_code":"059-1511","address":"勇払郡安平町安平","next":[1110506,1011205,1111003,1110904,1110504,1111005,1111004],"voronoi":{"lat":42.763252,"lng":141.963798,"delta_lat":[0,-5798,44390,26974,26486,-707,-38677],"delta_lng":[0,-3738,-193695,-8665,107558,8931,56041]},"impl":true},
    {"code":1110905,"left":1110906,"id":"f4aae0","name":"新千歳空港","name_kana":"しんちとせくうこう","lat":42.787546,"lng":141.680823,"prefecture":1,"lines":[11109],"attr":"eco","postal_code":"066-0012","address":"千歳市美々","next":[1110502,1110904,1110906,1110434,1110907],"voronoi":{"lat":42.746704,"lng":141.580552,"delta_lat":[0,-23782,5960,75620,-17618],"delta_lng":[0,41875,55917,25058,-66431]},"impl":true},
    {"code":1110906,"id":"0a2104","name":"南千歳","name_kana":"みなみちとせ","lat":42.80804,"lng":141.675388,"prefecture":1,"lines":[11109,11110],"attr":"eco","postal_code":"066-0044","address":"千歳市字平和","next":[1110506,1110905,1110907,1110904],"voronoi":{"lat":42.804502,"lng":141.703402,"delta_lat":[0,-17618,98653,-38214],"delta_lng":[0,-66431,84419,18437]},"impl":true},
    {"code":1110506,"id":"1b2ea5","name":"追分(北海道)","original_name":"追分","name_kana":"おいわけ","lat":42.873316,"lng":141.810678,"prefecture":1,"lines":[11105,11110],"attr":"cool","postal_code":"059-1931","address":"勇払郡安平町追分中央","next":[1110507,1110906,1110904,1110505,1111003,1110907],"voronoi":{"lat":42.897076,"lng":141.718103,"delta_lat":[0,10591,-52363,-26486,18505,38214],"delta_lng":[0,76712,70443,-107558,-17874,-18437]},"impl":true},
    {"code":1111103,"left":1011203,"right":1011208,"id":"da3f96","name":"浜厚真","name_kana":"はまあつま","lat":42.606725,"lng":141.837071,"prefecture":1,"lines":[11111],"attr":"eco","postal_code":"059-1742","address":"勇払郡厚真町字浜厚真","next":[1111104,1110504,1111106,1110503,1111102],"voronoi":{"lat":42.16043,"lng":141.672872,"delta_lat":[0,206269,329155,-7865,-25820],"delta_lng":[0,107707,113159,-54286,-46974]},"impl":true},
    {"code":1011203,"left":1111104,"right":1111108,"id":"afcfe3","name":"春日(北海道)","original_name":"春日","name_kana":"かすが","closed":true,"lat":42.580628,"lng":141.999792,"prefecture":1,"lines":[10112],"postal_code":"054-0002","address":"北海道勇払郡むかわ町春日３２４","open_date":"1922-07-24","closed_date":"1986-11-01","next":[1111107,1011205,1011202,1011204,1111106],"voronoi":{"lat":42.561835,"lng":142.049945,"delta_lat":[0,62075,25080,-80431,-27763],"delta_lng":[0,-21682,-28799,-28682,15472]},"impl":false},
    {"code":1111104,"left":1111106,"right":1011202,"id":"d68314","name":"浜田浦","name_kana":"はまたうら","lat":42.590722,"lng":141.88362,"prefecture":1,"lines":[11111],"attr":"eco","postal_code":"054-0004","address":"勇払郡むかわ町田浦","next":[1011202,1111106,1111103,1110504,1111105],"voronoi":{"lat":42.529678,"lng":141.887636,"delta_lat":[0,-162978,329155,7039,-72794],"delta_lng":[0,-107058,113159,17671,5575]},"impl":true},
    {"code":1111106,"left":1111105,"id":"542a83","name":"汐見","name_kana":"しおみ","lat":42.550235,"lng":141.945255,"prefecture":1,"lines":[11111],"attr":"eco","postal_code":"054-0015","address":"勇払郡むかわ町汐見","next":[1111105,1111104,1110431,1111103,1110430,1111102,1111107,1110428,9922406,1011203,1011202,1111108,1110427],"voronoi":{"lat":41.926754,"lng":141.653341,"delta_lat":[0,64059,16703,137482,15433,206269,162978,44349,-5468,-27763,-362787,-277732,13624],"delta_lng":[0,-2914,900,15688,5856,107707,107058,59617,23528,15472,-160135,-150372,-21604]},"impl":true},
    {"code":1111105,"id":"b4d92f","name":"鵡川","name_kana":"むかわ","lat":42.578953,"lng":141.923892,"prefecture":1,"lines":[11111,10112],"attr":"eco","postal_code":"054-0023","address":"勇払郡むかわ町末広２丁目","next":[1111106,1111104,1011202],"voronoi":{"lat":42.630099,"lng":141.916983,"delta_lat":[0,-100422,44349],"delta_lng":[0,-29347,59617]},"impl":true},
    {"code":1011202,"id":"384002","name":"豊城","name_kana":"とよしろ","closed":true,"lat":42.596261,"lng":141.955953,"prefecture":1,"lines":[10112],"postal_code":"054-0003","address":"北海道勇払郡むかわ町豊城４４５−１２","open_date":"1922-07-24","closed_date":"1986-11-01","next":[1111104,1011203,1111106,1111105,1011205,1110504],"voronoi":{"lat":42.702893,"lng":141.911409,"delta_lat":[0,-72794,-56073,-5468,80431,87178],"delta_lng":[0,5575,30270,23528,28682,-48416]},"impl":false},
    {"code":1111108,"left":1111110,"right":1111107,"id":"da971f","name":"日高門別","name_kana":"ひだかもんべつ","lat":42.481237,"lng":142.072692,"prefecture":1,"lines":[11111],"attr":"eco","postal_code":"059-2121","address":"沙流郡日高町門別本町","next":[9922406,1111113,1111107,1111112,1111109,1011204,1111106],"voronoi":{"lat":41.900277,"lng":141.675746,"delta_lat":[0,-136119,278584,69207,431130,1316,-366386],"delta_lng":[0,173300,135628,31716,96249,-34701,-251820]},"impl":true},
    {"code":1111110,"left":1111109,"id":"736581","name":"清畠","name_kana":"きよはた","lat":42.455709,"lng":142.176624,"prefecture":1,"lines":[11111],"attr":"eco","postal_code":"059-2245","address":"沙流郡日高町清畠","next":[1111111,1011204,1011209,1111109],"voronoi":{"lat":42.304704,"lng":142.107442,"delta_lat":[0,263196,20364,-24321],"delta_lng":[0,168900,-62585,-37305]},"impl":true},
    {"code":1111109,"id":"8941b1","name":"豊郷(北海道)","original_name":"豊郷","name_kana":"とよさと","lat":42.470119,"lng":142.122493,"prefecture":1,"lines":[11111],"attr":"eco","postal_code":"059-2126","address":"沙流郡日高町豊郷","next":[1111110,1111112,1111108,1011204,1111111],"voronoi":{"lat":42.563942,"lng":142.176453,"delta_lat":[0,-20864,-431130,77737,115018],"delta_lng":[0,-63813,-96249,42273,48779]},"impl":true},
    {"code":1111107,"id":"b4a63e","name":"富川","name_kana":"とみかわ","lat":42.516865,"lng":142.020855,"prefecture":1,"lines":[11111],"attr":"eco","postal_code":"055-0006","address":"沙流郡日高町富川南４丁目","next":[1011203,1011204,1111108,1111106],"voronoi":{"lat":42.561835,"lng":142.049945,"delta_lat":[0,-17440,-366386,362787],"delta_lng":[0,27994,-251820,160135]},"impl":true},
    {"code":1011208,"left":1011206,"right":1011210,"id":"6bde03","name":"富内","name_kana":"とみうち","closed":true,"lat":42.783303,"lng":142.219797,"prefecture":1,"lines":[10112],"postal_code":"054-0364","address":"北海道勇払郡むかわ町穂別富内６１","open_date":"1923-11-11","closed_date":"1986-11-01","next":[9911804,1111007,1011209,1111013,1011210,1011214,1011207,1011213,1011212],"voronoi":{"lat":42.817863,"lng":142.3037,"delta_lat":[0,-51566,-47016,163333,33085,31704,-41257,-33381,-38671],"delta_lng":[0,-37748,-74004,-44807,27683,66218,48009,10570,5296]},"impl":false},
    {"code":1011206,"left":1011204,"right":1011207,"id":"a1e055","name":"豊田(北海道)","original_name":"豊田","name_kana":"とよた","closed":true,"lat":42.7125,"lng":142.116389,"prefecture":1,"lines":[10112],"postal_code":"054-0144","address":"北海道勇払郡むかわ町穂別豊田","open_date":"1923-11-11","closed_date":"1986-11-01","next":[1011205,1011209,1111005,1011204,1011207],"voronoi":{"lat":42.783549,"lng":142.007067,"delta_lat":[0,-9561,-128183,-20991,86321],"delta_lng":[0,-13493,141941,56516,-2844]},"impl":false},
    {"code":1011204,"left":1011205,"id":"204615","name":"旭岡","name_kana":"あさひおか","closed":true,"lat":42.607767,"lng":142.077489,"prefecture":1,"lines":[10112],"postal_code":"054-0001","address":"北海道勇払郡むかわ町旭岡５８","open_date":"1922-07-24","closed_date":"1986-11-01","next":[1011209,1011205,1111110,1111107,1011206,1011203,1111108,1111109],"voronoi":{"lat":42.543078,"lng":142.11264,"delta_lat":[0,1316,17440,62075,21896,-20991,-36551,-24321],"delta_lng":[0,-34701,-27994,-21682,107252,56516,21727,-37305]},"impl":false},
    {"code":1011205,"id":"7b3c20","name":"栄(北海道)","original_name":"栄","name_kana":"さかえ","closed":true,"lat":42.658056,"lng":142.067222,"prefecture":1,"lines":[10112],"postal_code":"054-0141","address":"北海道勇払郡むかわ町穂別栄","open_date":"1923-06-12","closed_date":"1986-11-01","next":[1011206,1011204,1011203,1110505,1111005,1110504,1011202],"voronoi":{"lat":42.736168,"lng":141.951047,"delta_lat":[0,21286,5798,10737,-128183,-21896,25080],"delta_lng":[0,9013,3738,29775,141941,-107252,-28799]},"impl":false},
    {"code":1011207,"id":"d6fd92","name":"穂別","name_kana":"ほべつ","closed":true,"lat":42.760131,"lng":142.135328,"prefecture":1,"lines":[10112],"postal_code":"054-0211","address":"北海道勇払郡むかわ町穂別４０−９","open_date":"1923-11-11","closed_date":"1986-11-01","next":[1111007,1011209,1111006,1011208,1011206,1111005],"voronoi":{"lat":42.871914,"lng":142.128021,"delta_lat":[0,10699,-163333,-8145,72414,4965],"delta_lng":[0,19120,44807,-2761,-182120,4686]},"impl":false},
    {"code":1011210,"left":1011209,"right":1011211,"id":"389509","name":"振内","name_kana":"ふれない","closed":true,"lat":42.727439,"lng":142.296111,"prefecture":1,"lines":[10112],"postal_code":"055-0411","address":"北海道沙流郡平取町振内町１５１","open_date":"1958-11-15","closed_date":"1986-11-01","next":[1011211,1011212,1011208,1011209],"voronoi":{"lat":42.766296,"lng":142.265952,"delta_lat":[0,51566,-18416,-194109],"delta_lng":[0,37748,9433,346]},"impl":false},
    {"code":1011209,"id":"658df9","name":"幌毛志","name_kana":"ほろけし","closed":true,"lat":42.717289,"lng":142.261736,"prefecture":1,"lines":[10112],"postal_code":"055-0412","address":"北海道沙流郡平取町字幌毛志","open_date":"1958-11-15","closed_date":"1986-11-01","next":[1011206,1011204,1011208,1011207,1111110,1011211,1011210,1111111],"voronoi":{"lat":42.605338,"lng":142.313478,"delta_lat":[0,160959,-47016,-8145,-86321,-36551,-20364,-6992],"delta_lng":[0,-47527,-74004,-2761,2844,21727,62585,43742]},"impl":false},
    {"code":1011211,"id":"5de2a1","name":"仁世宇","name_kana":"にせう","closed":true,"lat":42.7275,"lng":142.330411,"prefecture":1,"lines":[10112],"postal_code":"055-0414","address":"北海道沙流郡平取町字岩知志１８０−１","open_date":"1964-11-05","closed_date":"1986-11-01","next":[1111115,1011210,1011212,1011209,1111114,1111113,1111117,1111112,1111111],"voronoi":{"lat":42.540925,"lng":142.391415,"delta_lat":[0,-345,-1883,4021,10928,245800,-194109,-44430,-10587],"delta_lng":[0,2166,38747,52410,38505,-210111,346,6606,27458]},"impl":false},
    {"code":9911514,"left":9911513,"right":9911517,"id":"808105","name":"錦沢","name_kana":"にしきざわ","closed":true,"lat":43.013611,"lng":141.951528,"prefecture":1,"lines":[99115],"postal_code":"068-0426","address":"北海道夕張市富野","open_date":"1926-10-14","closed_date":"1975-04-01","next":[1111009,9911515,9911516,9911519,1111004,1111005,1111011,9911513],"voronoi":{"lat":42.975878,"lng":141.902746,"delta_lat":[0,-20174,5092,23511,5430,31516,9734,9585],"delta_lng":[0,35164,21264,12099,-962,-9229,-11975,-19126]},"impl":false},
    {"code":9911513,"left":1110508,"right":9911506,"id":"b28e24","name":"新二岐","name_kana":"しんふたまた","closed":true,"lat":43.037139,"lng":141.895639,"prefecture":1,"lines":[99115],"postal_code":"068-0354","address":"北海道夕張郡栗山町字日出１１６−２","open_date":"1926-10-14","closed_date":"1975-04-01","next":[9911511,1111012,1011604,1111011,1111004,9911521,1011603,9911512,9911514],"voronoi":{"lat":43.049695,"lng":141.929675,"delta_lat":[0,31485,16420,3264,-8355,-7210,-109414,-8,64694],"delta_lng":[0,-5250,-3151,-22121,-47445,266,49627,1145,27235]},"impl":false},
    {"code":1110508,"left":1110509,"right":9911512,"id":"c5cb7a","name":"古山","name_kana":"ふるさん","lat":42.975256,"lng":141.793969,"prefecture":1,"lines":[11105],"attr":"eco","postal_code":"069-1216","address":"夕張郡由仁町字古山","next":[9911507,1110509,1110909,9911512,1110507,1110908,9911511],"voronoi":{"lat":42.970976,"lng":141.845465,"delta_lat":[0,-34541,8326,1558,29921,23718,-2731],"delta_lng":[0,-153339,-5993,-898,24901,108182,8918]},"impl":true},
    {"code":1110509,"left":1110912,"right":1110914,"id":"f483c5","name":"由仁","name_kana":"ゆに","lat":43.012206,"lng":141.785868,"prefecture":1,"lines":[11105],"attr":"eco","postal_code":"069-1216","address":"夕張郡由仁町古山","next":[9911508,1110508,9911507,9911511,1110510,9911509],"voronoi":{"lat":43.036708,"lng":141.787555,"delta_lat":[0,-36751,-23718,17099,28715,8128],"delta_lng":[0,30762,-108182,8611,24172,15415]},"impl":true},
    {"code":1110912,"left":1110913,"id":"feeaf9","name":"島松","name_kana":"しままつ","lat":42.922504,"lng":141.573117,"prefecture":1,"lines":[11109],"attr":"heat","postal_code":"061-1352","address":"恵庭市島松仲町１丁目１-１","next":[1110910,1110911,1110914,9911507,1110909,1110913,9911506],"voronoi":{"lat":42.966495,"lng":141.656735,"delta_lat":[0,-28299,-33127,10465,5540,27135,12207],"delta_lng":[0,-160521,-36167,157933,16653,46500,-13739]},"impl":true},
    {"code":1110913,"id":"13f113","name":"北広島","name_kana":"きたひろしま","lat":42.979239,"lng":141.563115,"prefecture":1,"lines":[11109],"attr":"heat","postal_code":"061-1121","address":"北広島市中央６丁目","next":[9911506,1110914,9911504,9911505,1110912],"voronoi":{"lat":42.938196,"lng":141.496214,"delta_lat":[0,94739,-6812,-25227,-34401],"delta_lng":[0,46168,36116,46657,31580]},"impl":true},
    {"code":1110914,"id":"64b606","name":"上野幌","name_kana":"かみのっぽろ","lat":43.016177,"lng":141.487317,"prefecture":1,"lines":[11109],"attr":"cool","postal_code":"004-0039","address":"札幌市厚別区厚別町上野幌","next":[1110915,9911504,1110918,1110320,1110913,1110912,9910119,9910117,1110911,9911007,1110319,9910118],"voronoi":{"lat":43.027103,"lng":141.479314,"delta_lat":[0,11144,2392,-4620,-3085,-94739,-33127,-10928,29917,27352,58594,15518],"delta_lng":[0,18009,16094,27021,1945,-46168,-36167,-14235,-6393,6376,20185,10946]},"impl":true},
    {"code":9911512,"left":1111004,"right":9911511,"id":"652b40","name":"継立","name_kana":"つぎたて","closed":true,"lat":43.020722,"lng":141.859444,"prefecture":1,"lines":[99115],"postal_code":"068-0353","address":"北海道夕張郡栗山町字継立２５０","open_date":"1926-10-14","closed_date":"1975-04-01","next":[9911511,1110508,1111004,1110507,9911513],"voronoi":{"lat":42.961321,"lng":141.857922,"delta_lat":[0,9655,26251,88073,-109414],"delta_lng":[0,-12457,-18229,24739,49627]},"impl":false},
    {"code":1111004,"left":1110507,"id":"81e5d3","name":"川端","name_kana":"かわばた","lat":42.914721,"lng":141.894791,"prefecture":1,"lines":[11110],"attr":"cool","postal_code":"069-1141","address":"夕張郡由仁町字川端","next":[1111003,1110507,1111005,9911512,9911513,9911514,1110505],"voronoi":{"lat":42.955703,"lng":141.93791,"delta_lat":[0,20174,8,-14565,-9247,-97477,-38677],"delta_lng":[0,-35164,-1145,-43680,-2981,19249,56041]},"impl":true},
    {"code":1110507,"id":"d4f11f","name":"三川(北海道)","original_name":"三川","name_kana":"みかわ","lat":42.945029,"lng":141.800778,"prefecture":1,"lines":[11105],"attr":"cool","postal_code":"069-1200","address":"夕張郡由仁町三川","next":[1110907,1110506,1111004,1110508,1111003,9911512,1110908],"voronoi":{"lat":42.897076,"lng":141.718103,"delta_lat":[0,10591,44407,9247,9655,-34541,-18760],"delta_lng":[0,76712,60125,2981,-12457,-153339,9797]},"impl":true},
    {"code":9911511,"id":"e1ddd2","name":"角田(北海道)","original_name":"角田","name_kana":"かくた","closed":true,"lat":43.034056,"lng":141.811972,"prefecture":1,"lines":[99115],"postal_code":"069-1524","address":"北海道夕張郡栗山町角田１２５","open_date":"1926-10-14","closed_date":"1971-11-15","next":[9911513,9911512,1110510,1011603,1110509,1110508,1011602],"voronoi":{"lat":43.09251,"lng":141.851708,"delta_lat":[0,-7210,-88073,2731,36751,61680,83],"delta_lng":[0,266,-24739,-8918,-30762,40886,11222]},"impl":false},
    {"code":9911506,"left":1110319,"right":9911508,"id":"f95b99","name":"南幌","name_kana":"なんぽろ","closed":true,"lat":43.060861,"lng":141.652028,"prefecture":1,"lines":[99115],"postal_code":"069-0235","address":"北海道空知郡南幌町中央３丁目１-２５","open_date":"1930-11-03","closed_date":"1975-04-01","next":[1110913,9911505,1110324,1110325,9911507,1110912],"voronoi":{"lat":43.105194,"lng":141.67555,"delta_lat":[0,722,-8939,-96082,-34401,-6079],"delta_lng":[0,-17147,-24688,-8559,31580,10659]},"impl":false},
    {"code":1110319,"left":9910119,"right":9911505,"id":"a2c9cc","name":"森林公園(北海道)","original_name":"森林公園","name_kana":"しんりんこうえん","lat":43.056456,"lng":141.481332,"prefecture":1,"lines":[11103],"attr":"eco","postal_code":"004-0071","address":"札幌市厚別区厚別北１条４丁目","next":[9910119,1110318,1110320,1110914,1110916],"voronoi":{"lat":43.049698,"lng":141.47322,"delta_lat":[0,-11451,2392,64005,-23787],"delta_lng":[0,24103,16094,-65372,5214]},"impl":true},
    {"code":9910119,"left":1110915,"id":"d08f05","name":"新さっぽろ","name_kana":"しんさっぽろ","lat":43.039141,"lng":141.473106,"prefecture":1,"lines":[99101],"attr":"cool","postal_code":"004-0052","address":"札幌市厚別区厚別中央２条５","next":[1110319,1110915,1110914,1110318],"voronoi":{"lat":43.038248,"lng":141.497322,"delta_lat":[0,-11144,17184,5411],"delta_lng":[0,-18009,-9549,3455]},"impl":true},
    {"code":1110915,"id":"8e0bd9","name":"新札幌","name_kana":"しんさっぽろ","lat":43.038732,"lng":141.47237,"prefecture":1,"lines":[11109],"attr":"cool","postal_code":"004-0052","address":"札幌市厚別区厚別中央二条５丁目","next":[1110914,9910118,1110318,9910119],"voronoi":{"lat":43.044287,"lng":141.469764,"delta_lat":[0,-5512,-13254,1582],"delta_lng":[0,-4078,11240,2387]},"impl":true},
    {"code":9911505,"id":"412d1e","name":"晩翠","name_kana":"ばんすい","closed":true,"lat":43.064667,"lng":141.609306,"prefecture":1,"lines":[99115],"postal_code":"069-0211","address":"北海道空知郡南幌町南１１線西６２１","open_date":"1930-11-03","closed_date":"1975-04-01","next":[9911506,1110913,9911504,1110324],"voronoi":{"lat":43.102541,"lng":141.607703,"delta_lat":[0,-76419,-25227,96082],"delta_lng":[0,-29205,46657,8559]},"impl":false},
    {"code":9911508,"left":1110510,"right":9911509,"id":"8f62fd","name":"北長沼","name_kana":"きたながぬま","closed":true,"lat":43.062694,"lng":141.725889,"prefecture":1,"lines":[99115],"postal_code":"069-1317","address":"北海道夕張郡長沼町東１線北１５","open_date":"1930-11-03","closed_date":"1975-04-01","next":[9911509,1110509,1110512,9911507,1110511],"voronoi":{"lat":43.022053,"lng":141.742918,"delta_lat":[0,-28715,104879,-118,-29952],"delta_lng":[0,-24172,-13769,493,36944]},"impl":false},
    {"code":1110510,"left":9911507,"id":"f048cb","name":"栗山","name_kana":"くりやま","lat":43.058164,"lng":141.775603,"prefecture":1,"lines":[11105,99115],"attr":"eco","postal_code":"069-1511","address":"夕張郡栗山町中央３丁目","next":[1110512,9911511,1110511,9911509,1110509,1011602],"voronoi":{"lat":43.036708,"lng":141.787555,"delta_lat":[0,-6527,60124,19290,535,-11742],"delta_lng":[0,-29222,17775,16829,929,34575]},"impl":true},
    {"code":9911507,"id":"0d810b","name":"双葉(北海道)","original_name":"双葉","name_kana":"ふたば","closed":true,"lat":43.0585,"lng":141.693944,"prefecture":1,"lines":[99115],"postal_code":"069-1318","address":"北海道夕張郡長沼町西４線北","open_date":"1959-09-22","closed_date":"1974-10-01","next":[1110508,9911508,1110512,1110509,1110912,1110909,9911506,1110325],"voronoi":{"lat":43.105194,"lng":141.67555,"delta_lat":[0,-144779,-12207,-1890,29921,17099,104879,12258],"delta_lng":[0,-8155,13739,4101,24901,8611,-13769,-16559]},"impl":false},
    {"code":9911509,"id":"0c5005","name":"中央農試前","name_kana":"ちゅうおうのうしまえ","closed":true,"lat":43.063056,"lng":141.759056,"prefecture":1,"lines":[99115],"postal_code":"069-1317","address":"北海道夕張郡長沼町東５線北１７","open_date":"1969-05-01","closed_date":"1974-10-01","next":[9911508,1110511,1110510,1110509],"voronoi":{"lat":43.090306,"lng":141.776109,"delta_lat":[0,-22158,-46094,8128],"delta_lng":[0,-33694,504,15415]},"impl":false},
    {"code":9911517,"left":1111006,"right":9911522,"id":"65db02","name":"夕製前","name_kana":"ゆうせいまえ","closed":true,"lat":43.023222,"lng":141.976,"prefecture":1,"lines":[99115],"postal_code":"068-0422","address":"北海道夕張市日吉５−４","open_date":"1962-09-01","closed_date":"1971-11-15","next":[9911516,9911522,9911515,9911518],"voronoi":{"lat":43.02251,"lng":141.973546,"delta_lat":[0,-2607,22668,-1748],"delta_lng":[0,3081,27874,-18362]},"impl":false},
    {"code":1111006,"left":9911516,"right":9911802,"id":"183285","name":"十三里","name_kana":"とみさと","closed":true,"lat":42.914667,"lng":142.024478,"prefecture":1,"lines":[11110],"attr":"unknown","postal_code":"068-0755","address":"夕張市紅葉山","open_date":"1962-12-25","closed_date":"2016-03-26","next":[1111007,1111005,1011207,1111008],"voronoi":{"lat":42.871914,"lng":142.128021,"delta_lat":[0,-83400,152035,-1148],"delta_lng":[0,-116268,-13952,7748]},"impl":true},
    {"code":9911516,"left":1111010,"right":9911515,"id":"966eef","name":"礦業所前","name_kana":"こうぎょうしょまえ","closed":true,"lat":43.018611,"lng":141.97975,"prefecture":1,"lines":[99115],"postal_code":"068-0423","address":"北海道夕張市平和１","open_date":"1952-04-25","closed_date":"1971-11-15","next":[1111009,1111010,9911517,9911514,9911802,9911522,9911515],"voronoi":{"lat":42.989737,"lng":141.970312,"delta_lat":[0,-5430,8776,44735,6906,-2153,-22668],"delta_lng":[0,962,10898,33048,1024,-11742,-27874]},"impl":false},
    {"code":1111010,"left":1111009,"id":"442158","name":"清水沢","name_kana":"しみずさわ","closed":true,"lat":42.99827,"lng":142.007285,"prefecture":1,"lines":[11110,99118],"attr":"unknown","postal_code":"068-0531","address":"夕張市清水沢３丁目","closed_date":"2019-04-01","next":[9911516,9911802,1111009],"voronoi":{"lat":42.993082,"lng":141.982172,"delta_lat":[0,44735,-47233],"delta_lng":[0,33048,14143]},"impl":true},
    {"code":1111009,"id":"d9d037","name":"南清水沢","name_kana":"みなみしみずさわ","closed":true,"lat":42.985272,"lng":142.006597,"prefecture":1,"lines":[11110],"attr":"unknown","postal_code":"068-0536","address":"夕張市南清水沢２丁目","closed_date":"2019-04-01","next":[9911514,9911516,1111010,9911802,1111008,1111005],"voronoi":{"lat":42.960795,"lng":141.959175,"delta_lat":[0,23511,8776,-2498,-6284,-36609],"delta_lng":[0,12099,10898,47191,4055,-41814]},"impl":true},
    {"code":9911515,"id":"09c5be","name":"平和(夕張鉄道)","original_name":"平和","name_kana":"へいわ","closed":true,"lat":43.019972,"lng":141.97325,"prefecture":1,"lines":[99115],"postal_code":"068-0424","address":"北海道夕張市千代田１３−１","open_date":"1938-08-01","closed_date":"1975-04-01","next":[9911514,9911518,9911519,9911517,9911516],"voronoi":{"lat":43.02251,"lng":141.973546,"delta_lat":[0,161,-1418,-31516,30166],"delta_lng":[0,-9859,-2605,9229,6316]},"impl":false},
    {"code":9911802,"left":1111007,"right":9911803,"id":"414204","name":"遠幌","name_kana":"えんほろ","closed":true,"lat":43.009139,"lng":142.043583,"prefecture":1,"lines":[99118],"postal_code":"068-0540","address":"北海道夕張市南部住の江町２６","open_date":"1940-09-01","closed_date":"1987-07-22","next":[9911803,9911805,9911807,1111010,1111009,9911516,1111008,9911522,9911808],"voronoi":{"lat":43.068314,"lng":142.043063,"delta_lat":[0,-2921,-92052,10960,6284,47233,6906,29109,-1445],"delta_lng":[0,2653,32026,-44325,-4055,-14143,1024,19368,2165]},"impl":false},
    {"code":1111007,"left":1111008,"id":"202e19","name":"新夕張","name_kana":"しんゆうばり","lat":42.936611,"lng":142.03657,"prefecture":1,"lines":[11110],"attr":"cool","postal_code":"068-0755","address":"夕張市紅葉山","next":[1011207,1011208,9911804,9911803,1111006,1111008],"voronoi":{"lat":42.939402,"lng":142.005548,"delta_lat":[0,-67487,10699,33085,13843,33242],"delta_lng":[0,122472,19120,27683,-21237,-62507]},"impl":true},
    {"code":1111008,"id":"8c965e","name":"沼ノ沢","name_kana":"ぬまのさわ","closed":true,"lat":42.957586,"lng":142.030836,"prefecture":1,"lines":[11110],"attr":"unknown","postal_code":"068-0751","address":"夕張市沼ノ沢","closed_date":"2019-04-01","next":[9911802,1111007,1111009,1111006,1111005,9911803],"voronoi":{"lat":42.939402,"lng":142.005548,"delta_lat":[0,1148,7142,36609,-10960,-10557],"delta_lng":[0,-7748,-6197,41814,44325,13337]},"impl":true},
    {"code":9911803,"id":"066d0e","name":"南大夕張","name_kana":"みなみおおゆうばり","closed":true,"lat":43.022611,"lng":142.082306,"prefecture":1,"lines":[99118],"postal_code":"068-0544","address":"北海道夕張市南部大宮町１０３","open_date":"1911-06-01","closed_date":"1987-07-22","next":[9911802,9911805,1111007,9911804,1111008],"voronoi":{"lat":42.929542,"lng":142.153586,"delta_lat":[0,120073,15778,-92052,-10557],"delta_lng":[0,-76068,-31802,32026,13337]},"impl":false},
    {"code":9911522,"left":9911521,"right":9911804,"id":"5174ec","name":"夕張本町","name_kana":"ゆうばりほんちょう","closed":true,"lat":43.056194,"lng":141.972861,"prefecture":1,"lines":[99115],"postal_code":"068-0403","address":"北海道夕張市本町４丁目１","open_date":"1926-10-14","closed_date":"1971-11-15","next":[9911518,9911517,1011605,1011604,9911519,9911516,9911808,1111012,1011606,9911802,1111011],"voronoi":{"lat":43.040773,"lng":141.982837,"delta_lat":[0,50,1748,2153,29109,10794,20497,407,-6033,-58648,-27],"delta_lng":[0,3303,18362,11742,19368,-3016,-92463,-3900,-10972,57331,54]},"impl":false},
    {"code":9911521,"left":9911519,"right":1111012,"id":"12b944","name":"末広(北海道)","original_name":"末広","name_kana":"すえひろ","closed":true,"lat":43.048861,"lng":141.965944,"prefecture":1,"lines":[99115],"postal_code":"068-0411","address":"北海道夕張市末広１丁目６７−１","open_date":"1956-08-11","closed_date":"1971-11-15","next":[1111011,1111012,9911513],"voronoi":{"lat":43.042326,"lng":141.976936,"delta_lat":[0,38855,-31485],"delta_lng":[0,-52510,5250]},"impl":false},
    {"code":9911519,"left":1111011,"id":"c5d0e8","name":"営林署前","name_kana":"えいりんしょまえ","closed":true,"lat":43.032167,"lng":141.966611,"prefecture":1,"lines":[99115],"postal_code":"068-0421","address":"北海道夕張市常盤１−２","open_date":"1956-08-11","closed_date":"1971-11-15","next":[1111011,9911522,9911514,9911518,9911515],"voronoi":{"lat":43.021253,"lng":141.961083,"delta_lat":[0,9734,9836,-50,-18102],"delta_lng":[0,-11975,33538,191,-19149]},"impl":false},
    {"code":1111011,"id":"80c9ef","name":"鹿ノ谷","name_kana":"しかのたに","closed":true,"lat":43.039447,"lng":141.964476,"prefecture":1,"lines":[11110,99115],"attr":"unknown","postal_code":"068-0413","address":"夕張市鹿の谷３丁目","closed_date":"2019-04-01","next":[1111012,9911519,9911521,9911513,9911514,9911522],"voronoi":{"lat":43.030987,"lng":141.949107,"delta_lat":[0,9585,9124,-7370,-1476,-27],"delta_lng":[0,-19126,-306,47260,5656,54]},"impl":true},
    {"code":1111012,"id":"508a45","name":"夕張","name_kana":"ゆうばり","closed":true,"lat":43.050926,"lng":141.967472,"prefecture":1,"lines":[11110],"attr":"unknown","postal_code":"068-0411","address":"夕張市末広１丁目","closed_date":"2019-04-01","next":[1011604,1111011,9911513,9911522,9911521],"voronoi":{"lat":43.08118,"lng":141.924426,"delta_lat":[0,16420,1897,-58648,1476],"delta_lng":[0,-3151,3986,57331,-5656]},"impl":true},
    {"code":9911804,"left":9911518,"right":9911805,"id":"96c35f","name":"シューパロ湖","name_kana":"しゅーぱろこ","closed":true,"lat":43.03375,"lng":142.099889,"prefecture":1,"lines":[99118],"postal_code":"068-0662","address":"北海道夕張市鹿島明石町","open_date":"1962-06-01","closed_date":"1969-10-01","next":[1011208,9911805,1111007,9911803,1111013,9911806],"voronoi":{"lat":43.037888,"lng":142.241682,"delta_lat":[0,11727,-120073,-13843,31704,89184],"delta_lng":[0,-164163,76068,21237,66218,12080]},"impl":false},
    {"code":9911518,"id":"9ac95b","name":"若菜","name_kana":"わかな","closed":true,"lat":43.025056,"lng":141.973333,"prefecture":1,"lines":[99115],"postal_code":"068-0425","address":"北海道夕張市若菜１０−１","open_date":"1926-10-14","next":[9911515,9911522,9911519,9911517],"voronoi":{"lat":43.040773,"lng":141.982837,"delta_lat":[0,-18102,-161,18313],"delta_lng":[0,-19149,9859,12593]},"impl":false},
    {"code":9911805,"id":"1da609","name":"明石町","name_kana":"あかしちょう","closed":true,"lat":43.062139,"lng":142.101917,"prefecture":1,"lines":[99118],"postal_code":"068-0662","address":"北海道夕張市鹿島明石町","open_date":"1945-05-06","closed_date":"1973-12-16","next":[9911803,9911806,9911802,9911807,9911804],"voronoi":{"lat":43.071485,"lng":142.086937,"delta_lat":[0,-3172,-2921,-15778,-11727],"delta_lng":[0,-43873,2653,31802,164163]},"impl":false},
    {"code":1110713,"left":1011513,"right":1110727,"id":"18a9d5","name":"利別","name_kana":"としべつ","lat":42.934706,"lng":143.424445,"prefecture":1,"lines":[11107],"attr":"eco","postal_code":"083-0031","address":"中川郡池田町字利別西町","next":[1110712,9910902,1110714],"voronoi":{"lat":43.010965,"lng":143.354884,"delta_lat":[0,-141118,77113],"delta_lng":[0,58192,33771]},"impl":true},
    {"code":1011513,"left":1011214,"right":1110722,"id":"2c880b","name":"石坂","name_kana":"いしざか","closed":true,"lat":42.452806,"lng":143.293278,"prefecture":1,"lines":[10115],"postal_code":"089-2125","address":"北海道広尾郡大樹町字石坂６１９","open_date":"1932-11-05","closed_date":"1987-02-02","next":[1011512,1011514,1011515,1011510],"voronoi":{"lat":42.403694,"lng":143.207318,"delta_lat":[0,-536,101961,-14450],"delta_lng":[0,-56471,201859,222947]},"impl":false},
    {"code":1011214,"left":1011508,"right":1110708,"id":"352fe9","name":"日高三岡","name_kana":"ひだかみつおか","closed":true,"lat":42.845556,"lng":142.416389,"prefecture":1,"lines":[10112],"postal_code":"055-2316","address":"北海道沙流郡日高町字三岩","open_date":"1964-11-05","closed_date":"1986-11-01","next":[1011215,1011213,1111013,1011208,1110703],"voronoi":{"lat":42.872765,"lng":142.299621,"delta_lat":[0,33381,3435,-166152,-42833],"delta_lng":[0,-10570,31070,377497,9780]},"impl":false},
    {"code":1011508,"left":1011505,"right":1011509,"id":"7cdf3f","name":"更別","name_kana":"さらべつ","closed":true,"lat":42.648611,"lng":143.186167,"prefecture":1,"lines":[10115],"postal_code":"089-1512","address":"北海道河西郡更別村中央町９２−１１８","open_date":"1930-10-10","closed_date":"1987-02-02","next":[1011511,1011509,1111129,1011506,1011512,1011507],"voronoi":{"lat":42.444097,"lng":142.954423,"delta_lat":[0,-14509,63883,44901,184718,-23442],"delta_lng":[0,26682,114830,61468,120226,-92885]},"impl":false},
    {"code":1011505,"left":1011506,"right":1011213,"id":"0adfe4","name":"大正(北海道)","original_name":"大正","name_kana":"たいしょう","closed":true,"lat":42.791944,"lng":143.166111,"prefecture":1,"lines":[10115],"postal_code":"089-1242","address":"北海道帯広市大正町東１線１００−４","open_date":"1929-09-02","closed_date":"1987-02-02","next":[1011507,1110707,1110706,1110705,1011506,1011504],"voronoi":{"lat":42.850391,"lng":143.121162,"delta_lat":[0,-3895,-19298,-45686,-1672,-21228],"delta_lng":[0,-12930,-24835,-45601,4981,228765]},"impl":false},
    {"code":1011506,"left":1011507,"id":"fd1599","name":"幸福","name_kana":"こうふく","closed":true,"lat":42.74525,"lng":143.161778,"prefecture":1,"lines":[10115],"postal_code":"089-1246","address":"北海道帯広市幸福町東１線１６１−１","open_date":"1956-11-01","closed_date":"1987-02-02","next":[1011508,1011505,1011507,1011504,1011509],"voronoi":{"lat":42.758612,"lng":143.271543,"delta_lat":[0,21228,-80192,23442,21457],"delta_lng":[0,-228765,141966,92885,34408]},"impl":false},
    {"code":1011507,"id":"14eb10","name":"中札内","name_kana":"なかさつない","closed":true,"lat":42.695778,"lng":143.133833,"prefecture":1,"lines":[10115],"postal_code":"089-1342","address":"北海道河西郡中札内村東２条南３丁目５","open_date":"1929-11-02","closed_date":"1987-02-02","next":[1111121,1011505,1111124,1011508,1110705,1011506,1110704,1111122,1111129],"voronoi":{"lat":42.699649,"lng":143.184744,"delta_lat":[0,80192,1672,-39888,-136961,-48540,-24052,-75180,-12794],"delta_lng":[0,-141966,-4981,-99470,-170525,39538,21385,94018,31680]},"impl":false},
    {"code":1011213,"id":"206bd6","name":"日高岩内","name_kana":"ひだかいわない","closed":true,"lat":42.808056,"lng":142.400556,"prefecture":1,"lines":[10112],"postal_code":"055-2316","address":"北海道沙流郡日高町字三岩","open_date":"1964-11-05","closed_date":"1986-11-01","next":[1110703,1011214,1011208,1011212,1111121],"voronoi":{"lat":42.618711,"lng":142.721983,"delta_lat":[0,215383,38671,-172169,-78643],"delta_lng":[0,-417067,-5296,407777,23222]},"impl":false},
    {"code":1011509,"left":1011512,"right":1011504,"id":"261131","name":"上更別","name_kana":"かみさらべつ","closed":true,"lat":42.609306,"lng":143.246556,"prefecture":1,"lines":[10115],"postal_code":"089-1581","address":"北海道河西郡更別村字上更別２","open_date":"1930-10-10","closed_date":"1987-02-02","next":[1011508,1110712,1011511,1011504,1110711,1110715,1011510,1011506],"voronoi":{"lat":42.747509,"lng":143.324797,"delta_lat":[0,-2371,-13681,-10186,-149939,-32959,184718,21457],"delta_lng":[0,13705,36229,9875,-124012,-103191,120226,34408]},"impl":false},
    {"code":1011512,"left":1011511,"id":"40b4a8","name":"大樹","name_kana":"たいき","closed":true,"lat":42.488333,"lng":143.275333,"prefecture":1,"lines":[10115],"postal_code":"089-2146","address":"北海道広尾郡大樹町寿通１丁目１１−１","open_date":"1930-10-10","closed_date":"1987-02-02","next":[1011513,1011510,1011508,1011515,1011511,1111130,1111129],"voronoi":{"lat":42.385045,"lng":143.023971,"delta_lat":[0,18113,101961,9872,-21520,-63883,-41290],"delta_lng":[0,126876,201859,-29909,-226863,-114830,39412]},"impl":false},
    {"code":1011511,"id":"4dae73","name":"十勝東和","name_kana":"とかちとうわ","closed":true,"lat":42.53225,"lng":143.271167,"prefecture":1,"lines":[10115],"postal_code":"089-2105","address":"北海道広尾郡大樹町字大樹","open_date":"1960-04-15","closed_date":"1987-02-02","next":[1011508,1011509,1011512,1011510],"voronoi":{"lat":42.493471,"lng":143.095934,"delta_lat":[0,44901,32959,-56340],"delta_lng":[0,61468,103191,62204]},"impl":false},
    {"code":1011504,"id":"a7a878","name":"愛国","name_kana":"あいこく","closed":true,"lat":42.837139,"lng":143.193694,"prefecture":1,"lines":[10115],"postal_code":"089-1181","address":"北海道帯広市愛国町基線４１−２","open_date":"1929-11-02","closed_date":"1987-02-02","next":[1011503,1110708,1110707,1011509,1011505,1011506,1110711],"voronoi":{"lat":42.744548,"lng":143.312036,"delta_lat":[0,14065,91779,24041,5232,-89038,-43118],"delta_lng":[0,-40494,-150380,30988,16441,128456,27749]},"impl":false},
    {"code":1110708,"left":1110706,"right":1110710,"id":"ad9c96","name":"柏林台","name_kana":"はくりんだい","lat":42.928877,"lng":143.1645,"prefecture":1,"lines":[11107],"attr":"cool","postal_code":"080-0027","address":"帯広市西１７条南１丁目","next":[1010702,1011504,1110707,1110709,1010703,1011503],"voronoi":{"lat":42.879665,"lng":143.168591,"delta_lat":[0,-5232,112204,-15876,-36600,-52117],"delta_lng":[0,-16441,-14518,30758,17950,-15141]},"impl":true},
    {"code":1110706,"left":1110705,"right":1110707,"id":"91e559","name":"大成","name_kana":"たいせい","lat":42.91605619,"lng":143.0696659,"prefecture":1,"lines":[11107],"attr":"cool","postal_code":"082-0006","address":"河西郡芽室町東芽室南２線","next":[1011505,1010704,1110705,1110707,9911407],"voronoi":{"lat":43.008425,"lng":143.031474,"delta_lat":[0,-181227,19298,175240,6657],"delta_lng":[0,51924,24835,-24376,-7426]},"impl":true},
    {"code":1110705,"left":1011215,"id":"7cde30","name":"芽室","name_kana":"めむろ","lat":42.909846,"lng":143.047991,"prefecture":1,"lines":[11107],"attr":"cool","postal_code":"082-0030","address":"河西郡芽室町本通り１丁目","next":[9911407,1011505,9911406,1110704,1011507,1110706],"voronoi":{"lat":42.781513,"lng":143.037797,"delta_lat":[0,-39888,258025,8489,287,-181227],"delta_lng":[0,-99470,74871,17366,910,51924]},"impl":true},
    {"code":1011215,"id":"42cea4","name":"日高町","name_kana":"ひだかちょう","closed":true,"lat":42.881833,"lng":142.432356,"prefecture":1,"lines":[10112],"postal_code":"055-2305","address":"北海道沙流郡日高町新町３丁目３９６−２０","open_date":"1964-11-05","closed_date":"1986-11-01","next":[1110703,1111013,1011214,1111014],"voronoi":{"lat":42.743428,"lng":142.697617,"delta_lat":[0,166152,58650,-171087],"delta_lng":[0,-377497,202153,166774]},"impl":false},
    {"code":1110707,"id":"76c6bd","name":"西帯広","name_kana":"にしおびひろ","lat":42.923941,"lng":143.126351,"prefecture":1,"lines":[11107],"attr":"cool","postal_code":"080-2473","address":"帯広市西２３条南１丁目","next":[1010703,1110708,1011505,1010704,1011504,1110706],"voronoi":{"lat":43.021737,"lng":143.083857,"delta_lat":[0,-18184,-16916,-112204,-24041,-3895],"delta_lng":[0,36786,16990,14518,-30988,-12930]},"impl":true},
    {"code":1110710,"left":1011502,"right":1110709,"id":"4acdac","name":"札内","name_kana":"さつない","lat":42.912697,"lng":143.256248,"prefecture":1,"lines":[11107],"attr":"eco","postal_code":"089-0543","address":"中川郡幕別町字札内中央町","next":[1011502,1010703,1110711,1010702,1110709],"voronoi":{"lat":42.92108,"lng":143.229659,"delta_lat":[0,-57231,136121,-22451,-46205],"delta_lng":[0,37818,28801,-34295,-31325]},"impl":true},
    {"code":1011502,"left":1011503,"id":"ee8b6d","name":"依田","name_kana":"よだ","closed":true,"lat":42.893333,"lng":143.226944,"prefecture":1,"lines":[10115],"postal_code":"089-0571","address":"北海道中川郡幕別町字依田２５１","open_date":"1957-12-25","closed_date":"1987-02-02","next":[1110710,1110711,1011503,1110709],"voronoi":{"lat":42.863849,"lng":143.267477,"delta_lat":[0,-1580,29337,29474],"delta_lng":[0,238,-67141,29085]},"impl":false},
    {"code":1011503,"id":"55e92a","name":"北愛国","name_kana":"きたあいこく","closed":true,"lat":42.871083,"lng":143.217222,"prefecture":1,"lines":[10115],"postal_code":"089-1181","address":"北海道帯広市愛国町４６６−３","open_date":"1953-11-15","closed_date":"1987-02-02","next":[1011504,1110709,1110711,1011502,1110708],"voronoi":{"lat":42.879665,"lng":143.168591,"delta_lat":[0,-89038,71643,29337,-9563],"delta_lng":[0,128456,-29333,-67141,-29374]},"impl":false},
    {"code":1110709,"id":"ca7327","name":"帯広","name_kana":"おびひろ","lat":42.917997,"lng":143.20195,"prefecture":1,"lines":[11107,10107,10115],"attr":"cool","postal_code":"080-0012","address":"帯広市西２条南１２丁目","next":[1010702,1011503,1110708,1110710,1011502],"voronoi":{"lat":42.891606,"lng":143.200574,"delta_lat":[0,-9563,52117,-2846,-10234],"delta_lng":[0,-29374,15141,44317,-999]},"impl":true},
    {"code":1110722,"left":1110718,"right":9912005,"id":"e7046e","name":"尺別","name_kana":"しゃくべつ","closed":true,"lat":42.869163,"lng":143.904331,"prefecture":1,"lines":[11107,99120],"attr":"unknown","postal_code":"088-0132","address":"釧路市音別町尺別（岐線）","open_date":"1920-01-22","closed_date":"2019-03-16","next":[1110725,1110723,1110731,1110720,9912003,9912002],"voronoi":{"lat":42.889222,"lng":143.89238,"delta_lat":[0,13714,-466589,-151414,-196253,416175],"delta_lng":[0,9174,329206,76343,49888,-275889]},"impl":true},
    {"code":1110718,"left":1110716,"right":1110721,"id":"34ae09","name":"浦幌","name_kana":"うらほろ","lat":42.810849,"lng":143.651568,"prefecture":1,"lines":[11107],"attr":"eco","postal_code":"089-5603","address":"十勝郡浦幌町字本町","next":[1110720,1110717,1110716,9910907,1110715,1110719,9912006],"voronoi":{"lat":42.967425,"lng":143.657921,"delta_lat":[0,-8397,-41749,-78431,-179563,16294,264201],"delta_lng":[0,-44275,-12442,-4651,135211,131,-56574]},"impl":true},
    {"code":1110716,"left":1110717,"right":1110715,"id":"d6ef81","name":"豊頃","name_kana":"とよころ","lat":42.817548,"lng":143.538615,"prefecture":1,"lines":[11107],"attr":"eco","postal_code":"089-5232","address":"中川郡豊頃町豊頃旭町","next":[1110715,1110717,1011510,1110718],"voronoi":{"lat":42.838847,"lng":143.596553,"delta_lat":[0,-205280,80221,203490],"delta_lng":[0,-115867,-85205,205723]},"impl":true},
    {"code":1110717,"left":1011510,"id":"34b350","name":"新吉野","name_kana":"しんよしの","lat":42.778238,"lng":143.60826,"prefecture":1,"lines":[11107],"attr":"eco","postal_code":"089-5541","address":"十勝郡浦幌町字吉野","next":[1110716,1110720,1011516,1110718,1011510,1011514],"voronoi":{"lat":42.490809,"lng":143.579763,"delta_lat":[0,142758,205280,-179563,-316994,56234],"delta_lng":[0,-99077,115867,135211,48136,-84049]},"impl":true},
    {"code":1011510,"id":"a74cca","name":"忠類","name_kana":"ちゅうるい","closed":true,"lat":42.564667,"lng":143.300528,"prefecture":1,"lines":[10115],"postal_code":"089-1709","address":"北海道中川郡幕別町忠類幸町５１１−４","open_date":"1930-10-10","closed_date":"1987-02-02","next":[1110715,1011512,1110716,1011513,1110717,1011514,1011511,1011509],"voronoi":{"lat":42.713788,"lng":143.395481,"delta_lat":[0,-80221,-142758,-140,14450,9872,56340,149939],"delta_lng":[0,85205,99077,-4110,-222947,-29909,-62204,124012]},"impl":false},
    {"code":1110715,"id":"91b742","name":"十弗","name_kana":"とおふつ","lat":42.855781,"lng":143.500797,"prefecture":1,"lines":[11107],"attr":"eco","postal_code":"089-5243","address":"中川郡豊頃町字十弗宝町","next":[1011510,9910904,1110716,9910905,9910907,1110712,1110718,9910902,1110714,1011509],"voronoi":{"lat":42.713788,"lng":143.395481,"delta_lat":[0,203490,41749,4173,180,-553,-9985,-107122,-114264,-10186],"delta_lng":[0,205723,12442,-11336,-1756,-11716,-23142,-148929,-42037,9875]},"impl":true},
    {"code":1110721,"left":1110720,"right":9912002,"id":"1456e1","name":"直別","name_kana":"ちょくべつ","closed":true,"lat":42.852205,"lng":143.863607,"prefecture":1,"lines":[11107],"attr":"unknown","postal_code":"088-0135","address":"釧路市音別町直別","open_date":"1907-10-25","closed_date":"2019-03-16","next":[9912003,9912005,9912004,1110720,9912002],"voronoi":{"lat":42.856575,"lng":143.816717,"delta_lat":[0,12213,6989,-4961,-160560],"delta_lng":[0,13790,11925,35353,65773]},"impl":true},
    {"code":1110720,"left":1110719,"id":"5623a6","name":"厚内","name_kana":"あつない","lat":42.809539,"lng":143.814389,"prefecture":1,"lines":[11107],"attr":"eco","postal_code":"089-5865","address":"十勝郡浦幌町字厚内","next":[9912006,9912005,1110717,1110718,1110719,1011517,1110803,1110722,1011516,1110721,9912002,1110731],"voronoi":{"lat":41.633985,"lng":144.496622,"delta_lat":[0,656714,51592,316994,16294,180085,1378,-466,-146319,-205401,-416175,-209227],"delta_lng":[0,-668004,-48718,-48136,131,62282,10528,12011,126841,137545,275889,66737]},"impl":true},
    {"code":1110719,"id":"ce1c2d","name":"上厚内","name_kana":"かみあつない","closed":true,"lat":42.831881,"lng":143.749788,"prefecture":1,"lines":[11107],"attr":"unknown","postal_code":"089-5866","address":"十勝郡浦幌町字上厚内","open_date":"1910-12-01","closed_date":"2017-03-04","next":[1110720,9912006,1110718],"voronoi":{"lat":42.855664,"lng":143.794177,"delta_lat":[0,84116,-264201],"delta_lng":[0,-118856,56574]},"impl":true},
    {"code":9912002,"id":"7b4de7","name":"社尺別","name_kana":"しゃしゃくべつ","closed":true,"lat":42.8675,"lng":143.900944,"prefecture":1,"lines":[99120],"postal_code":"088-0133","address":"北海道釧路市音別町尺別１−１","open_date":"1942-11-03","closed_date":"1970-04-16","next":[9912003,1110720,1110722,1110721],"voronoi":{"lat":42.870816,"lng":143.877784,"delta_lat":[0,18406,-384367,205401],"delta_lng":[0,14596,188722,-137545]},"impl":false},
    {"code":9912005,"left":1110712,"right":9912003,"id":"412e79","name":"旭町","name_kana":"あさひまち","closed":true,"lat":42.90365,"lng":143.818042,"prefecture":1,"lines":[99120],"postal_code":"088-0135","address":"北海道釧路市音別町直別","open_date":"1942-11-03","closed_date":"1970-04-16","next":[1110720,9912006,9912004,1110721],"voronoi":{"lat":42.963032,"lng":143.816392,"delta_lat":[0,-105991,-466,12213],"delta_lng":[0,-11687,12011,13790]},"impl":false},
    {"code":1110712,"left":9912006,"right":1110714,"id":"0f8a82","name":"幕別","name_kana":"まくべつ","lat":42.90784,"lng":143.359293,"prefecture":1,"lines":[11107],"attr":"eco","postal_code":"089-0604","address":"中川郡幕別町錦町","next":[1110713,1011509,1110715,9910902,1010706,1110711,9910903,1110714],"voronoi":{"lat":42.731457,"lng":143.37473,"delta_lat":[0,13681,276925,8945,-15552,-4491,-141118,-24126],"delta_lng":[0,-36229,-17382,12667,17929,3168,58192,3692]},"impl":true},
    {"code":9912006,"left":1110711,"id":"6501e9","name":"尺別炭山","name_kana":"しゃくべつたんざん","closed":true,"lat":42.905436,"lng":143.801844,"prefecture":1,"lines":[99120],"postal_code":"088-0135","address":"北海道釧路市音別町直別","open_date":"1942-11-03","closed_date":"1970-04-16","next":[1110720,9912005,1010906,1110719,9910908,9910907,9912004,1110718],"voronoi":{"lat":42.855664,"lng":143.794177,"delta_lat":[0,1378,105991,57594,32929,-48685,-37446,-27645],"delta_lng":[0,10528,11687,-638,-63723,-56990,-37120,17400]},"impl":false},
    {"code":1110711,"id":"5fba7c","name":"稲士別","name_kana":"いなしべつ","closed":true,"lat":42.903963,"lng":143.297528,"prefecture":1,"lines":[11107],"attr":"unknown","postal_code":"089-0564","address":"中川郡幕別町稲志別","open_date":"1959-10-07","closed_date":"2017-03-04","next":[1010703,1110710,1011502,1011503,1011509,1110712,1010705,1010706,1011504],"voronoi":{"lat":42.790626,"lng":143.297048,"delta_lat":[0,71643,1580,136121,19767,622,1703,-276925,2371],"delta_lng":[0,-29333,-238,28801,19153,1095,4594,17382,-13705]},"impl":true},
    {"code":1110714,"id":"c2dabf","name":"池田(北海道)","original_name":"池田","name_kana":"いけだ","lat":42.922186,"lng":143.453033,"prefecture":1,"lines":[11107,10118,99109],"attr":"eco","postal_code":"083-0091","address":"中川郡池田町東１条１丁目","next":[9910902,1110715,1110713,1110712],"voronoi":{"lat":42.869846,"lng":143.413075,"delta_lat":[0,77113,5883,-107122],"delta_lng":[0,33771,118850,-148929]},"impl":true},
    {"code":9912003,"left":1110723,"right":9912004,"id":"d5a510","name":"八幡前(北海道)","original_name":"八幡前","name_kana":"はちまんまえ","closed":true,"lat":42.892611,"lng":143.869278,"prefecture":1,"lines":[99120],"postal_code":"088-0133","address":"北海道釧路市音別町尺別４６−１","open_date":"1942-11-03","closed_date":"1970-04-16","next":[9912002,1110721,1010906,9912004,1110723,1010905,1110722],"voronoi":{"lat":42.989138,"lng":143.906486,"delta_lat":[0,4590,1957,-119907,-4961,18406,13714],"delta_lng":[0,-9035,-12446,-42574,35353,14596,9174]},"impl":false},
    {"code":1110723,"id":"49b568","name":"音別","name_kana":"おんべつ","lat":42.888997,"lng":143.932442,"prefecture":1,"lines":[11107],"attr":"eco","postal_code":"088-0115","address":"釧路市音別町本町１丁目","next":[1110725,1010905,1110724,1110722,9912003],"voronoi":{"lat":42.987422,"lng":143.917165,"delta_lat":[0,-185910,-365165,466589,86201],"delta_lng":[0,143793,169803,-329206,4932]},"impl":true},
    {"code":9912004,"id":"c8445f","name":"新尺別","name_kana":"しんしゃくべつ","closed":true,"lat":42.905772,"lng":143.832211,"prefecture":1,"lines":[99120],"postal_code":"088-0133","address":"北海道釧路市音別町尺別","open_date":"1942-11-03","closed_date":"1970-04-16","next":[9912005,9912003,1110721,9912006,1010906],"voronoi":{"lat":43.020627,"lng":143.815755,"delta_lat":[0,-57594,-94244,6989,119907],"delta_lng":[0,638,14114,11925,42574]},"impl":false},
    {"code":1110727,"left":1010703,"right":9911904,"id":"bcbcf2","name":"庶路","name_kana":"しょろ","lat":42.983601,"lng":144.150018,"prefecture":1,"lines":[11107],"attr":"heat","postal_code":"088-0563","address":"白糠郡白糠町庶路甲区","next":[1110726,1110731,9911909,1110728,9911908],"voronoi":{"lat":43.029461,"lng":144.19396,"delta_lat":[0,14554,-436154,82227,326573],"delta_lng":[0,-77747,161203,-2475,-67173]},"impl":true},
    {"code":1010703,"left":9910902,"right":1010705,"id":"d5607e","name":"音更","name_kana":"おとふけ","closed":true,"lat":42.998194,"lng":143.200278,"prefecture":1,"lines":[10107],"postal_code":"080-0104","address":"北海道河東郡音更町新通６丁目１-２９","open_date":"1925-12-10","closed_date":"1987-03-23","next":[1110707,1110710,1110711,1010704,1010705,1010702,1110708],"voronoi":{"lat":42.97752,"lng":143.261983,"delta_lat":[0,22451,19767,9631,-25816,-16916,-15876],"delta_lng":[0,34295,19153,-96521,-98267,16990,30758]},"impl":false},
    {"code":9910902,"left":1110703,"right":1110726,"id":"6dacff","name":"様舞","name_kana":"さままい","closed":true,"lat":42.972222,"lng":143.450556,"prefecture":1,"lines":[10118,99109],"postal_code":"083-0004","address":"北海道中川郡池田町字様舞","closed_date":"2006-04-21","next":[1110712,1110713,9910903,1110714,9910904,1110715],"voronoi":{"lat":42.981812,"lng":143.547228,"delta_lat":[0,33643,-4491,-64005,5883,9985],"delta_lng":[0,-195512,3168,91963,118850,23142]},"impl":false},
    {"code":1110703,"left":1010702,"right":1111013,"id":"5d19f6","name":"羽帯","name_kana":"はおび","closed":true,"lat":42.957499,"lng":142.906646,"prefecture":1,"lines":[11107],"attr":"unknown","postal_code":"089-0356","address":"上川郡清水町字羽帯","open_date":"1958-09-10","closed_date":"2018-03-17","next":[1011215,1011213,1111121,1111014,1110704,1011214,9911406,1110702],"voronoi":{"lat":42.90249,"lng":142.724108,"delta_lat":[0,-105347,-53715,-42833,-78643,-7307,397005,1425],"delta_lng":[0,-35060,8570,9780,23222,16756,205797,-3117]},"impl":true},
    {"code":1010702,"left":1110704,"id":"4170eb","name":"木野(北海道)","original_name":"木野","name_kana":"きの","closed":true,"lat":42.948194,"lng":143.203889,"prefecture":1,"lines":[10107],"postal_code":"080-0301","address":"北海道河東郡音更町木野大通西６丁目","open_date":"1925-12-10","closed_date":"1987-03-23","next":[1110708,1110709,1010703,1110710],"voronoi":{"lat":42.970761,"lng":143.168391,"delta_lat":[0,-36600,-2846,46205],"delta_lng":[0,17950,44317,31325]},"impl":false},
    {"code":1110704,"id":"c7b35f","name":"御影(北海道)","original_name":"御影","name_kana":"みかげ","lat":42.942418,"lng":142.935739,"prefecture":1,"lines":[11107],"attr":"cool","postal_code":"089-0354","address":"上川郡清水町御影本通り１丁目","next":[9911406,1110705,1110703,1011507,1111121],"voronoi":{"lat":42.614646,"lng":142.747376,"delta_lat":[0,397005,-12001,-258025,-136961],"delta_lng":[0,205797,60025,-74871,-170525]},"impl":true},
    {"code":1111013,"id":"0be8cc","name":"占冠","name_kana":"しむかっぷ","lat":42.993088,"lng":142.400078,"prefecture":1,"lines":[11110],"attr":"eco","postal_code":"079-2202","address":"勇払郡占冠村占冠","next":[1111014,9911806,1011215,1011208,1011214,1110614,1110615,9911804],"voronoi":{"lat":43.080718,"lng":142.265167,"delta_lat":[0,-25863,-1718,-84907,-58650,-3435,41257,89184],"delta_lng":[0,229428,2380,25298,-202153,-31070,-48009,12080]},"impl":true},
    {"code":1110726,"left":1110725,"right":1010902,"id":"d0da0b","name":"西庶路","name_kana":"にししょろ","lat":42.976138,"lng":144.129826,"prefecture":1,"lines":[11107],"attr":"heat","postal_code":"088-0572","address":"白糠郡白糠町西庶路西１条南３丁目","next":[1110727,9911910,1110725,9911909,1110731,1010902],"voronoi":{"lat":43.045245,"lng":144.112752,"delta_lat":[0,-1229,-436154,-121500,515507,43284],"delta_lng":[0,3462,161203,6961,-194502,9656]},"impl":true},
    {"code":1110725,"left":1110724,"id":"0fc1f4","name":"白糠","name_kana":"しらぬか","lat":42.956161,"lng":144.076879,"prefecture":1,"lines":[11107,10109],"attr":"heat","postal_code":"088-0301","address":"白糠郡白糠町東１条南１丁目","next":[1110726,1110723,1110731,1110722,1010902,1110724],"voronoi":{"lat":42.960204,"lng":144.041744,"delta_lat":[0,41664,-515507,-201428,151414,365165],"delta_lng":[0,48132,194502,22726,-76343,-169803]},"impl":true},
    {"code":1110724,"id":"2de3d2","name":"古瀬","name_kana":"ふるせ","closed":true,"lat":42.947893,"lng":144.008589,"prefecture":1,"lines":[11107],"attr":"unknown","postal_code":"088-0351","address":"白糠郡白糠町和天別","open_date":"1954-07-01","closed_date":"2020-03-14","next":[1010903,1110723,1010905,1110725,1010902],"voronoi":{"lat":42.801513,"lng":144.060957,"delta_lat":[0,185910,11347,-12514,-26051],"delta_lng":[0,-143793,31568,56693,36318]},"impl":true},
    {"code":1010902,"id":"d81770","name":"上白糠","name_kana":"かみしらぬか","closed":true,"lat":42.995556,"lng":144.042778,"prefecture":1,"lines":[10109],"postal_code":"088-0341","address":"北海道白糠郡白糠町茶路基線","open_date":"1964-10-07","closed_date":"1983-10-23","next":[1010903,1110725,1110726,1110724,9911910],"voronoi":{"lat":43.001868,"lng":144.089876,"delta_lat":[0,-41664,26051,64997,-6100],"delta_lng":[0,-48132,-36318,85672,8434]},"impl":false},
    {"code":1010705,"left":1111014,"right":1010904,"id":"4cb9c5","name":"武儀","name_kana":"むぎ","closed":true,"lat":43.063611,"lng":143.206806,"prefecture":1,"lines":[10107],"postal_code":"080-0562","address":"北海道河東郡音更町字東音更幹線３５","open_date":"1956-12-25","closed_date":"1987-03-23","next":[1010706,9911413,1010703,1010704,1110711],"voronoi":{"lat":43.019737,"lng":143.31543,"delta_lat":[0,9631,79251,5821,-94081],"delta_lng":[0,-96521,-66229,5919,157926]},"impl":false},
    {"code":1111014,"left":1010704,"right":9911403,"id":"347842","name":"トマム","name_kana":"とまむ","lat":43.055913,"lng":142.610937,"prefecture":1,"lines":[11110],"attr":"eco","postal_code":"079-2204","address":"勇払郡占冠村字中トマム","next":[1111013,1110617,1110616,1110615,1110703,1110702,1011215,9911402],"voronoi":{"lat":43.016909,"lng":142.727478,"delta_lat":[0,99359,-26187,-36943,-84907,-171087,105347,47758],"delta_lng":[0,-118106,-66738,-45658,25298,166774,35060,7650]},"impl":true},
    {"code":1010704,"left":1110702,"id":"dd5f7d","name":"駒場","name_kana":"こまば","closed":true,"lat":43.047361,"lng":143.187361,"prefecture":1,"lines":[10107],"postal_code":"080-0565","address":"北海道河東郡音更町駒場本通１丁目","open_date":"1925-12-10","closed_date":"1987-03-23","next":[9911408,1110707,1010703,1110706,1010705,9911407,9911413],"voronoi":{"lat":43.029369,"lng":143.218909,"delta_lat":[0,-25816,18184,6657,4776,30997,44453],"delta_lng":[0,-98267,-36786,-7426,1233,9489,65528]},"impl":false},
    {"code":1110702,"id":"aa1c3b","name":"十勝清水","name_kana":"とかちしみず","lat":43.012892,"lng":142.879535,"prefecture":1,"lines":[11107],"attr":"cool","postal_code":"089-0136","address":"上川郡清水町本通１丁目","next":[9911402,9911403,9911405,1111014,9911406,1110703],"voronoi":{"lat":42.90249,"lng":142.724108,"delta_lat":[0,47758,87994,2804,-15718,-12253],"delta_lng":[0,7650,122254,66842,19103,10099]},"impl":true},
    {"code":9911403,"id":"44e227","name":"佐幌","name_kana":"さほろ","closed":true,"lat":43.065642,"lng":142.877322,"prefecture":1,"lines":[99114],"postal_code":"089-0102","address":"北海道上川郡清水町字下佐幌","open_date":"1932-11-15","closed_date":"1968-10-01","next":[9911402,1110702,9911404,9911405,1110618],"voronoi":{"lat":43.057021,"lng":142.915452,"delta_lat":[0,-15975,-2804,49974,16291],"delta_lng":[0,5401,-66842,6178,6118]},"impl":false},
    {"code":1010904,"left":1010903,"right":9910904,"id":"6e47f1","name":"茶路","name_kana":"ちゃろ","closed":true,"lat":43.037778,"lng":144.016944,"prefecture":1,"lines":[10109],"postal_code":"088-0300","address":"北海道白糠郡白糠町茶路基線１１７","open_date":"1964-10-07","closed_date":"1983-10-23","next":[1010905,9911910,9911911,9911913,1010903],"voronoi":{"lat":42.998913,"lng":143.948863,"delta_lat":[0,121839,-820,-6559,-57227],"delta_lng":[0,85784,1902,10829,39272]},"impl":false},
    {"code":1010903,"left":9910903,"id":"9a6f4c","name":"共栄(国鉄)","original_name":"共栄","name_kana":"きょうえい","closed":true,"lat":43.019722,"lng":144.024444,"prefecture":1,"lines":[10109],"postal_code":"088-0342","address":"北海道白糠郡白糠町茶路基線","open_date":"1974-07-25","closed_date":"1983-10-23","next":[1110724,1010904,1010905,1010902,9911910],"voronoi":{"lat":43.056147,"lng":144.086651,"delta_lat":[0,-57233,-144,-12514,64997],"delta_lng":[0,-137787,-131,56693,85672]},"impl":false},
    {"code":9910903,"id":"32a1e7","name":"高島(北海道)","original_name":"高島","name_kana":"たかしま","closed":true,"lat":43.023164,"lng":143.459322,"prefecture":1,"lines":[10118,99109],"postal_code":"089-3152","address":"北海道中川郡池田町字高島","open_date":"1910-09-22","closed_date":"2006-04-21","next":[1010709,1010708,1010706,9910902,1010707,9910904,1110712],"voronoi":{"lat":43.031007,"lng":143.333786,"delta_lat":[0,55992,8228,18515,10610,-142540,33643],"delta_lng":[0,17558,3905,12150,9675,170153,-195512]},"impl":false},
    {"code":9910904,"id":"7f55a1","name":"大森(北海道)","original_name":"大森","name_kana":"おおもり","closed":true,"lat":43.061111,"lng":143.491111,"prefecture":1,"lines":[10118,99109],"postal_code":"089-3151","address":"北海道中川郡池田町字大森２６３−１４","open_date":"1968-10-01","closed_date":"2006-04-21","next":[1110715,1010709,9910902,9910903,1010710,9910905],"voronoi":{"lat":43.181081,"lng":143.419916,"delta_lat":[0,-36543,-20185,-142540,-18985,553],"delta_lng":[0,-30512,-12330,170153,41611,11716]},"impl":false},
    {"code":9911904,"left":9911903,"right":1110805,"id":"e8c448","name":"雄鉄昭和","name_kana":"ゆうてつしょうわ","closed":true,"lat":43.017306,"lng":144.364917,"prefecture":1,"lines":[99119],"postal_code":"084-0903","address":"北海道釧路市昭和町３丁目１７-５","open_date":"1968-01-20","closed_date":"1970-04-16","next":[1110730,9911905,9911906,9911903,1111725,1110731],"voronoi":{"lat":43.065157,"lng":144.400143,"delta_lat":[0,29361,-9208,-72613,-12304,2646],"delta_lng":[0,-29523,-3379,-12997,13643,4143]},"impl":false},
    {"code":9911903,"left":1110728,"right":1110804,"id":"a21fab","name":"中園","name_kana":"なかぞの","closed":true,"lat":43.007111,"lng":144.387444,"prefecture":1,"lines":[99119],"postal_code":"085-0052","address":"北海道釧路市中園町１９-７","open_date":"1960-03-01","closed_date":"1970-04-16","next":[1111726,1111725,1110802,9911904,9911902,1110731],"voronoi":{"lat":43.003038,"lng":144.37203,"delta_lat":[0,62118,-1142,-26840,-31428,-7903],"delta_lng":[0,28113,1770,15428,-15677,-13911]},"impl":false},
    {"code":1110728,"left":1110731,"right":1110729,"id":"626d48","name":"大楽毛","name_kana":"おたのしけ","lat":43.009078,"lng":144.273879,"prefecture":1,"lines":[11107],"attr":"heat","postal_code":"084-0917","address":"釧路市大楽毛５丁目","next":[9911907,9911908,1110729,1110731,1110727],"voronoi":{"lat":43.016662,"lng":144.207768,"delta_lat":[0,24056,-6337,-264843,-79449],"delta_lng":[0,43389,33161,4215,-13592]},"impl":true},
    {"code":1110731,"left":1110730,"id":"936c69","name":"釧路","name_kana":"くしろ","lat":42.990584,"lng":144.381983,"prefecture":1,"lines":[11107,11108,11117,99119],"attr":"eco","postal_code":"085-0015","address":"釧路市北大通１４丁目","next":[1110727,1110725,1110728,1110722,1110730,1110803,1110729,9911902,1110726,1110720,9911903,9911904],"voronoi":{"lat":43.000393,"lng":144.367888,"delta_lat":[0,-215096,-15759,-79449,-82227,-121500,-201428,-196253,-209227,1007364,111026,5195],"delta_lng":[0,-75919,-3435,-13592,2475,6961,22726,49888,66737,-17579,-18396,-15723]},"impl":true},
    {"code":1110730,"id":"a93386","name":"新富士(北海道)","original_name":"新富士","name_kana":"しんふじ","lat":43.001605,"lng":144.350758,"prefecture":1,"lines":[11107],"attr":"heat","postal_code":"084-0904","address":"釧路市新富士町３丁目","next":[1110729,9911904,9911905,1110731,9911906],"voronoi":{"lat":43.012696,"lng":144.354244,"delta_lat":[0,-12304,-215096,218813,757],"delta_lng":[0,13643,-75919,30991,892]},"impl":true},
    {"code":1110729,"id":"025fae","name":"新大楽毛","name_kana":"しんおたのしけ","lat":43.009423,"lng":144.295558,"prefecture":1,"lines":[11107],"attr":"heat","postal_code":"084-0917","address":"釧路市大楽毛１丁目","next":[1110730,1110728,9911907,9911906,1110731],"voronoi":{"lat":43.004109,"lng":144.322959,"delta_lat":[0,33214,-2943,-264843,15759],"delta_lng":[0,-25383,-13258,4215,3435]},"impl":true},
    {"code":1110804,"left":1110803,"right":1110802,"id":"d1dc96","name":"別保","name_kana":"べっぽ","lat":42.994384,"lng":144.469596,"prefecture":1,"lines":[11108],"attr":"heat","postal_code":"088-0604","address":"釧路郡釧路町字別保","next":[1110805,1110806,1011517,1110803,1111726],"voronoi":{"lat":42.744285,"lng":144.613633,"delta_lat":[0,-1569950,374251,1468856,18587],"delta_lng":[0,161439,-225296,-103366,88545]},"impl":true},
    {"code":1110803,"left":9911902,"id":"72aaa3","name":"武佐(北海道)","original_name":"武佐","name_kana":"むさ","lat":42.991364,"lng":144.426681,"prefecture":1,"lines":[11108],"attr":"heat","postal_code":"085-0806","address":"釧路市武佐４丁目","next":[1110802,1111726,9911902,1110720,1011517,1110731,1110804],"voronoi":{"lat":41.633985,"lng":144.496622,"delta_lat":[0,245469,1007364,67905,73232,-10512,-1468856],"delta_lng":[0,-72894,-17579,3205,18306,18749,103366]},"impl":true},
    {"code":9911902,"id":"400b8f","name":"新釧路","name_kana":"しんくしろ","closed":true,"lat":42.992833,"lng":144.395556,"prefecture":1,"lines":[99119],"postal_code":"085-0002","address":"北海道釧路市新釧路町８-８","open_date":"1923-01-17","closed_date":"1970-04-16","next":[1110802,1110803,1110731,9911903],"voronoi":{"lat":42.954722,"lng":144.409354,"delta_lat":[0,-67905,111026,7903],"delta_lng":[0,-3205,-18396,13911]},"impl":false},
    {"code":1110802,"id":"f3c62d","name":"東釧路","name_kana":"ひがしくしろ","lat":42.995207,"lng":144.411307,"prefecture":1,"lines":[11108,11117],"attr":"eco","postal_code":"085-0816","address":"釧路市貝塚２丁目","next":[9911902,1110803,1111726,9911903],"voronoi":{"lat":43.005747,"lng":144.401664,"delta_lat":[0,-51024,73232,9220],"delta_lng":[0,7690,18306,-10319]},"impl":true},
    {"code":1110805,"left":1111726,"right":1110808,"id":"b0c39f","name":"上尾幌","name_kana":"かみおぼろ","lat":43.032893,"lng":144.61239,"prefecture":1,"lines":[11108],"attr":"heat","postal_code":"088-0771","address":"厚岸郡厚岸町字上尾幌市街","next":[1110804,1111723,1111721,1111726,1110807,1111724,1111720,1110806],"voronoi":{"lat":43.166718,"lng":144.679898,"delta_lat":[0,-90,-20866,-56820,-27012,-25900,-291744,420944],"delta_lng":[0,-6058,-64277,-58429,-13659,-2520,78678,66481]},"impl":true},
    {"code":1111726,"left":9911905,"right":9911907,"id":"df4917","name":"遠矢","name_kana":"とおや","lat":43.047878,"lng":144.458367,"prefecture":1,"lines":[11117],"attr":"eco","postal_code":"088-2145","address":"釧路郡釧路町字遠矢","next":[9911903,1110803,1111725,1110802,1110805,1111724,1110804],"voronoi":{"lat":43.06193,"lng":144.537475,"delta_lat":[0,14531,-12446,-26840,-9220,-10512,18587],"delta_lng":[0,-73418,-62143,15428,10319,18749,88545]},"impl":true},
    {"code":9911905,"left":9911906,"id":"2ea5c8","name":"北園","name_kana":"きたぞの","closed":true,"lat":43.020722,"lng":144.345833,"prefecture":1,"lines":[99119],"postal_code":"084-0909","address":"北海道釧路市昭和南５丁目３","closed_date":"1970-04-16","next":[1110730,9911904,9911906],"voronoi":{"lat":43.004866,"lng":144.323851,"delta_lat":[0,7830,72613],"delta_lng":[0,30393,12997]},"impl":false},
    {"code":9911906,"id":"66d0b9","name":"鶴野","name_kana":"つるの","closed":true,"lat":43.031944,"lng":144.325028,"prefecture":1,"lines":[99119],"postal_code":"084-0924","address":"北海道釧路市鶴野","open_date":"1968-01-20","closed_date":"1970-04-16","next":[1111725,1110729,9911904,9911905,9911907,1110730],"voronoi":{"lat":43.004109,"lng":144.322959,"delta_lat":[0,33214,81745,-24551,-9208,-80443],"delta_lng":[0,-25383,59305,13739,-3379,-43390]},"impl":false},
    {"code":9911907,"id":"582865","name":"北斗","name_kana":"ほくと","closed":true,"lat":43.06175,"lng":144.283944,"prefecture":1,"lines":[99119],"postal_code":"084-0922","address":"北海道釧路市北斗１８６−２","open_date":"1923-01-17","closed_date":"1970-04-16","next":[1111725,1110728,1111722,1110729,9911908,9911906],"voronoi":{"lat":43.037323,"lng":144.297577,"delta_lat":[0,-2943,6337,210703,-19658,-112694],"delta_lng":[0,-13258,-33161,66422,12550,26752]},"impl":false},
    {"code":1110808,"left":1110806,"right":1110807,"id":"eaaa90","name":"厚岸","name_kana":"あっけし","lat":43.056248,"lng":144.841355,"prefecture":1,"lines":[11108],"attr":"cool","postal_code":"088-1124","address":"厚岸郡厚岸町字宮園町","next":[1110807,1110816,1110806,9920816,1110809,1110810],"voronoi":{"lat":39.188776,"lng":146.005674,"delta_lat":[0,178127,3539290,294925,-451037,-1049842],"delta_lng":[0,-225187,-971912,6696,253465,410689]},"impl":true},
    {"code":1110806,"id":"066f1d","name":"尾幌","name_kana":"おぼろ","lat":43.018463,"lng":144.703758,"prefecture":1,"lines":[11108],"attr":"cool","postal_code":"088-0875","address":"厚岸郡厚岸町大字苫多村字尾幌","next":[1011517,1110804,1110808,1110805,1110807,9920816],"voronoi":{"lat":42.906192,"lng":144.808575,"delta_lat":[0,259037,-420944,-1569950,-1720882,-86551],"delta_lng":[0,-128461,-66481,161439,891678,113737]},"impl":true},
    {"code":1110807,"id":"7516b4","name":"門静","name_kana":"もんしず","lat":43.057581,"lng":144.782638,"prefecture":1,"lines":[11108],"attr":"cool","postal_code":"088-1126","address":"厚岸郡厚岸町字門静","next":[1110808,1110809,1110805,1111720,1112304,1112303,1110806],"voronoi":{"lat":43.201118,"lng":144.81527,"delta_lat":[0,22456,-843,-23247,-32766,-1488,-259037],"delta_lng":[0,-7222,-5909,-76933,-45309,216,128461]},"impl":true}
  ]
}