{
  "name":"segment21",
  "root":1170316,
  "east":134.825246,
  "west":-180.0,
  "south":34.824857,
  "north":35.195467,
  "station_size":155,
  "node_list":[
    {"code":1170316,"left":1170132,"right":1163312,"id":"1ce1dc","name":"井倉","name_kana":"いくら","lat":34.931724,"lng":133.516301,"prefecture":33,"lines":[11703],"attr":"eco","postal_code":"719-2551","address":"新見市井倉","next":[1163423,1171407,1163424,1170315,1170317,1163421],"voronoi":{"lat":34.822861,"lng":133.424972,"delta_lat":[0,3391,151110,1834,-9638,-11722],"delta_lng":[0,-284,94572,45968,29530,15003]},"impl":true},
    {"code":1170132,"left":1170727,"right":1170717,"id":"16a05f","name":"都野津","name_kana":"つのづ","lat":34.9896,"lng":132.187398,"prefecture":32,"lines":[11701],"attr":"heat","postal_code":"695-0021","address":"江津市都野津町","next":[1170134,1170703,1170702,1170123,1170133,1170131],"voronoi":{"lat":36.190847,"lng":131.432886,"delta_lat":[0,1266036,-2378410,-153554,31109,35028],"delta_lng":[0,-1014626,1679330,134651,-5998,-14391]},"impl":true},
    {"code":1170727,"left":1170136,"right":1171415,"id":"40e928","name":"香淀","name_kana":"こうよど","closed":true,"lat":34.827113,"lng":132.71385,"prefecture":34,"lines":[11707],"attr":"unknown","postal_code":"728-0133","address":"三次市作木町門田","closed_date":"2018-04-01","next":[1170730,1170726,1170729,1170728,1170724],"voronoi":{"lat":34.827905,"lng":132.655046,"delta_lat":[0,-7471,28078,2758,-17344],"delta_lng":[0,67456,23826,1269,-84452]},"impl":true},
    {"code":1170136,"left":1170722,"right":1170706,"id":"d19b75","name":"下府","name_kana":"しもこう","lat":34.927322,"lng":132.110541,"prefecture":32,"lines":[11701],"attr":"cool","postal_code":"697-0006","address":"浜田市下府町","next":[1170137,1170139,1170135,1170134],"voronoi":{"lat":35.606782,"lng":131.534173,"delta_lat":[0,-554606,-263126,249725],"delta_lng":[0,411435,295320,-194020]},"impl":true},
    {"code":1170722,"left":1170138,"right":1170724,"id":"5cc0c6","name":"宇都井","name_kana":"うづい","closed":true,"lat":34.906557,"lng":132.629657,"prefecture":32,"lines":[11707],"attr":"unknown","postal_code":"696-0503","address":"邑智郡邑南町宇都井","closed_date":"2018-04-01","next":[1170707,1170723,1170709,1171715,1170724,1171714,1170721,1170711,1171433,1170720,1170728],"voronoi":{"lat":34.727552,"lng":132.524918,"delta_lat":[0,-729,1993,10203,45418,135959,18576,4973,-17365,-74434,-60215],"delta_lng":[0,-5108,-6234,-29695,9268,52122,13926,29345,66248,-27405,-32029]},"impl":true},
    {"code":1170138,"left":1170139,"right":1170137,"id":"4b6d9b","name":"西浜田","name_kana":"にしはまだ","lat":34.869399,"lng":132.050434,"prefecture":32,"lines":[11701],"attr":"cool","postal_code":"697-0062","address":"浜田市熱田町","next":[1170137,9970918,9970917,1170139,9970919,1170140],"voronoi":{"lat":34.786495,"lng":132.060114,"delta_lat":[0,180766,-285696,-20424,-9248,-34849],"delta_lng":[0,-61456,249229,-22093,-10388,-40676]},"impl":true},
    {"code":1170139,"left":1170140,"id":"15cbd8","name":"周布","name_kana":"すふ","lat":34.85812,"lng":132.017258,"prefecture":32,"lines":[11701],"attr":"cool","postal_code":"697-1326","address":"浜田市治和町","next":[1170134,1170137,1170203,1170136,1170140,1170143,1170138,1170142],"voronoi":{"lat":35.242705,"lng":131.612561,"delta_lat":[0,247331,1069697,-952952,-554606,-84915,-180766,328044],"delta_lng":[0,-189354,-642576,753543,411435,53050,61456,-341978]},"impl":true},
    {"code":1170140,"id":"01ff3e","name":"折居","name_kana":"おりい","lat":34.826336,"lng":131.986769,"prefecture":32,"lines":[11701],"attr":"cool","postal_code":"697-1337","address":"浜田市西村町","next":[1170142,1170139,1170141,1170138,9970919],"voronoi":{"lat":34.786495,"lng":132.060114,"delta_lat":[0,328044,-189026,-313433,4964],"delta_lng":[0,-341978,138729,313464,4401]},"impl":true},
    {"code":1170137,"id":"e76f0d","name":"浜田","name_kana":"はまだ","lat":34.902683,"lng":132.088588,"prefecture":32,"lines":[11701],"attr":"cool","postal_code":"697-0022","address":"浜田市浅井町","next":[1170138,1170139,1170135,1170136,9970917,1170705],"voronoi":{"lat":34.784349,"lng":132.245285,"delta_lat":[0,4701,263126,-84915,-285696,13855],"delta_lng":[0,-4356,-295320,53050,249229,18106]},"impl":true},
    {"code":1170724,"left":1170726,"right":1170723,"id":"ac5147","name":"口羽","name_kana":"くちば","closed":true,"lat":34.884442,"lng":132.671234,"prefecture":32,"lines":[11707],"attr":"unknown","postal_code":"696-0603","address":"邑智郡邑南町下口羽","closed_date":"2018-04-01","next":[1170723,1170722,1170726,1170725,1170728,1170727],"voronoi":{"lat":34.827905,"lng":132.655046,"delta_lat":[0,-35974,60215,69763,-61831,-26152],"delta_lng":[0,-59690,32029,71816,-18339,-17717]},"impl":true},
    {"code":1170726,"left":1170725,"id":"d2a4bb","name":"作木口","name_kana":"さくぎぐち","closed":true,"lat":34.86017,"lng":132.707061,"prefecture":32,"lines":[11707],"attr":"unknown","postal_code":"696-0601","address":"邑智郡邑南町上田","closed_date":"2018-04-01","next":[1170725,1170727,1170731,1170733,1170724,1170730],"voronoi":{"lat":34.851269,"lng":132.747597,"delta_lat":[0,-17344,26152,34386,-4445,-22704],"delta_lng":[0,-84452,17717,107106,-2099,-20012]},"impl":true},
    {"code":1170725,"id":"666373","name":"江平","name_kana":"ごうびら","closed":true,"lat":34.875252,"lng":132.702219,"prefecture":32,"lines":[11707],"attr":"unknown","postal_code":"696-0601","address":"邑智郡邑南町上田","closed_date":"2018-04-01","next":[1170726,1170611,1170734,1170721,1170719,1170723,1170724,1170733,1170718],"voronoi":{"lat":35.026364,"lng":132.830145,"delta_lat":[0,-10696,-72916,-20844,-61831,34386,47353,92808,1311],"delta_lng":[0,-21574,-99378,-9992,-18339,107106,27835,41596,-1371]},"impl":true},
    {"code":1170723,"id":"e9cfec","name":"伊賀和志","name_kana":"いかわし","closed":true,"lat":34.895039,"lng":132.66094,"prefecture":34,"lines":[11707],"attr":"unknown","postal_code":"728-0111","address":"三次市作木町伊賀和志","closed_date":"2018-04-01","next":[1170722,1170724,1170725,1170721],"voronoi":{"lat":34.921908,"lng":132.699202,"delta_lat":[0,-69763,74434,16173],"delta_lng":[0,-71816,27405,54403]},"impl":true},
    {"code":1170706,"left":1170134,"right":1170708,"id":"42838c","name":"田津","name_kana":"たづ","closed":true,"lat":34.951875,"lng":132.384492,"prefecture":32,"lines":[11707],"attr":"unknown","postal_code":"699-4503","address":"江津市桜江町田津","closed_date":"2018-04-01","next":[1171715,1170705,1170708,1170128,1170129,1170127,9970917,1170707],"voronoi":{"lat":35.029862,"lng":132.402006,"delta_lat":[0,-5400,-1426,-5317,-312752,450,15787,300000],"delta_lng":[0,-22358,-3194,-7858,-48287,6157,61587,15521]},"impl":true},
    {"code":1170134,"left":1170705,"right":1170133,"id":"9ea1bd","name":"波子","name_kana":"はし","lat":34.964103,"lng":132.151287,"prefecture":32,"lines":[11701],"attr":"heat","postal_code":"699-3161","address":"江津市波子町","next":[1170139,1170132,1170222,1170203,1170205,1170135,1170136,1170133,1170123],"voronoi":{"lat":38.521585,"lng":129.577642,"delta_lat":[0,-334686,-1281595,-345571,-952952,-568007,-125547,165246,2378410],"delta_lng":[0,171910,803897,227182,753543,512735,150649,-99968,-1679330]},"impl":true},
    {"code":1170705,"left":1170135,"id":"03febb","name":"川戸","name_kana":"かわど","closed":true,"lat":34.959735,"lng":132.333583,"prefecture":32,"lines":[11707],"attr":"unknown","postal_code":"699-4226","address":"江津市桜江町川戸","closed_date":"2018-04-01","next":[9970917,1170706,1170129,1170704,1170703,1170137,1170133,1170135],"voronoi":{"lat":34.695419,"lng":132.265994,"delta_lat":[0,9547,312752,-7342,-103863,-20368,-26864,-74933],"delta_lng":[0,54316,48287,-35350,-78647,-10189,-3044,3918]},"impl":true},
    {"code":1170135,"id":"75a859","name":"久代","name_kana":"くしろ","lat":34.949568,"lng":132.139174,"prefecture":32,"lines":[11701],"attr":"cool","postal_code":"697-0004","address":"浜田市久代町","next":[1170137,1170136,1170134,1170133,1170705],"voronoi":{"lat":34.859282,"lng":132.241366,"delta_lat":[0,53946,125547,-249725,-4701],"delta_lng":[0,-43809,-150649,194020,4356]},"impl":true},
    {"code":1170133,"id":"9a8705","name":"敬川","name_kana":"うやがわ","lat":34.977826,"lng":132.173971,"prefecture":32,"lines":[11701],"attr":"heat","postal_code":"699-3162","address":"江津市敬川町","next":[1170703,1170132,1170705,1170135,1170134],"voronoi":{"lat":35.078474,"lng":132.09759,"delta_lat":[0,-153554,-38774,-26864,53946],"delta_lng":[0,134651,12170,-3044,-43809]},"impl":true},
    {"code":1170708,"left":1170721,"right":1170709,"id":"1adc4c","name":"鹿賀","name_kana":"しかが","closed":true,"lat":34.962967,"lng":132.445753,"prefecture":32,"lines":[11707],"attr":"unknown","postal_code":"699-4501","address":"江津市桜江町鹿賀","closed_date":"2018-04-01","next":[1170709,1170707,1170706,1170126,1170127,1170710],"voronoi":{"lat":34.852954,"lng":132.473921,"delta_lat":[0,168249,8658,1997,11853,-42856],"delta_lng":[0,-70347,-1568,2698,24249,25897]},"impl":true},
    {"code":1170721,"left":1170707,"id":"884a22","name":"石見都賀","name_kana":"いわみつが","closed":true,"lat":34.956356,"lng":132.642711,"prefecture":32,"lines":[11707],"attr":"unknown","postal_code":"696-0704","address":"邑智郡美郷町都賀本郷","closed_date":"2018-04-01","next":[1170720,1170719,1170725,1170722,1170723],"voronoi":{"lat":34.926579,"lng":132.654791,"delta_lat":[0,17365,43725,27999,-72916],"delta_lng":[0,-66248,57578,162451,-99378]},"impl":true},
    {"code":1170707,"id":"ed6201","name":"石見川越","name_kana":"いわみかわごえ","closed":true,"lat":34.950276,"lng":132.4154,"prefecture":32,"lines":[11707],"attr":"unknown","postal_code":"699-4502","address":"江津市桜江町川越","closed_date":"2018-04-01","next":[1170722,1170708,1171715,1170709,1170706],"voronoi":{"lat":34.721203,"lng":132.388054,"delta_lat":[0,17815,45418,68518,168249],"delta_lng":[0,95828,9268,-19228,-70347]},"impl":true},
    {"code":1170709,"id":"b7d159","name":"因原","name_kana":"いんばら","closed":true,"lat":34.966514,"lng":132.473262,"prefecture":32,"lines":[11707],"attr":"unknown","postal_code":"696-0003","address":"邑智郡川本町大字因原","closed_date":"2018-04-01","next":[1170708,1170710,1170722,1170711,1170707],"voronoi":{"lat":34.920395,"lng":132.545272,"delta_lat":[0,31700,48760,-147901,-68518],"delta_lng":[0,-28026,-62395,19071,19228]},"impl":true},
    {"code":1171415,"left":1171417,"right":1171404,"id":"a80a54","name":"備後西城","name_kana":"びんごさいじょう","lat":34.940345,"lng":133.119729,"prefecture":34,"lines":[11714],"attr":"eco","postal_code":"729-5722","address":"庄原市西城町大佐","next":[1171409,1171414,1171416],"voronoi":{"lat":34.94595,"lng":133.176036,"delta_lat":[0,15545,-81092],"delta_lng":[0,-115039,113783]},"impl":true},
    {"code":1171417,"left":1171419,"right":1171407,"id":"008334","name":"高","name_kana":"たか","lat":34.87778,"lng":133.070603,"prefecture":34,"lines":[11714],"attr":"eco","postal_code":"729-5811","address":"庄原市高町市場","next":[1172021,1171418,1172024,1171416,1171408,1172022],"voronoi":{"lat":34.808884,"lng":133.181715,"delta_lat":[0,5927,134941,-142720,-14007,529],"delta_lng":[0,-701,-160275,40495,52282,8584]},"impl":true},
    {"code":1171419,"left":1171420,"right":1171418,"id":"e614fe","name":"備後三日市","name_kana":"びんごみっかいち","lat":34.85507,"lng":132.998269,"prefecture":34,"lines":[11714],"attr":"eco","postal_code":"727-0021","address":"庄原市三日市町","next":[1171421,1170611,1170734,1171420,1170617,1171418],"voronoi":{"lat":35.026224,"lng":132.939117,"delta_lat":[0,1937,2335,-19246,-80837,-122137],"delta_lng":[0,-3033,-69254,5203,50699,104940]},"impl":true},
    {"code":1171420,"left":1171421,"id":"2d0635","name":"七塚","name_kana":"ななつか","lat":34.844391,"lng":132.98584,"prefecture":34,"lines":[11714],"attr":"eco","postal_code":"727-0023","address":"庄原市七塚町","next":[1171418,1171421,1172026,1171419,1172024],"voronoi":{"lat":34.792029,"lng":133.008399,"delta_lat":[0,5817,132566,-122137,-5694],"delta_lng":[0,-16095,-69571,104940,3373]},"impl":true},
    {"code":1171421,"id":"b454f7","name":"山ノ内(広島)","original_name":"山ノ内","name_kana":"やまのうち","lat":34.829608,"lng":132.957671,"prefecture":34,"lines":[11714],"attr":"cool","postal_code":"729-6131","address":"庄原市山内町","next":[1171419,1172026,1170734,1171420,1171422,1171425],"voronoi":{"lat":34.904214,"lng":132.887605,"delta_lat":[0,107036,-80837,-132566,51,50808],"delta_lng":[0,-15572,50699,69571,-35252,-50187]},"impl":true},
    {"code":1171418,"id":"385f99","name":"備後庄原","name_kana":"びんごしょうばら","lat":34.862317,"lng":133.016105,"prefecture":34,"lines":[11714],"attr":"eco","postal_code":"727-0012","address":"庄原市中本町２丁目","next":[1172024,1171420,1171416,1171417,1171414,1170617,1171419],"voronoi":{"lat":34.802581,"lng":133.031045,"delta_lat":[0,4450,142720,39373,9550,27549,-217948],"delta_lng":[0,30189,-40495,-23686,-9269,-48667,88555]},"impl":true},
    {"code":1171407,"left":1171408,"right":1171409,"id":"e685c3","name":"野馳","name_kana":"のち","lat":34.915046,"lng":133.316833,"prefecture":33,"lines":[11714],"attr":"eco","postal_code":"719-3812","address":"新見市哲西町畑木","next":[1171410,1170315,9970512,9970511,1171408,9970510,1170317,1170316,1171406],"voronoi":{"lat":34.826252,"lng":133.424688,"delta_lat":[0,-3391,-58092,-1603,-12021,-12414,213766,735,-72761],"delta_lng":[0,284,-9285,-3396,-29378,-35565,-65617,432,129291]},"impl":true},
    {"code":1171408,"left":1171416,"id":"84a51f","name":"東城","name_kana":"とうじょう","lat":34.901802,"lng":133.273687,"prefecture":34,"lines":[11714],"attr":"eco","postal_code":"729-5121","address":"庄原市東城町川東","next":[1171409,1172015,1172006,1171410,1172014,1171407,1172007,1171416,1172021,9970512,1171417],"voronoi":{"lat":34.814811,"lng":133.181014,"delta_lat":[0,24834,112202,651,-213766,-7223,-437,-1713,917,3422,75186],"delta_lng":[0,1585,98147,985,65617,-14496,-1732,-9267,-10479,-29996,-99663]},"impl":true},
    {"code":1171416,"id":"573c4d","name":"平子","name_kana":"ひらこ","lat":34.912879,"lng":133.100154,"prefecture":34,"lines":[11714],"attr":"eco","postal_code":"729-5723","address":"庄原市西城町平子","next":[1171409,1171414,1171418,1171408,1171415,1171417],"voronoi":{"lat":34.949751,"lng":133.02074,"delta_lat":[0,39373,-27630,-81092,-40758,-24834],"delta_lng":[0,-23686,63943,113783,7820,-1585]},"impl":true},
    {"code":1171409,"id":"e8640b","name":"備後八幡","name_kana":"びんごやわた","lat":34.938192,"lng":133.232086,"prefecture":34,"lines":[11714],"attr":"eco","postal_code":"729-5452","address":"庄原市東城町菅","next":[1171408,1171416,1171415,1171410,1171414,1171411],"voronoi":{"lat":34.949851,"lng":133.177043,"delta_lat":[0,-3901,-65547,-40758,112202,-555],"delta_lng":[0,-1007,-1256,7820,98147,-99814]},"impl":true},
    {"code":1171404,"left":1171405,"right":1163425,"id":"54a128","name":"坂根","name_kana":"さかね","lat":34.972957,"lng":133.37079,"prefecture":33,"lines":[11714],"attr":"cool","postal_code":"719-3611","address":"新見市神郷下神代","next":[1171402,1171405,1170320,1171406,1170319,1170317],"voronoi":{"lat":34.881572,"lng":133.411369,"delta_lat":[0,55841,74413,-4218,-46807,-48356],"delta_lng":[0,-43423,-20989,21654,33723,14205]},"impl":true},
    {"code":1171405,"left":1171406,"right":1171414,"id":"5d5925","name":"市岡","name_kana":"いちおか","lat":34.966232,"lng":133.346948,"prefecture":33,"lines":[11714],"attr":"heat","postal_code":"719-3702","address":"新見市哲西町上神代","next":[1170321,1171410,1171406,1171411,1171404,1170320],"voronoi":{"lat":34.937413,"lng":133.367946,"delta_lat":[0,48825,40576,9335,-2254,-22069],"delta_lng":[0,-78732,-450,1948,12527,43718]},"impl":true},
    {"code":1171406,"left":1171410,"id":"ed403d","name":"矢神","name_kana":"やがみ","lat":34.943413,"lng":133.332797,"prefecture":33,"lines":[11714],"attr":"heat","postal_code":"719-3701","address":"新見市哲西町矢田","next":[1171405,1170317,1171404,1171407,1171410],"voronoi":{"lat":34.937413,"lng":133.367946,"delta_lat":[0,-55841,-1100,72761,33005],"delta_lng":[0,43423,85,-129291,7051]},"impl":true},
    {"code":1171410,"id":"bb84d4","name":"内名","name_kana":"うちな","lat":34.964959,"lng":133.231937,"prefecture":34,"lines":[11714],"attr":"eco","postal_code":"729-5126","address":"庄原市東城町竹森","next":[1171407,1171411,1171408,1171405,1171409,1171406],"voronoi":{"lat":35.026814,"lng":133.288765,"delta_lat":[0,-75522,555,651,735,33005],"delta_lng":[0,-107832,99814,985,432,7051]},"impl":true},
    {"code":1171414,"id":"c2c7d8","name":"比婆山","name_kana":"ひばやま","lat":34.966298,"lng":133.123236,"prefecture":34,"lines":[11714],"attr":"eco","postal_code":"729-5744","address":"庄原市西城町大屋","next":[1171416,1171411,1170618,1171415,1171418,1170617,1171409],"voronoi":{"lat":34.955333,"lng":133.175282,"delta_lat":[0,49358,-6016,-9550,-27630,-15545,3901],"delta_lng":[0,-68678,-118820,9269,63943,115039,1007]},"impl":true},
    {"code":1163425,"left":1170317,"right":1171402,"id":"c2ade2","name":"新見","name_kana":"にいみ","lat":34.987232,"lng":133.45674,"prefecture":33,"lines":[11634,11703,11714],"attr":"cool","postal_code":"718-0017","address":"新見市西方","next":[1163424,1170317,1171402,1170320],"voronoi":{"lat":34.98947,"lng":133.494486,"delta_lat":[0,-39179,92039,15057],"delta_lng":[0,-55895,2281,10644]},"impl":true},
    {"code":1170317,"id":"404169","name":"石蟹","name_kana":"いしが","lat":34.954752,"lng":133.479506,"prefecture":33,"lines":[11703],"attr":"eco","postal_code":"718-0015","address":"新見市石蟹","next":[1163425,1171402,1171407,1171406,1163424,1170316,1171404],"voronoi":{"lat":34.950292,"lng":133.43859,"delta_lat":[0,39179,-12108,-151110,54219,1100,30873],"delta_lng":[0,55895,24775,-94572,-13234,-85,5170]},"impl":true},
    {"code":1171402,"id":"b4e227","name":"布原","name_kana":"ぬのはら","lat":34.988086,"lng":133.422293,"prefecture":33,"lines":[11714],"attr":"cool","postal_code":"718-0017","address":"新見市西方","next":[1170319,1171404,1170317,1170320,1163425],"voronoi":{"lat":34.950292,"lng":133.43859,"delta_lat":[0,-37847,48356,67762,13768],"delta_lng":[0,-22051,-14205,20436,18101]},"impl":true},
    {"code":1170717,"left":1170714,"right":1170718,"id":"5dcb09","name":"浜原","name_kana":"はまはら","closed":true,"lat":35.060043,"lng":132.599564,"prefecture":32,"lines":[11707],"attr":"unknown","postal_code":"699-4701","address":"邑智郡美郷町浜原","closed_date":"2018-04-01","next":[1170716,1170719,1170718,1170715],"voronoi":{"lat":35.061221,"lng":132.586857,"delta_lat":[0,16821,-40123,-5934],"delta_lng":[0,31434,-2456,-7947]},"impl":true},
    {"code":1170714,"left":1170704,"right":1170125,"id":"6b41d9","name":"石見簗瀬","name_kana":"いわみやなぜ","closed":true,"lat":35.042339,"lng":132.565521,"prefecture":32,"lines":[11707],"attr":"unknown","postal_code":"699-4625","address":"邑智郡美郷町簗瀬","closed_date":"2018-04-01","next":[1170121,1170713,1170720,1170122,1170716,1170715],"voronoi":{"lat":35.007659,"lng":132.58037,"delta_lat":[0,96535,3557,7053,-45850,-55629],"delta_lng":[0,-86701,5585,16895,50373,19517]},"impl":true},
    {"code":1170704,"left":1170131,"right":1170712,"id":"cc6dc2","name":"川平","name_kana":"かわひら","closed":true,"lat":34.996969,"lng":132.284411,"prefecture":32,"lines":[11707],"attr":"unknown","postal_code":"695-0013","address":"江津市川平町大字南川上","closed_date":"2018-04-01","next":[1170129,1170703,1170130,1170705],"voronoi":{"lat":34.906513,"lng":132.254599,"delta_lat":[0,107912,9372,-13421],"delta_lng":[0,14557,36303,27787]},"impl":true},
    {"code":1170131,"left":1170703,"right":1170130,"id":"861d7a","name":"江津","name_kana":"ごうつ","lat":35.012801,"lng":132.223133,"prefecture":32,"lines":[11701,11707],"attr":"heat","postal_code":"695-0011","address":"江津市江津町","next":[1170124,1170123,1170132,1170128,1170130,1170702],"voronoi":{"lat":34.991057,"lng":132.211851,"delta_lat":[0,1199791,-512829,-229734,-111531,-303726],"delta_lng":[0,-778966,423794,175979,67240,144839]},"impl":true},
    {"code":1170703,"left":1170702,"id":"745f1b","name":"千金","name_kana":"ちがね","closed":true,"lat":35.001635,"lng":132.249822,"prefecture":32,"lines":[11707],"attr":"unknown","postal_code":"695-0012","address":"江津市金田町","closed_date":"2018-04-01","next":[1170132,1170133,1170704,1170705,1170702,1170130],"voronoi":{"lat":35.029447,"lng":132.24718,"delta_lat":[0,-73419,-31109,-38774,20368,107912],"delta_lng":[0,-20938,5998,12170,10189,14557]},"impl":true},
    {"code":1170702,"id":"5aa93f","name":"江津本町","name_kana":"ごうつほんまち","closed":true,"lat":35.007212,"lng":132.230266,"prefecture":32,"lines":[11707],"attr":"unknown","postal_code":"695-0011","address":"江津市江津町","closed_date":"2018-04-01","next":[1170132,1170130,1170703,1170131],"voronoi":{"lat":34.991057,"lng":132.211851,"delta_lat":[0,-35028,73419,3580],"delta_lng":[0,14391,20938,-2443]},"impl":true},
    {"code":1170130,"id":"15c327","name":"浅利","name_kana":"あさり","lat":35.037084,"lng":132.274054,"prefecture":32,"lines":[11701],"attr":"heat","postal_code":"695-0002","address":"江津市浅利町","next":[1170704,1170128,1170129,1170702,1170131,1170703],"voronoi":{"lat":35.023798,"lng":132.305459,"delta_lat":[0,92088,220868,-303726,-3580,-15022],"delta_lng":[0,-46541,-159020,144839,2443,21976]},"impl":true},
    {"code":1170712,"left":1170711,"right":1170713,"id":"bd5ab9","name":"竹","name_kana":"たけ","closed":true,"lat":35.012676,"lng":132.529753,"prefecture":32,"lines":[11707],"attr":"unknown","postal_code":"699-4626","address":"邑智郡美郷町乙原","closed_date":"2018-04-01","next":[1170124,1170710,1170720,1170125,1170713,1170711],"voronoi":{"lat":35.078377,"lng":132.467186,"delta_lat":[0,1506,6354,8845,-113633,-33661],"delta_lng":[0,-868,5148,9690,86279,-7848]},"impl":true},
    {"code":1170711,"left":1170710,"id":"0fa687","name":"木路原","name_kana":"きろはら","closed":true,"lat":34.997514,"lng":132.508325,"prefecture":32,"lines":[11707],"attr":"unknown","postal_code":"696-0001","address":"邑智郡川本町大字川本","closed_date":"2018-04-01","next":[1170710,1170720,1170709,1170722,1170712],"voronoi":{"lat":35.078377,"lng":132.467186,"delta_lat":[0,-126282,-31700,18576,8817],"delta_lng":[0,50059,28026,13926,390]},"impl":true},
    {"code":1170710,"id":"3d217d","name":"石見川本","name_kana":"いわみかわもと","closed":true,"lat":34.99129,"lng":132.492624,"prefecture":32,"lines":[11707],"attr":"unknown","postal_code":"696-0001","address":"邑智郡川本町大字川本","closed_date":"2018-04-01","next":[1170711,1170712,1170709,1170126,1170125,1170708],"voronoi":{"lat":35.043712,"lng":132.428954,"delta_lat":[0,30632,5540,-1506,-126282,48760],"delta_lng":[0,30164,7201,868,50059,-62395]},"impl":true},
    {"code":1170713,"id":"a5cada","name":"乙原","name_kana":"おんばら","closed":true,"lat":35.026135,"lng":132.547479,"prefecture":32,"lines":[11707],"attr":"unknown","postal_code":"699-4626","address":"邑智郡美郷町乙原","closed_date":"2018-04-01","next":[1170714,1170122,1170720,1170712,1170124],"voronoi":{"lat":35.104195,"lng":132.493669,"delta_lat":[0,-96535,-26210,113633,5463],"delta_lng":[0,86701,-12935,-86279,4737]},"impl":true},
    {"code":1170125,"left":1170127,"right":1170124,"id":"2d44c2","name":"馬路","name_kana":"まじ","lat":35.128011,"lng":132.387422,"prefecture":32,"lines":[11701],"attr":"heat","postal_code":"699-2304","address":"大田市仁摩町馬路","next":[1170126,1170128,1170712,1170127,1170124,1170710],"voronoi":{"lat":35.086237,"lng":132.471467,"delta_lat":[0,180994,-18518,-106454,-67916,5540],"delta_lng":[0,-258301,16274,106917,122761,7201]},"impl":true},
    {"code":1170127,"left":1170128,"right":1170126,"id":"a59dc8","name":"温泉津","name_kana":"ゆのつ","lat":35.091256,"lng":132.350826,"prefecture":32,"lines":[11701],"attr":"heat","postal_code":"699-2511","address":"大田市温泉津町小浜","next":[1170126,1170706,1170125,1170128,1170708],"voronoi":{"lat":35.029862,"lng":132.402006,"delta_lat":[0,-5400,224252,-106454,-110401],"delta_lng":[0,-22358,-150209,106917,68348]},"impl":true},
    {"code":1170128,"left":1170129,"id":"134f6e","name":"石見福光","name_kana":"いわみふくみつ","lat":35.076536,"lng":132.32885,"prefecture":32,"lines":[11701],"attr":"heat","postal_code":"699-2514","address":"大田市温泉津町福光","next":[1170125,1170706,1170129,1170124,1170130,1170131,1170127],"voronoi":{"lat":35.023036,"lng":132.376455,"delta_lat":[0,92850,220868,111531,-181053,-18518,-224252],"delta_lng":[0,-117536,-159020,-67240,180507,16274,150209]},"impl":true},
    {"code":1170129,"id":"37a1da","name":"黒松(島根)","original_name":"黒松","name_kana":"くろまつ","lat":35.056963,"lng":132.313388,"prefecture":32,"lines":[11701],"attr":"heat","postal_code":"699-2831","address":"江津市黒松町","next":[1170704,1170706,1170128,1170705,1170130],"voronoi":{"lat":35.010376,"lng":132.333247,"delta_lat":[0,7342,5317,92850,-92088],"delta_lng":[0,35350,7858,-117536,46541]},"impl":true},
    {"code":1170126,"id":"db9886","name":"湯里","name_kana":"ゆさと","lat":35.106568,"lng":132.375559,"prefecture":32,"lines":[11701],"attr":"heat","postal_code":"699-2502","address":"大田市温泉津町湯里","next":[1170125,1170127,1170708,1170710],"voronoi":{"lat":35.043712,"lng":132.428954,"delta_lat":[0,-11853,110401,-67916],"delta_lng":[0,-24249,-68348,122761]},"impl":true},
    {"code":1170124,"left":1170716,"right":1170123,"id":"76fc8c","name":"仁万","name_kana":"にま","lat":35.150972,"lng":132.403511,"prefecture":32,"lines":[11701],"attr":"heat","postal_code":"699-2301","address":"大田市仁摩町仁万","next":[1170131,1170712,1170122,1170128,1170125,1170713,1170123],"voronoi":{"lat":35.678019,"lng":131.85668,"delta_lat":[0,-229734,-181053,-180994,8845,5463,37515],"delta_lng":[0,175979,180507,258301,9690,4737,-25878]},"impl":true},
    {"code":1170716,"left":1170715,"id":"d5116b","name":"粕淵","name_kana":"かすぶち","closed":true,"lat":35.072447,"lng":132.592926,"prefecture":32,"lines":[11707],"attr":"unknown","postal_code":"699-4621","address":"邑智郡美郷町粕渕","closed_date":"2018-04-01","next":[1170717,1170718,1170117,1170118,1170119,1170715,1170121,1170714],"voronoi":{"lat":35.061221,"lng":132.586857,"delta_lat":[0,16821,93638,2768,-427,-5778,-53439,-45850],"delta_lng":[0,31434,32635,-15756,-31195,-14495,-73330,50373]},"impl":true},
    {"code":1170715,"id":"6837f6","name":"明塚","name_kana":"あかつか","closed":true,"lat":35.048799,"lng":132.583933,"prefecture":32,"lines":[11707],"attr":"unknown","postal_code":"699-4624","address":"邑智郡美郷町明塚","closed_date":"2018-04-01","next":[1170716,1170714,1170719,1170717,1170720],"voronoi":{"lat":35.013326,"lng":132.58604,"delta_lat":[0,55629,-7733,-29236,-10444],"delta_lng":[0,-19517,20334,21031,-7056]},"impl":true},
    {"code":1170123,"id":"2b12dd","name":"五十猛","name_kana":"いそたけ","lat":35.192792,"lng":132.440938,"prefecture":32,"lines":[11701],"attr":"eco","postal_code":"694-0035","address":"大田市五十猛町野田","next":[1170222,1170122,1170120,1170132,1170131,9970305,1170124,1170134],"voronoi":{"lat":36.190847,"lng":131.432886,"delta_lat":[0,-512829,-539958,121828,534263,4206016,-1478582,-1064702],"delta_lng":[0,423794,603336,-12035,-291112,-3419029,839802,840618]},"impl":true},
    {"code":1170718,"left":1171412,"right":1170323,"id":"2d904a","name":"沢谷","name_kana":"さわだに","closed":true,"lat":35.057894,"lng":132.634682,"prefecture":32,"lines":[11707],"attr":"unknown","postal_code":"699-4715","address":"邑智郡美郷町石原","closed_date":"2018-04-01","next":[1170611,1170115,1170716,1170117,1170608,1170116,1170719,1170717,1170725,1170607],"voronoi":{"lat":35.100418,"lng":132.832173,"delta_lat":[0,-64482,-9571,11555,40123,93638,1549,-8234,-1670,-40501],"delta_lng":[0,23856,-25883,-214311,2456,32635,78641,43614,6593,35886]},"impl":true},
    {"code":1171412,"left":1170719,"right":1163424,"id":"d095c5","name":"道後山","name_kana":"どうごやま","lat":35.010894,"lng":133.178269,"prefecture":34,"lines":[11714],"attr":"eco","postal_code":"729-5612","address":"庄原市西城町高尾","next":[1171411,1170616,1170615,1170617,1170618,1170323],"voronoi":{"lat":35.108057,"lng":133.231138,"delta_lat":[0,-34243,-2329,-35412,-70377,132512],"delta_lng":[0,-54364,-3029,-20212,22839,65737]},"impl":true},
    {"code":1170719,"left":1170618,"right":1170617,"id":"75ebec","name":"潮","name_kana":"うしお","closed":true,"lat":35.016034,"lng":132.632425,"prefecture":32,"lines":[11707],"attr":"unknown","postal_code":"696-0701","address":"邑智郡美郷町潮村","closed_date":"2018-04-01","next":[1170717,1170721,1170725,1170720,1170718,1170715],"voronoi":{"lat":35.037919,"lng":132.615835,"delta_lat":[0,-11555,-10696,-27999,33872,10444],"delta_lng":[0,214311,-21574,-162451,-45289,7056]},"impl":true},
    {"code":1170618,"left":1170720,"id":"89e800","name":"備後落合","name_kana":"びんごおちあい","lat":35.001167,"lng":133.148296,"prefecture":34,"lines":[11706,11714],"attr":"heat","postal_code":"729-5613","address":"庄原市西城町八鳥","next":[1171414,1171411,1171412,1170617],"voronoi":{"lat":35.004691,"lng":133.106604,"delta_lat":[0,-49358,10364,70377],"delta_lng":[0,68678,1089,-22839]},"impl":true},
    {"code":1170720,"id":"2c36c2","name":"石見松原","name_kana":"いわみまつばら","closed":true,"lat":34.992792,"lng":132.615042,"prefecture":32,"lines":[11707],"attr":"unknown","postal_code":"696-0706","address":"邑智郡美郷町長藤","closed_date":"2018-04-01","next":[1170721,1170712,1170711,1170714,1170713,1170719,1170722,1170715],"voronoi":{"lat":35.013326,"lng":132.58604,"delta_lat":[0,-5666,-26210,-33661,-8817,4973,43725,33872],"delta_lng":[0,-5669,-12935,-7848,-390,29345,57578,-45289]},"impl":true},
    {"code":1170617,"id":"02b12c","name":"油木","name_kana":"ゆき","lat":35.044567,"lng":133.119273,"prefecture":34,"lines":[11706],"attr":"heat","postal_code":"729-5602","address":"庄原市西城町油木","next":[1171412,1170616,1171419,1171414,1171418,1170618,1170611],"voronoi":{"lat":35.02816,"lng":132.936085,"delta_lat":[0,-1937,-27549,6016,31383,35412,-12170],"delta_lng":[0,3033,48667,118820,46928,20212,-194378]},"impl":true},
    {"code":1163424,"left":1170319,"right":1170320,"id":"9de255","name":"岩山","name_kana":"いわやま","lat":35.02262,"lng":133.512674,"prefecture":33,"lines":[11634],"attr":"cool","postal_code":"718-0001","address":"新見市上熊谷","next":[1163422,1163425,1170320,1170316,1163423,1170317,1170321],"voronoi":{"lat":35.084023,"lng":133.504525,"delta_lat":[0,-104827,-1834,12108,67917,32439,30395],"delta_lng":[0,60704,-45968,-24775,-42970,4095,12475]},"impl":true},
    {"code":1170319,"left":1171411,"id":"33e9dc","name":"備中神代","name_kana":"びっちゅうこうじろ","lat":34.994571,"lng":133.40079,"prefecture":33,"lines":[11703,11714],"attr":"cool","postal_code":"718-0017","address":"新見市西方","next":[1171402,1170320,1171404],"voronoi":{"lat":35.028562,"lng":133.422771,"delta_lat":[0,-20955,-46807],"delta_lng":[0,-54159,33723]},"impl":true},
    {"code":1171411,"id":"68a354","name":"小奴可","name_kana":"おぬか","lat":34.994552,"lng":133.211211,"prefecture":34,"lines":[11714],"attr":"eco","postal_code":"729-5501","address":"庄原市東城町小奴可","next":[1171412,1171410,1171414,1170323,1170321,1170618,1170322,1171405,1171409],"voronoi":{"lat":34.949851,"lng":133.177043,"delta_lat":[0,5482,10364,132512,-2025,-41614,-18421,-9335,-75522],"delta_lng":[0,-1760,1089,65737,3225,35080,10299,-1948,-107832]},"impl":true},
    {"code":1170320,"id":"b3526f","name":"足立","name_kana":"あしだち","lat":35.038908,"lng":133.383636,"prefecture":33,"lines":[11703],"attr":"cool","postal_code":"719-3612","address":"新見市神郷油野","next":[1163424,1170319,1170321,1171402,1171404,1171405,1163425],"voronoi":{"lat":35.089827,"lng":133.45561,"delta_lat":[0,-55932,-22069,-4218,20955,13768,15057],"delta_lng":[0,-152371,43718,21654,54159,18101,10644]},"impl":true},
    {"code":1170323,"left":1170614,"right":1170322,"id":"614a46","name":"生山","name_kana":"しょうやま","lat":35.171066,"lng":133.322054,"prefecture":31,"lines":[11703],"attr":"eco","postal_code":"689-5211","address":"日野郡日南町生山","next":[1170613,1171411,1170324,1170322,1170103,1170615,1171412],"voronoi":{"lat":35.108057,"lng":133.231138,"delta_lat":[0,69782,99571,3562,-125755,-59034,2025],"delta_lng":[0,-23814,2751,8104,145236,-118081,-3225]},"impl":true},
    {"code":1170614,"left":1170615,"right":1170613,"id":"4af7bf","name":"八川","name_kana":"やかわ","lat":35.149334,"lng":133.089454,"prefecture":32,"lines":[11706],"attr":"heat","postal_code":"699-1811","address":"仁多郡奥出雲町八川","next":[1170611,1170613,1170616,1170612,1170615],"voronoi":{"lat":35.111017,"lng":133.082751,"delta_lat":[0,-44828,92071,8908,-10185],"delta_lng":[0,-96594,54705,13817,97271]},"impl":true},
    {"code":1170615,"left":1170616,"id":"3c391c","name":"出雲坂根","name_kana":"いずもさかね","lat":35.10234,"lng":133.12067,"prefecture":32,"lines":[11706],"attr":"heat","postal_code":"699-1811","address":"仁多郡奥出雲町八川","next":[1170616,1171412,1170323,1170613,1170614],"voronoi":{"lat":35.111017,"lng":133.082751,"delta_lat":[0,-37202,34243,69782,-20857],"delta_lng":[0,94023,54364,-23814,-55374]},"impl":true},
    {"code":1170616,"id":"f4a9f9","name":"三井野原","name_kana":"みいのはら","lat":35.091399,"lng":133.116341,"prefecture":32,"lines":[11706],"attr":"heat","postal_code":"699-1500","address":"仁多郡奥出雲町八川","next":[1171412,1170615,1170617,1170614,1170611],"voronoi":{"lat":35.059316,"lng":132.979367,"delta_lat":[0,12170,2329,37202,-44828],"delta_lng":[0,194378,3029,-94023,-96594]},"impl":true},
    {"code":1170613,"id":"8501b8","name":"出雲横田","name_kana":"いずもよこた","lat":35.177411,"lng":133.092394,"prefecture":32,"lines":[11706],"attr":"eco","postal_code":"699-1832","address":"仁多郡奥出雲町横田","next":[1170323,1170612,1170614,1170104,1170615,1170103],"voronoi":{"lat":35.28758,"lng":133.187584,"delta_lat":[0,8845,-129257,-10185,20857,99571],"delta_lng":[0,-38934,-93972,97271,55374,2751]},"impl":true},
    {"code":1170322,"left":1170321,"right":1170324,"id":"f9475a","name":"上石見","name_kana":"かみいわみ","lat":35.112622,"lng":133.351273,"prefecture":31,"lines":[11703],"attr":"eco","postal_code":"689-5664","address":"日野郡日南町中石見","next":[1170323,1170324,1171411,1170325,1170321],"voronoi":{"lat":35.05457,"lng":133.280414,"delta_lat":[0,41614,59034,1502,-19542],"delta_lng":[0,-35080,118081,12898,56856]},"impl":true},
    {"code":1170321,"id":"8a5c3e","name":"新郷(岡山)","original_name":"新郷","name_kana":"にいざと","lat":35.082087,"lng":133.367786,"prefecture":33,"lines":[11703],"attr":"cool","postal_code":"719-2801","address":"新見市神郷釜村","next":[1171405,1171411,1170326,1170322,1170320,1163422,1163424,1170325],"voronoi":{"lat":35.137178,"lng":133.433169,"delta_lat":[0,-82608,-18421,-2254,55932,30395,11972,681],"delta_lng":[0,-152755,10299,12527,152371,12475,350,-1461]},"impl":true},
    {"code":1170324,"id":"24caa5","name":"上菅","name_kana":"かみすげ","lat":35.193886,"lng":133.341813,"prefecture":31,"lines":[11703],"attr":"eco","postal_code":"689-5137","address":"日野郡日野町上菅","next":[1170323,1170325,1170322,1170102,1170330,1170103,1161642],"voronoi":{"lat":35.30747,"lng":133.290701,"delta_lat":[0,-24023,-2474,-125755,1502,149953,1585],"delta_lng":[0,-68142,-4380,145236,12898,-46593,-4533]},"impl":true},
    {"code":1163312,"left":1163309,"right":1170417,"id":"51b603","name":"佐用","name_kana":"さよ","lat":35.003579,"lng":134.356538,"prefecture":28,"lines":[11633,11634,99644],"attr":"cool","postal_code":"679-5300","address":"佐用郡佐用町間島田","next":[1163402,9964407,9964404,9964406,1163311],"voronoi":{"lat":35.043322,"lng":134.313516,"delta_lat":[0,33,-60138,-4851,39361],"delta_lng":[0,-3518,35618,17126,17683]},"impl":true},
    {"code":1163309,"left":9964403,"right":1163504,"id":"b63d0a","name":"西栗栖","name_kana":"にしくりす","lat":34.952378,"lng":134.470646,"prefecture":28,"lines":[11633],"attr":"heat","postal_code":"679-5154","address":"たつの市新宮町鍛冶屋","next":[1160906,100305,1163310,1163308,9964403,9964402],"voronoi":{"lat":34.884623,"lng":134.443269,"delta_lat":[0,270,160029,-118477,-13775,-17859],"delta_lng":[0,13147,66699,-108886,3822,8510]},"impl":true},
    {"code":9964403,"left":1171509,"right":1163403,"id":"78f731","name":"河野原円心","name_kana":"こうのはらえんしん","lat":34.919603,"lng":134.352516,"prefecture":28,"lines":[99644],"attr":"cool","postal_code":"678-1278","address":"赤穂郡上郡町大字河野原","next":[1163310,9964402,9964404,1163309,1163402,1163403,1163311],"voronoi":{"lat":34.926446,"lng":134.414229,"delta_lat":[0,-13775,-10806,22173,2988,20403,-9158],"delta_lng":[0,3822,-157052,18071,6357,99932,19553]},"impl":true},
    {"code":1171509,"left":1170314,"right":1171508,"id":"2f8742","name":"福渡","name_kana":"ふくわたり","lat":34.870256,"lng":133.904037,"prefecture":33,"lines":[11715],"attr":"eco","postal_code":"709-3111","address":"岡山市建部町福渡","next":[1163416,1163415,1163414,1171508,1171510],"voronoi":{"lat":34.880524,"lng":133.761736,"delta_lat":[0,74522,6014,62,-113054],"delta_lng":[0,78932,13508,442,94300]},"impl":true},
    {"code":1170314,"left":1171510,"right":1170315,"id":"4e3b89","name":"備中川面","name_kana":"びっちゅうかわも","lat":34.850129,"lng":133.588543,"prefecture":33,"lines":[11703],"attr":"eco","postal_code":"719-2121","address":"高梁市川面町","next":[1163416,1170311,1163420,1170315,1170313,1170312],"voronoi":{"lat":34.794716,"lng":133.548322,"delta_lat":[0,-7671,157376,-17493,-907,-121503],"delta_lng":[0,-39200,130562,44251,918,-114993]},"impl":true},
    {"code":1171510,"left":1170313,"id":"23dcad","name":"建部","name_kana":"たけべ","lat":34.842285,"lng":133.899187,"prefecture":33,"lines":[11715],"attr":"eco","postal_code":"709-3132","address":"岡山市建部町中田","next":[1163416,1171512,1170308,1171511,1171508,1170313,1171307,1171509],"voronoi":{"lat":34.843831,"lng":133.95527,"delta_lat":[0,-58861,-11243,47332,24369,29435,5661,-32456],"delta_lng":[0,-85650,-23950,-70790,-18767,-1716,7338,187182]},"impl":true},
    {"code":1170313,"id":"3ba46d","name":"木野山","name_kana":"きのやま","lat":34.825682,"lng":133.614374,"prefecture":33,"lines":[11703],"attr":"eco","postal_code":"716-0002","address":"高梁市津川町今津","next":[1170312,1170309,1171510,1170308,1170314,1163416],"voronoi":{"lat":34.926021,"lng":133.684853,"delta_lat":[0,-121503,8338,19066,13506,29435],"delta_lng":[0,-114993,143629,27725,14899,-1716]},"impl":true},
    {"code":1170315,"id":"7fbcd3","name":"方谷","name_kana":"ほうこく","lat":34.876748,"lng":133.556457,"prefecture":33,"lines":[11703],"attr":"eco","postal_code":"719-2402","address":"高梁市中井町西方","next":[1171407,1170311,1163421,9970510,1163420,1170314,1170316],"voronoi":{"lat":34.952245,"lng":133.627532,"delta_lat":[0,-7824,-157376,-29552,7276,58092,134975],"delta_lng":[0,12153,-130562,-69848,-23587,9285,184789]},"impl":true},
    {"code":1171508,"left":1160906,"right":9964402,"id":"047e2e","name":"神目","name_kana":"こうめ","lat":34.896201,"lng":133.935142,"prefecture":33,"lines":[11715],"attr":"cool","postal_code":"709-3627","address":"久米郡久米南町神目中","next":[1160911,1171506,1171507,1171510,1163414,1160912,1171511,1171509],"voronoi":{"lat":34.843831,"lng":133.95527,"delta_lat":[0,-919,4967,73,93663,20957,-1450,-113054],"delta_lng":[0,67478,4710,47,-120676,-48054,-4158,94300]},"impl":true},
    {"code":1160906,"left":1160907,"id":"cfe17f","name":"有年","name_kana":"うね","lat":34.829263,"lng":134.395568,"prefecture":28,"lines":[11609],"attr":"eco","postal_code":"678-1184","address":"赤穂市有年横尾","next":[9964402,1163104,1163105,1160907,1163309,100305,1163102,1163103],"voronoi":{"lat":34.793086,"lng":134.389957,"delta_lat":[0,899,13783,73566,13478,-10188,-41301,-40693],"delta_lng":[0,-25188,-25027,64868,21951,16708,-5948,-20689]},"impl":true},
    {"code":1160907,"id":"1bdc12","name":"上郡","name_kana":"かみごおり","lat":34.865845,"lng":134.354081,"prefecture":28,"lines":[11609,99644],"attr":"eco","postal_code":"678-1233","address":"赤穂郡上郡町大字大持","next":[9964402,1163105,1160906,1160908],"voronoi":{"lat":34.881341,"lng":134.278752,"delta_lat":[0,-8,-73566,84],"delta_lng":[0,125859,-64868,-3688]},"impl":true},
    {"code":9964402,"id":"def01b","name":"苔縄","name_kana":"こけなわ","lat":34.896828,"lng":134.354083,"prefecture":28,"lines":[99644],"attr":"cool","postal_code":"678-1277","address":"赤穂郡上郡町大字苔縄","next":[1160906,1160907,1163403,9964403,1160908,1163309],"voronoi":{"lat":34.912671,"lng":134.418051,"delta_lat":[0,-10806,-2857,-17666,-8,13478],"delta_lng":[0,-157052,-2981,20733,125859,21951]},"impl":true},
    {"code":1163403,"left":1171505,"right":1163310,"id":"71489c","name":"美作土居","name_kana":"みまさかどい","lat":34.995078,"lng":134.25991,"prefecture":33,"lines":[11634],"attr":"heat","postal_code":"709-4244","address":"美作市土居","next":[9964408,1160908,9964402,1163404,1163402,9964403,1160909],"voronoi":{"lat":34.913854,"lng":134.198585,"delta_lat":[0,152391,-22024,-120184,-22173,-2857,-663],"delta_lng":[0,69543,33315,-22372,-18071,-2981,-8146]},"impl":true},
    {"code":1171505,"left":1171506,"right":1171504,"id":"7bdab9","name":"小原","name_kana":"おばら","lat":34.968234,"lng":133.962033,"prefecture":33,"lines":[11715],"attr":"cool","postal_code":"709-3714","address":"久米郡美咲町小原","next":[1171506,1171504,1163409,1163414],"voronoi":{"lat":34.973981,"lng":133.874102,"delta_lat":[0,-30146,45810,-14228],"delta_lng":[0,186752,-33591,-151571]},"impl":true},
    {"code":1171506,"left":1171507,"id":"33b89e","name":"誕生寺","name_kana":"たんじょうじ","lat":34.951768,"lng":133.959375,"prefecture":33,"lines":[11715],"attr":"cool","postal_code":"709-3602","address":"久米郡久米南町里方","next":[1163414,1163408,1171508,1171507,1171505,1163409],"voronoi":{"lat":34.932115,"lng":134.070644,"delta_lat":[0,9501,20957,11408,-30146,-9368],"delta_lng":[0,-163815,-48054,15327,186752,8128]},"impl":true},
    {"code":1171507,"id":"4061cf","name":"弓削","name_kana":"ゆげ","lat":34.925457,"lng":133.957849,"prefecture":33,"lines":[11715],"attr":"cool","postal_code":"709-3614","address":"久米郡久米南町下弓削","next":[1171508,1160911,1171506,1163408,1163406],"voronoi":{"lat":34.929517,"lng":134.072977,"delta_lat":[0,2597,9501,-93663,59395],"delta_lng":[0,-2333,-163815,120676,55601]},"impl":true},
    {"code":1171504,"id":"946106","name":"亀甲","name_kana":"かめのこう","lat":34.998542,"lng":133.959188,"prefecture":33,"lines":[11715],"attr":"cool","postal_code":"709-3717","address":"久米郡美咲町原田","next":[1163413,1163414,1171505,1163411,1171503,1163409],"voronoi":{"lat":34.975417,"lng":133.875692,"delta_lat":[0,7919,33811,-3625,-23061,-816],"delta_lng":[0,6140,38138,77796,29144,353]},"impl":true},
    {"code":1163310,"left":9964404,"right":1163311,"id":"5cc019","name":"三日月","name_kana":"みかづき","lat":34.984846,"lng":134.435318,"prefecture":28,"lines":[11633],"attr":"heat","postal_code":"679-5133","address":"佐用郡佐用町三日月","next":[9964407,1163308,9964403,1163512,1163311,9964406,1163513,1163309],"voronoi":{"lat":34.926446,"lng":134.414229,"delta_lat":[0,11825,88208,88711,39726,-46928,-778,-62287],"delta_lng":[0,-9317,10005,83270,49582,19832,203,-44689]},"impl":true},
    {"code":9964404,"left":1163402,"id":"20630c","name":"久崎","name_kana":"くざき","lat":34.960153,"lng":134.344237,"prefecture":28,"lines":[99644],"attr":"cool","postal_code":"679-5641","address":"佐用郡佐用町久崎","next":[1163312,1163311,9964403,1163402],"voronoi":{"lat":34.978367,"lng":134.362742,"delta_lat":[0,-30938,-20403,56192],"delta_lng":[0,22618,-99932,60188]},"impl":true},
    {"code":1163402,"id":"51d385","name":"上月","name_kana":"こうづき","lat":34.983425,"lng":134.32251,"prefecture":28,"lines":[11634],"attr":"eco","postal_code":"679-5523","address":"佐用郡佐用町上月","next":[1163312,9964404,9964407,9964403,1163403,9964408],"voronoi":{"lat":35.043355,"lng":134.309997,"delta_lat":[0,-60138,-56192,-2988,120184,-501],"delta_lng":[0,35618,-60188,-6357,22372,7516]},"impl":true},
    {"code":1163311,"id":"566ad3","name":"播磨徳久","name_kana":"はりまとくさ","lat":34.990473,"lng":134.385711,"prefecture":28,"lines":[11633],"attr":"cool","postal_code":"679-5211","address":"佐用郡佐用町下徳久","next":[1163310,9964404,1163312,9964406,9964403],"voronoi":{"lat":35.026478,"lng":134.414918,"delta_lat":[0,-8751,-39361,-30938,-9158],"delta_lng":[0,-34493,-17683,22618,19553]},"impl":true},
    {"code":1163504,"left":1163302,"right":1163506,"id":"e6658d","name":"砥堀","name_kana":"とほり","lat":34.866427,"lng":134.724833,"prefecture":28,"lines":[11635],"attr":"eco","postal_code":"670-0802","address":"姫路市砥堀","next":[1163505,1160820,9964306,1163503,1160819],"voronoi":{"lat":34.850101,"lng":134.769252,"delta_lat":[0,-7912,37821,-14144,-9468],"delta_lng":[0,-36750,-28640,76032,2822]},"impl":true},
    {"code":1163302,"left":1163305,"right":1163502,"id":"c0e6f3","name":"播磨高岡","name_kana":"はりまたかおか","lat":34.841918,"lng":134.658674,"prefecture":28,"lines":[11633],"attr":"eco","postal_code":"670-0061","address":"姫路市西今宿３丁目","next":[9963742,1160902,9963741,1163503,9963743,1163303],"voronoi":{"lat":34.834563,"lng":134.637313,"delta_lat":[0,-11794,698,11144,21733,21656],"delta_lng":[0,24317,1207,10815,9332,-5858]},"impl":true},
    {"code":1163305,"left":1163303,"right":1163304,"id":"be5207","name":"本竜野","name_kana":"ほんたつの","lat":34.861762,"lng":134.555611,"prefecture":28,"lines":[11633],"attr":"eco","postal_code":"679-4126","address":"たつの市龍野町中村","next":[1163306,1160903,1160904,1163304],"voronoi":{"lat":34.828908,"lng":134.554696,"delta_lat":[0,50292,-6451,-27491],"delta_lng":[0,-54232,80457,1194]},"impl":true},
    {"code":1163303,"left":1160904,"id":"f95d01","name":"余部","name_kana":"よべ","lat":34.856483,"lng":134.642783,"prefecture":28,"lines":[11633],"attr":"eco","postal_code":"671-2222","address":"姫路市青山","next":[1160902,1163507,1163506,1163503,1163304,1163505,1160918,1163302],"voronoi":{"lat":34.89569,"lng":134.677213,"delta_lat":[0,20406,39609,2141,-119576,-4177,471,43437],"delta_lng":[0,-6838,-23357,-1535,-25174,6702,10301,39813]},"impl":true},
    {"code":1160904,"id":"bdb314","name":"竜野","name_kana":"たつの","lat":34.825522,"lng":134.522004,"prefecture":28,"lines":[11609],"attr":"eco","postal_code":"671-1632","address":"たつの市揖保川町黍田","next":[9963807,1163306,1160903,1163102,1163308,1163305,100305],"voronoi":{"lat":34.73447,"lng":134.513046,"delta_lat":[0,60654,33785,50292,2119,-1876,-134633],"delta_lng":[0,35427,6223,-54232,-3690,-7930,20697]},"impl":true},
    {"code":1163304,"id":"6ddd8a","name":"太市","name_kana":"おおいち","lat":34.863998,"lng":134.607087,"prefecture":28,"lines":[11633],"attr":"eco","postal_code":"671-2232","address":"姫路市相野","next":[1163507,1160918,1160903,1163307,1163303,1163305,1163306],"voronoi":{"lat":34.963559,"lng":134.642786,"delta_lat":[0,-5713,-119576,-2277,9266,27491,50611],"delta_lng":[0,2697,-25174,-18137,-20058,-1194,24209]},"impl":true},
    {"code":1163502,"left":100304,"right":1163503,"id":"098a1c","name":"京口","name_kana":"きょうぐち","lat":34.834672,"lng":134.70535,"prefecture":28,"lines":[11635],"attr":"eco","postal_code":"670-0841","address":"姫路市城東町","next":[1160823,9963743,100304,1163503],"voronoi":{"lat":34.850297,"lng":134.690509,"delta_lat":[0,-14369,-11627,16462],"delta_lng":[0,5260,5592,23834]},"impl":true},
    {"code":100304,"left":9963743,"id":"4491da","name":"姫路","name_kana":"ひめじ","lat":34.827659,"lng":134.690769,"prefecture":28,"lines":[1003,11608,11609,11633,11635],"attr":"cool","postal_code":"670-0927","address":"姫路市駅前町御殿前","next":[1160823,9963739,9963742,1163502,9963743],"voronoi":{"lat":34.823379,"lng":134.686402,"delta_lat":[0,-13077,121,13878,11627],"delta_lng":[0,10889,1961,2108,-5592]},"impl":true},
    {"code":9963743,"id":"3253ea","name":"山陽姫路","name_kana":"さんようひめじ","lat":34.828783,"lng":134.689263,"prefecture":28,"lines":[99637],"attr":"cool","postal_code":"670-0912","address":"姫路市南町１","next":[1163502,9963742,100304,1163503,1163302],"voronoi":{"lat":34.850297,"lng":134.690509,"delta_lat":[0,-14369,-12549,11232,21733],"delta_lng":[0,5260,-9366,-12751,9332]},"impl":true},
    {"code":1163503,"id":"85f1cc","name":"野里","name_kana":"のざと","lat":34.856142,"lng":134.711251,"prefecture":28,"lines":[11635],"attr":"eco","postal_code":"670-0805","address":"姫路市西中島","next":[1160823,1163504,1163303,1163302,1163502,1163505,1160820,9963743],"voronoi":{"lat":34.840764,"lng":134.725194,"delta_lat":[0,205,1221,37821,15679,-17689,-21656,-6047],"delta_lng":[0,5332,1975,-28640,-26648,-88,5858,7525]},"impl":true},
    {"code":1163506,"left":1163307,"right":1163508,"id":"0ddee7","name":"香呂","name_kana":"こうろ","lat":34.911389,"lng":134.735895,"prefecture":28,"lines":[11635],"attr":"eco","postal_code":"679-2144","address":"姫路市香寺町中屋","next":[1163303,1163505,9964306,9964307,1163507],"voronoi":{"lat":34.955704,"lng":134.647019,"delta_lat":[0,-39609,-30984,17040,1265],"delta_lng":[0,23357,107276,2830,13]},"impl":true},
    {"code":1163307,"left":1163505,"right":1163308,"id":"6a0530","name":"播磨新宮","name_kana":"はりましんぐう","lat":34.921442,"lng":134.545766,"prefecture":28,"lines":[11633],"attr":"heat","postal_code":"679-4313","address":"たつの市新宮町新宮","next":[1163510,1163508,1163512,1163306,1163304,1163507,1163308],"voronoi":{"lat":35.012155,"lng":134.630872,"delta_lat":[0,-12452,-29232,-6912,-40198,-36505,193783],"delta_lng":[0,6096,5593,226,-37657,-103561,79361]},"impl":true},
    {"code":1163505,"left":1163306,"id":"e238c8","name":"仁豊野","name_kana":"にぶの","lat":34.885144,"lng":134.728315,"prefecture":28,"lines":[11635],"attr":"eco","postal_code":"670-0801","address":"姫路市仁豊野","next":[1163504,9964306,1163506,1163303,1163503],"voronoi":{"lat":34.865866,"lng":134.779894,"delta_lat":[0,19245,30984,-20406,-15679],"delta_lng":[0,-2242,-107276,6838,26648]},"impl":true},
    {"code":1163306,"id":"d0339b","name":"東觜崎","name_kana":"ひがしはしさき","lat":34.887629,"lng":134.557685,"prefecture":28,"lines":[11633],"attr":"eco","postal_code":"679-4108","address":"たつの市神岡町大住寺","next":[1163305,1163308,1160904,1163307,1163304],"voronoi":{"lat":34.886855,"lng":134.501568,"delta_lat":[0,-5536,-2119,-6451,50611],"delta_lng":[0,-4795,3690,80457,24209]},"impl":true},
    {"code":1163308,"id":"fc518f","name":"千本","name_kana":"せんぼん","lat":34.942508,"lng":134.494327,"prefecture":28,"lines":[11633],"attr":"heat","postal_code":"679-4346","address":"たつの市新宮町千本","next":[100305,1163310,1163512,1163306,1160904,1163309,1163307],"voronoi":{"lat":35.10721,"lng":134.567805,"delta_lat":[0,-62287,-160029,-5450,1876,5536,193783],"delta_lng":[0,-44689,-66699,32427,7930,4795,79361]},"impl":true},
    {"code":1163508,"left":1163507,"right":1163509,"id":"b47b2f","name":"福崎","name_kana":"ふくさき","lat":34.960637,"lng":134.750618,"prefecture":28,"lines":[11635],"attr":"eco","postal_code":"679-2212","address":"神崎郡福崎町福田","next":[1163507,1163509,1163307,1163510,9964307,9964308],"voronoi":{"lat":34.997224,"lng":134.675143,"delta_lat":[0,2479,-29232,-36425,1725,26147],"delta_lng":[0,-38176,5593,144355,1159,9876]},"impl":true},
    {"code":1163507,"id":"b71074","name":"溝口","name_kana":"みぞぐち","lat":34.927859,"lng":134.742347,"prefecture":28,"lines":[11635],"attr":"eco","postal_code":"679-2161","address":"姫路市香寺町溝口","next":[1163508,1163304,1163303,9964307,1163307,1163506],"voronoi":{"lat":34.955704,"lng":134.647019,"delta_lat":[0,2141,5713,6912,-36425,-30629],"delta_lng":[0,-1535,-2697,-226,144355,-6421]},"impl":true},
    {"code":1163509,"id":"ec5d0d","name":"甘地","name_kana":"あまじ","lat":34.98814,"lng":134.758525,"prefecture":28,"lines":[11635],"attr":"eco","postal_code":"679-2323","address":"神崎郡市川町甘地","next":[1163508,1163510,9964308],"voronoi":{"lat":34.997224,"lng":134.675143,"delta_lat":[0,-35306,52913],"delta_lng":[0,122807,41761]},"impl":true},
    {"code":1170417,"left":1163413,"right":9964407,"id":"0f722c","name":"美作滝尾","name_kana":"みまさかたきお","lat":35.123611,"lng":134.071324,"prefecture":33,"lines":[11704],"attr":"heat","postal_code":"708-1103","address":"津山市堀坂","next":[1170415,1163407,1163411,1170418,1163410,1170416],"voronoi":{"lat":35.095079,"lng":134.123378,"delta_lat":[0,12609,9514,14948,10659,-36408],"delta_lng":[0,-98999,-15638,-15225,53982,96727]},"impl":true},
    {"code":1163413,"left":1163417,"right":1163414,"id":"a9b038","name":"美作千代","name_kana":"みまさかせんだい","lat":35.058311,"lng":133.906201,"prefecture":33,"lines":[11634],"attr":"heat","postal_code":"709-4611","address":"津山市領家","next":[1171504,1163412,1163414,1171503,1170415],"voronoi":{"lat":35.215499,"lng":133.911791,"delta_lat":[0,-232164,33811,25270,147591],"delta_lng":[0,-29958,38138,12178,-2173]},"impl":true},
    {"code":1163417,"left":1163420,"right":1163411,"id":"113b47","name":"古見(岡山)","original_name":"古見","name_kana":"こみ","lat":35.049213,"lng":133.760616,"prefecture":33,"lines":[11634],"attr":"eco","postal_code":"719-3103","address":"真庭市古見","next":[1163418,1163415,1163416,1163419],"voronoi":{"lat":35.081205,"lng":133.785925,"delta_lat":[0,-46236,2899,11298],"delta_lng":[0,7516,-78618,5375]},"impl":true},
    {"code":1163420,"left":1163416,"right":1163421,"id":"1e3944","name":"月田","name_kana":"つきだ","lat":35.048195,"lng":133.666839,"prefecture":33,"lines":[11634],"attr":"eco","postal_code":"717-0024","address":"真庭市月田","next":[1163421,1163416,1170314,1170315,1163419],"voronoi":{"lat":34.926928,"lng":133.683936,"delta_lat":[0,17493,7824,142972,-58957],"delta_lng":[0,-44251,-12153,17477,68393]},"impl":true},
    {"code":1163416,"left":1163423,"id":"3a6b56","name":"美作落合","name_kana":"みまさかおちあい","lat":35.02318,"lng":133.759656,"prefecture":33,"lines":[11634],"attr":"eco","postal_code":"719-3105","address":"真庭市西原","next":[1170314,1171510,1171509,1163420,1163419,1163415,1163417,1170313],"voronoi":{"lat":34.880524,"lng":133.761736,"delta_lat":[0,74522,79922,2899,-1607,-109332,-907,-51158],"delta_lng":[0,78932,-47227,-78618,-1421,-29466,918,69544]},"impl":true},
    {"code":1163423,"id":"41cff8","name":"丹治部","name_kana":"たじべ","lat":35.046392,"lng":133.553725,"prefecture":33,"lines":[11634],"attr":"cool","postal_code":"719-3506","address":"新見市大佐田治部","next":[1170316,1163422,1163424,1163421],"voronoi":{"lat":35.051876,"lng":133.582928,"delta_lat":[0,32147,-104827,-9638],"delta_lng":[0,-78404,60704,29530]},"impl":true},
    {"code":1163421,"id":"bd06fd","name":"富原","name_kana":"とみはら","lat":35.054838,"lng":133.612494,"prefecture":33,"lines":[11634],"attr":"cool","postal_code":"717-0741","address":"真庭市若代","next":[1163419,1163420,1170315,1163422,1163423,1170316],"voronoi":{"lat":34.969559,"lng":133.594758,"delta_lat":[0,82318,97747,-54406,-142972,5591],"delta_lng":[0,-11830,45066,17014,-17477,-17770]},"impl":true},
    {"code":1163411,"left":1163409,"right":1171502,"id":"cce131","name":"津山","name_kana":"つやま","lat":35.054511,"lng":134.003477,"prefecture":33,"lines":[11634,11704,11715],"attr":"heat","postal_code":"708-0882","address":"津山市大谷","next":[1163410,1170415,1163409,1170417,1171502,1171504,1171503],"voronoi":{"lat":35.022413,"lng":133.993088,"delta_lat":[0,109797,-61,-14948,-125165,-1576,23061],"delta_lng":[0,309,119,15225,18394,-224,-29144]},"impl":true},
    {"code":1163409,"left":1171503,"id":"6b3945","name":"美作大崎","name_kana":"みまさかおおさき","lat":35.045419,"lng":134.067298,"prefecture":33,"lines":[11634],"attr":"heat","postal_code":"708-0857","address":"津山市福力","next":[1163411,1170418,1163408,1163410,1171505,1171506,1171504],"voronoi":{"lat":34.99046,"lng":134.02691,"delta_lat":[0,1576,70377,1106,-129053,9368,45810],"delta_lng":[0,224,26297,26489,-10938,-8128,-33591]},"impl":true},
    {"code":1171503,"id":"9e47ad","name":"佐良山","name_kana":"さらやま","lat":35.032024,"lng":133.960748,"prefecture":33,"lines":[11715],"attr":"cool","postal_code":"708-0876","address":"津山市高尾","next":[1163412,1163413,1171504,1171502,1163411],"voronoi":{"lat":35.017147,"lng":133.919971,"delta_lat":[0,25270,4200,-24203,-8892],"delta_lng":[0,12178,36283,24656,4679]},"impl":true},
    {"code":1171502,"id":"1a066c","name":"津山口","name_kana":"つやまぐち","lat":35.054569,"lng":133.982879,"prefecture":33,"lines":[11715],"attr":"cool","postal_code":"708-0884","address":"津山市津山口","next":[1170415,1163412,1163411,1171503],"voronoi":{"lat":35.046617,"lng":133.968431,"delta_lat":[0,91566,-5972,-109797],"delta_lng":[0,16307,8658,-309]},"impl":true},
    {"code":1163414,"left":1163419,"right":1170418,"id":"0a8f4b","name":"坪井","name_kana":"つぼい","lat":35.062041,"lng":133.877295,"prefecture":33,"lines":[11634],"attr":"heat","postal_code":"709-4606","address":"津山市中北上","next":[1171506,1163413,1170415,1070107,1070106,1163415,1171508,1171509,1171504,1171505],"voronoi":{"lat":34.983336,"lng":133.881833,"delta_lat":[0,232164,31222,-286,-20906,-264469,62,1450,11408,1436],"delta_lng":[0,29958,-18162,-1062,-53016,14625,442,4158,15327,1590]},"impl":true},
    {"code":1163419,"left":1163415,"right":1163418,"id":"4fb7ff","name":"中国勝山","name_kana":"ちゅうごくかつやま","lat":35.080556,"lng":133.694735,"prefecture":33,"lines":[11634],"attr":"eco","postal_code":"717-0013","address":"真庭市勝山","next":[1163418,1070109,1163421,1170328,1163416,1163417,1163420,1163422],"voronoi":{"lat":35.21902,"lng":133.625692,"delta_lat":[0,5293,-4563,-170584,-11298,-1607,58957,54406],"delta_lng":[0,5107,87977,1422,-5375,-1421,-68393,-17014]},"impl":true},
    {"code":1163415,"left":1163422,"id":"f99c5e","name":"美作追分","name_kana":"みまさかおいわけ","lat":35.058876,"lng":133.820063,"prefecture":33,"lines":[11634],"attr":"eco","postal_code":"719-3121","address":"真庭市上河内","next":[1163418,1070107,1163417,1171509,1163414,1163416],"voronoi":{"lat":35.034968,"lng":133.79344,"delta_lat":[0,46236,141889,2436,-264469,-6014],"delta_lng":[0,-7516,41849,11777,14625,-13508]},"impl":true},
    {"code":1163422,"id":"570cc1","name":"刑部","name_kana":"おさかべ","lat":35.076283,"lng":133.565981,"prefecture":33,"lines":[11634],"attr":"cool","postal_code":"719-3503","address":"新見市大佐小阪部","next":[1163424,1170328,1170327,1170326,1170321,1163423,1163421,1163419],"voronoi":{"lat":35.21902,"lng":133.625692,"delta_lat":[0,-7721,-39603,-39502,-11972,-36198,-32147,97747],"delta_lng":[0,-19672,-84934,-52650,-350,36439,78404,45066]},"impl":true},
    {"code":1163418,"id":"7b59d8","name":"久世","name_kana":"くせ","lat":35.080976,"lng":133.745133,"prefecture":33,"lines":[11634],"attr":"eco","postal_code":"719-3201","address":"真庭市久世","next":[1070107,1163417,1163415,1163419,1070109],"voronoi":{"lat":35.223093,"lng":133.827773,"delta_lat":[0,-141889,-32039,170584,5672],"delta_lng":[0,-41849,-65727,-1422,44226]},"impl":true},
    {"code":1170418,"left":1163410,"right":1170415,"id":"15aefa","name":"高野(岡山)","original_name":"高野","name_kana":"たかの","lat":35.080505,"lng":134.065834,"prefecture":33,"lines":[11704],"attr":"heat","postal_code":"708-1125","address":"津山市高野本郷","next":[1163408,1163409,1170417,1163407,1163410],"voronoi":{"lat":35.063519,"lng":134.07992,"delta_lat":[0,23103,8456,12609,-45274],"delta_lng":[0,36356,7101,-98999,29053]},"impl":true},
    {"code":1163410,"left":1163412,"id":"308405","name":"東津山","name_kana":"ひがしつやま","lat":35.058676,"lng":134.031818,"prefecture":33,"lines":[11634,11704],"attr":"heat","postal_code":"708-0841","address":"津山市川崎","next":[1163411,1163409,1170417,1170418],"voronoi":{"lat":35.107687,"lng":134.024378,"delta_lat":[0,9514,-125165,70377],"delta_lng":[0,-15638,18394,26297]},"impl":true},
    {"code":1163412,"id":"f828d1","name":"院庄","name_kana":"いんのしょう","lat":35.059068,"lng":133.957617,"prefecture":33,"lines":[11634],"attr":"heat","postal_code":"708-0013","address":"津山市二宮","next":[1163413,1171503,1171502,1170415],"voronoi":{"lat":35.190007,"lng":133.929976,"delta_lat":[0,-147591,4200,91566],"delta_lng":[0,2173,36283,16307]},"impl":true},
    {"code":1170415,"id":"cf62db","name":"美作加茂","name_kana":"みまさかかも","lat":35.169622,"lng":134.062239,"prefecture":33,"lines":[11704],"attr":"cool","postal_code":"709-3923","address":"津山市加茂町桑原","next":[1170417,1163414,1170416,1163411,1171502,1163412,1070105,1170414,1163413,1070106],"voronoi":{"lat":35.246722,"lng":133.893629,"delta_lat":[0,-31222,-25492,-51825,-5972,-61,10659,24573,111624,-5092],"delta_lng":[0,18162,18185,54763,8658,119,53982,43604,-170261,-4659]},"impl":true},
    {"code":9964407,"left":1163404,"right":9964410,"id":"20098d","name":"石井(兵庫)","original_name":"石井","name_kana":"いしい","lat":35.082257,"lng":134.357271,"prefecture":28,"lines":[99644],"attr":"heat","postal_code":"679-5321","address":"佐用郡佐用町大字下石井","next":[1163310,9964408,9964406,9964409,1163312,9964411,9964410,1163402,1163513],"voronoi":{"lat":35.173382,"lng":134.546127,"delta_lat":[0,-6380,-35723,-14305,-73253,-365,-33,71867,39726],"delta_lng":[0,-33586,-130631,-20010,-52941,1039,3518,184672,49582]},"impl":true},
    {"code":1163404,"left":1163407,"right":1163511,"id":"53fd72","name":"美作江見","name_kana":"みまさかえみ","lat":35.013403,"lng":134.219754,"prefecture":33,"lines":[11634],"attr":"heat","postal_code":"709-4236","address":"美作市川北","next":[1160909,1170412,9964408,1163403,1163405,1163406,9964409],"voronoi":{"lat":35.114178,"lng":134.226981,"delta_lat":[0,-102,-191646,-7544,-1031,152391,35127],"delta_lng":[0,-2093,-39960,-54,13710,69543,-28030]},"impl":true},
    {"code":1163407,"left":1163405,"right":1163408,"id":"857f0a","name":"勝間田","name_kana":"かつまだ","lat":35.035882,"lng":134.118971,"prefecture":33,"lines":[11634],"attr":"heat","postal_code":"709-4316","address":"勝田郡勝央町勝間田","next":[1170417,1170416,1163405,1163408,1170418,1163406],"voronoi":{"lat":34.941665,"lng":134.07878,"delta_lat":[0,144958,8456,11322,11882,-52583],"delta_lng":[0,37497,7101,20847,30689,-12058]},"impl":true},
    {"code":1163405,"left":1163406,"id":"33d7f2","name":"楢原","name_kana":"ならはら","lat":35.01974,"lng":134.189362,"prefecture":33,"lines":[11634],"attr":"heat","postal_code":"707-0022","address":"美作市楢原上","next":[1170412,1163404,1163407,1163406,1170416],"voronoi":{"lat":35.114076,"lng":134.224888,"delta_lat":[0,-191646,143270,52583,986],"delta_lng":[0,-39960,-22073,12058,1079]},"impl":true},
    {"code":1163406,"id":"349953","name":"林野","name_kana":"はやしの","lat":35.013893,"lng":134.151411,"prefecture":33,"lines":[11634],"attr":"heat","postal_code":"707-0025","address":"美作市栄町","next":[1163408,1163404,1160910,1163405,1160911,1160909,1163407,1171507],"voronoi":{"lat":34.929517,"lng":134.072977,"delta_lat":[0,12147,124035,-143270,-7544,-9306,-349,2117],"delta_lng":[0,5802,84076,22073,-54,-35262,-54889,-11617]},"impl":true},
    {"code":1163408,"id":"a1e7d5","name":"西勝間田","name_kana":"にしかつまだ","lat":35.043553,"lng":134.089316,"prefecture":33,"lines":[11634],"attr":"heat","postal_code":"709-4323","address":"勝田郡勝央町黒坂","next":[1171506,1170418,1163409,1163406,1171507,1163407],"voronoi":{"lat":35.063519,"lng":134.07992,"delta_lat":[0,-129053,-2352,-2597,12147,144958],"delta_lng":[0,-10938,1662,2333,5802,37497]},"impl":true},
    {"code":1163511,"left":1163510,"right":1163512,"id":"43aaea","name":"新野(兵庫)","original_name":"新野","name_kana":"にいの","lat":35.050278,"lng":134.752482,"prefecture":28,"lines":[11635],"attr":"heat","postal_code":"679-3114","address":"神崎郡神河町新野","next":[1163218,1163513,1163514,1163217,1163512,1163510],"voronoi":{"lat":35.033095,"lng":134.707099,"delta_lat":[0,53500,2055,-15465,-21930,-4132],"delta_lng":[0,88040,31325,47495,240,-475]},"impl":true},
    {"code":1163510,"left":9964406,"id":"c36c7a","name":"鶴居","name_kana":"つるい","lat":35.023742,"lng":134.754716,"prefecture":28,"lines":[11635],"attr":"eco","postal_code":"679-2334","address":"神崎郡市川町鶴居","next":[1163307,1163512,1163509,1163217,1163213,1163511,1163508,9964308],"voronoi":{"lat":35.046958,"lng":134.873724,"delta_lat":[0,166,-14028,-20941,-12452,-2479,17607,27165],"delta_lng":[0,0,-166625,-76228,6096,38176,164568,32806]},"impl":true},
    {"code":9964406,"id":"e8bc55","name":"平福","name_kana":"ひらふく","lat":35.044206,"lng":134.372079,"prefecture":28,"lines":[99644],"attr":"eco","postal_code":"679-5331","address":"佐用郡佐用町大字平福","next":[9964407,1163310,1163312,1163311],"voronoi":{"lat":35.017728,"lng":134.380425,"delta_lat":[0,25595,71867,-88711],"delta_lng":[0,-66909,184672,-83270]},"impl":true},
    {"code":1163512,"id":"1419cf","name":"寺前","name_kana":"てらまえ","lat":35.065462,"lng":134.743255,"prefecture":28,"lines":[11635],"attr":"heat","postal_code":"679-3112","address":"神崎郡神河町鍛治","next":[1163510,1163308,1163310,1163307,1163513,1163511],"voronoi":{"lat":35.107987,"lng":134.567601,"delta_lat":[0,-778,-26571,-68484,20941,53500],"delta_lng":[0,203,13125,49942,76228,88040]},"impl":true},
    {"code":9964410,"left":1170416,"right":1163514,"id":"b5a3c2","name":"西粟倉","name_kana":"にしあわくら","lat":35.16094,"lng":134.335754,"prefecture":33,"lines":[99644],"attr":"eco","postal_code":"707-0504","address":"英田郡西粟倉村大字長尾","next":[9964407,1170412,9964411,9964412,9964409],"voronoi":{"lat":35.167001,"lng":134.51254,"delta_lat":[0,10334,-12724,-6521,-26812],"delta_lng":[0,-229881,-19350,-2739,121339]},"impl":true},
    {"code":1170416,"left":9964408,"right":1170414,"id":"f4f10b","name":"三浦","name_kana":"みうら","lat":35.141531,"lng":134.078069,"prefecture":33,"lines":[11704],"attr":"heat","postal_code":"708-1101","address":"津山市三浦","next":[1170413,1170415,1170412,1170414,1163407,1163405,1170417],"voronoi":{"lat":35.142809,"lng":134.047497,"delta_lat":[0,24573,151,-26430,-21834,-986,-11882],"delta_lng":[0,43604,14621,58312,11958,-1079,-30689]},"impl":true},
    {"code":9964408,"left":9964409,"id":"1847d0","name":"宮本武蔵","name_kana":"みやもとむさし","lat":35.101685,"lng":134.330389,"prefecture":33,"lines":[99644],"attr":"cool","postal_code":"707-0416","address":"美作市今岡","next":[9964407,1163403,9964409,1163404,1163402],"voronoi":{"lat":35.116974,"lng":134.3619,"delta_lat":[0,-15601,-35127,-22024,-501],"delta_lng":[0,-121802,28030,33315,7516]},"impl":true},
    {"code":9964409,"id":"f28abb","name":"大原(岡山)","original_name":"大原","name_kana":"おおはら","lat":35.123827,"lng":134.327553,"prefecture":33,"lines":[99644],"attr":"cool","postal_code":"707-0412","address":"美作市古町","next":[9964407,9964408,1163404,9964410,1170412],"voronoi":{"lat":35.114178,"lng":134.226981,"delta_lat":[0,-12805,15601,14305,26812],"delta_lng":[0,13116,121802,20010,-121339]},"impl":true},
    {"code":1170414,"id":"d8c200","name":"知和","name_kana":"ちわ","lat":35.192956,"lng":134.077537,"prefecture":33,"lines":[11704],"attr":"cool","postal_code":"709-3924","address":"津山市加茂町小渕","next":[1161624,1070102,1170413,1170416,1170415,1070105,1161627],"voronoi":{"lat":35.348274,"lng":134.029099,"delta_lat":[0,-180741,-151,111624,1063,22121,44923],"delta_lng":[0,76624,-14621,-170261,830,23114,70592]},"impl":true},
    {"code":1163514,"left":1163513,"right":9964411,"id":"6e2154","name":"生野(兵庫)","original_name":"生野","name_kana":"いくの","lat":35.163227,"lng":134.789259,"prefecture":28,"lines":[11635],"attr":"heat","postal_code":"679-3301","address":"朝来市生野町口銀谷","next":[1163513,1163515,1163219,1163218,1163511,1163006,1163516],"voronoi":{"lat":35.189906,"lng":134.917281,"delta_lat":[0,17843,-119098,-15465,91969,8917,13592],"delta_lng":[0,-224505,133688,47495,49083,4064,521]},"impl":true},
    {"code":1163513,"id":"5b4038","name":"長谷(兵庫)","original_name":"長谷","name_kana":"はせ","lat":35.117029,"lng":134.748103,"prefecture":28,"lines":[11635],"attr":"heat","postal_code":"679-3102","address":"神崎郡神河町栗","next":[1163514,1163511,9964411,1163512,1163310,9964407,1163515,9970109],"voronoi":{"lat":35.207748,"lng":134.692777,"delta_lat":[0,-119098,-2055,21392,46928,18466,22224,54347],"delta_lng":[0,133688,-31325,-227538,-19832,-1643,3885,35458]},"impl":true},
    {"code":9964411,"id":"793f69","name":"あわくら温泉","name_kana":"あわくらおんせん","lat":35.188901,"lng":134.337011,"prefecture":33,"lines":[99644],"attr":"eco","postal_code":"707-0503","address":"英田郡西粟倉村大字影石","next":[9964407,9964412,1163513,9964410,9970109],"voronoi":{"lat":35.268219,"lng":134.364736,"delta_lat":[0,-90884,-10334,6380,22224],"delta_lng":[0,-82076,229881,33586,3885]},"impl":true}
  ]
}