{
  "name":"segment15",
  "root":3100710,
  "east":137.400288,
  "west":135.444629,
  "south":34.320616,
  "north":34.559377,
  "station_size":155,
  "node_list":[
    {"code":3100710,"left":3200721,"right":1151210,"id":"865fb9","name":"大阿太","name_kana":"おおあだ","lat":34.388359,"lng":135.766434,"prefecture":29,"lines":[31007],"attr":"cool","postal_code":"638-0831","address":"吉野郡大淀町佐名伝１０６６","next":[1163611,1163613,1163612,3100709,3100711,3100706],"voronoi":{"lat":34.312905,"lng":135.761038,"delta_lat":[0,30761,15691,48633,3219,1593],"delta_lng":[0,-14815,-2153,21271,6471,10525]},"impl":true},
    {"code":3200721,"left":3200731,"right":3100318,"id":"2a9216","name":"大阪狭山市","name_kana":"おおさかさやまし","lat":34.504643,"lng":135.557234,"prefecture":27,"lines":[32007],"attr":"eco","postal_code":"589-0005","address":"大阪狭山市狭山４-２３４０-１","next":[3102202,3200722,3200720,9961603,3102205,3102204],"voronoi":{"lat":34.507162,"lng":135.577311,"delta_lat":[0,-3216,-9050,2460,31427,-6331],"delta_lng":[0,-1216,-40704,-406,41738,2284]},"impl":true},
    {"code":3200731,"left":3200724,"right":1163610,"id":"48fb05","name":"林間田園都市","name_kana":"りんかんでんえんとし","lat":34.355292,"lng":135.603207,"prefecture":30,"lines":[32007],"attr":"eco","postal_code":"648-0094","address":"橋本市三石台１-１-１","next":[1163615,3200730,1163616,3200732],"voronoi":{"lat":34.356377,"lng":135.637032,"delta_lat":[0,17848,-25000,-4051],"delta_lng":[0,9253,-83229,62367]},"impl":true},
    {"code":3200724,"left":3102207,"right":3200723,"id":"3e2738","name":"千代田","name_kana":"ちよだ","lat":34.468894,"lng":135.566311,"prefecture":27,"lines":[32007],"attr":"eco","postal_code":"586-0001","address":"河内長野市木戸１-１-１３","next":[3102207,3200723,3200726,9961603,9961604,3102208],"voronoi":{"lat":34.478092,"lng":135.574274,"delta_lat":[0,-18161,-7914,-6595,2680,12401],"delta_lng":[0,-47217,-4078,-1405,17147,32914]},"impl":true},
    {"code":3102207,"left":3102208,"right":3200729,"id":"533bb4","name":"汐ノ宮","name_kana":"しおのみや","lat":34.466962,"lng":135.579188,"prefecture":27,"lines":[31022],"attr":"cool","postal_code":"586-0011","address":"河内長野市汐の宮町１-３","next":[3102206,3200728,3200724,3102208,3200723],"voronoi":{"lat":34.448631,"lng":135.632066,"delta_lat":[0,-3656,15527,17589,405],"delta_lng":[0,-18417,-42013,2639,301]},"impl":true},
    {"code":3102208,"left":3200727,"right":9961606,"id":"c5c4bd","name":"河内長野","name_kana":"かわちながの","lat":34.450684,"lng":135.573172,"prefecture":27,"lines":[31022,32007],"attr":"cool","postal_code":"586-0015","address":"河内長野市本町２９-９","next":[3200728,3200726,3102207,3200724,3200727],"voronoi":{"lat":34.444975,"lng":135.613649,"delta_lat":[0,15527,-12401,-7372,2136],"delta_lng":[0,-42013,-32914,56193,13878]},"impl":true},
    {"code":3200727,"left":3200726,"id":"5a89c9","name":"美加の台","name_kana":"みかのだい","lat":34.424697,"lng":135.577172,"prefecture":27,"lines":[32007],"attr":"cool","postal_code":"586-0069","address":"河内長野市石仏１９１-１","next":[1163620,1163622,3200729,3200726,9961606,3200728,3102208],"voronoi":{"lat":34.440729,"lng":135.594915,"delta_lat":[0,-44867,-10332,-823,-11251,16861,52548],"delta_lng":[0,-92495,-3115,1244,30021,24961,53262]},"impl":true},
    {"code":3200726,"id":"11e072","name":"三日市町","name_kana":"みっかいちちょう","lat":34.43672,"lng":135.57134,"prefecture":27,"lines":[32007],"attr":"cool","postal_code":"586-0048","address":"河内長野市三日市町１１２５","next":[9961605,9961604,3200727,3102208,3200724,9961606],"voronoi":{"lat":34.43441,"lng":135.515004,"delta_lat":[0,11011,2680,-7372,-44867,14697],"delta_lng":[0,6571,17147,56193,-92495,3122]},"impl":true},
    {"code":9961606,"id":"0c8c23","name":"和泉中央","name_kana":"いずみちゅうおう","lat":34.461211,"lng":135.456063,"prefecture":27,"lines":[99616],"attr":"cool","postal_code":"594-0041","address":"和泉市いぶき野５-１-１","next":[9961710,1162618,1163622,3200727,3200726,1162619,1162617,9961605,9961709,1162620],"voronoi":{"lat":34.413048,"lng":135.436635,"delta_lat":[0,-35327,7810,10332,14697,75413,-4590,-17949,-29386,-10673],"delta_lng":[0,28913,33757,3115,3122,-52188,-7721,-14913,-2626,697]},"impl":true},
    {"code":3200729,"left":3200732,"right":3200728,"id":"c7992f","name":"天見","name_kana":"あまみ","lat":34.397558,"lng":135.595504,"prefecture":27,"lines":[32007],"attr":"cool","postal_code":"586-0062","address":"河内長野市天見１９５-１","next":[3200727,3200728,1163612,1163620,3200730,1163614],"voronoi":{"lat":34.389295,"lng":135.650095,"delta_lat":[0,-16650,812,16861,40041,-29725],"delta_lng":[0,-118331,-1194,24961,105179,-4063]},"impl":true},
    {"code":3200732,"left":3200730,"id":"c1e7ff","name":"御幸辻","name_kana":"みゆきつじ","lat":34.338016,"lng":135.602085,"prefecture":30,"lines":[32007],"attr":"eco","postal_code":"648-0096","address":"橋本市御幸辻５６７-１","next":[3200734,3200730,1163617,1163618,1163616,1163619,3200731],"voronoi":{"lat":34.349225,"lng":135.563055,"delta_lat":[0,-98,-1809,-25074,167,13843,8920],"delta_lng":[0,-1271,1219,34642,1894,21675,4208]},"impl":true},
    {"code":3200730,"id":"1cb0e9","name":"紀見峠","name_kana":"きみとうげ","lat":34.366288,"lng":135.599904,"prefecture":30,"lines":[32007],"attr":"eco","postal_code":"648-0098","address":"橋本市矢倉脇２２６-２","next":[1163619,1163620,1163615,3200731,3200729,3200732,1163614],"voronoi":{"lat":34.372645,"lng":135.531764,"delta_lat":[0,-4678,-18839,98,25000,491,14578],"delta_lng":[0,4278,25743,1271,83229,337,3473]},"impl":true},
    {"code":3200728,"id":"2766bf","name":"千早口","name_kana":"ちはやぐち","lat":34.411493,"lng":135.590199,"prefecture":27,"lines":[32007],"attr":"cool","postal_code":"586-0061","address":"河内長野市岩瀬１３４３","next":[3102207,3200729,1163612,3102206,3102208,3101804,3200727],"voronoi":{"lat":34.444975,"lng":135.613649,"delta_lat":[0,3656,1258,-13811,-5720,-40041,52548],"delta_lng":[0,18417,24870,5163,-1389,-105179,53262]},"impl":true},
    {"code":3200723,"left":3200722,"right":3102204,"id":"7d2a1f","name":"滝谷(大阪)","original_name":"滝谷","name_kana":"たきだに","lat":34.479582,"lng":135.5622,"prefecture":27,"lines":[32007],"attr":"eco","postal_code":"584-0062","address":"富田林市須賀５７３-３","next":[3102206,3200724,9961603,3200722,3102207],"voronoi":{"lat":34.478092,"lng":135.574274,"delta_lat":[0,-18161,22777,7135,-11346],"delta_lng":[0,-47217,7881,38815,822]},"impl":true},
    {"code":3200722,"left":9961604,"right":9961603,"id":"2f954d","name":"金剛","name_kana":"こんごう","lat":34.495324,"lng":135.559306,"prefecture":27,"lines":[32007],"attr":"eco","postal_code":"589-0006","address":"大阪狭山市金剛１-１-１","next":[3102206,3200721,3200723,9961603,3102205],"voronoi":{"lat":34.494897,"lng":135.535392,"delta_lat":[0,-12189,7135,2091,12013],"delta_lng":[0,-453,38815,1067,1275]},"impl":true},
    {"code":9961604,"left":9961605,"id":"633f29","name":"栂・美木多","name_kana":"とが・みきた","lat":34.485087,"lng":135.490286,"prefecture":27,"lines":[99616],"attr":"heat","postal_code":"590-0141","address":"堺市南区桃山台二丁１-１","next":[9961602,1162614,9961603,3200726,9961605,3200724,1162615],"voronoi":{"lat":34.510349,"lng":135.477416,"delta_lat":[0,-2200,-56132,-6595,-11011,66597,8516],"delta_lng":[0,13891,31673,-1405,-6571,-46958,8153]},"impl":true},
    {"code":9961605,"id":"18f200","name":"光明池","name_kana":"こうみょういけ","lat":34.474712,"lng":135.475572,"prefecture":27,"lines":[99616],"attr":"cool","postal_code":"590-0143","address":"堺市南区新檜尾台二丁１-１","next":[1162616,3200726,9961604,1162615,1162617,9961606],"voronoi":{"lat":34.485973,"lng":135.453353,"delta_lat":[0,4156,10074,805,-66597,-23851],"delta_lng":[0,2480,10634,1578,46958,-9462]},"impl":true},
    {"code":9961603,"id":"8e9c67","name":"泉ヶ丘","name_kana":"いずみがおか","lat":34.497099,"lng":135.511575,"prefecture":27,"lines":[99616],"attr":"eco","postal_code":"590-0105","address":"堺市南区竹城台1丁","next":[9961602,9961604,3200723,3200721,3200724,3200722,3200719,3200718,3200720],"voronoi":{"lat":34.494897,"lng":135.535392,"delta_lat":[0,-12189,-22777,-7914,56132,11643,-692,-11954,-9789],"delta_lng":[0,-453,-7881,-4078,-31673,27468,1178,9778,5255]},"impl":true},
    {"code":3102204,"left":3102205,"right":3102203,"id":"ef60ff","name":"富田林西口","name_kana":"とんだばやしにしぐち","lat":34.500302,"lng":135.596347,"prefecture":27,"lines":[31022],"attr":"heat","postal_code":"584-0031","address":"富田林市寿町１-１-３４","next":[3102202,3102203,3102205,3200721],"voronoi":{"lat":34.522311,"lng":135.5793,"delta_lat":[0,-46568,31419,15290],"delta_lng":[0,44254,-46243,1696]},"impl":true},
    {"code":3102205,"left":3102206,"id":"cf386c","name":"川西(大阪)","original_name":"川西","name_kana":"かわにし","lat":34.491992,"lng":135.590701,"prefecture":27,"lines":[31022],"attr":"eco","postal_code":"584-0036","address":"富田林市甲田３-２-２９","next":[3102206,3102203,3102204,3200721,3200722],"voronoi":{"lat":34.491933,"lng":135.57482,"delta_lat":[0,-20579,4389,31419,-3216],"delta_lng":[0,54235,-5501,-46243,-1216]},"impl":true},
    {"code":3102206,"id":"c367fd","name":"滝谷不動","name_kana":"たきだにふどう","lat":34.481355,"lng":135.586665,"prefecture":27,"lines":[31022],"attr":"eco","postal_code":"584-0069","address":"富田林市錦織東２-１５-１","next":[3102207,3102205,3200723,3200728,3200722,3102203,3101804],"voronoi":{"lat":34.471355,"lng":135.629056,"delta_lat":[0,20579,-2091,-11346,-29865,1258,4362],"delta_lng":[0,-54235,-1067,822,57490,24870,499]},"impl":true},
    {"code":3102203,"id":"b8c96d","name":"富田林","name_kana":"とんだばやし","lat":34.504166,"lng":135.600413,"prefecture":27,"lines":[31022],"attr":"heat","postal_code":"584-0093","address":"富田林市本町１８-１７","next":[3100321,3100318,3102204,3102205,3102206,3100322,3101804,3102202],"voronoi":{"lat":34.46815,"lng":135.658047,"delta_lat":[0,-2938,-6391,-4570,17103,4389,46568,-18652],"delta_lng":[0,341,412,-1366,-28379,-5501,-44254,51263]},"impl":true},
    {"code":1163610,"left":1163612,"right":1163607,"id":"8f8222","name":"掖上","name_kana":"わきがみ","lat":34.452393,"lng":135.763127,"prefecture":29,"lines":[11636],"attr":"heat","postal_code":"639-2244","address":"御所市大字柏原","next":[3100327,3100326,3100703,3100702,1163609,3100704,3100706,3100705],"voronoi":{"lat":34.441348,"lng":135.765248,"delta_lat":[0,2204,29472,-103,-6434,-1352,-4316,-1293],"delta_lng":[0,-14370,12221,2427,11917,884,1545,-118]},"impl":true},
    {"code":1163612,"left":1163614,"right":1163611,"id":"ec96a8","name":"北宇智","name_kana":"きたうち","lat":34.381264,"lng":135.714722,"prefecture":29,"lines":[11636],"attr":"cool","postal_code":"637-0014","address":"五條市住川町","next":[1163614,3101804,3200728,1163613,3200729,3100710,3100709,3100708],"voronoi":{"lat":34.428583,"lng":135.697276,"delta_lat":[0,7496,-5720,-29725,-2576,-54391,15691,33280],"delta_lng":[0,-35178,-1389,-4063,2997,86580,-2153,-13328]},"impl":true},
    {"code":1163614,"left":1163615,"right":1163613,"id":"3dfa2d","name":"大和二見","name_kana":"やまとふたみ","lat":34.346125,"lng":135.684516,"prefecture":29,"lines":[11636],"attr":"cool","postal_code":"637-0071","address":"五條市二見３丁目","next":[3100716,1163613,3200742,1163612,3200729,3200730,1163615],"voronoi":{"lat":34.374717,"lng":135.646621,"delta_lat":[0,14578,11339,-2576,-207014,-64289,22187],"delta_lng":[0,3473,6552,2997,140348,11690,-24210]},"impl":true},
    {"code":1163615,"left":1163616,"id":"6d9764","name":"隅田","name_kana":"すだ","lat":34.32811,"lng":135.655639,"prefecture":30,"lines":[11636],"attr":"eco","postal_code":"648-0012","address":"橋本市隅田町芋生","next":[3200742,3200731,1163616,3200730,1163614],"voronoi":{"lat":34.374717,"lng":135.646621,"delta_lat":[0,-491,-17848,-112654,-94782],"delta_lng":[0,-337,-9253,29633,120807]},"impl":true},
    {"code":1163616,"id":"2cc2bc","name":"下兵庫","name_kana":"しもひょうご","lat":34.322613,"lng":135.634741,"prefecture":30,"lines":[11636],"attr":"eco","postal_code":"648-0016","address":"橋本市隅田町下兵庫","next":[1163617,1163615,3200731,3200734,3200732,3200742],"voronoi":{"lat":34.356377,"lng":135.637032,"delta_lat":[0,-11203,-8920,-43160,-40057,-9314],"delta_lng":[0,-11609,-4208,9626,20213,15611]},"impl":true},
    {"code":1163613,"id":"342339","name":"五条(奈良)","original_name":"五条","name_kana":"ごじょう","lat":34.355727,"lng":135.698679,"prefecture":29,"lines":[11636],"attr":"cool","postal_code":"637-0005","address":"五條市須恵３丁目","next":[3100711,1163614,1163612,3100716,3100710],"voronoi":{"lat":34.191604,"lng":135.799915,"delta_lat":[0,-561,207014,-54391,-30761],"delta_lng":[0,76,-140348,86580,14815]},"impl":true},
    {"code":1163611,"left":3100709,"right":3100706,"id":"19b986","name":"吉野口","name_kana":"よしのぐち","lat":34.420704,"lng":135.750343,"prefecture":29,"lines":[11636,31007],"attr":"heat","postal_code":"639-2254","address":"御所市大字古瀬","next":[3100710,3100709,1163609,3100708,3101804,3100706],"voronoi":{"lat":34.439144,"lng":135.740461,"delta_lat":[0,-437,-6815,-23855,-46,3219],"delta_lng":[0,-8862,-16792,43257,7278,6471]},"impl":true},
    {"code":3100709,"left":3100708,"id":"8d9dfc","name":"福神","name_kana":"ふくがみ","lat":34.395466,"lng":135.750185,"prefecture":29,"lines":[31007],"attr":"heat","postal_code":"638-0832","address":"吉野郡大淀町薬水三壺５９９-４","next":[3100708,1163611,3100710,1163612],"voronoi":{"lat":34.392638,"lng":135.730742,"delta_lat":[0,15399,-46,-48633],"delta_lng":[0,27321,7278,-21271]},"impl":true},
    {"code":3100708,"id":"cc2928","name":"薬水","name_kana":"くすりみず","lat":34.407806,"lng":135.74323,"prefecture":29,"lines":[31007],"attr":"heat","postal_code":"638-0832","address":"吉野郡大淀町薬水字赤味田１０８５","next":[3100709,3101804,1163611,1163612],"voronoi":{"lat":34.408036,"lng":135.758063,"delta_lat":[0,23855,-3309,-35945],"delta_lng":[0,-43257,-17530,33466]},"impl":true},
    {"code":3100706,"id":"621ebf","name":"葛","name_kana":"くず","lat":34.431446,"lng":135.759914,"prefecture":29,"lines":[31007],"attr":"heat","postal_code":"639-2251","address":"御所市戸毛９８１-３","next":[1163609,3100705,1163610,3100711,3100710,1163611],"voronoi":{"lat":34.439144,"lng":135.740461,"delta_lat":[0,4408,-2204,-28283,-262,-1593],"delta_lng":[0,10417,14370,17551,-461,-10525]},"impl":true},
    {"code":1163607,"left":3101803,"right":3100326,"id":"b601e0","name":"大和新庄","name_kana":"やまとしんじょう","lat":34.488827,"lng":135.736001,"prefecture":29,"lines":[11636],"attr":"eco","postal_code":"639-2113","address":"葛城市北花内北端","next":[3101802,1163609,3101803,3100326,3100325,3100324],"voronoi":{"lat":34.479181,"lng":135.752416,"delta_lat":[0,-1267,-752,6071,17099,-3977],"delta_lng":[0,209,-1830,-19309,549,11908]},"impl":true},
    {"code":3101803,"left":1163608,"right":3101802,"id":"e2b4cf","name":"忍海","name_kana":"おしみ","lat":34.476062,"lng":135.731988,"prefecture":29,"lines":[31018],"attr":"cool","postal_code":"639-2123","address":"葛城市忍海３４２-２","next":[3101802,1163607,3101804,1163609,1163608],"voronoi":{"lat":34.470334,"lng":135.731421,"delta_lat":[0,-1843,14742,-6071,-4371],"delta_lng":[0,-41285,41349,19309,-4664]},"impl":true},
    {"code":1163608,"left":3101804,"id":"ea980c","name":"御所","name_kana":"ごせ","lat":34.465102,"lng":135.733819,"prefecture":29,"lines":[11636],"attr":"eco","postal_code":"639-2200","address":"御所市御国通り１丁目","next":[3101804,3101803,1163609],"voronoi":{"lat":34.470334,"lng":135.731421,"delta_lat":[0,-17623,20080],"delta_lng":[0,5621,9088]},"impl":true},
    {"code":3101804,"id":"36d145","name":"近鉄御所","name_kana":"きんてつごせ","lat":34.46468,"lng":135.732496,"prefecture":29,"lines":[31018],"attr":"cool","postal_code":"639-2200","address":"御所市１８０-１","next":[3100708,3101802,1163612,1163608,3101803,3200728,1163609,3102203,3100322,1163611,3102206],"voronoi":{"lat":34.449889,"lng":135.656936,"delta_lat":[0,-13811,-7496,3309,6815,14005,17623,-1843,-4066,-5604,-4570],"delta_lng":[0,5163,35178,17530,16792,5444,-5621,-41285,-19255,-12081,-1366]},"impl":true},
    {"code":3101802,"id":"10fb95","name":"近鉄新庄","name_kana":"きんてつしんじょう","lat":34.489105,"lng":135.727338,"prefecture":29,"lines":[31018],"attr":"cool","postal_code":"639-2111","address":"葛城市柿本１５７-４","next":[3101803,3100324,1163607,3101804,3100323,3100322],"voronoi":{"lat":34.464426,"lng":135.670882,"delta_lat":[0,4066,14742,17099,615,-5780],"delta_lng":[0,19255,41349,549,-751,-18968]},"impl":true},
    {"code":3100326,"left":1163609,"right":3100325,"id":"8a9a09","name":"坊城","name_kana":"ぼうじょう","lat":34.493577,"lng":135.764876,"prefecture":29,"lines":[31003],"attr":"eco","postal_code":"634-0835","address":"橿原市東坊城町２８１-２","next":[1163610,1163713,3100325,3100327,1163607,3100215,1163609],"voronoi":{"lat":34.47292,"lng":135.765525,"delta_lat":[0,28038,231,507,-22515,-1267,-4891],"delta_lng":[0,12561,-141,-15525,-10005,209,10474]},"impl":true},
    {"code":1163609,"id":"1488fd","name":"玉手","name_kana":"たまで","lat":34.458467,"lng":135.748479,"prefecture":29,"lines":[11636],"attr":"eco","postal_code":"639-2247","address":"御所市玉手字畑田","next":[3100706,1163607,1163611,3101803,3101804,1163610,3100326,1163608],"voronoi":{"lat":34.452711,"lng":135.737043,"delta_lat":[0,-14005,437,4408,29472,4891,-752,-4371],"delta_lng":[0,-5444,8862,10417,12221,-10474,-1830,-4664]},"impl":true},
    {"code":3100325,"id":"d1db4a","name":"浮孔","name_kana":"うきあな","lat":34.498077,"lng":135.754749,"prefecture":29,"lines":[31003],"attr":"eco","postal_code":"635-0041","address":"大和高田市田井１１","next":[1163713,3100326,1163607,1163606,3100324],"voronoi":{"lat":34.509316,"lng":135.75415,"delta_lat":[0,-7620,-22515,17174,12154],"delta_lng":[0,8270,-10005,-8473,8726]},"impl":true},
    {"code":3100318,"left":3100317,"right":1163605,"id":"af702e","name":"上ノ太子","name_kana":"かみのたいし","lat":34.532974,"lng":135.637634,"prefecture":27,"lines":[31003],"attr":"cool","postal_code":"583-0842","address":"羽曳野市飛鳥８１１","next":[3100320,3100321,3102203,3100317,3100319,3100518,3102202,3100517],"voronoi":{"lat":34.54618,"lng":135.635388,"delta_lat":[0,-16632,-25889,-35509,30140,8498,21970,10733],"delta_lng":[0,-13592,8767,27484,7312,131,-2770,-7376]},"impl":true},
    {"code":3100317,"left":3200717,"right":1162611,"id":"220670","name":"駒ヶ谷","name_kana":"こまがたに","lat":34.545751,"lng":135.621999,"prefecture":27,"lines":[31003],"attr":"cool","postal_code":"583-0841","address":"大阪府羽曳野市駒ケ谷159-1","next":[3102202,3100318,3100316,3100516,3100517,3100315],"voronoi":{"lat":34.556969,"lng":135.620115,"delta_lat":[0,-18559,-8861,16632,7962,3313],"delta_lng":[0,-12092,13774,13592,-3309,-5085]},"impl":true},
    {"code":3200717,"left":1162614,"right":3200719,"id":"0f15ef","name":"初芝","name_kana":"はつしば","lat":34.542322,"lng":135.526491,"prefecture":27,"lines":[32007],"attr":"eco","postal_code":"599-8114","address":"堺市東区日置荘西町９３８-１","next":[3100309,9961819,3200718,3100308,3200716,9961602],"voronoi":{"lat":34.534406,"lng":135.512779,"delta_lat":[0,23186,2697,-1352,-2782,-36335],"delta_lng":[0,13751,5828,3714,4648,-21950]},"impl":true},
    {"code":1162614,"left":9961602,"right":1162613,"id":"f1a9a9","name":"鳳","name_kana":"おおとり","lat":34.531674,"lng":135.458734,"prefecture":27,"lines":[11626,11627],"attr":"eco","postal_code":"593-8324","address":"堺市西区鳳東町１丁","next":[9961602,9961604,1162615,1162702,3200113,1162613,9962929],"voronoi":{"lat":34.540777,"lng":135.454611,"delta_lat":[0,-4847,-4957,-21449,825,13867,17902],"delta_lng":[0,-3289,-1045,25921,1217,457,-20268]},"impl":true},
    {"code":9961602,"left":1162615,"id":"4d2e91","name":"深井","name_kana":"ふかい","lat":34.530398,"lng":135.497461,"prefecture":27,"lines":[99616],"attr":"eco","postal_code":"599-8236","address":"堺市中区深井沢町３２９０","next":[9961603,9961604,3200718,1162614,1162612,3200716,1162611,3200715,1162613,3200717],"voronoi":{"lat":34.534406,"lng":135.512779,"delta_lat":[0,8680,1833,-1046,-10001,-9657,-13867,-2200,11643,29],"delta_lng":[0,-10977,-6772,-3424,-9821,-3912,-457,13891,27468,-5]},"impl":true},
    {"code":1162615,"id":"2f8dc7","name":"富木","name_kana":"とのき","lat":34.522534,"lng":135.451171,"prefecture":27,"lines":[11626],"attr":"eco","postal_code":"592-0013","address":"高石市取石１","next":[1162614,1162616,9961605,3200114,1162702,9961604,3200115,3200402],"voronoi":{"lat":34.527803,"lng":135.445533,"delta_lat":[0,3169,-21449,-8516,-805,19886,1063,5941],"delta_lng":[0,4744,25921,-8153,-1578,-24408,-63,2628]},"impl":true},
    {"code":1162613,"id":"20533a","name":"津久野","name_kana":"つくの","lat":34.542287,"lng":135.468108,"prefecture":27,"lines":[11626],"attr":"eco","postal_code":"593-8322","address":"堺市西区津久野町１丁","next":[9962929,9962928,1162614,9961602,9962931,1162612],"voronoi":{"lat":34.524216,"lng":135.477873,"delta_lat":[0,17902,4916,4706,1638,-19505],"delta_lng":[0,-20268,2138,4751,3137,14154]},"impl":true},
    {"code":3200719,"left":3102202,"right":3200718,"id":"974a61","name":"北野田","name_kana":"きたのだ","lat":34.522949,"lng":135.543177,"prefecture":27,"lines":[32007],"attr":"eco","postal_code":"599-8123","address":"堺市東区北野田５１-３","next":[3200720,3200718,3100311,9961603],"voronoi":{"lat":34.540393,"lng":135.571452,"delta_lat":[0,4083,-25377,-11954],"delta_lng":[0,-6992,-44507,9778]},"impl":true},
    {"code":3102202,"left":3200720,"id":"2aacde","name":"喜志","name_kana":"きし","lat":34.522647,"lng":135.607137,"prefecture":27,"lines":[31022],"attr":"heat","postal_code":"584-0005","address":"富田林市喜志町３-４-３２","next":[3100317,3200721,3102204,3100316,3200720,3100312,3100318,3102203],"voronoi":{"lat":34.522311,"lng":135.5793,"delta_lat":[0,141,6331,9090,2234,-1698,-8861,-25889],"delta_lng":[0,-293,-2284,-912,4832,27379,13774,8767]},"impl":true},
    {"code":3200720,"id":"60c87a","name":"狭山","name_kana":"さやま","lat":34.516725,"lng":135.548137,"prefecture":27,"lines":[32007],"attr":"eco","postal_code":"589-0007","address":"大阪狭山市池尻中１-１-１","next":[3102202,3200719,3200721,3100312,3100311,9961603],"voronoi":{"lat":34.507145,"lng":135.529731,"delta_lat":[0,33248,-696,-1824,-9090,-31427],"delta_lng":[0,41721,1607,2753,912,-41738]},"impl":true},
    {"code":3200718,"id":"b4111c","name":"萩原天神","name_kana":"はぎはらてんじん","lat":34.537125,"lng":135.535094,"prefecture":27,"lines":[32007],"attr":"eco","postal_code":"599-8112","address":"堺市東区日置荘原寺町９４-３","next":[9961602,3100311,3100310,3100309,3200717,3200719,9961603],"voronoi":{"lat":34.544477,"lng":135.56446,"delta_lat":[0,3041,5258,3380,-36335,-29,-692],"delta_lng":[0,-2944,-9186,-11610,-21950,5,1178]},"impl":true},
    {"code":1162611,"left":3200112,"right":9961820,"id":"7efa33","name":"百舌鳥","name_kana":"もず","lat":34.558322,"lng":135.488934,"prefecture":27,"lines":[11626],"attr":"eco","postal_code":"590-0802","address":"堺市堺区百舌鳥夕雲町","next":[9961602,9962926,3200715,3200713,9962925,1162612,3200712,3200714],"voronoi":{"lat":34.561066,"lng":135.493471,"delta_lat":[0,5102,-930,-1600,-1257,-18507,1046,5901],"delta_lng":[0,-10702,-4215,-1250,-693,14994,3424,795]},"impl":true},
    {"code":3200112,"left":1162612,"right":9962928,"id":"574474","name":"諏訪ノ森","name_kana":"すわのもり","lat":34.551764,"lng":135.449129,"prefecture":27,"lines":[32001],"attr":"cool","postal_code":"592-8347","address":"堺市西区浜寺諏訪森町西２丁７８","next":[3200111,3200113,9962507,9962930,9962929,9962928],"voronoi":{"lat":34.547225,"lng":135.445191,"delta_lat":[0,242,27403,2280,-21367,-2865],"delta_lng":[0,-566,-47498,13450,40176,1773]},"impl":true},
    {"code":1162612,"left":9962929,"id":"300667","name":"上野芝","name_kana":"うえのしば","lat":34.549484,"lng":135.478026,"prefecture":27,"lines":[11626],"attr":"eco","postal_code":"593-8301","address":"堺市西区上野芝町３丁","next":[9962927,9961602,9962926,1162611,9962931,1162613],"voronoi":{"lat":34.553377,"lng":135.467631,"delta_lat":[0,2389,5287,1327,-18507,-10001],"delta_lng":[0,1321,5202,2458,14994,-9821]},"impl":true},
    {"code":9962929,"id":"756a8e","name":"船尾(大阪)","original_name":"船尾","name_kana":"ふなお","lat":34.549914,"lng":135.450565,"prefecture":27,"lines":[99629],"attr":"eco","postal_code":"592-8348","address":"堺市西区浜寺諏訪森町中２丁","next":[1162613,3200112,3200113,9962928,1162614],"voronoi":{"lat":34.547034,"lng":135.459742,"delta_lat":[0,5885,-5693,-6449,1341],"delta_lng":[0,-7216,-7335,9420,2993]},"impl":true},
    {"code":9962928,"id":"f2775f","name":"石津(大阪)","original_name":"石津","name_kana":"いしづ","lat":34.555444,"lng":135.455075,"prefecture":27,"lines":[99629],"attr":"eco","postal_code":"592-8334","address":"堺市西区浜寺石津町中４丁１-１４","next":[9962931,1162613,3200111,9962929,3200112],"voronoi":{"lat":34.555783,"lng":135.450753,"delta_lat":[0,2612,-6656,-4706,5885],"delta_lng":[0,5414,8326,-4751,-7216]},"impl":true},
    {"code":9961820,"left":3100316,"right":3200715,"id":"4852a8","name":"なかもず","name_kana":"なかもず","lat":34.55607,"lng":135.50579,"prefecture":27,"lines":[99618],"attr":"heat","postal_code":"591-8023","address":"堺市北区中百舌鳥町２丁２４０-１","next":[3200714,9961819,3200715,3200716],"voronoi":{"lat":34.54614,"lng":135.503908,"delta_lat":[0,18184,526,-6007],"delta_lng":[0,2205,336,7532]},"impl":true},
    {"code":3100316,"left":3200716,"id":"600aec","name":"古市(大阪)","original_name":"古市","name_kana":"ふるいち","lat":34.55416,"lng":135.609092,"prefecture":27,"lines":[31003,31022],"attr":"heat","postal_code":"583-0852","address":"羽曳野市古市１-１-２２","next":[3102202,3100312,3100317,3100315,3100313,3100314],"voronoi":{"lat":34.565705,"lng":135.604816,"delta_lat":[0,-13239,-12358,-1698,18559,5671],"delta_lng":[0,-15406,-8766,27379,12092,-7112]},"impl":true},
    {"code":3200716,"id":"0de6b0","name":"白鷺","name_kana":"しらさぎ","lat":34.550235,"lng":135.513148,"prefecture":27,"lines":[32007],"attr":"eco","postal_code":"591-8022","address":"堺市北区金岡町１１５０-１","next":[9961602,3200715,3200717,9961819,9961820],"voronoi":{"lat":34.54614,"lng":135.503908,"delta_lat":[0,-3054,-8680,23186,1251],"delta_lng":[0,-2107,10977,13751,-12548]},"impl":true},
    {"code":3200715,"id":"23603e","name":"中百舌鳥","name_kana":"なかもず","lat":34.556232,"lng":135.504454,"prefecture":27,"lines":[32007,99616],"attr":"heat","postal_code":"591-8023","address":"堺市北区中百舌鳥町２丁１９６","next":[3200716,9961820,1162611,9961602,3200714],"voronoi":{"lat":34.550821,"lng":135.495825,"delta_lat":[0,-5901,-1833,3054,18184],"delta_lng":[0,-795,6772,2107,2205]},"impl":true},
    {"code":1163605,"left":3100324,"right":3100320,"id":"474283","name":"JR五位堂","name_kana":"じぇいあーるごいどう","lat":34.527667,"lng":135.718435,"prefecture":29,"lines":[11636],"attr":"eco","postal_code":"639-0226","address":"香芝市五位堂６丁目５５","next":[3100323,3100520,3100320,3100321,3100322,3100522,3100521],"voronoi":{"lat":34.53045,"lng":135.70728,"delta_lat":[0,-1146,-496,-9171,-1785,1044,12886],"delta_lng":[0,-1099,-91,8233,3860,6707,1361]},"impl":true},
    {"code":3100324,"left":3100321,"right":3100523,"id":"dd91cb","name":"高田市","name_kana":"たかだし","lat":34.507145,"lng":135.742119,"prefecture":29,"lines":[31003],"attr":"heat","postal_code":"635-0085","address":"大和高田市片塩町１７-４","next":[3101802,3100523,3100323,1163606,3100325,1163607],"voronoi":{"lat":34.50851,"lng":135.752669,"delta_lat":[0,4994,63,-12619,-615,-3977],"delta_lng":[0,-15031,-5482,-872,751,11908]},"impl":true},
    {"code":3100321,"left":3100323,"right":3100522,"id":"ca429b","name":"当麻寺","name_kana":"たいまでら","lat":34.516412,"lng":135.705897,"prefecture":29,"lines":[31003],"attr":"heat","postal_code":"639-0276","address":"葛城市當麻５４-２","next":[3102203,3100318,1163605,3100322,3100320],"voronoi":{"lat":34.49829,"lng":135.66536,"delta_lat":[0,-30140,-2938,54424,9171],"delta_lng":[0,-7312,341,55935,-8233]},"impl":true},
    {"code":3100323,"left":3100322,"id":"380e2f","name":"尺土","name_kana":"しゃくど","lat":34.508577,"lng":135.721404,"prefecture":29,"lines":[31003,31018],"attr":"heat","postal_code":"639-2162","address":"葛城市尺土２２８","next":[1163605,3100322,3100324,3100522,3100523,3101802],"voronoi":{"lat":34.495167,"lng":135.712315,"delta_lat":[0,22684,1044,-4534,-795,-12619],"delta_lng":[0,5868,6707,6839,426,-872]},"impl":true},
    {"code":3100322,"id":"921462","name":"磐城","name_kana":"いわき","lat":34.511302,"lng":135.710869,"prefecture":29,"lines":[31003],"attr":"heat","postal_code":"639-2164","address":"葛城市長尾２２０-２","next":[3100323,1163605,3102203,3100321,3101804,3101802],"voronoi":{"lat":34.517852,"lng":135.718183,"delta_lat":[0,1785,-54424,-6391,5604,30742],"delta_lng":[0,-3860,-55935,412,12081,41434]},"impl":true},
    {"code":3100522,"id":"96261b","name":"築山","name_kana":"つきやま","lat":34.526125,"lng":135.733036,"prefecture":29,"lines":[31005],"attr":"eco","postal_code":"635-0071","address":"大和高田市築山４６７-３","next":[3100524,3100323,1163605,3100521,3100523,3101704],"voronoi":{"lat":34.550372,"lng":135.736887,"delta_lat":[0,-18591,-12886,-4534,27811,2234],"delta_lng":[0,-10636,-1361,6839,19191,434]},"impl":true},
    {"code":3100523,"left":1163713,"right":3100524,"id":"f5ac56","name":"大和高田","name_kana":"やまとたかだ","lat":34.519757,"lng":135.742264,"prefecture":29,"lines":[31005],"attr":"eco","postal_code":"635-0097","address":"大和高田市北本町１４-４","next":[3100324,1163606,3100524,3100522,3100323],"voronoi":{"lat":34.513503,"lng":135.737638,"delta_lat":[0,10161,18508,-27811,-795],"delta_lng":[0,14095,-812,-19191,426]},"impl":true},
    {"code":1163713,"left":1163606,"id":"88be0f","name":"金橋","name_kana":"かなはし","lat":34.509639,"lng":135.765401,"prefecture":29,"lines":[11637],"attr":"cool","postal_code":"634-0837","address":"橿原市曲川町","next":[3100325,3100326,3100525,3100524,1163606,3100215],"voronoi":{"lat":34.516315,"lng":135.766817,"delta_lat":[0,-4192,-2806,-7620,-507,6773],"delta_lng":[0,-11801,-865,8270,15525,89]},"impl":true},
    {"code":1163606,"id":"bb463a","name":"高田(奈良)","original_name":"高田","name_kana":"たかだ","lat":34.515916,"lng":135.745033,"prefecture":29,"lines":[11636,11637],"attr":"eco","postal_code":"635-0081","address":"大和高田市高砂町１丁目","next":[3100524,3100523,3100325,3100324,1163713],"voronoi":{"lat":34.509316,"lng":135.75415,"delta_lat":[0,-807,4994,10161,-11542],"delta_lng":[0,-1482,-15031,14095,3283]},"impl":true},
    {"code":3100524,"id":"c4aecb","name":"松塚","name_kana":"まつづか","lat":34.520601,"lng":135.761507,"prefecture":29,"lines":[31005],"attr":"eco","postal_code":"635-0001","address":"大和高田市松塚２４-２","next":[1163606,3100522,3100523,3101704,3101703,3101701,1163713,3100525],"voronoi":{"lat":34.544804,"lng":135.766531,"delta_lat":[0,1098,-1496,-2234,-18508,-11542,4192,26264],"delta_lng":[0,-7935,-7241,-434,812,3283,11801,2362]},"impl":true},
    {"code":3100320,"left":3100518,"right":3100520,"id":"64a6cd","name":"二上神社口","name_kana":"にじょうじんじゃぐち","lat":34.532104,"lng":135.69414,"prefecture":29,"lines":[31003],"attr":"cool","postal_code":"639-0271","address":"葛城市加守５４４","next":[3100318,1163605,3100321,3100519,3100319,3100520],"voronoi":{"lat":34.528807,"lng":135.706091,"delta_lat":[0,-30517,8498,33890,300,-11675],"delta_lng":[0,-40731,131,28910,718,11063]},"impl":true},
    {"code":3100518,"left":3100519,"right":3100517,"id":"d12110","name":"関屋(奈良)","original_name":"関屋","name_kana":"せきや","lat":34.553688,"lng":135.667778,"prefecture":29,"lines":[31005],"attr":"eco","postal_code":"639-0255","address":"香芝市関屋１５７８-３","next":[1163603,3100318,3100519,3100517,3100319,1160710],"voronoi":{"lat":34.564985,"lng":135.683199,"delta_lat":[0,-19151,-17076,10733,22370,6058],"delta_lng":[0,-6760,-13718,-7376,1658,25525]},"impl":true},
    {"code":3100519,"left":3100319,"id":"c7c0e7","name":"二上","name_kana":"にじょう","lat":34.546511,"lng":135.68811,"prefecture":29,"lines":[31005],"attr":"eco","postal_code":"639-0252","address":"香芝市穴虫２０２３","next":[3100520,1163603,1163604,3100518,3100320,3100319],"voronoi":{"lat":34.540979,"lng":135.695118,"delta_lat":[0,8684,1487,13836,-19151,-5156],"delta_lng":[0,2745,284,-14949,-6760,17962]},"impl":true},
    {"code":3100319,"id":"d09ef8","name":"二上山","name_kana":"にじょうざん","lat":34.53907,"lng":135.685974,"prefecture":29,"lines":[31003],"attr":"cool","postal_code":"639-0245","address":"香芝市畑４-１０６-２","next":[3100318,3100519,3100320,3100518],"voronoi":{"lat":34.528758,"lng":135.66272,"delta_lat":[0,-21970,33890,5156],"delta_lng":[0,2770,28910,-17962]},"impl":true},
    {"code":3100517,"id":"9f94c5","name":"大阪教育大前","name_kana":"おおさかきょういくだいまえ","lat":34.555366,"lng":135.645139,"prefecture":27,"lines":[31005],"attr":"cool","postal_code":"582-0026","address":"柏原市旭ケ丘４-４５５５-１","next":[3100516,3100317,3100518,1160710,3100318,1160711],"voronoi":{"lat":34.561861,"lng":135.657002,"delta_lat":[0,-22370,6689,7962,10342,2757],"delta_lng":[0,-1658,-19956,-3309,12456,6838]},"impl":true},
    {"code":3100520,"left":3100521,"right":1163604,"id":"7d5cde","name":"近鉄下田","name_kana":"きんてつしもだ","lat":34.541478,"lng":135.704033,"prefecture":29,"lines":[31005],"attr":"eco","postal_code":"639-0231","address":"香芝市下田西１-７-１４","next":[1163605,3100519,1163604,3100521,3100320],"voronoi":{"lat":34.53045,"lng":135.70728,"delta_lat":[0,6227,12986,-8684,-11675],"delta_lng":[0,3007,-12424,-2745,11063]},"impl":true},
    {"code":3100521,"id":"a7fa8b","name":"五位堂","name_kana":"ごいどう","lat":34.534763,"lng":135.717937,"prefecture":29,"lines":[31005],"attr":"eco","postal_code":"639-0225","address":"香芝市瓦口２６８","next":[1163604,1163603,3100522,3100520,3101705,3101704,1163605],"voronoi":{"lat":34.53045,"lng":135.70728,"delta_lat":[0,6227,19751,1118,-2853,-4320,-18591],"delta_lng":[0,3007,13591,1875,6526,4608,-10636]},"impl":true},
    {"code":1163604,"id":"52ebb8","name":"香芝","name_kana":"かしば","lat":34.543137,"lng":135.705767,"prefecture":29,"lines":[11636],"attr":"eco","postal_code":"639-0231","address":"香芝市下田西１丁目","next":[3100521,3100520,3100519,1163603],"voronoi":{"lat":34.55115,"lng":135.698147,"delta_lat":[0,-1487,-12986,19751],"delta_lng":[0,-284,12424,13591]},"impl":true},
    {"code":1151210,"left":1151206,"right":1151315,"id":"22693a","name":"池の浦シーサイド","name_kana":"いけのうらしーさいど","closed":true,"lat":34.491358,"lng":136.813691,"prefecture":24,"lines":[11512],"attr":"unknown","postal_code":"519-0601","address":"伊勢市二見町松下","open_date":"1989-07-16","closed_date":"2020-03-14","next":[3101004,1151209,3001006,1151211],"voronoi":{"lat":34.61729,"lng":136.847503,"delta_lat":[0,-137765,10575,126699],"delta_lng":[0,-45834,26764,21083]},"impl":true},
    {"code":1151206,"left":1151014,"right":3101505,"id":"e21f5b","name":"伊勢市","name_kana":"いせし","lat":34.49126,"lng":136.709661,"prefecture":24,"lines":[11512,31009],"attr":"eco","postal_code":"516-0073","address":"伊勢市吹上１丁目","next":[1151207,1151205,3100914,3100912],"voronoi":{"lat":34.505705,"lng":136.722867,"delta_lat":[0,-43648,26238,33807],"delta_lng":[0,-30205,7744,19945]},"impl":true},
    {"code":1151014,"left":3100715,"right":3100702,"id":"f21162","name":"川添","name_kana":"かわぞえ","lat":34.419739,"lng":136.473218,"prefecture":24,"lines":[11510],"attr":"cool","postal_code":"519-2427","address":"多気郡大台町大字上楠","next":[1151015,1151016,1151013,3101516,1151017,1151306,1151311,1151302],"voronoi":{"lat":34.520763,"lng":136.404859,"delta_lat":[0,-636,-3518,-135852,-37409,-86941,889,259358],"delta_lng":[0,-2340,-3859,52860,36427,123686,285,-178951]},"impl":true},
    {"code":3100715,"left":3100713,"right":3100716,"id":"403f51","name":"吉野神宮","name_kana":"よしのじんぐう","lat":34.390191,"lng":135.848211,"prefecture":29,"lines":[31007],"attr":"eco","postal_code":"639-3114","address":"吉野郡吉野町丹治１３７-２","next":[3100714,3100531,3100716,3100713,3100532],"voronoi":{"lat":34.37751,"lng":135.835647,"delta_lat":[0,10268,45765,-212,-10504],"delta_lng":[0,-57,100412,500,13773]},"impl":true},
    {"code":3100713,"left":3100712,"right":3100714,"id":"ad0e23","name":"六田","name_kana":"むだ","lat":34.390051,"lng":135.822943,"prefecture":29,"lines":[31007],"attr":"eco","postal_code":"639-3124","address":"吉野郡大淀町北六田４２-１","next":[3100716,3100704,3100715,3100712,3100714],"voronoi":{"lat":34.427706,"lng":135.825639,"delta_lat":[0,-8879,-74658,33340,10268],"delta_lng":[0,-18772,14367,14412,-57]},"impl":true},
    {"code":3100712,"left":3100711,"id":"ffec0f","name":"越部","name_kana":"こしべ","lat":34.38614,"lng":135.80262,"prefecture":29,"lines":[31007],"attr":"cool","postal_code":"638-0803","address":"吉野郡大淀町越部４","next":[3100705,3100704,3100716,3100713,3100711],"voronoi":{"lat":34.414496,"lng":135.790747,"delta_lat":[0,3178,1153,-74658,-65590],"delta_lng":[0,6762,9358,14367,-11981]},"impl":true},
    {"code":3100711,"id":"5237b7","name":"下市口","name_kana":"しもいちぐち","lat":34.383998,"lng":135.786888,"prefecture":29,"lines":[31007],"attr":"cool","postal_code":"638-0821","address":"吉野郡大淀町下渕８７５","next":[1163613,3100716,3100706,3100710,3100705,3100712],"voronoi":{"lat":34.414496,"lng":135.790747,"delta_lat":[0,-1432,-262,-99897,-121301,86975],"delta_lng":[0,-7949,-461,-21299,38877,9338]},"impl":true},
    {"code":3100714,"id":"78115c","name":"大和上市","name_kana":"やまとかみいち","lat":34.39572,"lng":135.845691,"prefecture":29,"lines":[31007],"attr":"eco","postal_code":"639-3111","address":"吉野郡吉野町上市２０４４","next":[3100703,3100530,3100715,3100704,3100531,1163710,3100713],"voronoi":{"lat":34.427706,"lng":135.825639,"delta_lat":[0,18872,7776,-61,-8529,-12222,-45765],"delta_lng":[0,19954,11322,8556,44148,26382,-100412]},"impl":true},
    {"code":3100716,"left":1151016,"right":1151015,"id":"3a0b51","name":"吉野(奈良)","original_name":"吉野","name_kana":"よしの","lat":34.376848,"lng":135.853486,"prefecture":29,"lines":[31007],"attr":"eco","postal_code":"639-3115","address":"吉野郡吉野町吉野山６２６１","next":[1163614,3100532,3100713,1163613,3100715,1151035,1151025,3100711,3100712,3200742,1151034,1151023],"voronoi":{"lat":34.422826,"lng":135.950274,"delta_lat":[0,-45317,-33340,-65590,-86975,-561,-64289,-59037,19107,12184,119500,114011],"delta_lng":[0,-114628,-14412,-11981,-9338,76,11690,30996,41213,24202,107383,71283]},"impl":true},
    {"code":1151016,"left":1151017,"id":"5195fd","name":"滝原","name_kana":"たきはら","lat":34.360105,"lng":136.411976,"prefecture":24,"lines":[11510],"attr":"cool","postal_code":"519-2413","address":"多気郡大台町大ケ所","next":[1151014,1151019,1151015,1151017],"voronoi":{"lat":34.34792,"lng":136.340849,"delta_lat":[0,21272,11565,-37409],"delta_lng":[0,-33085,143756,36427]},"impl":true},
    {"code":1151017,"id":"36cbea","name":"阿曽","name_kana":"あそ","lat":34.331342,"lng":136.411082,"prefecture":24,"lines":[11510],"attr":"cool","postal_code":"519-2704","address":"度会郡大紀町阿曽","next":[3101516,1151018,1151019,1151014,1151016],"voronoi":{"lat":34.34792,"lng":136.340849,"delta_lat":[0,-2758,-131982,43227,86941],"delta_lng":[0,2832,265536,2416,-123686]},"impl":true},
    {"code":1151015,"id":"b8b724","name":"三瀬谷","name_kana":"みせだに","lat":34.394823,"lng":136.409183,"prefecture":24,"lines":[11510],"attr":"cool","postal_code":"519-2404","address":"多気郡大台町佐原","next":[1151315,1151311,1151014,1151314,1151016,1151019],"voronoi":{"lat":34.381824,"lng":136.278231,"delta_lat":[0,93595,35510,5681,-135852,-11565],"delta_lng":[0,73627,35172,11631,52860,-143756]},"impl":true},
    {"code":3100702,"left":3100217,"right":1151012,"id":"360b10","name":"岡寺","name_kana":"おかでら","lat":34.473963,"lng":135.796088,"prefecture":29,"lines":[31007],"attr":"heat","postal_code":"634-0064","address":"橿原市見瀬町５９０","next":[1163610,1163711,3100217,3100327,3100703],"voronoi":{"lat":34.483588,"lng":135.821668,"delta_lat":[0,-6122,-10980,-1352,11856],"delta_lng":[0,-35105,-9121,884,51699]},"impl":true},
    {"code":3100217,"left":3100704,"right":3100327,"id":"31c525","name":"橿原神宮前","name_kana":"かしはらじんぐうまえ","lat":34.483987,"lng":135.79434,"prefecture":29,"lines":[31002,31003,31007],"attr":"heat","postal_code":"634-0063","address":"橿原市久米町６１８","next":[3100327,1163711,3100702,3100216],"voronoi":{"lat":34.483588,"lng":135.821668,"delta_lat":[0,-6122,10848,284],"delta_lng":[0,-35105,1840,28912]},"impl":true},
    {"code":3100704,"left":3100705,"id":"78225b","name":"壺阪山","name_kana":"つぼさかやま","lat":34.449508,"lng":135.794819,"prefecture":29,"lines":[31007],"attr":"heat","postal_code":"635-0154","address":"高市郡高取町観覚寺８８６","next":[3100713,3100712,1163610,3100705,3100714,3100703],"voronoi":{"lat":34.460819,"lng":135.779871,"delta_lat":[0,-1293,-41851,1153,8879,18872],"delta_lng":[0,-118,17756,9358,18772,19954]},"impl":true},
    {"code":3100705,"id":"c0a83a","name":"市尾","name_kana":"いちお","lat":34.441731,"lng":135.776488,"prefecture":29,"lines":[31007],"attr":"heat","postal_code":"635-0123","address":"高市郡高取町市尾７８４","next":[3100712,3100706,3100704,1163610,3100711],"voronoi":{"lat":34.417675,"lng":135.797509,"delta_lat":[0,41851,-18178,-28283,1432],"delta_lng":[0,-17756,-14506,17551,7949]},"impl":true},
    {"code":3100327,"id":"a6a05d","name":"橿原神宮西口","name_kana":"かしはらじんぐうにしぐち","lat":34.486187,"lng":135.781372,"prefecture":29,"lines":[31003],"attr":"eco","postal_code":"634-0821","address":"橿原市西池尻町３７６-２","next":[1163610,3100215,3100217,3100326,3100702,3100216],"voronoi":{"lat":34.498993,"lng":135.782957,"delta_lat":[0,1966,-28038,-6434,10980,10848],"delta_lng":[0,-4870,-12561,11917,9121,1840]},"impl":true},
    {"code":1151012,"left":1151013,"right":1151203,"id":"d8ce61","name":"佐奈","name_kana":"さな","lat":34.478469,"lng":136.538986,"prefecture":24,"lines":[11510],"attr":"cool","postal_code":"519-2178","address":"多気郡多気町大字平谷","next":[1151202,1151011,1151013,1151203],"voronoi":{"lat":34.510589,"lng":136.468252,"delta_lat":[0,-27374,-75474,-8790],"delta_lng":[0,101340,24943,932]},"impl":true},
    {"code":1151013,"left":3100703,"id":"b27a16","name":"栃原","name_kana":"とちはら","lat":34.444625,"lng":136.509286,"prefecture":24,"lines":[11510],"attr":"cool","postal_code":"519-2424","address":"多気郡大台町大字栃原","next":[3101516,1151014,1151012,3101511,1151203,1151302,1151011],"voronoi":{"lat":34.518166,"lng":136.456108,"delta_lat":[0,-1511,-259358,41497,982,99175,111638],"delta_lng":[0,-23141,178951,18218,249,-34919,-127215]},"impl":true},
    {"code":3100703,"id":"920d04","name":"飛鳥","name_kana":"あすか","lat":34.464928,"lng":135.79816,"prefecture":29,"lines":[31007],"attr":"heat","postal_code":"634-0138","address":"高市郡明日香村越５６０","next":[3100714,1163610,1163711,1163710,3100702,3100704],"voronoi":{"lat":34.454355,"lng":135.856915,"delta_lat":[0,16483,6153,-11856,-4316,-14240],"delta_lng":[0,-16431,-10459,-51699,1545,65722]},"impl":true},
    {"code":1151203,"id":"643cdf","name":"田丸","name_kana":"たまる","lat":34.488543,"lng":136.63402,"prefecture":24,"lines":[11512],"attr":"cool","postal_code":"519-0414","address":"度会郡玉城町佐田","next":[1151204,1151202,3101002,1151205,3100908,1151012,3100909,1151013,3101511],"voronoi":{"lat":34.299775,"lng":136.630385,"delta_lat":[0,99175,8790,103699,1352,-5066,-51675,-34845,-74249],"delta_lng":[0,-34919,-932,25483,3579,25146,19749,4205,-9641]},"impl":true},
    {"code":3101505,"left":3101512,"right":3101504,"id":"b000df","name":"加茂(三重)","original_name":"加茂","name_kana":"かも","lat":34.444164,"lng":136.846562,"prefecture":24,"lines":[31015],"attr":"cool","postal_code":"517-0041","address":"鳥羽市岩倉町大野４７０-３","next":[3101503,3101502,3101515,9952016,3101504,3101506],"voronoi":{"lat":34.445432,"lng":136.830901,"delta_lat":[0,17044,258,6547,-132500,25045],"delta_lng":[0,43667,1452,227295,69826,-193238]},"impl":true},
    {"code":3101512,"left":3101509,"right":3101507,"id":"106b20","name":"穴川(三重)","original_name":"穴川","name_kana":"あながわ","lat":34.358742,"lng":136.815975,"prefecture":24,"lines":[31015],"attr":"eco","postal_code":"517-0213","address":"志摩市磯部町穴川１３８６-３","next":[3101510,3101513,3101506,3101509,3101514,3101511],"voronoi":{"lat":34.378189,"lng":136.855088,"delta_lat":[0,1029,-7928,-23544,-3599,25582],"delta_lng":[0,23529,24267,-70859,-42489,27290]},"impl":true},
    {"code":3101509,"left":3101510,"right":3101508,"id":"7ea849","name":"沓掛","name_kana":"くつかけ","lat":34.394149,"lng":136.814427,"prefecture":24,"lines":[31015],"attr":"heat","postal_code":"517-0202","address":"志摩市磯部町沓掛向江７２","next":[3101510,3101512,3101508,3101507,3101506],"voronoi":{"lat":34.399673,"lng":136.847933,"delta_lat":[0,7001,-14113,-14371,1029],"delta_lng":[0,-14644,-49053,70851,23529]},"impl":true},
    {"code":3101510,"left":3101511,"id":"00d0b5","name":"上之郷","name_kana":"かみのごう","lat":34.379334,"lng":136.811422,"prefecture":24,"lines":[31015],"attr":"eco","postal_code":"517-0208","address":"志摩市磯部町上之郷下高崎２４","next":[3101512,3101509,3101511,3101508],"voronoi":{"lat":34.392376,"lng":136.777532,"delta_lat":[0,-22647,8460,14371],"delta_lng":[0,39293,38262,-70851]},"impl":true},
    {"code":3101511,"id":"3a5834","name":"志摩磯部","name_kana":"しまいそべ","lat":34.36959,"lng":136.805806,"prefecture":24,"lines":[31015],"attr":"eco","postal_code":"517-0214","address":"志摩市磯部町迫間穂落前１８１９","next":[3101510,3101508,3101513,1151013,3101002,3101512,3101516,1151203],"voronoi":{"lat":34.398146,"lng":136.732711,"delta_lat":[0,-5769,-22647,-25582,-28067,-17287,982,47181],"delta_lng":[0,44821,39293,-27290,-81087,-78312,249,32670]},"impl":true},
    {"code":3101508,"id":"5b49e4","name":"五知","name_kana":"ごち","lat":34.407259,"lng":136.810655,"prefecture":24,"lines":[31015],"attr":"heat","postal_code":"517-0201","address":"志摩市磯部町五知東川４６-９","next":[3101004,3101002,3101511,3101509,3101510,3101507,3101003],"voronoi":{"lat":34.445708,"lng":136.791552,"delta_lat":[0,-39035,-14113,-184,5769,13571,34277],"delta_lng":[0,41738,-49053,-6704,-44821,11260,44977]},"impl":true},
    {"code":3101507,"left":3101514,"right":3101506,"id":"e099a0","name":"白木","name_kana":"しらき","lat":34.429218,"lng":136.831192,"prefecture":24,"lines":[31015],"attr":"heat","postal_code":"517-0043","address":"鳥羽市白木町細田６２-２","next":[3101506,3101004,3101504,3101509,3101508],"voronoi":{"lat":34.445708,"lng":136.791552,"delta_lat":[0,5717,-5940,-45813,7001],"delta_lng":[0,22531,15898,17953,-14644]},"impl":true},
    {"code":3101514,"left":3101513,"id":"a0a58c","name":"鵜方","name_kana":"うがた","lat":34.329332,"lng":136.825747,"prefecture":24,"lines":[31015],"attr":"eco","postal_code":"517-0501","address":"志摩市阿児町鵜方１６７０-２","next":[3101506,3101512,3101515,3101513,3101516],"voronoi":{"lat":34.321202,"lng":136.815203,"delta_lat":[0,26544,23544,-7352,-43970],"delta_lng":[0,16822,70859,52799,-136507]},"impl":true},
    {"code":3101513,"id":"fc162b","name":"志摩横山","name_kana":"しまよこやま","lat":34.334208,"lng":136.818053,"prefecture":24,"lines":[31015],"attr":"eco","postal_code":"517-0501","address":"志摩市阿児町鵜方１２４３-４","next":[3101512,3101511,3101514,3101516],"voronoi":{"lat":34.31608,"lng":136.708449,"delta_lat":[0,28067,3599,-26544],"delta_lng":[0,81087,42489,-16822]},"impl":true},
    {"code":3101506,"id":"8560a3","name":"松尾(三重)","original_name":"松尾","name_kana":"まつお","lat":34.432726,"lng":136.840144,"prefecture":24,"lines":[31015],"attr":"heat","postal_code":"517-0042","address":"鳥羽市松尾町南５９９-４","next":[3101512,3101507,3101514,3101505,3101504,3101515,3101509],"voronoi":{"lat":34.371291,"lng":136.902884,"delta_lat":[0,-7352,-2113,83606,54,-45813,-20454],"delta_lng":[0,52799,24220,-149002,-920,17953,30683]},"impl":true},
    {"code":3101504,"left":3101004,"right":3101502,"id":"3e0795","name":"船津(近畿日本鉄道)","original_name":"船津","name_kana":"ふなつ","lat":34.456974,"lng":136.841562,"prefecture":24,"lines":[31015],"attr":"cool","postal_code":"517-0045","address":"三重県鳥羽市船津町浜1025-6","next":[3101507,3101503,3101004,3101505,3101506],"voronoi":{"lat":34.462476,"lng":136.874567,"delta_lat":[0,1513,-12563,-5940,-54],"delta_lng":[0,-48412,-12073,15898,920]},"impl":true},
    {"code":3101004,"left":3101003,"right":3100914,"id":"cd3509","name":"池の浦","name_kana":"いけのうら","lat":34.479104,"lng":136.818533,"prefecture":24,"lines":[31010],"attr":"eco","postal_code":"517-0014","address":"鳥羽市堅神町字宮の前７８３","next":[3101003,1151210,3101508,3101507,1151211,3101504,1151209,3101503],"voronoi":{"lat":34.4901,"lng":136.828434,"delta_lat":[0,-10575,-15087,-18444,-285,5717,12563,14805],"delta_lng":[0,-26764,-13297,576,2603,22531,12073,5733]},"impl":true},
    {"code":3101003,"left":3101002,"id":"f4f041","name":"朝熊","name_kana":"あさま","lat":34.477195,"lng":136.757357,"prefecture":24,"lines":[31010],"attr":"eco","postal_code":"516-0021","address":"伊勢市朝熊町小坊山１４８６","next":[3101004,1151207,3101002,1151209,1151208,3101508],"voronoi":{"lat":34.411717,"lng":136.743972,"delta_lat":[0,68856,15916,-16467,-15584,-18444],"delta_lng":[0,-1745,16939,22117,7090,576]},"impl":true},
    {"code":3101002,"id":"eb8eaf","name":"五十鈴川","name_kana":"いすずがわ","lat":34.476433,"lng":136.727287,"prefecture":24,"lines":[31010],"attr":"heat","postal_code":"516-0028","address":"伊勢市中村町字桶子３２５","next":[3100914,3101508,1151203,3101003,1151205,3101511,1151207],"voronoi":{"lat":34.411717,"lng":136.743972,"delta_lat":[0,-13571,-51189,74249,21293,47547,-9473],"delta_lng":[0,-11260,-69656,9641,12487,42315,14728]},"impl":true},
    {"code":3100914,"id":"cfb2c2","name":"宇治山田","name_kana":"うじやまだ","lat":34.488256,"lng":136.714002,"prefecture":24,"lines":[31009,31010],"attr":"heat","postal_code":"516-0037","address":"伊勢市岩渕２-１-４３","next":[3101002,1151205,1151207,1151206],"voronoi":{"lat":34.462057,"lng":136.692662,"delta_lat":[0,-19559,47547,15660],"delta_lng":[0,-7479,42315,-4631]},"impl":true},
    {"code":3101502,"left":3101503,"right":1151211,"id":"72829c","name":"中之郷","name_kana":"なかのごう","lat":34.479577,"lng":136.845542,"prefecture":24,"lines":[31015],"attr":"cool","postal_code":"517-0011","address":"鳥羽市鳥羽３-１４８４-１０７","next":[9952016,3101505,3101503,3000315,1151211],"voronoi":{"lat":34.56231,"lng":137.062183,"delta_lat":[0,-93030,-6547,15992,88222],"delta_lng":[0,41131,-227295,-42750,222447]},"impl":true},
    {"code":3101503,"id":"94570c","name":"志摩赤崎","name_kana":"しまあかさき","lat":34.470028,"lng":136.84197,"prefecture":24,"lines":[31015],"attr":"cool","postal_code":"517-0011","address":"鳥羽市鳥羽５-４-２７","next":[3101505,3101502,3101504,1151211,3101004],"voronoi":{"lat":34.463989,"lng":136.826156,"delta_lat":[0,-1513,258,15992,68],"delta_lng":[0,48412,1452,-42750,-1381]},"impl":true},
    {"code":1151211,"id":"5d4665","name":"鳥羽","name_kana":"とば","lat":34.486516,"lng":136.84279,"prefecture":24,"lines":[11512,31010,31015],"attr":"cool","postal_code":"517-0011","address":"鳥羽市鳥羽１","next":[3101004,3000315,3101502,3101503,3001006,1151210],"voronoi":{"lat":34.4901,"lng":136.828434,"delta_lat":[0,-11306,-68,88222,28570,21281],"delta_lng":[0,3455,1381,222447,-38498,-167702]},"impl":true},
    {"code":1151315,"left":3100525,"right":1151010,"id":"d6b71a","name":"伊勢奥津","name_kana":"いせおきつ","lat":34.512155,"lng":136.260031,"prefecture":24,"lines":[11513],"attr":"heat","postal_code":"515-3531","address":"津市美杉町奥津","next":[1151015,3100533,3100535,3100536,1151314,3100532,1151023,1151019,1151313,3100534],"voronoi":{"lat":34.427671,"lng":136.113073,"delta_lat":[0,-68417,-19599,-5777,47945,93595,60334,7090,-5035,-74160],"delta_lng":[0,-15080,-1139,68339,113037,73627,-111870,-78114,-3355,-34787]},"impl":true},
    {"code":3100525,"left":3100527,"right":1163707,"id":"4bf4d5","name":"真菅","name_kana":"ますが","lat":34.519585,"lng":135.772806,"prefecture":29,"lines":[31005],"attr":"eco","postal_code":"634-0831","address":"橿原市曽我町１０７０","next":[3101701,3100215,3100212,3100214,1163713,3100213,3100524],"voronoi":{"lat":34.540763,"lng":135.772908,"delta_lat":[0,-7847,-11277,-8383,-5293,8352,26264],"delta_lng":[0,8057,2969,-2862,-3038,-11218,2362]},"impl":true},
    {"code":3100527,"left":3100215,"right":1163710,"id":"847807","name":"耳成","name_kana":"みみなし","lat":34.512409,"lng":135.815071,"prefecture":29,"lines":[31005],"attr":"heat","postal_code":"634-0014","address":"橿原市石原田町２０８-２","next":[1163708,3100528,3100213,3100216,3100214,1163711,1163712,3100212],"voronoi":{"lat":34.5337,"lng":135.821779,"delta_lat":[0,-10336,-33249,10449,15795,226,17486,2587],"delta_lng":[0,311,-5657,-9864,-3172,8,11056,3575]},"impl":true},
    {"code":3100215,"left":3100216,"right":3100214,"id":"c171ee","name":"八木西口","name_kana":"やぎにしぐち","lat":34.509309,"lng":135.790707,"prefecture":29,"lines":[31002],"attr":"heat","postal_code":"634-0078","address":"橿原市八木町１-８-３２","next":[3100327,3100525,3100216,3100214,3100326,1163712,1163713],"voronoi":{"lat":34.501189,"lng":135.777946,"delta_lat":[0,-231,-1966,1462,10404,2397,-5293],"delta_lng":[0,141,4870,6824,3320,-12028,-3038]},"impl":true},
    {"code":3100216,"left":1163712,"id":"8e7da3","name":"畝傍御陵前","name_kana":"うねびごりょうまえ","lat":34.492758,"lng":135.794254,"prefecture":29,"lines":[31002],"attr":"heat","postal_code":"634-0061","address":"橿原市大久保町４５５","next":[3100527,3100215,3100217,1163711,1163712,3100327],"voronoi":{"lat":34.498993,"lng":135.782957,"delta_lat":[0,1462,109,-10449,-1516,-284],"delta_lng":[0,6824,16789,9864,882,-28912]},"impl":true},
    {"code":1163712,"id":"21c9bf","name":"畝傍","name_kana":"うねび","lat":34.508209,"lng":135.794154,"prefecture":29,"lines":[11637],"attr":"cool","postal_code":"634-0078","address":"橿原市八木町２","next":[3100214,3100527,3100215,3100216],"voronoi":{"lat":34.500455,"lng":135.789781,"delta_lat":[0,10404,5500,-15795],"delta_lng":[0,3320,10297,3172]},"impl":true},
    {"code":3100214,"id":"7e0813","name":"大和八木","name_kana":"やまとやぎ","lat":34.513208,"lng":135.791484,"prefecture":29,"lines":[31002,31005],"attr":"heat","postal_code":"634-0804","address":"橿原市内膳町５-１-２","next":[3100527,1163712,3100213,3100525,3100215],"voronoi":{"lat":34.516359,"lng":135.803398,"delta_lat":[0,226,5054,-8383,-2397],"delta_lng":[0,8,-19471,-2862,12028]},"impl":true},
    {"code":1163710,"left":3100528,"right":3100530,"id":"b17e7a","name":"桜井(奈良)","original_name":"桜井","name_kana":"さくらい","lat":34.513143,"lng":135.846527,"prefecture":29,"lines":[11637,31005],"attr":"heat","postal_code":"633-0091","address":"桜井市桜井","next":[3100530,3100703,1163709,1163711,3100528,3100714],"voronoi":{"lat":34.454355,"lng":135.856915,"delta_lat":[0,16483,16695,33901,-2616,-64524],"delta_lng":[0,-16431,-1900,-590,19192,8285]},"impl":true},
    {"code":3100528,"left":1163711,"id":"4a58b1","name":"大福","name_kana":"だいふく","lat":34.512851,"lng":135.829756,"prefecture":29,"lines":[31005],"attr":"heat","postal_code":"633-0067","address":"桜井市大福北方２４１-２","next":[3100527,1163711,1163709,1163710,1163708],"voronoi":{"lat":34.5337,"lng":135.821779,"delta_lat":[0,-10336,-35831,33901,9046],"delta_lng":[0,311,16494,-590,-6919]},"impl":true},
    {"code":1163711,"id":"f31884","name":"香久山","name_kana":"かぐやま","lat":34.510704,"lng":135.825092,"prefecture":29,"lines":[11637],"attr":"heat","postal_code":"634-0011","address":"橿原市出垣内町","next":[3100528,3100703,1163710,3100217,3100527,3100702,3100216],"voronoi":{"lat":34.490114,"lng":135.816433,"delta_lat":[0,33249,-35831,-16695,6153,6598,5010],"delta_lng":[0,5657,16494,1900,-10459,-8357,-4353]},"impl":true},
    {"code":3100530,"id":"e07d67","name":"大和朝倉","name_kana":"やまとあさくら","lat":34.51602,"lng":135.868933,"prefecture":29,"lines":[31005],"attr":"heat","postal_code":"633-0017","address":"桜井市大字慈恩寺１０２９","next":[1163710,3100714,1163708,3100531,1163709],"voronoi":{"lat":34.518817,"lng":135.857186,"delta_lat":[0,-64524,-8529,107453,-5313],"delta_lng":[0,8285,44148,-31128,-5528]},"impl":true},
    {"code":1163707,"left":3100211,"right":3100532,"id":"c3dd68","name":"柳本","name_kana":"やなぎもと","lat":34.55926,"lng":135.838715,"prefecture":29,"lines":[11637],"attr":"eco","postal_code":"632-0052","address":"天理市柳本町","next":[3100212,3100211,1163708,3100531,1163706],"voronoi":{"lat":34.561154,"lng":135.814131,"delta_lat":[0,-7607,-4933,9928,21350],"delta_lng":[0,984,1971,62890,10203]},"impl":true},
    {"code":3100211,"left":3100213,"right":3101701,"id":"58a392","name":"田原本","name_kana":"たわらもと","lat":34.553068,"lng":135.790837,"prefecture":29,"lines":[31002],"attr":"heat","postal_code":"636-0300","address":"磯城郡田原本町１７１","next":[3100210,1163707,3101701,3100212,1163706],"voronoi":{"lat":34.553547,"lng":135.815114,"delta_lat":[0,-8411,19634,3662,-7278],"delta_lng":[0,-30242,12462,13307,3489]},"impl":true},
    {"code":3100213,"left":3100212,"id":"7d746b","name":"新ノ口","name_kana":"にのくち","lat":34.525332,"lng":135.794631,"prefecture":29,"lines":[31002],"attr":"heat","postal_code":"634-0802","address":"橿原市新口町１２７","next":[3100527,3100212,3100214,3100525],"voronoi":{"lat":34.516584,"lng":135.803405,"delta_lat":[0,17486,-1155,-11277],"delta_lng":[0,11056,-33496,2969]},"impl":true},
    {"code":3100212,"id":"28d38a","name":"笠縫","name_kana":"かさぬい","lat":34.541422,"lng":135.794076,"prefecture":29,"lines":[31002],"attr":"heat","postal_code":"636-0343","address":"磯城郡田原本町秦庄３３０","next":[3101701,1163707,3100213,1163708,3100525,3100211,3100527],"voronoi":{"lat":34.534071,"lng":135.814461,"delta_lat":[0,-1155,7847,4373,8411,-4933,-11956],"delta_lng":[0,-33496,-8057,11964,30242,1971,951]},"impl":true},
    {"code":3101701,"id":"4ec96d","name":"西田原本","name_kana":"にしたわらもと","lat":34.553909,"lng":135.789512,"prefecture":29,"lines":[31017],"attr":"cool","postal_code":"636-0317","address":"磯城郡田原本町大字殿町２０２-２","next":[3100212,3101702,3100525,3101703,3100211,3100210,3100524],"voronoi":{"lat":34.540763,"lng":135.772908,"delta_lat":[0,4373,19634,-2666,-11130,-6169,-2226],"delta_lng":[0,11964,12462,-12513,-13774,-4517,2648]},"impl":true},
    {"code":3100532,"left":3100531,"right":1163708,"id":"6910cc","name":"榛原","name_kana":"はいばら","lat":34.529887,"lng":135.954747,"prefecture":29,"lines":[31005],"attr":"cool","postal_code":"633-0253","address":"宇陀市榛原区萩原２４２６","next":[3100716,1151315,3100531,3100715,1151023,3100533,1163703,1163705,1163704],"voronoi":{"lat":34.631307,"lng":135.930178,"delta_lat":[0,-9404,-188572,-10504,-90307,7136,19599,275554,-2137],"delta_lng":[0,-5383,11707,13773,136484,10096,1139,-164964,-1883]},"impl":true},
    {"code":3100531,"left":1163709,"id":"0e57fa","name":"長谷寺","name_kana":"はせでら","lat":34.526889,"lng":135.906453,"prefecture":29,"lines":[31005],"attr":"heat","postal_code":"633-0112","address":"桜井市大字初瀬２４９９","next":[1163705,1163708,3100715,1163707,3100532,3100714,3100530,1163706],"voronoi":{"lat":34.621902,"lng":135.924795,"delta_lat":[0,-188572,212,12222,107453,5324,21350,20315],"delta_lng":[0,11707,-500,-26382,-31128,1484,10203,13469]},"impl":true},
    {"code":1163709,"id":"9bc3d8","name":"三輪","name_kana":"みわ","lat":34.527138,"lng":135.848435,"prefecture":29,"lines":[11637],"attr":"heat","postal_code":"633-0001","address":"桜井市三輪","next":[1163710,3100528,1163708,3100530],"voronoi":{"lat":34.530479,"lng":135.831076,"delta_lat":[0,-9046,-2616,29087],"delta_lng":[0,6919,19192,15777]},"impl":true},
    {"code":1163708,"id":"2ae105","name":"巻向","name_kana":"まきむく","lat":34.545147,"lng":135.840943,"prefecture":29,"lines":[11637],"attr":"eco","postal_code":"633-0083","address":"桜井市辻","next":[3100527,3100531,3100530,1163707,3100212,1163709,3100528],"voronoi":{"lat":34.547905,"lng":135.872963,"delta_lat":[0,5313,5324,-9928,-11956,-2958,-3220],"delta_lng":[0,5528,1484,-62890,951,3743,9296]},"impl":true},
    {"code":1151010,"left":1151205,"right":3100907,"id":"872f4c","name":"多気","name_kana":"たき","lat":34.516318,"lng":136.572777,"prefecture":24,"lines":[11510,11512],"attr":"cool","postal_code":"519-2154","address":"多気郡多気町多気","next":[3100906,1151011,1151009,3100907,1151202],"voronoi":{"lat":34.487721,"lng":136.570036,"delta_lat":[0,40611,8133,-6281,-10462],"delta_lng":[0,-20266,15919,19870,9154]},"impl":true},
    {"code":1151205,"left":1151204,"right":3100912,"id":"b4b3bc","name":"山田上口","name_kana":"やまだかみぐち","lat":34.49581,"lng":136.694246,"prefecture":24,"lines":[11512],"attr":"cool","postal_code":"516-0047","address":"伊勢市常磐町","next":[3100914,1151206,1151203,3100911,1151204,3101002,3100912],"voronoi":{"lat":34.505632,"lng":136.692229,"delta_lat":[0,-4443,-45138,-34845,21293,19559,26238],"delta_lng":[0,-8285,-15452,4205,12487,7479,7744]},"impl":true},
    {"code":1151204,"left":1151202,"right":3100911,"id":"7d39ba","name":"宮川","name_kana":"みやがわ","lat":34.503252,"lng":136.672506,"prefecture":24,"lines":[11512],"attr":"cool","postal_code":"519-0505","address":"伊勢市小俣町本町２９３１-１","next":[1151203,3100909,1151205,3100911,3100910],"voronoi":{"lat":34.50799,"lng":136.64899,"delta_lat":[0,-265,-51675,45138,12045],"delta_lng":[0,-247,19749,15452,-9036]},"impl":true},
    {"code":1151202,"left":1151011,"id":"fae2c0","name":"外城田","name_kana":"ときだ","lat":34.497641,"lng":136.596997,"prefecture":24,"lines":[11512],"attr":"cool","postal_code":"519-2161","address":"多気郡多気町大字土羽","next":[1151012,1151203,3100908,3100907,1151011,1151010],"voronoi":{"lat":34.487721,"lng":136.570036,"delta_lat":[0,-4507,-75474,103699,7452,831],"delta_lng":[0,-445,24943,25483,-16302,-9002]},"impl":true},
    {"code":1151011,"id":"501322","name":"相可","name_kana":"おうか","lat":34.502725,"lng":136.545538,"prefecture":24,"lines":[11510],"attr":"cool","postal_code":"519-2181","address":"多気郡多気町大字相可","next":[1151302,1151012,3100905,1151010,1151009,1151008,1151013,1151202],"voronoi":{"lat":34.483215,"lng":136.569591,"delta_lat":[0,27374,7577,14579,1816,-97,-6131,-40611],"delta_lng":[0,-101340,-12143,30021,13862,10378,39401,20266]},"impl":true},
    {"code":3100911,"id":"8f24cb","name":"小俣(三重)","original_name":"小俣","name_kana":"おばた","lat":34.512746,"lng":136.685163,"prefecture":24,"lines":[31009],"attr":"eco","postal_code":"519-0503","address":"伊勢市小俣町元町８２５４-５","next":[1151207,1151205,1151204,3100910,1151208,3100912],"voronoi":{"lat":34.59102,"lng":136.73924,"delta_lat":[0,51871,-129657,-12045,4443,25578],"delta_lng":[0,5072,-69405,9036,8285,28552]},"impl":true},
    {"code":3100912,"left":1151209,"right":1151208,"id":"545e89","name":"宮町","name_kana":"みやまち","lat":34.497829,"lng":136.698526,"prefecture":24,"lines":[31009],"attr":"cool","postal_code":"516-0805","address":"伊勢市御薗町高向６８６","next":[1151207,1151206,1151205,3100911],"voronoi":{"lat":34.505632,"lng":136.692229,"delta_lat":[0,-17336,33807,9107],"delta_lng":[0,8178,19945,429]},"impl":true},
    {"code":1151209,"left":1151207,"id":"14b369","name":"松下","name_kana":"まつした","lat":34.496201,"lng":136.799134,"prefecture":24,"lines":[11512],"attr":"eco","postal_code":"519-0601","address":"伊勢市二見町松下","next":[1151210,1151208,3101004,3001006,3101003],"voronoi":{"lat":34.479524,"lng":136.80167,"delta_lat":[0,137765,5316,-142584,-15584],"delta_lng":[0,45834,-17284,-48937,7090]},"impl":true},
    {"code":1151207,"id":"8b2e1d","name":"五十鈴ヶ丘","name_kana":"いすずがおか","lat":34.495884,"lng":136.739797,"prefecture":24,"lines":[11512],"attr":"eco","postal_code":"516-0018","address":"三重県伊勢市黒瀬町1342","next":[3101003,1151206,3100911,3100914,1151208,3101002,3100912],"voronoi":{"lat":34.522103,"lng":136.720351,"delta_lat":[0,-16397,-15660,-9473,15916,94531,-59810],"delta_lng":[0,2516,4631,14728,16939,-19925,-18460]},"impl":true},
    {"code":1151208,"id":"7ad430","name":"二見浦","name_kana":"ふたみのうら","lat":34.503753,"lng":136.77713,"prefecture":24,"lines":[11512],"attr":"eco","postal_code":"519-0603","address":"伊勢市二見町三津","next":[3100910,3001006,1151209,1151207,3101003,3100911],"voronoi":{"lat":34.656775,"lng":136.746587,"delta_lat":[0,-34169,-142584,16467,94531,51871],"delta_lng":[0,83633,-48937,-22117,-19925,5072]},"impl":true},
    {"code":3100907,"left":1151009,"right":3100909,"id":"cd17b3","name":"漕代","name_kana":"こいしろ","lat":34.541013,"lng":136.601001,"prefecture":24,"lines":[31009],"attr":"heat","postal_code":"515-0212","address":"松阪市稲木町１１０８-５","next":[3100906,3100908,1151202,1151010],"voronoi":{"lat":34.530185,"lng":136.58556,"delta_lat":[0,93417,-104710,831],"delta_lng":[0,40978,-22822,-9002]},"impl":true},
    {"code":1151009,"left":3100906,"right":1151313,"id":"8cc77d","name":"徳和","name_kana":"とくわ","lat":34.554016,"lng":136.553519,"prefecture":24,"lines":[11510],"attr":"cool","postal_code":"515-0043","address":"松阪市下村町","next":[3100905,3100906,1151011,1151010],"voronoi":{"lat":34.528333,"lng":136.54977,"delta_lat":[0,6131,39705,-37703],"delta_lng":[0,-39401,61874,-6554]},"impl":true},
    {"code":3100906,"left":1151314,"id":"f8f7c8","name":"櫛田","name_kana":"くしだ","lat":34.548879,"lng":136.583069,"prefecture":24,"lines":[31009],"attr":"heat","postal_code":"515-0205","address":"松阪市豊原町１１３１-５","next":[3100908,1151006,1151008,1151010,1151009,3100907,3100905],"voronoi":{"lat":34.574169,"lng":136.572244,"delta_lat":[0,-37703,-6281,93417,39332,-19302,-27184],"delta_lng":[0,-6554,19870,40978,13389,-32411,-16203]},"impl":true},
    {"code":1151314,"id":"3da594","name":"比津","name_kana":"ひつ","lat":34.531967,"lng":136.270716,"prefecture":24,"lines":[11513],"attr":"heat","postal_code":"515-3421","address":"津市美杉町八知","next":[1151311,1151312,1151315,1151015,1151313],"voronoi":{"lat":34.542804,"lng":136.330683,"delta_lat":[0,-31875,-35510,60334,14446],"delta_lng":[0,56346,-35172,-111870,49952]},"impl":true},
    {"code":1151313,"id":"caebac","name":"伊勢八知","name_kana":"いせやち","lat":34.555355,"lng":136.263952,"prefecture":24,"lines":[11513],"attr":"eco","postal_code":"515-3421","address":"津市美杉町八知","next":[3100542,3100537,1151312,1151315,3100536,1151314,3100540],"voronoi":{"lat":34.608177,"lng":136.214761,"delta_lat":[0,-57979,-14446,7090,29251,12329,23156],"delta_lng":[0,75178,-49952,-78114,11523,7002,31566]},"impl":true},
    {"code":3100909,"left":3100910,"right":3100908,"id":"9a337d","name":"明星","name_kana":"みょうじょう","lat":34.531112,"lng":136.642597,"prefecture":24,"lines":[31009],"attr":"eco","postal_code":"515-0313","address":"多気郡明和町大字明星２５６４","next":[3102734,3001005,1151204,3100910,3100908,1151006,3102733,1151203],"voronoi":{"lat":34.512792,"lng":136.623597,"delta_lat":[0,170940,3954,5628,3648,-11341,-177630,-265],"delta_lng":[0,42503,4140,17422,13929,12542,-65143,-247]},"impl":true},
    {"code":3100910,"id":"b3ccb1","name":"明野","name_kana":"あけの","lat":34.521497,"lng":136.668815,"prefecture":24,"lines":[31009],"attr":"eco","postal_code":"519-0501","address":"伊勢市小俣町明野５２８５-１","next":[1151208,3100909,3001006,3100911,1151204,3001005],"voronoi":{"lat":34.685621,"lng":136.714133,"delta_lat":[0,-177630,5243,129657,13884,23054],"delta_lng":[0,-65143,25918,69405,2274,-24883]},"impl":true},
    {"code":3100908,"id":"7a9ef9","name":"斎宮","name_kana":"さいくう","lat":34.537877,"lng":136.615389,"prefecture":24,"lines":[31009],"attr":"eco","postal_code":"515-0321","address":"多気郡明和町大字斎宮３０４３-３","next":[3100906,1151202,3100909,1151203,3100907,1151006],"voronoi":{"lat":34.512792,"lng":136.623597,"delta_lat":[0,-1352,7452,104710,39332,20798],"delta_lng":[0,-3579,-16302,22822,13389,26173]},"impl":true}
  ]
}