{
  "name":"segment33",
  "root":9950617,
  "east":138.945467,
  "west":137.400288,
  "south":-90.0,
  "north":35.092569,
  "station_size":155,
  "node_list":[
    {"code":9950617,"left":9950531,"right":9950707,"id":"c47a0c","name":"遠州岩水寺","name_kana":"えんしゅうがんすいじ","lat":34.834373,"lng":137.801131,"prefecture":22,"lines":[99506],"attr":"eco","postal_code":"434-0015","address":"浜松市浜北区於呂２８１９-３","next":[9950519,9950514,9950515,9950616,9950518],"voronoi":{"lat":34.829139,"lng":137.820911,"delta_lat":[0,-5184,6272,13059,-10983],"delta_lng":[0,366,-26697,5064,19837]},"impl":true},
    {"code":9950531,"left":1150205,"right":9950526,"id":"871ae0","name":"都筑","name_kana":"つづき","lat":34.79585,"lng":137.574516,"prefecture":22,"lines":[99505],"attr":"cool","postal_code":"431-1402","address":"浜松市北区三ヶ日町都筑","next":[9950530,1141318,9950527,9950534,1141317,9950532,9950533],"voronoi":{"lat":34.764167,"lng":137.567478,"delta_lat":[0,60038,38145,-544,-64,-71821,-6695],"delta_lng":[0,27083,-5253,-7445,-343,-21143,183]},"impl":true},
    {"code":1150205,"left":9952112,"right":9950606,"id":"407fff","name":"弁天島","name_kana":"べんてんじま","lat":34.690125,"lng":137.603058,"prefecture":22,"lines":[11502],"attr":"cool","postal_code":"431-0214","address":"浜松市西区舞阪町弁天島","next":[1150204,9950529,1150206,9950528],"voronoi":{"lat":34.739952,"lng":137.609492,"delta_lat":[0,-676,-483901,483172],"delta_lng":[0,-17756,-58897,91489]},"impl":true},
    {"code":9952112,"left":9950536,"right":9952111,"id":"486382","name":"井原(愛知)","original_name":"井原","name_kana":"いはら","lat":34.764232,"lng":137.421885,"prefecture":23,"lines":[99521,99522],"attr":"cool","postal_code":"441-0000","address":"豊橋市","next":[9952202,9952113,1141306,9952111],"voronoi":{"lat":34.761092,"lng":137.418741,"delta_lat":[0,515,40390,-1973],"delta_lng":[0,6939,4161,-4651]},"impl":true},
    {"code":9950536,"left":9952202,"right":9950538,"id":"5b8b70","name":"アスモ前","name_kana":"あすもまえ","lat":34.727685,"lng":137.49405,"prefecture":22,"lines":[99505],"attr":"heat","postal_code":"431-0400","address":"湖西市小俣","next":[1150208,9950538,9950535,1150207],"voronoi":{"lat":34.748267,"lng":137.491724,"delta_lat":[0,13640,-83311,30467],"delta_lng":[0,-19425,38673,6358]},"impl":true},
    {"code":9952202,"left":1150208,"right":9952113,"id":"4f4812","name":"運動公園前(愛知)","original_name":"運動公園前","name_kana":"うんどうこうえんまえ","lat":34.75845,"lng":137.422314,"prefecture":23,"lines":[99521,99522],"attr":"cool","postal_code":"441-0000","address":"豊橋市","open_date":"1982-07-31","next":[1150209,9952109,9952112,9952110,9952004,9952003,9952111,9952113,9952005],"voronoi":{"lat":34.745081,"lng":137.436426,"delta_lat":[0,16525,-515,-3660,-6446,-4388,-8609,-481,-4584],"delta_lng":[0,-10745,-6939,-4382,-4862,-2328,2404,220,2802]},"impl":true},
    {"code":1150208,"left":1150209,"id":"1431d4","name":"新所原","name_kana":"しんじょはら","lat":34.723205,"lng":137.484399,"prefecture":22,"lines":[11502,99505],"attr":"heat","postal_code":"431-0424","address":"湖西市新所原３丁目","next":[9950536,1150206,1150209,9952010,1150207,9950535,9952113],"voronoi":{"lat":34.761906,"lng":137.472299,"delta_lat":[0,-83311,-22585,-134818,45496,184835,11153],"delta_lng":[0,38673,-2337,-46127,-9871,10593,8231]},"impl":true},
    {"code":1150209,"id":"9d560a","name":"二川","name_kana":"ふたがわ","lat":34.725809,"lng":137.438966,"prefecture":23,"lines":[11502],"attr":"heat","postal_code":"441-3144","address":"豊橋市大岩町南元屋敷","next":[9952010,9952202,9952008,1150208,9952113,9952007,9952006,9952005],"voronoi":{"lat":34.72015,"lng":137.410182,"delta_lat":[0,-2652,-39840,-25624,-85345,184835,-6442,-12158],"delta_lng":[0,-58,4994,5723,31797,10593,-26805,-23830]},"impl":true},
    {"code":9952113,"id":"6bf4ba","name":"赤岩口","name_kana":"あかいわぐち","lat":34.763403,"lng":137.429931,"prefecture":23,"lines":[99521],"attr":"cool","postal_code":"441-0000","address":"豊橋市","next":[1141309,9952112,1150209,1141306,1141307,1150208,9950535,9952202],"voronoi":{"lat":34.761607,"lng":137.42568,"delta_lat":[0,40390,7510,3333,-1757,-48406,-11153,-6442],"delta_lng":[0,4161,13546,18312,15867,-6105,-8231,-26805]},"impl":true},
    {"code":9950538,"left":1150206,"right":9950535,"id":"fa2bf9","name":"大森(静岡)","original_name":"大森","name_kana":"おおもり","lat":34.737865,"lng":137.509636,"prefecture":22,"lines":[99505],"attr":"heat","postal_code":"431-0421","address":"静岡県湖西市新所5404-1","next":[9950536,1150207,9950535],"voronoi":{"lat":34.748267,"lng":137.491724,"delta_lat":[0,-39204,32664],"delta_lng":[0,25606,18844]},"impl":true},
    {"code":1150206,"left":1150207,"id":"c16e29","name":"新居町","name_kana":"あらいまち","lat":34.694276,"lng":137.568953,"prefecture":22,"lines":[11502],"attr":"heat","postal_code":"431-0302","address":"静岡県湖西市新居町新居","next":[1150208,9952014,9952013,9952010,1150207,9950529,1150205,1150204],"voronoi":{"lat":34.01198,"lng":137.496521,"delta_lat":[0,233108,155561,120543,134818,83486,-220,-483901],"delta_lng":[0,-22714,-12268,969,46127,82411,689,-58897]},"impl":true},
    {"code":1150207,"id":"86992b","name":"鷲津","name_kana":"わしづ","lat":34.716819,"lng":137.546116,"prefecture":22,"lines":[11502],"attr":"heat","postal_code":"431-0431","address":"湖西市鷲津","next":[9950529,9950535,1150206,1150208,9950538,9950536,9950530,9950534],"voronoi":{"lat":34.741636,"lng":137.588135,"delta_lat":[0,-2140,-83486,22585,30467,32664,8760,1545],"delta_lng":[0,2911,-82411,2337,6358,18844,9274,23777]},"impl":true},
    {"code":9950535,"id":"4a12e7","name":"知波田","name_kana":"ちばた","lat":34.753069,"lng":137.511873,"prefecture":22,"lines":[99505],"attr":"heat","postal_code":"431-0404","address":"湖西市太田","next":[1150207,1150208,9950538,9950536,1141309,9952113,9950534],"voronoi":{"lat":34.813048,"lng":137.480779,"delta_lat":[0,-1965,-48406,-770,-13640,-6540,8760],"delta_lng":[0,-3212,-6105,838,19425,44450,9274]},"impl":true},
    {"code":9952111,"left":9952108,"right":9950530,"id":"430b6f","name":"競輪場前(愛知)","original_name":"競輪場前","name_kana":"けいりんじょうまえ","lat":34.765078,"lng":137.416778,"prefecture":23,"lines":[99521],"attr":"heat","postal_code":"441-0000","address":"豊橋市","next":[9952110,9952112,1141306,9952202],"voronoi":{"lat":34.757432,"lng":137.414359,"delta_lat":[0,39953,2639,-38932],"delta_lng":[0,3106,7725,-6449]},"impl":true},
    {"code":9952108,"left":9952110,"right":9952107,"id":"096170","name":"前畑","name_kana":"まえはた","lat":34.765818,"lng":137.404718,"prefecture":23,"lines":[99521],"attr":"heat","postal_code":"441-0000","address":"豊橋市","next":[9952002,1141305,9952003,9952107,9952109],"voronoi":{"lat":34.792572,"lng":137.403176,"delta_lat":[0,-40520,-1196,-3373,47082],"delta_lng":[0,-982,812,3430,437]},"impl":true},
    {"code":9952110,"left":9952109,"id":"06ec4f","name":"東田","name_kana":"あずまだ","lat":34.76536,"lng":137.413151,"prefecture":23,"lines":[99521],"attr":"heat","postal_code":"441-0000","address":"豊橋市","next":[9952111,3000205,9952109,9952202,1141306],"voronoi":{"lat":34.796529,"lng":137.414409,"delta_lat":[0,-241,-45303,6446,39953],"delta_lng":[0,-796,-4116,4862,3106]},"impl":true},
    {"code":9952109,"id":"429f8f","name":"東田坂上","name_kana":"あずまださかうえ","lat":34.765783,"lng":137.408495,"prefecture":23,"lines":[99521],"attr":"heat","postal_code":"441-0000","address":"豊橋市","next":[9952202,9952110,9952003,1141305,3000205,9952108],"voronoi":{"lat":34.747484,"lng":137.406437,"delta_lat":[0,-886,4388,45303,-1375,-348],"delta_lng":[0,733,2328,4116,-6185,-555]},"impl":true},
    {"code":9952107,"id":"35476a","name":"東八町","name_kana":"ひがしはっちょう","lat":34.765924,"lng":137.400341,"prefecture":23,"lines":[99521],"attr":"eco","postal_code":"441-0000","address":"豊橋市","next":[9952108,1141305,9952002,9952106,9952103],"voronoi":{"lat":34.752052,"lng":137.402195,"delta_lat":[0,40520,-208,-33508,-1010],"delta_lng":[0,982,-475,-6226,285]},"impl":true},
    {"code":9950530,"left":9950529,"right":9950533,"id":"faf625","name":"東都筑","name_kana":"ひがしつづき","lat":34.790412,"lng":137.586571,"prefecture":22,"lines":[99505],"attr":"cool","postal_code":"431-1402","address":"浜松市北区三ヶ日町都筑","next":[9950531,9950529,9950527,1150207,9950534],"voronoi":{"lat":34.764167,"lng":137.567478,"delta_lat":[0,60038,-4077,-78491,10395],"delta_lng":[0,27083,1390,-7815,-18910]},"impl":true},
    {"code":9950529,"left":9950534,"id":"ffa3cf","name":"浜名湖佐久米","name_kana":"はまなこさくめ","lat":34.789146,"lng":137.599286,"prefecture":22,"lines":[99505],"attr":"cool","postal_code":"431-1401","address":"浜松市北区三ヶ日町佐久米","next":[1150207,9950530,9950528,9950527,1150206,1150205],"voronoi":{"lat":34.805231,"lng":137.604777,"delta_lat":[0,14897,-78491,-2140,-220,676],"delta_lng":[0,-8827,-7815,2911,689,17756]},"impl":true},
    {"code":9950534,"id":"cf4bf6","name":"尾奈","name_kana":"おな","lat":34.783958,"lng":137.541755,"prefecture":22,"lines":[99505],"attr":"heat","postal_code":"431-1424","address":"浜松市北区三ヶ日町下尾奈","next":[9950533,1141309,9950531,1150207,9950530,9950535],"voronoi":{"lat":34.813048,"lng":137.480779,"delta_lat":[0,143,-29965,-19059,-12135,-1545],"delta_lng":[0,120,79661,6918,1748,-23777]},"impl":true},
    {"code":9950533,"id":"f60269","name":"奥浜名湖","name_kana":"おくはまなこ","lat":34.795068,"lng":137.545934,"prefecture":22,"lines":[99505],"attr":"heat","postal_code":"431-1424","address":"浜松市北区三ヶ日町下尾奈","next":[9950534,1141310,1141309,9950532,1141311,9950531],"voronoi":{"lat":34.78992,"lng":137.560377,"delta_lat":[0,45022,-4004,-15491,-2257,-29965],"delta_lng":[0,-58488,-5543,-13870,-1577,79661]},"impl":true},
    {"code":9950606,"left":9950603,"right":9950610,"id":"9c1af4","name":"曳馬","name_kana":"ひくま","lat":34.733255,"lng":137.741256,"prefecture":22,"lines":[99506],"attr":"heat","postal_code":"430-0901","address":"浜松市中区曳馬４-２０-３","open_date":"1909-12-06","next":[1150133,9950605,1150203,9950524,9950607,9950525],"voronoi":{"lat":34.752481,"lng":137.682246,"delta_lat":[0,-7752,-21725,5575,33097,-1839],"delta_lng":[0,5538,71552,2387,-69224,-2559]},"impl":true},
    {"code":9950603,"left":9950601,"right":9950604,"id":"57c80b","name":"遠州病院","name_kana":"えんしゅうびょういん","lat":34.710657,"lng":137.73327,"prefecture":22,"lines":[99506],"attr":"heat","postal_code":"430-0916","address":"浜松市中区早馬町２-２１","next":[9950604,100210,1150203,9950602],"voronoi":{"lat":34.713168,"lng":137.70237,"delta_lat":[0,17291,-20878,-1278],"delta_lng":[0,-6732,48959,-5829]},"impl":true},
    {"code":9950601,"left":1150203,"right":9950602,"id":"d3314a","name":"新浜松","name_kana":"しんはままつ","lat":34.703402,"lng":137.732456,"prefecture":22,"lines":[99506],"attr":"heat","postal_code":"430-0933","address":"浜松市中区鍛冶町４","next":[1150203,1150131,9950602,100210],"voronoi":{"lat":34.705382,"lng":137.733255,"delta_lat":[0,2791,-446808,36756],"delta_lng":[0,-29232,113350,-2065]},"impl":true},
    {"code":1150203,"left":1150204,"id":"97c1dd","name":"高塚","name_kana":"たかつか","lat":34.690425,"lng":137.681303,"prefecture":22,"lines":[11502],"attr":"cool","postal_code":"432-8065","address":"浜松市南区高塚町","next":[9950601,9950604,3101515,9950525,9950606,9950528,1150131,1150204,9950605,9950602,9950603,9950526],"voronoi":{"lat":34.752481,"lng":137.682246,"delta_lat":[0,-7752,-8405,-5865,-17291,-4996,-446808,-1404217,474671,1410045,4070,6267],"delta_lng":[0,5538,5003,2852,6732,1653,113350,161886,-208655,-121373,5899,24926]},"impl":true},
    {"code":1150204,"id":"cf43e5","name":"舞阪","name_kana":"まいさか","lat":34.685701,"lng":137.626422,"prefecture":22,"lines":[11502],"attr":"cool","postal_code":"431-0203","address":"浜松市西区馬郡町","next":[3101515,1150205,9950528,1150203,9952014,1150206],"voronoi":{"lat":34.01198,"lng":137.496521,"delta_lat":[0,-101368,-578794,1410045,-3316,-483172],"delta_lng":[0,5558,268525,-121373,-24904,-91489]},"impl":true},
    {"code":9950602,"id":"60125c","name":"第一通り","name_kana":"だいいちどおり","lat":34.707477,"lng":137.732845,"prefecture":22,"lines":[99506],"attr":"heat","postal_code":"430-0944","address":"浜松市中区田町２３０-２８","next":[1150203,9950601,100210,9950603],"voronoi":{"lat":34.713168,"lng":137.70237,"delta_lat":[0,-4996,-2791,2922],"delta_lng":[0,1653,29232,5513]},"impl":true},
    {"code":9950604,"left":1150133,"right":9950605,"id":"c14825","name":"八幡(静岡)","original_name":"八幡","name_kana":"はちまん","lat":34.717012,"lng":137.73598,"prefecture":22,"lines":[99506],"attr":"heat","postal_code":"430-0918","address":"浜松市中区八幡町１３９-４","next":[1150203,9950603,1150133,9950605,100210],"voronoi":{"lat":34.713679,"lng":137.757604,"delta_lat":[0,22645,-5865,-20878,-1207],"delta_lng":[0,-64817,2852,48959,13004]},"impl":true},
    {"code":1150133,"left":100210,"id":"abb7c4","name":"天竜川","name_kana":"てんりゅうがわ","lat":34.716994,"lng":137.77923,"prefecture":22,"lines":[11501],"attr":"eco","postal_code":"435-0013","address":"浜松市東区天龍川町","next":[9950606,9950609,9950607,1150132,9950611,9950604,9950605,9950610,100210,9950608],"voronoi":{"lat":34.747499,"lng":137.78734,"delta_lat":[0,515,1321,-140609,99648,5305,9325,5575,892,11141],"delta_lng":[0,1664,14839,-16825,-29416,2,1732,2387,645,12308]},"impl":true},
    {"code":100210,"id":"24381e","name":"浜松","name_kana":"はままつ","lat":34.703866,"lng":137.734759,"prefecture":22,"lines":[1002,11501,11502],"attr":"eco","postal_code":"430-0926","address":"浜松市中区砂山町","next":[9950603,1150132,1150131,9950602,1150133,9950601,9950604],"voronoi":{"lat":34.608726,"lng":137.787018,"delta_lat":[0,-271948,-38658,407261,2922,1278,-1207],"delta_lng":[0,26229,2062,-82053,5513,5829,13004]},"impl":true},
    {"code":9950605,"id":"135637","name":"助信","name_kana":"すけのぶ","lat":34.724537,"lng":137.738609,"prefecture":22,"lines":[99506],"attr":"heat","postal_code":"430-0911","address":"浜松市中区新津町２８-４","next":[9950606,1150203,1150133,9950604],"voronoi":{"lat":34.736324,"lng":137.692787,"delta_lat":[0,8405,-21725,-9325],"delta_lng":[0,-5003,71552,-1732]},"impl":true},
    {"code":9950610,"left":9950609,"right":9950612,"id":"4b70fa","name":"積志","name_kana":"せきし","lat":34.768082,"lng":137.763409,"prefecture":22,"lines":[99506],"attr":"cool","postal_code":"431-3114","address":"浜松市東区積志町８１４","next":[9950612,9950611,9950521,9950523,9950609,1150133,9950522],"voronoi":{"lat":34.799639,"lng":137.744306,"delta_lat":[0,-5934,-45691,-515,34931,14296,1003],"delta_lng":[0,6654,38043,-1664,-62069,13670,1336]},"impl":true},
    {"code":9950609,"left":9950608,"right":9950528,"id":"203326","name":"さぎの宮","name_kana":"さぎのみや","lat":34.757275,"lng":137.757327,"prefecture":22,"lines":[99506],"attr":"heat","postal_code":"431-3113","address":"浜松市東区大瀬町４１７-２","next":[1150133,9950607,9950608,9950610,9950523],"voronoi":{"lat":34.775953,"lng":137.716837,"delta_lat":[0,-6733,-28607,6887,34931],"delta_lng":[0,8743,49096,12664,-62069]},"impl":true},
    {"code":9950608,"left":9950607,"id":"c8b8bd","name":"自動車学校前","name_kana":"じどうしゃがっこうまえ","lat":34.747489,"lng":137.751625,"prefecture":22,"lines":[99506],"attr":"heat","postal_code":"431-3122","address":"浜松市東区有玉南町１７３９","next":[9950609,9950607,1150133],"voronoi":{"lat":34.729471,"lng":137.762367,"delta_lat":[0,39748,-28607],"delta_lng":[0,-36788,49096]},"impl":true},
    {"code":9950607,"id":"45849f","name":"上島","name_kana":"かみじま","lat":34.741573,"lng":137.745233,"prefecture":22,"lines":[99506],"attr":"heat","postal_code":"433-8122","address":"浜松市中区上島３-４０-１","open_date":"1909-12-06","next":[9950524,1150133,9950609,9950606,9950523,9950608],"voronoi":{"lat":34.728579,"lng":137.761722,"delta_lat":[0,33097,6718,7558,-6733,-39748],"delta_lng":[0,-69224,7896,16442,8743,36788]},"impl":true},
    {"code":9950528,"id":"ed1d06","name":"寸座","name_kana":"すんざ","lat":34.790102,"lng":137.612523,"prefecture":22,"lines":[99505],"attr":"cool","postal_code":"432-0000","address":"浜松市北区細江町気賀","next":[1150204,1150203,9950527,9950529,9950526,1150205],"voronoi":{"lat":34.741863,"lng":137.649232,"delta_lat":[0,4070,32662,26635,-65278,-1405],"delta_lng":[0,5899,-14186,-36167,4714,14836]},"impl":true},
    {"code":9950612,"left":9950611,"right":9950613,"id":"559de2","name":"遠州小松","name_kana":"えんしゅうこまつ","lat":34.784264,"lng":137.777838,"prefecture":22,"lines":[99506],"attr":"cool","postal_code":"434-0042","address":"浜松市浜北区小松４５００-１","next":[9950610,9950521,9950613,9950520,9950611],"voronoi":{"lat":34.806034,"lng":137.761264,"delta_lat":[0,-983,-5411,-5934,-29500],"delta_lng":[0,-11042,-5916,6654,55828]},"impl":true},
    {"code":9950611,"id":"a5b2ae","name":"遠州西ヶ崎","name_kana":"えんしゅうにしがさき","lat":34.776821,"lng":137.773905,"prefecture":22,"lines":[99506],"attr":"cool","postal_code":"431-3115","address":"浜松市東区西ヶ崎町686-1","next":[9950613,1150133,1150132,9950610,9950612],"voronoi":{"lat":34.757801,"lng":137.815696,"delta_lat":[0,-8466,-1321,45691,-29500],"delta_lng":[0,-11854,-14839,-38043,55828]},"impl":true},
    {"code":9950613,"id":"569c5a","name":"浜北","name_kana":"はまきた","lat":34.791358,"lng":137.784356,"prefecture":22,"lines":[99506],"attr":"cool","postal_code":"434-0037","address":"浜松市浜北区沼５４-１","next":[9950611,9950614,9950520,9950612,1150132],"voronoi":{"lat":34.808371,"lng":137.769849,"delta_lat":[0,-2337,-41828,-6404,5228],"delta_lng":[0,-8585,45524,8908,11584]},"impl":true},
    {"code":9950526,"left":1141314,"right":9950519,"id":"158bea","name":"気賀","name_kana":"きが","lat":34.80722,"lng":137.651937,"prefecture":22,"lines":[99505],"attr":"cool","postal_code":"431-1305","address":"浜松市北区細江町気賀","next":[1141319,9950527,9950528,9950525,1150203],"voronoi":{"lat":34.745934,"lng":137.65513,"delta_lat":[0,32662,97813,4419,-128627],"delta_lng":[0,-14186,-15749,7383,47478]},"impl":true},
    {"code":1141314,"left":1141311,"right":1141319,"id":"442d85","name":"茶臼山","name_kana":"ちゃうすやま","lat":34.910334,"lng":137.514424,"prefecture":23,"lines":[11413],"attr":"cool","postal_code":"441-1302","address":"新城市富永","next":[1141313,9950532,1141316,1141315],"voronoi":{"lat":34.948165,"lng":137.515394,"delta_lat":[0,100087,-193475,308],"delta_lng":[0,-57935,70769,890]},"impl":true},
    {"code":1141311,"left":1141309,"right":1141312,"id":"201e4f","name":"野田城","name_kana":"のだじょう","lat":34.889282,"lng":137.477861,"prefecture":23,"lines":[11413],"attr":"heat","postal_code":"441-1343","address":"新城市野田","next":[1141310,9950532,1141312,9950533],"voronoi":{"lat":34.850566,"lng":137.520235,"delta_lat":[0,171896,-191523,4004],"delta_lng":[0,-133970,110081,5543]},"impl":true},
    {"code":1141309,"left":1141308,"right":1141310,"id":"c60d29","name":"江島","name_kana":"えじま","lat":34.868029,"lng":137.441518,"prefecture":23,"lines":[11413],"attr":"heat","postal_code":"441-1201","address":"豊川市東上町丸塚","next":[1141307,1141310,9952113,1141308,9950534,9950533,9950535],"voronoi":{"lat":34.81319,"lng":137.480898,"delta_lat":[0,2257,113716,-100409,-15915,-1757,1965],"delta_lng":[0,1577,-68380,35732,11872,15867,3212]},"impl":true},
    {"code":1141308,"left":1141307,"id":"342300","name":"長山","name_kana":"ながやま","lat":34.864449,"lng":137.431458,"prefecture":23,"lines":[11413],"attr":"heat","postal_code":"441-1202","address":"豊川市上長山町西水神平","next":[1141309,3000106,1141307,3000107,1141310,3000108],"voronoi":{"lat":34.929163,"lng":137.414095,"delta_lat":[0,-100409,82428,77362,16114,14777],"delta_lng":[0,35732,-80619,-3292,808,2463]},"impl":true},
    {"code":1141307,"id":"ba4a04","name":"三河一宮","name_kana":"みかわいちのみや","lat":34.847911,"lng":137.414549,"prefecture":23,"lines":[11413],"attr":"heat","postal_code":"441-1231","address":"豊川市一宮町下新切","next":[1141309,1141306,3000203,1141308,3000202,9952113,3000106],"voronoi":{"lat":34.828754,"lng":137.449828,"delta_lat":[0,-15915,-3333,40154,18761,24029,18732],"delta_lng":[0,11872,-18312,-58625,-10407,-7216,2069]},"impl":true},
    {"code":1141310,"id":"d29a91","name":"東上","name_kana":"とうじょう","lat":34.876278,"lng":137.455236,"prefecture":23,"lines":[11413],"attr":"heat","postal_code":"441-1201","address":"豊川市東上町東京寺","next":[1141309,9950533,1141312,1141311,3000108,1141308],"voronoi":{"lat":34.815448,"lng":137.482476,"delta_lat":[0,15491,191523,22644,-25670,-90272],"delta_lng":[0,13870,-110081,-14875,-2202,44908]},"impl":true},
    {"code":1141312,"left":9950527,"right":1141313,"id":"fcf43a","name":"新城","name_kana":"しんしろ","lat":34.901112,"lng":137.49304,"prefecture":23,"lines":[11413],"attr":"heat","postal_code":"441-1377","address":"新城市宮ノ西","next":[1141313,9952410,1141310,3000108,3000522,1141311,9950532],"voronoi":{"lat":34.850566,"lng":137.520235,"delta_lat":[0,171896,22644,9241,38151,1074,-240871],"delta_lng":[0,-133970,-14875,-321,26420,4118,122214]},"impl":true},
    {"code":9950527,"left":9950532,"id":"fecc7c","name":"西気賀","name_kana":"にしきが","lat":34.802323,"lng":137.621523,"prefecture":22,"lines":[99505],"attr":"cool","postal_code":"431-1305","address":"浜松市北区細江町気賀","next":[1141318,9950528,9950526,9950531,9950529,9950530,1141319],"voronoi":{"lat":34.778596,"lng":137.640945,"delta_lat":[0,26635,14897,4077,38145,7031,7028],"delta_lng":[0,-36167,-8827,-1390,-5253,15384,20504]},"impl":true},
    {"code":9950532,"id":"e43a84","name":"三ヶ日","name_kana":"みっかび","lat":34.802565,"lng":137.551705,"prefecture":22,"lines":[99505],"attr":"heat","postal_code":"431-1414","address":"浜松市北区三ヶ日町三ヶ日1148-3","next":[1141315,1141317,1141313,1141314,1141311,9950533,9950531,1141312],"voronoi":{"lat":34.854777,"lng":137.528229,"delta_lat":[0,308,6625,32,-71821,45022,15623,2135],"delta_lng":[0,890,29699,22702,-21143,-58488,18346,3586]},"impl":true},
    {"code":1141313,"id":"f485f4","name":"東新町","name_kana":"ひがししんまち","lat":34.906129,"lng":137.502928,"prefecture":23,"lines":[11413],"attr":"heat","postal_code":"441-1361","address":"新城市平井若杉","next":[1141312,1141314,1141316,9950532,9952410],"voronoi":{"lat":35.093571,"lng":137.401606,"delta_lat":[0,-240871,2076,193475,53358],"delta_lng":[0,122214,4408,-70769,-28029]},"impl":true},
    {"code":1141319,"left":1141318,"right":1141322,"id":"377bd1","name":"本長篠","name_kana":"ほんながしの","lat":34.932664,"lng":137.576848,"prefecture":23,"lines":[11413],"attr":"cool","postal_code":"441-1634","address":"新城市長篠","next":[9950526,1141316,1141318,9950525,9950527,1141320],"voronoi":{"lat":34.985456,"lng":137.557968,"delta_lat":[0,-39326,-76750,7028,4419,1403],"delta_lng":[0,3490,43233,20504,7383,1900]},"impl":true},
    {"code":1141318,"left":1141317,"right":1141316,"id":"b28fe9","name":"長篠城","name_kana":"ながしのじょう","lat":34.92599,"lng":137.565,"prefecture":23,"lines":[11413],"attr":"cool","postal_code":"441-1634","address":"新城市長篠","next":[1141316,9950527,9950531,1141319,1141317],"voronoi":{"lat":34.927515,"lng":137.556697,"delta_lat":[0,18616,-76750,-7031,-544],"delta_lng":[0,4761,43233,-15384,-7445]},"impl":true},
    {"code":1141317,"left":1141315,"id":"23f291","name":"鳥居","name_kana":"とりい","lat":34.920834,"lng":137.551537,"prefecture":23,"lines":[11413],"attr":"cool","postal_code":"441-1317","address":"新城市有海","next":[1141316,9950532,1141315,9950531,1141318],"voronoi":{"lat":34.861742,"lng":137.581519,"delta_lat":[0,-32,59953,5852,-65709],"delta_lng":[0,-22702,-21247,19127,25165]},"impl":true},
    {"code":1141315,"id":"c1ed16","name":"三河東郷","name_kana":"みかわとうごう","lat":34.912224,"lng":137.527242,"prefecture":23,"lines":[11413],"attr":"cool","postal_code":"441-1306","address":"新城市川路","next":[9950532,1141317,1141314,1141316],"voronoi":{"lat":34.948165,"lng":137.515394,"delta_lat":[0,-93080,6625,59953],"delta_lng":[0,13724,29699,-21247]},"impl":true},
    {"code":1141316,"id":"9455e8","name":"大海","name_kana":"おおみ","lat":34.930164,"lng":137.548682,"prefecture":23,"lines":[11413],"attr":"cool","postal_code":"441-1315","address":"新城市大海","next":[1141318,1141320,1141317,1141321,1141319,1141322,1141313,1141314,9952410,1141315],"voronoi":{"lat":34.927515,"lng":137.556697,"delta_lat":[0,18616,39326,3848,23613,101612,-12920,-53358,-100087,-26502],"delta_lng":[0,4761,-3490,-1550,-14809,-82066,-30113,28029,57935,22176]},"impl":true},
    {"code":1141322,"left":1141321,"right":1141323,"id":"8c4975","name":"三河槙原","name_kana":"みかわまきはら","lat":34.988589,"lng":137.621022,"prefecture":23,"lines":[11413],"attr":"eco","postal_code":"441-1631","address":"愛知県新城市豊岡字ドウデイ2","open_date":"1923-02-01","next":[9952410,1141321,1141324,1141316,1141323,1141325],"voronoi":{"lat":35.042922,"lng":137.627907,"delta_lat":[0,-70907,40902,101612,87342,-8527],"delta_lng":[0,6152,-92450,-82066,118710,3679]},"impl":true},
    {"code":1141321,"left":1141320,"id":"600479","name":"湯谷温泉","name_kana":"ゆやおんせん","lat":34.970516,"lng":137.613026,"prefecture":23,"lines":[11413],"attr":"cool","postal_code":"441-1631","address":"新城市豊岡","next":[1141322,1141316,1141320,1141323],"voronoi":{"lat":34.989305,"lng":137.556418,"delta_lat":[0,23613,-40902,-38386],"delta_lng":[0,-14809,92450,24836]},"impl":true},
    {"code":1141320,"id":"839edd","name":"三河大野","name_kana":"みかわおおの","lat":34.952038,"lng":137.602987,"prefecture":23,"lines":[11413],"attr":"cool","postal_code":"441-1632","address":"新城市富栄","next":[9950525,1141316,9950524,1141323,9950522,1141321,1141319],"voronoi":{"lat":34.88954,"lng":137.650769,"delta_lat":[0,14078,5940,24072,55675,-3848,-103226],"delta_lng":[0,24345,6380,-22599,-102477,1550,76510]},"impl":true},
    {"code":1141323,"id":"92b5c8","name":"柿平","name_kana":"かきだいら","lat":34.990587,"lng":137.644048,"prefecture":23,"lines":[11413],"attr":"eco","postal_code":"441-1621","address":"新城市下吉田","next":[1141324,1141320,9950521,1141322,9950522,1141321],"voronoi":{"lat":34.972015,"lng":137.63406,"delta_lat":[0,70907,-124979,-5230,-3156,24072],"delta_lng":[0,-6152,69780,-9289,-6904,-22599]},"impl":true},
    {"code":9950519,"left":9950521,"right":1141328,"id":"e238c6","name":"岩水寺","name_kana":"がんすいじ","lat":34.837705,"lng":137.792537,"prefecture":22,"lines":[99505],"attr":"eco","postal_code":"434-0016","address":"浜松市浜北区根堅","next":[9950520,9950617,9950517,9950518,9950616],"voronoi":{"lat":34.843287,"lng":137.799644,"delta_lat":[0,18372,24408,-59507,3668],"delta_lng":[0,-10765,-25983,23150,8534]},"impl":true},
    {"code":9950521,"left":9950523,"right":9950616,"id":"c32448","name":"フルーツパーク","name_kana":"ふるーつぱーく","lat":34.834406,"lng":137.731976,"prefecture":22,"lines":[99505],"attr":"cool","postal_code":"431-2102","address":"浜松市北区都田町","next":[9950612,1141324,9950517,9950522,1141325,9950610,1141323,9950520],"voronoi":{"lat":34.933478,"lng":137.745699,"delta_lat":[0,-2250,-13284,-5230,-114984,1910,5411,86845],"delta_lng":[0,-15320,-32692,-9289,51878,4030,5916,8355]},"impl":true},
    {"code":9950523,"left":9950524,"right":9950522,"id":"45f019","name":"常葉大学前","name_kana":"とこはだいがくまえ","lat":34.81989,"lng":137.709231,"prefecture":22,"lines":[99505],"attr":"cool","postal_code":"431-2102","address":"浜松市北区都田町字吉影","next":[9950610,9950607,9950524,9950609,9950522],"voronoi":{"lat":34.847519,"lng":137.692127,"delta_lat":[0,-79124,7558,6478,14296],"delta_lng":[0,8268,16442,8434,13670]},"impl":true},
    {"code":9950524,"left":9950525,"id":"e607d6","name":"金指","name_kana":"かなさし","lat":34.816951,"lng":137.681103,"prefecture":22,"lines":[99505],"attr":"cool","postal_code":"431-2213","address":"浜松市北区引佐町金指","next":[9950607,1141320,9950522,9950606,9950523,9950525],"voronoi":{"lat":34.761677,"lng":137.692498,"delta_lat":[0,6718,79124,56099,-14078,-129702],"delta_lng":[0,7896,-8268,-17012,-24345,39170]},"impl":true},
    {"code":9950525,"id":"d1216e","name":"岡地","name_kana":"おかじ","lat":34.812295,"lng":137.665686,"prefecture":22,"lines":[99505],"attr":"cool","postal_code":"431-1305","address":"浜松市北区細江町気賀","next":[1141320,1150203,1141319,9950606,9950526,9950524],"voronoi":{"lat":34.752481,"lng":137.682246,"delta_lat":[0,-281,128627,1403,7309,-129702],"delta_lng":[0,-2189,-47478,1900,16291,39170]},"impl":true},
    {"code":9950522,"id":"3a1f94","name":"都田","name_kana":"みやこだ","lat":34.828223,"lng":137.718272,"prefecture":22,"lines":[99505],"attr":"cool","postal_code":"431-2102","address":"浜松市北区都田町","next":[9950521,9950524,1141320,9950610,9950523,1141323],"voronoi":{"lat":34.79773,"lng":137.740277,"delta_lat":[0,-1003,50792,56099,5940,3156],"delta_lng":[0,-1336,-46814,-17012,6380,6904]},"impl":true},
    {"code":9950616,"left":9950615,"right":9950520,"id":"00f9ea","name":"遠州芝本","name_kana":"えんしゅうしばもと","lat":34.823599,"lng":137.7986,"prefecture":22,"lines":[99506],"attr":"eco","postal_code":"434-0015","address":"浜松市浜北区於呂３０６１-２","next":[9950615,9950520,9950514,9950519,9950617],"voronoi":{"lat":34.830227,"lng":137.794581,"delta_lat":[0,-3668,-7921,-8428,13745],"delta_lng":[0,-8534,-2162,41904,-4511]},"impl":true},
    {"code":9950615,"left":9950614,"id":"8a83fd","name":"遠州小林","name_kana":"えんしゅうこばやし","lat":34.808374,"lng":137.795538,"prefecture":22,"lines":[99506],"attr":"cool","postal_code":"434-0014","address":"浜松市浜北区本沢合８７１-７","next":[9950513,9950616,9950514,9950614,9950520],"voronoi":{"lat":34.810211,"lng":137.825788,"delta_lat":[0,-15356,-18824,36018,6590],"delta_lng":[0,9977,4881,-63415,6653]},"impl":true},
    {"code":9950614,"id":"958305","name":"美薗中央公園","name_kana":"みそのちゅうおうこうえん","lat":34.798208,"lng":137.789764,"prefecture":22,"lines":[99506],"attr":"cool","postal_code":"434-0038","address":"浜松市浜北区貴布祢４８７-３","next":[1150131,9950513,9950613,1150132,9950615,9950520],"voronoi":{"lat":34.808371,"lng":137.769849,"delta_lat":[0,-45341,4357,2385,6259,36018],"delta_lng":[0,57431,12355,3361,-2350,-63415]},"impl":true},
    {"code":9950520,"id":"944db8","name":"宮口","name_kana":"みやぐち","lat":34.830389,"lng":137.773731,"prefecture":22,"lines":[99505],"attr":"cool","postal_code":"434-0004","address":"浜松市浜北区宮口","next":[9950519,9950616,9950613,9950612,9950517,9950521,9950614,9950615],"voronoi":{"lat":34.812049,"lng":137.777232,"delta_lat":[0,-3678,-2337,-983,86845,-5829,-59507,-7921],"delta_lng":[0,-7382,-8585,-11042,8355,4319,23150,-2162]},"impl":true},
    {"code":1141328,"left":1141326,"right":1141330,"id":"884251","name":"上市場","name_kana":"かみいちば","lat":35.050202,"lng":137.752364,"prefecture":22,"lines":[11413],"attr":"cool","postal_code":"431-3906","address":"浜松市天竜区佐久間町浦川","next":[1141329,1141327,9950517,1141330,1141326],"voronoi":{"lat":35.002552,"lng":137.753457,"delta_lat":[0,73647,-94322,-19624,-8215],"delta_lng":[0,-8013,51615,8897,-25830]},"impl":true},
    {"code":1141326,"left":1141325,"right":1141327,"id":"2f5eb6","name":"東栄","name_kana":"とうえい","lat":35.02901,"lng":137.713812,"prefecture":23,"lines":[11413],"attr":"eco","postal_code":"449-0216","address":"北設楽郡東栄町三輪字平栗","next":[1141327,9950517,1141328,1141325],"voronoi":{"lat":35.171956,"lng":137.640506,"delta_lat":[0,-169405,-48514,-16948],"delta_lng":[0,112951,26669,-28958]},"impl":true},
    {"code":1141325,"left":1141324,"id":"ef950f","name":"池場","name_kana":"いけば","lat":35.024418,"lng":137.704066,"prefecture":23,"lines":[11413],"attr":"eco","postal_code":"441-1602","address":"新城市池場","next":[1141327,1141324,1141338,9950521,9950517,9952410,9952406,1141322,1141326],"voronoi":{"lat":34.933478,"lng":137.745699,"delta_lat":[0,-2250,262117,8527,6120,11620,-14974,-32681,-234867],"delta_lng":[0,-15320,-148447,-3679,5444,14840,21727,20241,110662]},"impl":true},
    {"code":1141324,"id":"4e5a09","name":"三河川合","name_kana":"みかわかわい","lat":35.001722,"lng":137.663991,"prefecture":23,"lines":[11413],"attr":"eco","postal_code":"441-1601","address":"新城市川合","next":[1141325,9950521,1141323,1141322],"voronoi":{"lat":35.193344,"lng":137.581932,"delta_lat":[0,-262117,-13284,124979],"delta_lng":[0,148447,-32692,-69780]},"impl":true},
    {"code":1141327,"id":"ce684a","name":"出馬","name_kana":"いずんま","lat":35.049322,"lng":137.744276,"prefecture":22,"lines":[11413],"attr":"cool","postal_code":"431-3906","address":"浜松市天竜区佐久間町浦川","next":[1141338,1141325,1141326,1141328,1141329],"voronoi":{"lat":35.002552,"lng":137.753457,"delta_lat":[0,169405,32681,-51024,-77415],"delta_lng":[0,-112951,-20241,97016,28163]},"impl":true},
    {"code":1141330,"left":1141329,"right":1141331,"id":"705495","name":"早瀬","name_kana":"はやせ","lat":35.060521,"lng":137.775126,"prefecture":22,"lines":[11413],"attr":"cool","postal_code":"431-3906","address":"浜松市天竜区佐久間町浦川","next":[9950517,1141328,1141331,9950516,1141329],"voronoi":{"lat":34.962253,"lng":137.805955,"delta_lat":[0,3091,6840,125689,-115996],"delta_lng":[0,16396,30669,-97917,41955]},"impl":true},
    {"code":1141329,"id":"ff0632","name":"浦川","name_kana":"うらかわ","lat":35.056355,"lng":137.763608,"prefecture":22,"lines":[11413],"attr":"cool","postal_code":"431-3906","address":"浜松市天竜区佐久間町浦川","next":[1141331,1141338,1141328,1141332,1141330,1141327],"voronoi":{"lat":35.153613,"lng":137.71728,"delta_lat":[0,-2939,-3790,-49012,-115996,94322],"delta_lng":[0,7177,2791,27855,41955,-51615]},"impl":true},
    {"code":1141331,"id":"2e8e19","name":"下川合","name_kana":"しもかわい","lat":35.069321,"lng":137.786422,"prefecture":22,"lines":[11413],"attr":"cool","postal_code":"431-3907","address":"浜松市天竜区佐久間町川合","next":[1141329,1141330,9950516,1141332],"voronoi":{"lat":35.146884,"lng":137.727249,"delta_lat":[0,-49012,-125689,6021],"delta_lng":[0,27855,97917,37645]},"impl":true},
    {"code":9950707,"left":9950505,"right":9950403,"id":"812d4b","name":"神尾","name_kana":"かみお","lat":34.882842,"lng":138.101595,"prefecture":22,"lines":[99507],"attr":"heat","postal_code":"428-0003","address":"島田市神尾","next":[1150124,1150125,9950711,100209,9950508,9950706,9950708],"voronoi":{"lat":34.851125,"lng":138.027416,"delta_lat":[0,-2055,-15759,63940,8193,31001,-5431],"delta_lng":[0,866,20618,118498,6008,14117,-27512]},"impl":true},
    {"code":9950505,"left":9950511,"right":1150125,"id":"e07ab0","name":"いこいの広場","name_kana":"いこいのひろば","lat":34.788103,"lng":137.963773,"prefecture":22,"lines":[99505],"attr":"eco","postal_code":"436-0112","address":"掛川市細谷字松向","next":[9950506,1150130,9950504,1150129],"voronoi":{"lat":34.77174,"lng":137.936217,"delta_lat":[0,3919,27973,-32969],"delta_lng":[0,-4842,59406,-36255]},"impl":true},
    {"code":9950511,"left":1150130,"right":9950514,"id":"e21747","name":"円田","name_kana":"えんでん","lat":34.820793,"lng":137.907574,"prefecture":22,"lines":[99505],"attr":"eco","postal_code":"437-0221","address":"周智郡森町円田","next":[9950539,9950512,9950506,9950507,1150130],"voronoi":{"lat":34.778245,"lng":137.904499,"delta_lat":[0,84532,-65872,-10744,-3896],"delta_lng":[0,-12605,34791,-2798,-2025]},"impl":true},
    {"code":1150130,"left":1150135,"right":9950507,"id":"3f2047","name":"袋井","name_kana":"ふくろい","lat":34.741377,"lng":137.92596,"prefecture":22,"lines":[11501],"attr":"eco","postal_code":"437-0023","address":"袋井市高尾","next":[9950505,9950512,9950506,1150135,9950511,1150129],"voronoi":{"lat":34.768372,"lng":137.883939,"delta_lat":[0,9872,4020,-6606,-3919,-208568],"delta_lng":[0,20560,17363,9512,4842,63558]},"impl":true},
    {"code":1150135,"left":1150131,"right":9950512,"id":"fb262e","name":"御厨(静岡)","original_name":"御厨","name_kana":"みくりや","lat":34.718447,"lng":137.88534,"prefecture":22,"lines":[11501],"attr":"eco","postal_code":"438-0038","address":"静岡県磐田市鎌田","open_date":"2020-03-14","next":[1150127,9950512,1150131,1150129,1150130,9950513,9950116],"voronoi":{"lat":32.81567,"lng":138.345799,"delta_lat":[0,1952831,811,-940,-205201,-105742,-1421019],"delta_lng":[0,-490627,4165,24603,115835,46843,307269]},"impl":true},
    {"code":1150131,"left":1150132,"id":"2c8c4a","name":"磐田","name_kana":"いわた","lat":34.710132,"lng":137.852244,"prefecture":22,"lines":[11501],"attr":"eco","postal_code":"438-0078","address":"磐田市中泉","next":[9950614,9950513,3101515,100210,1150203,1150135,9950116,1150132,9950601,3101516],"voronoi":{"lat":32.524177,"lng":138.10757,"delta_lat":[0,332970,1404217,36756,38658,430608,2385,-1270,-1952831,-843662],"delta_lng":[0,-128311,-161886,-2065,-2062,26389,3361,12175,490627,-23551]},"impl":true},
    {"code":1150132,"id":"b623af","name":"豊田町","name_kana":"とよだちょう","lat":34.7121,"lng":137.82013,"prefecture":22,"lines":[11501],"attr":"eco","postal_code":"438-0821","address":"磐田市立野","next":[1150133,9950611,100210,9950613,9950614,1150131],"voronoi":{"lat":34.336779,"lng":137.813247,"delta_lat":[0,271948,140609,8466,5228,4357],"delta_lng":[0,-26229,16825,11854,11584,12355]},"impl":true},
    {"code":9950512,"id":"1499d7","name":"遠江一宮","name_kana":"とおとうみいちのみや","lat":34.818045,"lng":137.889145,"prefecture":22,"lines":[99505],"attr":"eco","postal_code":"437-0226","address":"周智郡森町一宮","next":[1150130,9950539,9950511,1150135,9950513],"voronoi":{"lat":34.769312,"lng":137.859336,"delta_lat":[0,-940,9872,84532,2843],"delta_lng":[0,24603,20560,-12605,-807]},"impl":true},
    {"code":9950507,"left":1150129,"right":9950508,"id":"7b6fd0","name":"原谷","name_kana":"はらのや","lat":34.808434,"lng":137.955023,"prefecture":22,"lines":[99505],"attr":"eco","postal_code":"436-0111","address":"掛川市本郷","next":[9950503,9950508,9950511,9950509,9950506,9950539],"voronoi":{"lat":34.796904,"lng":137.926686,"delta_lat":[0,-10744,32127,5278,-12781,-2257],"delta_lng":[0,-2798,76761,4815,-71101,-2153]},"impl":true},
    {"code":1150129,"left":9950506,"id":"d395f0","name":"愛野(静岡)","original_name":"愛野","name_kana":"あいの","lat":34.752257,"lng":137.961663,"prefecture":22,"lines":[11501],"attr":"eco","postal_code":"437-0031","address":"袋井市愛野６９１-８","next":[1150127,9950505,1150135,100209,9950503,9950502,9950504,1150130],"voronoi":{"lat":34.77174,"lng":137.936217,"delta_lat":[0,-1077,-10732,-15669,-32864,-92871,-161097,105742],"delta_lng":[0,18309,25095,9254,15400,29995,12348,-46843]},"impl":true},
    {"code":9950506,"id":"ff4df0","name":"細谷(静岡)","original_name":"細谷","name_kana":"ほそや","lat":34.792705,"lng":137.961606,"prefecture":22,"lines":[99505],"attr":"eco","postal_code":"436-0112","address":"掛川市細谷","next":[9950503,9950505,9950504,9950511,1150130,9950507],"voronoi":{"lat":34.786161,"lng":137.923887,"delta_lat":[0,-3896,-6606,27973,1126,13530],"delta_lng":[0,-2025,9512,59406,1462,8406]},"impl":true},
    {"code":9950508,"id":"b04044","name":"原田(静岡)","original_name":"原田","name_kana":"はらだ","lat":34.820183,"lng":137.952911,"prefecture":22,"lines":[99505],"attr":"eco","postal_code":"436-0000","address":"掛川市板谷","next":[9950503,9950709,9950509,9950710,100209,9950507,9950708,9950707],"voronoi":{"lat":34.851125,"lng":138.027416,"delta_lat":[0,28878,29189,2043,-100450,12781,5988,19516],"delta_lng":[0,-17194,-22793,-1963,-51104,71101,6860,15959]},"impl":true},
    {"code":9950514,"left":9950516,"right":9950510,"id":"a1c0b3","name":"豊岡(静岡)","original_name":"豊岡","name_kana":"とよおか","lat":34.837105,"lng":137.839758,"prefecture":22,"lines":[99505],"attr":"eco","postal_code":"438-0113","address":"磐田市新開","next":[9950513,9950615,9950617,9950616,9950515],"voronoi":{"lat":34.829139,"lng":137.820911,"delta_lat":[0,-5184,-13745,-15356,82481],"delta_lng":[0,366,4511,9977,36507]},"impl":true},
    {"code":9950516,"left":9950515,"right":9950517,"id":"cba1fc","name":"天竜二俣","name_kana":"てんりゅうふたまた","lat":34.859118,"lng":137.820045,"prefecture":22,"lines":[99505],"attr":"eco","postal_code":"431-3311","address":"浜松市天竜区二俣町阿蔵","next":[9950518,1141332,1141334,9950517,9950510,1141331,1141330,9950515],"voronoi":{"lat":34.977591,"lng":137.907776,"delta_lat":[0,1220,-607,-6021,-6840,-114409,-2851,60154],"delta_lng":[0,-9104,-8007,-37645,-30669,-6281,2922,70145]},"impl":true},
    {"code":9950515,"left":9950518,"id":"48a338","name":"上野部","name_kana":"かみのべ","lat":34.847442,"lng":137.830058,"prefecture":22,"lines":[99505],"attr":"eco","postal_code":"438-0111","address":"磐田市上野部","next":[9950518,9950513,9950617,9950510,9950514,9950516],"voronoi":{"lat":34.848084,"lng":137.818993,"delta_lat":[0,-15780,-3164,48196,25831,5071],"delta_lng":[0,489,1430,51361,15985,880]},"impl":true},
    {"code":9950518,"id":"79a480","name":"西鹿島","name_kana":"にしかじま","lat":34.846758,"lng":137.807988,"prefecture":22,"lines":[99505,99506],"attr":"eco","postal_code":"431-3312","address":"浜松市天竜区二俣町南鹿島","next":[9950516,9950517,9950515,9950519,9950617],"voronoi":{"lat":34.843287,"lng":137.799644,"delta_lat":[0,18372,-10724,-2851,-15780],"delta_lng":[0,-10765,27191,2922,489]},"impl":true},
    {"code":9950517,"id":"ce43d0","name":"二俣本町","name_kana":"ふたまたほんまち","lat":34.859504,"lng":137.813015,"prefecture":22,"lines":[99505],"attr":"eco","postal_code":"431-3314","address":"浜松市天竜区二俣町二俣","next":[9950518,9950519,9950521,1141330,1141328,9950516,1141326,9950520,1141325],"voronoi":{"lat":34.933478,"lng":137.745699,"delta_lat":[0,-41582,-5829,-24408,-10724,114409,-3091,-8215,-16948],"delta_lng":[0,12878,4319,25983,27191,6281,-16396,-25830,-28958]},"impl":true},
    {"code":9950510,"left":9950539,"right":9950509,"id":"8ad1b0","name":"遠州森","name_kana":"えんしゅうもり","lat":34.8311,"lng":137.924297,"prefecture":22,"lines":[99505],"attr":"eco","postal_code":"437-0215","address":"周智郡森町森","next":[9950509,1141334,9950516,9950513,9950539,9950515],"voronoi":{"lat":34.977591,"lng":137.907776,"delta_lat":[0,3743,-162042,49090,34784,5071],"delta_lng":[0,15192,5072,-36950,-2833,880]},"impl":true},
    {"code":9950539,"left":9950513,"id":"51d876","name":"森町病院前","name_kana":"もりまちびょういんまえ","lat":34.826157,"lng":137.91773,"prefecture":22,"lines":[99505],"attr":"eco","postal_code":"437-0214","address":"静岡県周智郡森町草ケ谷","open_date":"2015-03-14","next":[9950511,9950512,9950513,9950510,9950509,9950507],"voronoi":{"lat":34.819293,"lng":137.92804,"delta_lat":[0,49090,-2763,-2843,-65872,11623],"delta_lng":[0,-36950,-3,807,34791,5524]},"impl":true},
    {"code":9950513,"id":"0a4687","name":"敷地","name_kana":"しきじ","lat":34.826218,"lng":137.864355,"prefecture":22,"lines":[99505],"attr":"eco","postal_code":"438-0106","address":"磐田市敷地","next":[9950614,1150131,9950514,9950615,9950515,9950539,9950510,1150135,9950512],"voronoi":{"lat":34.868382,"lng":137.891091,"delta_lat":[0,34784,-25831,-82481,-18824,-6259,-1270,811,96307],"delta_lng":[0,-2833,-15985,-36507,4881,2350,12175,4165,31751]},"impl":true},
    {"code":9950509,"id":"a060e3","name":"戸綿","name_kana":"とわた","lat":34.831311,"lng":137.931038,"prefecture":22,"lines":[99505],"attr":"eco","postal_code":"437-0213","address":"周智郡森町睦実","next":[9950510,9950508,9950710,9950539,9950507,1141334],"voronoi":{"lat":34.981335,"lng":137.922968,"delta_lat":[0,-162042,-10765,2257,100450,72474],"delta_lng":[0,5072,4169,2153,51104,-53720]},"impl":true},
    {"code":1150125,"left":1150127,"right":1150124,"id":"9908d0","name":"島田(静岡)","original_name":"島田","name_kana":"しまだ","lat":34.830159,"lng":138.173436,"prefecture":22,"lines":[11501],"attr":"heat","postal_code":"427-0028","address":"島田市栄町","next":[9950702,9950706,1150127,9950703,9950707,1150124,1150126,9950705],"voronoi":{"lat":34.856767,"lng":138.152467,"delta_lat":[0,-2062,-89466,-17936,-68326,226466,-8193,-40412],"delta_lng":[0,-232,11054,4164,53234,-47280,-6008,-14912]},"impl":true},
    {"code":1150127,"left":9950503,"right":1150126,"id":"8a81c2","name":"菊川(静岡)","original_name":"菊川","name_kana":"きくがわ","lat":34.76176,"lng":138.085648,"prefecture":22,"lines":[11501],"attr":"heat","postal_code":"439-0006","address":"菊川市堀之内","next":[1150125,1150122,1150126,9950704,1150129,9950116,1150135,1150124,100209,1150123],"voronoi":{"lat":34.234276,"lng":138.468442,"delta_lat":[0,-1197865,1421019,161097,204444,-3518,-72149,-68326,-138483,-283042],"delta_lng":[0,-114556,-307269,-12348,22271,7396,103516,53234,87748,148637]},"impl":true},
    {"code":9950503,"left":100209,"right":9950504,"id":"6e4225","name":"西掛川","name_kana":"にしかけがわ","lat":34.771952,"lng":137.99501,"prefecture":22,"lines":[99505],"attr":"eco","postal_code":"436-0043","address":"掛川市大池","next":[9950508,100209,9950502,9950506,9950507,1150129,9950504],"voronoi":{"lat":34.818287,"lng":138.000648,"delta_lat":[0,5278,5988,-21017,-64275,15669,44827],"delta_lng":[0,4815,6860,-2625,-20824,-9254,12622]},"impl":true},
    {"code":100209,"left":9950502,"id":"adfe18","name":"掛川","name_kana":"かけがわ","lat":34.769463,"lng":138.014937,"prefecture":22,"lines":[1002,11501,99505],"attr":"eco","postal_code":"436-0024","address":"掛川市南西郷","next":[9950503,9950502,9950705,9950704,9950508,9950706,1150129,9950707,1150127],"voronoi":{"lat":34.618527,"lng":138.03427,"delta_lat":[0,92871,97139,21017,19516,-15759,-5152,-4579,-609],"delta_lng":[0,-29995,5424,2625,15959,20618,3987,3259,394]},"impl":true},
    {"code":9950502,"id":"16278e","name":"掛川市役所前","name_kana":"かけがわしやくしょまえ","lat":34.770289,"lng":138.000143,"prefecture":22,"lines":[99505],"attr":"eco","postal_code":"436-0025","address":"掛川市下俣ノ谷","next":[9950503,100209,1150129],"voronoi":{"lat":34.744262,"lng":137.988875,"delta_lat":[0,64275,-97139],"delta_lng":[0,20824,-5424]},"impl":true},
    {"code":9950504,"id":"886f9c","name":"桜木(静岡)","original_name":"桜木","name_kana":"さくらぎ","lat":34.778216,"lng":137.972764,"prefecture":22,"lines":[99505],"attr":"eco","postal_code":"436-0224","address":"掛川市富部","next":[9950505,9950506,1150129,9950503],"voronoi":{"lat":34.759931,"lng":137.97962,"delta_lat":[0,10732,32969,1126],"delta_lng":[0,-25095,36255,1462]},"impl":true},
    {"code":1150126,"left":9950116,"right":9950702,"id":"50cef0","name":"金谷","name_kana":"かなや","lat":34.819049,"lng":138.125578,"prefecture":22,"lines":[11501,99507],"attr":"heat","postal_code":"428-0047","address":"静岡県島田市金谷新町","next":[1150127,9950703,9950702,1150125,9950704],"voronoi":{"lat":34.819453,"lng":138.063936,"delta_lat":[0,-72149,17936,61932,442],"delta_lng":[0,103516,-4164,-34325,-13863]},"impl":true},
    {"code":9950116,"left":9950115,"id":"8fbb8b","name":"伊豆急下田","name_kana":"いずきゅうしもだ","lat":34.679647,"lng":138.944274,"prefecture":22,"lines":[99501],"attr":"cool","postal_code":"415-0035","address":"下田市東本郷１","next":[1150121,9992719,9950114,1150127,1150122,9950113,9950115,1163910,9950111,9950112,3101516,1150131,1163912,1132524,1163915,1150135,1132526],"voronoi":{"lat":15.971515,"lng":144.256605,"delta_lat":[0,12118257,1847791,1477225,557221,843662,220740,1197865,110735,291444,59672,-1042,-74324,-35942,-522622,-85022,-19609179],"delta_lng":[0,-4613904,-686669,-536469,-97315,23551,8088,114556,30287,89701,397556,8623,97462,44062,534248,29302,5764722]},"impl":true},
    {"code":9950115,"id":"e01b60","name":"蓮台寺","name_kana":"れんだいじ","lat":34.699634,"lng":138.941274,"prefecture":22,"lines":[99501],"attr":"cool","postal_code":"415-0011","address":"下田市河内山ノ瀬","next":[9950116,1150121,1150120,9950114,9950415],"voronoi":{"lat":34.714047,"lng":138.61346,"delta_lat":[0,-33150,-44443,59672,111276],"delta_lng":[0,-12712,-12318,397556,-307217]},"impl":true},
    {"code":9950702,"id":"0f04cc","name":"新金谷","name_kana":"しんかなや","lat":34.825737,"lng":138.137645,"prefecture":22,"lines":[99507],"attr":"heat","postal_code":"428-0013","address":"静岡県島田市金谷東2丁目1112-2","next":[1150125,9950703,1150126],"voronoi":{"lat":34.827171,"lng":138.128963,"delta_lat":[0,27534,-89466],"delta_lng":[0,23271,11054]},"impl":true},
    {"code":1150124,"left":9950705,"right":1150122,"id":"4e405b","name":"六合","name_kana":"ろくごう","lat":34.836436,"lng":138.203502,"prefecture":22,"lines":[11501],"attr":"heat","postal_code":"427-0019","address":"島田市道悦１丁目","next":[9950711,9950707,1150123,1150125,1150127],"voronoi":{"lat":34.678978,"lng":138.220687,"delta_lat":[0,226466,31001,12379,-408329],"delta_lng":[0,-47280,14117,12498,108413]},"impl":true},
    {"code":9950705,"left":9950703,"right":9950706,"id":"44c691","name":"五和","name_kana":"ごか","lat":34.844806,"lng":138.120771,"prefecture":22,"lines":[99507],"attr":"heat","postal_code":"428-0008","address":"島田市竹下","next":[9950706,100209,9950703,1150125,9950704],"voronoi":{"lat":34.823579,"lng":138.056147,"delta_lat":[0,4579,28680,-71,-12155],"delta_lng":[0,-3259,99599,-20,-21234]},"impl":true},
    {"code":9950703,"left":9950704,"id":"b1e272","name":"代官町","name_kana":"だいかんちょう","lat":34.835493,"lng":138.126102,"prefecture":22,"lines":[99507],"attr":"heat","postal_code":"428-0012","address":"静岡県島田市金谷代官町","next":[1150125,9950702,9950705,1150126,9950704],"voronoi":{"lat":34.827613,"lng":138.1151,"delta_lat":[0,-442,27534,2062,-12155],"delta_lng":[0,13863,23271,232,-21234]},"impl":true},
    {"code":9950704,"id":"7a8f66","name":"日切","name_kana":"ひぎり","lat":34.839012,"lng":138.122394,"prefecture":22,"lines":[99507],"attr":"heat","postal_code":"428-0007","address":"島田市島","next":[1150127,100209,9950703,1150126,9950705],"voronoi":{"lat":34.823579,"lng":138.056147,"delta_lat":[0,-609,-3518,8161,16999],"delta_lng":[0,394,7396,51164,16132]},"impl":true},
    {"code":9950706,"id":"446f05","name":"門出","name_kana":"かどで","lat":34.850161,"lng":138.119229,"prefecture":22,"lines":[99507],"attr":"heat","postal_code":"428-0005","address":"静岡県島田市横岡新田２７５−１","open_date":"2020-11-12","next":[1150125,9950705,100209,9950707],"voronoi":{"lat":34.833311,"lng":138.0489,"delta_lat":[0,-5152,28680,40412],"delta_lng":[0,3987,99599,14912]},"impl":true},
    {"code":1150122,"left":1150123,"right":1150121,"id":"34899e","name":"西焼津","name_kana":"にしやいづ","lat":34.859824,"lng":138.28552,"prefecture":22,"lines":[11501],"attr":"heat","postal_code":"425-0076","address":"焼津市小屋敷","next":[1150121,1150127,9950116,1150119,1150123,9950714],"voronoi":{"lat":34.95491,"lng":138.268432,"delta_lat":[0,-609899,-110735,23177,727811,5185],"delta_lng":[0,230297,-30287,-11371,-229035,3667]},"impl":true},
    {"code":1150123,"id":"8d2d46","name":"藤枝","name_kana":"ふじえだ","lat":34.849511,"lng":138.252748,"prefecture":22,"lines":[11501],"attr":"heat","postal_code":"426-0034","address":"藤枝市駅前１丁目","next":[9950711,1150124,1150122,9950714,1150127],"voronoi":{"lat":34.540494,"lng":138.308434,"delta_lat":[0,408329,18560,17880,-727811],"delta_lng":[0,-108413,11677,16338,229035]},"impl":true},
    {"code":1150121,"id":"2d45e5","name":"焼津","name_kana":"やいづ","lat":34.872261,"lng":138.318457,"prefecture":22,"lines":[11501],"attr":"heat","postal_code":"425-0027","address":"焼津市栄町１丁目","next":[1150122,9950116,1150119,9950115,1150120],"voronoi":{"lat":34.950419,"lng":138.275202,"delta_lat":[0,4490,-609899,291444,44443],"delta_lng":[0,-6769,230297,89701,12318]},"impl":true},
    {"code":9950403,"left":9950402,"right":9950411,"id":"1a34f7","name":"音羽町","name_kana":"おとわちょう","lat":34.978387,"lng":138.395775,"prefecture":22,"lines":[99504],"attr":"eco","postal_code":"420-0834","address":"静岡市葵区音羽町","next":[9950406,9950405,9950402,9950404,100208],"voronoi":{"lat":34.971816,"lng":138.395174,"delta_lat":[0,50215,-22062,-11681,-19651],"delta_lng":[0,-14760,13775,3970,0]},"impl":true},
    {"code":9950402,"left":9950708,"right":9950714,"id":"96ecb6","name":"日吉町","name_kana":"ひよしちょう","lat":34.977017,"lng":138.391114,"prefecture":22,"lines":[99504],"attr":"eco","postal_code":"420-0839","address":"静岡市葵区鷹匠２","next":[9950406,100208,9950403,9950401],"voronoi":{"lat":35.047675,"lng":138.366218,"delta_lat":[0,-25644,-50215,2451],"delta_lng":[0,14196,14760,-5210]},"impl":true},
    {"code":9950708,"left":9950711,"right":100208,"id":"c3694a","name":"福用","name_kana":"ふくよう","lat":34.901881,"lng":138.090124,"prefecture":22,"lines":[99507],"attr":"heat","postal_code":"428-0002","address":"島田市福用","next":[9950709,9950508,9950711,9950707],"voronoi":{"lat":34.851125,"lng":138.027416,"delta_lat":[0,28878,49568,1443],"delta_lng":[0,-17194,119496,30293]},"impl":true},
    {"code":9950711,"left":9950709,"right":9950712,"id":"9a1bca","name":"抜里","name_kana":"ぬくり","lat":34.953373,"lng":138.087672,"prefecture":22,"lines":[99507],"attr":"heat","postal_code":"428-0106","address":"島田市川根町抜里追出","next":[1150124,9950712,9950710,9950707,1150123,9950714,9950713,9950708,9950709],"voronoi":{"lat":34.931013,"lng":138.160012,"delta_lat":[0,5431,12379,18560,3276,-28,-15501,-20233,-5327],"delta_lng":[0,27512,12498,11677,-49354,-2189,-88726,27164,31125]},"impl":true},
    {"code":9950709,"left":9950710,"id":"cf23bf","name":"大和田(静岡)","original_name":"大和田","name_kana":"おわだ","lat":34.921104,"lng":138.08215,"prefecture":22,"lines":[99507],"attr":"heat","postal_code":"428-0104","address":"島田市川根町家山大和田新地","next":[9950508,9950708,9950710,9950711],"voronoi":{"lat":34.934897,"lng":138.098594,"delta_lat":[0,-25706,-29189,49568],"delta_lng":[0,-111164,22793,119496]},"impl":true},
    {"code":9950710,"id":"de7993","name":"家山","name_kana":"いえやま","lat":34.940071,"lng":138.077764,"prefecture":22,"lines":[99507],"attr":"heat","postal_code":"428-0104","address":"島田市川根町家山大島新地","next":[9950713,9950508,9950711,9950509,9950709,9950712,1141334],"voronoi":{"lat":34.977777,"lng":138.011165,"delta_lat":[0,-22646,-20233,-25706,2043,72474,9011],"delta_lng":[0,60264,27164,-111164,-1963,-53720,7055]},"impl":true},
    {"code":9950712,"id":"a05512","name":"川根温泉笹間渡","name_kana":"かわねおんせんささまど","lat":34.962291,"lng":138.086114,"prefecture":22,"lines":[99507],"attr":"cool","postal_code":"428-0101","address":"島田市川根町笹間渡タマブチ","next":[9950711,9950710,9950713],"voronoi":{"lat":34.977777,"lng":138.011165,"delta_lat":[0,-22646,15501],"delta_lng":[0,60264,88726]},"impl":true},
    {"code":100208,"left":1150119,"right":9950401,"id":"a16783","name":"静岡","name_kana":"しずおか","lat":34.971629,"lng":138.388579,"prefecture":22,"lines":[1002,11501],"attr":"cool","postal_code":"420-0851","address":"静岡市葵区黒金町","next":[1150119,9950402,9950401,9950404,1150120,9950403],"voronoi":{"lat":34.971816,"lng":138.395174,"delta_lat":[0,2451,-7404,-48348,-2567,52689],"delta_lng":[0,-5210,-26862,60396,4420,-29759]},"impl":true},
    {"code":1150119,"left":1150120,"id":"d18649","name":"安倍川","name_kana":"あべかわ","lat":34.940961,"lng":138.364029,"prefecture":22,"lines":[11501],"attr":"heat","postal_code":"421-0133","address":"静岡市駿河区鎌田","next":[100208,9950714,1150121,9950720,1150122,9950719,1150120,9950401],"voronoi":{"lat":34.918516,"lng":138.423498,"delta_lat":[0,31904,4490,35539,5850,33383,6877,-69695],"delta_lng":[0,-148297,-6769,-36729,1214,21281,5043,103861]},"impl":true},
    {"code":1150120,"id":"189e96","name":"用宗","name_kana":"もちむね","lat":34.922512,"lng":138.36006,"prefecture":22,"lines":[11501],"attr":"heat","postal_code":"421-0124","address":"静岡市駿河区用宗城山町","next":[9950404,1150117,9950115,9950409,1150119,9950408,100208,9950413,1150121,9950415],"voronoi":{"lat":34.680898,"lng":138.600749,"delta_lat":[0,269522,-31904,-2567,-17865,-17910,-40147,-15588,-76590,-33801],"delta_lng":[0,-325547,148297,4420,24657,21180,40612,14979,59046,25068]},"impl":true},
    {"code":9950401,"id":"dc079b","name":"新静岡","name_kana":"しんしずおか","lat":34.975823,"lng":138.387423,"prefecture":22,"lines":[99504],"attr":"eco","postal_code":"420-0839","address":"静岡市葵区鷹匠１-１-１","next":[9950814,9950802,100208,9950720,9950406,1150119,9950402,9950810],"voronoi":{"lat":35.113517,"lng":138.331964,"delta_lat":[0,-65841,-73408,-7404,69695,17971,2393,37808],"delta_lng":[0,34254,23746,-26862,-103861,9451,1366,35201]},"impl":true},
    {"code":9950714,"left":1141332,"right":9950718,"id":"ec94df","name":"塩郷","name_kana":"しおごう","lat":34.997664,"lng":138.090612,"prefecture":22,"lines":[99507],"attr":"cool","postal_code":"428-0304","address":"榛原郡川根本町下泉","next":[1150119,9950715,9950713,9950711,1150123,9950719,1150122],"voronoi":{"lat":34.996299,"lng":138.232917,"delta_lat":[0,15801,-3535,-37905,-3276,17880,5185],"delta_lng":[0,-40422,-161522,131371,49354,16338,3667]},"impl":true},
    {"code":1141332,"left":9950715,"right":1141333,"id":"3e01d0","name":"中部天竜","name_kana":"ちゅうぶてんりゅう","lat":35.085283,"lng":137.802898,"prefecture":22,"lines":[11413],"attr":"cool","postal_code":"431-3905","address":"浜松市天竜区佐久間町半場","next":[9950516,1141338,1141329,1141333,1141334,1141331],"voronoi":{"lat":34.978812,"lng":137.898673,"delta_lat":[0,33645,134341,3877,-3790,-168680],"delta_lng":[0,-19426,-128663,-26126,2791,163417]},"impl":true},
    {"code":9950715,"left":9950713,"id":"eafc46","name":"下泉","name_kana":"しもいずみ","lat":35.022064,"lng":138.090078,"prefecture":22,"lines":[99507],"attr":"cool","postal_code":"428-0304","address":"榛原郡川根本町下泉","next":[9950717,1141334,9950714,9950719,9950713,9950716],"voronoi":{"lat":35.0141,"lng":138.188758,"delta_lat":[0,-2001,-3535,6267,44519,-35705],"delta_lng":[0,3738,-161522,-79928,17549,195555]},"impl":true},
    {"code":9950713,"id":"8a41b0","name":"地名","name_kana":"じな","lat":34.986019,"lng":138.087252,"prefecture":22,"lines":[99507],"attr":"cool","postal_code":"428-0305","address":"榛原郡川根本町地名","next":[9950710,1141334,9950714,9950711,9950712,9950715],"voronoi":{"lat":35.014831,"lng":137.951045,"delta_lat":[0,-22112,-14943,-7145,28,37905],"delta_lng":[0,-12244,72364,148990,2189,-131371]},"impl":true},
    {"code":1141333,"id":"632000","name":"佐久間","name_kana":"さくま","lat":35.091877,"lng":137.809783,"prefecture":22,"lines":[11413],"attr":"cool","postal_code":"431-3901","address":"浜松市天竜区佐久間町佐久間","next":[1141338,1141332,1141334],"voronoi":{"lat":35.146797,"lng":137.750584,"delta_lat":[0,-5473,-128868],"delta_lng":[0,61828,66835]},"impl":true},
    {"code":9950718,"left":9950717,"right":9950719,"id":"0f8e9c","name":"青部","name_kana":"あおべ","lat":35.089592,"lng":138.115473,"prefecture":22,"lines":[99507],"attr":"eco","postal_code":"428-0417","address":"榛原郡川根本町青部","next":[1141337,9950716,9950719,9950717,1141336,9950720,9950803],"voronoi":{"lat":35.107624,"lng":138.118307,"delta_lat":[0,-29021,31210,18872,15481,26763,-57562],"delta_lng":[0,5374,-93395,-36030,4057,8060,106987]},"impl":true},
    {"code":9950717,"left":9950716,"id":"46c38f","name":"駿河徳山","name_kana":"するがとくやま","lat":35.074758,"lng":138.110516,"prefecture":22,"lines":[99507],"attr":"cool","postal_code":"428-0301","address":"榛原郡川根本町徳山","next":[9950715,9950719,9950718,9950716],"voronoi":{"lat":35.0141,"lng":138.188758,"delta_lat":[0,64503,31210,-86168],"delta_lng":[0,-65076,-93395,133863]},"impl":true},
    {"code":9950716,"id":"cbc92b","name":"田野口","name_kana":"たのくち","lat":35.0513,"lng":138.095416,"prefecture":22,"lines":[99507],"attr":"cool","postal_code":"428-0306","address":"榛原郡川根本町田野口","next":[9950718,1141335,1141334,1141336,9950717,9950715],"voronoi":{"lat":35.05935,"lng":137.968594,"delta_lat":[0,11659,32892,24784,-18872,-86168],"delta_lng":[0,3080,11310,11272,36030,133863]},"impl":true},
    {"code":9950719,"id":"0346a5","name":"崎平","name_kana":"さきだいら","lat":35.091803,"lng":138.127411,"prefecture":22,"lines":[99507],"attr":"eco","postal_code":"428-0418","address":"榛原郡川根本町崎平","next":[9950717,9950715,1150119,9950718,9950720,9950714],"voronoi":{"lat":35.029681,"lng":138.254198,"delta_lat":[0,77943,-29021,-64503,-2001,-15801],"delta_lng":[0,-135891,5374,65076,3738,40422]},"impl":true},
    {"code":9950411,"left":9950407,"right":1150115,"id":"0368dc","name":"御門台","name_kana":"みかどだい","lat":35.007902,"lng":138.452464,"prefecture":22,"lines":[99504],"attr":"cool","postal_code":"424-0066","address":"静岡市清水区七ツ新屋","next":[9950409,1150116,9950412,9950413,1140213],"voronoi":{"lat":35.142258,"lng":138.381053,"delta_lat":[0,-153138,-27763,16532,162674],"delta_lng":[0,74053,20100,-3427,-80185]},"impl":true},
    {"code":9950407,"left":1150117,"right":9950409,"id":"88e6dd","name":"古庄","name_kana":"ふるしょう","lat":34.992855,"lng":138.419581,"prefecture":22,"lines":[99504],"attr":"eco","postal_code":"420-0812","address":"静岡市葵区古庄","next":[9950408,9950406,9950814,1150117,1150116],"voronoi":{"lat":34.981334,"lng":138.425429,"delta_lat":[0,6148,134701,21513,-130215],"delta_lng":[0,-7228,-76151,23780,58012]},"impl":true},
    {"code":1150117,"left":9950405,"right":9950406,"id":"7d2bb2","name":"東静岡","name_kana":"ひがししずおか","lat":34.985256,"lng":138.413118,"prefecture":22,"lines":[11501],"attr":"cool","postal_code":"420-0813","address":"静岡市葵区長沼５８４番地８","next":[9950406,1150120,9950405,9950407,9950404,9950408],"voronoi":{"lat":34.898084,"lng":138.452576,"delta_lat":[0,30595,58179,624,-6148,-101160],"delta_lng":[0,-16713,-27833,10171,7228,48327]},"impl":true},
    {"code":9950405,"left":9950404,"id":"1ee2ad","name":"柚木(静岡鉄道)","original_name":"柚木","name_kana":"ゆのき","lat":34.981891,"lng":138.406084,"prefecture":22,"lines":[99504],"attr":"eco","postal_code":"420-0822","address":"静岡市葵区宮前町","next":[9950403,1150117,9950406,9950404],"voronoi":{"lat":34.986857,"lng":138.40803,"delta_lat":[0,13112,-11681,-59610],"delta_lng":[0,-13840,3970,37703]},"impl":true},
    {"code":9950404,"id":"2632b4","name":"春日町","name_kana":"かすがちょう","lat":34.978387,"lng":138.400544,"prefecture":22,"lines":[99504],"attr":"eco","postal_code":"420-0823","address":"静岡市葵区春日２","next":[1150120,100208,9950405,9950403,1150117],"voronoi":{"lat":34.928679,"lng":138.435862,"delta_lat":[0,59610,-19651,-52689,-17865],"delta_lng":[0,-37703,0,29759,24657]},"impl":true},
    {"code":9950406,"id":"5cee3e","name":"長沼(静岡)","original_name":"長沼","name_kana":"ながぬま","lat":34.989069,"lng":138.412884,"prefecture":22,"lines":[99504],"attr":"eco","postal_code":"420-0813","address":"静岡市葵区長沼１","next":[1150117,9950403,9950402,9950814,9950407,9950401,9950405],"voronoi":{"lat":34.987482,"lng":138.4182,"delta_lat":[0,134701,-8666,-65841,-25644,-22062,-13112],"delta_lng":[0,-76151,-10085,34254,14196,13775,13840]},"impl":true},
    {"code":9950409,"left":9950211,"right":1150116,"id":"4f05f4","name":"県立美術館前","name_kana":"けんりつびじゅつかんまえ","lat":34.997494,"lng":138.438088,"prefecture":22,"lines":[99504],"attr":"cool","postal_code":"424-0888","address":"静岡市清水区中之郷２","next":[9950411,9950408,1150116,9950413,1150120],"voronoi":{"lat":34.840026,"lng":138.514367,"delta_lat":[0,170093,-21000,-27763,-136918],"delta_lng":[0,-87852,28591,20100,54140]},"impl":true},
    {"code":9950211,"left":9950408,"id":"ba769c","name":"大仁","name_kana":"おおひと","lat":34.994467,"lng":138.937527,"prefecture":22,"lines":[99502],"attr":"heat","postal_code":"410-2323","address":"伊豆の国市大仁","next":[1150105,9950212,1150106,1150107,9950210,1150104,9950213,9950114,1150114],"voronoi":{"lat":34.890937,"lng":138.712733,"delta_lat":[0,51637,26491,62750,-30447,-14311,-135739,-3438,40453],"delta_lng":[0,46732,27651,87973,74211,-4935,-160327,-78879,5652]},"impl":true},
    {"code":9950408,"id":"94a2d7","name":"県総合運動場","name_kana":"けんそうごううんどうじょう","lat":34.993375,"lng":138.430113,"prefecture":22,"lines":[99504],"attr":"eco","postal_code":"422-8008","address":"静岡市駿河区栗原","next":[9950407,9950409,1150120,1150116,1150117],"voronoi":{"lat":34.840026,"lng":138.514367,"delta_lat":[0,170093,3361,-32147,-101160],"delta_lng":[0,-87852,-2674,1587,48327]},"impl":true},
    {"code":1150116,"id":"1d3f30","name":"草薙","name_kana":"くさなぎ","lat":35.002854,"lng":138.442025,"prefecture":22,"lines":[11501,99504],"attr":"cool","postal_code":"424-0886","address":"静岡市清水区草薙","next":[9950411,9950409,1140213,9950407,9950814,9950408],"voronoi":{"lat":35.01348,"lng":138.423841,"delta_lat":[0,130215,1353,-2791,-153138,21000],"delta_lng":[0,-58012,1283,13941,74053,-28591]},"impl":true},
    {"code":1150115,"left":9950414,"right":9950207,"id":"a2014a","name":"清水(静岡)","original_name":"清水","name_kana":"しみず","lat":35.023248,"lng":138.488958,"prefecture":22,"lines":[11501],"attr":"cool","postal_code":"424-0816","address":"静岡市清水区真砂町","next":[1150114,9950415,9950413,9950412,9950414],"voronoi":{"lat":35.032578,"lng":138.470439,"delta_lat":[0,4530,81428,-107868,10799],"delta_lng":[0,-4035,-32773,96016,-47139]},"impl":true},
    {"code":9950414,"left":9950413,"right":9950415,"id":"a56db4","name":"入江岡","name_kana":"いりえおか","lat":35.014891,"lng":138.481264,"prefecture":22,"lines":[99504],"attr":"heat","postal_code":"424-0834","address":"静岡市清水区浜田町","next":[9950413,9950415,1150115],"voronoi":{"lat":35.032578,"lng":138.470439,"delta_lat":[0,-59428,48317],"delta_lng":[0,28724,-16655]},"impl":true},
    {"code":9950413,"left":9950412,"id":"5da020","name":"桜橋(静岡)","original_name":"桜橋","name_kana":"さくらばし","lat":35.013107,"lng":138.477573,"prefecture":22,"lines":[99504],"attr":"heat","postal_code":"424-0842","address":"静岡市清水区春日１","next":[9950409,1150115,9950411,9950415,9950414,1150120,9950412],"voronoi":{"lat":34.961356,"lng":138.475207,"delta_lat":[0,-136918,-76590,225301,59428,4530,-59219],"delta_lng":[0,54140,59046,-89230,-28724,-4035,5376]},"impl":true},
    {"code":9950412,"id":"bd7a97","name":"狐ヶ崎","name_kana":"きつねがさき","lat":35.011488,"lng":138.459739,"prefecture":22,"lines":[99504],"attr":"cool","postal_code":"424-0871","address":"静岡市清水区上原","next":[1150114,9950411,1140213,1150115,9950413],"voronoi":{"lat":35.140563,"lng":138.391594,"delta_lat":[0,-3988,-18039,-81428,-59219],"delta_lng":[0,30117,11919,32773,5376]},"impl":true},
    {"code":9950415,"id":"573d06","name":"新清水","name_kana":"しんしみず","lat":35.017054,"lng":138.487539,"prefecture":22,"lines":[99504],"attr":"heat","postal_code":"424-0821","address":"静岡市清水区相生町２-２８","next":[9950114,1150115,1150114,9950413,9950414,1150120,9950115],"voronoi":{"lat":34.843878,"lng":138.702066,"delta_lat":[0,166789,10799,-48317,-225301,-33801,93355],"delta_lng":[0,-172420,-47139,16655,89230,25068,65309]},"impl":true},
    {"code":9950207,"left":1150114,"right":9950206,"id":"4f915e","name":"原木","name_kana":"ばらき","lat":35.065653,"lng":138.943695,"prefecture":22,"lines":[99502],"attr":"cool","postal_code":"410-2124","address":"伊豆の国市原木","next":[1150102,9950206,1150104,9950208],"voronoi":{"lat":35.051184,"lng":138.887085,"delta_lat":[0,12785,13318,-10984],"delta_lng":[0,5714,80224,17355]},"impl":true},
    {"code":1150114,"id":"00ca40","name":"興津","name_kana":"おきつ","lat":35.052539,"lng":138.521865,"prefecture":22,"lines":[11501],"attr":"cool","postal_code":"424-0204","address":"静岡市清水区興津中町","next":[9950412,1150107,1150115,1150113,9950415,1140213,1140212,1150112,9950114,1150111,9950211],"voronoi":{"lat":34.907975,"lng":138.703457,"delta_lat":[0,111263,1285,118301,-394,-1856,-18039,-107868,-166789,4002,40453],"delta_lng":[0,-86505,-1298,-170683,-11538,-11721,11919,96016,172420,3093,5652]},"impl":true},
    {"code":9950206,"id":"1f8e60","name":"伊豆仁田","name_kana":"いずにった","lat":35.078821,"lng":138.941509,"prefecture":22,"lines":[99502],"attr":"cool","postal_code":"419-0114","address":"田方郡函南町仁田","next":[1150104,9950207,1150102,1150518,9950204,9950205],"voronoi":{"lat":35.077287,"lng":138.973023,"delta_lat":[0,-13318,6293,8386,1273,8943],"delta_lng":[0,-80224,1870,5260,2645,58685]},"impl":true}
  ]
}