{
  "name":"segment11",
  "root":1180426,
  "east":137.013425,
  "west":133.556693,
  "south":-90.0,
  "north":33.971643,
  "station_size":145,
  "node_list":[
    {"code":1180426,"left":9981702,"right":1180421,"id":"67817b","name":"牟岐","name_kana":"むぎ","lat":33.672192,"lng":134.418192,"prefecture":36,"lines":[11804],"attr":"eco","postal_code":"775-0006","address":"海部郡牟岐町大字中村","next":[1180424,1180427,1180423,1180430,1180425],"voronoi":{"lat":33.500334,"lng":134.575508,"delta_lat":[0,-47931,88058,220321,-122054],"delta_lng":[0,24203,-104749,-172819,164761]}},
    {"code":9981702,"left":9981605,"right":1180121,"id":"a58924","name":"後免東町","name_kana":"ごめんひがしまち","lat":33.574526,"lng":133.648137,"prefecture":39,"lines":[99817],"attr":"eco","postal_code":"783-0011","address":"南国市後免町東町","next":[9981720,9981602,9981703,9981716,1180129,9981605,9981705,9981709,9981704,9981603],"voronoi":{"lat":33.578548,"lng":133.649759,"delta_lat":[0,-1122,-12454,-35587,-4149,-25773,-26507,-4024,15265,32971],"delta_lng":[0,-1991,-4877,-8713,-821,-557,3792,887,6978,5565]}},
    {"code":9981605,"left":9981604,"right":9981612,"id":"c22d81","name":"よしかわ","name_kana":"よしかわ","lat":33.546089,"lng":133.710352,"prefecture":39,"lines":[99816],"attr":"heat","postal_code":"781-5242","address":"香南市吉川町古川字九六山５４２-１","next":[9981911,9981606,9981702,9981720,9981604,9981603,9981607],"voronoi":{"lat":33.529255,"lng":133.672405,"delta_lat":[0,-45058,-15265,-20872,-51862,174547,4599],"delta_lng":[0,-27948,-6978,-2327,1912,93986,1187]}},
    {"code":9981604,"left":9981724,"right":9981715,"id":"af771b","name":"のいち","name_kana":"のいち","lat":33.561649,"lng":133.698366,"prefecture":39,"lines":[99816],"attr":"heat","postal_code":"781-5232","address":"香南市野市町西野２０５６-２","next":[9981603,9981605,1180126,9981607],"voronoi":{"lat":33.575343,"lng":133.732236,"delta_lat":[0,-46089,54755,17143],"delta_lng":[0,-59832,17926,56846]}},
    {"code":9981724,"left":9981727,"right":9981721,"id":"b6659a","name":"西高須","name_kana":"にしたかす","lat":33.558348,"lng":133.573129,"prefecture":39,"lines":[99817],"attr":"heat","postal_code":"781-8123","address":"高知市高須","next":[9981726,9981725,1180132,1180133,9981723,9981721],"voronoi":{"lat":33.545383,"lng":133.578592,"delta_lat":[0,24128,390,-626,-3964,-30489],"delta_lng":[0,-7619,-1938,-952,374,11907]}},
    {"code":9981727,"left":9981725,"right":9981728,"id":"762601","name":"知寄町","name_kana":"ちよりちょう","lat":33.557883,"lng":133.561757,"prefecture":39,"lines":[99817],"attr":"cool","postal_code":"781-0806","address":"高知市知寄町二丁目","next":[9981910,1180133,9981726,9981728,9981911],"voronoi":{"lat":33.568351,"lng":133.564352,"delta_lat":[0,-197,-20159,-720,-782],"delta_lng":[0,-2364,-2311,1281,1561]}},
    {"code":9981725,"left":9981726,"id":"c1e9a4","name":"葛島橋東詰","name_kana":"かずらしまばしひがしづめ","lat":33.557024,"lng":133.569739,"prefecture":39,"lines":[99817],"attr":"cool","postal_code":"781-8123","address":"高知市高須字万島","next":[9981721,9981726,9981724,9981911],"voronoi":{"lat":33.54417,"lng":133.565806,"delta_lat":[0,21140,-30489,-6980],"delta_lng":[0,2650,11907,1710]}},
    {"code":9981726,"id":"5d4fae","name":"知寄町三丁目","name_kana":"ちよりちょうさんちょうめ","lat":33.557597,"lng":133.565168,"prefecture":39,"lines":[99817],"attr":"cool","postal_code":"781-0806","address":"高知市知寄町三丁目","next":[9981725,9981724,9981911,1180133,9981727],"voronoi":{"lat":33.546493,"lng":133.562519,"delta_lat":[0,-2322,21140,3964,-924],"delta_lng":[0,3287,2650,-374,-3730]}},
    {"code":9981728,"id":"9eac31","name":"知寄町二丁目","name_kana":"ちよりちょうにちょうめ","lat":33.558097,"lng":133.55989,"prefecture":39,"lines":[99817],"attr":"cool","postal_code":"781-0806","address":"高知市知寄町二丁目","next":[9981729,9981910,9981727,1180133,9981909],"voronoi":{"lat":33.549528,"lng":133.557412,"delta_lat":[0,18647,-22,-20159,218],"delta_lng":[0,1878,2698,-2311,-491]}},
    {"code":9981721,"left":9981722,"right":9981720,"id":"445795","name":"文珠通","name_kana":"もんじゅどおり","lat":33.559421,"lng":133.579524,"prefecture":39,"lines":[99817],"attr":"heat","postal_code":"781-8123","address":"高知市高須字高須","next":[9981722,9981911,9981725,1180132,9981723,9981720,9981724],"voronoi":{"lat":33.527842,"lng":133.582074,"delta_lat":[0,-12212,53687,-181,-21078,-2675,-10561],"delta_lng":[0,8790,-11427,-1577,536,196,1772]}},
    {"code":9981722,"left":9981723,"id":"04ffba","name":"高須(高知)","original_name":"高須","name_kana":"たかす","lat":33.559349,"lng":133.576691,"prefecture":39,"lines":[99817],"attr":"heat","postal_code":"781-8123","address":"高知市高須字高須","next":[9981721,9981723,1180132],"voronoi":{"lat":33.548058,"lng":133.578395,"delta_lat":[0,21188,-110],"delta_lng":[0,-4246,3710]}},
    {"code":9981723,"id":"c6e3f1","name":"県立美術館通","name_kana":"けんりつびじゅつかんどおり","lat":33.559134,"lng":133.575618,"prefecture":39,"lines":[99817],"attr":"heat","postal_code":"781-8122","address":"高知市高須新町１","next":[9981721,1180132,9981722,9981724],"voronoi":{"lat":33.569511,"lng":133.570972,"delta_lat":[0,-265,-21188,-2675],"delta_lng":[0,3177,4246,196]}},
    {"code":9981720,"id":"faf34e","name":"介良通","name_kana":"けらどおり","lat":33.560243,"lng":133.583386,"prefecture":39,"lines":[99817],"attr":"heat","postal_code":"781-8123","address":"高知市高須字高須","next":[9981702,1180132,9981605,9981719,9981716,9981911,9981721],"voronoi":{"lat":33.569317,"lng":133.579436,"delta_lat":[0,153,-52009,-44505,-4024,-20872,67570],"delta_lng":[0,467,33947,22741,887,-2327,-44288]}},
    {"code":9981715,"left":9981717,"right":9981714,"id":"79e658","name":"舟戸","name_kana":"ふなと","lat":33.570613,"lng":133.599522,"prefecture":39,"lines":[99817],"attr":"eco","postal_code":"780-0000","address":"高知市大津字舟戸","next":[9981716,9981713,9981714,1180131,9981717],"voronoi":{"lat":33.561289,"lng":133.608685,"delta_lat":[0,3655,12790,-5822,-158],"delta_lng":[0,-1641,-9570,-3172,99]}},
    {"code":9981717,"left":9981718,"right":9981716,"id":"7e1bca","name":"田辺島通","name_kana":"たべしまどおり","lat":33.566644,"lng":133.593214,"prefecture":39,"lines":[99817],"attr":"heat","postal_code":"780-0000","address":"高知市大津字田辺島","next":[9981716,1180131,9981715,9981718],"voronoi":{"lat":33.569987,"lng":133.588221,"delta_lat":[0,1925,-158,-13602],"delta_lng":[0,6080,99,2038]}},
    {"code":9981718,"left":9981719,"id":"f55fdf","name":"東新木","name_kana":"ひがししんぎ","lat":33.564141,"lng":133.589609,"prefecture":39,"lines":[99817],"attr":"heat","postal_code":"781-8123","address":"高知市高須字六塩田","next":[9981719,1180131,9981716,9981717],"voronoi":{"lat":33.569987,"lng":133.588221,"delta_lat":[0,270,-40843,28738],"delta_lng":[0,-4024,24144,-11903]}},
    {"code":9981719,"id":"aa896d","name":"新木(高知)","original_name":"新木","name_kana":"しんぎ","lat":33.562568,"lng":133.586948,"prefecture":39,"lines":[99817],"attr":"heat","postal_code":"781-8103","address":"高知市高須字新木","next":[9981718,1180131,9981720,9981716,1180132],"voronoi":{"lat":33.570258,"lng":133.584198,"delta_lat":[0,-40843,-11954,52009,1327],"delta_lng":[0,24144,5509,-33947,2250]}},
    {"code":9981716,"id":"21dcd4","name":"鹿児","name_kana":"かこ","lat":33.567216,"lng":133.597033,"prefecture":39,"lines":[99817],"attr":"eco","postal_code":"780-0000","address":"高知市大津字鹿児","next":[9981717,9981710,9981715,9981702,9981720,9981718,9981719,9981709,9981713,9981711],"voronoi":{"lat":33.555693,"lng":133.612382,"delta_lat":[0,5597,10465,-13602,-28738,-11954,-44505,26507,4452,47833],"delta_lng":[0,-3697,-14284,2038,11903,5509,22741,-3792,-1486,-17140]}},
    {"code":9981714,"left":9981603,"right":9981713,"id":"29058b","name":"北浦(高知)","original_name":"北浦","name_kana":"きたうら","lat":33.57376,"lng":133.603728,"prefecture":39,"lines":[99817],"attr":"eco","postal_code":"780-0000","address":"高知市大津字北浦","next":[9981713,1180130,9981715,1180131],"voronoi":{"lat":33.58624,"lng":133.604056,"delta_lat":[0,-21296,12790,19653],"delta_lng":[0,2988,-9570,2702]}},
    {"code":9981603,"id":"44d13b","name":"立田","name_kana":"たてだ","lat":33.57073,"lng":133.670627,"prefecture":39,"lines":[99816],"attr":"heat","postal_code":"783-0091","address":"南国市立田字神木内６０３-２","next":[1180128,9981602,9981604,9981605,1180127,9981702,1180126],"voronoi":{"lat":33.529255,"lng":133.672405,"delta_lat":[0,-45058,32971,62453,6893,-1699,-805],"delta_lng":[0,-27948,5565,12385,17215,8625,2084]}},
    {"code":9981713,"id":"c3959f","name":"領石通","name_kana":"りょうせきどおり","lat":33.574332,"lng":133.607805,"prefecture":39,"lines":[99817],"attr":"eco","postal_code":"780-0000","address":"高知市大津字関","next":[9981715,9981714,9981711,1180130,9981712,9981716],"voronoi":{"lat":33.564302,"lng":133.611662,"delta_lat":[0,11025,10913,-21296,-3655,-5597],"delta_lng":[0,-1637,-5970,2988,1641,3697]}},
    {"code":9981612,"left":9981617,"right":9981610,"id":"087f60","name":"穴内","name_kana":"あなない","lat":33.506069,"lng":133.864204,"prefecture":39,"lines":[99816],"attr":"cool","postal_code":"784-0032","address":"安芸市穴内乙内浜田２３４","next":[9981609,9981611,9981616,9981613,1180118,9981614],"voronoi":{"lat":33.584004,"lng":133.887842,"delta_lat":[0,-172957,-135308,44873,357839,1368],"delta_lng":[0,-21948,-76848,7300,90706,3802]}},
    {"code":9981617,"left":9981613,"right":9981619,"id":"8cc0cb","name":"唐浜","name_kana":"とうのはま","lat":33.446036,"lng":133.966263,"prefecture":39,"lines":[99816],"attr":"eco","postal_code":"781-6422","address":"安芸郡安田町唐浜６９２-１","next":[9981620,9981618,9981619,9981406,1180153,9981609,9981616],"voronoi":{"lat":33.119122,"lng":133.72967,"delta_lat":[0,-155508,-104,-162336,401623,177701,107251],"delta_lng":[0,-63782,8,72027,161009,66668,16050]}},
    {"code":9981613,"left":9981616,"right":9981614,"id":"432d7c","name":"球場前(高知)","original_name":"球場前","name_kana":"きゅうじょうまえ","lat":33.502635,"lng":133.891265,"prefecture":39,"lines":[99816],"attr":"cool","postal_code":"784-0026","address":"安芸市桜ケ丘町２２５０番地","next":[9981616,9981612,9981615,9981614],"voronoi":{"lat":33.584004,"lng":133.887842,"delta_lat":[0,-172957,38154,24362],"delta_lng":[0,-21948,29644,7511]}},
    {"code":9981616,"left":9981615,"id":"c133e7","name":"下山(高知)","original_name":"下山","name_kana":"しもやま","lat":33.458267,"lng":133.94837,"prefecture":39,"lines":[99816],"attr":"cool","postal_code":"784-0046","address":"安芸市下山カシ原３８６","next":[9981613,9981615,9981609,9981612,9981617,9981618],"voronoi":{"lat":33.487749,"lng":133.98165,"delta_lat":[0,-368627,156617,135308,38154,54530],"delta_lng":[0,-251980,59377,76848,29644,92770]}},
    {"code":9981615,"id":"a23140","name":"伊尾木","name_kana":"いおき","lat":33.490952,"lng":133.929158,"prefecture":39,"lines":[99816],"attr":"cool","postal_code":"784-0045","address":"安芸市伊尾木字ホヲノスカ５５２番地１５","next":[1180117,9981614,9981616,9981618,9980103,9981613,9980102],"voronoi":{"lat":33.623866,"lng":134.092277,"delta_lat":[0,-120134,-54530,24362,272760,472,-54693],"delta_lng":[0,-103969,-92770,7511,166236,1110,11186]}},
    {"code":9981614,"id":"fc92fa","name":"安芸","name_kana":"あき","lat":33.504738,"lng":133.906538,"prefecture":39,"lines":[99816],"attr":"cool","postal_code":"784-0010","address":"安芸市東浜下柿ノ木２９４","next":[9981615,1180117,9981612,1180118,9981613],"voronoi":{"lat":33.746324,"lng":134.069286,"delta_lat":[0,-66328,-176,-95815,-110441],"delta_lng":[0,-178080,-351,-3012,15207]}},
    {"code":9981619,"left":9981620,"right":9981618,"id":"0cf746","name":"田野(高知)","original_name":"田野","name_kana":"たの","lat":33.4303,"lng":134.008207,"prefecture":39,"lines":[99816],"attr":"eco","postal_code":"781-6410","address":"安芸郡田野町北町字上島田１４３０-１","next":[9981617,9980103,9981618,9981620],"voronoi":{"lat":33.202797,"lng":133.898932,"delta_lat":[0,177701,237221,-16633],"delta_lng":[0,66668,128777,6946]}},
    {"code":9981620,"id":"d2c1f2","name":"奈半利","name_kana":"なはり","lat":33.425187,"lng":134.018269,"prefecture":39,"lines":[99816],"attr":"eco","postal_code":"781-6400","address":"安芸郡奈半利町字水門乙４７７９-３","next":[9980103,9981617,9981406,1163921,9981407,9981619,1163918,9981408],"voronoi":{"lat":30.994065,"lng":134.457607,"delta_lat":[0,999314,807795,401623,398289,-1746074,-1069048,-1112843],"delta_lng":[0,-400193,-319492,161009,202391,789375,62049,43656]}},
    {"code":9981618,"id":"98f5ed","name":"安田(高知)","original_name":"安田","name_kana":"やすだ","lat":33.443359,"lng":133.984151,"prefecture":39,"lines":[99816],"attr":"eco","postal_code":"781-6423","address":"安芸郡安田町西島４３-１","next":[9981617,9980103,9981619,9981615,9981616],"voronoi":{"lat":33.623866,"lng":134.092277,"delta_lat":[0,-6146,-237221,107251,15982],"delta_lng":[0,2099,-128777,16050,6659]}},
    {"code":9981610,"left":9981607,"right":9980103,"id":"de5175","name":"和食","name_kana":"わじき","lat":33.51784,"lng":133.809739,"prefecture":39,"lines":[99816],"attr":"heat","postal_code":"781-5701","address":"安芸郡芸西村和食甲９６-１","next":[9981611,9981608,1180125,9981609],"voronoi":{"lat":33.362729,"lng":133.798824,"delta_lat":[0,291160,-15812,-49117],"delta_lng":[0,35045,-18278,-14680]}},
    {"code":9981607,"left":9981609,"right":9981606,"id":"653aea","name":"香我美","name_kana":"かがみ","lat":33.539152,"lng":133.73723,"prefecture":39,"lines":[99816],"attr":"heat","postal_code":"781-5331","address":"香南市香我美町岸本字ルノ丸３２９-１","next":[1180126,9981608,1180125,9981604,9981606,9981605],"voronoi":{"lat":33.601153,"lng":133.747177,"delta_lat":[0,9209,3045,-148234,105572,4599],"delta_lng":[0,11901,8111,-41228,5089,1187]}},
    {"code":9981609,"left":9981608,"id":"92ca00","name":"西分","name_kana":"にしぶん","lat":33.518015,"lng":133.790772,"prefecture":39,"lines":[99816],"attr":"heat","postal_code":"781-5703","address":"安芸郡芸西村西分甲５０８２-２","next":[9981608,9981911,9981612,9981606,9981616,1180153,9981617,9981611,9981610],"voronoi":{"lat":33.362729,"lng":133.798824,"delta_lat":[0,-42117,-44873,-156617,-155508,135964,51954,245166,192262],"delta_lng":[0,-2477,-7300,-59377,-63782,-34258,4865,77834,86582]}},
    {"code":9981608,"id":"5c8886","name":"夜須","name_kana":"やす","lat":33.534347,"lng":133.754506,"prefecture":39,"lines":[99816],"attr":"heat","postal_code":"781-5602","address":"高知県香南市夜須町千切573-39","next":[9981609,9981606,9981610,9981607,1180125],"voronoi":{"lat":33.613407,"lng":133.767189,"delta_lat":[0,-148234,-68474,192262,49117],"delta_lng":[0,-41228,-11632,86582,14680]}},
    {"code":9981606,"id":"06d7e5","name":"あかおか","name_kana":"あかおか","lat":33.539893,"lng":133.721859,"prefecture":39,"lines":[99816],"attr":"heat","postal_code":"781-5310","address":"香南市赤岡町字西浜３７４-１","next":[9981911,9981609,9981605,9981608,9981607],"voronoi":{"lat":33.465173,"lng":133.72596,"delta_lat":[0,-68474,-245166,244665,174547],"delta_lng":[0,-11632,-77834,569,93986]}},
    {"code":9980103,"left":9981611,"right":9980102,"id":"7b9986","name":"甲浦","name_kana":"かんのうら","lat":33.547238,"lng":134.288242,"prefecture":39,"lines":[99801],"attr":"cool","postal_code":"781-7412","address":"安芸郡東洋町大字河内字八幡山","next":[1163921,9981620,1163922,9981619,1163924,9981618,9980102,1180430,9981615],"voronoi":{"lat":33.61772,"lng":134.094377,"delta_lat":[0,-16633,-1746074,31043,878699,18407,732584,176357,-68237],"delta_lng":[0,6946,789375,764,292,-1034,-531021,-278117,10696]}},
    {"code":9981611,"id":"38f950","name":"赤野","name_kana":"あかの","lat":33.516,"lng":133.825026,"prefecture":39,"lines":[99816],"attr":"heat","postal_code":"784-0034","address":"安芸市赤野乙外浜田２９３３","next":[1180125,1180118,9981612,9981610,9981609],"voronoi":{"lat":33.653889,"lng":133.833869,"delta_lat":[0,16037,8525,-357839,42117],"delta_lng":[0,16575,36609,-90706,2477]}},
    {"code":9980102,"id":"81cc20","name":"宍喰","name_kana":"ししくい","lat":33.566949,"lng":134.300741,"prefecture":36,"lines":[99801],"attr":"cool","postal_code":"775-0502","address":"海部郡海陽町久保字松本","next":[9980103,1180319,1180429,1180428,1180117,1180430,9981615],"voronoi":{"lat":33.515745,"lng":134.359698,"delta_lat":[0,81065,49042,136219,-34846,-430,-54693],"delta_lng":[0,-41917,-38625,-140404,-68143,-214,11186]}},
    {"code":1180121,"left":9981708,"right":1180123,"id":"a13232","name":"大杉","name_kana":"おおすぎ","lat":33.761091,"lng":133.66445,"prefecture":39,"lines":[11801],"attr":"cool","postal_code":"789-0315","address":"長岡郡大豊町中村大王","next":[1180136,1180626,1180132,1180625,1180133,1180122,1180120,1180628],"voronoi":{"lat":33.759488,"lng":133.462081,"delta_lat":[0,-18233,-43822,-6174,55349,132016,-34417,-56095],"delta_lng":[0,24785,76755,12897,117218,-75439,-61602,-70623]}},
    {"code":9981708,"left":9981709,"right":9981706,"id":"19275f","name":"小篭通","name_kana":"こごめどおり","lat":33.57637,"lng":133.625786,"prefecture":39,"lines":[99817],"attr":"eco","postal_code":"783-0000","address":"南国市南小籠","next":[1180130,9981709,9981707,9981706],"voronoi":{"lat":33.591948,"lng":133.619251,"delta_lat":[0,36043,-71153,-17017],"delta_lng":[0,764,11659,454]}},
    {"code":9981709,"left":9981712,"right":9981703,"id":"9dce04","name":"長崎(高知)","original_name":"長崎","name_kana":"ながさき","lat":33.575119,"lng":133.620722,"prefecture":39,"lines":[99817],"attr":"eco","postal_code":"780-0000","address":"高知市大津字長崎","next":[9981706,9981708,9981710,1180130,9981702,9981716,9981705],"voronoi":{"lat":33.499462,"lng":133.632799,"delta_lat":[0,4452,79374,8659,-52127,-6157,-8428],"delta_lng":[0,-1486,-13604,1542,12877,599,629]}},
    {"code":9981712,"left":9981710,"right":1180131,"id":"dc678d","name":"清和学園前","name_kana":"せいわがくえんまえ","lat":33.57502,"lng":133.61244,"prefecture":39,"lines":[99817],"attr":"eco","postal_code":"780-0000","address":"高知市大津字長崎","next":[9981713,9981711,1180130],"voronoi":{"lat":33.575328,"lng":133.610026,"delta_lat":[0,-11025,11775],"delta_lng":[0,1637,1617]}},
    {"code":9981710,"left":9981711,"id":"80f83b","name":"明見橋","name_kana":"みょうけんばし","lat":33.574582,"lng":133.617589,"prefecture":39,"lines":[99817],"attr":"eco","postal_code":"780-0000","address":"高知市大津字長崎","next":[9981716,1180130,9981709,9981711],"voronoi":{"lat":33.551747,"lng":133.614174,"delta_lat":[0,-47833,79374,-4664],"delta_lng":[0,17140,-13604,-1754]}},
    {"code":9981711,"id":"f85081","name":"一条橋","name_kana":"いちじょうばし","lat":33.574833,"lng":133.613802,"prefecture":39,"lines":[99817],"attr":"eco","postal_code":"780-0000","address":"高知市大津字長崎","next":[9981713,1180130,9981712,9981710,9981716],"voronoi":{"lat":33.578625,"lng":133.615955,"delta_lat":[0,-2547,-11775,-8610,-3945],"delta_lng":[0,-2676,-1617,719,1792]}},
    {"code":1180131,"id":"d86e9d","name":"布師田","name_kana":"ぬのしだ","lat":33.575595,"lng":133.590379,"prefecture":39,"lines":[11801],"attr":"eco","postal_code":"781-5101","address":"高知市布師田","next":[1180132,9981719,9981715,9981718,9981714,1180130,9981717],"voronoi":{"lat":33.569987,"lng":133.588221,"delta_lat":[0,270,539,62960,-36369,-19653,-5822],"delta_lng":[0,-4024,-2044,16234,1788,-2702,-3172]}},
    {"code":9981703,"left":9981602,"right":9981704,"id":"58855f","name":"後免中町","name_kana":"ごめんなかまち","lat":33.575548,"lng":133.645527,"prefecture":39,"lines":[99817],"attr":"eco","postal_code":"783-0011","address":"南国市後免町２","next":[1180129,9981702,9981704],"voronoi":{"lat":33.577426,"lng":133.647767,"delta_lat":[0,-12454,12409],"delta_lng":[0,-4877,1386]}},
    {"code":9981602,"id":"93812f","name":"後免町","name_kana":"ごめんまち","lat":33.57454,"lng":133.651415,"prefecture":39,"lines":[99816,99817],"attr":"heat","postal_code":"783-0000","address":"南国市大よう甲１２１２-１","next":[9981702,9981603,1180129,1180128],"voronoi":{"lat":33.58457,"lng":133.654532,"delta_lat":[0,-6023,-61380,62453],"delta_lng":[0,-4774,263,12385]}},
    {"code":9981704,"id":"a83666","name":"後免西町","name_kana":"ごめんにしまち","lat":33.575869,"lng":133.642652,"prefecture":39,"lines":[99817],"attr":"eco","postal_code":"783-0001","address":"南国市日吉町１","next":[1180129,9981705,9981702,9981703],"voronoi":{"lat":33.564972,"lng":133.642891,"delta_lat":[0,-35587,50672,-2676],"delta_lng":[0,-8713,6903,3196]}},
    {"code":9981706,"left":1180133,"right":1180129,"id":"0b7fcb","name":"住吉通","name_kana":"すみよしどおり","lat":33.576656,"lng":133.636515,"prefecture":39,"lines":[99817],"attr":"eco","postal_code":"783-0000","address":"南国市東野","next":[9981709,1180129,9981705,9981707,9981708],"voronoi":{"lat":33.533664,"lng":133.632728,"delta_lat":[0,52697,9718,-39241,-17017],"delta_lng":[0,5840,-2806,-4087,454]}},
    {"code":1180133,"left":9981707,"right":1180132,"id":"8163e9","name":"薊野","name_kana":"あぞうの","lat":33.578243,"lng":133.560056,"prefecture":39,"lines":[11801],"attr":"eco","postal_code":"781-0010","address":"高知市薊野","next":[9981901,9981727,1180136,9981726,1180121,9981730,9981729,1180134,1180132,9981724,1180135,9981728],"voronoi":{"lat":33.568351,"lng":133.564352,"delta_lat":[0,924,626,127533,43822,-69631,-79259,-22115,-768,-818,-489,-22],"delta_lng":[0,3730,952,-5414,-76755,22037,29088,15362,546,2511,2881,2698]}},
    {"code":9981707,"left":1180130,"id":"886911","name":"篠原(高知)","original_name":"篠原","name_kana":"しのはら","lat":33.577228,"lng":133.631022,"prefecture":39,"lines":[99817],"attr":"eco","postal_code":"783-0000","address":"南国市若宮","next":[1180128,9981708,1180129,9981706,1180130],"voronoi":{"lat":33.642663,"lng":133.619577,"delta_lat":[0,-29776,-16809,-39241,71153],"delta_lng":[0,13840,2345,-4087,-11659]}},
    {"code":1180130,"id":"253821","name":"土佐大津","name_kana":"とさおおつ","lat":33.576661,"lng":133.612062,"prefecture":39,"lines":[11801],"attr":"eco","postal_code":"780-0000","address":"高知市大津字関","next":[1180132,9981708,1180128,9981710,9981714,9981709,9981713,9981711,1180124,1180131,9981712,9981707],"voronoi":{"lat":33.591948,"lng":133.619251,"delta_lat":[0,-8659,-4664,-2547,-750,10913,11147,36369,32843,-11501,-12435,-14673],"delta_lng":[0,-1542,-1754,-2676,-3254,-5970,-3880,-1788,2183,15271,3735,439]}},
    {"code":1180132,"id":"a6600c","name":"土佐一宮","name_kana":"とさいっく","lat":33.578974,"lng":133.577274,"prefecture":39,"lines":[11801],"attr":"eco","postal_code":"781-8130","address":"高知市一宮","next":[1180130,1180121,9981721,1180131,1180122,9981720,1180124,9981723,9981724,1180133,9981722,9981719],"voronoi":{"lat":33.633757,"lng":133.598387,"delta_lat":[0,32843,19178,5482,6174,-127533,-390,-265,-110,181,153,1327],"delta_lng":[0,2183,-17225,-6828,-12897,5414,1938,3177,3710,1577,467,2250]}},
    {"code":1180129,"left":9981705,"right":1180128,"id":"2d7094","name":"後免","name_kana":"ごめん","lat":33.579245,"lng":133.645479,"prefecture":39,"lines":[11801,99816],"attr":"eco","postal_code":"783-0002","address":"南国市駅前町２丁目","next":[9981703,9981706,9981704,1180128,9981702,9981705,9981707,9981602],"voronoi":{"lat":33.612888,"lng":133.633416,"delta_lat":[0,-16809,-9718,-6304,-2676,45,1122,6023],"delta_lng":[0,2345,2806,2513,3196,3491,1991,4774]}},
    {"code":9981705,"id":"fc98c9","name":"東工業前","name_kana":"ひがしこうぎょうまえ","lat":33.576442,"lng":133.638446,"prefecture":39,"lines":[99817],"attr":"eco","postal_code":"783-0006","address":"南国市篠原字北大窪","next":[9981704,1180129,9981702,9981706,9981709],"voronoi":{"lat":33.529384,"lng":133.634177,"delta_lat":[0,50672,6304,-52697,-8428],"delta_lng":[0,6903,-2513,-5840,629]}},
    {"code":1180128,"id":"87b3e2","name":"土佐長岡","name_kana":"とさながおか","lat":33.591728,"lng":133.662219,"prefecture":39,"lines":[11801],"attr":"eco","postal_code":"783-0029","address":"南国市西山","next":[9981707,9981603,1180129,1180130,1180124,9981602,1180127],"voronoi":{"lat":33.652725,"lng":133.623368,"delta_lat":[0,2374,-12435,-29776,-28317,-4950,6893],"delta_lng":[0,-7526,3735,13840,21116,7874,17215]}},
    {"code":1180123,"left":1180429,"right":1180115,"id":"e7da30","name":"角茂谷","name_kana":"かくもだに","lat":33.695689,"lng":133.692528,"prefecture":39,"lines":[11801],"attr":"heat","postal_code":"789-0321","address":"長岡郡大豊町角茂谷","next":[1180122,1180119,1180118,1180124,1180125],"voronoi":{"lat":33.677348,"lng":133.761197,"delta_lat":[0,16395,31366,-6549,-36854],"delta_lng":[0,-107109,96394,17297,55518]}},
    {"code":1180429,"left":1180125,"right":1180428,"id":"db7b75","name":"阿波海南","name_kana":"あわかいなん","lat":33.606379,"lng":134.350805,"prefecture":36,"lines":[11804],"attr":"cool","postal_code":"775-0202","address":"海部郡海陽町四方原","next":[1180428,9980102,1180430],"voronoi":{"lat":33.59681,"lng":134.317782,"delta_lat":[0,49042,-42495],"delta_lng":[0,-38625,109508]}},
    {"code":1180125,"left":1180126,"right":1180124,"id":"718931","name":"新改","name_kana":"しんがい","lat":33.649596,"lng":133.695763,"prefecture":39,"lines":[11801],"attr":"heat","postal_code":"782-0063","address":"香美市土佐山田町東川","next":[9981611,1180127,1180126,9981607,1180124,1180118,9981610,9981608,1180123],"voronoi":{"lat":33.677348,"lng":133.761197,"delta_lat":[0,-24788,-19328,-22871,3045,24671,15812,16037,11780],"delta_lng":[0,-136865,47145,87600,8111,48402,18278,16575,-27146]}},
    {"code":1180126,"left":1180127,"id":"35a239","name":"土佐山田","name_kana":"とさやまだ","lat":33.607085,"lng":133.684664,"prefecture":39,"lines":[11801],"attr":"heat","postal_code":"782-0037","address":"香美市土佐山田町宮前町","next":[1180125,9981607,9981604,1180127,9981603],"voronoi":{"lat":33.584814,"lng":133.688246,"delta_lat":[0,48418,-22871,-9209,-17143],"delta_lng":[0,-16769,87600,-11901,-56846]}},
    {"code":1180127,"id":"843254","name":"山田西町","name_kana":"やまだにしまち","lat":33.60453,"lng":133.677287,"prefecture":39,"lines":[11801],"attr":"eco","postal_code":"782-0032","address":"香美市土佐山田町西本町","next":[1180125,9981603,1180126,1180124,1180128],"voronoi":{"lat":33.652725,"lng":133.623368,"delta_lat":[0,-164,-19328,-48418,1699],"delta_lng":[0,965,47145,16769,-8625]}},
    {"code":1180124,"id":"dc4fae","name":"繁藤","name_kana":"しげとう","lat":33.680389,"lng":133.690186,"prefecture":39,"lines":[11801],"attr":"heat","postal_code":"789-0585","address":"香美市土佐山田町繁藤","next":[1180122,1180128,1180132,1180130,1180125,1180123,1180127],"voronoi":{"lat":33.652725,"lng":133.623368,"delta_lat":[0,2374,11501,19178,7966,-16395,-24788],"delta_lng":[0,-7526,-15271,-17225,70743,107109,-136865]}},
    {"code":1180428,"left":1180430,"right":1180427,"id":"eee931","name":"浅川","name_kana":"あさかわ","lat":33.626665,"lng":134.358677,"prefecture":36,"lines":[11804],"attr":"cool","postal_code":"775-0101","address":"海部郡海陽町浅川","next":[1180319,1180429,1180318,1180317,1180315,1180427,1180430,9980102],"voronoi":{"lat":33.782071,"lng":134.138753,"delta_lat":[0,2855,11405,15190,11251,-221283,1868,42495],"delta_lng":[0,3934,19200,33351,38754,163967,-9294,-109508]}},
    {"code":1180430,"id":"3df4d2","name":"海部","name_kana":"かいふ","lat":33.593453,"lng":134.351999,"prefecture":36,"lines":[11804,99801],"attr":"cool","postal_code":"775-0302","address":"海部郡海陽町奥浦","next":[1163924,1180426,9980103,1180429,1180428,1180427,9980102,1180423],"voronoi":{"lat":32.783162,"lng":134.89072,"delta_lat":[0,732584,81065,6547,-1868,-61028,-88058,-377576],"delta_lng":[0,-531021,-41917,70883,9294,97004,104749,286454]}},
    {"code":1180427,"id":"255589","name":"鯖瀬","name_kana":"さばせ","lat":33.646398,"lng":134.385308,"prefecture":36,"lines":[11804],"attr":"eco","postal_code":"775-0200","address":"海部郡海陽町浅川字鯖瀬口","next":[1180315,1180426,1180428,1180430,1180425],"voronoi":{"lat":33.540462,"lng":134.494962,"delta_lat":[0,61028,221283,7533,-69523],"delta_lng":[0,-97004,-163967,20387,67765]}},
    {"code":1180115,"left":1180119,"right":1180117,"id":"c595f8","name":"小歩危","name_kana":"こぼけ","lat":33.923352,"lng":133.758767,"prefecture":36,"lines":[11801],"attr":"eco","postal_code":"779-5451","address":"三好市山城町西宇","next":[1180120,1180113,1180624,1180114,1180625,1180116],"voronoi":{"lat":33.945429,"lng":133.775503,"delta_lat":[0,-12965,-14198,-26824,-10530,34020],"delta_lng":[0,-126417,-7119,-6965,24235,185750]}},
    {"code":1180119,"left":1180120,"right":1180114,"id":"3b9ede","name":"大田口","name_kana":"おおたぐち","lat":33.785539,"lng":133.726552,"prefecture":39,"lines":[11801],"attr":"cool","postal_code":"789-0250","address":"長岡郡大豊町黒石","next":[1180123,1180116,1180120,1180122,1180118],"voronoi":{"lat":33.840231,"lng":133.726413,"delta_lat":[0,13431,-110998,-17554,-6549],"delta_lng":[0,-29946,23154,30862,17297]}},
    {"code":1180120,"left":1180122,"id":"1397e8","name":"土佐穴内","name_kana":"とさあなない","lat":33.779192,"lng":133.696126,"prefecture":39,"lines":[11801],"attr":"cool","postal_code":"789-0307","address":"長岡郡大豊町穴内","next":[1180115,1180625,1180122,1180119,1180121,1180116],"voronoi":{"lat":33.742664,"lng":133.719621,"delta_lat":[0,3945,132016,12817,-10530,-27250],"delta_lng":[0,-25885,-75439,16705,24235,37230]}},
    {"code":1180122,"id":"8391a6","name":"土佐北川","name_kana":"とさきたがわ","lat":33.714792,"lng":133.686312,"prefecture":39,"lines":[11801],"attr":"cool","postal_code":"789-0324","address":"長岡郡大豊町久寿軒","next":[1180124,1180123,1180132,1180120,1180121,1180119],"voronoi":{"lat":33.742664,"lng":133.719621,"delta_lat":[0,3945,-55349,-5482,7966,31366],"delta_lng":[0,-25885,-117218,6828,70743,96394]}},
    {"code":1180114,"id":"ea0c8d","name":"阿波川口","name_kana":"あわかわぐち","lat":33.963649,"lng":133.754634,"prefecture":36,"lines":[11801],"attr":"heat","postal_code":"779-5304","address":"三好市山城町大川持","next":[1180112,1180113,1180623,1180622,1180624,1180115],"voronoi":{"lat":33.932463,"lng":133.649086,"delta_lat":[0,23205,60856,15145,-36626,-49615],"delta_lng":[0,6665,37964,16096,48295,17397]}},
    {"code":1180117,"left":1180118,"right":1180116,"id":"a9cb90","name":"土佐岩原","name_kana":"とさいわはら","lat":33.822582,"lng":133.788154,"prefecture":39,"lines":[11801],"attr":"cool","postal_code":"789-0158","address":"長岡郡大豊町岩原","next":[1180118,1180324,9981615,1180321,1180116,1180320,9981614,1180323,1180319,1180322,9980102],"voronoi":{"lat":33.798522,"lng":134.029585,"delta_lat":[0,11551,40758,31132,6523,8474,-58833,-158131,66328,472,430],"delta_lng":[0,-10175,-47104,-41194,-10058,-20420,-152464,143036,178080,1110,214]}},
    {"code":1180118,"id":"a6372f","name":"豊永","name_kana":"とよなが","lat":33.796788,"lng":133.759638,"prefecture":39,"lines":[11801],"attr":"cool","postal_code":"789-0166","address":"長岡郡大豊町東土居","next":[1180117,1180116,9981611,1180125,1180123,9981612,9981614,1180119],"voronoi":{"lat":33.840231,"lng":133.726413,"delta_lat":[0,-2104,-158131,-176,-1368,-8525,11780,36854],"delta_lng":[0,21757,143036,-351,-3802,-36609,-27146,-55518]}},
    {"code":1180116,"id":"01504d","name":"大歩危","name_kana":"おおぼけ","lat":33.8765,"lng":133.767348,"prefecture":36,"lines":[11801],"attr":"eco","postal_code":"778-0105","address":"三好市西祖谷山村徳善","next":[1180118,1180117,1180119,1180324,1180113,1180120,1180115],"voronoi":{"lat":33.880911,"lng":133.659236,"delta_lat":[0,-27250,-13431,-2104,58833,12926,5046],"delta_lng":[0,37230,29946,21757,152464,-18523,-37124]}},
    {"code":1180421,"left":1163916,"right":9965002,"id":"664b61","name":"木岐","name_kana":"きき","lat":33.766616,"lng":134.569473,"prefecture":36,"lines":[11804],"attr":"cool","postal_code":"779-2108","address":"海部郡美波町木岐字本村","next":[1180418,1180417,1180422,1180420,1180423],"voronoi":{"lat":33.722567,"lng":134.574472,"delta_lat":[0,119458,-19525,-8925,-132358],"delta_lng":[0,-81507,50821,14326,56425]}},
    {"code":1163916,"left":1163926,"right":1163907,"id":"b109b7","name":"紀伊有田","name_kana":"きいありた","lat":33.490896,"lng":135.736277,"prefecture":30,"lines":[11639],"attr":"heat","postal_code":"649-3514","address":"東牟婁郡串本町有田","next":[1163915,1163917,1163914,1163913,1163919],"voronoi":{"lat":33.602294,"lng":135.709051,"delta_lat":[0,-178756,78698,63909,119629],"delta_lng":[0,29536,26817,-6845,-38959]}},
    {"code":1163926,"left":1163921,"right":1163930,"id":"277bf2","name":"白浜","name_kana":"しらはま","lat":33.676259,"lng":135.3874,"prefecture":30,"lines":[11639],"attr":"heat","postal_code":"649-2201","address":"西牟婁郡白浜町堅田","next":[1163932,1163930,1163929,1163931,1163927,1163928,1163925],"voronoi":{"lat":33.625684,"lng":135.234429,"delta_lat":[0,36925,9968,30072,1762,-5518,-28633],"delta_lng":[0,35623,14412,66645,26463,16506,19463]}},
    {"code":1163921,"left":1163924,"right":1163919,"id":"cdbaf1","name":"見老津","name_kana":"みろづ","lat":33.515577,"lng":135.575611,"prefecture":30,"lines":[11639],"attr":"heat","postal_code":"649-3141","address":"西牟婁郡すさみ町見老津","next":[9980103,1163923,1163927,1163920,1163922,9981620,1163918],"voronoi":{"lat":30.785964,"lng":134.952747,"delta_lat":[0,1069048,31043,1796592,19269,26270,-1540733],"delta_lng":[0,-62049,764,703539,11372,30121,-336150]}},
    {"code":1163924,"left":1163922,"right":1163925,"id":"f7ddfa","name":"椿","name_kana":"つばき","lat":33.609879,"lng":135.403877,"prefecture":30,"lines":[11639],"attr":"heat","postal_code":"649-2326","address":"西牟婁郡白浜町椿","next":[1163923,1163932,1180430,9980103,1180419,1180423,1163922,1163933,1163925],"voronoi":{"lat":33.577098,"lng":135.179915,"delta_lat":[0,-10697,-204857,-70236,-216480,-291666,-18407,691309,188670],"delta_lng":[0,-14660,-235200,-14371,-29518,4554,1034,474191,86845]}},
    {"code":1163922,"left":1163923,"id":"c594f1","name":"周参見","name_kana":"すさみ","lat":33.546837,"lng":135.495784,"prefecture":30,"lines":[11639],"attr":"heat","postal_code":"649-2621","address":"西牟婁郡すさみ町周参見","next":[9980103,1163921,1163923,1163924],"voronoi":{"lat":33.682647,"lng":135.595001,"delta_lat":[0,-1796592,878699,691309],"delta_lng":[0,-703539,292,474191]}},
    {"code":1163923,"id":"540ca4","name":"紀伊日置","name_kana":"きいひき","lat":33.58491,"lng":135.458122,"prefecture":30,"lines":[11639],"attr":"heat","postal_code":"649-2522","address":"西牟婁郡白浜町矢田","next":[1163924,1163921,1163922,1163927,1163925],"voronoi":{"lat":33.701916,"lng":135.606372,"delta_lat":[0,-19269,-226584,188670,2451],"delta_lng":[0,-11372,-229056,86845,2562]}},
    {"code":1163925,"id":"09f0d3","name":"紀伊富田","name_kana":"きいとんだ","lat":33.652709,"lng":135.393261,"prefecture":30,"lines":[11639],"attr":"heat","postal_code":"649-2332","address":"西牟婁郡白浜町栄","next":[1163927,1163932,1163924,1163926,1163923],"voronoi":{"lat":33.644733,"lng":135.45279,"delta_lat":[0,-67636,48587,44576,-23076],"delta_lng":[0,-272875,54514,179112,41811]}},
    {"code":1163919,"left":1163917,"right":1163920,"id":"9e27e6","name":"和深","name_kana":"わぶか","lat":33.501171,"lng":135.654969,"prefecture":30,"lines":[11639],"attr":"heat","postal_code":"649-3523","address":"東牟婁郡串本町和深","next":[1163905,1163927,1163917,1163916,1163918,1163920,1163913],"voronoi":{"lat":33.602294,"lng":135.709051,"delta_lat":[0,-30750,-197105,387673,21731,-51585,-46484],"delta_lng":[0,-6286,-94834,62768,17906,26154,4841]}},
    {"code":1163917,"left":1163918,"id":"6e0029","name":"田並","name_kana":"たなみ","lat":33.488059,"lng":135.719107,"prefecture":30,"lines":[11639],"attr":"heat","postal_code":"649-3515","address":"東牟婁郡串本町田並","next":[1163918,1163916,1163919,1163915],"voronoi":{"lat":33.128127,"lng":135.679026,"delta_lat":[0,443417,30750,-178756],"delta_lng":[0,23740,6286,29536]}},
    {"code":1163918,"id":"2a663a","name":"田子","name_kana":"たこ","lat":33.490281,"lng":135.677603,"prefecture":30,"lines":[11639],"attr":"heat","postal_code":"649-3523","address":"東牟婁郡串本町和深","next":[1163920,1163917,1163921,9981408,1163919,9981620,1163915],"voronoi":{"lat":29.070235,"lng":135.10081,"delta_lat":[0,602887,1112843,1401489,1186986,197105,-443417],"delta_lng":[0,-104408,-43656,347597,307588,94834,-23740]}},
    {"code":1163920,"id":"bf2d25","name":"江住","name_kana":"えすみ","lat":33.509539,"lng":135.603286,"prefecture":30,"lines":[11639],"attr":"heat","postal_code":"649-3142","address":"西牟婁郡すさみ町江住","next":[1163927,1163918,1163921,1163919],"voronoi":{"lat":33.37444,"lng":135.607931,"delta_lat":[0,-1186986,1540733,33926],"delta_lng":[0,-307588,336150,34206]}},
    {"code":1163930,"left":1180423,"right":1163928,"id":"95aaab","name":"芳養","name_kana":"はや","lat":33.747323,"lng":135.355334,"prefecture":30,"lines":[11639],"attr":"heat","postal_code":"646-0056","address":"田辺市芳養町","next":[1163931,1163926,1163929,3200802],"voronoi":{"lat":33.70265,"lng":135.351109,"delta_lat":[0,-30072,306715,-372],"delta_lng":[0,-66645,199876,802]}},
    {"code":1180423,"left":1180424,"right":1180422,"id":"cd64ce","name":"日和佐","name_kana":"ひわさ","lat":33.728954,"lng":134.530603,"prefecture":36,"lines":[11804],"attr":"cool","postal_code":"779-2305","address":"海部郡美波町奥河内","next":[1180424,1180426,1180422,1180421,1180419,1163924,1180420,1180430],"voronoi":{"lat":33.291308,"lng":134.915683,"delta_lat":[0,361460,28450,41350,24167,-246400,-47931,-377576],"delta_lng":[0,-277807,-23339,-40065,-74059,75095,24203,286454]}},
    {"code":1180424,"left":1180425,"id":"93cced","name":"山河内","name_kana":"やまがわち","lat":33.715139,"lng":134.485273,"prefecture":36,"lines":[11804],"attr":"cool","postal_code":"779-2307","address":"海部郡美波町山河内","next":[1180426,1180307,1180423,1180425,1180422],"voronoi":{"lat":33.885757,"lng":134.422164,"delta_lat":[0,-6007,-241022,-138394,246400],"delta_lng":[0,-32951,97692,88604,-75095]}},
    {"code":1180425,"id":"976b00","name":"辺川","name_kana":"へがわ","lat":33.694711,"lng":134.434874,"prefecture":36,"lines":[11804],"attr":"eco","postal_code":"775-0002","address":"海部郡牟岐町大字橘","next":[1180307,1180315,1180312,1180426,1180424,1180313,1180427],"voronoi":{"lat":33.830306,"lng":134.254378,"delta_lat":[0,9345,22857,16962,281,-241022,122054],"delta_lng":[0,16791,55894,54583,7566,97692,-164761]}},
    {"code":1180422,"id":"4b34ce","name":"北河内(徳島)","original_name":"北河内","name_kana":"きたがわち","lat":33.743286,"lng":134.53528,"prefecture":36,"lines":[11804],"attr":"cool","postal_code":"779-2302","address":"海部郡美波町北河内","next":[1180417,1180307,1180421,1180423,1180424],"voronoi":{"lat":33.885757,"lng":134.422164,"delta_lat":[0,260,-43992,-119458,24167],"delta_lng":[0,738,70064,81507,-74059]}},
    {"code":1163928,"left":1163927,"right":1163929,"id":"c43e27","name":"紀伊新庄","name_kana":"きいしんじょう","lat":33.720993,"lng":135.402355,"prefecture":30,"lines":[11639],"attr":"heat","postal_code":"646-0011","address":"田辺市新庄町","next":[1163927,1163929,1151041,1163926,3200802],"voronoi":{"lat":33.954989,"lng":135.546091,"delta_lat":[0,-250577,-5518,190484,13432],"delta_lng":[0,-168519,16506,302990,-94]}},
    {"code":1163927,"id":"ab52ea","name":"朝来","name_kana":"あっそ","lat":33.696774,"lng":135.417581,"prefecture":30,"lines":[11639],"attr":"heat","postal_code":"649-2105","address":"西牟婁郡上富田町朝来","next":[1163928,1163925,1163920,1163921,1151041,1163923,1163919,1163905,1163926],"voronoi":{"lat":33.698893,"lng":135.394077,"delta_lat":[0,190484,-15146,-90388,-21731,-33926,-26270,-54732,23076],"delta_lng":[0,302990,744,-9206,-17906,-34206,-30121,-151021,-41811]}},
    {"code":1163929,"id":"62587a","name":"紀伊田辺","name_kana":"きいたなべ","lat":33.733619,"lng":135.383581,"prefecture":30,"lines":[11639],"attr":"heat","postal_code":"646-0031","address":"田辺市湊塔ノ内","next":[1163926,1163928,1163930,3200802],"voronoi":{"lat":33.978921,"lng":135.485141,"delta_lat":[0,-276271,1762,250577],"delta_lng":[0,-134033,26463,168519]}},
    {"code":1163907,"left":1163911,"right":1163902,"id":"7ef1f4","name":"紀伊勝浦","name_kana":"きいかつうら","lat":33.628133,"lng":135.941811,"prefecture":30,"lines":[11639],"attr":"eco","postal_code":"649-5334","address":"東牟婁郡那智勝浦町大字勝浦","next":[1163908,1163904,1163905,1163906,1163909],"voronoi":{"lat":33.642978,"lng":135.959854,"delta_lat":[0,-5112,-14079,-20098,-37594],"delta_lng":[0,-15216,-16670,22302,96873]}},
    {"code":1163911,"left":1163913,"right":1163909,"id":"571da3","name":"紀伊浦神","name_kana":"きいうらがみ","lat":33.560473,"lng":135.893979,"prefecture":30,"lines":[11639],"attr":"eco","postal_code":"649-5145","address":"東牟婁郡那智勝浦町大字浦神","next":[1163910,1163912,1163913,1163908],"voronoi":{"lat":33.266154,"lng":136.142876,"delta_lat":[0,364095,32778,-63106],"delta_lng":[0,-337640,-18845,99617]}},
    {"code":1163913,"left":1163914,"right":1163912,"id":"6dbc3d","name":"古座","name_kana":"こざ","lat":33.518449,"lng":135.820882,"prefecture":30,"lines":[11639],"attr":"eco","postal_code":"649-4122","address":"東牟婁郡串本町西向","next":[1163908,1163915,1163905,1163911,1163914,1163912,1163906,1163916,1163919],"voronoi":{"lat":33.732259,"lng":135.71476,"delta_lat":[0,-46037,-8404,-14791,-32778,-210635,5827,140705,119629],"delta_lng":[0,49957,8740,12935,18845,80487,-6366,-120798,-38959]}},
    {"code":1163914,"left":1163915,"id":"3bbddf","name":"紀伊姫","name_kana":"きいひめ","lat":33.497321,"lng":135.796272,"prefecture":30,"lines":[11639],"attr":"eco","postal_code":"649-4125","address":"東牟婁郡串本町姫","next":[1163915,1163916,1163913],"voronoi":{"lat":33.566145,"lng":135.75856,"delta_lat":[0,-63909,-76796],"delta_lng":[0,6845,113953]}},
    {"code":1163915,"id":"773f2e","name":"串本","name_kana":"くしもと","lat":33.47547,"lng":135.781546,"prefecture":30,"lines":[11639],"attr":"heat","postal_code":"649-3503","address":"東牟婁郡串本町串本","next":[1163916,1163914,9981408,1192820,1163913,9992719,9950116,1163918,1163917,1163912],"voronoi":{"lat":15.971515,"lng":144.256605,"delta_lat":[0,7408251,5644510,45959,4057893,295411,78698,-76796,-5827,-5329842],"delta_lng":[0,-6665560,-2482831,-7403,578215,59562,26817,113953,6366,3756977]}},
    {"code":1163912,"id":"07bcef","name":"紀伊田原","name_kana":"きいたはら","lat":33.536504,"lng":135.868132,"prefecture":30,"lines":[11639],"attr":"eco","postal_code":"649-4112","address":"東牟婁郡串本町田原","next":[1163911,9950116,1163913,1163910,1163915],"voronoi":{"lat":33.419613,"lng":135.885723,"delta_lat":[0,210635,-364095,-3328591,-1847791],"delta_lng":[0,-80487,337640,2813155,686669]}},
    {"code":1163909,"left":1163910,"right":1163908,"id":"27dd1b","name":"太地","name_kana":"たいじ","lat":33.591348,"lng":135.927536,"prefecture":30,"lines":[11639],"attr":"eco","postal_code":"649-5172","address":"東牟婁郡太地町大字森浦","next":[1163904,1163910,1163908,1163907,3101516],"voronoi":{"lat":33.597737,"lng":135.906125,"delta_lat":[0,5951,-37594,-802960,-4692],"delta_lng":[0,44146,96873,1280743,3774]}},
    {"code":1163910,"id":"4e78a7","name":"下里","name_kana":"しもさと","lat":33.582115,"lng":135.9221,"prefecture":30,"lines":[11639],"attr":"eco","postal_code":"649-5142","address":"東牟婁郡那智勝浦町大字下里","next":[1163911,1163908,3101516,9950116,1163909,1163912],"voronoi":{"lat":31.414787,"lng":138.419563,"delta_lat":[0,1343655,839295,2183,-333767,-3328591],"delta_lng":[0,-1087902,-1425536,-20116,256868,2813155]}},
    {"code":1163908,"id":"8e004d","name":"湯川","name_kana":"ゆかわ","lat":33.609568,"lng":135.92508,"prefecture":30,"lines":[11639],"attr":"eco","postal_code":"649-5338","address":"東牟婁郡那智勝浦町大字二河","next":[1163913,1163910,1163907,1163906,1163909,1163911],"voronoi":{"lat":33.597737,"lng":135.906125,"delta_lat":[0,5951,20098,54031,-14791,-63106],"delta_lng":[0,44146,-22302,-154512,12935,99617]}},
    {"code":1163902,"left":1163904,"right":1151040,"id":"dad06c","name":"三輪崎","name_kana":"みわさき","lat":33.689554,"lng":135.984906,"prefecture":30,"lines":[11639],"attr":"eco","postal_code":"647-0061","address":"新宮市三輪崎","next":[1151040,1151041,1163904,1163903],"voronoi":{"lat":33.715754,"lng":135.956938,"delta_lat":[0,-16804,-157750,131661],"delta_lng":[0,65013,243637,-279985]}},
    {"code":1163904,"left":1163905,"right":1163903,"id":"792ad8","name":"宇久井","name_kana":"うくい","lat":33.662751,"lng":135.972302,"prefecture":30,"lines":[11639],"attr":"eco","postal_code":"649-5312","address":"東牟婁郡那智勝浦町大字宇久井","next":[1163907,1163903,1163909,1151030,3101516,1163905,1163902,1151040],"voronoi":{"lat":33.541199,"lng":136.265589,"delta_lat":[0,131661,-4246,-25637,-76883,-802960,222526,154543],"delta_lng":[0,-279985,-39239,13490,87289,1280743,-169664,-204994]}},
    {"code":1163905,"left":1163906,"id":"b4b067","name":"那智","name_kana":"なち","lat":33.643917,"lng":135.936508,"prefecture":30,"lines":[11639],"attr":"eco","postal_code":"649-5314","address":"東牟婁郡那智勝浦町大字浜ノ宮","next":[1163919,1151041,1163906,1163913,1163907,1163927,1163904,1163903],"voronoi":{"lat":33.786787,"lng":135.821106,"delta_lat":[0,87444,-90388,-51585,-46037,-48356,5112,25637],"delta_lng":[0,-123295,-9206,26154,49957,179922,15216,-13490]}},
    {"code":1163906,"id":"b87e71","name":"紀伊天満","name_kana":"きいてんま","lat":33.636706,"lng":135.93457,"prefecture":30,"lines":[11639],"attr":"eco","postal_code":"649-5331","address":"東牟婁郡那智勝浦町大字天満","next":[1163905,1163908,1163907,1163913],"voronoi":{"lat":33.686221,"lng":135.764716,"delta_lat":[0,-48356,-14079,54031],"delta_lng":[0,179922,-16670,-154512]}},
    {"code":1163903,"id":"f724f4","name":"紀伊佐野","name_kana":"きいさの","lat":33.679891,"lng":135.970447,"prefecture":30,"lines":[11639],"attr":"eco","postal_code":"647-0071","address":"新宮市佐野","next":[1163904,1151041,1163902,1163905],"voronoi":{"lat":33.672861,"lng":135.985604,"delta_lat":[0,42893,71034,-118173],"delta_lng":[0,-28665,-135832,125258]}},
    {"code":1151040,"left":1151041,"right":1151039,"id":"387e75","name":"鵜殿","name_kana":"うどの","lat":33.736595,"lng":136.015364,"prefecture":24,"lines":[11510],"attr":"heat","postal_code":"519-5701","address":"南牟婁郡紀宝町鵜殿","next":[1151039,1151030,1151032,1151041,1163902,1163904],"voronoi":{"lat":33.541199,"lng":136.265589,"delta_lat":[0,157750,60282,-134512,-10986,-473530],"delta_lng":[0,-243637,-32533,368012,15525,580273]}},
    {"code":1151041,"id":"3ddb83","name":"新宮","name_kana":"しんぐう","lat":33.725119,"lng":135.994099,"prefecture":30,"lines":[11510,11639],"attr":"cool","postal_code":"647-0081","address":"新宮市新宮","next":[1163905,1151039,3200802,1163927,1151040,1163903,1163902,1163928,1151038],"voronoi":{"lat":33.935699,"lng":135.73667,"delta_lat":[0,-32889,-13432,-15146,-87444,-71034,-16804,60282,79219],"delta_lng":[0,-39696,94,744,123295,135832,65013,-32533,-92361]}},
    {"code":1151039,"id":"0a5976","name":"紀伊井田","name_kana":"きいいだ","lat":33.759801,"lng":136.023846,"prefecture":24,"lines":[11510],"attr":"heat","postal_code":"519-5711","address":"南牟婁郡紀宝町井田","next":[1151040,1151041,1151038,1151032],"voronoi":{"lat":33.676687,"lng":136.289095,"delta_lat":[0,161763,-79219,-134512],"delta_lng":[0,-392038,92361,368012]}},
    {"code":9965002,"left":9965003,"right":1151035,"id":"6c3790","name":"学門","name_kana":"がくもん","lat":33.89627,"lng":135.156604,"prefecture":30,"lines":[99650],"attr":"cool","postal_code":"644-0011","address":"御坊市湯川町財部７５０-２","next":[1163937,9965003,9965005,1163938,9965004,1163936],"voronoi":{"lat":33.888486,"lng":135.162787,"delta_lat":[0,327,15311,-4213,-16434,-2268],"delta_lng":[0,-595,-15538,22477,12704,31]}},
    {"code":9965003,"left":1180416,"right":1180412,"id":"e1c35a","name":"紀伊御坊","name_kana":"きいごぼう","lat":33.894292,"lng":135.154655,"prefecture":30,"lines":[99650],"attr":"cool","postal_code":"644-0002","address":"御坊市薗２７５","next":[9965002,1163939,9965004,1163938],"voronoi":{"lat":33.888814,"lng":135.162193,"delta_lat":[0,13744,4044,-2477],"delta_lng":[0,-37122,13434,8150]}},
    {"code":1180416,"left":1180418,"right":1180415,"id":"a3584e","name":"桑野","name_kana":"くわの","lat":33.87466,"lng":134.613287,"prefecture":36,"lines":[11804],"attr":"cool","postal_code":"779-1402","address":"阿南市桑野町岡元","next":[1180406,1180411,1180410,1180409,1180418,1180415,1180417],"voronoi":{"lat":33.912028,"lng":134.496948,"delta_lat":[0,5973,3300,-5053,-857,-71860,595],"delta_lng":[0,18524,70140,32377,1998,26123,-3757]}},
    {"code":1180418,"left":1180419,"right":1180417,"id":"711f40","name":"阿波福井","name_kana":"あわふくい","lat":33.824074,"lng":134.605272,"prefecture":36,"lines":[11804],"attr":"cool","postal_code":"779-1620","address":"阿南市福井町中連","next":[1180421,1180415,1180416,1180419,1180420,1180417],"voronoi":{"lat":33.822501,"lng":134.543787,"delta_lat":[0,-8925,-6879,-56334,93169,595],"delta_lng":[0,14326,16658,201748,-130408,-3757]}},
    {"code":1180419,"left":1180420,"id":"4de7d9","name":"由岐","name_kana":"ゆき","lat":33.776032,"lng":134.591857,"prefecture":36,"lines":[11804],"attr":"cool","postal_code":"779-2103","address":"海部郡美波町西の地東地","next":[1163934,9965005,1180414,1163924,1180420,1180418,1180423,1163933,1180415],"voronoi":{"lat":33.67769,"lng":134.902768,"delta_lat":[0,-86369,-80710,-149068,-70236,361460,153929,-56334,-17226],"delta_lng":[0,17048,5470,4768,-14371,-277807,-63106,201748,32593]}},
    {"code":1180420,"id":"689cad","name":"田井ノ浜","name_kana":"たいのはま","lat":33.772863,"lng":134.584127,"prefecture":36,"lines":[11804],"attr":"cool","postal_code":"779-2109","address":"海部郡美波町田井","next":[1180421,1180419,1180423,1180418],"voronoi":{"lat":33.813575,"lng":134.558113,"delta_lat":[0,-132358,-28450,153929],"delta_lng":[0,56425,23339,-63106]}},
    {"code":1180417,"id":"7b33b1","name":"新野(徳島)","original_name":"新野","name_kana":"あらたの","lat":33.846813,"lng":134.600283,"prefecture":36,"lines":[11804],"attr":"cool","postal_code":"779-1510","address":"阿南市新野町信里","next":[1180422,1180406,1180421,1180307,1180418,1180416,1180405],"voronoi":{"lat":33.895578,"lng":134.434681,"delta_lat":[0,-9561,-43992,-19525,21626,67902,-3382],"delta_lng":[0,-11780,70064,50821,98567,-145405,-17987]}},
    {"code":1180415,"left":9965005,"right":9965004,"id":"d3dce3","name":"阿波橘","name_kana":"あわたちばな","lat":33.888472,"lng":134.651281,"prefecture":36,"lines":[11804],"attr":"cool","postal_code":"774-0021","address":"阿南市津乃峰町東分","next":[1180414,1180418,1180411,1180416,1180419,1180413],"voronoi":{"lat":33.733137,"lng":134.809111,"delta_lat":[0,17226,93169,71860,371,-9233],"delta_lng":[0,-32593,-130408,-26123,3487,25711]}},
    {"code":9965005,"id":"e531f9","name":"西御坊","name_kana":"にしごぼう","lat":33.886796,"lng":135.152991,"prefecture":30,"lines":[99650],"attr":"cool","postal_code":"644-0002","address":"御坊市薗５６３","next":[1163939,9965002,1180419,9965004,1180414,1163936,1163935,1163934],"voronoi":{"lat":33.591321,"lng":134.919817,"delta_lat":[0,86369,180430,26598,3768,-7277,-23054,-9987],"delta_lng":[0,-17048,6010,132694,121315,19079,4360,-4419]}},
    {"code":9965004,"id":"75aff9","name":"市役所前(和歌山)","original_name":"市役所前","name_kana":"しやくしょまえ","lat":33.889565,"lng":135.152905,"prefecture":30,"lines":[99650],"attr":"cool","postal_code":"644-0002","address":"御坊市薗３５１-２","next":[9965005,9965003,1163939,9965002],"voronoi":{"lat":33.888814,"lng":135.162193,"delta_lat":[0,13744,-17839,3768],"delta_lng":[0,-37122,-83598,121315]}},
    {"code":1180412,"left":1180410,"right":1163939,"id":"f844b6","name":"阿波中島","name_kana":"あわなかしま","lat":33.941223,"lng":134.664834,"prefecture":36,"lines":[11804],"attr":"cool","postal_code":"779-1242","address":"阿南市那賀川町赤池","next":[1180414,1180413,1180411,1163940,1180501,1163946,1180408],"voronoi":{"lat":34.038351,"lng":134.688106,"delta_lat":[0,-106640,-7023,10639,76923,100428,-33641],"delta_lng":[0,-37871,60993,186528,-4615,-35399,-141706]}},
    {"code":1180410,"left":1180413,"right":1180409,"id":"bca086","name":"羽ノ浦","name_kana":"はのうら","lat":33.957293,"lng":134.626183,"prefecture":36,"lines":[11804],"attr":"heat","postal_code":"779-1102","address":"阿南市羽ノ浦町宮倉","next":[1180416,1180408,1180411,1180409],"voronoi":{"lat":33.921302,"lng":134.585613,"delta_lat":[0,-5053,91534,-25524],"delta_lng":[0,32377,43966,-30644]}},
    {"code":1180413,"left":1180411,"id":"54e5d9","name":"阿南","name_kana":"あなん","lat":33.919129,"lng":134.66229,"prefecture":36,"lines":[11804],"attr":"cool","postal_code":"774-0030","address":"阿南市富岡町字今福寺","next":[1180412,1180414,1180415,1180411],"voronoi":{"lat":33.924687,"lng":134.711229,"delta_lat":[0,-18158,9233,15948],"delta_lng":[0,-62043,-25711,26761]}},
    {"code":1180411,"id":"877eff","name":"西原(徳島)","original_name":"西原","name_kana":"にしばら","lat":33.9483,"lng":134.644906,"prefecture":36,"lines":[11804],"attr":"heat","postal_code":"779-1233","address":"阿南市那賀川町大京原","next":[1180408,1180416,1180415,1180412,1180410,1180413],"voronoi":{"lat":33.915763,"lng":134.623474,"delta_lat":[0,-371,857,91534,30568,-106640],"delta_lng":[0,-3487,-1998,43966,26151,-37871]}},
    {"code":1180409,"id":"0e1199","name":"立江","name_kana":"たつえ","lat":33.970336,"lng":134.608785,"prefecture":36,"lines":[11804],"attr":"heat","postal_code":"773-0017","address":"小松島市立江町字株木","next":[1180406,1180416,1180408,1180410],"voronoi":{"lat":33.921302,"lng":134.585613,"delta_lat":[0,-3300,46500,17757],"delta_lng":[0,-70140,47378,68461]}},
    {"code":1163939,"left":1180414,"right":1163940,"id":"5967fa","name":"紀伊内原","name_kana":"きいうちはら","lat":33.92578,"lng":135.145177,"prefecture":30,"lines":[11639],"attr":"heat","postal_code":"649-1202","address":"日高郡日高町大字萩原","next":[9965005,9965003,9965004,1180414,1163938,1163940,1163941,1163937],"voronoi":{"lat":33.96397,"lng":135.179199,"delta_lat":[0,-105515,-334,26598,17839,4044,19410,37354],"delta_lng":[0,-270436,16,132694,83598,13434,25609,17879]}},
    {"code":1180414,"id":"dda5df","name":"見能林","name_kana":"みのばやし","lat":33.902984,"lng":134.667015,"prefecture":36,"lines":[11804],"attr":"cool","postal_code":"774-0017","address":"阿南市見能林町清水山東","next":[1180419,1180412,1180415,9965005,1163939,1180413,1163940],"voronoi":{"lat":33.935326,"lng":134.897756,"delta_lat":[0,-10639,-18158,-173393,-55446,180430,334],"delta_lng":[0,-186528,-62043,159926,93657,6010,-16]}},
    {"code":1163940,"id":"1618b2","name":"紀伊由良","name_kana":"きいゆら","lat":33.969028,"lng":135.128303,"prefecture":30,"lines":[11639],"attr":"heat","postal_code":"649-1111","address":"日高郡由良町大字里","next":[1163945,1163946,1163941,1180412,1163939,1180414],"voronoi":{"lat":33.935326,"lng":134.897756,"delta_lat":[0,76923,10960,3493,-62733,-105515],"delta_lng":[0,-4615,112410,96704,76943,-270436]}},
    {"code":1151035,"left":1163931,"right":1151033,"id":"79f0e6","name":"有井","name_kana":"ありい","lat":33.876213,"lng":136.085585,"prefecture":24,"lines":[11510],"attr":"heat","postal_code":"519-4325","address":"熊野市有馬町","next":[1151036,3200802,1151034,3200742,3100716,1151032,1151033],"voronoi":{"lat":33.816109,"lng":136.160428,"delta_lat":[0,270716,-19107,-10295,-31495,-234795,17972],"delta_lng":[0,-276537,-41213,-7323,-21799,364072,-11586]}},
    {"code":1163931,"left":1163934,"right":1151037,"id":"018481","name":"南部","name_kana":"みなべ","lat":33.767597,"lng":135.324223,"prefecture":30,"lines":[11639],"attr":"heat","postal_code":"645-0002","address":"日高郡みなべ町芝","next":[1163930,1163935,1163943,1163932,1163936,1163926,3200740,3200802,9965114],"voronoi":{"lat":33.992011,"lng":135.441608,"delta_lat":[0,-261,-1015,-123466,-204660,9968,306715,1134,12036],"delta_lng":[0,-594,-1118,-111409,-58435,14412,199876,-2062,-24551]}},
    {"code":1163934,"left":1163932,"right":1163935,"id":"6fe31e","name":"印南","name_kana":"いなみ","lat":33.818592,"lng":135.219856,"prefecture":30,"lines":[11639],"attr":"heat","postal_code":"649-1534","address":"日高郡印南町大字印南","next":[1180419,1163933,9965005,1163935],"voronoi":{"lat":33.848168,"lng":135.181807,"delta_lat":[0,-256847,-80710,317410],"delta_lng":[0,-261991,5470,326057]}},
    {"code":1163932,"left":1163933,"id":"07bc03","name":"岩代","name_kana":"いわしろ","lat":33.780372,"lng":135.27948,"prefecture":30,"lines":[11639],"attr":"heat","postal_code":"645-0014","address":"日高郡みなべ町西岩代","next":[1163924,1163926,1163935,1163933,1163931,1163925],"voronoi":{"lat":33.662609,"lng":135.270052,"delta_lat":[0,204660,-33555,-267314,10697,48587],"delta_lng":[0,58435,-48910,-114322,14660,54514]}},
    {"code":1163933,"id":"7d054e","name":"切目","name_kana":"きりめ","lat":33.796798,"lng":135.241072,"prefecture":30,"lines":[11639],"attr":"heat","postal_code":"649-1527","address":"日高郡印南町大字島田","next":[1163934,1163932,1163935,1180419,1163924],"voronoi":{"lat":33.361544,"lng":134.930055,"delta_lat":[0,149068,317410,5693,-267314],"delta_lng":[0,-4768,326057,28233,-114322]}},
    {"code":1163935,"id":"c8de05","name":"稲原","name_kana":"いなはら","lat":33.852823,"lng":135.229774,"prefecture":30,"lines":[11639],"attr":"heat","postal_code":"649-1532","address":"日高郡印南町大字印南原","next":[1163936,1163932,1163931,9965005,1163933,1163934],"voronoi":{"lat":33.848168,"lng":135.181807,"delta_lat":[0,9987,132580,-123466,-33555,-5693],"delta_lng":[0,4419,253669,-111409,-48910,-28233]}},
    {"code":1151037,"left":1151038,"right":1151036,"id":"f4ac8b","name":"紀伊市木","name_kana":"きいいちぎ","lat":33.827932,"lng":136.055371,"prefecture":24,"lines":[11510],"attr":"heat","postal_code":"519-5203","address":"南牟婁郡御浜町大字下市木","next":[1151032,3200802,1151036,1151038],"voronoi":{"lat":33.972509,"lng":135.770168,"delta_lat":[0,17099,-250424,-49151],"delta_lng":[0,14310,441150,48789]}},
    {"code":1151038,"id":"101fd1","name":"阿田和","name_kana":"あたわ","lat":33.804806,"lng":136.042416,"prefecture":24,"lines":[11510],"attr":"heat","postal_code":"519-5204","address":"南牟婁郡御浜町大字阿田和","next":[1151039,3200802,1151037,1151041,1151032],"voronoi":{"lat":33.690032,"lng":136.274417,"delta_lat":[0,282476,-36810,-97248,-161763],"delta_lng":[0,-504249,-33499,160388,392038]}},
    {"code":1151036,"id":"e351fa","name":"神志山","name_kana":"こうしやま","lat":33.839881,"lng":136.062154,"prefecture":24,"lines":[11510],"attr":"heat","postal_code":"519-5203","address":"南牟婁郡御浜町大字下市木","next":[3200802,1151035,1151037,1151032],"voronoi":{"lat":33.989607,"lng":135.784479,"delta_lat":[0,36320,-234795,-51949],"delta_lng":[0,29077,364072,48001]}},
    {"code":1151033,"left":1163938,"right":1151031,"id":"b1c561","name":"大泊","name_kana":"おおどまり","lat":33.902242,"lng":136.11806,"prefecture":24,"lines":[11510],"attr":"heat","postal_code":"519-4322","address":"熊野市大泊町","next":[1151034,1151032,1151031,1151035],"voronoi":{"lat":33.926117,"lng":136.120301,"delta_lat":[0,95961,-205969,-7004],"delta_lng":[0,-94085,134212,5614]}},
    {"code":1163938,"left":1151034,"right":1163937,"id":"4cb64a","name":"御坊","name_kana":"ごぼう","lat":33.907842,"lng":135.158773,"prefecture":30,"lines":[11639,99650],"attr":"heat","postal_code":"644-0012","address":"御坊市湯川町小松原","next":[1163939,9965002,9965003,1163937],"voronoi":{"lat":33.904124,"lng":135.146655,"delta_lat":[0,2477,19410,-26100],"delta_lng":[0,-8150,25609,5018]}},
    {"code":1151034,"left":1163936,"id":"3fcb1b","name":"熊野市","name_kana":"くまのし","lat":33.889656,"lng":136.098745,"prefecture":24,"lines":[11510],"attr":"heat","postal_code":"519-4324","address":"熊野市井戸町","next":[1151033,1151031,1151025,1151035,3100716],"voronoi":{"lat":34.053679,"lng":135.999645,"delta_lat":[0,-31602,-205969,270716,12184],"delta_lng":[0,26571,134212,-276537,24202]}},
    {"code":1163936,"id":"a5cc8b","name":"和佐","name_kana":"わさ","lat":33.896954,"lng":135.206709,"prefecture":30,"lines":[11639],"attr":"heat","postal_code":"649-1443","address":"日高郡日高川町和佐","next":[1163935,9965005,1163943,1163942,1163931,1163937,1163941,9965002],"voronoi":{"lat":33.858156,"lng":135.186226,"delta_lat":[0,132580,1015,-9518,-9810,-4580,-84365,-2268],"delta_lng":[0,253669,1118,-158402,-49678,-12424,-38674,31]}},
    {"code":1163937,"id":"e8e07b","name":"道成寺","name_kana":"どうじょうじ","lat":33.911118,"lng":135.175811,"prefecture":30,"lines":[11639],"attr":"heat","postal_code":"649-1341","address":"御坊市藤田町藤井","next":[9965002,1163941,1163936,1163939,1163938],"voronoi":{"lat":33.883478,"lng":135.181836,"delta_lat":[0,84365,-4477,-37354,-26100],"delta_lng":[0,38674,-38517,-17879,5018]}},
    {"code":1151031,"left":1151032,"right":1151030,"id":"1a48a0","name":"新鹿","name_kana":"あたしか","lat":33.927886,"lng":136.144215,"prefecture":24,"lines":[11510],"attr":"eco","postal_code":"519-4206","address":"熊野市新鹿町","next":[1151025,1151034,1151029,1151030,1151032,1151033],"voronoi":{"lat":34.022077,"lng":136.026215,"delta_lat":[0,31602,-30322,-58892,-55418,17069],"delta_lng":[0,-26571,96612,56597,17438,-49991]}},
    {"code":1151032,"id":"fc9eec","name":"波田須","name_kana":"はだす","lat":33.910091,"lng":136.138139,"prefecture":24,"lines":[11510],"attr":"eco","postal_code":"519-4207","address":"熊野市波田須町","next":[1151037,1151040,1151031,1151033,1151039,1151035,1151036,1151030,1151038],"voronoi":{"lat":33.62472,"lng":136.35743,"delta_lat":[0,-10986,295314,17069,-117012,-17972,-51949,-49151,-13345],"delta_lng":[0,15525,-202664,-49991,45741,11586,48001,48789,14678]}},
    {"code":1151030,"id":"abb276","name":"二木島","name_kana":"にぎしま","lat":33.939424,"lng":136.180882,"prefecture":24,"lines":[11510],"attr":"eco","postal_code":"519-4204","address":"熊野市二木島町","next":[1151029,1151027,1151040,1151031,3101516,1163904,1151032],"voronoi":{"lat":33.909047,"lng":136.170292,"delta_lat":[0,55418,-31466,-519407,-427932,154543,473530],"delta_lng":[0,-17438,114358,643594,247417,-204994,-580273]}}
  ]
}