{
  "name":"segment53",
  "root":9923210,
  "east":140.497616,
  "west":137.400288,
  "south":38.244861,
  "north":39.911567,
  "station_size":155,
  "node_list":[
    {"code":9923210,"left":1121444,"right":1121632,"id":"9b73a1","name":"間沢","name_kana":"まざわ","closed":true,"lat":38.430111,"lng":140.131694,"prefecture":6,"lines":[99232],"postal_code":"990-0703","address":"山形県西村山郡西川町大字間沢２２−１１","open_date":"1928-09-17","closed_date":"1974-11-18","next":[9921116,9923209,9921117,1121423,9921115,1121812,1121422,1121432,1122006,1121431,1121429,1122005,1122004,9921114],"voronoi":{"lat":38.330981,"lng":140.000613,"delta_lat":[0,-16046,-5167,2481,267843,2165,4300,-20943,-4342,-101943,-38307,-10141,-29423,-26188],"delta_lng":[0,72430,36477,1554,69179,-12175,-92146,-111149,-6185,-106652,-27112,-2180,-4073,82791]},"impl":false},
    {"code":1121444,"left":9923003,"right":1120232,"id":"5622d7","name":"小砂川","name_kana":"こさがわ","lat":39.137507,"lng":139.885692,"prefecture":5,"lines":[11214],"attr":"eco","postal_code":"018-0143","address":"にかほ市象潟町小砂川","next":[1121443,1121426,1121446,1121445],"voronoi":{"lat":39.185369,"lng":139.83982,"delta_lat":[0,228206,-217417,-87606],"delta_lng":[0,-971433,376612,716927]},"impl":true},
    {"code":9923003,"left":1121425,"right":1121435,"id":"6054f7","name":"安丹","name_kana":"あんたん","closed":true,"lat":38.752861,"lng":139.793083,"prefecture":6,"lines":[99230],"postal_code":"997-0057","address":"山形県鶴岡市安丹１５３","open_date":"1948-08-01","closed_date":"1975-04-01","next":[9923005,9923004,9923006,9923002,1121430],"voronoi":{"lat":38.747992,"lng":139.780431,"delta_lat":[0,14616,33417,6458,-86646],"delta_lng":[0,738,27485,7146,-21537]},"impl":false},
    {"code":1121425,"left":1121420,"right":9923007,"id":"70a64d","name":"あつみ温泉","name_kana":"あつみおんせん","lat":38.624217,"lng":139.587955,"prefecture":6,"lines":[11214],"attr":"eco","postal_code":"999-7205","address":"鶴岡市温海","next":[1121428,1121427,1121429,1121426,1121424],"voronoi":{"lat":39.388319,"lng":138.38312,"delta_lat":[0,-794133,-2257,-59950,-58226],"delta_lng":[0,1306562,2491,52633,36226]},"impl":true},
    {"code":1121420,"left":1121418,"right":1121423,"id":"4b9288","name":"越後寒川","name_kana":"えちごかんがわ","lat":38.448689,"lng":139.489948,"prefecture":15,"lines":[11214],"attr":"eco","postal_code":"959-3653","address":"村上市寒川","next":[1140825,1121421,1121915,1121423,1121424,1121418,1121916,1121419],"voronoi":{"lat":38.315066,"lng":139.703317,"delta_lat":[0,8475,835,393846,537986,144419,-197036,-854605],"delta_lng":[0,18663,1243,-595722,-975335,-269702,210252,1530432]},"impl":true},
    {"code":1121418,"left":1121416,"right":1121419,"id":"f7a7c8","name":"桑川","name_kana":"くわがわ","lat":38.375162,"lng":139.458838,"prefecture":15,"lines":[11214],"attr":"eco","postal_code":"959-3665","address":"村上市桑川","next":[1121417,1140831,1121419,1121420,1121916],"voronoi":{"lat":38.348986,"lng":139.623148,"delta_lat":[0,233234,-158779,-114214,5839],"delta_lng":[0,-852716,171533,752546,8806]},"impl":true},
    {"code":1121416,"left":1121417,"id":"8310d3","name":"間島","name_kana":"まじま","lat":38.273078,"lng":139.450229,"prefecture":15,"lines":[11214],"attr":"heat","postal_code":"958-0005","address":"村上市大字間島","next":[1121414,1121417,1121410,1121415,1121411,1140604,1140608],"voronoi":{"lat":38.213341,"lng":139.202515,"delta_lat":[0,-6288,8026,81215,-4666,-58601,-9342],"delta_lng":[0,50189,76313,330569,-588207,70440,16770]},"impl":true},
    {"code":1121417,"id":"876403","name":"越後早川","name_kana":"えちごはやかわ","lat":38.316185,"lng":139.449887,"prefecture":15,"lines":[11214],"attr":"heat","postal_code":"958-0002","address":"村上市大字早川字上境","next":[1121416,100512,1121418,1121916,1121415,1140831,1140604],"voronoi":{"lat":38.296294,"lng":139.659587,"delta_lat":[0,3296,9637,114214,-100952,-30332,-529],"delta_lng":[0,23660,11264,-752546,97208,31491,716]},"impl":true},
    {"code":1121419,"id":"2ab7bf","name":"今川(新潟)","original_name":"今川","name_kana":"いまがわ","lat":38.410081,"lng":139.468389,"prefecture":15,"lines":[11214],"attr":"eco","postal_code":"959-3662","address":"村上市今川","next":[1140831,1140829,1140830,1140825,1140826,1121418,1121420],"voronoi":{"lat":39.203591,"lng":138.092716,"delta_lat":[0,-70104,-50326,-300680,-185238,-15023,-233234],"delta_lng":[0,72750,52963,328949,205982,17072,852716]},"impl":true},
    {"code":1121423,"left":1121422,"right":1121424,"id":"86cd3f","name":"鼠ヶ関","name_kana":"ねずがせき","lat":38.555433,"lng":139.548827,"prefecture":6,"lines":[11214],"attr":"eco","postal_code":"999-7126","address":"山形県鶴岡市鼠ヶ関乙156-2","next":[1121429,1121420,9923210,1121422,1121424,1121421],"voronoi":{"lat":38.718222,"lng":139.127501,"delta_lat":[0,537986,-797516,-37670,-10141,264733],"delta_lng":[0,-975335,1640060,32608,-2180,-606674]},"impl":true},
    {"code":1121422,"left":1121421,"id":"8309b1","name":"府屋","name_kana":"ふや","lat":38.513324,"lng":139.530452,"prefecture":15,"lines":[11214],"attr":"eco","postal_code":"959-3907","address":"村上市府屋","next":[1121421,9923210,1121915,1121423,9921114],"voronoi":{"lat":38.410881,"lng":139.822653,"delta_lat":[0,264733,-319376,14142,11078],"delta_lng":[0,-606674,565967,29087,7547]},"impl":true},
    {"code":1121421,"id":"e830f5","name":"勝木","name_kana":"がつぎ","lat":38.490315,"lng":139.517468,"prefecture":15,"lines":[11214],"attr":"eco","postal_code":"959-3942","address":"村上市勝木","next":[1121915,1121420,1121422,1121423],"voronoi":{"lat":38.718222,"lng":139.127501,"delta_lat":[0,-393846,31862,319376],"delta_lng":[0,595722,58724,-565967]},"impl":true},
    {"code":1121424,"id":"3c50de","name":"小岩川","name_kana":"こいわがわ","lat":38.590399,"lng":139.56583,"prefecture":6,"lines":[11214],"attr":"eco","postal_code":"999-7122","address":"鶴岡市小岩川","next":[1121429,1121509,1121420,1121426,1140825,1121425,1121423],"voronoi":{"lat":39.256208,"lng":138.152166,"delta_lat":[0,144419,315977,-115712,-212573,-914566,-15061],"delta_lng":[0,-269702,-367673,529497,338832,1397912,11194]},"impl":true},
    {"code":9923007,"left":1121428,"right":9923005,"id":"01adb0","name":"湯野浜温泉","name_kana":"ゆのはまおんせん","closed":true,"lat":38.77975,"lng":139.751556,"prefecture":6,"lines":[99230],"postal_code":"997-1201","address":"山形県鶴岡市湯野浜１丁目１-７","open_date":"1929-12-08","closed_date":"1975-04-01","next":[1121429,1121427,9923005,9923006,1121438,1121442,1121428,9923004],"voronoi":{"lat":38.776039,"lng":139.760413,"delta_lat":[0,137624,176580,28774,-293224,-63193,-13386,14762],"delta_lng":[0,-56207,-266361,-65640,251558,65131,43975,22560]},"impl":false},
    {"code":1121428,"left":1121427,"right":1121429,"id":"c2ac85","name":"三瀬","name_kana":"さんぜ","lat":38.699448,"lng":139.673643,"prefecture":6,"lines":[11214],"attr":"eco","postal_code":"999-7463","address":"鶴岡市大字三瀬","next":[1121425,1121427,1121429,9923007],"voronoi":{"lat":38.825793,"lng":139.623763,"delta_lat":[0,-233864,-59950,230621],"delta_lng":[0,68410,52633,-55912]},"impl":true},
    {"code":1121427,"left":1121426,"id":"077540","name":"小波渡","name_kana":"こばと","lat":38.692484,"lng":139.649836,"prefecture":6,"lines":[11214],"attr":"eco","postal_code":"999-7462","address":"鶴岡市大字小波渡","next":[9923007,1121425,1121428,1121443,1121442,1121426],"voronoi":{"lat":39.140111,"lng":139.335627,"delta_lat":[0,-16459,-4636,-293224,-233864,2257],"delta_lng":[0,28936,7642,251558,68410,-2491]},"impl":true},
    {"code":1121426,"id":"3628ed","name":"五十川","name_kana":"いらがわ","lat":38.670658,"lng":139.616182,"prefecture":6,"lines":[11214],"attr":"eco","postal_code":"999-7207","address":"鶴岡市五十川","next":[1121509,1121446,1121425,1121444,1121443,1121424,1121427],"voronoi":{"lat":39.388319,"lng":138.38312,"delta_lat":[0,212573,-141247,-46069,-217417,-56047,-545926],"delta_lng":[0,-338832,737583,86516,376612,90628,354055]},"impl":true},
    {"code":1121429,"id":"423754","name":"羽前水沢","name_kana":"うぜんみずさわ","lat":38.713444,"lng":139.731372,"prefecture":6,"lines":[11214],"attr":"eco","postal_code":"999-7543","address":"鶴岡市大字大広字山崎","next":[9923007,1121430,1121424,1121423,1121425,1121428,1121431,9923210,9923004],"voronoi":{"lat":38.664111,"lng":139.799443,"delta_lat":[0,-204782,-38307,37670,15061,58226,230621,-13386,-678],"delta_lng":[0,52503,-27112,-32608,-11194,-36226,-55912,43975,746]},"impl":true},
    {"code":9923005,"left":9923004,"right":9923006,"id":"9f0451","name":"善宝寺","name_kana":"ぜんぽうじ","closed":true,"lat":38.772417,"lng":139.769306,"prefecture":6,"lines":[99230],"postal_code":"997-1117","address":"山形県鶴岡市下川関根１０７","open_date":"1929-12-08","closed_date":"1975-04-01","next":[9923003,9923006,9923007,9923004],"voronoi":{"lat":38.796024,"lng":139.808653,"delta_lat":[0,-19986,-12063,-1368],"delta_lng":[0,-48241,-4984,25740]},"impl":false},
    {"code":9923004,"left":1121430,"id":"900b2d","name":"北大山","name_kana":"きたおおやま","closed":true,"lat":38.754111,"lng":139.768333,"prefecture":6,"lines":[99230],"postal_code":"997-1121","address":"山形県鶴岡市大山近田３７−１","open_date":"1929-12-08","closed_date":"1975-04-01","next":[9923003,9923005,1121430,1121429,9923007],"voronoi":{"lat":38.749213,"lng":139.732869,"delta_lat":[0,-678,-544,14616,1368],"delta_lng":[0,746,46816,738,-25740]},"impl":false},
    {"code":1121430,"id":"807776","name":"羽前大山","name_kana":"うぜんおおやま","lat":38.742155,"lng":139.768194,"prefecture":6,"lines":[11214],"attr":"eco","postal_code":"997-1124","address":"鶴岡市大山１丁目","next":[1121429,1121431,9923004,9923003,9923002],"voronoi":{"lat":38.715836,"lng":139.794262,"delta_lat":[0,32155,544,-84425,10015],"delta_lng":[0,-13832,-46816,65828,305]},"impl":true},
    {"code":9923006,"id":"578509","name":"七窪","name_kana":"ななくぼ","closed":true,"lat":38.784889,"lng":139.764139,"prefecture":6,"lines":[99230],"postal_code":"997-1117","address":"山形県鶴岡市下川龍花崎３６−４８２","open_date":"1940-07-01","closed_date":"1975-04-01","next":[1121438,9923005,9923007,1121434,9923003,1121433,9923002,1121437],"voronoi":{"lat":38.836775,"lng":139.828793,"delta_lat":[0,-13836,-20457,-6458,-19986,137624,-71700,-3170],"delta_lng":[0,2567,-15560,-7146,-48241,-56207,120282,3491]},"impl":false},
    {"code":1121435,"left":1121434,"right":1121439,"id":"1ff423","name":"北余目","name_kana":"きたあまるめ","lat":38.867538,"lng":139.908074,"prefecture":6,"lines":[11214],"attr":"heat","postal_code":"999-7703","address":"東田川郡庄内町平岡","next":[1121436,1121434,1121437,1122009],"voronoi":{"lat":38.861908,"lng":139.95211,"delta_lat":[0,-15648,34466,2570],"delta_lng":[0,-110968,42297,97490]},"impl":true},
    {"code":1121434,"left":1121432,"right":1122008,"id":"5dbdfe","name":"余目","name_kana":"あまるめ","lat":38.844321,"lng":139.911348,"prefecture":6,"lines":[11214,11220],"attr":"eco","postal_code":"999-7700","address":"東田川郡庄内町沢田","next":[1121433,1121435,1122009,9923006,1121437],"voronoi":{"lat":38.838792,"lng":139.827978,"delta_lat":[0,-2017,-10456,35589,-15648],"delta_lng":[0,814,95405,27912,-110968]},"impl":true},
    {"code":1121432,"left":1121431,"right":1121433,"id":"9b51eb","name":"藤島","name_kana":"ふじしま","lat":38.768646,"lng":139.894087,"prefecture":6,"lines":[11214],"attr":"eco","postal_code":"999-7611","address":"鶴岡市上藤島","next":[1122009,1122008,9923002,1121433,9923210,1122006,1121431],"voronoi":{"lat":38.798965,"lng":139.843061,"delta_lat":[0,10403,-29333,-4914,-118341,-91167,-4342],"delta_lng":[0,-2637,92035,4800,35813,-8289,-6185]},"impl":true},
    {"code":1121431,"left":9923002,"id":"949d24","name":"鶴岡","name_kana":"つるおか","lat":38.74011,"lng":139.83538,"prefecture":6,"lines":[11214,99230],"attr":"eco","postal_code":"997-0015","address":"鶴岡市末広町１丁目","next":[9923002,1121430,1121429,9923210,1121432],"voronoi":{"lat":38.459328,"lng":139.851946,"delta_lat":[0,204782,10015,124840,-237694],"delta_lng":[0,-52503,305,43313,115537]},"impl":true},
    {"code":9923002,"id":"94332c","name":"京田","name_kana":"きょうでん","closed":true,"lat":38.748,"lng":139.812639,"prefecture":6,"lines":[99230],"postal_code":"997-0054","address":"山形県鶴岡市高田宮ノ腰５５","open_date":"1929-12-08","closed_date":"1975-04-01","next":[1121431,1121432,9923006,9923003,1121430,1121433],"voronoi":{"lat":38.82294,"lng":139.831359,"delta_lat":[0,-20457,-86646,-41711,124840,10403],"delta_lng":[0,-15560,-21537,5485,43313,-2637]},"impl":false},
    {"code":1121433,"id":"0ba51b","name":"西袋","name_kana":"にしぶくろ","lat":38.811528,"lng":139.907754,"prefecture":6,"lines":[11214],"attr":"eco","postal_code":"999-7746","address":"東田川郡庄内町西袋","next":[1121434,9923006,1121432,1122009,9923002],"voronoi":{"lat":38.82294,"lng":139.831359,"delta_lat":[0,13836,-10456,-46284,29333],"delta_lng":[0,-2567,95405,8261,-92035]},"impl":true},
    {"code":1122008,"left":1122006,"right":1122009,"id":"198e4f","name":"狩川","name_kana":"かりかわ","lat":38.79367,"lng":139.976777,"prefecture":6,"lines":[11220],"attr":"eco","postal_code":"999-6601","address":"東田川郡庄内町狩川","next":[1122007,1121432,1122009,1122006],"voronoi":{"lat":38.863142,"lng":140.004466,"delta_lat":[0,-88021,-118341,41759],"delta_lng":[0,-67208,35813,18229]},"impl":true},
    {"code":1122006,"left":1122007,"id":"22ee90","name":"高屋","name_kana":"たかや","lat":38.752567,"lng":140.070936,"prefecture":6,"lines":[11220],"attr":"eco","postal_code":"999-6401","address":"最上郡戸沢村大字古口字高屋番外地","next":[1120203,1122007,1122008,1121432,9923210,1122005],"voronoi":{"lat":38.586556,"lng":140.075932,"delta_lat":[0,-20943,91167,41759,171324,-20870],"delta_lng":[0,-111149,8289,18229,128335,10256]},"impl":true},
    {"code":1122007,"id":"d219be","name":"清川","name_kana":"きよかわ","lat":38.790152,"lng":140.020761,"prefecture":6,"lines":[11220],"attr":"eco","postal_code":"999-6606","address":"東田川郡庄内町清川","next":[1120203,1122008,1121436,1120205,1122006,1121440,1122009,1121441],"voronoi":{"lat":38.917036,"lng":140.109712,"delta_lat":[0,-47172,-171324,164603,38441,55422,4710,2339],"delta_lng":[0,9924,-128335,13166,14148,51330,7608,4568]},"impl":true},
    {"code":1122009,"id":"4c34a1","name":"南野","name_kana":"みなみの","lat":38.81813,"lng":139.944742,"prefecture":6,"lines":[11220],"attr":"eco","postal_code":"999-7727","address":"東田川郡庄内町南野","next":[1121434,1121432,1122008,1121436,1121433,1121435,1122007],"voronoi":{"lat":38.863142,"lng":140.004466,"delta_lat":[0,-88021,4914,46284,35589,21388,18287],"delta_lng":[0,-67208,-4800,-8261,27912,28819,37686]},"impl":true},
    {"code":1121439,"left":1121442,"right":1121440,"id":"05febc","name":"本楯","name_kana":"もとたて","lat":38.968648,"lng":139.882081,"prefecture":6,"lines":[11214],"attr":"heat","postal_code":"999-8134","address":"酒田市大字本楯","next":[1121442,1121436,1121441,1121437,1121440,1121438],"voronoi":{"lat":39.015786,"lng":139.773472,"delta_lat":[0,2211,-4654,-69612,-8425,3441],"delta_lng":[0,67481,9538,78558,-24493,-31932]},"impl":true},
    {"code":1121442,"left":1121437,"right":1121443,"id":"4dc9a8","name":"吹浦","name_kana":"ふくら","lat":39.069934,"lng":139.878762,"prefecture":6,"lines":[11214],"attr":"cool","postal_code":"999-8521","address":"飽海郡遊佐町大字吹浦","next":[1121439,1121438,9923007,1121443,1121427,1121441],"voronoi":{"lat":39.123652,"lng":139.364562,"delta_lat":[0,-4636,-28774,-74456,2211,59987],"delta_lng":[0,7642,65640,335627,67481,122684]},"impl":true},
    {"code":1121437,"left":1121438,"id":"1f8fad","name":"東酒田","name_kana":"ひがしさかた","lat":38.907518,"lng":139.875495,"prefecture":6,"lines":[11214],"attr":"heat","postal_code":"998-0859","address":"酒田市大町","next":[1121435,1121436,1121434,1121439,1121438,9923006],"voronoi":{"lat":38.84626,"lng":139.841142,"delta_lat":[0,34466,54580,3441,-96785,-3170],"delta_lng":[0,42297,21117,-31932,-48136,3491]},"impl":true},
    {"code":1121438,"id":"9a34b3","name":"酒田","name_kana":"さかた","lat":38.922194,"lng":139.845987,"prefecture":6,"lines":[11214],"attr":"heat","postal_code":"998-0023","address":"酒田市幸町１丁目","next":[9923006,1121442,9923007,1121437,1121439],"voronoi":{"lat":39.015786,"lng":139.773472,"delta_lat":[0,74456,-176580,-71700,96785],"delta_lng":[0,-335627,266361,120282,48136]},"impl":true},
    {"code":1121443,"id":"39a299","name":"女鹿","name_kana":"めが","lat":39.098807,"lng":139.880963,"prefecture":6,"lines":[11214],"attr":"cool","postal_code":"999-8521","address":"飽海郡遊佐町大字吹浦","next":[1121444,1121427,1121426,1121442,1121445,1121441],"voronoi":{"lat":39.077984,"lng":139.963637,"delta_lat":[0,45668,16459,56047,-87606,-16519],"delta_lng":[0,-599074,-28936,-90628,716927,49822]},"impl":true},
    {"code":1121440,"left":1121436,"right":1121441,"id":"99186f","name":"南鳥海","name_kana":"みなみちょうかい","lat":38.98736,"lng":139.898662,"prefecture":6,"lines":[11214],"attr":"cool","postal_code":"999-8421","address":"酒田市大字米島","next":[1121441,1121439,1122007,1121436],"voronoi":{"lat":38.943731,"lng":139.929049,"delta_lat":[0,69612,-51628,-4710],"delta_lng":[0,-78558,227062,-7608]},"impl":true},
    {"code":1121436,"id":"271905","name":"砂越","name_kana":"さごし","lat":38.895195,"lng":139.907345,"prefecture":6,"lines":[11214],"attr":"heat","postal_code":"999-6701","address":"酒田市砂越","next":[1121435,1121437,1121439,1122007,1122009,1121440],"voronoi":{"lat":38.943731,"lng":139.929049,"delta_lat":[0,-8425,-54580,2570,18287,55422],"delta_lng":[0,-24493,-21117,97490,37686,51330]},"impl":true},
    {"code":1121441,"id":"5fe1af","name":"遊佐","name_kana":"ゆざ","lat":39.015943,"lng":139.905161,"prefecture":6,"lines":[11214],"attr":"cool","postal_code":"999-8301","address":"飽海郡遊佐町大字遊佐町","next":[1121440,1121439,1121445,1122007,1120205,1121443,1121442,9921012],"voronoi":{"lat":39.092635,"lng":140.050019,"delta_lat":[0,-602,-14049,-59987,-4654,-51628,2339,74687],"delta_lng":[0,-38271,-48111,-122684,9538,227062,4568,17309]},"impl":true},
    {"code":1120232,"left":1121454,"right":1121452,"id":"365622","name":"大久保(秋田)","original_name":"大久保","name_kana":"おおくぼ","lat":39.87089,"lng":140.063079,"prefecture":5,"lines":[11202],"attr":"eco","postal_code":"018-1401","address":"潟上市昭和大久保","next":[1120231,1120230,1120228,1121502,1121503,9922704,1120233],"voronoi":{"lat":39.897836,"lng":140.032734,"delta_lat":[0,-25175,-31800,-9736,998,2248,12405],"delta_lng":[0,768,21705,112651,16965,5182,-16938]},"impl":true},
    {"code":1121454,"left":1121449,"right":1121504,"id":"8ebf00","name":"岩城みなと","name_kana":"いわきみなと","lat":39.545487,"lng":140.055122,"prefecture":5,"lines":[11214],"attr":"heat","postal_code":"018-1301","address":"由利本荘市岩城内道川","next":[1121448,1121449,1121452,1121447,1121453,1121455,1121509],"voronoi":{"lat":39.546332,"lng":139.674841,"delta_lat":[0,-42328,-15486,-3863,41719,16593,49213],"delta_lng":[0,91072,43744,20887,272166,31855,-384431]},"impl":true},
    {"code":1121449,"left":1121447,"right":1121450,"id":"59e447","name":"西目","name_kana":"にしめ","lat":39.347536,"lng":140.018518,"prefecture":5,"lines":[11214],"attr":"eco","postal_code":"018-0604","address":"由利本荘市西目町沼田","next":[1121453,1121450,1121454,9921003,1121448,9921004,9921002],"voronoi":{"lat":39.326578,"lng":140.040764,"delta_lat":[0,-40389,202328,-3863,-39178,-45484,-50379],"delta_lng":[0,-14432,-216675,20887,128806,45748,34072]},"impl":true},
    {"code":1121447,"left":1121445,"right":1121448,"id":"33a328","name":"金浦","name_kana":"このうら","lat":39.256183,"lng":139.920662,"prefecture":5,"lines":[11214],"attr":"eco","postal_code":"018-0311","address":"にかほ市金浦","next":[1121448,1121454,1121509,1121446],"voronoi":{"lat":39.494564,"lng":139.223128,"delta_lat":[0,51767,-42328,-305708],"delta_lng":[0,451714,91072,233850]},"impl":true},
    {"code":1121445,"left":1121446,"id":"67c9c8","name":"上浜","name_kana":"かみはま","lat":39.164738,"lng":139.902823,"prefecture":5,"lines":[11214],"attr":"eco","postal_code":"018-0135","address":"にかほ市象潟町洗釜","next":[9921011,9921012,1121441,1121446,1121444,1121443,1121448],"voronoi":{"lat":39.145013,"lng":140.035476,"delta_lat":[0,-52378,-602,16519,76817,2492,-3318],"delta_lng":[0,14543,-38271,-49822,-122106,173656,6717]},"impl":true},
    {"code":1121446,"id":"cda700","name":"象潟","name_kana":"きさかた","lat":39.2078,"lng":139.902205,"prefecture":5,"lines":[11214],"attr":"eco","postal_code":"018-0112","address":"にかほ市象潟町家の後","next":[1121426,1121445,1121444,1121448,1121447,1121509],"voronoi":{"lat":39.459644,"lng":138.78187,"delta_lat":[0,-46069,-228206,2492,10434,296269],"delta_lng":[0,86516,971433,173656,-13712,-776636]},"impl":true},
    {"code":1121448,"id":"16f85e","name":"仁賀保","name_kana":"にかほ","lat":39.28979,"lng":139.964596,"prefecture":5,"lines":[11214],"attr":"eco","postal_code":"018-0402","address":"にかほ市平沢","next":[1121454,1121447,9921004,9921010,9921011,1121449,1121446,1121445],"voronoi":{"lat":39.187861,"lng":140.013475,"delta_lat":[0,10434,305708,-15486,-202328,-29871,-15244,-56531],"delta_lng":[0,-13712,-233850,43744,216675,10896,-2175,-14861]},"impl":true},
    {"code":1121450,"left":9921003,"right":1121453,"id":"abb69c","name":"羽後本荘","name_kana":"うごほんじょう","lat":39.386877,"lng":140.057632,"prefecture":5,"lines":[11214,99210,10209],"attr":"eco","postal_code":"015-0858","address":"由利本荘市西梵天","next":[9921002,1121449,1121453,9921003,1121451,9921006],"voronoi":{"lat":39.442011,"lng":140.028014,"delta_lat":[0,3465,-45484,-30625,2218,12698],"delta_lng":[0,-68663,45748,65340,35472,18756]},"impl":true},
    {"code":9921003,"left":9921002,"id":"cd7c14","name":"子吉","name_kana":"こよし","lat":39.350399,"lng":140.059913,"prefecture":5,"lines":[99210,10209],"attr":"eco","postal_code":"015-0044","address":"由利本荘市玉ノ池","open_date":"1922-08-01","next":[9921006,9921005,1121449,9921002,1121450,9921004],"voronoi":{"lat":39.355869,"lng":140.095009,"delta_lat":[0,15716,-2218,-19754,-23035,27504],"delta_lng":[0,10902,-35472,-31268,1594,52641]},"impl":true},
    {"code":9921002,"id":"37df05","name":"薬師堂(秋田)","original_name":"薬師堂","name_kana":"やくしどう","lat":39.368008,"lng":140.048788,"prefecture":5,"lines":[99210,10209],"attr":"eco","postal_code":"015-0041","address":"由利本荘市薬師堂山崎１-１０","open_date":"1922-08-01","next":[1121450,9921003,1121449],"voronoi":{"lat":39.399993,"lng":140.005099,"delta_lat":[0,-30625,-19754],"delta_lng":[0,65340,-31268]},"impl":true},
    {"code":1121453,"id":"cda11d","name":"羽後亀田","name_kana":"うごかめだ","lat":39.493884,"lng":140.063032,"prefecture":5,"lines":[11214],"attr":"heat","postal_code":"015-0032","address":"由利本荘市松ケ崎","next":[1121451,1121449,1121450,1121452,1121454],"voronoi":{"lat":39.484655,"lng":139.830545,"delta_lat":[0,-39178,-3465,17666,66696],"delta_lng":[0,128806,68663,33201,41496]},"impl":true},
    {"code":1121504,"left":1121508,"right":1121502,"id":"2cdf78","name":"二田","name_kana":"ふただ","lat":39.88174,"lng":139.987171,"prefecture":5,"lines":[11215],"attr":"cool","postal_code":"010-0101","address":"潟上市天王","next":[1121506,1121503,1121502,1120235,1120233,1121505,1121509,1120234],"voronoi":{"lat":39.915077,"lng":140.025288,"delta_lat":[0,-128139,-13789,31079,20369,117553,-8638,-17643],"delta_lng":[0,-95814,-13813,635,11601,85024,6215,5994]},"impl":true},
    {"code":1121508,"left":1121505,"right":1121506,"id":"76c0cb","name":"羽立","name_kana":"はだち","lat":39.904569,"lng":139.86205,"prefecture":5,"lines":[11215],"attr":"eco","postal_code":"010-0502","address":"男鹿市船川港比詰字大巻","next":[1121509,1121507,1120402,1120411,1120418],"voronoi":{"lat":40.256025,"lng":139.316038,"delta_lat":[0,-386640,254813,78074,52146],"delta_lng":[0,576887,-66535,-137861,-251038]},"impl":true},
    {"code":1121505,"left":1121509,"id":"42833b","name":"天王","name_kana":"てんのう","lat":39.898782,"lng":139.963609,"prefecture":5,"lines":[11215],"attr":"heat","postal_code":"010-0101","address":"潟上市天王","next":[1120236,1121506,1121504,1120235],"voronoi":{"lat":39.824598,"lng":139.927897,"delta_lat":[0,163538,-17699,-28286],"delta_lng":[0,57883,15167,11974]},"impl":true},
    {"code":1121509,"id":"987000","name":"男鹿","name_kana":"おが","lat":39.884571,"lng":139.848647,"prefecture":5,"lines":[11215],"attr":"eco","postal_code":"010-0511","address":"男鹿市船川港船川字新浜町","next":[9941807,1121507,1121426,1121508,1120229,1121455,1121457,1121456,1121424,1121502,1120418,1140825,1120419,1121447,1121506,1121504,1121446,1121454],"voronoi":{"lat":39.623427,"lng":139.79872,"delta_lat":[0,26300,64149,4080,55193,31079,37501,27656,386640,8913,50289,-458282,-140342,-115712,-141247,34920,51767,45848],"delta_lng":[0,32265,69795,2287,12594,635,-7701,-15670,-576887,-280486,-2246099,413528,311810,529497,737583,441257,451714,75293]},"impl":true},
    {"code":1121506,"id":"4377ba","name":"船越","name_kana":"ふなこし","lat":39.90473,"lng":139.946804,"prefecture":5,"lines":[11215],"attr":"heat","postal_code":"010-0341","address":"男鹿市船越字狐森","next":[1121504,1121505,1121507,1120236,1121509],"voronoi":{"lat":39.824598,"lng":139.927897,"delta_lat":[0,163538,45380,-191786,-37501],"delta_lng":[0,57883,-31822,-45363,7701]},"impl":true},
    {"code":1121502,"left":1120231,"right":1121503,"id":"7ba96c","name":"出戸浜","name_kana":"でとはま","lat":39.844473,"lng":140.024374,"prefecture":5,"lines":[11215],"attr":"cool","postal_code":"010-0101","address":"潟上市天王","next":[1120231,1120232,1121503,1120229,1121504,1121509,1120230],"voronoi":{"lat":39.84086,"lng":140.055207,"delta_lat":[0,31800,-85722,-13789,-55193,16941,29400],"delta_lng":[0,-21705,-104029,-13813,-12594,29604,43428]},"impl":true},
    {"code":1120231,"left":1121455,"id":"e67d7a","name":"追分(秋田)","original_name":"追分","name_kana":"おいわけ","lat":39.809925,"lng":140.05781,"prefecture":5,"lines":[11202,11215],"attr":"cool","postal_code":"010-0126","address":"秋田市金足追分","next":[1120232,1121502,1120230],"voronoi":{"lat":39.764297,"lng":139.976098,"delta_lat":[0,76563,-9736],"delta_lng":[0,79109,112651]},"impl":true},
    {"code":1121455,"id":"b5d4e8","name":"道川","name_kana":"みちかわ","lat":39.56054,"lng":140.057049,"prefecture":5,"lines":[11214],"attr":"heat","postal_code":"018-1301","address":"由利本荘市岩城内道川","next":[1120227,1121509,1121452,1121456,1121454],"voronoi":{"lat":39.59218,"lng":139.750135,"delta_lat":[0,31248,-42855,-25336,-12270],"delta_lng":[0,48585,337104,29055,-30313]},"impl":true},
    {"code":1121503,"id":"b197db","name":"上二田","name_kana":"かみふただ","lat":39.869089,"lng":140.00409,"prefecture":5,"lines":[11215],"attr":"cool","postal_code":"010-0101","address":"潟上市天王","next":[1121504,1120233,1120232,1121502],"voronoi":{"lat":39.786939,"lng":139.929474,"delta_lat":[0,128139,-17242,-25175],"delta_lng":[0,95814,7447,768]},"impl":true},
    {"code":1121452,"left":9921008,"right":1120229,"id":"ffad88","name":"折渡","name_kana":"おりわたり","lat":39.476423,"lng":140.091097,"prefecture":5,"lines":[11214],"attr":"eco","postal_code":"018-1225","address":"由利本荘市岩城上黒川","next":[1121451,1121454,1120227,1121453,1121455,1120223,1120226],"voronoi":{"lat":39.554493,"lng":140.167434,"delta_lat":[0,744,-12270,-16593,-66696,-2472,69816],"delta_lng":[0,-2556,-30313,-31855,-41496,170888,-27128]},"impl":true},
    {"code":9921008,"left":9921004,"right":9921009,"id":"922093","name":"久保田(秋田)","original_name":"久保田","name_kana":"くぼた","lat":39.296231,"lng":140.111067,"prefecture":5,"lines":[99210],"attr":"cool","postal_code":"015-0302","address":"由利本荘市久保田","open_date":"1985-10-01","next":[9921007,9921010,9921004,9921005,9921009],"voronoi":{"lat":39.273815,"lng":140.068952,"delta_lat":[0,-2054,10258,23751,-5793],"delta_lng":[0,-10978,8365,32411,57289]},"impl":true},
    {"code":9921004,"left":9921006,"right":1121451,"id":"417b1c","name":"鮎川","name_kana":"あゆかわ","lat":39.328693,"lng":140.071254,"prefecture":5,"lines":[99210,10209],"attr":"eco","postal_code":"015-0362","address":"由利本荘市東鮎川","open_date":"1922-08-01","next":[1121448,9921005,9921008,9921010,1121449,9921003],"voronoi":{"lat":39.326578,"lng":140.040764,"delta_lat":[0,-40389,-29871,15442,10258,72064],"delta_lng":[0,-14432,10896,20745,8365,27067]},"impl":true},
    {"code":9921006,"left":9921005,"id":"d5eb8b","name":"曲沢","name_kana":"まがりさわ","lat":39.321081,"lng":140.102178,"prefecture":5,"lines":[99210],"attr":"eco","postal_code":"015-0341","address":"由利本荘市前郷","open_date":"1989-10-29","next":[9921003,9921005,9921007,1121451,1121450],"voronoi":{"lat":39.388084,"lng":140.164379,"delta_lat":[0,-81900,49685,15716,12698],"delta_lng":[0,-65464,-3907,10902,18756]},"impl":true},
    {"code":9921005,"id":"6cb125","name":"黒沢(由利高原鉄道)","original_name":"黒沢","name_kana":"くろさわ","lat":39.320388,"lng":140.093365,"prefecture":5,"lines":[99210,10209],"attr":"eco","postal_code":"015-0361","address":"秋田県由利本荘市黒沢","open_date":"1922-08-01","next":[9921007,9921006,9921003,9921004,9921008],"voronoi":{"lat":39.306185,"lng":140.098916,"delta_lat":[0,49685,-1787,-72064,23751],"delta_lng":[0,-3907,-1603,-27067,32411]},"impl":true},
    {"code":1121451,"id":"9cf78e","name":"羽後岩谷","name_kana":"うごいわや","lat":39.442075,"lng":140.0906,"prefecture":5,"lines":[11214],"attr":"eco","postal_code":"018-0711","address":"由利本荘市岩谷町","next":[1121452,1121453,9921007,1120223,1121450,9921006],"voronoi":{"lat":39.384284,"lng":140.124666,"delta_lat":[0,57728,17666,-2472,-52718,-16403],"delta_lng":[0,-96653,33201,170888,28227,-95950]},"impl":true},
    {"code":9921009,"left":9921011,"right":9921007,"id":"06704a","name":"西滝沢","name_kana":"にしたきさわ","lat":39.278319,"lng":140.116448,"prefecture":5,"lines":[99210,10209],"attr":"cool","postal_code":"015-0333","address":"由利本荘市山本","open_date":"1937-12-15","next":[9921007,9921012,9921008,9921010],"voronoi":{"lat":39.273815,"lng":140.068952,"delta_lat":[0,26162,9730,-37093],"delta_lng":[0,87087,89764,-79077]},"impl":true},
    {"code":9921011,"left":9921010,"id":"93099e","name":"川辺","name_kana":"かわべ","lat":39.248842,"lng":140.12036,"prefecture":5,"lines":[99210,10209],"attr":"heat","postal_code":"015-0412","address":"由利本荘市矢島町川辺","open_date":"1938-10-21","next":[9921012,1121445,9921010,1121448],"voronoi":{"lat":39.184543,"lng":140.020193,"delta_lat":[0,-39530,121450,-25389],"delta_lng":[0,15283,120974,-121396]},"impl":true},
    {"code":9921010,"id":"c17eb3","name":"吉沢","name_kana":"よしざわ","lat":39.268145,"lng":140.116323,"prefecture":5,"lines":[99210],"attr":"heat","postal_code":"015-0324","address":"由利本荘市吉沢","open_date":"1989-10-29","next":[9921012,9921008,1121448,9921011,9921004,9921009],"voronoi":{"lat":39.273815,"lng":140.068952,"delta_lat":[0,-2054,-15442,-15244,25389,6150],"delta_lng":[0,-10978,-20745,-2175,121396,10276]},"impl":true},
    {"code":9921007,"id":"d7deed","name":"前郷","name_kana":"まえごう","lat":39.312649,"lng":140.112727,"prefecture":5,"lines":[99210,10209],"attr":"cool","postal_code":"015-0341","address":"由利本荘市前郷","open_date":"1922-08-01","next":[9921005,1120223,9921008,9921009,9922101,1121451,9921006,9921012],"voronoi":{"lat":39.309706,"lng":140.245802,"delta_lat":[0,-9730,5793,415,81900,16403,-439,-87202],"delta_lng":[0,-89764,-57289,166,65464,95950,531,7347]},"impl":true},
    {"code":1120229,"left":1120230,"right":1121459,"id":"685460","name":"土崎","name_kana":"つちざき","lat":39.758453,"lng":140.073601,"prefecture":5,"lines":[11202],"attr":"heat","postal_code":"011-0946","address":"秋田市土崎港中央６丁目","next":[1121509,1121459,1121458,1121502,1121457,1120228,1120230],"voronoi":{"lat":39.725742,"lng":140.092986,"delta_lat":[0,-7547,-11676,7358,4080,16941,50185],"delta_lng":[0,-11025,-66576,-114605,2287,29604,204250]},"impl":true},
    {"code":1120230,"left":1121457,"right":1120233,"id":"35e934","name":"上飯島","name_kana":"かみいいじま","lat":39.779336,"lng":140.06847,"prefecture":5,"lines":[11202],"attr":"eco","postal_code":"011-0911","address":"秋田市飯島","next":[1120228,1120232,1120231,1121502,1120229],"voronoi":{"lat":39.832123,"lng":140.184823,"delta_lat":[0,-998,-66827,-29400,50185],"delta_lng":[0,-16965,-191760,-43428,204250]},"impl":true},
    {"code":1121457,"left":1121456,"id":"aa0053","name":"桂根","name_kana":"かつらね","lat":39.647566,"lng":140.066482,"prefecture":5,"lines":[11214],"attr":"cool","postal_code":"010-1501","address":"秋田市下浜桂根","next":[1120227,1121509,1120229,1121458,1121456],"voronoi":{"lat":39.649727,"lng":139.830985,"delta_lat":[0,64149,-7358,-66097,-9847],"delta_lng":[0,69795,114605,92793,1729]},"impl":true},
    {"code":1121456,"id":"fcf094","name":"下浜","name_kana":"しもはま","lat":39.619678,"lng":140.064567,"prefecture":5,"lines":[11214],"attr":"cool","postal_code":"010-1503","address":"秋田市下浜羽川","next":[1120227,1121509,1121457,1121455],"voronoi":{"lat":39.623427,"lng":139.79872,"delta_lat":[0,26300,-19153,-50002],"delta_lng":[0,32265,278922,25917]},"impl":true},
    {"code":1120233,"id":"82eeeb","name":"羽後飯塚","name_kana":"うごいいづか","lat":39.898981,"lng":140.0733,"prefecture":5,"lines":[11202],"attr":"eco","postal_code":"018-1504","address":"潟上市飯田川飯塚","next":[9922704,1121503,1121504,1120234,1120232],"voronoi":{"lat":39.897836,"lng":140.032734,"delta_lat":[0,17242,792,-20464,-48630],"delta_lng":[0,-7447,-158,97309,50629]},"impl":true},
    {"code":1121459,"left":1121458,"right":1120228,"id":"a68760","name":"羽後牛島","name_kana":"うごうしじま","lat":39.695834,"lng":140.116467,"prefecture":5,"lines":[11214],"attr":"cool","postal_code":"010-0063","address":"秋田市牛島西１丁目","next":[1120229,1120228,1120227,1121458],"voronoi":{"lat":39.718194,"lng":140.081961,"delta_lat":[0,7547,-34304,-25496],"delta_lng":[0,11025,53285,-30880]},"impl":true},
    {"code":1121458,"id":"bc99f0","name":"新屋(秋田)","original_name":"新屋","name_kana":"あらや","lat":39.677493,"lng":140.087799,"prefecture":5,"lines":[11214],"attr":"cool","postal_code":"010-1637","address":"秋田市新屋扇町","next":[1120227,1120229,1121459,1121457],"voronoi":{"lat":39.665942,"lng":140.11539,"delta_lat":[0,52253,-11676,-66097],"delta_lng":[0,-33430,-66576,92793]},"impl":true},
    {"code":1120228,"id":"9a0022","name":"秋田","name_kana":"あきた","lat":39.716748,"lng":140.129931,"prefecture":5,"lines":[11202,11214],"attr":"heat","postal_code":"010-0001","address":"秋田市中通７丁目","next":[1120230,1121459,1120232,9922704,1120226,1120229,1120225,1120227],"voronoi":{"lat":39.691438,"lng":140.146271,"delta_lat":[0,34304,59341,47040,2248,3832,-86108,-49217],"delta_lng":[0,-53285,43935,47903,5182,66884,-31901,-36503]},"impl":true},
    {"code":1121632,"left":1121619,"right":1120207,"id":"71f0a1","name":"北大石田","name_kana":"きたおおいしだ","lat":38.629487,"lng":140.371234,"prefecture":6,"lines":[11216],"attr":"cool","postal_code":"999-4101","address":"北村山郡大石田町鷹巣","next":[1122124,1121631,9923102,1121633,1121634],"voronoi":{"lat":38.667669,"lng":140.429926,"delta_lat":[0,-370,-53199,-13279,10786],"delta_lng":[0,3018,-48239,-108333,12161]},"impl":true},
    {"code":1121619,"left":1121812,"right":1121624,"id":"4b3184","name":"北山形","name_kana":"きたやまがた","lat":38.265902,"lng":140.332658,"prefecture":6,"lines":[11216,11217,11218],"attr":"eco","postal_code":"990-0057","address":"山形市宮町１丁目","next":[1121620,1121718,1121618,1121717,1121803],"voronoi":{"lat":38.260605,"lng":140.37344,"delta_lat":[0,-10605,-11142,22964,21587],"delta_lng":[0,9987,6285,-75643,8030]},"impl":true},
    {"code":1121812,"left":1121806,"right":9923205,"id":"609062","name":"左沢","name_kana":"あてらざわ","lat":38.382223,"lng":140.208132,"prefecture":6,"lines":[11218],"attr":"cool","postal_code":"991-0801","address":"西村山郡大江町左沢","next":[9923209,9923206,9923207,1121811,9923208,1121804,9923205,9923210,9923204,9923203,9921116,1121805],"voronoi":{"lat":38.304647,"lng":140.193191,"delta_lat":[0,-23842,28962,2481,21516,30111,14234,12708,4479,1717,-892,-71733],"delta_lng":[0,-32872,-50800,1554,15994,24810,14509,17339,12822,20480,1060,-5471]},"impl":true},
    {"code":1121806,"left":1121809,"right":1121807,"id":"6d04b4","name":"羽前長崎","name_kana":"うぜんながさき","lat":38.332969,"lng":140.273018,"prefecture":6,"lines":[11218],"attr":"heat","postal_code":"990-0400","address":"東村山郡中山町長崎","next":[1121622,1121805,1121807,1121811],"voronoi":{"lat":38.33591,"lng":140.228093,"delta_lat":[0,-16730,17609,14163],"delta_lng":[0,81122,4362,-70216]},"impl":true},
    {"code":1121809,"left":1121804,"right":1121811,"id":"9ab2bf","name":"西寒河江","name_kana":"にしさがえ","lat":38.379627,"lng":140.26662,"prefecture":6,"lines":[11218],"attr":"cool","postal_code":"991-0024","address":"寒河江市字六供町","next":[1121626,1121627,1121807,1121808,1121810,1121811],"voronoi":{"lat":38.439621,"lng":140.308456,"delta_lat":[0,-9750,-5330,-64013,-5196,21650],"delta_lng":[0,4140,1557,-57602,-11093,662]},"impl":true},
    {"code":1121804,"left":1121805,"id":"f423a2","name":"羽前山辺","name_kana":"うぜんやまべ","lat":38.294756,"lng":140.271571,"prefecture":6,"lines":[11218],"attr":"eco","postal_code":"990-0300","address":"東村山郡山辺町大字山辺","next":[1121617,1121803,9921116,1121812,1121805,1121614],"voronoi":{"lat":38.241121,"lng":140.261628,"delta_lat":[0,67856,-4330,-23842,-55563,-3797],"delta_lng":[0,38621,-107058,-32872,34057,12162]},"impl":true},
    {"code":1121805,"id":"109a6d","name":"羽前金沢","name_kana":"うぜんかねざわ","lat":38.320837,"lng":140.270516,"prefecture":6,"lines":[11218],"attr":"heat","postal_code":"990-0400","address":"東村山郡中山町金沢","next":[1121622,1121621,1121806,1121811,1121804,1121803,1121812],"voronoi":{"lat":38.304647,"lng":140.193191,"delta_lat":[0,4330,5953,3173,1077,16730,-11522],"delta_lng":[0,107058,8106,770,89,-81122,-15476]},"impl":true},
    {"code":1121811,"id":"520304","name":"柴橋","name_kana":"しばはし","lat":38.380874,"lng":140.22582,"prefecture":6,"lines":[11218],"attr":"cool","postal_code":"991-0063","address":"寒河江市大字柴橋","next":[1121812,9923202,1121810,9923203,1121805,1121806,1121807,1121809],"voronoi":{"lat":38.355332,"lng":140.245458,"delta_lat":[0,-4379,-15042,-11522,71733,-1335,-4450,-13355],"delta_lng":[0,-2098,-15268,-15476,5471,8573,9744,9716]},"impl":true},
    {"code":1121807,"left":1121618,"right":1121808,"id":"58b381","name":"南寒河江","name_kana":"みなみさがえ","lat":38.356033,"lng":140.27767,"prefecture":6,"lines":[11218],"attr":"cool","postal_code":"991-0043","address":"寒河江市字島","next":[1121636,1121622,1121809,1121808,1121806,1121623,1121624,1121811],"voronoi":{"lat":38.350952,"lng":140.24336,"delta_lat":[0,-14163,9292,13776,90,13356,-12776,-5196],"delta_lng":[0,70216,5517,4296,13,-562,-66289,-11093]},"impl":true},
    {"code":1121618,"left":1121803,"id":"ac4fde","name":"山形","name_kana":"やまがた","lat":38.248098,"lng":140.327253,"prefecture":6,"lines":[11216,11217,11218],"attr":"eco","postal_code":"990-0039","address":"山形市香澄町１丁目","next":[1121616,1121716,1121619,1121717,1121803,1121617],"voronoi":{"lat":38.157591,"lng":140.450318,"delta_lat":[0,12876,68391,22964,-20449,-69245],"delta_lng":[0,-7360,-53245,-75643,-24086,121926]},"impl":true},
    {"code":1121803,"id":"800761","name":"東金井","name_kana":"ひがしかない","lat":38.277058,"lng":140.302666,"prefecture":6,"lines":[11218],"attr":"eco","postal_code":"990-0864","address":"山形市陣場３丁目","next":[1121804,1121621,1121618,1121617,1121619,1121805,1121620],"voronoi":{"lat":38.261823,"lng":140.31407,"delta_lat":[0,-20449,-252,67856,5953,-15721,-15800],"delta_lng":[0,-24086,-28355,38621,8106,9642,4102]},"impl":true},
    {"code":1121808,"id":"d6188d","name":"寒河江","name_kana":"さがえ","lat":38.372548,"lng":140.274487,"prefecture":6,"lines":[11218],"attr":"cool","postal_code":"991-0031","address":"寒河江市本町１丁目","next":[1121626,1121807,1121809,1121625,1121624],"voronoi":{"lat":38.373303,"lng":140.322841,"delta_lat":[0,-12776,64013,-17034,-24662],"delta_lng":[0,-66289,57602,6513,3448]},"impl":true},
    {"code":9923205,"left":9923208,"right":9923203,"id":"cc9288","name":"羽前宮内","name_kana":"うぜんみやうち","closed":true,"lat":38.412739,"lng":140.197473,"prefecture":6,"lines":[99232],"postal_code":"990-0501","address":"山形県寒河江市大字宮内４１","open_date":"1926-12-23","closed_date":"1974-11-18","next":[1121812,1121631,9923203,9923204,9923206],"voronoi":{"lat":38.390818,"lng":140.183726,"delta_lat":[0,4479,84660,75704,4092],"delta_lng":[0,12822,26690,10311,-4214]},"impl":false},
    {"code":9923208,"left":9923206,"right":9923209,"id":"e35bdd","name":"海味","name_kana":"かいしゅう","closed":true,"lat":38.4226,"lng":140.159129,"prefecture":6,"lines":[99232],"postal_code":"990-0702","address":"山形県西村山郡西川町大字海味８２","open_date":"1926-12-23","closed_date":"1974-11-18","next":[1121812,9923207,1122004,9923209],"voronoi":{"lat":38.333765,"lng":140.127068,"delta_lat":[0,30111,213738,6],"delta_lng":[0,24810,49733,-70]},"impl":false},
    {"code":9923206,"left":9923207,"id":"776850","name":"石田(山形)","original_name":"石田","name_kana":"いしだ","closed":true,"lat":38.416679,"lng":140.182879,"prefecture":6,"lines":[99232],"postal_code":"990-0701","address":"山形県西村山郡西川町大字睦合乙４６３","open_date":"1926-12-23","closed_date":"1974-11-18","next":[1121631,9923207,1121812,1121634,9923205],"voronoi":{"lat":38.390818,"lng":140.183726,"delta_lat":[0,-12708,191551,-2317,-7591],"delta_lng":[0,-17339,51100,4778,7070]},"impl":false},
    {"code":9923207,"id":"bb5eb4","name":"睦合","name_kana":"むつあい","closed":true,"lat":38.419769,"lng":140.171296,"prefecture":6,"lines":[99232],"postal_code":"990-0701","address":"山形県西村山郡西川町大字睦合丙２０４","open_date":"1926-12-23","closed_date":"1974-11-18","next":[9923206,1121812,9923208,1121634,1122004],"voronoi":{"lat":38.577613,"lng":140.20161,"delta_lat":[0,-213738,14234,191551,7903],"delta_lng":[0,-49733,14509,51100,-14829]},"impl":false},
    {"code":9923209,"id":"f49a51","name":"西海味","name_kana":"にしかいしゅう","closed":true,"lat":38.425355,"lng":140.150108,"prefecture":6,"lines":[99232],"postal_code":"990-0702","address":"山形県西村山郡西川町大字海味４８６","open_date":"1928-09-17","closed_date":"1974-11-18","next":[9923210,1121812,1122004,9923208],"voronoi":{"lat":38.333765,"lng":140.127068,"delta_lat":[0,-21516,267843,-2472],"delta_lng":[0,-15994,69179,21288]},"impl":false},
    {"code":9923203,"left":1121810,"right":9923204,"id":"532ad9","name":"白岩","name_kana":"しらいわ","closed":true,"lat":38.408297,"lng":140.230088,"prefecture":6,"lines":[99232],"postal_code":"990-0505","address":"山形県寒河江市大字白岩１７６−１","open_date":"1926-12-23","closed_date":"1974-11-18","next":[1121629,1121812,9923205,1121811,1121631,9923204,9923202,1121630],"voronoi":{"lat":38.495841,"lng":140.284855,"delta_lat":[0,-101055,1335,892,82943,75704,-23522,-11569],"delta_lng":[0,-58194,-8573,-1060,6210,10311,30380,10045]},"impl":false},
    {"code":1121810,"left":9923202,"id":"c17599","name":"羽前高松","name_kana":"うぜんたかまつ","lat":38.397494,"lng":140.248666,"prefecture":6,"lines":[11218,99232],"attr":"cool","postal_code":"990-0523","address":"寒河江市大字八鍬","next":[1121627,1121809,1121628,1121629,1121811,9923202],"voronoi":{"lat":38.471876,"lng":140.297546,"delta_lat":[0,-21154,-11102,-62639,13355,93134],"delta_lng":[0,8340,2571,-62336,-9716,54442]},"impl":true},
    {"code":9923202,"id":"f28385","name":"新田(山形)","original_name":"新田","name_kana":"しんでん","closed":true,"lat":38.404532,"lng":140.236626,"prefecture":6,"lines":[99232],"postal_code":"990-0523","address":"山形県寒河江市大字八鍬１１８３−２","open_date":"1926-12-23","closed_date":"1974-11-18","next":[1121629,1121811,1121810,9923203],"voronoi":{"lat":38.48347,"lng":140.290847,"delta_lat":[0,-93134,4450,101055],"delta_lng":[0,-54442,-9744,58194]},"impl":false},
    {"code":9923204,"id":"e6ada3","name":"上野(山形)","original_name":"上野","name_kana":"うわの","closed":true,"lat":38.410116,"lng":140.205793,"prefecture":6,"lines":[99232],"postal_code":"990-0505","address":"山形県寒河江市大字白岩７３６−１３","open_date":"1926-12-23","closed_date":"1974-11-18","next":[1121812,9923203,9923205],"voronoi":{"lat":38.395296,"lng":140.196547,"delta_lat":[0,1717,82943],"delta_lng":[0,20480,6210]},"impl":false},
    {"code":1121624,"left":1121636,"right":1121628,"id":"79cab1","name":"天童","name_kana":"てんどう","lat":38.35989,"lng":140.369303,"prefecture":6,"lines":[11216],"attr":"heat","postal_code":"994-0034","address":"天童市本町１","next":[1121808,1121636,1121625,1121807,1121716],"voronoi":{"lat":38.343083,"lng":140.408463,"delta_lat":[0,16864,13356,9541,-20008],"delta_lng":[0,-85061,-562,1274,99533]},"impl":true},
    {"code":1121636,"left":1121622,"right":1121716,"id":"63fc98","name":"天童南","name_kana":"てんどうみなみ","lat":38.342489,"lng":140.365853,"prefecture":6,"lines":[11216],"attr":"heat","postal_code":"994-0049","address":"山形県天童市南町三丁目","next":[1121716,1121807,1121623,1121624,1121717],"voronoi":{"lat":38.343083,"lng":140.408463,"delta_lat":[0,16864,-90,-35886,18126],"delta_lng":[0,-85061,-13,60124,24478]},"impl":true},
    {"code":1121622,"left":1121621,"right":1121623,"id":"c1f12b","name":"漆山","name_kana":"うるしやま","lat":38.314477,"lng":140.347661,"prefecture":6,"lines":[11216],"attr":"heat","postal_code":"990-2161","address":"山形市大字漆山","next":[1121806,1121805,1121807,1121621,1121623,1121718],"voronoi":{"lat":38.30569,"lng":140.357805,"delta_lat":[0,12413,1077,17609,9292,-30444],"delta_lng":[0,-48680,89,4362,5517,44283]},"impl":true},
    {"code":1121621,"left":1121620,"id":"708a8c","name":"南出羽","name_kana":"みなみでわ","lat":38.302834,"lng":140.344692,"prefecture":6,"lines":[11216],"attr":"heat","postal_code":"990-2171","address":"山形市七浦","next":[1121803,1121805,1121622,1121620,1121718],"voronoi":{"lat":38.318104,"lng":140.309125,"delta_lat":[0,-3173,-15721,-6377,12858],"delta_lng":[0,-770,9642,39211,597]},"impl":true},
    {"code":1121620,"id":"ef550f","name":"羽前千歳","name_kana":"うぜんちとせ","lat":38.287313,"lng":140.342168,"prefecture":6,"lines":[11216,11217],"attr":"eco","postal_code":"990-0811","address":"山形市長町２丁目","next":[1121718,1121619,1121621,1121803],"voronoi":{"lat":38.299209,"lng":140.317998,"delta_lat":[0,-6377,-32227,22804],"delta_lng":[0,39211,16232,-51341]},"impl":true},
    {"code":1121623,"id":"9bd384","name":"高擶","name_kana":"たかたま","lat":38.330726,"lng":140.358832,"prefecture":6,"lines":[11216],"attr":"heat","postal_code":"994-0068","address":"天童市大字高擶","next":[1121636,1121717,1121807,1121622,1121718],"voronoi":{"lat":38.315638,"lng":140.363376,"delta_lat":[0,30444,13776,-35886,-278],"delta_lng":[0,-44283,4296,60124,-216]},"impl":true},
    {"code":1121716,"left":1121717,"right":1121715,"id":"a2bd4b","name":"山寺","name_kana":"やまでら","lat":38.309561,"lng":140.434773,"prefecture":6,"lines":[11217],"attr":"cool","postal_code":"999-3301","address":"山形市大字山寺","next":[1121717,1121636,1121715,1123132,1121618,1123131,1121625,1121616,1121624],"voronoi":{"lat":38.343083,"lng":140.408463,"delta_lat":[0,-986,-171630,-12876,-31320,7739,25615,219280,-16069],"delta_lng":[0,-472,34966,7360,31711,12372,32517,-82687,-20583]},"impl":true},
    {"code":1121717,"left":1121718,"id":"ae8c1f","name":"高瀬(山形)","original_name":"高瀬","name_kana":"たかせ","lat":38.301677,"lng":140.396074,"prefecture":6,"lines":[11217],"attr":"cool","postal_code":"990-2232","address":"山形市大字下東山","next":[1121716,1121636,1121623,1121619,1121618,1121718],"voronoi":{"lat":38.323694,"lng":140.383297,"delta_lat":[0,278,18126,-171630,68391,11142],"delta_lng":[0,216,24478,34966,-53245,-6285]},"impl":true},
    {"code":1121718,"id":"2c101b","name":"楯山","name_kana":"たてやま","lat":38.301632,"lng":140.370598,"prefecture":6,"lines":[11217],"attr":"heat","postal_code":"990-2221","address":"山形市大字風間","next":[1121620,1121619,1121622,1121717,1121621,1121623],"voronoi":{"lat":38.315638,"lng":140.363376,"delta_lat":[0,-9947,-12858,-32227,-10605,73693],"delta_lng":[0,-5571,-597,16232,9987,-130]},"impl":true},
    {"code":1121715,"id":"8499f5","name":"面白山高原","name_kana":"おもしろやまこうげん","lat":38.333071,"lng":140.49712,"prefecture":6,"lines":[11217],"attr":"cool","postal_code":"999-3301","address":"山形市大字山寺","next":[1121628,1121716,1121627,1121714,1121626,1121625,1121629,1123132],"voronoi":{"lat":38.159625,"lng":140.526917,"delta_lat":[0,219280,10065,19314,17427,27513,41061,-331242],"delta_lng":[0,-82687,4396,12884,14216,28658,53405,-24254]},"impl":true},
    {"code":1121628,"left":1121627,"right":1121630,"id":"bb3037","name":"東根","name_kana":"ひがしね","lat":38.450863,"lng":140.384035,"prefecture":6,"lines":[11216],"attr":"heat","postal_code":"999-3701","address":"東根市大字東根甲","next":[1121715,1121810,1121627,1121629],"voronoi":{"lat":38.471876,"lng":140.297546,"delta_lat":[0,-21154,-25011,27513],"delta_lng":[0,8340,169841,28658]},"impl":true},
    {"code":1121627,"left":1121626,"right":1121631,"id":"e61de0","name":"さくらんぼ東根","name_kana":"さくらんぼひがしね","lat":38.42806,"lng":140.380677,"prefecture":6,"lines":[11216],"attr":"heat","postal_code":"999-3716","address":"東根市大字蟹沢字鳥居崎１７４５番１","next":[1121809,1121810,1121715,1121628,1121626],"voronoi":{"lat":38.425712,"lng":140.475727,"delta_lat":[0,25011,-11102,-9750,-21586],"delta_lng":[0,-169841,2571,4140,148914]},"impl":true},
    {"code":1121626,"left":1121625,"id":"38ffad","name":"神町","name_kana":"じんまち","lat":38.412276,"lng":140.378389,"prefecture":6,"lines":[11216],"attr":"heat","postal_code":"999-3763","address":"東根市神町中央１丁目","next":[1121809,1121808,1121625,1121715,1121627],"voronoi":{"lat":38.429871,"lng":140.312596,"delta_lat":[0,-5330,-17034,-18536,19314],"delta_lng":[0,1557,6513,127960,12884]},"impl":true},
    {"code":1121625,"id":"ac1ce9","name":"乱川","name_kana":"みだれがわ","lat":38.386554,"lng":140.374663,"prefecture":6,"lines":[11216],"attr":"heat","postal_code":"994-0002","address":"天童市大字乱川","next":[1121626,1121808,1121716,1121715,1121624],"voronoi":{"lat":38.382845,"lng":140.324115,"delta_lat":[0,24662,-18536,-10065,-16069],"delta_lng":[0,-3448,127960,-4396,-20583]},"impl":true},
    {"code":1121631,"id":"a8fde8","name":"大石田","name_kana":"おおいしだ","lat":38.595916,"lng":140.375349,"prefecture":6,"lines":[11216,99231],"attr":"cool","postal_code":"999-4111","address":"北村山郡大石田町大石田","next":[9923102,9923206,1121632,9923205,1121634,9923203,1121630],"voronoi":{"lat":38.532139,"lng":140.263929,"delta_lat":[0,23522,4092,7591,33478,13279,-38442],"delta_lng":[0,-30380,-4214,-7070,54108,108333,9288]},"impl":true},
    {"code":1121630,"left":1121629,"right":9923102,"id":"c833e8","name":"袖崎","name_kana":"そでさき","lat":38.548259,"lng":140.391295,"prefecture":6,"lines":[11216],"attr":"cool","postal_code":"995-0001","address":"村山市大字土生田","next":[9923102,1121629,1122118,1121714,9923203,1121631],"voronoi":{"lat":38.540358,"lng":140.583664,"delta_lat":[0,-10011,-29621,19843,11569,43520],"delta_lng":[0,11240,-32432,-288498,-10045,130065]},"impl":true},
    {"code":1121629,"id":"21aa0f","name":"村山(山形)","original_name":"村山","name_kana":"むらやま","lat":38.477078,"lng":140.386399,"prefecture":6,"lines":[11216],"attr":"cool","postal_code":"995-0033","address":"村山市大字楯岡新町１丁目１０番地","next":[1121714,1121630,9923202,1121810,9923203,1121628,1121715],"voronoi":{"lat":38.500726,"lng":140.562471,"delta_lat":[0,19843,-24728,-12371,-11594,-18652,41061],"delta_lng":[0,-288498,10881,5992,6699,206839,53405]},"impl":true},
    {"code":9923102,"id":"92bfaa","name":"尾花沢","name_kana":"おばなざわ","closed":true,"lat":38.602194,"lng":140.401333,"prefecture":6,"lines":[99231],"postal_code":"999-4228","address":"山形県尾花沢市上町６丁目１-１６","open_date":"1926-08-16","closed_date":"1970-09-10","next":[1121631,1121630,1122118,1122124,1122121,1122122,1121632,1122120],"voronoi":{"lat":38.667666,"lng":140.474598,"delta_lat":[0,2649,1890,-4906,-53199,-38442,-35300,123558],"delta_lng":[0,-5857,-5877,-29920,-48239,9288,189670,-104111]},"impl":false},
    {"code":1120207,"left":1120203,"right":1120212,"id":"0591c3","name":"及位","name_kana":"のぞき","lat":38.992983,"lng":140.361164,"prefecture":6,"lines":[11202],"attr":"cool","postal_code":"999-5602","address":"最上郡真室川町大字及位","next":[1120208,1122121,1122122,1120202,9921012,1120206,1120209],"voronoi":{"lat":38.899739,"lng":140.458603,"delta_lat":[0,-18917,5989,239085,4439,-195768,-16840],"delta_lng":[0,-46615,-21229,-125469,4740,210968,13366]},"impl":true},
    {"code":1120203,"left":1120201,"right":1120205,"id":"032163","name":"羽前豊里","name_kana":"うぜんとよさと","lat":38.836748,"lng":140.242247,"prefecture":6,"lines":[11202],"attr":"eco","postal_code":"999-5208","address":"最上郡鮭川村大字石名坂","next":[1122007,1122006,1122005,1120204,1122002,1122003,1120205,1122004,1120202],"voronoi":{"lat":38.909765,"lng":140.142023,"delta_lat":[0,7271,-47172,-20870,-34164,-1039,-20093,1012,35384],"delta_lng":[0,-32312,9924,10256,35367,1845,54707,43442,13043]},"impl":true},
    {"code":1120201,"left":1122003,"right":1122126,"id":"aedfc6","name":"新庄","name_kana":"しんじょう","lat":38.76256,"lng":140.306064,"prefecture":6,"lines":[11202,11216,11220,11221],"attr":"eco","postal_code":"996-0024","address":"新庄市多門町","next":[1122124,1122125,1122123,1120202,1122126,1122002],"voronoi":{"lat":38.751642,"lng":140.349647,"delta_lat":[0,2411,21091,7467,7680,-56116],"delta_lng":[0,2124,12096,485,-95062,9904]},"impl":true},
    {"code":1122003,"left":1122004,"right":1122002,"id":"d1aa8d","name":"羽前前波","name_kana":"うぜんぜんなみ","lat":38.747654,"lng":140.209525,"prefecture":6,"lines":[11220],"attr":"cool","postal_code":"996-0111","address":"新庄市大字升形字前波","next":[1121634,1122002,1120203,1122004],"voronoi":{"lat":38.668891,"lng":140.236167,"delta_lat":[0,124806,20093,-151411],"delta_lng":[0,-14356,-54707,65639]},"impl":true},
    {"code":1122004,"left":1122005,"id":"9b795c","name":"津谷","name_kana":"つや","lat":38.737618,"lng":140.186375,"prefecture":6,"lines":[11220],"attr":"cool","postal_code":"999-6311","address":"最上郡戸沢村大字津谷","next":[1122005,9923209,9923208,1121634,1120203,1122003,9923210,9923207],"voronoi":{"lat":38.66238,"lng":140.232743,"delta_lat":[0,151411,1039,-232573,-2165,-2472,-6,-50],"delta_lng":[0,-65639,-1845,2819,12175,21288,70,1047]},"impl":true},
    {"code":1122005,"id":"ba1352","name":"古口","name_kana":"ふるくち","lat":38.737129,"lng":140.14602,"prefecture":6,"lines":[11220],"attr":"cool","postal_code":"999-6801","address":"最上郡戸沢村大字古口","next":[1122004,1120203,1122006,9923210],"voronoi":{"lat":38.586556,"lng":140.075932,"delta_lat":[0,262437,-34164,-232573],"delta_lng":[0,53960,35367,2819]},"impl":true},
    {"code":1122002,"id":"44ef4e","name":"升形","name_kana":"ますかた","lat":38.751646,"lng":140.24423,"prefecture":6,"lines":[11220],"attr":"cool","postal_code":"996-0111","address":"新庄市大字升形字下夕野","next":[1120202,1122126,1122003,1120203,1121634,1120201],"voronoi":{"lat":38.706695,"lng":140.267735,"delta_lat":[0,-37803,124806,1012,-4419,-56116],"delta_lng":[0,-31568,-14356,43442,4037,9904]},"impl":true},
    {"code":1122126,"left":1121633,"right":1120202,"id":"da179d","name":"南新庄","name_kana":"みなみしんじょう","lat":38.721629,"lng":140.316212,"prefecture":6,"lines":[11221],"attr":"heat","postal_code":"996-0041","address":"新庄市大字鳥越","next":[1122002,1122125,1121634,1120201],"voronoi":{"lat":38.706564,"lng":140.338914,"delta_lat":[0,130,27480,17467],"delta_lng":[0,-71180,11459,70453]},"impl":true},
    {"code":1121633,"left":1121634,"id":"e51485","name":"芦沢","name_kana":"あしさわ","lat":38.655258,"lng":140.361016,"prefecture":6,"lines":[11216],"attr":"cool","postal_code":"999-4554","address":"尾花沢市芦沢","next":[1122124,1122125,1121634,1121632],"voronoi":{"lat":38.611608,"lng":140.288533,"delta_lat":[0,72396,-4208,-12126],"delta_lng":[0,58623,46333,36437]},"impl":true},
    {"code":1121634,"id":"d71ae0","name":"舟形","name_kana":"ふながた","lat":38.691583,"lng":140.316157,"prefecture":6,"lines":[11216],"attr":"cool","postal_code":"999-4600","address":"最上郡舟形町","next":[1122003,1122126,1122002,1121633,1121631,1121632,9923207,9923206,1122004,1122125],"voronoi":{"lat":38.611608,"lng":140.288533,"delta_lat":[0,-10786,-33478,2317,7903,84816,6512,37803,-130,-22561],"delta_lng":[0,-12161,-54108,-4778,-14829,30085,3424,31568,71180,8242]},"impl":true},
    {"code":1120202,"id":"6bd9ad","name":"泉田","name_kana":"いずみた","lat":38.811758,"lng":140.310039,"prefecture":6,"lines":[11202],"attr":"eco","postal_code":"999-5103","address":"新庄市大字泉田","next":[1122122,1122002,1120205,1120204,1120206,1120201,1120207,1122123,1120203],"voronoi":{"lat":38.79471,"lng":140.265253,"delta_lat":[0,-4419,-7680,82011,16200,5989,3583,-3020,-57280],"delta_lng":[0,4037,95062,42359,5277,-21229,-56332,-7915,-48216]},"impl":true},
    {"code":1120205,"left":1120226,"right":1120224,"id":"59910f","name":"釜淵","name_kana":"かまぶち","lat":38.93281,"lng":140.263864,"prefecture":6,"lines":[11202],"attr":"heat","postal_code":"999-5604","address":"最上郡真室川町大字釜淵","next":[1120202,9921012,1122007,1120206,1120203,1120204,1121441],"voronoi":{"lat":38.964054,"lng":140.08212,"delta_lat":[0,-47019,-7271,-22391,3020,191742,-43394],"delta_lng":[0,27591,32312,184488,7915,-131634,-103363]},"impl":true},
    {"code":1120226,"left":1120204,"right":1120227,"id":"f68c29","name":"和田","name_kana":"わだ","lat":39.65087,"lng":140.218754,"prefecture":5,"lines":[11202],"attr":"heat","postal_code":"019-2601","address":"秋田市河辺和田","next":[1120227,1120225,1120224,1120228,1121452,1120223],"voronoi":{"lat":39.527021,"lng":140.204975,"delta_lat":[0,27471,148385,49217,-151108,-11439],"delta_lng":[0,-37540,21051,36503,34083,-3612]},"impl":true},
    {"code":1120204,"left":9921012,"id":"2d6b72","name":"真室川","name_kana":"まむろがわ","lat":38.858243,"lng":140.254814,"prefecture":6,"lines":[11202],"attr":"heat","postal_code":"999-5312","address":"最上郡真室川町大字新町","next":[1120202,1120203,1120205],"voronoi":{"lat":38.909765,"lng":140.142023,"delta_lat":[0,-79671,57280],"delta_lng":[0,136272,48216]},"impl":true},
    {"code":9921012,"id":"39089c","name":"矢島","name_kana":"やしま","lat":39.230305,"lng":140.13897,"prefecture":5,"lines":[99210,10209],"attr":"heat","postal_code":"015-0404","address":"由利本荘市矢島町七日町","open_date":"1938-10-21","next":[9921010,1120208,1120205,9921011,1121445,9921009,9922202,9922101,1120207,1121441,9921007,1120206],"voronoi":{"lat":39.082135,"lng":140.202793,"delta_lat":[0,-43394,53894,52378,121450,6150,37093,7140,-65614,-104988,-15910,-4439],"delta_lng":[0,-103363,-49411,-14543,120974,10276,79077,22405,25118,-12841,-10455,-4740]},"impl":true},
    {"code":1120227,"id":"7fe472","name":"四ツ小屋","name_kana":"よつごや","lat":39.661341,"lng":140.144946,"prefecture":5,"lines":[11202],"attr":"heat","postal_code":"010-1417","address":"秋田市四ツ小屋","next":[1121457,1121455,1121458,1121456,1120226,1121459,1121452,1120228],"voronoi":{"lat":39.691438,"lng":140.146271,"delta_lat":[0,-25496,-25520,-9847,-50002,-25336,-744,148385],"delta_lng":[0,-30880,-7213,1729,25917,29055,2556,21051]},"impl":true},
    {"code":1120224,"left":1120223,"right":1120225,"id":"991ed7","name":"羽後境","name_kana":"うごさかい","lat":39.618679,"lng":140.320722,"prefecture":5,"lines":[11202],"attr":"heat","postal_code":"019-2411","address":"大仙市協和境","next":[1120222,9920926,1120223,1120226,9920917,1120225],"voronoi":{"lat":39.600986,"lng":140.259071,"delta_lat":[0,-11439,4952,55072,102830,1025],"delta_lng":[0,-3612,106684,75696,-30582,-2226]},"impl":true},
    {"code":1120223,"left":1120206,"id":"49362b","name":"峰吉川","name_kana":"みねよしかわ","lat":39.566586,"lng":140.32314,"prefecture":5,"lines":[11202],"attr":"heat","postal_code":"019-2431","address":"大仙市協和峰吉川","next":[1120222,9921007,9922101,1120224,1121451,1121452,1120226],"voronoi":{"lat":39.527021,"lng":140.204975,"delta_lat":[0,-69816,-52718,-439,14647,175804,-4952],"delta_lng":[0,27128,28227,531,33691,67592,-106684]},"impl":true},
    {"code":1120206,"id":"72df3e","name":"大滝","name_kana":"おおたき","lat":38.971485,"lng":140.320199,"prefecture":6,"lines":[11202],"attr":"cool","postal_code":"999-5603","address":"最上郡真室川町大字大滝","next":[1120205,1120202,1120207,9921012],"voronoi":{"lat":39.082135,"lng":140.202793,"delta_lat":[0,-191742,-3583,239085],"delta_lng":[0,131634,56332,-125469]},"impl":true},
    {"code":1120225,"id":"8b9390","name":"大張野","name_kana":"おおばりの","lat":39.663347,"lng":140.274071,"prefecture":5,"lines":[11202],"attr":"heat","postal_code":"019-2631","address":"秋田市河辺神内","next":[9920915,9920916,1120226,9920917,1120224,9922704,1120228],"voronoi":{"lat":39.841011,"lng":140.261909,"delta_lat":[0,-33110,-15799,-38675,-152440,151108,86108],"delta_lng":[0,64743,26025,52354,-145960,-34083,31901]},"impl":true},
    {"code":1120212,"left":1120209,"right":9922102,"id":"2dca10","name":"湯沢","name_kana":"ゆざわ","lat":39.163443,"lng":140.487011,"prefecture":5,"lines":[11202],"attr":"heat","postal_code":"012-0827","address":"湯沢市表町","next":[1120211,1120213,9922201],"voronoi":{"lat":39.149488,"lng":140.47517,"delta_lat":[0,-5976,44750],"delta_lng":[0,99841,-97579]},"impl":true},
    {"code":1120209,"left":1122123,"right":1120210,"id":"052481","name":"横堀","name_kana":"よこぼり","lat":39.064533,"lng":140.45131,"prefecture":5,"lines":[11202],"attr":"heat","postal_code":"019-0205","address":"湯沢市小野","next":[1120210,9922201,1120208,1122120,1120207,1122117,1122121,1122115],"voronoi":{"lat":38.957,"lng":140.648148,"delta_lat":[0,-20541,-15522,-3210,16840,187063,-2092,-161527],"delta_lng":[0,-41827,-72131,-39827,-13366,-73942,15275,227045]},"impl":true},
    {"code":1122123,"left":1122124,"right":1120208,"id":"9c5f5a","name":"瀬見温泉","name_kana":"せみおんせん","lat":38.755192,"lng":140.419557,"prefecture":6,"lines":[11221],"attr":"heat","postal_code":"999-6211","address":"最上郡最上町字瀬見","next":[1120201,1122122,1120202,1122124],"voronoi":{"lat":38.775143,"lng":140.363867,"delta_lat":[0,7467,82011,-189368],"delta_lng":[0,485,42359,54191]},"impl":true},
    {"code":1122124,"left":1122125,"id":"7bf7bd","name":"東長沢","name_kana":"ひがしながさわ","lat":38.718898,"lng":140.382195,"prefecture":6,"lines":[11221],"attr":"heat","postal_code":"999-4605","address":"最上郡舟形町長沢字巾","next":[1120201,1121632,1121633,9923102,1122122,1122125,1122123],"voronoi":{"lat":38.672206,"lng":140.462865,"delta_lat":[0,-4906,370,12126,74257,21091,-99890],"delta_lng":[0,-29920,-3018,-36437,-41719,12096,97035]},"impl":true},
    {"code":1122125,"id":"218838","name":"長沢","name_kana":"ながさわ","lat":38.709782,"lng":140.365969,"prefecture":6,"lines":[11221],"attr":"heat","postal_code":"999-4605","address":"最上郡舟形町長沢字巾","next":[1120201,1122126,1121633,1122124,1121634],"voronoi":{"lat":38.706564,"lng":140.338914,"delta_lat":[0,45077,2411,-74257,4208],"delta_lng":[0,10732,2124,41719,-46333]},"impl":true},
    {"code":1120208,"id":"5f831f","name":"院内","name_kana":"いんない","lat":39.049706,"lng":140.4138,"prefecture":5,"lines":[11202],"attr":"heat","postal_code":"019-0111","address":"湯沢市上院内","next":[9921012,1120207,1120209,9922201,9922202],"voronoi":{"lat":39.121629,"lng":140.407056,"delta_lat":[0,-187063,195768,15910,-19353],"delta_lng":[0,73942,-210968,10455,114755]},"impl":true},
    {"code":1120210,"left":1122121,"right":1120211,"id":"4b52d2","name":"三関","name_kana":"みつせき","lat":39.110196,"lng":140.483796,"prefecture":5,"lines":[11202],"attr":"heat","postal_code":"012-0864","address":"湯沢市上関","next":[1120211,1122114,1120209,1120214,1121012,9922201,1122115],"voronoi":{"lat":38.95801,"lng":140.649376,"delta_lat":[0,161527,5492,-12555,-5309,-95803,-15216],"delta_lng":[0,-227045,15961,205755,13868,73708,-21956]},"impl":true},
    {"code":1122121,"left":1122122,"id":"a1a660","name":"大堀","name_kana":"おおほり","lat":38.76592,"lng":140.475377,"prefecture":6,"lines":[11221],"attr":"heat","postal_code":"999-6212","address":"最上郡最上町字志茂","next":[1120207,9923102,1122120,1122122,1120209],"voronoi":{"lat":38.667666,"lng":140.474598,"delta_lat":[0,2649,229423,17988,3210],"delta_lng":[0,-5857,-10139,35761,39827]},"impl":true},
    {"code":1122122,"id":"cbf05e","name":"鵜杉","name_kana":"うすぎ","lat":38.764962,"lng":140.453698,"prefecture":6,"lines":[11221],"attr":"heat","postal_code":"999-6212","address":"最上郡最上町志茂字鵜杉","next":[1120202,1120207,1122124,9923102,1122123,1122121],"voronoi":{"lat":38.672206,"lng":140.462865,"delta_lat":[0,3048,189368,16200,18917,-229423],"delta_lng":[0,-1963,-54191,5277,46615,10139]},"impl":true},
    {"code":1120211,"id":"33a459","name":"上湯沢","name_kana":"かみゆざわ","lat":39.134221,"lng":140.485262,"prefecture":5,"lines":[11202],"attr":"heat","postal_code":"012-0862","address":"湯沢市関口","next":[1120210,9922201,1120212,1120214,1120213],"voronoi":{"lat":39.143513,"lng":140.57501,"delta_lat":[0,5976,-24459,-12555,28927],"delta_lng":[0,-99841,-36878,205755,-61319]},"impl":true},
    {"code":9922102,"left":1120221,"right":1120220,"id":"6d15fd","name":"羽後里見","name_kana":"うごさとみ","closed":true,"lat":39.280615,"lng":140.449695,"prefecture":5,"lines":[99221],"attr":"unknown","postal_code":"013-0203","address":"秋田県横手市雄物川町東里立野５６","closed_date":"1971-07-20","next":[1120216,1120214,9922202,9922101,1120213,1120217,1120218,1120215],"voronoi":{"lat":39.303796,"lng":140.502803,"delta_lat":[0,13543,15354,-78734,-20039,8209,11600,33235],"delta_lng":[0,-3612,-14588,-166398,150009,12971,9001,11934]},"impl":true},
    {"code":1120221,"left":9922202,"right":1120222,"id":"595b09","name":"神宮寺","name_kana":"じんぐうじ","lat":39.494841,"lng":140.426518,"prefecture":5,"lines":[11202],"attr":"heat","postal_code":"019-1701","address":"大仙市神宮寺","next":[1121113,1121114,1120222,1121115,9922101,1120220,1121116],"voronoi":{"lat":39.49777,"lng":140.462668,"delta_lat":[0,-80820,3251,159754,-13307,-6886,-19278],"delta_lng":[0,-44327,-117476,155884,5976,1666,1506]},"impl":true},
    {"code":9922202,"left":9922101,"id":"7bdc77","name":"羽後三輪","name_kana":"うごみわ","closed":true,"lat":39.193722,"lng":140.438087,"prefecture":5,"lines":[99222],"attr":"unknown","postal_code":"012-1123","address":"秋田県雄勝郡羽後町貝沢雀田６４","open_date":"1928-08-10","closed_date":"1973-04-01","next":[9922101,9922102,9921012,9922201,1120213,1120208],"voronoi":{"lat":39.146244,"lng":140.280485,"delta_lat":[0,104988,2726,-20039,-37348,-69680],"delta_lng":[0,12841,24879,150009,2015,-74989]},"impl":true},
    {"code":9922101,"id":"e8faef","name":"羽後大森","name_kana":"うごおおもり","closed":true,"lat":39.338726,"lng":140.422199,"prefecture":5,"lines":[99221],"attr":"unknown","postal_code":"013-0535","address":"秋田県横手市大森町町田１５７−７","closed_date":"1966-06-15","next":[1120222,9922202,9921007,1120223,1120221,1120219,9922102,9921012,1120220,1120218],"voronoi":{"lat":39.253959,"lng":140.318204,"delta_lat":[0,-2726,65614,87202,14647,1505,-3251,-12259,-46165,-25833],"delta_lng":[0,-24879,-25118,-7347,33691,6313,117476,27108,33337,5817]},"impl":true},
    {"code":1120222,"id":"be2a29","name":"刈和野","name_kana":"かりわの","lat":39.547646,"lng":140.372402,"prefecture":5,"lines":[11202],"attr":"heat","postal_code":"019-2112","address":"大仙市刈和野","next":[1120223,9922101,1120224,1120221,9920926,1121113,9920927],"voronoi":{"lat":39.579955,"lng":140.456749,"delta_lat":[0,-159754,-1505,175804,55072,-12386,-17504],"delta_lng":[0,-155884,-6313,67592,75696,9616,9682]},"impl":true},
    {"code":1120220,"left":9922201,"right":9920917,"id":"18a229","name":"大曲(秋田)","original_name":"大曲","name_kana":"おおまがり","lat":39.465712,"lng":140.479628,"prefecture":5,"lines":[11202,11211],"attr":"heat","postal_code":"014-0027","address":"大仙市大曲通町","next":[1121116,1120221,9922101,1120219],"voronoi":{"lat":39.40469,"lng":140.445449,"delta_lat":[0,12259,80820,-46633],"delta_lng":[0,-27108,44327,60341]},"impl":true},
    {"code":9922201,"id":"dacd82","name":"羽後山田","name_kana":"うごやまだ","closed":true,"lat":39.164725,"lng":140.465031,"prefecture":5,"lines":[99222],"attr":"unknown","postal_code":"012-0051","address":"秋田県湯沢市深堀高屋敷５８−３","open_date":"1928-08-10","closed_date":"1973-04-01","next":[1120211,1120209,1120213,1120208,1120210,9922202,1120212],"voronoi":{"lat":39.196571,"lng":140.470229,"delta_lat":[0,-69680,-5262,-2092,5492,24459,38774],"delta_lng":[0,-74989,11816,15275,15961,36878,2262]},"impl":true},
    {"code":9920917,"id":"659ef0","name":"比立内","name_kana":"ひたちない","lat":39.905078,"lng":140.452643,"prefecture":5,"lines":[99209,10207],"attr":"heat","postal_code":"018-4735","address":"北秋田市阿仁比立内","open_date":"1963-10-15","next":[9920922,9920926,9920921,9920916,1120224,9920918,1120225,9920925],"voronoi":{"lat":39.799774,"lng":140.477857,"delta_lat":[0,14490,130243,-152405,-38675,-1025,1814,39283],"delta_lng":[0,9772,-22955,-111997,52354,2226,3938,61809]},"impl":true}
  ]
}