{
  "name":"segment52",
  "root":9921508,
  "east":140.998611,
  "west":139.69799,
  "south":37.538664,
  "north":38.244861,
  "station_size":155,
  "node_list":[
    {"code":9921508,"left":1121906,"right":1123128,"id":"174234","name":"桜水","name_kana":"さくらみず","lat":37.796682,"lng":140.441369,"prefecture":7,"lines":[99215],"attr":"heat","postal_code":"960-0241","address":"福島市笹谷字古屋前２-５","next":[9921505,1123125,9921302,9921506,9921509,9921507,1121603],"voronoi":{"lat":37.789854,"lng":140.452015,"delta_lat":[0,-24,1733,1186,5452,8943,-9289],"delta_lng":[0,892,7365,38,-560,-55384,4533]},"impl":true},
    {"code":1121906,"left":1121905,"right":9921116,"id":"2ea069","name":"羽前小松","name_kana":"うぜんこまつ","lat":38.004721,"lng":140.048503,"prefecture":6,"lines":[11219],"attr":"cool","postal_code":"999-0121","address":"東置賜郡川西町大字上小松","next":[1121911,1121910,1121907,1121905],"voronoi":{"lat":37.956762,"lng":140.000726,"delta_lat":[0,36598,26783,-13001],"delta_lng":[0,2955,16756,75807]},"impl":true},
    {"code":1121905,"left":1122604,"right":1121606,"id":"5cabc7","name":"中郡(山形)","original_name":"中郡","name_kana":"ちゅうぐん","lat":37.969109,"lng":140.067286,"prefecture":6,"lines":[11219],"attr":"cool","postal_code":"999-0144","address":"東置賜郡川西町大字時田","next":[1121904,1121907,1121610,9921105,1121906,1121611,1121911],"voronoi":{"lat":37.92998,"lng":139.989951,"delta_lat":[0,37398,16181,22497,1668,-582,-50380],"delta_lng":[0,116094,3231,-6104,-4782,-2145,-95518]},"impl":true},
    {"code":1122604,"left":1122602,"right":1122607,"id":"c072ec","name":"塩川","name_kana":"しおかわ","lat":37.59393,"lng":139.88716,"prefecture":7,"lines":[11226],"attr":"heat","postal_code":"969-3523","address":"喜多方市塩川町石橋","next":[1122603,1122709,1122605,1122513],"voronoi":{"lat":37.593704,"lng":139.843903,"delta_lat":[0,-25336,39607,11280],"delta_lng":[0,14370,71917,5072]},"impl":true},
    {"code":1122602,"left":1122710,"right":1122512,"id":"effbc1","name":"堂島","name_kana":"どうじま","lat":37.554723,"lng":139.911706,"prefecture":7,"lines":[11226],"attr":"heat","postal_code":"969-3481","address":"会津若松市河東町郡山","next":[1122702,1122515,1122514,1122707,1122603,1122708,1122513],"voronoi":{"lat":37.580416,"lng":139.923601,"delta_lat":[0,-35924,-17839,-4003,4525,3016,39555],"delta_lng":[0,-53473,4167,1807,33393,7503,10032]},"impl":true},
    {"code":1122710,"left":1122709,"right":1122603,"id":"4612c2","name":"塔寺","name_kana":"とうでら","lat":37.569368,"lng":139.785241,"prefecture":7,"lines":[11227],"attr":"heat","postal_code":"969-6583","address":"河沼郡会津坂下町気多宮","next":[1122708,1122608,1122607,1122609,1122711,1122709],"voronoi":{"lat":37.615744,"lng":139.81863,"delta_lat":[0,-16141,-6770,-63097,6410,77059],"delta_lng":[0,-60279,-5174,35725,5078,26926]},"impl":true},
    {"code":1122709,"left":1122711,"id":"ebbff6","name":"会津坂下","name_kana":"あいづばんげ","lat":37.556695,"lng":139.821509,"prefecture":7,"lines":[11227],"attr":"heat","postal_code":"969-6545","address":"河沼郡会津坂下町字五反田","next":[1122603,1122604,1122607,1122605,1122708,1122710],"voronoi":{"lat":37.609072,"lng":139.828597,"delta_lat":[0,-15367,-25336,-10768,-21455,77059],"delta_lng":[0,15307,14370,3271,-67564,26926]},"impl":true},
    {"code":1122711,"id":"1d8454","name":"会津坂本","name_kana":"あいづさかもと","lat":37.553266,"lng":139.756802,"prefecture":7,"lines":[11227],"attr":"heat","postal_code":"969-6586","address":"河沼郡会津坂下町坂本字上新田","next":[1122609,1122708,1122707,1122712,1122706,1122713,1122710],"voronoi":{"lat":37.525803,"lng":139.787912,"delta_lat":[0,-16614,-17317,8414,77918,14628,-63097],"delta_lng":[0,-8366,-12392,-6623,-34493,27140,35725]},"impl":true},
    {"code":1122603,"id":"a79b03","name":"笈川","name_kana":"おいかわ","lat":37.579117,"lng":139.895318,"prefecture":7,"lines":[11226],"attr":"heat","postal_code":"969-3500","address":"河沼郡湯川村字松川","next":[1122708,1122513,1122604,1122709,1122602],"voronoi":{"lat":37.607975,"lng":139.93019,"delta_lat":[0,-39607,-10768,-13108,35924],"delta_lng":[0,-71917,3271,8584,53473]},"impl":true},
    {"code":1122512,"left":1122511,"right":1122513,"id":"060d6b","name":"磐梯町","name_kana":"ばんだいまち","lat":37.557305,"lng":139.993413,"prefecture":7,"lines":[11225],"attr":"cool","postal_code":"969-3301","address":"耶麻郡磐梯町大字磐梯字東松山","next":[1021205,1122511,1122514,1122515,1122513],"voronoi":{"lat":37.707575,"lng":140.034978,"delta_lat":[0,-246334,65011,10107,144983],"delta_lng":[0,-18142,-49828,-1358,29399]},"impl":true},
    {"code":1122511,"left":1122514,"id":"6007e4","name":"翁島","name_kana":"おきなしま","lat":37.552837,"lng":140.054079,"prefecture":7,"lines":[11225],"attr":"cool","postal_code":"969-3286","address":"耶麻郡猪苗代町大字磐根中","next":[1122510,9921605,1122512,1021205,1121608,1122507,1122515],"voronoi":{"lat":37.431874,"lng":140.047798,"delta_lat":[0,35438,241494,14475,-15707,-246334,-7452],"delta_lng":[0,19817,32257,-48941,-15953,-18142,2647]},"impl":true},
    {"code":1122514,"id":"778704","name":"広田","name_kana":"ひろた","lat":37.549235,"lng":139.933343,"prefecture":7,"lines":[11225],"attr":"eco","postal_code":"969-3471","address":"会津若松市河東町広田","next":[1122602,1122512,1122513,1122515],"voronoi":{"lat":37.530192,"lng":139.916998,"delta_lat":[0,39555,-33388,-10107],"delta_lng":[0,10032,38619,1358]},"impl":true},
    {"code":1122513,"id":"d85d87","name":"東長原","name_kana":"ひがしながはら","lat":37.566465,"lng":139.948239,"prefecture":7,"lines":[11225],"attr":"eco","postal_code":"969-3421","address":"会津若松市河東町熊野堂","next":[1122603,1122605,1021202,1021205,1122514,1122512,1122606,1122602,1122604],"voronoi":{"lat":37.642344,"lng":139.952255,"delta_lat":[0,25674,11891,1433,-144983,33388,10670,27559,11280],"delta_lng":[0,24086,15264,3443,-29399,-38619,-3429,6589,5072]},"impl":true},
    {"code":1122607,"left":1021203,"right":1021202,"id":"2532c3","name":"喜多方","name_kana":"きたかた","lat":37.643886,"lng":139.868365,"prefecture":7,"lines":[11226,10212],"attr":"heat","postal_code":"966-0846","address":"喜多方市字町田下","next":[1122608,1122709,1021203,1021202,1122605,1122606,1122710],"voronoi":{"lat":37.609072,"lng":139.828597,"delta_lat":[0,7620,35662,7318,-1215,-42713,-2539],"delta_lng":[0,16846,43982,-60335,-12413,1954,2276]},"impl":true},
    {"code":1021203,"left":1122608,"right":1021204,"id":"6848f8","name":"上三宮","name_kana":"かみさんみや","closed":true,"lat":37.682778,"lng":139.864556,"prefecture":7,"lines":[10212],"postal_code":"966-0931","address":"福島県喜多方市上三宮町上三宮村尻大道下３１９０−１","open_date":"1938-08-18","closed_date":"1984-04-01","next":[1021205,1021202,1122608,1122607,1021204],"voronoi":{"lat":37.691579,"lng":139.91409,"delta_lat":[0,-31907,-1215,19098,25275],"delta_lng":[0,-85001,-12413,-8485,73338]},"impl":false},
    {"code":1122608,"left":1122609,"id":"c331ff","name":"山都","name_kana":"やまと","lat":37.639228,"lng":139.766534,"prefecture":7,"lines":[11226],"attr":"eco","postal_code":"969-4131","address":"喜多方市山都町広野字西原","next":[1122613,1021203,1122607,1122609,1122710,1021204],"voronoi":{"lat":37.658456,"lng":139.816676,"delta_lat":[0,-42713,-16141,126105,78652,-126805],"delta_lng":[0,1954,-60279,-61371,13288,97923]},"impl":true},
    {"code":1122609,"id":"cdc2a2","name":"荻野","name_kana":"おぎの","lat":37.617613,"lng":139.722119,"prefecture":7,"lines":[11226],"attr":"eco","postal_code":"969-4301","address":"喜多方市高郷町上郷字馬場頭","next":[1122711,1122612,1122610,1122608,1122712,1122613,1122710],"voronoi":{"lat":37.725707,"lng":139.696981,"delta_lat":[0,-31010,-543,-116150,200,14628,6770],"delta_lng":[0,-12811,-46,32627,9287,27140,5174]},"impl":true},
    {"code":1021204,"id":"0fd6b2","name":"会津加納","name_kana":"あいづかのう","closed":true,"lat":37.708167,"lng":139.855806,"prefecture":7,"lines":[10212],"postal_code":"966-0103","address":"福島県喜多方市熱塩加納町加納村東１７８９−１３","open_date":"1938-08-18","closed_date":"1984-04-01","next":[1021205,1121914,1021203,1122613,1122608],"voronoi":{"lat":37.804359,"lng":139.710268,"delta_lat":[0,46616,10089,-158235,-25275],"delta_lng":[0,-7610,45148,133723,-73338]},"impl":false},
    {"code":1021202,"left":1122605,"right":1021205,"id":"4efa8c","name":"会津村松","name_kana":"あいづむらまつ","closed":true,"lat":37.665611,"lng":139.871,"prefecture":7,"lines":[10212],"postal_code":"966-0902","address":"福島県喜多方市松山町村松石田１４４５−７","open_date":"1938-08-18","closed_date":"1984-04-01","next":[1021203,1122513,1122606,1122607,1021205],"voronoi":{"lat":37.668018,"lng":139.976342,"delta_lat":[0,-15664,7318,31907,-11670],"delta_lng":[0,-86917,-60335,85001,77515]},"impl":false},
    {"code":1122605,"left":1122606,"id":"8e5567","name":"姥堂","name_kana":"うばどう","lat":37.615952,"lng":139.881001,"prefecture":7,"lines":[11226],"attr":"heat","postal_code":"969-3531","address":"喜多方市塩川町新井田谷地","next":[1122513,1122606,1122607,1122604,1122709],"voronoi":{"lat":37.619255,"lng":139.935262,"delta_lat":[0,23088,-25652,-7620,-15367],"delta_lng":[0,16993,-106813,-16846,15307]},"impl":true},
    {"code":1122606,"id":"15016f","name":"会津豊川","name_kana":"あいづとよかわ","lat":37.633499,"lng":139.876787,"prefecture":7,"lines":[11226],"attr":"heat","postal_code":"966-0912","address":"喜多方市豊川町一井字三百刈","next":[1021202,1122605,1122607,1122513],"voronoi":{"lat":37.642344,"lng":139.952255,"delta_lat":[0,-25652,35662,15664],"delta_lng":[0,-106813,43982,86917]},"impl":true},
    {"code":1021205,"id":"290946","name":"熱塩","name_kana":"あつしお","closed":true,"lat":37.729083,"lng":139.880556,"prefecture":7,"lines":[10212],"postal_code":"966-0101","address":"福島県喜多方市熱塩加納町熱塩雀田６３８","open_date":"1938-08-18","closed_date":"1984-04-01","next":[1021203,1122512,1121903,1121902,1021204,1121911,1122513,1121912,1122511,1121914,1021202,1121608],"voronoi":{"lat":37.763489,"lng":140.030426,"delta_lat":[0,38496,61371,15896,-2490,-15698,-158235,-11251,-11670,1433,26233,15707],"delta_lng":[0,-28214,-56546,-55677,-92585,-49598,133723,32561,77515,3443,39929,15953]},"impl":false},
    {"code":1121606,"left":1123118,"right":1121610,"id":"f4363d","name":"峠","name_kana":"とうげ","lat":37.811935,"lng":140.236041,"prefecture":6,"lines":[11216],"attr":"eco","postal_code":"992-1303","address":"米沢市大字大沢字峠","next":[1121607,1122505,1122510,1121605,1122509],"voronoi":{"lat":37.681704,"lng":140.164399,"delta_lat":[0,19372,173953,-222458,331],"delta_lng":[0,-38716,127340,-2091,-6288]},"impl":true},
    {"code":1123118,"left":1121604,"right":9921506,"id":"7d7f46","name":"杉田(福島)","original_name":"杉田","name_kana":"すぎた","lat":37.563307,"lng":140.413663,"prefecture":7,"lines":[11231],"attr":"cool","postal_code":"964-0865","address":"二本松市杉田町１丁目","next":[1122504,1122505,1121603,1122814,1121605,1123119,1123122,1122503,1123117],"voronoi":{"lat":37.527877,"lng":140.483309,"delta_lat":[0,128744,1714,-4411,-5112,-26217,-48311,-11168,-42716],"delta_lng":[0,-155795,-5209,-38571,-8764,9131,27900,9845,148533]},"impl":true},
    {"code":1121604,"left":1121603,"right":1121605,"id":"323b62","name":"赤岩","name_kana":"あかいわ","lat":37.80567,"lng":140.335545,"prefecture":7,"lines":[11216],"attr":"heat","postal_code":"960-0251","address":"福島市大笹生字赤岩","next":[9921510,1121605,9921511,9923309,1121603,9921512],"voronoi":{"lat":37.847085,"lng":140.387441,"delta_lat":[0,-16534,-157476,244042,22230,-12306],"delta_lng":[0,1622,-98985,21785,58203,2540]},"impl":true},
    {"code":1121603,"left":1122510,"id":"6c6321","name":"庭坂","name_kana":"にわさか","lat":37.771537,"lng":140.389847,"prefecture":7,"lines":[11216],"attr":"heat","postal_code":"960-2261","address":"福島市町庭坂字狐林","next":[1123123,1123122,9921509,1123118,9921507,1121604,1121605,1121602,9921508,9921510],"voronoi":{"lat":37.83055,"lng":140.389063,"delta_lat":[0,-157476,-19151,4411,49108,7872,75043,7497,9289,21364],"delta_lng":[0,-98985,-6344,38571,71628,5690,11651,-2374,-4533,-13678]},"impl":true},
    {"code":1122510,"id":"cf8cf7","name":"猪苗代","name_kana":"いなわしろ","lat":37.546286,"lng":140.103122,"prefecture":7,"lines":[11225],"attr":"cool","postal_code":"969-3133","address":"耶麻郡猪苗代町大字千代田字扇田","next":[1122511,1122508,1122509,1121607,1122507,1121608,1121606],"voronoi":{"lat":37.516163,"lng":140.112171,"delta_lat":[0,-21073,-27777,241494,-444,-7287,-19372],"delta_lng":[0,-15980,-28577,32257,3273,22538,38716]},"impl":true},
    {"code":1121605,"id":"4bb945","name":"板谷","name_kana":"いたや","lat":37.811627,"lng":140.268815,"prefecture":6,"lines":[11216],"attr":"eco","postal_code":"992-1331","address":"米沢市大字板谷","next":[1121604,1121607,9923309,1123118,1121603,1122505,1121606],"voronoi":{"lat":37.65257,"lng":140.250932,"delta_lat":[0,-3759,5112,19151,244042,-2877,-39211],"delta_lng":[0,24038,8764,6344,21785,-43252,-15588]},"impl":true},
    {"code":9921506,"left":1123119,"right":9921507,"id":"f832e1","name":"上松川","name_kana":"かみまつかわ","lat":37.783619,"lng":140.441011,"prefecture":7,"lines":[99215],"attr":"eco","postal_code":"960-8254","address":"福島市南沢又字上並松１９-１","next":[9921507,9921505,9921508,1121602],"voronoi":{"lat":37.780405,"lng":140.426866,"delta_lat":[0,9449,-24,-16335],"delta_lng":[0,25150,892,-17904]},"impl":true},
    {"code":1123119,"left":1121602,"id":"c3c2e4","name":"二本松","name_kana":"にほんまつ","lat":37.589598,"lng":140.435389,"prefecture":7,"lines":[11231],"attr":"cool","postal_code":"964-0917","address":"二本松市本町２丁目","next":[1123120,1122814,1123118,1123122,1122813],"voronoi":{"lat":37.530665,"lng":140.492189,"delta_lat":[0,-2789,128744,-17721,-104317],"delta_lng":[0,-8881,-155795,95601,75298]},"impl":true},
    {"code":1121602,"id":"3dfb6c","name":"笹木野","name_kana":"ささきの","lat":37.765926,"lng":140.425985,"prefecture":7,"lines":[11216],"attr":"heat","postal_code":"960-8057","address":"福島市笹木野字金谷東","next":[1123123,100409,9921504,9921503,9921505,9921506,9921507,1121603],"voronoi":{"lat":37.715314,"lng":140.399622,"delta_lat":[0,26131,13540,7749,7273,3487,6910,9953],"delta_lng":[0,36702,4743,-304,-3520,-2240,-8138,-15592]},"impl":true},
    {"code":9921507,"id":"45991e","name":"笹谷","name_kana":"ささや","lat":37.7873,"lng":140.439628,"prefecture":7,"lines":[99215],"attr":"heat","postal_code":"960-0241","address":"福島市笹谷字三本松１８-２","next":[9921506,1121603,9921508,1121602],"voronoi":{"lat":37.789854,"lng":140.452015,"delta_lat":[0,8001,-7497,-9953],"delta_lng":[0,-43116,2374,15592]},"impl":true},
    {"code":1121610,"left":1121903,"right":1121608,"id":"5ffa1c","name":"置賜","name_kana":"おいたま","lat":37.954093,"lng":140.142496,"prefecture":6,"lines":[11216],"attr":"eco","postal_code":"992-0112","address":"米沢市大字浅川","next":[1121609,1121905,1121611,1121904,1121607,1121903,9923306,1121608,9923305,9923304],"voronoi":{"lat":37.963223,"lng":140.18464,"delta_lat":[0,20337,-16181,-26416,-1445,-27893,102,10215,5244,14685],"delta_lng":[0,-75364,-3231,4241,922,87103,2404,21035,-3661,-12098]},"impl":true},
    {"code":1121903,"left":1121609,"right":1121904,"id":"0d1c19","name":"西米沢","name_kana":"にしよねざわ","lat":37.917279,"lng":140.08481,"prefecture":6,"lines":[11219],"attr":"cool","postal_code":"992-0056","address":"米沢市直江町","next":[1021205,1121609,1121911,1121610,1121904,1121902],"voronoi":{"lat":37.939517,"lng":140.111208,"delta_lat":[0,1445,-51075,-26531,-61371,116749],"delta_lng":[0,-922,-144329,-20290,56546,105260]},"impl":true},
    {"code":1121609,"left":1121902,"id":"e85f49","name":"米沢","name_kana":"よねざわ","lat":37.909478,"lng":140.128209,"prefecture":6,"lines":[11216,11219],"attr":"eco","postal_code":"992-0027","address":"米沢市駅前１丁目","next":[1121608,1121610,1121903,1121902],"voronoi":{"lat":37.911625,"lng":140.19831,"delta_lat":[0,27893,-20783,-34330],"delta_lng":[0,-87103,-3735,23241]},"impl":true},
    {"code":1121902,"id":"f58f91","name":"南米沢","name_kana":"みなみよねざわ","lat":37.896043,"lng":140.108364,"prefecture":6,"lines":[11219],"attr":"cool","postal_code":"992-0037","address":"米沢市本町１丁目","next":[1021205,1121609,1121903,1121608],"voronoi":{"lat":37.918734,"lng":140.107472,"delta_lat":[0,-116749,-38496,120915],"delta_lng":[0,-105260,28214,100287]},"impl":true},
    {"code":1121904,"id":"0ac08b","name":"成島(山形)","original_name":"成島","name_kana":"なるしま","lat":37.94335,"lng":140.075584,"prefecture":6,"lines":[11219],"attr":"cool","postal_code":"992-0083","address":"米沢市広幡町成島","next":[1121905,1121610,1121911,1121903],"voronoi":{"lat":37.889887,"lng":139.965956,"delta_lat":[0,40093,37398,-26416],"delta_lng":[0,23994,116094,4241]},"impl":true},
    {"code":1121608,"left":1121607,"right":1121611,"id":"c8c43b","name":"関根","name_kana":"せきね","lat":37.864592,"lng":140.146284,"prefecture":6,"lines":[11216],"attr":"eco","postal_code":"992-1205","address":"米沢市大字関根","next":[1121609,1121607,1122511,1122510,1021205,1121610,1121902],"voronoi":{"lat":37.911625,"lng":140.19831,"delta_lat":[0,102,-203364,444,14475,40208,120915],"delta_lng":[0,2404,-97570,-3273,-48941,-20504,100287]},"impl":true},
    {"code":1121607,"id":"61e38b","name":"大沢(山形)","original_name":"大沢","name_kana":"おおさわ","lat":37.839775,"lng":140.19801,"prefecture":6,"lines":[11216],"attr":"eco","postal_code":"992-1203","address":"米沢市大字大沢字峠","next":[1121606,1121608,1122510,9923307,1121610,1121605,9923306,9923309],"voronoi":{"lat":37.914734,"lng":140.267087,"delta_lat":[0,5411,1797,-10215,-203364,-7287,173953,39211],"delta_lng":[0,-30895,-14442,-21035,-97570,22538,127340,15588]},"impl":true},
    {"code":1121611,"id":"43b694","name":"高畠","name_kana":"たかはた","lat":37.992314,"lng":140.15281,"prefecture":6,"lines":[11216,99233],"attr":"eco","postal_code":"999-2174","address":"東置賜郡高畠町大字福沢","next":[1121612,9921105,9923304,1121610,9923302,1121905],"voronoi":{"lat":38.006056,"lng":140.103171,"delta_lat":[0,11235,1498,-35722,-19845,20337],"delta_lng":[0,13335,21405,40405,6323,-75364]},"impl":true},
    {"code":9921116,"left":1121909,"right":9921102,"id":"94791d","name":"荒砥","name_kana":"あらと","lat":38.188,"lng":140.097401,"prefecture":6,"lines":[99211,11234],"attr":"cool","postal_code":"992-0831","address":"西置賜郡白鷹町大字荒砥甲字中道","open_date":"1923-04-22","next":[9921104,9923210,1121804,1121614,9921117,9921103,1121812,9921115,9921113],"voronoi":{"lat":38.126904,"lng":140.108554,"delta_lat":[0,13224,85115,55563,28962,5167,-165378,-20138,-4494],"delta_lng":[0,40883,44939,-34057,-50800,-36477,18647,4197,3030]},"impl":true},
    {"code":1121909,"left":1121911,"right":9921112,"id":"1f63eb","name":"萩生","name_kana":"はぎゅう","lat":38.06182,"lng":140.004207,"prefecture":6,"lines":[11219],"attr":"eco","postal_code":"999-0602","address":"西置賜郡飯豊町大字萩生","next":[1121910,9921108,9921111,9921109,1121912,9921112,1121908,1121911,9921110],"voronoi":{"lat":38.1056,"lng":139.98613,"delta_lat":[0,30464,7485,-60531,-5359,-37060,16698,37109,3386],"delta_lng":[0,-55662,-16833,15222,6246,86666,2143,-21872,-3993]},"impl":true},
    {"code":1121911,"left":1121913,"right":9921106,"id":"e2897d","name":"手ノ子","name_kana":"てのこ","lat":38.011766,"lng":139.961264,"prefecture":6,"lines":[11219],"attr":"eco","postal_code":"999-1111","address":"西置賜郡飯豊町大字手ノ子","next":[1121906,1021205,1121903,1121904,1121912,1121910,1121909,1121905],"voronoi":{"lat":37.993361,"lng":140.003682,"delta_lat":[0,84298,5359,-203765,-15896,26531,40093,26782],"delta_lng":[0,-68579,-6246,-38867,55677,20290,23994,10776]},"impl":true},
    {"code":1121913,"left":1121912,"right":1121915,"id":"45107a","name":"伊佐領","name_kana":"いさりょう","lat":38.05105,"lng":139.822635,"prefecture":6,"lines":[11219],"attr":"heat","postal_code":"999-1322","address":"西置賜郡小国町大字伊佐領","next":[1121912,9921113,9921114,9921112,1121915,1121914],"voronoi":{"lat":38.161723,"lng":139.902188,"delta_lat":[0,24978,56569,84832,-221140,-144192],"delta_lng":[0,-9408,-25628,-41840,-31650,19340]},"impl":true},
    {"code":1121912,"left":1121914,"id":"c7ef15","name":"羽前沼沢","name_kana":"うぜんぬまざわ","lat":38.028698,"lng":139.872497,"prefecture":6,"lines":[11219],"attr":"eco","postal_code":"999-1505","address":"西置賜郡小国町大字百子沢","next":[1121913,9921112,1121909,1021205,1121914,1121911],"voronoi":{"lat":37.879253,"lng":139.889989,"delta_lat":[0,-2490,86007,198953,-18174,-60531],"delta_lng":[0,-92585,15597,89186,11447,15222]},"impl":true},
    {"code":1121914,"id":"f1e37b","name":"羽前松岡","name_kana":"うぜんまつおか","lat":38.045391,"lng":139.780445,"prefecture":6,"lines":[11219],"attr":"heat","postal_code":"999-1324","address":"西置賜郡小国町大字松岡","next":[1122613,1021204,1121916,1021205,1121912,1121915,1121913],"voronoi":{"lat":38.106961,"lng":139.793661,"delta_lat":[0,-178942,-69418,-7626,10089,15698,86007],"delta_lng":[0,-94743,-12517,16257,45148,49598,15597]},"impl":true},
    {"code":1121915,"id":"6c8a64","name":"小国","name_kana":"おぐに","lat":38.061422,"lng":139.750167,"prefecture":6,"lines":[11219],"attr":"heat","postal_code":"999-1352","address":"西置賜郡小国町大字岩井沢","next":[1121421,1121913,1121420,9921114,1121422,1121914,1121916],"voronoi":{"lat":38.324376,"lng":139.723222,"delta_lat":[0,31862,14142,-42278,-221140,-178942,395521],"delta_lng":[0,58724,29087,14278,-31650,-94743,23061]},"impl":true},
    {"code":9921106,"left":1121907,"right":1121908,"id":"cea736","name":"西大塚","name_kana":"にしおおつか","lat":38.055489,"lng":140.064644,"prefecture":6,"lines":[99211,11234],"attr":"heat","postal_code":"992-0601","address":"東置賜郡川西町大字西大塚字大野","open_date":"1914-11-15","next":[1121908,9921108,1121907,9921105,9921109],"voronoi":{"lat":38.030198,"lng":140.082773,"delta_lat":[0,12205,38191,709,16338],"delta_lng":[0,-29197,2248,428,22851]},"impl":true},
    {"code":1121907,"left":1121910,"id":"c46cd7","name":"犬川","name_kana":"いぬかわ","lat":38.025333,"lng":140.052038,"prefecture":6,"lines":[11219],"attr":"cool","postal_code":"999-0133","address":"東置賜郡川西町大字小松","next":[1121908,1121905,9921105,1121910,1121906,9921106],"voronoi":{"lat":38.007724,"lng":140.09839,"delta_lat":[0,-582,13001,14751,7508,-12205],"delta_lng":[0,-2145,-75807,3398,29741,29197]},"impl":true},
    {"code":1121910,"id":"5950b9","name":"羽前椿","name_kana":"うぜんつばき","lat":38.038636,"lng":139.994293,"prefecture":6,"lines":[11219],"attr":"eco","postal_code":"999-0604","address":"西置賜郡飯豊町大字椿","next":[1121909,1121906,1121907,1121908,1121911],"voronoi":{"lat":38.077659,"lng":139.935103,"delta_lat":[0,-37060,-5704,-14751,-26783],"delta_lng":[0,86666,2067,-3398,-16756]},"impl":true},
    {"code":1121908,"id":"7b6359","name":"今泉","name_kana":"いまいずみ","lat":38.056697,"lng":140.04412,"prefecture":6,"lines":[11219,99211,11234],"attr":"eco","postal_code":"993-0033","address":"長井市今泉","next":[1121907,9921106,1121910,1121909,9921108],"voronoi":{"lat":38.057297,"lng":140.023912,"delta_lat":[0,-16698,-5704,7508,38191],"delta_lng":[0,-2143,2067,29741,2248]},"impl":true},
    {"code":9921112,"left":9921110,"right":9921115,"id":"b5cbdc","name":"羽前成田","name_kana":"うぜんなりた","lat":38.131038,"lng":140.034987,"prefecture":6,"lines":[99211,11234],"attr":"eco","postal_code":"993-0075","address":"長井市成田字熊之堂","open_date":"1922-12-11","next":[1121913,1121912,1121909,9921104,9921110,9921111,9921113],"voronoi":{"lat":38.1867,"lng":139.89278,"delta_lat":[0,-24978,-18174,-7485,-20515,-248,6768],"delta_lng":[0,9408,11447,16833,156447,4059,5009]},"impl":true},
    {"code":9921110,"left":9921109,"right":9921111,"id":"922043","name":"長井","name_kana":"ながい","lat":38.106505,"lng":140.033486,"prefecture":6,"lines":[99211,11234],"attr":"eco","postal_code":"993-0084","address":"長井市栄町","open_date":"1914-11-15","next":[9921111,9921105,9921104,9921112,9921109,1121909],"voronoi":{"lat":38.1056,"lng":139.98613,"delta_lat":[0,9949,-248,-776,-6348,-10385],"delta_lng":[0,100785,4059,-350,-4837,-87740]},"impl":true},
    {"code":9921109,"left":9921108,"id":"767189","name":"南長井","name_kana":"みなみながい","lat":38.097592,"lng":140.034541,"prefecture":6,"lines":[99211,11234],"attr":"heat","postal_code":"993-0015","address":"長井市四ツ谷１丁目","open_date":"1960-05-20","next":[9921105,1121909,9921108,9921106,9921110],"voronoi":{"lat":38.097791,"lng":139.998047,"delta_lat":[0,-3386,-13103,16338,10536],"delta_lng":[0,3993,54213,22851,6683]},"impl":true},
    {"code":9921108,"id":"d5aab0","name":"時庭","name_kana":"ときにわ","lat":38.076727,"lng":140.029498,"prefecture":6,"lines":[99211,11234],"attr":"heat","postal_code":"993-0035","address":"長井市時庭字細川","open_date":"1914-11-15","next":[1121909,9921106,9921109,1121908],"voronoi":{"lat":38.081302,"lng":140.056253,"delta_lat":[0,13103,-37109,23297],"delta_lng":[0,-54213,21872,31913]},"impl":true},
    {"code":9921111,"id":"aed2b1","name":"あやめ公園","name_kana":"あやめこうえん","lat":38.113971,"lng":140.032749,"prefecture":6,"lines":[99211],"attr":"eco","postal_code":"993-0087","address":"長井市横町１３７９番地の２","open_date":"2002-06-09","next":[1121909,9921110,9921112],"voronoi":{"lat":38.136063,"lng":139.930467,"delta_lat":[0,-30464,9949],"delta_lng":[0,55662,100785]},"impl":true},
    {"code":9921115,"left":9921114,"right":9921117,"id":"4a9400","name":"鮎貝","name_kana":"あゆかい","lat":38.182517,"lng":140.071095,"prefecture":6,"lines":[99211,11234],"attr":"cool","postal_code":"992-0771","address":"西置賜郡白鷹町大字鮎貝字遠藤清水","open_date":"1922-12-11","next":[9921113,9921117,9923210,9921114,9921116],"voronoi":{"lat":38.149556,"lng":140.09169,"delta_lat":[0,181424,24289,-224503,-1348],"delta_lng":[0,-91077,-99241,193057,1458]},"impl":true},
    {"code":9921114,"left":9921113,"id":"31e747","name":"蚕桑","name_kana":"こぐわ","lat":38.161588,"lng":140.046757,"prefecture":6,"lines":[99211,11234],"attr":"eco","postal_code":"992-0773","address":"西置賜郡白鷹町大字高玉字鹿島前","open_date":"1922-12-11","next":[1121913,9921113,1121915,9921115,1121422,9923210],"voronoi":{"lat":38.381458,"lng":139.818581,"delta_lat":[0,-11078,-42278,-84832,-112503,224503],"delta_lng":[0,-7547,14278,41840,227277,-193057]},"impl":true},
    {"code":9921113,"id":"27c9a5","name":"白兎","name_kana":"しろうさぎ","lat":38.149984,"lng":140.041013,"prefecture":6,"lines":[99211],"attr":"eco","postal_code":"993-0071","address":"長井市白兎","open_date":"1989-12-16","next":[1121913,9921115,9921114,9921116,9921104,9921112],"voronoi":{"lat":38.124924,"lng":140.098917,"delta_lat":[0,4494,1348,112503,-56569,-64632],"delta_lng":[0,-3030,-1458,-227277,25628,203203]},"impl":true},
    {"code":9921117,"id":"ad8392","name":"四季の郷","name_kana":"しきのさと","lat":38.185763,"lng":140.077561,"prefecture":6,"lines":[99211],"attr":"cool","postal_code":"992-0771","address":"西置賜郡白鷹町大字鮎貝１６８３番地の５","open_date":"2007-10-13","next":[9923210,9921115,9921116],"voronoi":{"lat":38.330981,"lng":140.000613,"delta_lat":[0,-16046,-165378],"delta_lng":[0,72430,18647]},"impl":true},
    {"code":9921102,"left":9923305,"right":1121614,"id":"9c1b4c","name":"南陽市役所","name_kana":"なんようしやくしょ","lat":38.056138,"lng":140.148569,"prefecture":6,"lines":[99211],"attr":"heat","postal_code":"999-2232","address":"南陽市三間通字関口後","open_date":"1988-10-25","next":[9921104,9921103,1121612,1121613],"voronoi":{"lat":38.050825,"lng":140.13141,"delta_lat":[0,4900,31156,-33390],"delta_lng":[0,1913,34523,22597]},"impl":true},
    {"code":9923305,"left":9923303,"right":9923308,"id":"060138","name":"東高畠","name_kana":"ひがしたかはた","closed":true,"lat":38.006531,"lng":140.206152,"prefecture":6,"lines":[99233],"postal_code":"992-0351","address":"山形県東置賜郡高畠町大字高畠２６２０−１","open_date":"1950-12-01","closed_date":"1968-10-01","next":[9923303,9923306,9923304,1121613,1121610],"voronoi":{"lat":37.941871,"lng":140.205991,"delta_lat":[0,89527,18459,222,-122893],"delta_lng":[0,-8424,4481,7448,8593]},"impl":false},
    {"code":9923303,"left":9923304,"right":1121612,"id":"638342","name":"竹ノ森","name_kana":"たけのもり","closed":true,"lat":38.013234,"lng":140.178537,"prefecture":6,"lines":[99233],"postal_code":"992-0342","address":"山形県東置賜郡高畠町大字竹森５４−１３","open_date":"1922-03-16","closed_date":"1974-11-18","next":[9923305,9923302,1121613,1121612,9923304],"voronoi":{"lat":38.049856,"lng":140.202047,"delta_lat":[0,3618,-23934,-33745,35602],"delta_lng":[0,-11590,-27407,16129,18387]},"impl":false},
    {"code":9923304,"left":9923302,"id":"ffa4bf","name":"高畠(山形交通)","original_name":"高畠","name_kana":"たかはた","closed":true,"lat":38.005366,"lng":140.193771,"prefecture":6,"lines":[99233],"postal_code":"992-0351","address":"山形県東置賜郡高畠町大字高畠１５６８","open_date":"1922-03-16","closed_date":"1974-11-18","next":[1121611,9923305,9923302,9923303,1121610],"voronoi":{"lat":38.031398,"lng":140.197567,"delta_lat":[0,-35602,-12728,-19845,-21352],"delta_lng":[0,-18387,-863,6323,21351]},"impl":false},
    {"code":9923302,"id":"09370d","name":"一本柳","name_kana":"いっぽんやなぎ","closed":true,"lat":38.007248,"lng":140.166013,"prefecture":6,"lines":[99233],"postal_code":"992-0334","address":"山形県東置賜郡高畠町大字一本柳１２６６","open_date":"1922-03-16","closed_date":"1974-11-18","next":[9923303,1121612,1121611,9923304],"voronoi":{"lat":37.983067,"lng":140.178316,"delta_lat":[0,35722,10751,-33745],"delta_lng":[0,-40405,25139,16129]},"impl":false},
    {"code":1121612,"id":"9ee105","name":"赤湯","name_kana":"あかゆ","lat":38.047081,"lng":140.148978,"prefecture":6,"lines":[11216,99211,11234],"attr":"eco","postal_code":"999-2241","address":"南陽市郡山","next":[9921105,1121611,9923302,9921102,9921104,9923303,1121613],"voronoi":{"lat":38.02954,"lng":140.163051,"delta_lat":[0,-10751,-1498,17950,15584,2666,-17],"delta_lng":[0,-25139,-21405,3604,11300,59033,14]},"impl":true},
    {"code":9923308,"left":9923307,"right":9923309,"id":"5f101b","name":"上駄子町","name_kana":"かみだごまち","closed":true,"lat":38.012567,"lng":140.2378,"prefecture":6,"lines":[99233],"postal_code":"992-0301","address":"山形県東置賜郡高畠町大字二井宿９６０−１２","open_date":"1924-08-31","closed_date":"1968-10-01","next":[1121613,9923307,9923309],"voronoi":{"lat":38.051501,"lng":140.217239,"delta_lat":[0,8609,-128941],"delta_lng":[0,20306,25219]},"impl":false},
    {"code":9923307,"left":9923306,"id":"1e86f4","name":"蛭沢","closed":true,"lat":38.008707,"lng":140.227597,"prefecture":6,"lines":[99233],"postal_code":"992-0302","address":"山形県東置賜郡高畠町大字安久津４７２","open_date":"1924-08-31","closed_date":"1968-10-01","next":[9923306,9923309,1121607,9923308,1121613],"voronoi":{"lat":38.051389,"lng":140.216845,"delta_lat":[0,-131244,-5411,16435,120332],"delta_lng":[0,19346,30895,-4323,-45525]},"impl":false},
    {"code":9923306,"id":"19ee0c","name":"八幡宮前","closed":true,"lat":38.00742,"lng":140.218866,"prefecture":6,"lines":[99233],"postal_code":"992-0302","address":"山形県東置賜郡高畠町大字安久津２０４３","open_date":"1924-08-31","closed_date":"1968-10-01","next":[9923307,9923305,1121613,1121610,1121607],"voronoi":{"lat":37.921941,"lng":140.22175,"delta_lat":[0,5244,122893,1310,-131244],"delta_lng":[0,-3661,-8593,7350,19346]},"impl":false},
    {"code":9923309,"id":"7ecd3b","name":"二井宿","name_kana":"にいじゅく","closed":true,"lat":38.015974,"lng":140.25522,"prefecture":6,"lines":[99233],"postal_code":"992-0301","address":"山形県東置賜郡高畠町大字二井宿１９１４","open_date":"1924-08-31","closed_date":"1968-10-01","next":[1121613,1121615,1123131,9923307,1121604,1121614,1121605,9921512,9923308,1121616,1123128,1121607],"voronoi":{"lat":37.914734,"lng":140.267087,"delta_lat":[0,16435,128941,20895,1852,-18810,-16147,-8513,-47848,-52192,-22230,-2877],"delta_lng":[0,-4323,-25219,31293,5429,109318,58381,-284,-23026,-48590,-58203,-43252]},"impl":false},
    {"code":1121614,"left":9921103,"right":1121616,"id":"5cacd8","name":"羽前中山","name_kana":"うぜんなかやま","lat":38.124158,"lng":140.218318,"prefecture":6,"lines":[11216],"attr":"heat","postal_code":"999-3246","address":"上山市中山","next":[1121617,1121615,9921116,1121613,9923309,9921103,1121804],"voronoi":{"lat":38.215003,"lng":140.212737,"delta_lat":[0,-132147,-1852,56376,2747,85115,-3797],"delta_lng":[0,61529,-5429,-117637,-1763,44939,12162]},"impl":true},
    {"code":9921103,"left":9921104,"right":1121613,"id":"59a3cb","name":"宮内(山形)","original_name":"宮内","name_kana":"みやうち","lat":38.070849,"lng":140.135293,"prefecture":6,"lines":[99211,11234],"attr":"heat","postal_code":"992-0472","address":"南陽市宮内字冨貴田","open_date":"1913-10-26","next":[1121613,9921102,9921104,9921116,1121614],"voronoi":{"lat":38.086881,"lng":140.167847,"delta_lat":[0,-31156,71178,13224,-2747],"delta_lng":[0,-34523,-24769,40883,1763]},"impl":true},
    {"code":9921104,"left":9921105,"id":"9f3c1e","name":"おりはた","name_kana":"おりはた","lat":38.066359,"lng":140.12239,"prefecture":6,"lines":[99211,11234],"attr":"heat","postal_code":"992-0474","address":"南陽市漆山字東屋敷","open_date":"1959-06-01","next":[9921116,9921102,1121612,9921112,9921110,9921103,9921105,9921113],"voronoi":{"lat":38.126904,"lng":140.108554,"delta_lat":[0,-71178,-4900,-15584,79283,776,6768,2856],"delta_lng":[0,24769,-1913,-11300,-29487,350,5009,2934]},"impl":true},
    {"code":9921105,"id":"03e4e2","name":"梨郷","name_kana":"りんごう","lat":38.057307,"lng":140.098051,"prefecture":6,"lines":[99211,11234],"attr":"heat","postal_code":"992-0478","address":"南陽市竹原字上千刈田","open_date":"1913-10-26","next":[1121612,9921109,1121907,1121611,1121905,9921110,9921106,9921104],"voronoi":{"lat":38.114525,"lng":140.090624,"delta_lat":[0,-6348,-10536,-67443,-22473,-1668,11235,17950],"delta_lng":[0,-4837,-6683,3670,15616,4782,13335,3604]},"impl":true},
    {"code":1121613,"id":"88fa1c","name":"中川(山形)","original_name":"中川","name_kana":"なかがわ","lat":38.093349,"lng":140.203553,"prefecture":6,"lines":[11216],"attr":"eco","postal_code":"999-2203","address":"南陽市小岩沢","next":[9923309,9923303,9921103,9923306,1121614,9923308,1121612,9921102,9923305,9923307],"voronoi":{"lat":38.060109,"lng":140.237545,"delta_lat":[0,20895,56376,-50499,-33390,-17,-3618,222,1310,112],"delta_lng":[0,31293,-117637,16646,22597,14,11590,7448,7350,393]},"impl":true},
    {"code":1121616,"left":1121615,"right":1121617,"id":"8fa144","name":"茂吉記念館前","name_kana":"もきちきねんかんまえ","lat":38.171249,"lng":140.298167,"prefecture":6,"lines":[11216],"attr":"heat","postal_code":"999-3131","address":"上山市北町弁天","next":[1121618,1121617,1121716,1121615,1123131,9923309],"voronoi":{"lat":38.064047,"lng":140.383585,"delta_lat":[0,131188,-23106,-14537,-31320,-78372],"delta_lng":[0,-127776,156101,38408,31711,-40063]},"impl":true},
    {"code":1121615,"id":"ece654","name":"かみのやま温泉","name_kana":"かみのやまおんせん","lat":38.152259,"lng":140.27867,"prefecture":6,"lines":[11216],"attr":"heat","postal_code":"999-3134","address":"上山市矢来","next":[9923309,1121614,1121617,1121616],"voronoi":{"lat":38.195234,"lng":140.255809,"delta_lat":[0,19769,-132147,-18810],"delta_lng":[0,-43071,61529,109318]},"impl":true},
    {"code":1121617,"id":"5a6c66","name":"蔵王","name_kana":"ざおう","lat":38.20592,"lng":140.303299,"prefecture":6,"lines":[11216],"attr":"eco","postal_code":"990-2313","address":"山形市大字松原","next":[1121804,1121614,1121615,1121616,1121803,1121618],"voronoi":{"lat":38.195234,"lng":140.255809,"delta_lat":[0,19769,6442,19676,252,-69245],"delta_lng":[0,-43071,-6199,55090,28355,121926]},"impl":true},
    {"code":1123128,"left":1123127,"right":1123027,"id":"3b6758","name":"藤田","name_kana":"ふじた","lat":37.879062,"lng":140.539722,"prefecture":7,"lines":[11231],"attr":"eco","postal_code":"969-1771","address":"伊達郡国見町大字山崎字北町田","next":[9921310,9921512,1123129,9921309,1123127,9921311,9923309,1123131,9921312],"voronoi":{"lat":38.017769,"lng":140.47282,"delta_lat":[0,21617,-47848,-46862,-96927,3853,7283,11573,857],"delta_lng":[0,-31139,-23026,26894,103865,8405,8902,8974,448]},"impl":true},
    {"code":1123127,"left":9921302,"right":9921307,"id":"152ac7","name":"桑折","name_kana":"こおり","lat":37.855258,"lng":140.517508,"prefecture":7,"lines":[11231],"attr":"eco","postal_code":"969-1641","address":"伊達郡桑折町大字南半田字六角","next":[9921512,9921309,9921308,9921306,1123126,9921307,1123128],"voronoi":{"lat":37.944677,"lng":140.44555,"delta_lat":[0,-84944,-29039,3550,3857,6678,2971],"delta_lng":[0,33800,37525,16509,6972,6931,2128]},"impl":true},
    {"code":9921302,"left":1123123,"right":1123125,"id":"b07f49","name":"卸町(福島)","original_name":"卸町","name_kana":"おろしまち","lat":37.795472,"lng":140.479463,"prefecture":7,"lines":[99213],"attr":"cool","postal_code":"960-0102","address":"福島市鎌田字沢田","next":[9921505,9921503,9921508,1123125,9921504,9921303,9921502],"voronoi":{"lat":37.799304,"lng":140.483522,"delta_lat":[0,-6556,-1186,-2257,-6036,-8573,-12522],"delta_lng":[0,-23211,-38,1129,3612,10053,22032]},"impl":true},
    {"code":1123123,"left":9921504,"right":100409,"id":"4d587b","name":"南福島","name_kana":"みなみふくしま","lat":37.723665,"lng":140.456074,"prefecture":7,"lines":[11231],"attr":"cool","postal_code":"960-1102","address":"福島市永井川字壇ノ腰","next":[1123122,1121603,1121602,1021102,1123121,100409],"voronoi":{"lat":37.741446,"lng":140.436325,"delta_lat":[0,-26131,-7872,-8915,5867,25999],"delta_lng":[0,-36702,-5690,100417,14455,20868]},"impl":true},
    {"code":9921504,"left":9921503,"right":9921505,"id":"42bf80","name":"岩代清水","name_kana":"いわしろしみず","lat":37.776304,"lng":140.44743,"prefecture":7,"lines":[99215],"attr":"eco","postal_code":"960-8253","address":"福島市泉字大仏３６-１","next":[9921503,1121602,9921302,9921505],"voronoi":{"lat":37.770007,"lng":140.437244,"delta_lat":[0,-7273,20535,6036],"delta_lng":[0,3520,24250,-3612]},"impl":true},
    {"code":9921503,"left":1123122,"id":"fbb07f","name":"美術館図書館前","name_kana":"びじゅつかんとしょかんまえ","lat":37.767074,"lng":140.455246,"prefecture":7,"lines":[99215],"attr":"eco","postal_code":"960-8002","address":"福島市森合町字台３-５","next":[9921502,9921302,9921504,100409,1121602],"voronoi":{"lat":37.756742,"lng":140.446198,"delta_lat":[0,17955,8573,-20535,-7749],"delta_lng":[0,28868,-10053,-24250,304]},"impl":true},
    {"code":1123122,"id":"d9c84e","name":"金谷川","name_kana":"かなやがわ","lat":37.680526,"lng":140.452244,"prefecture":7,"lines":[11231],"attr":"cool","postal_code":"960-1241","address":"福島市松川町関谷字坂下","next":[1123123,1121603,1123120,1123121,1123118,1123119],"voronoi":{"lat":37.656621,"lng":140.327513,"delta_lat":[0,1714,49108,-8915,-54394,-5234],"delta_lng":[0,-5209,71628,100417,-45139,-26096]},"impl":true},
    {"code":9921505,"id":"637dc6","name":"泉(福島交通)","original_name":"泉","name_kana":"いずみ","lat":37.778551,"lng":140.445635,"prefecture":7,"lines":[99215],"attr":"eco","postal_code":"971-8182","address":"福島県いわき市泉町滝尻上谷地30","next":[9921302,9921506,9921508,9921504,1121602],"voronoi":{"lat":37.773494,"lng":140.435003,"delta_lat":[0,16335,1733,-2257,-19298],"delta_lng":[0,17904,7365,1129,-24158]},"impl":true},
    {"code":100409,"left":1123121,"right":9921502,"id":"7bfd6b","name":"福島(福島)","original_name":"福島","name_kana":"ふくしま","lat":37.754123,"lng":140.45968,"prefecture":7,"lines":[1004,11231,11216,99213,99215],"attr":"heat","postal_code":"960-8031","address":"福島市栄町","next":[1121602,9921503,9921303,9921306,9921502,9921304,1123123,1021102],"voronoi":{"lat":37.730394,"lng":140.529673,"delta_lat":[0,11052,13540,1756,1926,-5985,-13098,-6817],"delta_lng":[0,-93348,4743,5131,55481,9129,16300,5467]},"impl":true},
    {"code":1123121,"left":1123120,"id":"fc5105","name":"松川","name_kana":"まつかわ","lat":37.653825,"lng":140.48442,"prefecture":7,"lines":[11231,10211],"attr":"cool","postal_code":"960-1241","address":"福島市松川町字原","next":[1123120,1123123,1021102,1123122],"voronoi":{"lat":37.644133,"lng":140.44921,"delta_lat":[0,-28321,88582,-5867],"delta_lng":[0,64879,-5285,-14455]},"impl":true},
    {"code":1123120,"id":"b2930e","name":"安達","name_kana":"あだち","lat":37.611724,"lng":140.466042,"prefecture":7,"lines":[11231],"attr":"cool","postal_code":"969-1404","address":"二本松市油井字古屋敷","next":[1123119,1123121,1021102,1122813,1123122],"voronoi":{"lat":37.6389,"lng":140.423114,"delta_lat":[0,-104317,18882,62348,28321],"delta_lng":[0,75298,54424,-38747,-64879]},"impl":true},
    {"code":9921502,"id":"e5dfdb","name":"曽根田","name_kana":"そねだ","lat":37.760289,"lng":140.459466,"prefecture":7,"lines":[99215],"attr":"eco","postal_code":"960-8051","address":"福島市曾根田町３-３７","next":[9921503,9921303,100409,9921302],"voronoi":{"lat":37.758667,"lng":140.501679,"delta_lat":[0,-1926,17955,-12522],"delta_lng":[0,-55481,28868,22032]},"impl":true},
    {"code":1123125,"left":9921511,"right":9921305,"id":"c42d4f","name":"東福島","name_kana":"ひがしふくしま","lat":37.800447,"lng":140.478058,"prefecture":7,"lines":[11231],"attr":"eco","postal_code":"960-0116","address":"福島市宮代字段ノ腰","next":[9921512,9921303,9921508,9921302,1123126,9921509,9921510],"voronoi":{"lat":37.820453,"lng":140.472883,"delta_lat":[0,-8009,-13140,-6556,5452,7511,8782],"delta_lng":[0,12369,-1730,-23211,-560,1061,4464]},"impl":true},
    {"code":9921511,"left":9921510,"right":9921512,"id":"be4613","name":"花水坂","name_kana":"はなみずざか","lat":37.827043,"lng":140.450739,"prefecture":7,"lines":[99215],"attr":"cool","postal_code":"960-0201","address":"福島市飯坂町字町裏５-１","next":[1121604,9921510,9921512],"voronoi":{"lat":37.927041,"lng":140.372606,"delta_lat":[0,-79956,-31366],"delta_lng":[0,14835,75810]},"impl":true},
    {"code":9921510,"left":9921509,"id":"b1eb1c","name":"医王寺前","name_kana":"いおうじまえ","lat":37.816544,"lng":140.446395,"prefecture":7,"lines":[99215],"attr":"cool","postal_code":"960-0201","address":"福島市飯坂町平野字道添１４","next":[1121604,9921511,9921509,1121603,9921512,1123125],"voronoi":{"lat":37.815718,"lng":140.463251,"delta_lat":[0,31366,-16534,-2043,-22796,8782],"delta_lng":[0,-75810,1622,1626,70123,4464]},"impl":true},
    {"code":9921509,"id":"030e68","name":"平野(福島)","original_name":"平野","name_kana":"ひらの","lat":37.805427,"lng":140.442781,"prefecture":7,"lines":[99215],"attr":"heat","postal_code":"960-0231","address":"福島市飯坂町平野字堂の前１６","next":[1121603,9921508,9921510,1123125],"voronoi":{"lat":37.828508,"lng":140.390688,"delta_lat":[0,-21364,-8943,7511],"delta_lng":[0,13678,55384,1061]},"impl":true},
    {"code":9921512,"id":"af40a7","name":"飯坂温泉","name_kana":"いいざかおんせん","lat":37.830265,"lng":140.454696,"prefecture":7,"lines":[99215],"attr":"cool","postal_code":"960-0201","address":"福島市飯坂町十綱下２８","next":[1123125,1123127,1123128,1123126,9921511,9923309,9921510,1121604],"voronoi":{"lat":37.815718,"lng":140.463251,"delta_lat":[0,-1225,5960,39279,84944,46862,-52192,-12306],"delta_lng":[0,2025,7607,6467,-33800,-26894,-48590,2540]},"impl":true},
    {"code":9921305,"left":9921304,"right":1123126,"id":"0a35c4","name":"向瀬上","name_kana":"むかいせのうえ","lat":37.806683,"lng":140.510532,"prefecture":7,"lines":[99213],"attr":"cool","postal_code":"960-0101","address":"福島市瀬上町字瀬上","next":[9921304,9921306,1123126],"voronoi":{"lat":37.814321,"lng":140.500917,"delta_lat":[0,-69376,85068],"delta_lng":[0,25040,-9387]},"impl":true},
    {"code":9921304,"left":9921303,"id":"cc5b85","name":"瀬上","name_kana":"せのうえ","lat":37.802303,"lng":140.498397,"prefecture":7,"lines":[99213],"attr":"cool","postal_code":"960-0101","address":"福島市瀬上町字桜町","next":[9921305,9921306,9921303,1123126,100409],"voronoi":{"lat":37.752683,"lng":140.510809,"delta_lat":[0,58999,2640,-69376,-5361],"delta_lng":[0,-20987,11096,25040,1151]},"impl":true},
    {"code":9921303,"id":"214ef4","name":"福島学院前","name_kana":"ふくしまがくえんまえ","lat":37.798994,"lng":140.489095,"prefecture":7,"lines":[99213],"attr":"cool","postal_code":"960-0101","address":"福島市瀬上町字街道東８番地３","next":[1123125,9921502,1123126,100409,9921304,9921302],"voronoi":{"lat":37.799304,"lng":140.483522,"delta_lat":[0,13140,-763,-58999,5985,3507],"delta_lng":[0,1730,4570,20987,-9129,-4581]},"impl":true},
    {"code":1123126,"id":"7e17ff","name":"伊達","name_kana":"だて","lat":37.823917,"lng":140.493255,"prefecture":7,"lines":[11231],"attr":"eco","postal_code":"960-0478","address":"伊達市細谷","next":[9921303,1123127,9921512,9921306,9921304,1123125,9921305],"voronoi":{"lat":37.830694,"lng":140.516875,"delta_lat":[0,29039,-39279,-8009,-763,2640,15692],"delta_lng":[0,-37525,-6467,12369,4570,11096,15653]},"impl":true},
    {"code":9921307,"left":1123019,"right":9921312,"id":"5c1fbb","name":"上保原","name_kana":"かみほばら","lat":37.809628,"lng":140.542749,"prefecture":7,"lines":[99213],"attr":"cool","postal_code":"960-0684","address":"伊達市保原町上保原字下当築","next":[9921306,9921308,1123127,1021103,1021102],"voronoi":{"lat":37.740131,"lng":140.575605,"delta_lat":[0,97969,-3857,-100878,-353],"delta_lng":[0,-35250,-6972,7082,14466]},"impl":true},
    {"code":1123019,"left":1123020,"right":1123017,"id":"09985e","name":"日立木","name_kana":"にったき","lat":37.756081,"lng":140.934642,"prefecture":7,"lines":[11230],"attr":"heat","postal_code":"979-2521","address":"相馬市赤木字上原田","next":[1123018,1123017,1123020,9921313,1021103],"voronoi":{"lat":37.668503,"lng":140.860713,"delta_lat":[0,137070,-59932,-2177,-99505],"delta_lng":[0,206085,-311265,-694,26448]},"impl":true},
    {"code":1123020,"left":1021103,"right":9921306,"id":"9d2470","name":"相馬","name_kana":"そうま","lat":37.802455,"lng":140.925713,"prefecture":7,"lines":[11230],"attr":"heat","postal_code":"976-0042","address":"相馬市中村字曲田","next":[9921313,1123019,9921317,1123021,1123018,9921316],"voronoi":{"lat":37.820522,"lng":140.807708,"delta_lat":[0,4854,-19803,-59932,6139,8212],"delta_lng":[0,303576,-44487,-311265,1097,3798]},"impl":true},
    {"code":1021103,"left":1021102,"id":"724b67","name":"岩代川俣","name_kana":"いわしろかわまた","closed":true,"lat":37.665139,"lng":140.5925,"prefecture":7,"lines":[10211],"postal_code":"960-1406","address":"福島県伊達郡川俣町大字鶴沢笛田４−１","open_date":"1926-03-01","closed_date":"1972-05-14","next":[1123014,9921312,1021102,9921313,9921310,1122811,9921308,1123017,9921311,1122812,9921309,9921307,1123019],"voronoi":{"lat":37.743465,"lng":140.754838,"delta_lat":[0,5285,2485,49,-2312,-3159,-5681,-7119,-178855,-7339,5353,6645,85143],"delta_lng":[0,-44188,-41654,-17394,-33275,-19033,-23689,-20674,26946,90899,100071,2314,6125]},"impl":false},
    {"code":1021102,"id":"e39f66","name":"岩代飯野","name_kana":"いわしろいいの","closed":true,"lat":37.657083,"lng":140.539028,"prefecture":7,"lines":[10211],"postal_code":"960-1301","address":"福島県福島市飯野町後川１８−８","open_date":"1926-03-01","closed_date":"1972-05-14","next":[1021103,1123120,1123123,1122812,9921307,1122813,1123121,100409,9921306],"voronoi":{"lat":37.733013,"lng":140.554931,"delta_lat":[0,-178855,-2142,1449,62348,88582,25999,2374,598],"delta_lng":[0,26946,-12915,-16126,-38747,-5285,20868,2903,7890]},"impl":false},
    {"code":9921306,"id":"027d46","name":"高子","name_kana":"たかこ","lat":37.808561,"lng":140.52755,"prefecture":7,"lines":[99213],"attr":"cool","postal_code":"960-0684","address":"伊達市保原町上保原字向台","next":[1123127,9921307,9921304,9921305,1123126,100409,1021102],"voronoi":{"lat":37.732768,"lng":140.532576,"delta_lat":[0,6817,5361,85068,680,3550,-100878],"delta_lng":[0,-5467,-1151,-9387,304,16509,7082]},"impl":true},
    {"code":1123017,"left":1123015,"right":1123018,"id":"8c2579","name":"原ノ町","name_kana":"はらのまち","lat":37.6379,"lng":140.971161,"prefecture":7,"lines":[11230],"attr":"heat","postal_code":"975-0004","address":"南相馬市原町区旭町２","next":[1123019,1021103,1123018,1123016,1123014],"voronoi":{"lat":37.558816,"lng":140.775162,"delta_lat":[0,85143,24544,3423,-97409],"delta_lng":[0,6125,79426,202219,-157742]},"impl":true},
    {"code":1123015,"left":1123016,"id":"241bb5","name":"小高","name_kana":"おだか","lat":37.56298,"lng":140.996375,"prefecture":7,"lines":[11230],"attr":"eco","postal_code":"979-2121","address":"南相馬市小高区東町１","next":[1123016,1123013,1122314,1123012,1123014],"voronoi":{"lat":37.57411,"lng":140.90961,"delta_lat":[0,111053,-88196,-79878,3934],"delta_lng":[0,941853,174152,-923887,-40581]},"impl":true},
    {"code":1123016,"id":"e99ecd","name":"磐城太田","name_kana":"いわきおおた","lat":37.605114,"lng":140.991407,"prefecture":7,"lines":[11230],"attr":"heat","postal_code":"975-0054","address":"南相馬市原町区高字金井神","next":[1122313,1123015,1123014,1122314,1123017,1123018],"voronoi":{"lat":37.739542,"lng":141.750328,"delta_lat":[0,-54380,-111053,408,97409,125645],"delta_lng":[0,101136,-941853,-4421,157742,575180]},"impl":true},
    {"code":1123018,"id":"dd7175","name":"鹿島","name_kana":"かしま","lat":37.702827,"lng":140.970062,"prefecture":7,"lines":[11230],"attr":"heat","postal_code":"979-2335","address":"南相馬市鹿島区鹿島","next":[1123022,1123019,1122313,1123020,1123021,1123017,1122310,1123016],"voronoi":{"lat":37.671926,"lng":141.062932,"delta_lat":[0,-3423,137070,19803,31043,57404,-71299,-44953],"delta_lng":[0,-202219,206085,44487,96277,228024,129441,73085]},"impl":true},
    {"code":9921312,"left":9921310,"right":9921313,"id":"7da863","name":"梁川(福島)","original_name":"梁川","name_kana":"やながわ","lat":37.845815,"lng":140.603279,"prefecture":7,"lines":[99213],"attr":"eco","postal_code":"960-0773","address":"伊達市梁川町五反田","next":[9921311,1123129,1021103,9921313,1123128],"voronoi":{"lat":37.870458,"lng":140.575696,"delta_lat":[0,-119224,-2485,126298,-3732],"delta_lng":[0,93301,41654,-124023,-10484]},"impl":true},
    {"code":9921310,"left":9921309,"right":9921311,"id":"803f55","name":"二井田","name_kana":"にいだ","lat":37.828424,"lng":140.581151,"prefecture":7,"lines":[99213],"attr":"eco","postal_code":"960-0633","address":"伊達市保原町二井田字前原","next":[1123128,9921309,1021103,9921311],"voronoi":{"lat":37.748971,"lng":140.618328,"delta_lat":[0,102631,7283,-107602],"delta_lng":[0,-60508,8902,84881]},"impl":true},
    {"code":9921309,"left":9921308,"id":"bf9129","name":"大泉(福島)","original_name":"大泉","name_kana":"おおいずみ","lat":37.819966,"lng":140.566805,"prefecture":7,"lines":[99213],"attr":"cool","postal_code":"960-0634","address":"伊達市保原町大泉字大地内","next":[9921308,9921310,1123127,1021103,1123128],"voronoi":{"lat":37.84775,"lng":140.549414,"delta_lat":[0,-2971,-98966,3159,102631],"delta_lng":[0,-2128,52008,19033,-60508]},"impl":true},
    {"code":9921308,"id":"e16bdf","name":"保原","name_kana":"ほばら","lat":37.81463,"lng":140.556651,"prefecture":7,"lines":[99213],"attr":"cool","postal_code":"960-0671","address":"伊達市保原町東野崎","next":[9921309,1123127,1021103,9921307],"voronoi":{"lat":37.8381,"lng":140.540355,"delta_lat":[0,6678,-98966,-5681],"delta_lng":[0,6931,52008,-23689]},"impl":true},
    {"code":9921311,"id":"9a6f0e","name":"新田(福島)","original_name":"新田","name_kana":"にった","lat":37.83776,"lng":140.592986,"prefecture":7,"lines":[99213],"attr":"eco","postal_code":"960-0767","address":"伊達市梁川町新田字台","next":[9921312,9921310,1021103,1123128],"voronoi":{"lat":37.751235,"lng":140.668996,"delta_lat":[0,49,107602,11573],"delta_lng":[0,-17394,-84881,8974]},"impl":true},
    {"code":9921313,"left":1123021,"right":9921314,"id":"b020f3","name":"やながわ希望の森公園前","name_kana":"やながわきぼうのもりこうえんまえ","lat":37.857867,"lng":140.615552,"prefecture":7,"lines":[99213],"attr":"heat","postal_code":"960-0726","address":"伊達市梁川町北町頭","next":[9921312,1021103,1123129,1123020,9921314,9921316,1123019],"voronoi":{"lat":37.751781,"lng":140.756629,"delta_lat":[0,45047,85948,-7728,-126298,-5285,2177],"delta_lng":[0,-35658,-123061,-11283,124023,44188,694]},"impl":true},
    {"code":1123021,"id":"7d1a09","name":"駒ヶ嶺","name_kana":"こまがみね","lat":37.842353,"lng":140.925075,"prefecture":7,"lines":[11230],"attr":"heat","postal_code":"979-2611","address":"福島県相馬郡新地町駒ケ嶺字深町21","next":[1123023,1123020,9921317,1123018,1123022],"voronoi":{"lat":37.825377,"lng":141.111285,"delta_lat":[0,-4854,37831,3760,-5694],"delta_lng":[0,-303576,20432,12767,366654]},"impl":true},
    {"code":9921314,"id":"7d64f5","name":"富野","name_kana":"とみの","lat":37.874788,"lng":140.62737,"prefecture":7,"lines":[99213],"attr":"heat","postal_code":"960-0704","address":"伊達市梁川町舟生字原田","next":[1123130,9921316,1123129,9921315,9921313],"voronoi":{"lat":37.882776,"lng":140.597911,"delta_lat":[0,20033,1485,-80807,-26659],"delta_lng":[0,14465,3831,87116,17649]},"impl":true},
    {"code":1123027,"left":9921321,"right":9921702,"id":"99e2f9","name":"逢隈","name_kana":"おおくま","lat":38.067584,"lng":140.854669,"prefecture":4,"lines":[11230],"attr":"cool","postal_code":"989-2382","address":"亘理郡亘理町逢隈下郡字椿山","next":[1123137,9921704,1123136,9921323,1123026],"voronoi":{"lat":38.045964,"lng":140.825719,"delta_lat":[0,206,48087,-15701,-9346],"delta_lng":[0,-55,11900,76600,8791]},"impl":true},
    {"code":9921321,"left":9921316,"right":1123135,"id":"32f29e","name":"横倉(宮城)","original_name":"横倉","name_kana":"よこくら","lat":37.996999,"lng":140.776045,"prefecture":4,"lines":[99213],"attr":"eco","postal_code":"981-1512","address":"角田市横倉字宮下","next":[9921320,1123134,1123024,1123025,1123026,9921322,1123133],"voronoi":{"lat":37.997866,"lng":140.7271,"delta_lat":[0,-21462,9631,2695,3603,24509,-15615],"delta_lng":[0,103978,2603,-122,-1808,-81258,-21959]},"impl":true},
    {"code":9921316,"left":1123130,"right":9921319,"id":"ef1984","name":"あぶくま","name_kana":"あぶくま","lat":37.913443,"lng":140.68576,"prefecture":4,"lines":[99213],"attr":"heat","postal_code":"981-2185","address":"伊具郡丸森町字滝の上","next":[100410,1123130,9921314,1123133,9921315,9921317,9921313,1123020,9921319],"voronoi":{"lat":37.759992,"lng":140.760428,"delta_lat":[0,-8212,45047,26659,117204,8786,23599,-1106,-12471],"delta_lng":[0,-3798,-35658,-17649,-53892,2183,36703,19218,7655]},"impl":true},
    {"code":1123130,"left":9921315,"right":100410,"id":"fc3470","name":"越河","name_kana":"こすごう","lat":37.933616,"lng":140.604572,"prefecture":4,"lines":[11231],"attr":"cool","postal_code":"989-0111","address":"白石市越河五賀字海道下","next":[9921315,9921316,1123131,1123129,9921314,100410],"voronoi":{"lat":37.973654,"lng":140.598987,"delta_lat":[0,29215,-100060,1485,36397,8786],"delta_lng":[0,-94664,108052,3831,33224,2183]},"impl":true},
    {"code":9921315,"left":1123129,"id":"e387b5","name":"兜","name_kana":"かぶと","lat":37.895375,"lng":140.646466,"prefecture":7,"lines":[99213],"attr":"heat","postal_code":"960-0704","address":"伊達市梁川町舟生字桂野山","next":[1123130,9921316,9921314],"voronoi":{"lat":37.904293,"lng":140.616206,"delta_lat":[0,36397,-117204],"delta_lng":[0,33224,53892]},"impl":true},
    {"code":1123129,"id":"ac5ca9","name":"貝田","name_kana":"かいだ","lat":37.908226,"lng":140.58106,"prefecture":7,"lines":[11231],"attr":"eco","postal_code":"969-1711","address":"伊達郡国見町大字貝田字竹ノ根","next":[9921312,1123131,9921313,1123130,1123128,9921314],"voronoi":{"lat":38.002868,"lng":140.504323,"delta_lat":[0,14901,-146454,3732,7728,20033],"delta_lng":[0,-31503,103323,10484,11283,14465]},"impl":true},
    {"code":100410,"id":"4f14a1","name":"白石蔵王","name_kana":"しろいしざおう","lat":37.995499,"lng":140.633002,"prefecture":4,"lines":[1004],"attr":"eco","postal_code":"989-0213","address":"宮城県白石市大鷹沢三沢桜田１１−１","next":[1123131,9921316,1123132,1123130,1123133],"voronoi":{"lat":37.949477,"lng":140.651613,"delta_lat":[0,24177,39761,-11073,-29266],"delta_lng":[0,-52626,46994,24117,18218]},"impl":true},
    {"code":9921319,"left":9921318,"right":9921320,"id":"d880ec","name":"南角田","name_kana":"みなみかくだ","lat":37.964895,"lng":140.769578,"prefecture":4,"lines":[99213],"attr":"heat","postal_code":"981-1500","address":"角田市摺鉢","next":[9921317,1123133,1123024,9921318,9921320,9921316],"voronoi":{"lat":37.951716,"lng":140.74863,"delta_lat":[0,8350,623,21958,-10677,-12471],"delta_lng":[0,80731,-8,-112425,-9393,7655]},"impl":true},
    {"code":9921318,"left":9921317,"id":"cc27c0","name":"北丸森","name_kana":"きたまるもり","lat":37.943103,"lng":140.771832,"prefecture":4,"lines":[99213],"attr":"heat","postal_code":"981-2106","address":"伊具郡丸森町木沼","next":[1123024,1123023,9921319,9921317],"voronoi":{"lat":37.951716,"lng":140.74863,"delta_lat":[0,8350,-31478,-43124],"delta_lng":[0,80731,6279,-6271]},"impl":true},
    {"code":9921317,"id":"c4e4e1","name":"丸森","name_kana":"まるもり","lat":37.930641,"lng":140.761606,"prefecture":4,"lines":[99213,10206],"attr":"heat","postal_code":"981-2103","address":"伊具郡丸森町舘矢間字山田土手下","next":[9921319,1123020,1123021,9921316,9921318,1123023],"voronoi":{"lat":37.858354,"lng":140.828141,"delta_lat":[0,-37831,-60530,199506,-7783,-66252],"delta_lng":[0,-20432,-47281,-45238,33440,80739]},"impl":true},
    {"code":9921320,"id":"3ff903","name":"角田","name_kana":"かくだ","lat":37.979282,"lng":140.772388,"prefecture":4,"lines":[99213,10206],"attr":"eco","postal_code":"981-1505","address":"角田市角田字流","next":[9921321,1123024,9921319,1123133],"voronoi":{"lat":37.976403,"lng":140.831079,"delta_lat":[0,-15715,21958,15219],"delta_lng":[0,-1726,-112425,10173]},"impl":true},
    {"code":1123135,"left":1123132,"right":1123136,"id":"30a715","name":"船岡(宮城)","original_name":"船岡","name_kana":"ふなおか","lat":38.059298,"lng":140.767366,"prefecture":4,"lines":[11231],"attr":"cool","postal_code":"989-1606","address":"柴田郡柴田町船岡中央１丁目","next":[1123134,9921322,1121708,9921323,1121709,1123136],"voronoi":{"lat":38.165444,"lng":140.744903,"delta_lat":[0,-635,-4290,-126246,3729,35872],"delta_lng":[0,-23172,-14436,54753,9706,14700]},"impl":true},
    {"code":1123132,"left":1123133,"right":1123134,"id":"296dc2","name":"東白石","name_kana":"ひがししろいし","lat":38.034935,"lng":140.651109,"prefecture":4,"lines":[11231],"attr":"cool","postal_code":"989-1104","address":"白石市白川内親字阿久土","next":[1121714,1121712,100410,1121716,1123131,1123133,1121709,1121715],"voronoi":{"lat":38.172342,"lng":140.581195,"delta_lat":[0,1026,-17264,-153763,11073,120596,25615,3418],"delta_lng":[0,15568,81960,-8624,-24117,-151581,32517,6618]},"impl":true},
    {"code":1123133,"left":1123131,"id":"561176","name":"北白川","name_kana":"きたしらかわ","lat":38.032607,"lng":140.692613,"prefecture":4,"lines":[11231],"attr":"cool","postal_code":"989-1102","address":"白石市白川津田字下谷地","next":[9921319,1123134,9921316,1123132,1121709,9921320,9921321,100410],"voronoi":{"lat":37.97197,"lng":140.707534,"delta_lat":[0,10677,15219,3361,154825,53,-153763,-29266],"delta_lng":[0,9393,10173,1434,-48484,-1328,-8624,18218]},"impl":true},
    {"code":1123131,"id":"ea23eb","name":"白石(宮城)","original_name":"白石","name_kana":"しろいし","lat":38.003581,"lng":140.626164,"prefecture":4,"lines":[11231],"attr":"cool","postal_code":"989-0243","address":"白石市字沢目","next":[100410,9923309,1123129,1123130,1121716,1123132,1121616,1123128],"voronoi":{"lat":38.002868,"lng":140.504323,"delta_lat":[0,-29215,39761,120596,-7739,-78372,-8513,-21617],"delta_lng":[0,94664,46994,-151581,-12372,-40063,-284,31139]},"impl":true},
    {"code":1123134,"id":"4621db","name":"大河原(宮城)","original_name":"大河原","name_kana":"おおがわら","lat":38.047491,"lng":140.740142,"prefecture":4,"lines":[11231],"attr":"cool","postal_code":"989-1201","address":"柴田郡大河原町大谷字向","next":[1123133,9921321,1123135,1121709,9921322],"voronoi":{"lat":38.160518,"lng":140.707295,"delta_lat":[0,-4467,-154825,15615,17431],"delta_lng":[0,-27244,48484,21959,11554]},"impl":true},
    {"code":1123136,"left":9921323,"right":9921801,"id":"5d3f17","name":"槻木","name_kana":"つきのき","lat":38.07864,"lng":140.809992,"prefecture":4,"lines":[11231,99213,10206],"attr":"cool","postal_code":"989-1756","address":"柴田郡柴田町大字槻木字畑中","next":[9921801,1121708,1123027,9921323,1123137,1123135],"voronoi":{"lat":38.165444,"lng":140.744903,"delta_lat":[0,6583,-4207,-73562,-48087,27703],"delta_lng":[0,26346,20625,45690,-11900,-39210]},"impl":true},
    {"code":9921323,"left":9921322,"id":"746650","name":"東船岡","name_kana":"ひがしふなおか","lat":38.050095,"lng":140.789824,"prefecture":4,"lines":[99213,10206],"attr":"cool","postal_code":"989-1611","address":"柴田郡柴田町大字上名生字横橋","next":[9921322,1123136,1123027,1123026,1123135],"voronoi":{"lat":38.038001,"lng":140.771754,"delta_lat":[0,-11715,19678,206,27703],"delta_lng":[0,51125,2840,-55,-39210]},"impl":true},
    {"code":9921322,"id":"1b78c3","name":"岡","name_kana":"おか","lat":38.019246,"lng":140.782755,"prefecture":4,"lines":[99213,10206],"attr":"eco","postal_code":"981-1524","address":"角田市岡字白岩","next":[9921323,1123026,9921321,1123135,1123134],"voronoi":{"lat":38.038001,"lng":140.771754,"delta_lat":[0,-11715,-33954,24509,17431],"delta_lng":[0,51125,8873,-81258,11554]},"impl":true},
    {"code":9921801,"id":"f34c03","name":"八木山動物公園","name_kana":"やぎやまどうぶつこうえん","lat":38.242778,"lng":140.843472,"prefecture":4,"lines":[99218],"attr":"heat","postal_code":"982-0801","address":"仙台市太白区八木山本町","open_date":"2015-12-06","next":[9921804,1123137,1123136,9921416,9921417,9921803,1123139,1121708,9921805,1121707,9921802],"voronoi":{"lat":38.249419,"lng":140.852859,"delta_lat":[0,-4025,-6309,-10335,-60099,-818,-13,4207,17986,28076,34355],"delta_lng":[0,5196,4911,-5663,-63891,-1452,-86,-20625,6558,16037,50778]},"impl":true},
    {"code":9921702,"left":1123025,"right":1123141,"id":"519658","name":"杜せきのした","name_kana":"もりせきのした","lat":38.165482,"lng":140.895738,"prefecture":4,"lines":[99217],"attr":"heat","postal_code":"981-1224","address":"名取市増田字関下２００番地１","next":[1123139,9921703,1123138,1123140],"voronoi":{"lat":38.144713,"lng":140.901765,"delta_lat":[0,13189,26959,6217],"delta_lng":[0,-19105,15644,15941]},"impl":true},
    {"code":1123025,"left":1123137,"right":9921704,"id":"699d32","name":"浜吉田","name_kana":"はまよしだ","lat":38.002195,"lng":140.890083,"prefecture":4,"lines":[11230],"attr":"cool","postal_code":"989-2331","address":"亘理郡亘理町吉田字流","next":[1123024,9921704,1123023,9921321,1123022,1123026],"voronoi":{"lat":37.988729,"lng":140.833559,"delta_lat":[0,-2695,-5628,7147,18223,57711],"delta_lng":[0,122,184804,51272,62995,-201526]},"impl":true},
    {"code":1123137,"left":1123024,"right":1123138,"id":"688b2f","name":"岩沼","name_kana":"いわぬま","lat":38.11205,"lng":140.863783,"prefecture":4,"lines":[11231,11230],"attr":"cool","postal_code":"989-2441","address":"岩沼市館下１丁目","next":[9921801,1123027,9921704,1123136,1123139,1123138],"voronoi":{"lat":38.078557,"lng":140.914164,"delta_lat":[0,15701,73562,13,-3084,-52722],"delta_lng":[0,-76600,-45690,86,9912,99304]},"impl":true},
    {"code":1123024,"left":1123026,"id":"00c7c3","name":"山下(宮城)","original_name":"山下","name_kana":"やました","lat":37.966472,"lng":140.888995,"prefecture":4,"lines":[11230],"attr":"cool","postal_code":"989-2200","address":"亘理郡山元町寺字頭無","next":[9921318,9921320,1123025,1123023,9921319,9921321],"voronoi":{"lat":37.976403,"lng":140.831079,"delta_lat":[0,-15715,-623,-31478,51819,5628],"delta_lng":[0,-1726,8,6279,182846,-184804]},"impl":true},
    {"code":1123026,"id":"1da9d5","name":"亘理","name_kana":"わたり","lat":38.039776,"lng":140.861317,"prefecture":4,"lines":[11230],"attr":"cool","postal_code":"989-2351","address":"亘理郡亘理町道田西","next":[9921322,9921321,9921323,9921704,1123025,1123027],"voronoi":{"lat":38.045964,"lng":140.825719,"delta_lat":[0,-19678,-33954,-3603,74758,5723],"delta_lng":[0,-2840,8873,1808,97667,-8272]},"impl":true},
    {"code":1123138,"id":"9cf8ce","name":"館腰","name_kana":"たてこし","lat":38.142987,"lng":140.880208,"prefecture":4,"lines":[11231,11230],"attr":"heat","postal_code":"981-1226","address":"名取市植松４丁目","next":[9921704,9921703,9921702,1123137,1123139],"voronoi":{"lat":38.164749,"lng":140.801871,"delta_lat":[0,-52722,26923,5763,13189],"delta_lng":[0,99304,3171,-2581,-19105]},"impl":true},
    {"code":9921704,"left":1123022,"right":9921703,"id":"dbf914","name":"仙台空港","name_kana":"せんだいくうこう","lat":38.137267,"lng":140.928763,"prefecture":4,"lines":[99217],"attr":"heat","postal_code":"981-1200","address":"名取市","next":[1123137,1123138,9921813,1123027,1123025,1123022,1122211,1122222,1122223,1123026,9921703],"voronoi":{"lat":38.13895,"lng":140.904347,"delta_lat":[0,-26923,-33470,-9346,-5723,-57711,-2169,56236,28111,80931,12931],"delta_lng":[0,-3171,12988,8791,8272,201526,179682,-59552,-30876,-163093,-70098]},"impl":true},
    {"code":1123022,"left":1123023,"id":"c06685","name":"新地","name_kana":"しんち","lat":37.87925,"lng":140.925648,"prefecture":7,"lines":[11230],"attr":"heat","postal_code":"979-2702","address":"相馬郡新地町大字谷地小屋","next":[1123018,1123023,1122223,1122310,9921704,1123025,1123021],"voronoi":{"lat":37.913823,"lng":141.435585,"delta_lat":[0,76154,13630,2169,-18223,-125440,-5694],"delta_lng":[0,-93713,-29438,-179682,-62995,-228850,366654]},"impl":true},
    {"code":1123023,"id":"1832ec","name":"坂元","name_kana":"さかもと","lat":37.92433,"lng":140.900938,"prefecture":4,"lines":[11230],"attr":"cool","postal_code":"989-2111","address":"亘理郡山元町坂元字二又","next":[9921318,1123021,1123022,1123024,1123025,9921317],"voronoi":{"lat":37.928588,"lng":140.835639,"delta_lat":[0,51819,7147,-125440,-3760,27110],"delta_lng":[0,182846,51272,-228850,-12767,1228]},"impl":true},
    {"code":9921703,"id":"12a2d9","name":"美田園","name_kana":"みたぞの","lat":38.15965,"lng":140.917404,"prefecture":4,"lines":[99217],"attr":"heat","postal_code":"981-1201","address":"名取市下増田字大橋本５４番地","next":[9921813,1123138,9921702,9921704,1123140],"voronoi":{"lat":38.181817,"lng":140.988816,"delta_lat":[0,-42867,5763,46365,12845],"delta_lng":[0,-84469,-2581,12480,14211]},"impl":true},
    {"code":1123141,"left":9921417,"right":9921414,"id":"562738","name":"太子堂","name_kana":"たいしどう","lat":38.21711,"lng":140.883436,"prefecture":4,"lines":[11231,11230],"attr":"eco","postal_code":"982-0013","address":"仙台市太白区太子堂１丁目２０番地","next":[9921811,9921417,9921416,9921813,1123140,1123142],"voronoi":{"lat":38.209105,"lng":140.92534,"delta_lat":[0,-2162,336,10376,5019,-10727],"delta_lng":[0,920,-47374,-2417,5506,40749]},"impl":true},
    {"code":9921417,"left":1123140,"right":9921416,"id":"526da7","name":"富沢","name_kana":"とみざわ","lat":38.214087,"lng":140.87046,"prefecture":4,"lines":[99214],"attr":"cool","postal_code":"982-0032","address":"仙台市太白区富沢４-２-２２","next":[9921416,9921801,1123141,1123140,1123139],"voronoi":{"lat":38.16865,"lng":140.793411,"delta_lat":[0,60099,-11095,-10376,-21366],"delta_lng":[0,63891,19167,2417,-27804]},"impl":true},
    {"code":1123140,"left":1123139,"id":"db00b6","name":"南仙台","name_kana":"みなみせんだい","lat":38.197384,"lng":140.883296,"prefecture":4,"lines":[11231,11230],"attr":"cool","postal_code":"981-1103","address":"仙台市太白区中田町５丁目","next":[9921417,1123141,9921813,9921703,9921702,1123139],"voronoi":{"lat":38.185912,"lng":140.851083,"delta_lat":[0,21366,-336,-3020,-12845,-6217],"delta_lng":[0,27804,47374,2196,-14211,-15941]},"impl":true},
    {"code":1123139,"id":"66f4e8","name":"名取","name_kana":"なとり","lat":38.173017,"lng":140.882753,"prefecture":4,"lines":[11231,11230,99217],"attr":"cool","postal_code":"981-1224","address":"名取市増田２丁目５番地１","next":[9921702,9921801,1123137,1123140,1123138,9921417],"voronoi":{"lat":38.16865,"lng":140.793411,"delta_lat":[0,-818,-3084,-6847,26959,1052],"delta_lng":[0,-1452,9912,80789,15644,-47222]},"impl":true},
    {"code":9921416,"id":"3c3a20","name":"長町南","name_kana":"ながまちみなみ","lat":38.224642,"lng":140.87657,"prefecture":4,"lines":[99214],"attr":"cool","postal_code":"982-0012","address":"仙台市太白区長町南３-１-６０","next":[9921801,9921417,9921412,1123142,1123141,9921805,9921414],"voronoi":{"lat":38.222674,"lng":140.881975,"delta_lat":[0,-5019,11095,10335,495,-2674,-5144],"delta_lng":[0,-5506,-19167,5663,1366,11080,4484]},"impl":true},
    {"code":9921414,"left":1123142,"right":9921413,"id":"79b48d","name":"長町一丁目","name_kana":"ながまちいっちょうめ","lat":38.234085,"lng":140.887402,"prefecture":4,"lines":[99214],"attr":"cool","postal_code":"982-0011","address":"仙台市太白区長町１-２-１２","next":[9921412,9921810,1123142,9921413,9921416],"voronoi":{"lat":38.236905,"lng":140.875411,"delta_lat":[0,1096,-966,-11110,5836],"delta_lng":[0,2698,22622,9203,-30039]},"impl":true},
    {"code":1123142,"id":"b4f86b","name":"長町","name_kana":"ながまち","lat":38.226797,"lng":140.885986,"prefecture":4,"lines":[11231,11230,99214],"attr":"eco","postal_code":"982-0011","address":"仙台市太白区長町５丁目","next":[9921811,9921416,9921810,9921414,1123141],"voronoi":{"lat":38.222674,"lng":140.881975,"delta_lat":[0,9088,-5836,-6791,-7188],"delta_lng":[0,-2080,30039,7689,5101]},"impl":true},
    {"code":9921413,"id":"c5ada8","name":"河原町(宮城)","original_name":"河原町","name_kana":"かわらまち","lat":38.241112,"lng":140.887702,"prefecture":4,"lines":[99214],"attr":"cool","postal_code":"984-0816","address":"仙台市若林区河原町１-５-１０","next":[9921412,9921810,9921809,9921414],"voronoi":{"lat":38.238002,"lng":140.878109,"delta_lat":[0,9269,-5547,-4688],"delta_lng":[0,10106,10359,2157]},"impl":true}
  ]
}