{
  "name":"segment28",
  "root":9950911,
  "east":137.013425,
  "west":136.102715,
  "south":34.9639,
  "north":35.132433,
  "station_size":144,
  "node_list":[
    {"code":9950911,"left":9952807,"right":9951721,"id":"615d4b","name":"金城ふ頭","name_kana":"きんじょうふとう","lat":35.048775,"lng":136.849009,"prefecture":23,"lines":[99509],"attr":"eco","postal_code":"455-0848","address":"名古屋市港区金城ふ頭三丁目２番","next":[3102709,3102708,3102710,3000811,3000815,9950910,3000813,9952901,3000812,3000818,3000819,3000814,3000817,3000816],"voronoi":{"lat":35.016324,"lng":136.837189,"delta_lat":[0,-2227,466,5692,14033,18402,18757,1138,-15544,-6625,-12095,-8584,-5463,-2841],"delta_lng":[0,-17714,-27321,-29424,1439,13511,17615,1680,80279,-725,-3262,-5636,-5760,-5210]}},
    {"code":9952807,"left":3100802,"right":9952908,"id":"a54402","name":"北勢中央公園口","name_kana":"ほくせいちゅうおうこうえんぐち","lat":35.060519,"lng":136.566096,"prefecture":24,"lines":[99528],"attr":"eco","postal_code":"512-1302","address":"四日市市市場町字東高見５３６-２","next":[9952805,9952806,9952909,9952808],"voronoi":{"lat":35.053964,"lng":136.538759,"delta_lat":[0,-521,3150,18006],"delta_lng":[0,44756,3575,-14617]}},
    {"code":3100802,"left":3100807,"right":3102716,"id":"147510","name":"中川原","name_kana":"なかがわら","lat":34.969242,"lng":136.602715,"prefecture":24,"lines":[31008],"attr":"eco","postal_code":"510-0833","address":"四日市市中川原２-２-１４","next":[3100803,3102719,3101303,3102720,3100801,3101302,9952804],"voronoi":{"lat":34.999929,"lng":136.602491,"delta_lat":[0,-24068,-8701,-4437,-1047,39662,-186],"delta_lng":[0,9446,-1528,-5804,-8226,1754,3626]}},
    {"code":3100807,"left":9960120,"right":3100809,"id":"ceecf2","name":"菰野","name_kana":"こもの","lat":35.0087,"lng":136.517368,"prefecture":24,"lines":[31008],"attr":"heat","postal_code":"510-1233","address":"三重郡菰野町大字菰野字辰巳野８９２","next":[3100806,9952808,3100809,1150816,3100808,9952806],"voronoi":{"lat":35.049537,"lng":136.524562,"delta_lat":[0,1560,-86799,-17806,696,80255],"delta_lng":[0,-2621,-23801,-2933,6572,40103]}},
    {"code":9960120,"left":9960121,"right":3100805,"id":"0ebc68","name":"水口松尾","name_kana":"みなくちまつお","lat":34.980224,"lng":136.18644,"prefecture":25,"lines":[99601],"attr":"eco","postal_code":"528-0005","address":"甲賀市水口町水口字知神１６３７-１","next":[9960121,1151103,9960119,9960118,9960117,1151104],"voronoi":{"lat":34.955121,"lng":136.242749,"delta_lat":[0,52236,11021,732,-69572,-237],"delta_lng":[0,-50593,-29334,-7273,43336,26358]}},
    {"code":9960121,"left":9960122,"right":1151107,"id":"bb43f3","name":"水口","name_kana":"みなくち","lat":34.974238,"lng":136.17683,"prefecture":25,"lines":[99601],"attr":"eco","postal_code":"528-0005","address":"甲賀市水口町水口２４６９","next":[9960120,1151104,1151105,9960123,9960117,9960122,1151107],"voronoi":{"lat":35.019109,"lng":136.155549,"delta_lat":[0,-69572,-620,497,36272,21725,12153],"delta_lng":[0,43336,-3768,-2689,-29031,-11768,1830]}},
    {"code":9960122,"left":9960123,"id":"1f3979","name":"水口石橋","name_kana":"みなくちいしばし","lat":34.970072,"lng":136.171625,"prefecture":25,"lines":[99601],"attr":"eco","postal_code":"528-0014","address":"甲賀市水口町鹿深４５０８-１","next":[9960121,9960123,1151105],"voronoi":{"lat":34.950651,"lng":136.174482,"delta_lat":[0,35036,-36272],"delta_lng":[0,-11084,29031]}},
    {"code":9960123,"id":"10e5b5","name":"水口城南","name_kana":"みなくちじょうなん","lat":34.968181,"lng":136.165648,"prefecture":25,"lines":[99601],"attr":"eco","postal_code":"528-0005","address":"甲賀市水口町水口字宮ノ下５６６８-２","next":[9960121,1151107,1151106,9960122,1151105],"voronoi":{"lat":34.950496,"lng":136.172804,"delta_lat":[0,23480,33435,-21725,-35036],"delta_lng":[0,-31616,10441,11768,11084]}},
    {"code":1151107,"id":"7c82f7","name":"三雲","name_kana":"みくも","lat":34.983131,"lng":136.117777,"prefecture":25,"lines":[11511],"attr":"eco","postal_code":"520-3221","address":"湖南市三雲","next":[1151108,9960116,9960123,9960402,1151106,9960115,9960117,9960121],"voronoi":{"lat":35.007411,"lng":136.15163,"delta_lat":[0,-33435,-30080,14179,86534,-8232,-703,-16110],"delta_lng":[0,-10441,-25794,-32054,42807,12047,826,14439]}},
    {"code":3100805,"left":3100803,"right":3100806,"id":"3adb92","name":"高角","name_kana":"たかつの","lat":34.983287,"lng":136.554488,"prefecture":24,"lines":[31008],"attr":"cool","postal_code":"512-0923","address":"四日市市高角町字境田２１９３-４","next":[1150816,3100806,9952805,3100804,3101308],"voronoi":{"lat":35.008147,"lng":136.573154,"delta_lat":[0,2451,-63620,-9682,733],"delta_lng":[0,-3765,-65706,36624,1303]}},
    {"code":3100803,"left":3100804,"id":"a83434","name":"伊勢松本","name_kana":"いせまつもと","lat":34.969772,"lng":136.590736,"prefecture":24,"lines":[31008],"attr":"eco","postal_code":"510-0836","address":"四日市市松本３-３-８","next":[3100802,3101303,9952805,9952804,3100804,3101404],"voronoi":{"lat":34.961676,"lng":136.596379,"delta_lat":[0,39662,1301,-159,-41561,546],"delta_lng":[0,1754,-5379,-4358,-13822,21592]}},
    {"code":3100804,"id":"fcd98b","name":"伊勢川島","name_kana":"いせかわしま","lat":34.977688,"lng":136.566934,"prefecture":24,"lines":[31008],"attr":"eco","postal_code":"512-0934","address":"四日市市川島町字川原１０５２","next":[3101404,3100803,3100805,3101308,9952805],"voronoi":{"lat":35.008147,"lng":136.573154,"delta_lat":[0,-70118,6036,16854,41561],"delta_lng":[0,-31544,15718,17246,13822]}},
    {"code":3100806,"id":"86f04e","name":"桜(三重)","original_name":"桜","name_kana":"さくら","lat":34.996586,"lng":136.541611,"prefecture":24,"lines":[31008],"attr":"cool","postal_code":"512-1212","address":"四日市市智積町字武佐４１２-１","next":[9952806,3100807,3100805,1150816,9952805],"voronoi":{"lat":34.946979,"lng":136.503684,"delta_lat":[0,210,80255,-10978,-5867],"delta_lng":[0,-1904,40103,22650,4857]}},
    {"code":3100809,"left":9960118,"right":9952805,"id":"5f4178","name":"大羽根園","name_kana":"おおばねえん","lat":35.012521,"lng":136.49417,"prefecture":24,"lines":[31008],"attr":"heat","postal_code":"510-1233","address":"三重郡菰野町大字菰野字野中３９２８-６","next":[3100810,3100807,9952811,3100808,9952809,1150816],"voronoi":{"lat":34.964299,"lng":136.498141,"delta_lat":[0,100447,6907,1984,-129552,2408],"delta_lng":[0,2233,-10715,-8554,5868,8235]}},
    {"code":9960118,"left":3100810,"right":9960117,"id":"ba31f1","name":"朝日野","name_kana":"あさひの","lat":35.03154,"lng":136.20572,"prefecture":25,"lines":[99601],"attr":"cool","postal_code":"529-1522","address":"東近江市鋳物師町９０３-２","next":[9960112,9960120,9960119,9960117],"voronoi":{"lat":35.086902,"lng":136.304129,"delta_lat":[0,-79545,11021,63158],"delta_lng":[0,-111972,-29334,101453]}},
    {"code":3100810,"left":9960119,"id":"8b7e97","name":"湯の山温泉","name_kana":"ゆのやまおんせん","lat":35.01159,"lng":136.473617,"prefecture":24,"lines":[31008],"attr":"heat","postal_code":"510-1233","address":"三重郡菰野町大字菰野字募４８５２","next":[9952815,1150818,3100809,1150816,1150903,1150817,9960202,9960119,1150902,9952811,9952813],"voronoi":{"lat":35.073637,"lng":136.481104,"delta_lat":[0,-129552,-5073,-4893,2616,33016,5112,115818,3885,-1860,-6501],"delta_lng":[0,5868,-10930,-36817,-18238,-68060,-6480,280,4404,64706,34978]}},
    {"code":9960119,"id":"fbfc2b","name":"日野(滋賀)","original_name":"日野","name_kana":"ひの","lat":35.012203,"lng":136.219457,"prefecture":25,"lines":[99601],"attr":"cool","postal_code":"529-1644","address":"蒲生郡日野町内池７５４-５","next":[1151103,9960202,9960120,1150903,3100810,9960118,1151102,9960112],"voronoi":{"lat":35.086902,"lng":136.304129,"delta_lat":[0,-79545,-52236,-1139,5181,15700,115818,3652],"delta_lng":[0,-111972,50593,18647,63022,22029,280,-12110]}},
    {"code":9960117,"id":"e0ecb3","name":"朝日大塚","name_kana":"あさひおおつか","lat":35.05106,"lng":136.193568,"prefecture":25,"lines":[99601],"attr":"cool","postal_code":"529-1512","address":"東近江市大塚町３１５-３","next":[9960121,9960116,1151107,9960112,9960118,9960113,9960120],"voronoi":{"lat":35.081536,"lng":136.264275,"delta_lat":[0,186,-1511,-44536,-16110,-455,-732],"delta_lng":[0,-11554,-11210,-102491,14439,2090,7273]}},
    {"code":9952805,"left":3100808,"right":9952806,"id":"1481c4","name":"山城","name_kana":"やまじょう","lat":35.035272,"lng":136.588342,"prefecture":24,"lines":[99528],"attr":"eco","postal_code":"512-8048","address":"四日市市山城町１１０６-２","next":[9952908,3100803,9952807,9952806,9952804,3100805,3100804,3100806,9952909],"voronoi":{"lat":35.052762,"lng":136.599786,"delta_lat":[0,-50123,-159,5667,2451,5867,36977,3150,70],"delta_lng":[0,-7032,-4358,-15242,-3765,-4857,18982,3575,3796]}},
    {"code":3100808,"id":"f73f32","name":"中菰野","name_kana":"なかこもの","lat":35.012297,"lng":136.50425,"prefecture":24,"lines":[31008],"attr":"heat","postal_code":"510-1233","address":"三重郡菰野町大字菰野字杉ノ木２１８９","next":[9952808,3100809,3100807,9952809],"voronoi":{"lat":35.051097,"lng":136.521941,"delta_lat":[0,-86799,100447,-7094],"delta_lng":[0,-23801,2233,13742]}},
    {"code":9952806,"id":"11f1cc","name":"保々","name_kana":"ほぼ","lat":35.046774,"lng":136.565936,"prefecture":24,"lines":[99528],"attr":"eco","postal_code":"512-1303","address":"四日市市小牧町１９３７","next":[3100806,9952808,9952805,9952807,3100807],"voronoi":{"lat":35.016465,"lng":136.564532,"delta_lat":[0,36977,521,-4426,-22094],"delta_lng":[0,18982,-44756,-14196,17320]}},
    {"code":3102716,"left":3102717,"right":1150809,"id":"949cab","name":"川越富洲原","name_kana":"かわごえとみすはら","lat":35.016267,"lng":136.659736,"prefecture":24,"lines":[31027],"attr":"eco","postal_code":"510-8122","address":"三重県三重郡川越町大字豊田275","next":[3000819,1150809,3102715,1150810,9952802,1150811,3000820],"voronoi":{"lat":34.992972,"lng":136.747221,"delta_lat":[0,32903,-1949,-3882,-24532,-29703,15234],"delta_lng":[0,-79601,-20007,-867,30299,60392,6004]}},
    {"code":3102717,"left":3102719,"right":1150811,"id":"c3162e","name":"近鉄富田","name_kana":"きんてつとみだ","lat":35.006491,"lng":136.64934,"prefecture":24,"lines":[31027,99528],"attr":"eco","postal_code":"510-8014","address":"四日市市富田１-２６-１９","next":[1150810,9952802,3102718,1150811],"voronoi":{"lat":35.000981,"lng":136.642014,"delta_lat":[0,6762,11446,-17392],"delta_lng":[0,-7104,11230,7468]}},
    {"code":3102719,"left":3102720,"right":3102718,"id":"065654","name":"阿倉川","name_kana":"あくらがわ","lat":34.985207,"lng":136.629417,"prefecture":24,"lines":[31027],"attr":"eco","postal_code":"510-0803","address":"四日市市阿倉川町８-９","next":[9952804,3100802,3102720,9952803,3102718,1150812,1150811],"voronoi":{"lat":34.97415,"lng":136.635354,"delta_lat":[0,25780,1223,127,3569,-29156,-1097],"delta_lng":[0,-32862,-732,258,14055,32012,603]}},
    {"code":3102720,"left":3100801,"id":"cc5297","name":"川原町","name_kana":"かわらまち","lat":34.977283,"lng":136.623201,"prefecture":24,"lines":[31027],"attr":"eco","postal_code":"510-0806","address":"四日市市本郷町１-１","next":[1150812,3102719,3100801,3100802],"voronoi":{"lat":34.969606,"lng":136.625856,"delta_lat":[0,4544,25780,-24068],"delta_lng":[0,9497,-32862,9446]}},
    {"code":3100801,"id":"a33b9c","name":"近鉄四日市（あすなろう四日市）","name_kana":"きんてつよっかいち（あすなろうよっかいち）","lat":34.966495,"lng":136.618352,"prefecture":24,"lines":[31008,31013,31027,31028,31029],"attr":"eco","postal_code":"510-0075","address":"四日市市安島１-１-５６","next":[3102722,3101302,3102720,3100802,1150812],"voronoi":{"lat":34.975862,"lng":136.611938,"delta_lat":[0,-8701,-6095,255,8285],"delta_lng":[0,-1528,5599,7202,2646]}},
    {"code":3102718,"id":"5eb271","name":"霞ヶ浦","name_kana":"かすみがうら","lat":34.993392,"lng":136.636872,"prefecture":24,"lines":[31027],"attr":"eco","postal_code":"510-0001","address":"三重県四日市市八田一丁目14-2","next":[9952803,1150811,9952802,3102719,3102717],"voronoi":{"lat":34.975692,"lng":136.648084,"delta_lat":[0,29156,791,2104,-6762],"delta_lng":[0,-32012,1505,17332,7104]}},
    {"code":1150811,"left":3000818,"right":1150810,"id":"77f722","name":"富田浜","name_kana":"とみだはま","lat":34.996553,"lng":136.65004,"prefecture":24,"lines":[11508],"attr":"cool","postal_code":"510-8011","address":"四日市市東茂福町","next":[3000821,3000822,1150810,3102716,3102718,1150812,3000820,3102717,3102726,3102719],"voronoi":{"lat":34.935331,"lng":136.715534,"delta_lat":[0,-2356,9355,7090,16389,29703,6285,-816,-25289,-1097],"delta_lng":[0,11465,3697,2440,4300,-60392,-23437,-11594,6071,603]}},
    {"code":3000818,"id":"8be37b","name":"長浦(愛知)","original_name":"長浦","name_kana":"ながうら","lat":34.978432,"lng":136.847808,"prefecture":23,"lines":[30008],"attr":"cool","postal_code":"478-0042","address":"知多市長浦１-４００","next":[3000817,3000906,3000820,9950911,3000907,3000819],"voronoi":{"lat":35.014564,"lng":136.792153,"delta_lat":[0,-466,-55915,-13451,-3303,3594],"delta_lng":[0,27321,59145,-4622,-1770,-5398]}},
    {"code":1150810,"id":"fb4480","name":"富田(三重)","original_name":"富田","name_kana":"とみだ","lat":35.008124,"lng":136.653143,"prefecture":24,"lines":[11508],"attr":"cool","postal_code":"510-8014","address":"四日市市富田３","next":[3102717,1150811,3102716,9952802],"voronoi":{"lat":35.01919,"lng":136.646139,"delta_lat":[0,-17392,-6285,24532],"delta_lng":[0,7468,23437,-30299]}},
    {"code":1150809,"left":9952804,"right":3102714,"id":"959207","name":"朝日","name_kana":"あさひ","lat":35.033782,"lng":136.65803,"prefecture":24,"lines":[11508],"attr":"cool","postal_code":"510-8103","address":"三重郡朝日町柿","next":[3102715,3102716,9952904,9952802,9952905],"voronoi":{"lat":35.047522,"lng":136.658665,"delta_lat":[0,-21647,-1949,17244,3510],"delta_lng":[0,8955,-20007,-8140,6605]}},
    {"code":9952804,"left":9952802,"right":9952904,"id":"2ad235","name":"暁学園前","name_kana":"あかつきがくえんまえ","lat":35.032798,"lng":136.605976,"prefecture":24,"lines":[99528],"attr":"eco","postal_code":"512-8044","address":"四日市市中村町３９３-２","next":[3102719,9952803,9952907,9952805,3100803,9952906,9952908,3100802],"voronoi":{"lat":35.00128,"lng":136.602017,"delta_lat":[0,47083,696,3801,-97,-50123,-1301,-186],"delta_lng":[0,16335,-910,-14073,-3583,-7032,5379,3626]}},
    {"code":9952802,"left":9952803,"id":"273548","name":"大矢知","name_kana":"おおやち","lat":35.022147,"lng":136.633382,"prefecture":24,"lines":[99528],"attr":"eco","postal_code":"510-8034","address":"四日市市大矢知町３２７９","next":[3102716,9952803,3102718,1150809,3102717,1150810,9952905],"voronoi":{"lat":35.042822,"lng":136.633319,"delta_lat":[0,-37183,2104,11446,855,3882,17244],"delta_lng":[0,-15742,17332,11230,606,867,-8140]}},
    {"code":9952803,"id":"5a03c3","name":"平津","name_kana":"へいづ","lat":35.028477,"lng":136.61843,"prefecture":24,"lines":[99528],"attr":"eco","postal_code":"512-8042","address":"四日市市平津町３８５-２","next":[9952905,9952804,3102718,9952906,9952802,3102719],"voronoi":{"lat":35.00128,"lng":136.602017,"delta_lat":[0,47083,-4393,-1147,-37183,-791],"delta_lng":[0,16335,13506,1461,-15742,-1505]}},
    {"code":9952904,"id":"af9168","name":"蓮花寺","name_kana":"れんげじ","lat":35.059657,"lng":136.652189,"prefecture":24,"lines":[99529],"attr":"eco","postal_code":"511-0854","address":"桑名市大字蓮花寺１８３-４","next":[9953202,9953203,1150809,9952905,9952903,3102715],"voronoi":{"lat":35.047522,"lng":136.658665,"delta_lat":[0,-2842,34997,-1405,-4048,-26289],"delta_lng":[0,-12587,4253,5328,3358,180]}},
    {"code":3102714,"left":3102715,"right":9952903,"id":"398187","name":"益生","name_kana":"ますお","lat":35.057772,"lng":136.67854,"prefecture":24,"lines":[31027],"attr":"eco","postal_code":"511-0821","address":"桑名市大字矢田７７１","next":[9952902,3000819,9952901,9952903,3102715],"voronoi":{"lat":35.049436,"lng":136.670814,"delta_lat":[0,5510,6965,-51743,-2252],"delta_lng":[0,873,9345,74610,-1410]}},
    {"code":3102715,"id":"355737","name":"伊勢朝日","name_kana":"いせあさひ","lat":35.038246,"lng":136.668821,"prefecture":24,"lines":[31027],"attr":"eco","postal_code":"510-8102","address":"三重郡朝日町大字小向７３９-２","next":[1150809,9952903,3102716,3000819,9952904,3102714],"voronoi":{"lat":35.049436,"lng":136.670814,"delta_lat":[0,-1500,-413,-21647,-32903,14943],"delta_lng":[0,-11617,-532,8955,79601,7011]}},
    {"code":9952903,"id":"737555","name":"西別所","name_kana":"にしべっしょ","lat":35.059752,"lng":136.666043,"prefecture":24,"lines":[99529],"attr":"eco","postal_code":"511-0851","address":"桑名市大字西別所１８０-２","next":[3102715,9952902,9953202,9952904,3102714],"voronoi":{"lat":35.068964,"lng":136.670391,"delta_lat":[0,5261,-26289,1500,5510],"delta_lng":[0,-11375,180,11617,873]}},
    {"code":9952908,"left":9960304,"right":3102712,"id":"04152e","name":"穴太(三重)","original_name":"穴太","name_kana":"あのう","lat":35.073032,"lng":136.604887,"prefecture":24,"lines":[99529],"attr":"cool","postal_code":"511-0253","address":"員弁郡東員町大字筑紫字堤田８８７-７","next":[9952909,9952805,9953204,9953205,9952907,9952804],"voronoi":{"lat":35.052762,"lng":136.599786,"delta_lat":[0,3900,56136,-1010,-12488,-46441],"delta_lng":[0,-8901,15919,1721,12641,-17797]}},
    {"code":9960304,"left":9952809,"right":9960112,"id":"f260f6","name":"市辺","name_kana":"いちのべ","lat":35.103848,"lng":136.165641,"prefecture":25,"lines":[99603],"attr":"cool","postal_code":"527-0074","address":"東近江市市辺町２８０１","next":[9960114,9960303,9960305,9960113,9960115,9960111],"voronoi":{"lat":35.134677,"lng":136.165396,"delta_lat":[0,-59313,10982,9341,3870,32510],"delta_lng":[0,-19893,21680,7899,1452,-8449]}},
    {"code":9952809,"left":9960114,"right":9952909,"id":"c5e172","name":"大安","name_kana":"だいあん","lat":35.09196,"lng":136.545376,"prefecture":24,"lines":[99528],"attr":"cool","postal_code":"511-0274","address":"いなべ市大安町大井田１３０５","next":[9952811,9952911,3100809,3100808,9952810,9952910,9952808],"voronoi":{"lat":35.057651,"lng":136.514115,"delta_lat":[0,7094,6907,9774,21879,-5271,-9355],"delta_lng":[0,-13742,-10715,11745,49130,6697,1161]}},
    {"code":9960114,"left":9960116,"right":9960113,"id":"bc9738","name":"大学前(滋賀)","original_name":"大学前","name_kana":"だいがくまえ","lat":35.087733,"lng":136.184698,"prefecture":25,"lines":[99601],"attr":"cool","postal_code":"527-0081","address":"東近江市布施町中ノ山２９-２","next":[9960116,9960304,9960115,9960113],"voronoi":{"lat":35.095687,"lng":136.175082,"delta_lat":[0,-9341,-8962,2884],"delta_lng":[0,-7899,26963,23447]}},
    {"code":9960116,"left":9960115,"id":"dc48ca","name":"桜川(滋賀)","original_name":"桜川","name_kana":"さくらがわ","lat":35.065052,"lng":136.187488,"prefecture":25,"lines":[99601],"attr":"cool","postal_code":"529-1572","address":"東近江市桜川西町７８","next":[1151107,9960114,9960113,9960115,9960117],"voronoi":{"lat":35.080267,"lng":136.217592,"delta_lat":[0,-2884,-41006,-703,44536],"delta_lng":[0,-23447,-55951,826,102491]}},
    {"code":9960115,"id":"8066a1","name":"京セラ前","name_kana":"きょうせらまえ","lat":35.074748,"lng":136.180382,"prefecture":25,"lines":[99601],"attr":"cool","postal_code":"529-1571","address":"東近江市川合町字皆込１３-１６","next":[9960305,9960116,9960306,9960114,1151107,9960304,1151108],"voronoi":{"lat":35.051757,"lng":136.120744,"delta_lat":[0,182,23424,10982,-8962,-41006,8232],"delta_lng":[0,147,24611,21680,26963,-55951,-12047]}},
    {"code":9960113,"id":"7886b0","name":"長谷野","name_kana":"ながたにの","lat":35.095626,"lng":136.187561,"prefecture":25,"lines":[99601],"attr":"eco","postal_code":"527-0071","address":"東近江市今堀町８１３-１","next":[9960302,9960116,9960114,9960304,9960303,9960112,9960117],"voronoi":{"lat":35.08021,"lng":136.241512,"delta_lat":[0,57,15419,3870,3492,-4789,-16538],"delta_lng":[0,-23919,-42511,1452,12582,19703,43903]}},
    {"code":9952909,"left":9952808,"right":9952910,"id":"87723e","name":"東員","name_kana":"とういん","lat":35.077945,"lng":136.587562,"prefecture":24,"lines":[99529],"attr":"cool","postal_code":"511-0251","address":"員弁郡東員町山田１９５４番地","next":[9952908,9952808,9952807,9952910,9953205,9952805],"voronoi":{"lat":35.112799,"lng":136.606805,"delta_lat":[0,980,-34224,-4956,-18006,70],"delta_lng":[0,-1032,-33725,425,14617,3796]}},
    {"code":9952808,"id":"0cd442","name":"梅戸井","name_kana":"うめどい","lat":35.075326,"lng":136.557033,"prefecture":24,"lines":[99528],"attr":"eco","postal_code":"511-0284","address":"いなべ市大安町梅戸２３５４-２","next":[9952910,3100807,3100808,9952806,9952909,9952807,9952809],"voronoi":{"lat":35.079554,"lng":136.572047,"delta_lat":[0,-4956,-20635,-4426,1560,6554,31028],"delta_lng":[0,425,-33714,-14196,-2621,-7826,44276]}},
    {"code":9952910,"id":"8df4d2","name":"大泉(三重)","original_name":"大泉","name_kana":"おおいずみ","lat":35.095044,"lng":136.57021,"prefecture":24,"lines":[99529],"attr":"cool","postal_code":"511-0224","address":"いなべ市員弁町大泉２５１６","next":[9952808,9952911,9953205,9952909,9952809],"voronoi":{"lat":35.079554,"lng":136.572047,"delta_lat":[0,34224,10652,-26396,-9355],"delta_lng":[0,33725,-5874,-42668,1161]}},
    {"code":9960112,"left":9960302,"right":9952911,"id":"b0f2fd","name":"八日市","name_kana":"ようかいち","lat":35.114264,"lng":136.194582,"prefecture":25,"lines":[99601,99603],"attr":"eco","postal_code":"527-0011","address":"東近江市八日市浜野町４８５","next":[9960118,9960302,9960109,9960111,9960113,9960117,9960303,9960119,9960202],"voronoi":{"lat":35.112361,"lng":136.312019,"delta_lat":[0,4566,8953,-6847,-20774,-16538,-186,5366,7431],"delta_lng":[0,-15026,-115414,3646,23593,43903,11554,39853,30489]}},
    {"code":9960302,"left":9960303,"right":9960306,"id":"4142a0","name":"新八日市","name_kana":"しんようかいち","lat":35.110356,"lng":136.191141,"prefecture":25,"lines":[99603],"attr":"eco","postal_code":"527-0018","address":"東近江市八日市清水２-１３７-２","next":[9960113,9960303,9960112],"voronoi":{"lat":35.119034,"lng":136.185225,"delta_lat":[0,-15985,-4789],"delta_lng":[0,3890,19703]}},
    {"code":9960303,"left":9960305,"id":"c9e0c3","name":"太郎坊宮前","name_kana":"たろぼうぐうまえ","lat":35.108608,"lng":136.183958,"prefecture":25,"lines":[99603],"attr":"eco","postal_code":"527-0091","address":"東近江市小脇町７５３-５","next":[9960304,9960302,9960113,9960111,9960112],"voronoi":{"lat":35.125881,"lng":136.18158,"delta_lat":[0,6186,-32510,3492,15985],"delta_lng":[0,-13495,8449,12582,-3890]}},
    {"code":9960305,"id":"289dfd","name":"平田(滋賀)","original_name":"平田","name_kana":"ひらた","lat":35.11023,"lng":136.146612,"prefecture":25,"lines":[99603],"attr":"cool","postal_code":"527-0087","address":"東近江市平田町１２１-２","next":[9960111,9960306,9960115,9960304,1160107],"voronoi":{"lat":35.134677,"lng":136.165396,"delta_lat":[0,-59313,-23424,75625,8752],"delta_lng":[0,-19893,-24611,22156,21518]}},
    {"code":9960306,"id":"1ca386","name":"武佐(滋賀)","original_name":"武佐","name_kana":"むさ","lat":35.114894,"lng":136.130692,"prefecture":25,"lines":[99603],"attr":"heat","postal_code":"523-0013","address":"近江八幡市長光寺町５５-３","next":[1160107,9960305,9960115,1160108,1151108,1160109],"voronoi":{"lat":35.084748,"lng":136.107115,"delta_lat":[0,45182,-2365,-75625,-182,2315],"delta_lng":[0,12711,23221,-22156,-147,-5473]}},
    {"code":9952911,"left":9952810,"right":9952811,"id":"128a50","name":"楚原","name_kana":"そはら","lat":35.110984,"lng":136.560349,"prefecture":24,"lines":[99529],"attr":"cool","postal_code":"511-0202","address":"いなべ市員弁町大字楚原字宮の腰５４４-１","next":[9953205,9952912,9952809,9952910,9952810,9953206],"voronoi":{"lat":35.12443,"lng":136.599898,"delta_lat":[0,-26396,5271,18270,36673,-22757],"delta_lng":[0,-42668,-6697,-3302,33857,15657]}},
    {"code":9952810,"id":"6ef5da","name":"三里","name_kana":"みさと","lat":35.107062,"lng":136.538651,"prefecture":24,"lines":[99528],"attr":"cool","postal_code":"511-0273","address":"いなべ市大安町平塚５１２-１１","next":[9952912,9952811,9952911,9952809],"voronoi":{"lat":35.081427,"lng":136.501403,"delta_lat":[0,38589,1560,-18270],"delta_lng":[0,32033,13795,3302]}},
    {"code":9952811,"id":"0bf605","name":"丹生川","name_kana":"にゅうがわ","lat":35.122757,"lng":136.519744,"prefecture":24,"lines":[99528],"attr":"cool","postal_code":"511-0262","address":"いなべ市大安町丹生川中１１７０-１","next":[9952809,3100809,9952813,9952810,9952812,3100810,9952912],"voronoi":{"lat":35.132044,"lng":136.525069,"delta_lat":[0,-25840,-20000,-12568,-1984,9774,38589],"delta_lng":[0,-50369,-23884,30289,8554,11745,32033]}},
    {"code":3102712,"left":9953202,"right":3102711,"id":"c23dc5","name":"近鉄長島","name_kana":"きんてつながしま","lat":35.097721,"lng":136.696162,"prefecture":24,"lines":[31027],"attr":"eco","postal_code":"511-1143","address":"桑名市長島町西外面１６４８","next":[1150806,1150807,9953202,1150808,9952901,3102711],"voronoi":{"lat":35.070615,"lng":136.719391,"delta_lat":[0,11822,6008,20829,-22246,-21206],"delta_lng":[0,-29004,-5426,24073,12295,10721]}},
    {"code":9953202,"left":9952907,"right":9952901,"id":"36fed1","name":"播磨","name_kana":"はりま","lat":35.078242,"lng":136.674595,"prefecture":24,"lines":[99532],"attr":"eco","postal_code":"511-0862","address":"桑名市大字播磨２５００-３","next":[9952904,9952902,9953203,1150807,3102712,9952903,1150808],"voronoi":{"lat":35.088444,"lng":136.684961,"delta_lat":[0,6400,-16572,-4048,-5261,487,12986],"delta_lng":[0,-6037,-23265,3358,11375,4850,15145]}},
    {"code":9952907,"left":9952905,"right":9953203,"id":"53bb9c","name":"七和","name_kana":"ななわ","lat":35.06888,"lng":136.615722,"prefecture":24,"lines":[99529],"attr":"eco","postal_code":"511-0944","address":"桑名市大字芳ケ崎字屋敷田６０２-７","next":[9952804,9953204,9952906,9952908],"voronoi":{"lat":35.052859,"lng":136.60337,"delta_lat":[0,-3801,43631,6611],"delta_lng":[0,14073,13588,-9864]}},
    {"code":9952905,"left":9952906,"id":"a2f9e7","name":"在良","name_kana":"ありよし","lat":35.060685,"lng":136.643731,"prefecture":24,"lines":[99529],"attr":"eco","postal_code":"511-0911","address":"桑名市大字額田字中縄３８１-１","next":[9952803,9952906,9953203,9952904,1150809,9952802],"voronoi":{"lat":35.044681,"lng":136.646077,"delta_lat":[0,34997,3909,-39617,-1147,-1652],"delta_lng":[0,4253,-7671,-10801,1461,6153]}},
    {"code":9952906,"id":"e6fb5e","name":"星川(三重)","original_name":"星川","name_kana":"ほしかわ","lat":35.064398,"lng":136.630113,"prefecture":24,"lines":[99529],"attr":"eco","postal_code":"511-0912","address":"桑名市星川字十弐９０２の９","next":[9953204,9952905,9952803,9952804,9952907,9953203],"voronoi":{"lat":35.04397,"lng":136.631858,"delta_lat":[0,4393,696,43631,-1248,-7855],"delta_lng":[0,-13506,-910,13588,3756,7873]}},
    {"code":9953203,"id":"5f6bd9","name":"下深谷","name_kana":"しもふかや","lat":35.096179,"lng":136.661818,"prefecture":24,"lines":[99532],"attr":"heat","postal_code":"511-0808","address":"桑名市大字下深谷部２２７９","next":[9953202,9953204,1150807,9952904,9952905,9952906],"voronoi":{"lat":35.079677,"lng":136.650331,"delta_lat":[0,-1405,16572,28005,-31408,-7855],"delta_lng":[0,5328,23265,-1664,-42473,7873]}},
    {"code":9952901,"left":9952902,"right":1150808,"id":"013d97","name":"西桑名","name_kana":"にしくわな","lat":35.065694,"lng":136.684034,"prefecture":24,"lines":[99529],"attr":"eco","postal_code":"511-0061","address":"桑名市寿町２-３１","next":[9952902,3102711,9950911,3102714,3000819,3102712,3102710,1150808],"voronoi":{"lat":35.065953,"lng":136.678405,"delta_lat":[0,-4043,-51743,10088,14033,8134,23399,4793],"delta_lng":[0,2626,74610,7088,1439,-6394,-25725,-12659]}},
    {"code":9952902,"id":"cae652","name":"馬道","name_kana":"うまみち","lat":35.060705,"lng":136.676354,"prefecture":24,"lines":[99529],"attr":"eco","postal_code":"511-0835","address":"桑名市大字本願寺字笠松２２８-２","next":[3102714,9953202,9952901,9952903,1150808],"voronoi":{"lat":35.06945,"lng":136.675242,"delta_lat":[0,-487,-14018,6965,4043],"delta_lng":[0,-4850,1295,9345,-2626]}},
    {"code":1150808,"id":"520073","name":"桑名","name_kana":"くわな","lat":35.06747,"lng":136.683832,"prefecture":24,"lines":[11508,31027,99532],"attr":"eco","postal_code":"511-0811","address":"桑名市東方","next":[9952902,3102712,9953202,9952901],"voronoi":{"lat":35.082437,"lng":136.690386,"delta_lat":[0,-12986,-3497,4661],"delta_lng":[0,-15145,3164,40985]}},
    {"code":3102711,"left":9953204,"right":3102709,"id":"108b22","name":"近鉄弥富","name_kana":"きんてつやとみ","lat":35.113634,"lng":136.727638,"prefecture":23,"lines":[31027],"attr":"eco","postal_code":"498-0026","address":"弥富市鯏浦町西前新田５１","next":[9952901,3001404,1150806,3001403,3102710,3102712],"voronoi":{"lat":35.042423,"lng":136.757775,"delta_lat":[0,92592,-1385,-1100,-45502,-21206],"delta_lng":[0,-22048,-4260,-1102,-9036,10721]}},
    {"code":9953204,"left":1150806,"right":3001403,"id":"a67a29","name":"下野代","name_kana":"しものしろ","lat":35.115899,"lng":136.647235,"prefecture":24,"lines":[99532],"attr":"heat","postal_code":"511-0117","address":"桑名市多度町下野代３１６２-３","next":[9952906,3001403,9952908,9953203,9952907,9953205,1150807],"voronoi":{"lat":35.13686,"lng":136.676313,"delta_lat":[0,-25071,-12488,-6611,-1248,31408,3600],"delta_lng":[0,-67788,12641,9864,3756,42473,1313]}},
    {"code":1150806,"left":1150807,"id":"3b1336","name":"弥富","name_kana":"やとみ","lat":35.114026,"lng":136.725664,"prefecture":23,"lines":[11508,30014],"attr":"cool","postal_code":"498-0028","address":"弥富市鯏浦町中六","next":[3102712,1150807,3102711,3001403],"voronoi":{"lat":35.112053,"lng":136.707563,"delta_lat":[0,-2779,-22246,45502],"delta_lng":[0,1470,12295,9036]}},
    {"code":1150807,"id":"dd8b51","name":"長島","name_kana":"ながしま","lat":35.098196,"lng":136.695751,"prefecture":24,"lines":[11508],"attr":"cool","postal_code":"511-1143","address":"桑名市長島町西外面","next":[3102712,9953203,1150806,9953202,3001403,9953204],"voronoi":{"lat":35.12285,"lng":136.677259,"delta_lat":[0,-28005,-6400,20829,2779,14397],"delta_lng":[0,1664,6037,24073,-1470,-28991]}},
    {"code":3001403,"id":"6d3c2f","name":"五ノ三","name_kana":"ごのさん","lat":35.129838,"lng":136.711464,"prefecture":23,"lines":[30014],"attr":"cool","postal_code":"498-0012","address":"弥富市五之三町西本田２７","next":[9953204,3001404,3102711,1150807,9953205,1150806],"voronoi":{"lat":35.13363,"lng":136.731467,"delta_lat":[0,15822,-12592,-10410,-14397,20477],"delta_lng":[0,-54440,-713,2259,28991,22801]}},
    {"code":3102709,"left":3102710,"right":3102708,"id":"e86df0","name":"富吉","name_kana":"とみよし","lat":35.123634,"lng":136.769298,"prefecture":23,"lines":[31027],"attr":"heat","postal_code":"497-0044","address":"海部郡蟹江町大字蟹江新田字与太郎１８-５","next":[1150805,9950911,3102710,3102708],"voronoi":{"lat":35.05269,"lng":136.777679,"delta_lat":[0,71981,10490,-63714],"delta_lng":[0,-17484,19440,15659]}},
    {"code":3102710,"id":"5958cc","name":"佐古木","name_kana":"さこぎ","lat":35.119574,"lng":136.752583,"prefecture":23,"lines":[31027],"attr":"eco","postal_code":"498-0000","address":"弥富市佐古木６丁目２２７-２","next":[3001404,9950911,3102709,1150805,3102711,3001405,9952901],"voronoi":{"lat":35.042423,"lng":136.757775,"delta_lat":[0,92592,6634,39,-17016,-71981,-18402],"delta_lng":[0,-22048,5160,70,19239,17484,-13511]}},
    {"code":3102708,"id":"deccb0","name":"近鉄蟹江","name_kana":"きんてつかにえ","lat":35.129739,"lng":136.794139,"prefecture":23,"lines":[31027],"attr":"heat","postal_code":"497-0033","address":"海部郡蟹江町大字蟹江本町字チの割３６","next":[3102707,9950911,9950910,1150804,1150805,3102709],"voronoi":{"lat":35.135162,"lng":136.779636,"delta_lat":[0,475,377,-48455,-14973,-1138],"delta_lng":[0,50,20136,10751,-13598,-1680]}},
    {"code":9951721,"left":3000807,"right":9951418,"id":"e5a429","name":"徳重","name_kana":"とくしげ","lat":35.094491,"lng":136.99815,"prefecture":23,"lines":[99517],"attr":"cool","postal_code":"458-0004","address":"名古屋市緑区乗鞍2丁目102-1","open_date":"2011-03-27","next":[3000608,3000122,3000124,3000609,9951619,9951720,3000123],"voronoi":{"lat":35.073247,"lng":136.999178,"delta_lat":[0,6562,29634,-3153,-15460,-16380,-2679],"delta_lng":[0,-13143,13861,10187,20744,7728,-14286]}},
    {"code":3000807,"left":3000812,"right":3000122,"id":"c2051e","name":"大江(愛知)","original_name":"大江","name_kana":"おおえ","lat":35.093258,"lng":136.912758,"prefecture":23,"lines":[30008,30011],"attr":"heat","postal_code":"457-0836","address":"名古屋市南区加福本通２-８-１","next":[3000806,3001102,1150229,3000808],"voronoi":{"lat":35.087822,"lng":136.907041,"delta_lat":[0,9765,3903,-17346],"delta_lng":[0,-3014,14513,2372]}},
    {"code":3000812,"left":3000813,"right":3000811,"id":"9800fb","name":"新日鉄前","name_kana":"しんにってつまえ","lat":35.035161,"lng":136.899491,"prefecture":23,"lines":[30008],"attr":"heat","postal_code":"476-0015","address":"東海市東海町２-６-４","next":[3000811,3000902,3000813,1150227,9950911,3000903],"voronoi":{"lat":35.015792,"lng":136.925662,"delta_lat":[0,1859,20670,12095,-23301,-11097],"delta_lng":[0,-8197,-44199,3262,50529,17]}},
    {"code":3000813,"left":3000815,"right":3000903,"id":"0a0944","name":"太田川","name_kana":"おおたがわ","lat":35.020221,"lng":136.892504,"prefecture":23,"lines":[30008,30009],"attr":"heat","postal_code":"477-0031","address":"東海市大田町後田５２","next":[3000902,3000814,3000812,9950911],"voronoi":{"lat":35.029737,"lng":136.867631,"delta_lat":[0,-15173,3087,20670],"delta_lng":[0,22351,27484,-44199]}},
    {"code":3000815,"left":3000816,"right":3000814,"id":"1ecff4","name":"寺本","name_kana":"てらもと","lat":35.000191,"lng":136.875498,"prefecture":23,"lines":[30008],"attr":"cool","postal_code":"478-0001","address":"知多市八幡字西水代１３５-２","next":[3000904,3000816,9950911,3000814,3000902,3000903],"voronoi":{"lat":34.996739,"lng":136.88882,"delta_lat":[0,27535,-2841,-50063,272,21560],"delta_lng":[0,-26949,-5210,26248,195,7547]}},
    {"code":3000816,"left":3000817,"id":"3739b9","name":"朝倉(愛知)","original_name":"朝倉","name_kana":"あさくら","lat":34.993858,"lng":136.863419,"prefecture":23,"lines":[30008],"attr":"cool","postal_code":"478-0047","address":"知多市緑町２５-８","next":[3000815,3000817,3000904,9950911],"voronoi":{"lat":34.97137,"lng":136.882909,"delta_lat":[0,-4139,49093,5109],"delta_lng":[0,-1699,-44021,19472]}},
    {"code":3000817,"id":"3922ee","name":"古見(愛知)","original_name":"古見","name_kana":"こみ","lat":34.987809,"lng":136.856673,"prefecture":23,"lines":[30008],"attr":"cool","postal_code":"478-0017","address":"知多市新知字森下２９-３","next":[3000906,3000818,3000816,3000904,9950911],"voronoi":{"lat":35.014098,"lng":136.819474,"delta_lat":[0,-55915,999,8050,49093],"delta_lng":[0,59145,555,2035,-44021]}},
    {"code":3000814,"id":"101b20","name":"尾張横須賀","name_kana":"おわりよこすか","lat":35.010132,"lng":136.885655,"prefecture":23,"lines":[30008],"attr":"cool","postal_code":"477-0034","address":"東海市養父町北反田１３-２","next":[3000813,3000815,3000902,9950911],"voronoi":{"lat":35.014564,"lng":136.889981,"delta_lat":[0,-17825,27535,5463],"delta_lng":[0,-1162,-26949,5760]}},
    {"code":3000903,"left":3000904,"right":3000902,"id":"484597","name":"南加木屋","name_kana":"みなみかぎや","lat":34.989216,"lng":136.906853,"prefecture":23,"lines":[30009],"attr":"heat","postal_code":"477-0032","address":"東海市加木屋町南平井１５","next":[1150226,3000902,1150227,3000815,3000812,3000904],"voronoi":{"lat":34.971642,"lng":136.883104,"delta_lat":[0,21560,22590,226,-1907,-22639],"delta_lng":[0,7547,35012,1412,1839,8023]}},
    {"code":3000904,"id":"d46bd5","name":"八幡新田","name_kana":"やわたしんでん","lat":34.973674,"lng":136.912578,"prefecture":23,"lines":[30009],"attr":"heat","postal_code":"477-0032","address":"東海市加木屋町陀々法師４３-１","next":[3000815,3000906,1150602,3000816,1150603,3000817,1150226,3000903,3000905],"voronoi":{"lat":34.959623,"lng":136.882091,"delta_lat":[0,-441,8050,4139,272,19830,-4948,-2783,-8347],"delta_lng":[0,-2916,2035,1699,195,53833,3523,972,1083]}},
    {"code":3000902,"id":"742242","name":"高横須賀","name_kana":"たかよこすか","lat":35.009608,"lng":136.893696,"prefecture":23,"lines":[30009],"attr":"heat","postal_code":"477-0037","address":"東海市高横須賀町松本１-３","next":[3000813,3000903,3000812,3000815,3000814],"voronoi":{"lat":35.017651,"lng":136.917465,"delta_lat":[0,-1859,-22590,3537,17825],"delta_lng":[0,8197,-35012,-1831,1162]}},
    {"code":3000811,"left":9950909,"right":3000809,"id":"91caad","name":"聚楽園","name_kana":"しゅうらくえん","lat":35.042857,"lng":136.90304,"prefecture":23,"lines":[30008],"attr":"heat","postal_code":"476-0003","address":"東海市荒尾町リの割２３５-３","next":[3000812,9950910,1150227,9950911,1150241,3000810,3000809],"voronoi":{"lat":35.062892,"lng":136.88113,"delta_lat":[0,-5850,-6625,-23301,11041,4034,19529],"delta_lng":[0,-3876,-725,50529,1630,-1120,-40678]}},
    {"code":9950909,"left":3001102,"right":9951507,"id":"7317ec","name":"稲永","name_kana":"いなえい","lat":35.091418,"lng":136.863203,"prefecture":23,"lines":[99509],"attr":"heat","postal_code":"455-0842","address":"名古屋市港区稲永一丁目１番４９号","next":[9951506,9950910,9951507,9950908],"voronoi":{"lat":35.098576,"lng":136.871914,"delta_lat":[0,-24159,19954,5089],"delta_lng":[0,2655,-35574,32568]}},
    {"code":3001102,"left":9950910,"id":"16be1d","name":"東名古屋港","name_kana":"ひがしなごやこう","lat":35.089091,"lng":136.899255,"prefecture":23,"lines":[30011],"attr":"heat","postal_code":"455-0024","address":"名古屋市港区大江町９-９","next":[9951507,3000806,9951505,3000807,3000809,9951506,3000808],"voronoi":{"lat":35.076818,"lng":136.897389,"delta_lat":[0,-7469,25261,5517,1769,-4308,-9765],"delta_lng":[0,-12346,6415,3516,2002,7052,3014]}},
    {"code":9950910,"id":"d248a2","name":"野跡","name_kana":"のせき","lat":35.075253,"lng":136.854136,"prefecture":23,"lines":[99509],"attr":"eco","postal_code":"455-0845","address":"名古屋市港区野跡二丁目４番３２号","next":[9950908,3102708,3000811,3000809,3102707,9950911,9950909,9951507],"voronoi":{"lat":35.062892,"lng":136.88113,"delta_lat":[0,-5850,15544,14973,10506,-3693,-19954,-10117],"delta_lng":[0,-3876,-80279,13598,12982,15440,35574,6625]}},
    {"code":9951507,"id":"7f2cfa","name":"名古屋港","name_kana":"なごやこう","lat":35.09348,"lng":136.881971,"prefecture":23,"lines":[99515],"attr":"cool","postal_code":"455-0032","address":"名古屋市港区入船１-８-２３","next":[3001102,3000809,9950909,9950910,9951506],"voronoi":{"lat":35.098576,"lng":136.871914,"delta_lat":[0,-24159,-10117,5048,25261],"delta_lng":[0,2655,6625,3849,6415]}},
    {"code":3000809,"left":3000810,"right":3000808,"id":"ff3698","name":"柴田","name_kana":"しばた","lat":35.072774,"lng":136.909126,"prefecture":23,"lines":[30008],"attr":"heat","postal_code":"457-0815","address":"名古屋市南区柴田町５-５","next":[3000810,9951507,9950910,1150228,3001102,3000808,3000811],"voronoi":{"lat":35.069924,"lng":136.924561,"delta_lat":[0,6194,699,-7469,-5048,-1409,-1172],"delta_lng":[0,703,-27875,-12346,-3849,-64,5760]}},
    {"code":3000810,"id":"0b1358","name":"名和(愛知)","original_name":"名和","name_kana":"なわ","lat":35.060914,"lng":136.911709,"prefecture":23,"lines":[30008],"attr":"heat","postal_code":"476-0002","address":"東海市名和町四番割８１-７","next":[3000809,1150241,3000811,1150228],"voronoi":{"lat":35.042191,"lng":136.927568,"delta_lat":[0,19529,8205,-16239],"delta_lng":[0,-40678,37671,4741]}},
    {"code":3000808,"id":"f07c44","name":"大同町","name_kana":"だいどうちょう","lat":35.080268,"lng":136.909314,"prefecture":23,"lines":[30008],"attr":"heat","postal_code":"457-0811","address":"名古屋市南区大同町３-１","next":[1150228,3000128,1150229,3000809,3001102,3000807],"voronoi":{"lat":35.087822,"lng":136.907041,"delta_lat":[0,-11005,-699,65,4159,3802],"delta_lng":[0,-9653,27875,23,-1055,-3319]}},
    {"code":3000122,"left":1150604,"right":3000126,"id":"f2d3e1","name":"豊明","name_kana":"とよあけ","lat":35.041127,"lng":137.008161,"prefecture":23,"lines":[30001],"attr":"eco","postal_code":"470-1141","address":"豊明市阿野町字明定","next":[1150225,9951721,3000123,3000121,1150226,3000608],"voronoi":{"lat":35.07445,"lng":137.038555,"delta_lat":[0,-2679,-45320,-586,-3956,44298],"delta_lng":[0,-14286,-40412,410,9634,60331]}},
    {"code":1150604,"left":1150226,"right":1150224,"id":"592952","name":"石浜","name_kana":"いしはま","lat":34.967813,"lng":136.972932,"prefecture":23,"lines":[11506],"attr":"heat","postal_code":"470-2103","address":"知多郡東浦町石浜字中子新田","next":[3000905,1150603,3000509,1150605,3000508,3000507],"voronoi":{"lat":34.97365,"lng":136.985547,"delta_lat":[0,1829,-3087,-10397,-4489,963],"delta_lng":[0,-1487,-40528,1006,37099,1273]}},
    {"code":1150226,"left":1150603,"right":1150227,"id":"2e64b6","name":"大府","name_kana":"おおぶ","lat":35.008665,"lng":136.961727,"prefecture":23,"lines":[11502,11506],"attr":"cool","postal_code":"474-0025","address":"大府市中央町３丁目","next":[3000903,3000123,1150602,1150225,1150227,3000904,3000122],"voronoi":{"lat":35.02645,"lng":136.983857,"delta_lat":[0,1781,-14120,-22639,-4948,21524,17816],"delta_lng":[0,-2289,-52655,8023,3523,37347,6461]}},
    {"code":1150603,"left":1150602,"id":"4bf8d0","name":"緒川","name_kana":"おがわ","lat":34.981372,"lng":136.971899,"prefecture":23,"lines":[11506],"attr":"heat","postal_code":"470-2102","address":"知多郡東浦町緒川字竹塚","next":[1150602,3000905,3000904,1150604,3000509,1150225],"voronoi":{"lat":34.97548,"lng":136.984061,"delta_lat":[0,-3087,3002,8347,5268,-21],"delta_lng":[0,-40528,-1018,-1083,40499,18]}},
    {"code":1150602,"id":"8dacc5","name":"尾張森岡","name_kana":"おわりもりおか","lat":34.993826,"lng":136.970279,"prefecture":23,"lines":[11506],"attr":"heat","postal_code":"470-2101","address":"知多郡東浦町森岡字前田","next":[1150603,1150226,3000904,1150225],"voronoi":{"lat":35.008048,"lng":136.977807,"delta_lat":[0,-21524,-2783,5268],"delta_lng":[0,-37347,972,40499]}},
    {"code":1150227,"id":"608792","name":"共和","name_kana":"きょうわ","lat":35.035245,"lng":136.954599,"prefecture":23,"lines":[11502],"attr":"cool","postal_code":"474-0074","address":"大府市共栄町９丁目","next":[3000123,3000811,3000812,1150226,3000124,3000903,3000125,1150241],"voronoi":{"lat":35.049306,"lng":136.967092,"delta_lat":[0,-10412,-10662,-14120,1907,11097,11041,11741],"delta_lng":[0,10056,4420,-52655,-1839,-17,1630,37241]}},
    {"code":1150224,"left":3000509,"right":1150225,"id":"b05cea","name":"刈谷","name_kana":"かりや","lat":34.991156,"lng":137.008878,"prefecture":23,"lines":[11502,30005],"attr":"cool","postal_code":"448-0028","address":"刈谷市桜町１丁目","next":[3000509,3000508,3000120,1150225,3000511,1150240],"voronoi":{"lat":35.005322,"lng":137.013256,"delta_lat":[0,5436,-17538,-17937,-2869,13712],"delta_lng":[0,-7358,-6752,7580,5826,5446]}},
    {"code":3000509,"id":"2d1e0a","name":"刈谷市","name_kana":"かりやし","lat":34.984803,"lng":136.993844,"prefecture":23,"lines":[30005],"attr":"heat","postal_code":"448-0844","address":"刈谷市広小路３-５０４-１","next":[1150224,3000508,1150604,1150603,1150225],"voronoi":{"lat":34.975282,"lng":137.006727,"delta_lat":[0,-1632,1829,13509,4231],"delta_lng":[0,-21179,-1487,-2112,17198]}},
    {"code":1150225,"id":"32228e","name":"逢妻","name_kana":"あいづま","lat":34.998215,"lng":136.990544,"prefecture":23,"lines":[11502],"attr":"cool","postal_code":"448-0831","address":"刈谷市熊野町２丁目","next":[3000122,3000120,1150224,1150226,1150602,3000509,3000121,1150603],"voronoi":{"lat":34.989009,"lng":136.98193,"delta_lat":[0,19039,17816,-3956,-9145,-2006,-17538,-4231],"delta_lng":[0,-4124,6461,9634,11110,887,-6752,-17198]}},
    {"code":3000126,"left":3000127,"right":3000124,"id":"c202f4","name":"左京山","name_kana":"さきょうやま","lat":35.070553,"lng":136.960301,"prefecture":23,"lines":[30001],"attr":"eco","postal_code":"458-0801","address":"名古屋市緑区鳴海町左京山","next":[1150241,9951718,3000127,3000125,1150228],"voronoi":{"lat":35.056549,"lng":136.962351,"delta_lat":[0,28827,948,-17257,-3109],"delta_lng":[0,7662,-5152,-14536,203]}},
    {"code":3000127,"left":1150241,"right":3000128,"id":"025094","name":"鳴海","name_kana":"なるみ","lat":35.079149,"lng":136.950096,"prefecture":23,"lines":[30001],"attr":"eco","postal_code":"458-0831","address":"名古屋市緑区鳴海町向田","next":[3000126,9951718,1150228,9951717,3000128],"voronoi":{"lat":35.07862,"lng":136.940723,"delta_lat":[0,-9553,17257,2460,2820],"delta_lng":[0,9603,14536,-3594,-12130]}},
    {"code":1150241,"left":1150228,"id":"05a34a","name":"南大高","name_kana":"みなみおおだか","lat":35.055403,"lng":136.948244,"prefecture":23,"lines":[11502],"attr":"cool","postal_code":"459-8001","address":"名古屋市緑区大高町字池之内4-10","next":[3000126,1150228,3000810,3000811,3000125,1150227],"voronoi":{"lat":35.038157,"lng":136.928687,"delta_lat":[0,4034,11495,12272,-9409,-6651],"delta_lng":[0,-1120,1734,21227,11823,3577]}},
    {"code":1150228,"id":"15672e","name":"大高","name_kana":"おおだか","lat":35.069244,"lng":136.940242,"prefecture":23,"lines":[11502],"attr":"cool","postal_code":"459-8001","address":"名古屋市緑区大高町鶴田","next":[1150241,3000808,3000809,3000127,3000128,3000810,3000126],"voronoi":{"lat":35.069066,"lng":136.950326,"delta_lat":[0,9553,-2436,-65,-6194,-16239,12272],"delta_lng":[0,-9603,-15436,-23,-703,4741,21227]}},
    {"code":3000128,"id":"54efaa","name":"本星崎","name_kana":"もとほしざき","lat":35.087392,"lng":136.937378,"prefecture":23,"lines":[30001],"attr":"heat","postal_code":"457-0812","address":"名古屋市南区星崎町東浦下","next":[3000808,9951717,1150228,9951716,3000129,3000127,1150229],"voronoi":{"lat":35.080343,"lng":136.924231,"delta_lat":[0,-4159,2436,12984,2859,1317,-3414],"delta_lng":[0,1055,15436,8415,-2363,-3990,-10158]}},
    {"code":3000124,"left":3000123,"right":3000125,"id":"c9d624","name":"中京競馬場前","name_kana":"ちゅうきょうけいばじょうまえ","lat":35.061302,"lng":136.98158,"prefecture":23,"lines":[30001],"attr":"eco","postal_code":"458-0801","address":"名古屋市緑区鳴海町大字境松","next":[9951721,3000125,1150227,3000123,9951720],"voronoi":{"lat":35.073247,"lng":136.999178,"delta_lat":[0,-34353,10412,30576,-73],"delta_lng":[0,-22030,-10056,18600,343]}},
    {"code":3000123,"id":"e91642","name":"前後","name_kana":"ぜんご","lat":35.05227,"lng":136.995665,"prefecture":23,"lines":[30001],"attr":"eco","postal_code":"470-1151","address":"豊明市前後町字大代","next":[1150226,1150227,3000122,3000124,9951721],"voronoi":{"lat":35.073247,"lng":136.999178,"delta_lat":[0,-34353,-10662,-1781,45320],"delta_lng":[0,-22030,4420,2289,40412]}},
    {"code":3000125,"id":"479e21","name":"有松","name_kana":"ありまつ","lat":35.067687,"lng":136.971084,"prefecture":23,"lines":[30001],"attr":"eco","postal_code":"458-0824","address":"名古屋市緑区鳴海町有松裏","next":[3000124,1150227,9951719,9951720,1150241,3000126,9951718],"voronoi":{"lat":35.085376,"lng":136.970013,"delta_lat":[0,-28827,-6651,-592,30576,4591,1037],"delta_lng":[0,-7662,3577,1164,18600,-7669,-7053]}},
    {"code":9951418,"left":9951417,"right":3000131,"id":"626ec1","name":"妙音通","name_kana":"みょうおんどおり","lat":35.117125,"lng":136.929545,"prefecture":23,"lines":[99514],"attr":"heat","postal_code":"467-0842","address":"名古屋市瑞穂区妙音通３-９","next":[9951419,9951713,3000132,3000131,9951417],"voronoi":{"lat":35.120808,"lng":136.925375,"delta_lat":[0,4532,-4508,-3808,-2573],"delta_lng":[0,1460,5946,328,-7345]}},
    {"code":9951417,"left":9951504,"right":9951416,"id":"1ff9ce","name":"堀田(名古屋市交通局)","original_name":"堀田","name_kana":"ほりた","lat":35.116644,"lng":136.921685,"prefecture":23,"lines":[99514],"attr":"heat","postal_code":"467-0856","address":"愛知県名古屋市瑞穂区新開町28-26","next":[3000806,3000130,3000131,1150229,3000132,3000805,9951418],"voronoi":{"lat":35.120808,"lng":136.925375,"delta_lat":[0,-4786,-7886,-2933,581,470,8197],"delta_lng":[0,-9350,2231,2612,2701,385,1810]}},
    {"code":9951504,"left":9951505,"right":3000806,"id":"7b5e78","name":"東海通","name_kana":"とうかいどおり","lat":35.113388,"lng":136.887336,"prefecture":23,"lines":[99515],"attr":"eco","postal_code":"455-0002","address":"名古屋市港区東海通３-１７７","next":[3000805,9950907,9951416,3000806,9951503,9951505],"voronoi":{"lat":35.11354,"lng":136.875018,"delta_lat":[0,7023,-2862,-1343,-4654,-6160],"delta_lng":[0,325,23311,428,39,-2142]}},
    {"code":9951505,"left":9951506,"right":9950907,"id":"13fa75","name":"港区役所","name_kana":"みなとくやくしょ","lat":35.105736,"lng":136.88455,"prefecture":23,"lines":[99515],"attr":"heat","postal_code":"455-0014","address":"名古屋市港区港楽１-１４-２０","next":[9950908,3001102,9950907,9951504,3000806,9951506],"voronoi":{"lat":35.101896,"lng":136.896976,"delta_lat":[0,3648,7996,-5711,-2897,-4805],"delta_lng":[0,4,-21961,-2303,145,22113]}},
    {"code":9951506,"left":9950908,"id":"819eb5","name":"築地口","name_kana":"つきじぐち","lat":35.099348,"lng":136.883162,"prefecture":23,"lines":[99515],"attr":"heat","postal_code":"455-0014","address":"名古屋市港区港楽３-４-１３","next":[9950908,9950909,3001102,9951507,9951505],"voronoi":{"lat":35.09461,"lng":136.891457,"delta_lat":[0,3967,884,5471,-4805],"delta_lng":[0,-19544,-351,1298,22113]}},
    {"code":9950908,"id":"401236","name":"荒子川公園","name_kana":"あらこがわこうえん","lat":35.104569,"lng":136.861148,"prefecture":23,"lines":[99509],"attr":"heat","postal_code":"455-0066","address":"名古屋市港区寛政町５丁目３９番１","next":[9950910,3102707,9951506,9951505,9950907,9950909,3102706],"voronoi":{"lat":35.107373,"lng":136.828453,"delta_lat":[0,-9309,-3693,5089,5471,2897,5972],"delta_lng":[0,-4898,15440,32568,1298,-145,-37390]}},
    {"code":9950907,"id":"fb0d57","name":"名古屋競馬場前","name_kana":"なごやけいばじょうまえ","lat":35.114529,"lng":136.862739,"prefecture":23,"lines":[99509],"attr":"heat","postal_code":"455-0074","address":"名古屋市港区正保町５丁目３番１","next":[9951503,9950906,9951504,9950908,9951505,3102706],"voronoi":{"lat":35.121533,"lng":136.874967,"delta_lat":[0,-970,-7023,-5711,5972,2800],"delta_lng":[0,377,-325,-2303,-37390,2058]}},
    {"code":3000806,"left":1150229,"right":3000805,"id":"6c8053","name":"道徳","name_kana":"どうとく","lat":35.105712,"lng":136.909409,"prefecture":23,"lines":[30008],"attr":"heat","postal_code":"457-0841","address":"名古屋市南区豊田１-１２-１０","next":[3001102,3000807,9951417,9951504,1150229,9951505,3000805],"voronoi":{"lat":35.111704,"lng":136.899121,"delta_lat":[0,-6160,-3648,-4308,3903,3713,2933],"delta_lng":[0,-2142,-4,7052,14513,2327,-2612]}},
    {"code":1150229,"id":"3c95b6","name":"笠寺","name_kana":"かさでら","lat":35.095113,"lng":136.926321,"prefecture":23,"lines":[11502],"attr":"cool","postal_code":"457-0077","address":"名古屋市南区立脇町２丁目","next":[3000130,3000807,3000808,3000806,9951417,3000129,3000128],"voronoi":{"lat":35.080343,"lng":136.924231,"delta_lat":[0,3802,17346,3713,581,-1767,-11652],"delta_lng":[0,-3319,-2372,2327,2701,2341,6717]}},
    {"code":3000805,"id":"709c2b","name":"豊田本町","name_kana":"とよだほんまち","lat":35.113586,"lng":136.910877,"prefecture":23,"lines":[30008],"attr":"heat","postal_code":"457-0863","address":"名古屋市南区豊１-２６-１７","next":[9951504,3000132,9951417,3000806,9951416],"voronoi":{"lat":35.116358,"lng":136.899082,"delta_lat":[0,-4654,-3567,7886,1439],"delta_lng":[0,39,19134,-2231,-1070]}},
    {"code":9951416,"left":9951415,"right":3000133,"id":"a2d0cb","name":"伝馬町","name_kana":"てんまちょう","lat":35.120735,"lng":136.91038,"prefecture":23,"lines":[99514],"attr":"heat","postal_code":"456-0034","address":"名古屋市熱田区伝馬２-１-１","next":[9951504,9951503,3000132,3000133,9951415,3000805],"voronoi":{"lat":35.121758,"lng":136.915174,"delta_lat":[0,2656,-4864,-1850,-1343,1104],"delta_lng":[0,-6463,-9725,-332,428,15872]}},
    {"code":9951415,"left":9951503,"right":9950905,"id":"59503b","name":"神宮西","name_kana":"じんぐうにし","lat":35.127956,"lng":136.906769,"prefecture":23,"lines":[99514],"attr":"heat","postal_code":"456-0031","address":"名古屋市熱田区神宮１-１-４","next":[9951414,3000133,9951502,9951503,9951416,1150230],"voronoi":{"lat":35.124414,"lng":136.908712,"delta_lat":[0,-4864,5247,2440,5689,-5840],"delta_lng":[0,-9725,-969,851,7583,3242]}},
    {"code":9951503,"left":9950906,"id":"81f00f","name":"六番町","name_kana":"ろくばんちょう","lat":35.124623,"lng":136.888715,"prefecture":23,"lines":[99515],"attr":"eco","postal_code":"456-0051","address":"名古屋市熱田区四番１-１０-１２","next":[9950907,9950904,9950905,9951416,9950906,9951415,9951504,9951502],"voronoi":{"lat":35.136074,"lng":136.877336,"delta_lat":[0,-45,-8479,-6017,-970,-2862,1850,5247],"delta_lng":[0,-26,-2229,-115,377,23311,332,-969]}},
    {"code":9950906,"id":"2c8590","name":"中島(愛知)","original_name":"中島","name_kana":"なかじま","lat":35.125144,"lng":136.861346,"prefecture":23,"lines":[99509],"attr":"cool","postal_code":"454-0865","address":"名古屋市中川区掛入町３丁目２４番","next":[3102706,9950907,9950905,9951301,9951503],"voronoi":{"lat":35.121533,"lng":136.874967,"delta_lat":[0,-4932,5746,6705,-1502],"delta_lng":[0,-37583,2579,11928,23191]}},
    {"code":9950905,"id":"34a1ee","name":"南荒子","name_kana":"みなみあらこ","lat":35.131707,"lng":136.861771,"prefecture":23,"lines":[99509],"attr":"cool","postal_code":"454-0876","address":"名古屋市中川区若山町２丁目５９番２","next":[9950904,9951503,9950906,9951301],"voronoi":{"lat":35.136028,"lng":136.87731,"delta_lat":[0,-8479,1502,6755],"delta_lng":[0,-2229,-23191,6062]}},
    {"code":3000133,"left":3000132,"right":1150230,"id":"f62256","name":"神宮前","name_kana":"じんぐうまえ","lat":35.125857,"lng":136.912485,"prefecture":23,"lines":[30001,30008],"attr":"heat","postal_code":"456-0032","address":"名古屋市熱田区三本松町","next":[9951415,9951416,1150230,3000132,9951712],"voronoi":{"lat":35.121758,"lng":136.915174,"delta_lat":[0,2656,2672,5996,-1453],"delta_lng":[0,-6463,982,12612,393]}},
    {"code":3000132,"id":"650183","name":"堀田(名古屋鉄道)","original_name":"堀田","name_kana":"ほりた","lat":35.120251,"lng":136.919839,"prefecture":23,"lines":[30001],"attr":"heat","postal_code":"467-0856","address":"愛知県名古屋市瑞穂区新開町28-26","next":[9951713,9951416,3000805,9951418,9951417,3000133,9951712],"voronoi":{"lat":35.125341,"lng":136.926835,"delta_lat":[0,-4532,-4786,1439,4297,9871,-4579],"delta_lng":[0,-1460,-9350,-1070,220,7524,3623]}},
    {"code":1150230,"id":"0cbebb","name":"熱田","name_kana":"あつた","lat":35.130028,"lng":136.910502,"prefecture":23,"lines":[11502],"attr":"cool","postal_code":"456-0024","address":"名古屋市熱田区森後町２丁目","next":[9951712,9951414,9951711,9951412,1141102,9951611,3000133,9951415],"voronoi":{"lat":35.132926,"lng":136.906452,"delta_lat":[0,7221,1267,889,-4328,-3873,-1020,-5996],"delta_lng":[0,3799,1637,3196,5506,1641,75,-12612]}},
    {"code":3000131,"left":9951717,"right":9951421,"id":"99bd0a","name":"呼続","name_kana":"よびつぎ","lat":35.114722,"lng":136.930387,"prefecture":23,"lines":[30001],"attr":"heat","postal_code":"457-0014","address":"名古屋市南区呼続町１丁目","next":[9951419,9951417,9951715,3000130,9951418],"voronoi":{"lat":35.113335,"lng":136.934897,"delta_lat":[0,-3142,-3939,8197,2573],"delta_lng":[0,-2820,-8123,1810,7345]}},
    {"code":9951717,"left":3000130,"right":9951719,"id":"b318cc","name":"野並","name_kana":"のなみ","lat":35.102358,"lng":136.95549,"prefecture":23,"lines":[99517],"attr":"cool","postal_code":"468-0046","address":"名古屋市天白区古川町２００","next":[9951718,3000128,3000127,9951420,9951716],"voronoi":{"lat":35.115499,"lng":136.960455,"delta_lat":[0,-26715,2820,2859,18234],"delta_lng":[0,813,-12130,-2363,5112]}},
    {"code":3000130,"left":9951716,"right":9951715,"id":"128df1","name":"桜(愛知)","original_name":"桜","name_kana":"さくら","lat":35.106062,"lng":136.934586,"prefecture":23,"lines":[30001],"attr":"heat","postal_code":"457-0014","address":"名古屋市南区呼続町６丁目","next":[1150229,9951417,3000129,3000131,9951715,9951716],"voronoi":{"lat":35.110193,"lng":136.932077,"delta_lat":[0,-3939,-470,-1767,-2221,3288],"delta_lng":[0,-8123,-385,2341,12950,120]}},
    {"code":9951716,"left":3000129,"id":"84d115","name":"鶴里","name_kana":"つるさと","lat":35.105738,"lng":136.943433,"prefecture":23,"lines":[99517],"attr":"heat","postal_code":"457-0031","address":"名古屋市南区鯛取通３-１８-２","next":[9951420,9951419,9951715,3000129,3000128,3000130,9951717],"voronoi":{"lat":35.094463,"lng":136.946774,"delta_lat":[0,1317,6017,3288,8399,1219,-2006],"delta_lng":[0,-3990,-3925,120,4108,2141,6658]}},
    {"code":3000129,"id":"9e2cad","name":"本笠寺","name_kana":"もとかさでら","lat":35.099199,"lng":136.933409,"prefecture":23,"lines":[30001],"attr":"heat","postal_code":"457-0058","address":"名古屋市南区前浜通７丁目","next":[3000130,9951716,1150229,3000128],"voronoi":{"lat":35.092365,"lng":136.932627,"delta_lat":[0,11652,-2221,-6017],"delta_lng":[0,-6717,12950,3925]}},
    {"code":9951715,"id":"22ab32","name":"桜本町","name_kana":"さくらほんまち","lat":35.109001,"lng":136.936761,"prefecture":23,"lines":[99517],"attr":"heat","postal_code":"457-0005","address":"名古屋市南区桜台１-１０１","next":[9951419,9951716,3000131,3000130],"voronoi":{"lat":35.110193,"lng":136.932077,"delta_lat":[0,3142,148,-8399],"delta_lng":[0,2820,8191,-4108]}},
    {"code":9951719,"left":9951720,"right":9951718,"id":"1722a2","name":"相生山","name_kana":"あいおいやま","lat":35.102545,"lng":136.976208,"prefecture":23,"lines":[99517],"attr":"cool","postal_code":"458-0011","address":"名古屋市緑区相川3丁目61","open_date":"2011-03-27","next":[9951718,9951616,3000125,9951617,9951720],"voronoi":{"lat":35.084473,"lng":136.978023,"delta_lat":[0,1037,32220,-287,-3965],"delta_lng":[0,-7053,448,6500,8866]}},
    {"code":9951720,"id":"3e931e","name":"神沢","name_kana":"かみさわ","lat":35.098518,"lng":136.98954,"prefecture":23,"lines":[99517],"attr":"cool","postal_code":"458-0014","address":"名古屋市緑区神沢1丁目303","open_date":"2011-03-27","next":[9951617,9951618,3000125,3000124,9951721,9951619,9951719],"voronoi":{"lat":35.113563,"lng":136.988337,"delta_lat":[0,-2368,-1752,-29634,73,4591,29005],"delta_lng":[0,9114,2445,-13861,-343,-7669,8761]}},
    {"code":9951718,"id":"7b2c83","name":"鳴子北","name_kana":"なるこきた","lat":35.102684,"lng":136.966209,"prefecture":23,"lines":[99517],"attr":"cool","postal_code":"468-0836","address":"名古屋市天白区相川1丁目1","open_date":"2011-03-27","next":[9951719,3000126,9951421,9951717,3000127,9951616,9951420,3000125],"voronoi":{"lat":35.11773,"lng":136.971419,"delta_lat":[0,1673,-1650,-2254,-26715,-2460,-948,134],"delta_lng":[0,-4396,-3933,-2635,813,3594,5152,957]}},
    {"code":9951421,"left":9951713,"right":9951618,"id":"2d1e38","name":"総合リハビリセンター","name_kana":"そうごうりはびりせんたー","lat":35.130536,"lng":136.954523,"prefecture":23,"lines":[99514],"attr":"heat","postal_code":"467-0035","address":"名古屋市瑞穂区弥富町字月見ケ岡５番地先","next":[9951420,9951614,9951422,9951718,9951616,9951613,9951712,9951711],"voronoi":{"lat":35.137293,"lng":136.94486,"delta_lat":[0,-4857,-14683,1650,3245,14082,815,-59],"delta_lng":[0,-304,18534,3933,-268,-9489,-12139,-183]}},
    {"code":9951713,"left":9951420,"right":9951712,"id":"42bbc0","name":"瑞穂運動場西","name_kana":"みずほうんどうじょうにし","lat":35.124949,"lng":136.935477,"prefecture":23,"lines":[99517],"attr":"heat","postal_code":"467-0806","address":"名古屋市瑞穂区瑞穂通５-２４","next":[3000132,9951419,9951418,9951712,9951420],"voronoi":{"lat":35.12705,"lng":136.926321,"delta_lat":[0,-1710,-4508,1414,7329],"delta_lng":[0,513,5946,9056,989]}},
    {"code":9951420,"left":9951419,"id":"68e15b","name":"瑞穂運動場東","name_kana":"みずほうんどうじょうひがし","lat":35.123167,"lng":136.948685,"prefecture":23,"lines":[99514],"attr":"heat","postal_code":"467-0042","address":"名古屋市瑞穂区八勝通３丁目１８番地先","next":[9951421,9951716,9951713,9951717,9951419,9951718,9951712],"voronoi":{"lat":35.117753,"lng":136.963089,"delta_lat":[0,-2254,-2802,2006,7544,7329,2860],"delta_lng":[0,-2635,-8568,-6658,-3392,989,1730]}},
    {"code":9951419,"id":"e8596b","name":"新瑞橋","name_kana":"あらたまばし","lat":35.117734,"lng":136.936603,"prefecture":23,"lines":[99514,99517],"attr":"heat","postal_code":"467-0806","address":"名古屋市瑞穂区瑞穂通８-２７","next":[9951716,9951715,9951713,3000131,9951418,9951420],"voronoi":{"lat":35.122246,"lng":136.941837,"delta_lat":[0,-1414,-3808,-3689,148,1219],"delta_lng":[0,-9056,328,1788,8191,2141]}},
    {"code":9951712,"id":"c4f1f3","name":"瑞穂区役所","name_kana":"みずほくやくしょ","lat":35.131793,"lng":136.93443,"prefecture":23,"lines":[99517],"attr":"heat","postal_code":"467-0806","address":"名古屋市瑞穂区瑞穂通２-２７","next":[1150230,9951711,9951713,9951421,3000132,3000133,9951420],"voronoi":{"lat":35.137293,"lng":136.94486,"delta_lat":[0,-3190,-1020,-1453,-4579,2525,2860],"delta_lng":[0,-22629,75,393,3623,16504,1730]}},
    {"code":9951618,"left":9951619,"right":9951617,"id":"7cbe80","name":"原(愛知)","original_name":"原","name_kana":"はら","lat":35.126118,"lng":136.996714,"prefecture":23,"lines":[99516],"attr":"cool","postal_code":"468-0015","address":"名古屋市天白区原１-５１３","next":[9951720,9951318,9951619,9951617,9951319],"voronoi":{"lat":35.147248,"lng":137.000239,"delta_lat":[0,-792,-32893,-2368,36224],"delta_lng":[0,-2475,-9426,9114,11916]}},
    {"code":9951619,"id":"ba83df","name":"平針","name_kana":"ひらばり","lat":35.122766,"lng":137.006904,"prefecture":23,"lines":[99516],"attr":"cool","postal_code":"468-0011","address":"名古屋市天白区平針２-１３０１","next":[3000609,9951319,9951618,9951320,9951721,9951720],"voronoi":{"lat":35.106289,"lng":137.010083,"delta_lat":[0,41889,13,-773,-36224,-1752],"delta_lng":[0,6313,-3827,-3202,-11916,2445]}},
    {"code":9951617,"id":"384f8a","name":"植田(名古屋市交通局)","original_name":"植田","name_kana":"うえだ","lat":35.128649,"lng":136.987882,"prefecture":23,"lines":[99516],"attr":"cool","postal_code":"468-0051","address":"名古屋市天白区植田三丁目1001","next":[9951720,9951318,9951616,9951618,9951719],"voronoi":{"lat":35.113563,"lng":136.988337,"delta_lat":[0,32893,-787,-28226,-3965],"delta_lng":[0,9426,-9529,-10316,8866]}}
  ]
}