{
  "name":"segment20",
  "root":3300136,
  "east":135.816602,
  "west":135.395044,
  "south":34.704466,
  "north":34.825522,
  "station_size":155,
  "node_list":[
    {"code":3300136,"left":1162904,"right":1161703,"id":"4a55f6","name":"野江","name_kana":"のえ","lat":34.707223,"lng":135.543356,"prefecture":27,"lines":[33001],"attr":"eco","postal_code":"536-0007","address":"大阪市城東区成育３-１５-７","next":[9965207,1164113,9961906,3300135,9962413],"voronoi":{"lat":34.702226,"lng":135.543061,"delta_lat":[0,8998,404,-1451,-3570],"delta_lng":[0,-1276,134,2785,5256]},"impl":true},
    {"code":1162904,"left":9961804,"right":3400206,"id":"4a7ab1","name":"塚口(JR)","original_name":"塚口","name_kana":"つかぐち","lat":34.751028,"lng":135.424948,"prefecture":28,"lines":[11629],"attr":"eco","postal_code":"661-0011","address":"兵庫県尼崎市東塚口町一丁目9-1","next":[1160303,1162905,3400105,3400106],"voronoi":{"lat":34.737648,"lng":135.417577,"delta_lat":[0,6744,15410,-2667],"delta_lng":[0,19256,-581,-14824]},"impl":true},
    {"code":9961804,"left":3500107,"right":3400810,"id":"faf2ba","name":"西中島南方","name_kana":"にしなかじまみなみがた","lat":34.726584,"lng":135.498579,"prefecture":27,"lines":[99618],"attr":"eco","postal_code":"532-0011","address":"大阪市淀川区西中島１-１２-１０","next":[100217,9961805,3400324,9961802,3400204,3400103],"voronoi":{"lat":34.728523,"lng":135.488508,"delta_lat":[0,5259,1,-4350,-9972,33],"delta_lng":[0,3631,179,10037,-9972,-309]},"impl":true},
    {"code":3500107,"left":1162507,"right":3400104,"id":"b9455b","name":"杭瀬","name_kana":"くいせ","lat":34.718272,"lng":135.43884,"prefecture":28,"lines":[35001],"attr":"cool","postal_code":"660-0814","address":"尼崎市杭瀬本町１-１-１","next":[1160303,3500108,1162508,3500106,3500205],"voronoi":{"lat":34.713622,"lng":135.432678,"delta_lat":[0,9409,5999,-7874,-8713],"delta_lng":[0,-1196,11334,4734,-8052]},"impl":true},
    {"code":1162507,"left":3500108,"right":9961805,"id":"0b8724","name":"御幣島","name_kana":"みてじま","lat":34.71259,"lng":135.45568,"prefecture":27,"lines":[11625],"attr":"cool","postal_code":"555-0012","address":"大阪市西淀川区御幣島１丁目８番先","next":[3500105,1160302,1162508,3500106],"voronoi":{"lat":34.710201,"lng":135.462284,"delta_lat":[0,10571,-1196,-13006],"delta_lng":[0,-96,-11906,435]},"impl":true},
    {"code":3500108,"left":3500106,"right":3500110,"id":"8f7afc","name":"大物","name_kana":"だいもつ","lat":34.716583,"lng":135.425549,"prefecture":28,"lines":[35001,35002],"attr":"cool","postal_code":"660-0823","address":"尼崎市大物町２-１-１","next":[3500107,3500109,3500205,1160303],"voronoi":{"lat":34.713622,"lng":135.432678,"delta_lat":[0,-21158,33759,-3192],"delta_lng":[0,-17508,8402,7910]},"impl":true},
    {"code":3500106,"left":3500205,"id":"7d74d1","name":"千船","name_kana":"ちぶね","lat":34.712245,"lng":135.445361,"prefecture":27,"lines":[35001],"attr":"cool","postal_code":"555-0001","address":"大阪市西淀川区佃２-２-３３","next":[1162508,3500205,1162507,3500107,3500105,3500204],"voronoi":{"lat":34.706182,"lng":135.44326,"delta_lat":[0,6260,8713,-1580,-13006,-1757],"delta_lng":[0,-3762,8052,2731,435,-1063]},"impl":true},
    {"code":3500205,"id":"21080d","name":"出来島","name_kana":"できじま","lat":34.707173,"lng":135.436921,"prefecture":27,"lines":[35002],"attr":"cool","postal_code":"555-0031","address":"大阪市西淀川区出来島１-１３-６","next":[1162404,3500109,3500106,1162403,3500107,3500108,3500204],"voronoi":{"lat":34.712443,"lng":135.439498,"delta_lat":[0,1179,-21158,-5453,-473,82,19563],"delta_lng":[0,-6820,-17508,-3187,4455,1798,25024]},"impl":true},
    {"code":3500110,"id":"61c6ad","name":"出屋敷","name_kana":"でやしき","lat":34.718232,"lng":135.404604,"prefecture":28,"lines":[35001],"attr":"cool","postal_code":"660-0876","address":"尼崎市竹谷町２-３５","next":[1160304,3500109,3500111,1162404,3500304],"voronoi":{"lat":34.685246,"lng":135.401441,"delta_lat":[0,42109,2875,-43228,-4542],"delta_lng":[0,-2079,11222,1368,-9266]},"impl":true},
    {"code":9961805,"left":3400101,"right":1160302,"id":"19a45e","name":"中津(OsakaMetro)","original_name":"中津","name_kana":"なかつ","lat":34.711191,"lng":135.496938,"prefecture":27,"lines":[99618],"attr":"eco","postal_code":"531-0071","address":"大阪府大阪市北区中津一丁目13-19","next":[3400102,9961804,9961909,3400101,3400324,3400811,3400103],"voronoi":{"lat":34.719067,"lng":135.491808,"delta_lat":[0,-11131,1280,5632,2497,2115,33],"delta_lng":[0,4098,5283,2934,167,-11907,-309]},"impl":true},
    {"code":3400101,"left":3400102,"id":"94d17b","name":"大阪梅田(阪急電鉄)","original_name":"大阪梅田","name_kana":"おおさかうめだ","lat":34.705515,"lng":135.498313,"prefecture":27,"lines":[34001,34002,34003],"attr":"eco","postal_code":"530-0012","address":"大阪市北区芝田一丁目1-2","next":[9961910,9961806,1160214,9961805,3400102,9961909],"voronoi":{"lat":34.709216,"lng":135.50119,"delta_lat":[0,-1280,-1741,-1263,-1215,525],"delta_lng":[0,-5283,-1389,1260,4671,1709]},"impl":true},
    {"code":3400102,"id":"9bb920","name":"中津(阪急電鉄)","original_name":"中津","name_kana":"なかつ","lat":34.709745,"lng":135.493011,"prefecture":27,"lines":[34001,34002],"attr":"heat","postal_code":"531-0071","address":"大阪市北区中津三丁目","next":[1160214,3400103,9961805,3400101,1162309],"voronoi":{"lat":34.706195,"lng":135.494517,"delta_lat":[0,1741,11131,-11023,-3741],"delta_lng":[0,1389,-4098,-10971,7296]},"impl":true},
    {"code":1160302,"id":"1c4d70","name":"塚本","name_kana":"つかもと","lat":34.71271,"lng":135.468843,"prefecture":27,"lines":[11603],"attr":"heat","postal_code":"532-0026","address":"大阪市淀川区塚本２丁目","next":[1162506,3500104,1162309,1162507,3500105,3400103,3400104,1162508],"voronoi":{"lat":34.720772,"lng":135.462187,"delta_lat":[0,-10571,-5692,-711,2227,1934,14176,1562],"delta_lng":[0,96,4422,3273,8677,1696,-7813,-7401]},"impl":true},
    {"code":3400104,"left":1160303,"right":9961802,"id":"752826","name":"神崎川","name_kana":"かんざきがわ","lat":34.732249,"lng":135.472967,"prefecture":27,"lines":[34001],"attr":"eco","postal_code":"532-0033","address":"大阪市淀川区新高６-１４-１６","next":[3400105,3400103,1162508,3400205,3400204,1160302],"voronoi":{"lat":34.723697,"lng":135.465138,"delta_lat":[0,18295,815,-1615,-12382,-6675],"delta_lng":[0,-4629,646,13721,6099,-8436]},"impl":true},
    {"code":1160303,"left":1162508,"right":1160304,"id":"d0b8be","name":"尼崎(JR)","original_name":"尼崎","name_kana":"あまがさき","lat":34.731791,"lng":135.431685,"prefecture":28,"lines":[11603,11625,11629],"attr":"eco","postal_code":"660-0808","address":"兵庫県尼崎市潮江一丁目1-1","next":[3500107,1162904,3400105,3400106,1162508,1160304,3500108,3500109],"voronoi":{"lat":34.723031,"lng":135.431482,"delta_lat":[0,5999,9039,6324,-6744,-1243,-1514,-8669],"delta_lng":[0,11334,1726,-7709,-19256,-1652,-286,7933]},"impl":true},
    {"code":1162508,"left":3500109,"id":"4d5222","name":"加島","name_kana":"かしま","lat":34.727496,"lng":135.454183,"prefecture":27,"lines":[11625],"attr":"cool","postal_code":"532-0031","address":"大阪市淀川区加島３丁目","next":[3500106,3400105,3500107,3400104,1162507,1160302,1160303],"voronoi":{"lat":34.72903,"lng":135.442817,"delta_lat":[0,-7874,-1580,1196,2925,18295,-3923],"delta_lng":[0,4734,2731,11906,2950,-4629,-15966]},"impl":true},
    {"code":3500109,"id":"d9a1a6","name":"尼崎(阪神電気鉄道)","original_name":"尼崎","name_kana":"あまがさき","lat":34.718634,"lng":135.417309,"prefecture":28,"lines":[35001,35002],"attr":"cool","postal_code":"661-0953","address":"兵庫県尼崎市東御園町93","next":[3500205,1162404,3500110,3500108,1160304,1160303],"voronoi":{"lat":34.734891,"lng":135.415639,"delta_lat":[0,-4661,-43228,8,5453,33759],"delta_lng":[0,-5056,1368,32,3187,8402]},"impl":true},
    {"code":1160304,"id":"b103eb","name":"立花","name_kana":"たちばな","lat":34.737875,"lng":135.399571,"prefecture":28,"lines":[11603],"attr":"heat","postal_code":"661-0025","address":"尼崎市立花町１丁目","next":[1160305,3500111,3500110,3500112,3400107,3500109,1160303,3400106],"voronoi":{"lat":34.734891,"lng":135.415639,"delta_lat":[0,-4661,-2875,2163,2465,8725,7529,-11832],"delta_lng":[0,-5056,-11222,-9613,-3053,408,17955,10867]},"impl":true},
    {"code":9961802,"left":3400204,"right":3400205,"id":"e5611c","name":"東三国","name_kana":"ひがしみくに","lat":34.741052,"lng":135.498496,"prefecture":27,"lines":[99618],"attr":"eco","postal_code":"532-0002","address":"大阪市淀川区東三国１-３３-６","next":[1160212,3400204,1164110,9961804,9961404,100217],"voronoi":{"lat":34.747436,"lng":135.503433,"delta_lat":[0,2766,-1042,-15379,1,3938],"delta_lng":[0,-1821,-13274,3801,179,8117]},"impl":true},
    {"code":3400204,"left":3400103,"id":"345072","name":"三国(大阪)","original_name":"三国","name_kana":"みくに","lat":34.737254,"lng":135.483128,"prefecture":27,"lines":[34002],"attr":"eco","postal_code":"532-0033","address":"大阪市淀川区新高３-６-３３","next":[9961802,9961404,3400104,9961804,3400205,3400103],"voronoi":{"lat":34.72881,"lng":135.480974,"delta_lat":[0,12382,8123,-154,-15379,-5259],"delta_lng":[0,-6099,13226,237,3801,-3631]},"impl":true},
    {"code":3400103,"id":"42dc6f","name":"十三","name_kana":"じゅうそう","lat":34.720226,"lng":135.48248,"prefecture":27,"lines":[34001,34002,34003],"attr":"eco","postal_code":"532-0023","address":"大阪市淀川区十三東２-１２-１","next":[3400104,3400102,1160302,3400204,1162309,9961804,9961805],"voronoi":{"lat":34.719067,"lng":135.491808,"delta_lat":[0,-11023,-86,14176,6675,-287,-9029],"delta_lng":[0,-10971,-486,-7813,8436,7534,3566]},"impl":true},
    {"code":3400205,"id":"7d7d6f","name":"庄内(大阪)","original_name":"庄内","name_kana":"しょうない","lat":34.750333,"lng":135.475095,"prefecture":27,"lines":[34002],"attr":"eco","postal_code":"561-0831","address":"豊中市庄内東町１-１０-１","next":[3400105,3400104,3400204,9961404,3400206],"voronoi":{"lat":34.749315,"lng":135.488101,"delta_lat":[0,-8123,1615,13889,-30],"delta_lng":[0,-13226,-13721,812,23322]},"impl":true},
    {"code":3400810,"left":1162312,"right":3400322,"id":"57a54d","name":"柴島","name_kana":"くにじま","lat":34.728437,"lng":135.511478,"prefecture":27,"lines":[34008],"attr":"cool","postal_code":"533-0024","address":"大阪市東淀川区柴島２-１２-３","next":[3400324,3400322,1164112,3400811,9961907,3400323],"voronoi":{"lat":34.727095,"lng":135.505481,"delta_lat":[0,-7590,-467,264,10416,2765],"delta_lng":[0,1763,11767,355,2692,-5690]},"impl":true},
    {"code":1162312,"left":3400811,"right":9961907,"id":"fdc409","name":"桜ノ宮","name_kana":"さくらのみや","lat":34.704976,"lng":135.520944,"prefecture":27,"lines":[11623],"attr":"eco","postal_code":"534-0027","address":"大阪市都島区中野町５丁目","next":[1162311,3400811,9961907,1162503,1162502],"voronoi":{"lat":34.712761,"lng":135.51852,"delta_lat":[0,-3767,-7225,-3480,3356],"delta_lng":[0,-1956,44,3514,7811]},"impl":true},
    {"code":3400811,"left":1162311,"right":3400324,"id":"217d16","name":"天神橋筋六丁目","name_kana":"てんじんばしすじろくちょうめ","lat":34.710265,"lng":135.510757,"prefecture":27,"lines":[34008,99619,99623],"attr":"cool","postal_code":"530-0022","address":"大阪市北区浪花町１４-２８","next":[1162312,9961909,9961907,3400324,1162311,9961805,3400810,9962302],"voronoi":{"lat":34.708995,"lng":135.516564,"delta_lat":[0,3767,6276,467,-2159,-2497,-7824,4],"delta_lng":[0,1956,492,-11767,-2954,-167,4828,495]},"impl":true},
    {"code":1162311,"left":9961909,"id":"f2a00e","name":"天満","name_kana":"てんま","lat":34.704923,"lng":135.512233,"prefecture":27,"lines":[11623],"attr":"eco","postal_code":"530-0034","address":"大阪市北区錦町","next":[1162312,1162503,3400811,9962302],"voronoi":{"lat":34.707028,"lng":135.509447,"delta_lat":[0,1966,-7225,-439],"delta_lng":[0,7117,44,-2731]},"impl":true},
    {"code":9961909,"id":"e6e590","name":"中崎町","name_kana":"なかざきちょう","lat":34.706864,"lng":135.505245,"prefecture":27,"lines":[99619],"attr":"eco","postal_code":"530-0016","address":"大阪市北区中崎町１-６-１６","next":[3400811,9962302,9961910,9961805,3400101],"voronoi":{"lat":34.709216,"lng":135.50119,"delta_lat":[0,5632,-7824,-6071,3289],"delta_lng":[0,2934,4828,-3340,-3454]},"impl":true},
    {"code":3400324,"id":"876539","name":"南方(大阪)","original_name":"南方","name_kana":"みなみかた","lat":34.725656,"lng":135.499507,"prefecture":27,"lines":[34003],"attr":"eco","postal_code":"532-0011","address":"大阪市淀川区西中島３-１７-３","next":[3400810,100217,9961804,3400811,9961805,3400323],"voronoi":{"lat":34.719505,"lng":135.507245,"delta_lat":[0,-2159,2115,9972,-625,-1713],"delta_lng":[0,-2954,-11907,9972,2261,865]},"impl":true},
    {"code":9961907,"left":1164113,"right":1164112,"id":"bf1741","name":"都島","name_kana":"みやこじま","lat":34.709087,"lng":135.525799,"prefecture":27,"lines":[99619],"attr":"eco","postal_code":"534-0021","address":"大阪市都島区都島本通３-３","next":[1162502,9961906,3400811,1162312,1164112,1161724,3400810],"voronoi":{"lat":34.719038,"lng":135.519011,"delta_lat":[0,-6276,-11116,-12,2155,11202,4311],"delta_lng":[0,-492,9413,654,3324,123,-12667]},"impl":true},
    {"code":1164113,"left":9961906,"id":"a72db0","name":"JR野江","name_kana":"じぇいあーるのえ","lat":34.706944,"lng":135.541389,"prefecture":27,"lines":[11641],"attr":"cool","postal_code":"536-0006","address":"大阪市城東区野江3丁目29-22","open_date":"2019-03-16","next":[9961906,3300136,1161724,9962413],"voronoi":{"lat":34.699751,"lng":135.540485,"delta_lat":[0,2696,8778,-8998],"delta_lng":[0,-4117,5417,1276]},"impl":true},
    {"code":9961906,"id":"fd4c82","name":"野江内代","name_kana":"のえうちんだい","lat":34.708951,"lng":135.538137,"prefecture":27,"lines":[99619],"attr":"eco","postal_code":"534-0013","address":"大阪市都島区内代町１-８","next":[9961907,1164113,1161724,1164112,9965207,9961905,3300136],"voronoi":{"lat":34.711224,"lng":135.541785,"delta_lat":[0,-8778,1342,11202,2731,-4830,-1263],"delta_lng":[0,-5417,-4458,123,5328,3939,619]},"impl":true},
    {"code":1164112,"id":"2a5768","name":"城北公園通","name_kana":"しろきたこうえんどおり","lat":34.723472,"lng":135.530694,"prefecture":27,"lines":[11641],"attr":"cool","postal_code":"535-0005","address":"大阪市旭区赤川1丁目1-3","open_date":"2019-03-16","next":[9961907,9961906,3400810,9961904,9961905,1164111,3400322,9965203],"voronoi":{"lat":34.736828,"lng":135.532822,"delta_lat":[0,-6041,-1070,-10416,-4311,2731,4695,9734],"delta_lng":[0,-9603,-1160,-2692,12667,5328,2573,-178]},"impl":true},
    {"code":3400322,"left":1160212,"right":3400808,"id":"c7a239","name":"淡路","name_kana":"あわじ","lat":34.738827,"lng":135.516527,"prefecture":27,"lines":[34003,34008],"attr":"eco","postal_code":"533-0023","address":"大阪市東淀川区東淡路４-１７-８","next":[1164110,3400810,3400808,1160212,1164112,1164111,3400323],"voronoi":{"lat":34.737549,"lng":135.510153,"delta_lat":[0,4836,1972,-751,-12818,-1070,2765],"delta_lng":[0,212,3969,1707,7178,-1160,-5690]},"impl":true},
    {"code":1160212,"left":3400323,"right":1164110,"id":"936483","name":"東淀川","name_kana":"ひがしよどがわ","lat":34.73938,"lng":135.503915,"prefecture":27,"lines":[11602],"attr":"cool","postal_code":"532-0003","address":"大阪市淀川区宮原２丁目","next":[9961802,3400323,1164110,100217,3400322],"voronoi":{"lat":34.737549,"lng":135.510153,"delta_lat":[0,-2397,2569,9716,-5052],"delta_lng":[0,-3185,-6532,2998,6931]},"impl":true},
    {"code":3400323,"left":100217,"id":"f8e57f","name":"崇禅寺","name_kana":"そうぜんじ","lat":34.731048,"lng":135.510186,"prefecture":27,"lines":[34003],"attr":"eco","postal_code":"533-0024","address":"大阪市東淀川区柴島１-７-２８","next":[100217,1160212,3400324,3400810,3400322],"voronoi":{"lat":34.727095,"lng":135.505481,"delta_lat":[0,1713,6344,2397,-5066],"delta_lng":[0,-865,2351,3185,6216]},"impl":true},
    {"code":100217,"id":"5d9093","name":"新大阪","name_kana":"しんおおさか","lat":34.734136,"lng":135.501852,"prefecture":27,"lines":[1002,1003,11602,11629,11641,99618],"attr":"cool","postal_code":"532-0011","address":"大阪市淀川区西中島５丁目","next":[3400324,9961804,9961802,3400323,1160212],"voronoi":{"lat":34.737721,"lng":135.500436,"delta_lat":[0,-3938,-4350,-625,6344],"delta_lng":[0,-8117,10037,2261,2351]},"impl":true},
    {"code":1164110,"id":"ae7613","name":"南吹田","name_kana":"みなみすいた","lat":34.749444,"lng":135.51125,"prefecture":27,"lines":[11641],"attr":"cool","postal_code":"564-0043","address":"吹田市南吹田2丁目3-50","open_date":"2019-03-16","next":[3400322,9961404,9961802,3400806,1160212,3400807,3400808],"voronoi":{"lat":34.757024,"lng":135.510185,"delta_lat":[0,-670,-6152,-2766,-5052,1972,8452],"delta_lng":[0,-4522,-4050,1821,6931,3969,2904]},"impl":true},
    {"code":3400808,"left":1164111,"right":3400321,"id":"f84f12","name":"下新庄","name_kana":"しもしんじょう","lat":34.746474,"lng":135.519893,"prefecture":27,"lines":[34008],"attr":"heat","postal_code":"533-0021","address":"大阪市東淀川区下新庄５-１-２１","next":[1164111,3400807,3400322,3400321,1164110,1160211],"voronoi":{"lat":34.754213,"lng":135.524575,"delta_lat":[0,-1404,-8452,-751,-68,10654],"delta_lng":[0,-7337,-2904,1707,12172,-3545]},"impl":true},
    {"code":1164111,"id":"5dd082","name":"JR淡路","name_kana":"じぇいあーるあわじ","lat":34.740694,"lng":135.519861,"prefecture":27,"lines":[11641],"attr":"cool","postal_code":"533-0022","address":"大阪市東淀川区菅原5丁目11-14","open_date":"2019-03-16","next":[3400808,3400321,1164112,9965203,3400322],"voronoi":{"lat":34.743605,"lng":135.516041,"delta_lat":[0,-68,-5861,-848,-6041],"delta_lng":[0,12172,4502,107,-9603]},"impl":true},
    {"code":3400321,"id":"5acd30","name":"上新庄","name_kana":"かみしんじょう","lat":34.750873,"lng":135.533114,"prefecture":27,"lines":[34003],"attr":"eco","postal_code":"533-0006","address":"大阪市東淀川区上新庄２-２４-５","next":[9965202,9965203,1164111,3400320,3400808,1160211],"voronoi":{"lat":34.753875,"lng":135.538577,"delta_lat":[0,-5689,-10510,5861,10654,1001],"delta_lng":[0,715,-6577,-4502,-3545,1304]},"impl":true},
    {"code":3400206,"left":3400209,"right":3400803,"id":"2488b0","name":"服部天神","name_kana":"はっとりてんじん","lat":34.763024,"lng":135.475111,"prefecture":27,"lines":[34002],"attr":"eco","postal_code":"561-0851","address":"豊中市服部元町１-１-１","next":[3400207,9961403,9961404,3400205,3400105],"voronoi":{"lat":34.757945,"lng":135.46145,"delta_lat":[0,17936,-10161,-9054,30],"delta_lng":[0,19677,5918,-1757,-23322]},"impl":true},
    {"code":3400209,"left":1162906,"right":3400211,"id":"0c3a81","name":"豊中","name_kana":"とよなか","lat":34.787248,"lng":135.462073,"prefecture":27,"lines":[34002],"attr":"heat","postal_code":"560-0021","address":"豊中市本町１-１-１","next":[9962603,3400210,9962604,3400208,9962601],"voronoi":{"lat":34.792826,"lng":135.456776,"delta_lat":[0,3042,-7474,-10446,2816],"delta_lng":[0,11862,9455,-28610,605]},"impl":true},
    {"code":1162906,"left":3400603,"right":3400207,"id":"650b3f","name":"伊丹(JR)","original_name":"伊丹","name_kana":"いたみ","lat":34.78065,"lng":135.421686,"prefecture":28,"lines":[11629],"attr":"eco","postal_code":"664-0846","address":"兵庫県伊丹市伊丹一丁目15-20","next":[1162905,3400603,9962601,1162907,3400604],"voronoi":{"lat":34.772469,"lng":135.423973,"delta_lat":[0,813,18641,-1361,-13468],"delta_lng":[0,14763,-10136,-11938,1294]},"impl":true},
    {"code":3400603,"left":3400106,"right":3400604,"id":"a6e5fc","name":"新伊丹","name_kana":"しんいたみ","lat":34.772574,"lng":135.415479,"prefecture":28,"lines":[34006],"attr":"cool","postal_code":"664-0856","address":"伊丹市梅ノ木２-４-１","next":[3400602,1162906,3400604,1162905,3400107],"voronoi":{"lat":34.768723,"lng":135.419507,"delta_lat":[0,3746,4625,-5694,-2821],"delta_lng":[0,4467,-6017,-22337,2734]},"impl":true},
    {"code":3400106,"left":3400602,"id":"b09c72","name":"塚口(阪急電鉄)","original_name":"塚口","name_kana":"つかぐち","lat":34.752826,"lng":135.41585,"prefecture":28,"lines":[34001,34006],"attr":"eco","postal_code":"661-0001","address":"兵庫県尼崎市塚口本町一丁目","next":[3400107,3400602,1162905,1160303,1162904,1160304],"voronoi":{"lat":34.737648,"lng":135.417577,"delta_lat":[0,19487,1760,-371,-10287,-11832],"delta_lng":[0,3851,-2938,-14010,578,10867]},"impl":true},
    {"code":3400602,"id":"5c2bf2","name":"稲野","name_kana":"いなの","lat":34.764817,"lng":135.415532,"prefecture":28,"lines":[34006],"attr":"eco","postal_code":"664-0861","address":"伊丹市稲野町１-５０-１","next":[1162905,3400106,3400603,3400107],"voronoi":{"lat":34.758896,"lng":135.41849,"delta_lat":[0,9827,-144,-10054],"delta_lng":[0,1016,-21153,6127]},"impl":true},
    {"code":3400604,"id":"e4d595","name":"伊丹(阪急電鉄)","original_name":"伊丹","name_kana":"いたみ","lat":34.779875,"lng":135.413618,"prefecture":28,"lines":[34006],"attr":"cool","postal_code":"664-0858","address":"兵庫県伊丹市西台一丁目","next":[1162909,1162907,3400215,3400603,3400107,3400406,3400405,1162906],"voronoi":{"lat":34.7714,"lng":135.39562,"delta_lat":[0,7141,1674,7843,6407,2150,-6053,-13468],"delta_lng":[0,-10204,-407,-658,5943,3598,22771,1294]},"impl":true},
    {"code":3400207,"left":3400105,"right":3400208,"id":"5a28df","name":"曽根(大阪)","original_name":"曽根","name_kana":"そね","lat":34.771078,"lng":135.46777,"prefecture":27,"lines":[34002],"attr":"cool","postal_code":"561-0802","address":"豊中市曽根東町３-１-１","next":[3400105,3400206,3400208,9961403],"voronoi":{"lat":34.779812,"lng":135.480599,"delta_lat":[0,-10319,-11549,17936],"delta_lng":[0,-30455,11306,19677]},"impl":true},
    {"code":3400105,"left":1162905,"id":"6fd522","name":"園田","name_kana":"そのだ","lat":34.751905,"lng":135.448186,"prefecture":28,"lines":[34001],"attr":"eco","postal_code":"661-0953","address":"尼崎市東園田町９-４８-１","next":[3400104,3400205,3400207,9962601,1162508,1160303,3400208,1162905,1162904,3400206],"voronoi":{"lat":34.757945,"lng":135.46145,"delta_lat":[0,11549,2453,-727,-11417,-15410,-6324,3923,815,13889],"delta_lng":[0,-11306,-3923,-4534,-5435,581,7709,15966,646,812]},"impl":true},
    {"code":1162905,"id":"0f3483","name":"猪名寺","name_kana":"いなでら","lat":34.764086,"lng":135.422598,"prefecture":28,"lines":[11629],"attr":"eco","postal_code":"661-0981","address":"尼崎市猪名寺","next":[3400602,1162906,3400106,9962601,3400105,1162904,3400603],"voronoi":{"lat":34.773282,"lng":135.438736,"delta_lat":[0,-2062,-11417,-2667,1760,9827,3746],"delta_lng":[0,2951,-5435,-14824,-2938,1016,4467]},"impl":true},
    {"code":3400208,"id":"95381e","name":"岡町","name_kana":"おかまち","lat":34.778949,"lng":135.465103,"prefecture":27,"lines":[34002],"attr":"cool","postal_code":"561-0881","address":"豊中市中桜塚１-１-１","next":[9961402,3400105,9961403,9962604,9962601,3400207,3400209],"voronoi":{"lat":34.787326,"lng":135.48069,"delta_lat":[0,-1573,-5940,-10319,2453,6002,10446],"delta_lng":[0,731,-822,-30455,-3923,3261,28610]},"impl":true},
    {"code":3400211,"left":3400212,"right":3400702,"id":"08cf33","name":"石橋阪大前","name_kana":"いしばしはんだいまえ","lat":34.808254,"lng":135.445487,"prefecture":27,"lines":[34002,34007],"attr":"heat","postal_code":"563-0032","address":"池田市石橋２-１８-１","next":[9962603,3400702,9962601,3400210,3400212,1162907],"voronoi":{"lat":34.800098,"lng":135.442875,"delta_lat":[0,2170,6826,18843,-19322,-6361],"delta_lng":[0,8034,4116,-10583,-13041,1679]},"impl":true},
    {"code":3400212,"left":9962601,"right":1162908,"id":"830096","name":"池田(大阪)","original_name":"池田","name_kana":"いけだ","lat":34.821544,"lng":135.425797,"prefecture":27,"lines":[34002],"attr":"heat","postal_code":"563-0056","address":"池田市栄町１-１","next":[1162907,1162908,3400702,9961502,3400211,3400213],"voronoi":{"lat":34.81948,"lng":135.417074,"delta_lat":[0,-5883,-4983,19322,4555,-5026],"delta_lng":[0,-1226,15553,13041,619,-24054]},"impl":true},
    {"code":9962601,"left":1162907,"id":"ac5027","name":"大阪空港","name_kana":"おおさかくうこう","lat":34.791598,"lng":135.441821,"prefecture":27,"lines":[99626],"attr":"cool","postal_code":"560-0036","address":"豊中市蛍池西町３-５５１","next":[3400105,3400211,1162906,1162905,3400210,3400208,1162907,3400209],"voronoi":{"lat":34.800098,"lng":135.442875,"delta_lat":[0,2156,-10331,-18641,-2062,727,6002,2816],"delta_lng":[0,-9795,-4479,10136,2951,4534,3261,605]},"impl":true},
    {"code":1162907,"id":"065cf3","name":"北伊丹","name_kana":"きたいたみ","lat":34.801349,"lng":135.419326,"prefecture":28,"lines":[11629],"attr":"eco","postal_code":"664-0831","address":"伊丹市北伊丹９丁目","next":[3400215,3400604,3400212,1162908,1162906,9962601,3400211],"voronoi":{"lat":34.791922,"lng":135.428601,"delta_lat":[0,-1361,6053,11169,5814,-4983,-6361],"delta_lng":[0,-11938,-22771,7454,14502,15553,1679]},"impl":true},
    {"code":1162908,"id":"e3fd3d","name":"川西池田","name_kana":"かわにしいけだ","lat":34.824857,"lng":135.409901,"prefecture":28,"lines":[11629],"attr":"eco","postal_code":"666-0021","address":"川西市栄根２丁目","next":[3400215,3400212,1162907,3400213,3400214],"voronoi":{"lat":34.810819,"lng":135.400928,"delta_lat":[0,-3036,5814,5883,11230],"delta_lng":[0,417,14502,1226,-8995]},"impl":true},
    {"code":3400702,"left":9962603,"right":3400703,"id":"25cec2","name":"桜井(大阪)","original_name":"桜井","name_kana":"さくらい","lat":34.816801,"lng":135.460705,"prefecture":27,"lines":[34007],"attr":"heat","postal_code":"562-0043","address":"箕面市桜井２-２-１","next":[3400211,3400212,9962604,3400703,9962603,9961502,3400704],"voronoi":{"lat":34.833617,"lng":135.445599,"delta_lat":[0,-1126,-4555,-18843,-1285,6271,19489],"delta_lng":[0,-538,-619,10583,10780,5319,-25410]},"impl":true},
    {"code":9962603,"left":3400210,"id":"a98b3f","name":"柴原阪大前","name_kana":"しばはらはんだいまえ","lat":34.800266,"lng":135.458734,"prefecture":27,"lines":[99626],"attr":"cool","postal_code":"560-0055","address":"豊中市柴原町４-１１５-１","next":[3400209,3400211,9962604,3400702,3400210],"voronoi":{"lat":34.795869,"lng":135.468637,"delta_lat":[0,11940,1285,-6826,-9441],"delta_lng":[0,-2833,-10780,-4116,5867]},"impl":true},
    {"code":3400210,"id":"4054bf","name":"蛍池","name_kana":"ほたるがいけ","lat":34.794365,"lng":135.449238,"prefecture":27,"lines":[34002,99626],"attr":"heat","postal_code":"560-0033","address":"豊中市蛍池中町３-１","next":[3400209,3400211,9962601,9962603],"voronoi":{"lat":34.802267,"lng":135.450909,"delta_lat":[0,-2170,-19333,12062],"delta_lng":[0,-8034,7213,6688]},"impl":true},
    {"code":3400703,"id":"b9e895","name":"牧落","name_kana":"まきおち","lat":34.823436,"lng":135.465794,"prefecture":27,"lines":[34007],"attr":"eco","postal_code":"562-0042","address":"箕面市百楽荘１-１-６","next":[9961401,3400702,3400704,9962604],"voronoi":{"lat":34.824997,"lng":135.48495,"delta_lat":[0,8572,-19489,5656],"delta_lng":[0,-39237,25410,11170]},"impl":true},
    {"code":3400803,"left":3400806,"right":3400802,"id":"326995","name":"南千里","name_kana":"みなみせんり","lat":34.792393,"lng":135.508794,"prefecture":27,"lines":[34008],"attr":"eco","postal_code":"565-0862","address":"吹田市津雲台１-１-１","next":[9962607,3400804,3400802,9961402,9961401,1160211,1160210],"voronoi":{"lat":34.781662,"lng":135.523808,"delta_lat":[0,-87,5291,15505,399,-12158,-2267],"delta_lng":[0,-170,-21447,1928,474,20876,1512]},"impl":true},
    {"code":3400806,"left":9961403,"right":1160211,"id":"c2ab40","name":"豊津(大阪)","original_name":"豊津","name_kana":"とよつ","lat":34.764588,"lng":135.509005,"prefecture":27,"lines":[34008],"attr":"eco","postal_code":"564-0062","address":"吹田市垂水町１-１-４","next":[3400805,1164110,1160211,9961404,3400807],"voronoi":{"lat":34.757024,"lng":135.510185,"delta_lat":[0,-670,8669,7034,-3903],"delta_lng":[0,-4522,-4250,15680,-368]},"impl":true},
    {"code":9961403,"left":3400805,"right":3400804,"id":"f87312","name":"緑地公園","name_kana":"りょくちこうえん","lat":34.774772,"lng":135.495278,"prefecture":27,"lines":[99614],"attr":"heat","postal_code":"561-0871","address":"豊中市東寺内町１８-１","next":[3400805,3400804,9961404,3400208,3400206,3400207,9961402],"voronoi":{"lat":34.785753,"lng":135.481421,"delta_lat":[0,-5940,-3932,-10161,1327,7516,9629],"delta_lng":[0,-822,528,5918,11627,2622,-3904]},"impl":true},
    {"code":3400805,"left":9961404,"id":"048eeb","name":"関大前","name_kana":"かんだいまえ","lat":34.770984,"lng":135.506136,"prefecture":27,"lines":[34008],"attr":"eco","postal_code":"564-0073","address":"吹田市山手町３-８-１９","next":[9961403,3400806,3400804,9961404,1160211],"voronoi":{"lat":34.772057,"lng":135.517092,"delta_lat":[0,-7034,2023,7516,1486],"delta_lng":[0,-15680,-2740,2622,17571]},"impl":true},
    {"code":9961404,"id":"04bc6b","name":"江坂","name_kana":"えさか","lat":34.758755,"lng":135.497106,"prefecture":27,"lines":[99614,99618],"attr":"heat","postal_code":"564-0051","address":"吹田市豊津町９","next":[1164110,3400204,9961802,9961403,3400806,3400205,3400206,3400805],"voronoi":{"lat":34.767047,"lng":135.498673,"delta_lat":[0,-1327,-9054,-7351,-154,1042,6152,8669],"delta_lng":[0,-11627,-1757,2813,237,13274,4050,-4250]},"impl":true},
    {"code":3400804,"id":"655d79","name":"千里山","name_kana":"せんりやま","lat":34.778903,"lng":135.505466,"prefecture":27,"lines":[34008],"attr":"eco","postal_code":"565-0851","address":"吹田市千里山西５-１-３","next":[3400803,1160211,9961403,3400805,9961402],"voronoi":{"lat":34.781576,"lng":135.523637,"delta_lat":[0,-5527,-1486,9629,2675],"delta_lng":[0,-4772,-17571,-3904,4800]},"impl":true},
    {"code":1160211,"left":3400320,"right":1160210,"id":"bcb29b","name":"吹田(JR)","original_name":"吹田","name_kana":"すいた","lat":34.763209,"lng":135.523642,"prefecture":27,"lines":[11602],"attr":"eco","postal_code":"564-0027","address":"大阪府吹田市朝日町1-1","next":[1160210,3400804,3400803,3400806,3400807,3400808,3400321,3400320,3400805],"voronoi":{"lat":34.781576,"lng":135.523637,"delta_lat":[0,87,-12427,-14043,-1001,21,13942,3903,3991],"delta_lng":[0,170,9407,-7243,-1304,-93,-7850,368,1773]},"impl":true},
    {"code":3400320,"left":3400807,"id":"23e8ad","name":"相川","name_kana":"あいかわ","lat":34.757942,"lng":135.533853,"prefecture":27,"lines":[34003],"attr":"eco","postal_code":"533-0007","address":"大阪市東淀川区相川１-７-２４","next":[1160210,9965202,3400321,9965201,1160211],"voronoi":{"lat":34.766716,"lng":135.539341,"delta_lat":[0,-8652,-4188,1317,14043],"delta_lng":[0,1426,-2190,-12605,7243]},"impl":true},
    {"code":3400807,"id":"3b0809","name":"吹田(阪急電鉄)","original_name":"吹田","name_kana":"すいた","lat":34.759675,"lng":135.517366,"prefecture":27,"lines":[34008],"attr":"heat","postal_code":"564-0041","address":"大阪府吹田市泉町1","next":[3400808,3400806,1160211,1164110],"voronoi":{"lat":34.754213,"lng":135.524575,"delta_lat":[0,13942,-11130,-4216],"delta_lng":[0,-7850,-6540,7053]},"impl":true},
    {"code":1160210,"id":"041efa","name":"岸辺","name_kana":"きしべ","lat":34.776812,"lng":135.541613,"prefecture":27,"lines":[11602],"attr":"eco","postal_code":"564-0011","address":"吹田市岸部南１丁目","next":[9965201,1160211,3400327,9962607,1160209,3400803,3400320,3400319],"voronoi":{"lat":34.785485,"lng":135.544591,"delta_lat":[0,6113,-3253,-6683,-12427,-2520,442,16393],"delta_lng":[0,-9073,-8538,-3173,9407,6126,1280,5505]},"impl":true},
    {"code":3400802,"left":9961401,"right":9962702,"id":"2dd501","name":"山田(大阪)","original_name":"山田","name_kana":"やまだ","lat":34.804237,"lng":135.515692,"prefecture":27,"lines":[34008,99626],"attr":"eco","postal_code":"565-0824","address":"吹田市山田西４-５５７","next":[3400803,9961401,9962607,3400801,9962703],"voronoi":{"lat":34.81404,"lng":135.520178,"delta_lat":[0,-4119,-7150,-12158,21813],"delta_lng":[0,-14055,-1531,20876,-3684]},"impl":true},
    {"code":9961401,"left":9961402,"right":3400801,"id":"eb2a5f","name":"千里中央","name_kana":"せんりちゅうおう","lat":34.808655,"lng":135.495067,"prefecture":27,"lines":[99614,99626],"attr":"eco","postal_code":"560-0082","address":"豊中市新千里東町１-５-４","next":[3400802,3400703,3400803,9962604,3400801,9961402,3400704],"voronoi":{"lat":34.824997,"lng":135.48495,"delta_lat":[0,-5261,-19796,2432,399,7150,21494],"delta_lng":[0,-2657,4463,17362,474,1531,-15025]},"impl":true},
    {"code":9961402,"left":9962604,"id":"d531e9","name":"桃山台","name_kana":"ももやまだい","lat":34.793842,"lng":135.497142,"prefecture":27,"lines":[99614],"attr":"eco","postal_code":"565-0854","address":"吹田市桃山台５-１-１","next":[9962604,3400208,3400803,9961401,9961403,3400804],"voronoi":{"lat":34.784192,"lng":135.49739,"delta_lat":[0,1561,1573,12614,2432,-15505],"delta_lng":[0,-15969,-731,6066,17362,-1928]},"impl":true},
    {"code":9962604,"id":"8cc092","name":"少路","name_kana":"しょうじ","lat":34.804246,"lng":135.47551,"prefecture":27,"lines":[99626],"attr":"cool","postal_code":"560-0004","address":"豊中市少路１","next":[9961402,3400702,9961401,9962603,3400208,3400703,3400209],"voronoi":{"lat":34.787326,"lng":135.48069,"delta_lat":[0,12614,19796,-5656,-6271,-11940,-7474],"delta_lng":[0,6066,-4463,-11170,-5319,2833,9455]},"impl":true},
    {"code":3400801,"id":"1be7fb","name":"北千里","name_kana":"きたせんり","lat":34.81987,"lng":135.51111,"prefecture":27,"lines":[34008],"attr":"eco","postal_code":"565-0874","address":"吹田市古江台４-２-D-１-１０１","next":[9962703,9962705,3400704,9962704,9961401,3400802],"voronoi":{"lat":34.825063,"lng":135.520993,"delta_lat":[0,16430,3289,-13367,-21494,4119],"delta_lng":[0,-15457,-9911,-4526,15025,14055]},"impl":true},
    {"code":9962702,"left":9962607,"right":9962703,"id":"b3228e","name":"公園東口","name_kana":"こうえんひがしぐち","lat":34.810427,"lng":135.539235,"prefecture":27,"lines":[99627],"attr":"cool","postal_code":"565-0826","address":"吹田市千里万博公園７８-４","next":[9962608,1160209,9962703,9962607,1160208],"voronoi":{"lat":34.829034,"lng":135.547335,"delta_lat":[0,-16396,-15504,3922,20682],"delta_lng":[0,-14294,6429,6046,3309]},"impl":true},
    {"code":9962607,"id":"80eacc","name":"万博記念公園(大阪)","original_name":"万博記念公園","name_kana":"ばんぱくきねんこうえん","lat":34.806692,"lng":135.530228,"prefecture":27,"lines":[99626,99627],"attr":"cool","postal_code":"565-0826","address":"吹田市千里万博公園内","next":[3400803,1160210,1160209,3400802,9962703,9962702],"voronoi":{"lat":34.812638,"lng":135.53304,"delta_lat":[0,-213,-21813,-2267,3253,5536],"delta_lng":[0,-11256,3684,1512,8538,3951]},"impl":true},
    {"code":9962703,"id":"640899","name":"阪大病院前","name_kana":"はんだいびょういんまえ","lat":34.818474,"lng":135.530005,"prefecture":27,"lines":[99627],"attr":"cool","postal_code":"567-0047","address":"茨木市美穂ケ丘４５９５-１","next":[3400801,9962702,9962704,1160208,9962607,3400802],"voronoi":{"lat":34.81404,"lng":135.520178,"delta_lat":[0,11023,5296,-1324,-16396,-213],"delta_lng":[0,814,26482,-140,-14294,-11256]},"impl":true},
    {"code":1161703,"left":3300128,"right":3300305,"id":"629e99","name":"祝園","name_kana":"ほうその","lat":34.76017,"lng":135.792107,"prefecture":26,"lines":[11617],"attr":"heat","postal_code":"619-0241","address":"相楽郡精華町大字祝園","next":[3102520,1161704,3102522,3102523,3102308,3102521],"voronoi":{"lat":34.752013,"lng":135.789206,"delta_lat":[0,-4559,-322,17054,5769,1101],"delta_lng":[0,-15860,-4293,-14462,33320,8808]},"impl":true},
    {"code":3300128,"left":3300132,"right":3102523,"id":"a34b5a","name":"門真市","name_kana":"かどまし","lat":34.73809,"lng":135.583224,"prefecture":27,"lines":[33001,99626],"attr":"heat","postal_code":"571-0048","address":"門真市新橋町３６-７","next":[3300129,9961901,3300127,9962416,9962417],"voronoi":{"lat":34.745997,"lng":135.58579,"delta_lat":[0,-2974,-18517,-4,3807],"delta_lng":[0,-6796,1974,35,8748]},"impl":true},
    {"code":3300132,"left":3300134,"right":3300131,"id":"ff2426","name":"滝井","name_kana":"たきい","lat":34.727868,"lng":135.557463,"prefecture":27,"lines":[33001],"attr":"eco","postal_code":"570-0075","address":"守口市紅屋町８-８","next":[9965205,9961903,3300131,3300133],"voronoi":{"lat":34.726312,"lng":135.562041,"delta_lat":[0,4070,-2677,-3356],"delta_lng":[0,-4793,-3708,4809]},"impl":true},
    {"code":3300134,"left":9961905,"right":9965205,"id":"ffe364","name":"森小路","name_kana":"もりしょうじ","lat":34.719419,"lng":135.551686,"prefecture":27,"lines":[33001],"attr":"eco","postal_code":"535-0013","address":"大阪市旭区森小路１-４-１５","next":[9961904,9965206,3300133,9961905,3300135],"voronoi":{"lat":34.715454,"lng":135.55007,"delta_lat":[0,4206,2865,-2985,-5869],"delta_lng":[0,-3016,4919,4443,-3748]},"impl":true},
    {"code":9961905,"left":3300135,"right":9961904,"id":"3ee993","name":"関目高殿","name_kana":"せきめたかどの","lat":34.715197,"lng":135.545797,"prefecture":27,"lines":[99619],"attr":"eco","postal_code":"535-0031","address":"大阪市旭区高殿４-２２","next":[9965207,9961904,3300134,9961906,1164112,3300135],"voronoi":{"lat":34.719661,"lng":135.547055,"delta_lat":[0,2756,-4695,-4830,1686,877],"delta_lng":[0,-7120,-2573,3939,6741,2029]},"impl":true},
    {"code":3300135,"left":9965207,"id":"30b23d","name":"関目","name_kana":"せきめ","lat":34.71252,"lng":135.546953,"prefecture":27,"lines":[33001],"attr":"eco","postal_code":"536-0008","address":"大阪市城東区関目５-１-６","next":[9962414,3300134,9965207,9965206,3300136,9962413,9961905],"voronoi":{"lat":34.714578,"lng":135.548041,"delta_lat":[0,-4400,-3570,200,1072,5792,1783],"delta_lng":[0,-3337,5256,3206,869,-1367,-2598]},"impl":true},
    {"code":9965207,"id":"ce551a","name":"関目成育","name_kana":"せきめせいいく","lat":34.712975,"lng":135.546353,"prefecture":27,"lines":[99652],"attr":"heat","postal_code":"536-0000","address":"大阪市城東区","next":[9961905,3300136,3300135,9961906],"voronoi":{"lat":34.712891,"lng":135.541301,"delta_lat":[0,1686,-4400,1451],"delta_lng":[0,6741,-3337,-2785]},"impl":true},
    {"code":9961904,"id":"9152b3","name":"千林大宮","name_kana":"せんばやしおおみや","lat":34.723808,"lng":135.54913,"prefecture":27,"lines":[99619],"attr":"eco","postal_code":"535-0013","address":"大阪市旭区森小路２-６","next":[9961903,3300134,9961905,3300133,1164112,9965203],"voronoi":{"lat":34.727748,"lng":135.551827,"delta_lat":[0,-5222,-2865,2756,9734,1142],"delta_lng":[0,147,-4919,-7120,-178,4835]},"impl":true},
    {"code":9965205,"left":9962416,"right":3300133,"id":"3d0d93","name":"清水(大阪)","original_name":"清水","name_kana":"しみず","lat":34.721646,"lng":135.560772,"prefecture":27,"lines":[99652],"attr":"cool","postal_code":"535-0021","address":"大阪市旭区清水","next":[3300132,3300129,3300130,9962416,3300131,9965206,3300133],"voronoi":{"lat":34.726312,"lng":135.562041,"delta_lat":[0,638,-1631,-1859,-8898,5019,4768],"delta_lng":[0,5645,4955,1926,-4979,-13073,1834]},"impl":true},
    {"code":9962416,"left":9965206,"id":"d3d0d4","name":"鶴見緑地","name_kana":"つるみりょくち","lat":34.710754,"lng":135.580239,"prefecture":27,"lines":[99624],"attr":"heat","postal_code":"538-0036","address":"大阪市鶴見区緑地公園１-５５","next":[3300129,9962417,3300128,9965205,9965206,1161720,1161721,9962415],"voronoi":{"lat":34.714352,"lng":135.569546,"delta_lat":[0,209,8898,1046,-4,-18099,-4425,-328],"delta_lng":[0,42,4979,6401,35,9050,-3022,-5251]},"impl":true},
    {"code":9965206,"id":"156de0","name":"新森古市","name_kana":"しんもりふるいち","lat":34.715197,"lng":135.558296,"prefecture":27,"lines":[99652],"attr":"cool","postal_code":"535-0000","address":"大阪市旭区","next":[9962414,3300134,9962415,3300135,9962416,3300133,9965205],"voronoi":{"lat":34.71958,"lng":135.556516,"delta_lat":[0,-40,-5869,-5792,1514,4959,209],"delta_lng":[0,-99,-3748,1367,11506,4005,42]},"impl":true},
    {"code":3300133,"id":"136af6","name":"千林","name_kana":"せんばやし","lat":34.723966,"lng":135.554741,"prefecture":27,"lines":[33001],"attr":"eco","postal_code":"535-0012","address":"大阪市旭区千林１-１１-１５","next":[3300134,3300132,9961904,9965206,9961903,9965205],"voronoi":{"lat":34.727704,"lng":135.55354,"delta_lat":[0,43,-5222,-2985,40,4768],"delta_lng":[0,-1714,147,4443,99,1834]},"impl":true},
    {"code":3300131,"left":9965202,"right":9961902,"id":"f60a04","name":"土居","name_kana":"どい","lat":34.730577,"lng":135.559763,"prefecture":27,"lines":[33001],"attr":"eco","postal_code":"570-0074","address":"守口市文園町４-５","next":[9961902,3300132,9965205,3300130,9961903],"voronoi":{"lat":34.734729,"lng":135.560986,"delta_lat":[0,-7779,-638,4070,5876],"delta_lng":[0,6701,-5645,-4793,971]},"impl":true},
    {"code":9965202,"left":9961903,"right":9965201,"id":"1db95f","name":"瑞光四丁目","name_kana":"ずいこうよんちょうめ","lat":34.752317,"lng":135.544612,"prefecture":27,"lines":[99652],"attr":"cool","postal_code":"533-0005","address":"大阪市東淀川区瑞光","next":[9961902,3400321,3400320,9965201,9965203],"voronoi":{"lat":34.751664,"lng":135.559092,"delta_lat":[0,6400,-4188,-5689,-406],"delta_lng":[0,-18325,-2190,715,16905]},"impl":true},
    {"code":9961903,"left":9965203,"id":"6ea613","name":"太子橋今市","name_kana":"たいしばしいまいち","lat":34.731376,"lng":135.55493,"prefecture":27,"lines":[99619,99652],"attr":"eco","postal_code":"535-0001","address":"大阪市旭区太子橋１-４","next":[9961904,3300132,9961902,9965203,3300133,3300131],"voronoi":{"lat":34.741529,"lng":135.554322,"delta_lat":[0,-8237,-5545,-43,2677,5876],"delta_lng":[0,-9730,7235,1714,3708,971]},"impl":true},
    {"code":9965203,"id":"ca3823","name":"だいどう豊里","name_kana":"だいどうとよさと","lat":34.743805,"lng":135.544408,"prefecture":27,"lines":[99652],"attr":"cool","postal_code":"533-0000","address":"大阪市東淀川区","next":[9961902,9961903,3400321,9965202,9961904,1164111,1164112],"voronoi":{"lat":34.733292,"lng":135.544592,"delta_lat":[0,8237,6251,406,-10510,-848,-4678],"delta_lng":[0,9730,1875,-16905,-6577,107,6935]},"impl":true},
    {"code":9965201,"id":"bc4299","name":"井高野","name_kana":"いたかの","lat":34.760166,"lng":135.547353,"prefecture":27,"lines":[99652],"attr":"cool","postal_code":"533-0002","address":"大阪市東淀川区北江口","next":[1160210,9961902,9962612,9965202,3400320,3400319,9962611],"voronoi":{"lat":34.752675,"lng":135.560452,"delta_lat":[0,-1012,6400,8652,442,1706,-399],"delta_lng":[0,-1361,-18325,-1426,1280,15385,556]},"impl":true},
    {"code":9961902,"left":3300129,"right":9961901,"id":"c7b1e6","name":"守口","name_kana":"もりぐち","lat":34.737973,"lng":135.563851,"prefecture":27,"lines":[99619],"attr":"eco","postal_code":"570-0083","address":"守口市京阪本通２-２","next":[9962612,9965203,9961903,9965202,3300129,3300131,9961901,9965201,3300130],"voronoi":{"lat":34.734729,"lng":135.560986,"delta_lat":[0,1529,5272,6251,3883,1012,-687,-7287,-5146],"delta_lng":[0,-2766,-3898,1875,2895,1361,3987,5825,-283]},"impl":true},
    {"code":3300129,"left":3300130,"id":"c05d25","name":"西三荘","name_kana":"にしさんそう","lat":34.737309,"lng":135.5759,"prefecture":27,"lines":[33001],"attr":"heat","postal_code":"571-0057","address":"門真市元町２６-２２","next":[9961901,9962416,3300128,9961902,9965205,3300130],"voronoi":{"lat":34.739556,"lng":135.569981,"delta_lat":[0,5146,-1679,-18517,-1046,1859],"delta_lng":[0,283,8730,1974,-6401,-1926]},"impl":true},
    {"code":3300130,"id":"a59a60","name":"守口市","name_kana":"もりぐちし","lat":34.735323,"lng":135.565273,"prefecture":27,"lines":[33001],"attr":"eco","postal_code":"570-0038","address":"守口市河原町１-１","next":[9965205,3300129,3300131,9961902],"voronoi":{"lat":34.734729,"lng":135.560986,"delta_lat":[0,-7779,-1631,14237],"delta_lng":[0,6701,4955,-2660]},"impl":true},
    {"code":9961901,"id":"28017e","name":"大日","name_kana":"だいにち","lat":34.749476,"lng":135.578241,"prefecture":27,"lines":[99619,99626],"attr":"heat","postal_code":"570-0003","address":"守口市大日町２-１","next":[3300129,9962612,3300124,3300128,9961902,3300125,3300126,3300127],"voronoi":{"lat":34.766284,"lng":135.595805,"delta_lat":[0,872,3246,-18413,-7287,-1679,2974,10155],"delta_lng":[0,54,-1105,-30314,5825,8730,6796,7312]},"impl":true},
    {"code":3102523,"left":3102306,"right":1161715,"id":"e20877","name":"山田川","name_kana":"やまだがわ","lat":34.737678,"lng":135.793794,"prefecture":26,"lines":[31025],"attr":"eco","postal_code":"619-0231","address":"相楽郡精華町大字山田小字下河原３-１","next":[3102308,3102522,1161703,1161702,3102524],"voronoi":{"lat":34.741244,"lng":135.79862,"delta_lat":[0,6209,-322,-13783,-3576],"delta_lng":[0,-25274,-4293,3718,25948]},"impl":true},
    {"code":3102306,"left":1161718,"right":3102307,"id":"b56a0a","name":"白庭台","name_kana":"しらにわだい","lat":34.720345,"lng":135.716686,"prefecture":29,"lines":[31023],"attr":"eco","postal_code":"630-0136","address":"生駒市白庭台６丁目２１９２-２","next":[3101601,3300308,3102307,3102014,3102601,1161715,3102013],"voronoi":{"lat":34.709529,"lng":135.728984,"delta_lat":[0,35902,-14471,-4230,-6445,-12585,-3375],"delta_lng":[0,-25118,-22741,-2345,8758,18367,15586]},"impl":true},
    {"code":1161718,"left":1161719,"right":1161717,"id":"35a9f5","name":"野崎(大阪)","original_name":"野崎","name_kana":"のざき","lat":34.718334,"lng":135.636942,"prefecture":27,"lines":[11617],"attr":"cool","postal_code":"574-0015","address":"大東市野崎１","next":[3102601,3102304,3102011,1161717,1161719,3300125],"voronoi":{"lat":34.727155,"lng":135.617575,"delta_lat":[0,-27871,302,15223,2688,10619],"delta_lng":[0,21826,2939,28328,1176,-53182]},"impl":true},
    {"code":1161719,"left":9962417,"id":"ac8566","name":"住道","name_kana":"すみのどう","lat":34.706238,"lng":135.621496,"prefecture":27,"lines":[11617],"attr":"cool","postal_code":"574-0026","address":"大東市住道２","next":[3300125,1161720,3102303,3102302,3102304,3300126,9962417,1161718],"voronoi":{"lat":34.694265,"lng":135.632632,"delta_lat":[0,-1955,477,18490,13117,2512,250,-27871],"delta_lng":[0,-19223,-794,-5738,4800,4901,996,21826]},"impl":true},
    {"code":9962417,"id":"a1ab3e","name":"門真南","name_kana":"かどまみなみ","lat":34.716865,"lng":135.59246,"prefecture":27,"lines":[99624],"attr":"heat","postal_code":"571-0015","address":"門真市大字三ツ島５２２-３","next":[3300127,9962416,1161720,3300126,1161719,3300128],"voronoi":{"lat":34.728763,"lng":135.600504,"delta_lat":[0,-4370,-13117,-4874,18099,3807],"delta_lng":[0,11173,-4800,-16824,-9050,8748]},"impl":true},
    {"code":1161717,"id":"d73ce6","name":"四条畷","name_kana":"しじょうなわて","lat":34.730128,"lng":135.639297,"prefecture":27,"lines":[11617],"attr":"eco","postal_code":"574-0001","address":"大東市学園町１","next":[3102601,1161716,1161718,3300125],"voronoi":{"lat":34.728116,"lng":135.618661,"delta_lat":[0,-10619,7365,18481],"delta_lng":[0,53182,4882,-48682]},"impl":true},
    {"code":3102307,"left":1160703,"right":3102308,"id":"4d688d","name":"学研北生駒","name_kana":"がっけんきたいこま","lat":34.724789,"lng":135.723038,"prefecture":29,"lines":[31023],"attr":"cool","postal_code":"630-0131","address":"生駒市上町３５３５-６","next":[3102308,3300308,3102306,3102014,1161712],"voronoi":{"lat":34.713186,"lng":135.738465,"delta_lat":[0,-3656,35902,25178,519],"delta_lng":[0,-9481,-25118,29605,1585]},"impl":true},
    {"code":1160703,"left":3102524,"id":"bf94a0","name":"平城山","name_kana":"ならやま","lat":34.710431,"lng":135.810252,"prefecture":29,"lines":[11607,11618],"attr":"eco","postal_code":"630-8105","address":"奈良市佐保台１丁目","next":[3102018,3102019,3102525,3102524,1160702,1161702],"voronoi":{"lat":34.723865,"lng":135.805943,"delta_lat":[0,-13979,-12156,389,12703,14835],"delta_lng":[0,-9917,4222,19740,19260,-26044]},"impl":true},
    {"code":3102524,"id":"528cf3","name":"高の原","name_kana":"たかのはら","lat":34.723494,"lng":135.791839,"prefecture":29,"lines":[31025],"attr":"eco","postal_code":"631-0806","address":"奈良市朱雀３-１２-３","next":[1161702,1160703,3102308,3102525,3102523],"voronoi":{"lat":34.723865,"lng":135.805943,"delta_lat":[0,-13979,8124,15338,-3576],"delta_lng":[0,-9917,-24431,1177,25948]},"impl":true},
    {"code":3102308,"id":"3c38d7","name":"学研奈良登美ヶ丘","name_kana":"がっけんならとみがおか","lat":34.726518,"lng":135.752424,"prefecture":29,"lines":[31023],"attr":"cool","postal_code":"631-0003","address":"奈良県奈良市中登美ヶ丘六丁目1-1","next":[3102525,3102523,3102307,3102015,3102524,1161703,3102014,1161712,3102016,1161704],"voronoi":{"lat":34.774319,"lng":135.739438,"delta_lat":[0,-3190,-57943,-312,-1411,4987,1561,15338,13783,17054],"delta_lng":[0,-4383,3409,573,15351,15990,1216,1177,-3718,-14462]},"impl":true},
    {"code":1161715,"left":1161716,"right":3102522,"id":"262446","name":"寝屋川公園","name_kana":"ねやがわこうえん","lat":34.755491,"lng":135.653276,"prefecture":27,"lines":[11617],"attr":"eco","postal_code":"572-0858","address":"寝屋川市打上元町１４-１","next":[1161714,3300308,3300123,1161716,3102601,3300124,3102306],"voronoi":{"lat":34.72673,"lng":135.67878,"delta_lat":[0,-233,34115,7051,4905,-25692,-15916],"delta_lng":[0,-342,-41261,1813,6391,29922,5822]},"impl":true},
    {"code":1161716,"left":3300126,"right":3300125,"id":"819556","name":"忍ヶ丘","name_kana":"しのぶがおか","lat":34.745762,"lng":135.645232,"prefecture":27,"lines":[11617],"attr":"eco","postal_code":"575-0003","address":"大阪府四條畷市岡山東一丁目10-8","next":[3102601,1161715,1161717,3300124,3300125],"voronoi":{"lat":34.743343,"lng":135.628044,"delta_lat":[0,-18481,1635,34115,-12053],"delta_lng":[0,48682,1712,-41261,-8874]},"impl":true},
    {"code":3300126,"left":3300127,"id":"f24d69","name":"大和田(大阪)","original_name":"大和田","name_kana":"おおわだ","lat":34.742962,"lng":135.602667,"prefecture":27,"lines":[33001],"attr":"heat","postal_code":"571-0063","address":"門真市常称寺町２０１","next":[9961901,1161719,9962417,3300127,3300125],"voronoi":{"lat":34.724393,"lng":135.611678,"delta_lat":[0,4370,27388,10132,-39378],"delta_lng":[0,-11173,-7402,2702,20774]},"impl":true},
    {"code":3300127,"id":"781278","name":"古川橋","name_kana":"ふるかわばし","lat":34.73994,"lng":135.591484,"prefecture":27,"lines":[33001],"attr":"heat","postal_code":"571-0030","address":"門真市末広町４８２","next":[9962417,3300128,9961901,3300126],"voronoi":{"lat":34.756152,"lng":135.593103,"delta_lat":[0,-10155,-17688,455],"delta_lng":[0,-7312,3961,10753]},"impl":true},
    {"code":3300125,"id":"046eca","name":"萱島","name_kana":"かやしま","lat":34.747453,"lng":135.61118,"prefecture":27,"lines":[33001],"attr":"heat","postal_code":"572-0827","address":"寝屋川市萱島本町１９８-１","next":[1161719,9961901,3300126,1161716,3300124,1161717,1161718],"voronoi":{"lat":34.743343,"lng":135.628044,"delta_lat":[0,5216,18596,-872,-39378,250,961],"delta_lng":[0,259,-32444,-54,20774,996,1087]},"impl":true},
    {"code":3102522,"left":1161702,"right":3102521,"id":"5ee1ce","name":"木津川台","name_kana":"きづがわだい","lat":34.746641,"lng":135.795996,"prefecture":26,"lines":[31025],"attr":"eco","postal_code":"619-0221","address":"木津川市吐師","next":[3102523,3102521,1161703,1161702,1161818],"voronoi":{"lat":34.756576,"lng":135.807399,"delta_lat":[0,-4563,-4559,-6209,8321],"delta_lng":[0,-18192,-15860,25274,9836]},"impl":true},
    {"code":1161702,"id":"80a4ba","name":"西木津","name_kana":"にしきづ","lat":34.737762,"lng":135.803507,"prefecture":26,"lines":[11617],"attr":"heat","postal_code":"619-0222","address":"木津川市相楽","next":[3102524,1161818,1160702,3102523,1160703,3102522],"voronoi":{"lat":34.741244,"lng":135.79862,"delta_lat":[0,-11472,-5907,1792,15453,8455],"delta_lng":[0,99,7223,7261,1306,-6053]},"impl":true},
    {"code":3102521,"id":"ff7533","name":"新祝園","name_kana":"しんほうその","lat":34.759953,"lng":135.792657,"prefecture":26,"lines":[31025],"attr":"eco","postal_code":"619-0241","address":"相楽郡精華町大字祝園小字長塚１３-１","next":[3102522,1161817,3102520,1161818,1161703],"voronoi":{"lat":34.752013,"lng":135.789206,"delta_lat":[0,4563,3908,11306,-734],"delta_lng":[0,18192,1301,-7103,-4877]},"impl":true},
    {"code":3300305,"left":3300122,"right":3102518,"id":"08b065","name":"郡津","name_kana":"こうづ","lat":34.794376,"lng":135.669868,"prefecture":27,"lines":[33003],"attr":"eco","postal_code":"576-0053","address":"交野市郡津５-１１-１","next":[3300123,1161714,3300304,1161712,3300306],"voronoi":{"lat":34.808814,"lng":135.681181,"delta_lat":[0,-22688,-1709,-2348,16950],"delta_lng":[0,-29939,429,9896,22055]},"impl":true},
    {"code":3300122,"left":9962610,"right":3300121,"id":"1b5825","name":"光善寺","name_kana":"こうぜんじ","lat":34.797745,"lng":135.630124,"prefecture":27,"lines":[33001],"attr":"heat","postal_code":"573-0064","address":"枚方市北中振１-１７-１５","next":[3400316,3400315,3300304,3300123,9962610,3300121,3300303,3400317],"voronoi":{"lat":34.812733,"lng":135.607673,"delta_lat":[0,6127,-22563,-2284,-1760,-3029,4295,10240],"delta_lng":[0,6136,33287,767,211,-49533,-258,3531]},"impl":true},
    {"code":9962610,"left":3400327,"right":1161714,"id":"45fb0d","name":"沢良宜","name_kana":"さわらぎ","lat":34.793902,"lng":135.566166,"prefecture":27,"lines":[99626],"attr":"eco","postal_code":"567-0866","address":"茨木市高浜町１９４-４","next":[9962611,3300123,3400327,3300122,9962612,1160209,3300124,3400317,3400318],"voronoi":{"lat":34.797219,"lng":135.558099,"delta_lat":[0,-5501,-4052,-6797,1118,5924,1312,4295,6655],"delta_lng":[0,901,2438,20407,13242,3266,188,-258,-15566]},"impl":true},
    {"code":3400327,"left":9962611,"right":1160209,"id":"169734","name":"摂津市","name_kana":"せっつし","lat":34.786409,"lng":135.553715,"prefecture":27,"lines":[34003],"attr":"cool","postal_code":"566-0011","address":"大阪府摂津市千里丘東4丁目1-1","open_date":"2010-03-14","next":[1160209,1160210,9962611,9962610,3400319],"voronoi":{"lat":34.78355,"lng":135.546126,"delta_lat":[0,1935,6233,-4052,-9483],"delta_lng":[0,-1534,14409,2438,-8017]},"impl":true},
    {"code":9962611,"left":3400319,"id":"a01c28","name":"摂津","name_kana":"せっつ","lat":34.779842,"lng":135.561483,"prefecture":27,"lines":[99626],"attr":"heat","postal_code":"566-0035","address":"摂津市鶴野１-１１６-１","next":[9962610,3400319,3400327,9962612,9965201],"voronoi":{"lat":34.768864,"lng":135.556006,"delta_lat":[0,9320,9483,-6797,-12405],"delta_lng":[0,-2584,8017,20407,-25284]},"impl":true},
    {"code":3400319,"id":"081c43","name":"正雀","name_kana":"しょうじゃく","lat":34.775454,"lng":135.545657,"prefecture":27,"lines":[34003],"attr":"eco","postal_code":"566-0013","address":"摂津市阪急正雀１-１","next":[9962611,3400327,1160210,9965201],"voronoi":{"lat":34.767157,"lng":135.540621,"delta_lat":[0,16393,-5367,-9320],"delta_lng":[0,5505,7296,2584]},"impl":true},
    {"code":1160209,"id":"ddab5e","name":"千里丘","name_kana":"せんりおか","lat":34.791502,"lng":135.551512,"prefecture":27,"lines":[11602],"attr":"heat","postal_code":"566-0001","address":"摂津市千里丘１丁目","next":[3400327,9962702,9962607,1160210,9962608,9962610,3400318],"voronoi":{"lat":34.799114,"lng":135.556592,"delta_lat":[0,1943,-3922,-5536,-6113,6233,5501],"delta_lng":[0,-11077,-6046,-3951,9073,14409,-901]},"impl":true},
    {"code":1161714,"left":3300124,"right":3300123,"id":"b235d1","name":"星田","name_kana":"ほしだ","lat":34.767346,"lng":135.663455,"prefecture":27,"lines":[11617],"attr":"eco","postal_code":"576-0011","address":"交野市星田５","next":[1161713,3300305,1161715,3300123,3300307,3300308,3300306],"voronoi":{"lat":34.77103,"lng":135.67441,"delta_lat":[0,-1973,-22181,25692,11849,-2348,-6835],"delta_lng":[0,580,312,-29922,6290,9896,11023]},"impl":true},
    {"code":3300124,"left":9962612,"id":"6f023b","name":"寝屋川市","name_kana":"ねやがわし","lat":34.763893,"lng":135.620603,"prefecture":27,"lines":[33001],"attr":"heat","postal_code":"572-0837","address":"寝屋川市早子町１６-１１","next":[9961901,9962612,1161715,9962610,1161716,3300125,3300123],"voronoi":{"lat":34.787911,"lng":135.598353,"delta_lat":[0,-5924,-11586,-3246,-18596,12053,7051],"delta_lng":[0,-3266,-334,1105,32444,8874,1813]},"impl":true},
    {"code":9962612,"id":"9c873c","name":"南摂津","name_kana":"みなみせっつ","lat":34.765394,"lng":135.568572,"prefecture":27,"lines":[99626],"attr":"heat","postal_code":"566-0074","address":"摂津市東一津屋１２０１-３","next":[9961902,9961901,3300124,9965201,9962611,9962610],"voronoi":{"lat":34.78087,"lng":135.581845,"delta_lat":[0,-12405,-15789,-687,18413,11586],"delta_lng":[0,-25284,3891,3987,30314,334]},"impl":true},
    {"code":3300123,"id":"2388b4","name":"香里園","name_kana":"こうりえん","lat":34.784613,"lng":135.630927,"prefecture":27,"lines":[33001],"attr":"heat","postal_code":"572-0084","address":"寝屋川市香里南之町１９-１","next":[3300305,9962610,1161715,3300304,3300122,1161714,3300124],"voronoi":{"lat":34.787911,"lng":135.598353,"delta_lat":[0,1312,3029,-6126,-1709,-11849,-4905],"delta_lng":[0,188,49533,3167,429,-6290,-6391]},"impl":true},
    {"code":3300121,"left":1160208,"right":3300302,"id":"08abd6","name":"枚方公園","name_kana":"ひらかたこうえん","lat":34.811526,"lng":135.639465,"prefecture":27,"lines":[33001],"attr":"heat","postal_code":"573-0058","address":"枚方市伊加賀東町３-８","next":[3400315,3300303,3400314,3300119,3300122,3300120],"voronoi":{"lat":34.796297,"lng":135.647097,"delta_lat":[0,22563,5655,6965,-3062,-23715],"delta_lng":[0,-33287,2865,16500,3726,11783]},"impl":true},
    {"code":1160208,"left":3400318,"right":3400317,"id":"5df667","name":"茨木","name_kana":"いばらき","lat":34.815091,"lng":135.56208,"prefecture":27,"lines":[11602],"attr":"heat","postal_code":"567-0888","address":"茨木市駅前１丁目","next":[9962608,3400317,1160217,9962704,9962703,3400318,9962702],"voronoi":{"lat":34.808176,"lng":135.561356,"delta_lat":[0,1967,13800,17112,-10697,-1324,-7296],"delta_lng":[0,8158,-1388,-14737,-5915,-140,1490]},"impl":true},
    {"code":3400318,"left":9962608,"id":"d8f660","name":"南茨木","name_kana":"みなみいばらき","lat":34.802351,"lng":135.565152,"prefecture":27,"lines":[34003,99626],"attr":"cool","postal_code":"567-0876","address":"茨木市天王２-１-１３","next":[9962608,3400317,1160209,9962610,1160208],"voronoi":{"lat":34.800174,"lng":135.582717,"delta_lat":[0,-2954,1894,9063,1967],"delta_lng":[0,-24618,-1507,4764,8158]},"impl":true},
    {"code":9962608,"id":"4feeb2","name":"宇野辺","name_kana":"うのべ","lat":34.808,"lng":135.554406,"prefecture":27,"lines":[99626],"attr":"eco","postal_code":"567-0042","address":"茨木市宇野辺１","next":[9962702,3400318,1160208,1160209],"voronoi":{"lat":34.801057,"lng":135.545516,"delta_lat":[0,20682,-13562,-9063],"delta_lng":[0,3309,12532,-4764]},"impl":true},
    {"code":3400317,"id":"7d86aa","name":"茨木市","name_kana":"いばらきし","lat":34.816472,"lng":135.575815,"prefecture":27,"lines":[34003],"attr":"cool","postal_code":"567-0816","address":"茨木市永代町１-５","next":[1160217,1160208,3400318,9962610,3400316,3300122],"voronoi":{"lat":34.793519,"lng":135.598283,"delta_lat":[0,6655,9970,13800,-1956,-18229],"delta_lng":[0,-15566,-13203,-1388,12095,21593]},"impl":true},
    {"code":3300302,"left":3300304,"right":3300120,"id":"59809b","name":"宮之阪","name_kana":"みやのさか","lat":34.813649,"lng":135.65663,"prefecture":27,"lines":[33003],"attr":"heat","postal_code":"573-0022","address":"枚方市宮之阪１-７５５-２","next":[3300118,3300119,1161711,3300120,3300303],"voronoi":{"lat":34.806351,"lng":135.64996,"delta_lat":[0,14975,3409,-1434,-1417],"delta_lng":[0,4832,19892,4841,25]},"impl":true},
    {"code":3300304,"left":3300303,"id":"ae334a","name":"村野","name_kana":"むらの","lat":34.801828,"lng":135.664221,"prefecture":27,"lines":[33003],"attr":"heat","postal_code":"573-0016","address":"枚方市村野本町１-２５","next":[3300305,3300123,3300122,1161712,3300303,1161711],"voronoi":{"lat":34.81853,"lng":135.680078,"delta_lat":[0,-24518,-1760,-6126,22688,6104],"delta_lng":[0,-32215,211,3167,29939,83]},"impl":true},
    {"code":3300303,"id":"a78503","name":"星ヶ丘(大阪)","original_name":"星ヶ丘","name_kana":"ほしがおか","lat":34.807696,"lng":135.659755,"prefecture":27,"lines":[33003],"attr":"heat","postal_code":"573-0013","address":"大阪府枚方市星丘二丁目","next":[1161711,3300121,3300120,3300122,3300304,3300302],"voronoi":{"lat":34.81853,"lng":135.680078,"delta_lat":[0,-24518,2284,8406,1649,15533],"delta_lng":[0,-32215,-767,1587,1277,29590]},"impl":true},
    {"code":3300120,"id":"793419","name":"枚方市","name_kana":"ひらかたし","lat":34.816171,"lng":135.648814,"prefecture":27,"lines":[33001,33003],"attr":"heat","postal_code":"573-0032","address":"枚方市岡東町１９-１４","next":[3300303,3300121,3300302,3300119],"voronoi":{"lat":34.828417,"lng":135.636901,"delta_lat":[0,-23715,1649,14975],"delta_lng":[0,11783,1277,4832]},"impl":true},
    {"code":3102518,"left":1161705,"right":1161706,"id":"4f3b30","name":"三山木","name_kana":"みやまき","lat":34.798435,"lng":135.785905,"prefecture":26,"lines":[31025],"attr":"cool","postal_code":"610-0313","address":"京田辺市三山木高飛２-６","next":[1161705,1161816,1161706,3102517,3102519,1161815],"voronoi":{"lat":34.811265,"lng":135.792989,"delta_lat":[0,-4569,-2191,-9800,2366,11373],"delta_lng":[0,-6197,-2016,746,11116,-901]},"impl":true},
    {"code":1161705,"left":1161713,"right":1161704,"id":"8cdcd6","name":"JR三山木","name_kana":"じぇいあーるみやまき","lat":34.798334,"lng":135.784578,"prefecture":26,"lines":[11617],"attr":"heat","postal_code":"610-0313","address":"京田辺市三山木高飛４番地","next":[3102518,3102519,1161706],"voronoi":{"lat":34.794704,"lng":135.785522,"delta_lat":[0,-9156,18956],"delta_lng":[0,-22396,21650]},"impl":true},
    {"code":1161713,"left":3300308,"right":3300306,"id":"08ba91","name":"河内磐船","name_kana":"かわちいわふね","lat":34.776501,"lng":135.684592,"prefecture":27,"lines":[11617],"attr":"heat","postal_code":"576-0031","address":"交野市森南１","next":[1161714,1161712,3300307,3300306],"voronoi":{"lat":34.775235,"lng":135.672589,"delta_lat":[0,-4204,11310,7525],"delta_lng":[0,1821,29144,-14015]},"impl":true},
    {"code":3300308,"left":3300307,"id":"08dd8a","name":"私市","name_kana":"きさいち","lat":34.767671,"lng":135.686569,"prefecture":27,"lines":[33003],"attr":"cool","postal_code":"576-0032","address":"交野市私市山手３-６-３２","next":[3300307,3102306,1161715,3102307,1161712,1161714],"voronoi":{"lat":34.769058,"lng":135.67499,"delta_lat":[0,6666,-5114,-25178,-14471,15916],"delta_lng":[0,43332,15148,-29605,-22741,-5822]},"impl":true},
    {"code":3300307,"id":"b4c8a4","name":"河内森","name_kana":"かわちもり","lat":34.77386,"lng":135.685617,"prefecture":27,"lines":[33003],"attr":"cool","postal_code":"576-0033","address":"交野市私市１-２-１","next":[3300308,1161713,1161714,1161712],"voronoi":{"lat":34.782341,"lng":135.703554,"delta_lat":[0,-11310,-1973,6666],"delta_lng":[0,-29144,580,43332]},"impl":true},
    {"code":3300306,"id":"362361","name":"交野市","name_kana":"かたのし","lat":34.786924,"lng":135.675595,"prefecture":27,"lines":[33003],"attr":"eco","postal_code":"576-0052","address":"交野市私部３-１８-１５","next":[1161712,1161713,3300305,1161714],"voronoi":{"lat":34.78207,"lng":135.661567,"delta_lat":[0,16950,-9154,-14631],"delta_lng":[0,22055,5918,-16950]},"impl":true},
    {"code":1161704,"left":1161817,"right":3102519,"id":"cad626","name":"下狛","name_kana":"しもこま","lat":34.780579,"lng":135.788574,"prefecture":26,"lines":[11617],"attr":"heat","postal_code":"619-0245","address":"相楽郡精華町字下狛","next":[1161712,1161703,3102519,3102520,3102308,1161706],"voronoi":{"lat":34.786202,"lng":135.789694,"delta_lat":[0,-16248,-5769,10133,712,7824],"delta_lng":[0,-1782,-33320,-15153,163,19318]},"impl":true},
    {"code":1161817,"left":3102520,"id":"9d5094","name":"棚倉","name_kana":"たなくら","lat":34.774705,"lng":135.816141,"prefecture":26,"lines":[11618],"attr":"eco","postal_code":"619-0202","address":"木津川市山城町平尾","next":[1161818,1161816,3102520,3102521,1150912],"voronoi":{"lat":34.784838,"lng":135.804428,"delta_lat":[0,-13049,-11306,7543,36721],"delta_lng":[0,-2831,7103,35991,15199]},"impl":true},
    {"code":3102520,"id":"dc9454","name":"狛田","name_kana":"こまだ","lat":34.78047,"lng":135.789568,"prefecture":26,"lines":[31025],"attr":"eco","postal_code":"619-0245","address":"相楽郡精華町大字下狛小字下新庄６２-１","next":[3102519,1161703,1161816,1161817,3102521,1161704],"voronoi":{"lat":34.788341,"lng":135.800486,"delta_lat":[0,-3503,-13049,-734,-1101,16248],"delta_lng":[0,3941,-2831,-4877,-8808,1782]},"impl":true},
    {"code":3102519,"id":"e8e4d4","name":"近鉄宮津","name_kana":"きんてつみやづ","lat":34.791453,"lng":135.787391,"prefecture":26,"lines":[31025],"attr":"eco","postal_code":"610-0314","address":"京田辺市宮津灰崎３-１","next":[3102520,1161706,3102518,1161704,1161705,1161816],"voronoi":{"lat":34.79707,"lng":135.796638,"delta_lat":[0,-2366,-9156,-2694,3348,2139],"delta_lng":[0,-11116,-22396,-4206,30774,10793]},"impl":true},
    {"code":1161706,"left":3102516,"right":3102517,"id":"1b252d","name":"同志社前","name_kana":"どうししゃまえ","lat":34.805124,"lng":135.778633,"prefecture":26,"lines":[11617],"attr":"cool","postal_code":"610-0313","address":"京田辺市三山木","next":[1161712,1161707,3102518,3102519,1161708,1161705,1161704,3102517],"voronoi":{"lat":34.806733,"lng":135.763405,"delta_lat":[0,-12877,-4287,-14538,7824,2694,18956,2191],"delta_lng":[0,-20654,-3825,676,19318,4206,21650,2016]},"impl":true},
    {"code":3102516,"left":1161711,"right":1161707,"id":"294bd2","name":"新田辺","name_kana":"しんたなべ","lat":34.820492,"lng":135.772805,"prefecture":26,"lines":[31025],"attr":"cool","postal_code":"610-0361","address":"京田辺市河原食田２-３","next":[3102517,1161707,1161813,1161814,3102515],"voronoi":{"lat":34.830351,"lng":135.772169,"delta_lat":[0,-19023,8763,8185,2012],"delta_lng":[0,-2857,18326,-2288,-2588]},"impl":true},
    {"code":1161711,"left":1161712,"id":"67f876","name":"藤阪","name_kana":"ふじさか","lat":34.814466,"lng":135.702748,"prefecture":27,"lines":[11617],"attr":"heat","postal_code":"573-0156","address":"枚方市藤阪南町２","next":[3300303,1161712,3300118,3300302,1161710,1161708,3300304],"voronoi":{"lat":34.794872,"lng":135.735922,"delta_lat":[0,121,41441,-13133,-1417,-3354,-3612],"delta_lng":[0,-42,-45964,-10390,25,528,1185]},"impl":true},
    {"code":1161712,"id":"1de66a","name":"津田","name_kana":"つだ","lat":34.801373,"lng":135.697946,"prefecture":27,"lines":[11617],"attr":"heat","postal_code":"573-0125","address":"枚方市津田駅前１","next":[1161706,1161704,1161713,1161708,3300306,3300305,1161711,3300304,3300308,3300307,3102307,3102308],"voronoi":{"lat":34.771129,"lng":135.735055,"delta_lat":[0,-519,5114,6617,7525,9154,9795,6104,-20046,-5304,-14538,-712],"delta_lng":[0,-1585,-15148,-14768,-14015,-5918,-2441,83,54658,3004,676,-163]},"impl":true},
    {"code":1161707,"id":"eac95d","name":"京田辺","name_kana":"きょうたなべ","lat":34.821114,"lng":135.768664,"prefecture":26,"lines":[11617],"attr":"cool","postal_code":"610-0300","address":"京田辺市田辺久戸","next":[1161708,1161706,3102517,3102516,3102515],"voronoi":{"lat":34.811327,"lng":135.769311,"delta_lat":[0,-4595,-12877,38623,-2128],"delta_lng":[0,-5907,-20654,19879,9539]},"impl":true},
    {"code":3102517,"left":1161816,"right":1161815,"id":"bac23e","name":"興戸","name_kana":"こうど","lat":34.808293,"lng":135.778638,"prefecture":26,"lines":[31025],"attr":"cool","postal_code":"610-0332","address":"京田辺市興戸北落延６-１","next":[3102516,1161815,1161707,3102518,1161814,1161706],"voronoi":{"lat":34.806733,"lng":135.763405,"delta_lat":[0,4595,8763,-3900,-4926,-4569],"delta_lng":[0,5907,18326,3602,1749,-6197]},"impl":true},
    {"code":1161816,"id":"270091","name":"玉水","name_kana":"たまみず","lat":34.800108,"lng":135.807022,"prefecture":26,"lines":[11618],"attr":"eco","postal_code":"610-0302","address":"綴喜郡井手町大字井手","next":[1161817,3102518,3102520,1150912,1161815,3102519],"voronoi":{"lat":34.784838,"lng":135.804428,"delta_lat":[0,19909,7692,-3996,-11373,-8729],"delta_lng":[0,55462,5841,-69994,901,3849]},"impl":true},
    {"code":1161815,"id":"16bac5","name":"山城多賀","name_kana":"やましろたが","lat":34.818009,"lng":135.806,"prefecture":26,"lines":[11618],"attr":"cool","postal_code":"610-0301","address":"綴喜郡井手町大字多賀","next":[3300208,3102517,1161814,1161816,1150911,1150912,3102518],"voronoi":{"lat":34.811265,"lng":135.792989,"delta_lat":[0,4926,39992,-123,-16596,-27024,-3996],"delta_lng":[0,-1749,68711,41202,-7622,-27800,-69994]},"impl":true}
  ]
}