{
  "name":"segment45",
  "root":1133213,
  "east":139.916031,
  "west":139.617796,
  "south":35.714385,
  "north":35.778989,
  "station_size":155,
  "node_list":[
    {"code":1133213,"left":2200302,"right":9934203,"id":"ad336a","name":"上中里","name_kana":"かみなかざと","lat":35.74728,"lng":139.745769,"prefecture":13,"lines":[11332],"attr":"cool","postal_code":"114-0016","address":"北区上中里１丁目","next":[2800905,1130215,9930514,1131902,9930515],"voronoi":{"lat":35.748504,"lng":139.743359,"delta_lat":[0,-6689,816,5215,2120],"delta_lng":[0,2469,3734,290,-5037]},"impl":true},
    {"code":2200302,"left":2200132,"right":9930318,"id":"163591","name":"新桜台","name_kana":"しんさくらだい","lat":35.74077,"lng":139.6683,"prefecture":13,"lines":[22003],"attr":"cool","postal_code":"176-0002","address":"練馬区桜台１-２８-１１","next":[2200301,2200104,2200105,9930134,2800605],"voronoi":{"lat":35.742938,"lng":139.673244,"delta_lat":[0,-6537,-512,8332,2551],"delta_lng":[0,-4653,-1791,-2885,8197]},"impl":true},
    {"code":2200132,"left":2200102,"right":2800610,"id":"3e50cd","name":"上り屋敷","name_kana":"あがりやしき","closed":true,"lat":35.725281,"lng":139.704778,"prefecture":13,"lines":[22001],"attr":"unknown","postal_code":"171-0021","address":"東京都豊島区西池袋２丁目５−６","next":[1130211,2200703,2200102,2800608,1130212],"voronoi":{"lat":35.731643,"lng":139.704876,"delta_lat":[0,-3872,-6163,-522,3325],"delta_lng":[0,-5077,-764,525,11020]},"impl":true},
    {"code":2200102,"left":2200706,"right":9930134,"id":"c7a446","name":"椎名町","name_kana":"しいなまち","lat":35.726572,"lng":139.694363,"prefecture":13,"lines":[22001],"attr":"heat","postal_code":"171-0051","address":"豊島区長崎１-１-２２","next":[2200704,2200132,9930133,2200103,2800607,2800608,2200703],"voronoi":{"lat":35.72777,"lng":139.699799,"delta_lat":[0,4865,-1099,-4710,-5447,-570,798],"delta_lng":[0,-7444,-2516,-1472,1460,883,8325]},"impl":true},
    {"code":2200706,"left":2200709,"right":2200703,"id":"408121","name":"沼袋","name_kana":"ぬまぶくろ","lat":35.719458,"lng":139.663841,"prefecture":13,"lines":[22007],"attr":"cool","postal_code":"165-0025","address":"中野区沼袋１-３５-１","next":[2200705,2200707,2200105,9930134,1131214,2200106],"voronoi":{"lat":35.728337,"lng":139.658445,"delta_lat":[0,-16700,1171,11272,4935,-124],"delta_lng":[0,-301,8042,4745,-9476,-1933]},"impl":true},
    {"code":2200709,"left":2200707,"right":2200710,"id":"bc652c","name":"鷺ノ宮","name_kana":"さぎのみや","lat":35.722605,"lng":139.63892,"prefecture":13,"lines":[22007],"attr":"cool","postal_code":"165-0032","address":"中野区鷺宮３-１５-１","next":[2200710,2200108,2200708,2200107,1131216],"voronoi":{"lat":35.714797,"lng":139.631065,"delta_lat":[0,12975,1521,813,-17085],"delta_lng":[0,1137,2185,7869,-843]},"impl":true},
    {"code":2200707,"left":2200708,"id":"432e55","name":"野方","name_kana":"のがた","lat":35.719658,"lng":139.652733,"prefecture":13,"lines":[22007],"attr":"cool","postal_code":"165-0027","address":"中野区野方６-３-３","next":[1131215,2200706,2200106,2200708,1131214],"voronoi":{"lat":35.728337,"lng":139.658445,"delta_lat":[0,626,-15418,-2423,515],"delta_lng":[0,-6977,-5185,11315,546]},"impl":true},
    {"code":2200708,"id":"0792ac","name":"都立家政","name_kana":"とりつかせい","lat":35.722313,"lng":139.644839,"prefecture":13,"lines":[22007],"attr":"cool","postal_code":"165-0032","address":"中野区鷺宮１-１６-１","next":[1131215,2200709,2200707,2200106,1131216,2200107],"voronoi":{"lat":35.730107,"lng":139.642257,"delta_lat":[0,-17085,-553,1076,15418,3187],"delta_lng":[0,-843,1080,3790,5185,-5212]},"impl":true},
    {"code":2200710,"id":"91c4f5","name":"下井草","name_kana":"しもいぐさ","lat":35.723852,"lng":139.624688,"prefecture":13,"lines":[22007],"attr":"cool","postal_code":"167-0022","address":"杉並区下井草２-４４-１０","next":[2200709,2200711,1131217,2200109,2200108,1131216],"voronoi":{"lat":35.727772,"lng":139.632202,"delta_lat":[0,4633,-174,-17278,-2054,1898],"delta_lng":[0,-11129,-367,-1543,8671,3231]},"impl":true},
    {"code":2200703,"left":2200704,"right":9930133,"id":"b0e73b","name":"下落合","name_kana":"しもおちあい","lat":35.715846,"lng":139.695391,"prefecture":13,"lines":[22007],"attr":"cool","postal_code":"161-0033","address":"新宿区下落合１-１６-１","next":[1130211,2200132,2200704,2800402,1130210,2200102,1131309],"voronoi":{"lat":35.708082,"lng":139.694539,"delta_lat":[0,5284,7443,798,-522,-3207,-9438],"delta_lng":[0,-3174,-654,8325,525,1370,-3594]},"impl":true},
    {"code":2200704,"left":2200705,"id":"1cd084","name":"中井","name_kana":"なかい","lat":35.715106,"lng":139.686967,"prefecture":13,"lines":[22007,99301],"attr":"cool","postal_code":"161-0032","address":"新宿区中落合１-１９-１","next":[2200102,9930133,1131308,2200703,2200705,2800402],"voronoi":{"lat":35.712495,"lng":139.680016,"delta_lat":[0,110,4474,4300,-570,-7443],"delta_lng":[0,-374,210,9976,883,654]},"impl":true},
    {"code":2200705,"id":"420b73","name":"新井薬師前","name_kana":"あらいやくしまえ","lat":35.715778,"lng":139.672582,"prefecture":13,"lines":[22007],"attr":"cool","postal_code":"164-0002","address":"中野区上高田５-４３-２０","next":[2200706,9930133,1131214,9930134,2200704,1131308],"voronoi":{"lat":35.706796,"lng":139.675109,"delta_lat":[0,6012,11272,404,-7404,-4474],"delta_lng":[0,-8922,4745,3512,5408,-210]},"impl":true},
    {"code":9930133,"id":"a48104","name":"落合南長崎","name_kana":"おちあいみなみながさき","lat":35.723608,"lng":139.683303,"prefecture":13,"lines":[99301],"attr":"heat","postal_code":"161-0031","address":"新宿区西落合３-１-１８","next":[2200704,2200705,2200102,9930134,2200103],"voronoi":{"lat":35.726809,"lng":139.676086,"delta_lat":[0,-2325,-7404,4300,5447],"delta_lng":[0,-1642,5408,9976,-1460]},"impl":true},
    {"code":9930134,"left":2200106,"right":2200104,"id":"b82694","name":"新江古田","name_kana":"しんえごた","lat":35.732538,"lng":139.670653,"prefecture":13,"lines":[99301],"attr":"heat","postal_code":"165-0023","address":"中野区江原町２-２９-１３","next":[2200705,2200706,2200104,2200105,2200103,2200302,9930133],"voronoi":{"lat":35.732673,"lng":139.677249,"delta_lat":[0,3728,-512,-6874,-4935,404,2325],"delta_lng":[0,-8659,-1791,-5344,9476,3512,1642]},"impl":true},
    {"code":2200106,"left":2200107,"right":2200105,"id":"a254f6","name":"練馬","name_kana":"ねりま","lat":35.737893,"lng":139.654368,"prefecture":13,"lines":[22001,22003,22004,99301],"attr":"heat","postal_code":"176-0001","address":"練馬区練馬１-３-５","next":[2200707,2200708,2200706,2200107,2200402,2200105,2800605],"voronoi":{"lat":35.747476,"lng":139.65606,"delta_lat":[0,-15077,-249,-3187,-626,554,17057],"delta_lng":[0,-9819,16,5212,6977,1077,-1872]},"impl":true},
    {"code":2200107,"left":2200108,"id":"61b48a","name":"中村橋","name_kana":"なかむらばし","lat":35.736767,"lng":139.637456,"prefecture":13,"lines":[22001],"attr":"heat","postal_code":"176-0023","address":"練馬区中村北４-２-１","next":[2200402,9930137,2200108,2200709,2200106,2200708],"voronoi":{"lat":35.730107,"lng":139.642257,"delta_lat":[0,-813,16011,-1511,-11395,-249],"delta_lng":[0,-7869,-1856,7984,5725,16]},"impl":true},
    {"code":2200108,"id":"78d6bb","name":"富士見台","name_kana":"ふじみだい","lat":35.735867,"lng":139.62969,"prefecture":13,"lines":[22001],"attr":"heat","postal_code":"176-0021","address":"練馬区貫井３-７-４","next":[2200709,2200107,9930137,2200710,2200109,9930138],"voronoi":{"lat":35.747068,"lng":139.626461,"delta_lat":[0,-14662,-4633,1521,16011,1918],"delta_lng":[0,-5388,11129,2185,-1856,-2835]},"impl":true},
    {"code":2200105,"id":"2cb4f9","name":"桜台(東京)","original_name":"桜台","name_kana":"さくらだい","lat":35.738797,"lng":139.662602,"prefecture":13,"lines":[22001],"attr":"heat","postal_code":"176-0002","address":"練馬区桜台１-５-１","next":[2200706,9930134,2800605,2200302,2200106],"voronoi":{"lat":35.729014,"lng":139.661455,"delta_lat":[0,6874,8332,1727,-17057],"delta_lng":[0,5344,-2885,-6264,1872]},"impl":true},
    {"code":2200104,"left":2800608,"right":2800607,"id":"148e07","name":"江古田","name_kana":"えこだ","lat":35.737557,"lng":139.672814,"prefecture":13,"lines":[22001],"attr":"heat","postal_code":"176-0005","address":"練馬区旭丘１-７８-７","next":[2200103,2200301,9930134,2200302],"voronoi":{"lat":35.736401,"lng":139.668591,"delta_lat":[0,-3728,3955,6310],"delta_lng":[0,8659,2840,-6846]},"impl":true},
    {"code":2800608,"left":2200103,"id":"2cdd1b","name":"要町","name_kana":"かなめちょう","lat":35.73323,"lng":139.698715,"prefecture":13,"lines":[28006,28010],"attr":"eco","postal_code":"171-0043","address":"東京都豊島区要町一丁目1-10","open_date":"1983-06-24","next":[2100104,2200132,2800607,2200102,1130212],"voronoi":{"lat":35.731643,"lng":139.704876,"delta_lat":[0,-3872,4865,9071,-2440],"delta_lng":[0,-5077,-7444,4801,9553]},"impl":true},
    {"code":2200103,"id":"1f5e9d","name":"東長崎","name_kana":"ひがしながさき","lat":35.73003,"lng":139.683294,"prefecture":13,"lines":[22001],"attr":"heat","postal_code":"171-0051","address":"豊島区長崎５-１-１","next":[2800607,2200104,2200301,2200102,9930134,9930133],"voronoi":{"lat":35.726809,"lng":139.676086,"delta_lat":[0,5864,3955,645,-5736,-4710],"delta_lng":[0,1164,2840,1882,7868,-1472]},"impl":true},
    {"code":2800607,"id":"d0a586","name":"千川","name_kana":"せんかわ","lat":35.738229,"lng":139.689271,"prefecture":13,"lines":[28006,28010],"attr":"eco","postal_code":"171-0043","address":"東京都豊島区要町三丁目10-7","open_date":"1983-06-24","next":[2100104,2200103,2100105,2800608,2200102,2200301],"voronoi":{"lat":35.746837,"lng":139.693239,"delta_lat":[0,-5131,-9071,-1099,5736,11185],"delta_lng":[0,3917,-4801,-2516,-7868,5827]},"impl":true},
    {"code":2800610,"left":9930526,"right":9930523,"id":"971b3f","name":"東池袋","name_kana":"ひがしいけぶくろ","lat":35.725732,"lng":139.719546,"prefecture":13,"lines":[28006],"attr":"eco","postal_code":"170-0013","address":"東京都豊島区東池袋四丁目4-4","open_date":"1974-10-30","next":[9930526,9930525,2100102,9930524,1130212],"voronoi":{"lat":35.728395,"lng":139.71553,"delta_lat":[0,-3662,3027,5808,-37],"delta_lng":[0,3498,2937,-3482,-207]},"impl":true},
    {"code":9930526,"left":9930527,"right":9930525,"id":"40df31","name":"都電雑司ヶ谷","name_kana":"とでんぞうしがや","lat":35.724261,"lng":139.718006,"prefecture":13,"lines":[99305],"attr":"heat","postal_code":"171-0022","address":"東京都豊島区南池袋","next":[2800610,2800611,1130212,9930527,9930525],"voronoi":{"lat":35.71861,"lng":139.721108,"delta_lat":[0,6646,3139,-3662,-5146],"delta_lng":[0,-8298,2720,3498,2614]},"impl":true},
    {"code":9930527,"left":2801010,"right":1130211,"id":"82099e","name":"鬼子母神前","name_kana":"きしぼじんまえ","lat":35.720403,"lng":139.714916,"prefecture":13,"lines":[99305],"attr":"heat","postal_code":"171-0032","address":"豊島区雑司が谷２","next":[9930530,1130211,1130212,9930526,2800611,2801010],"voronoi":{"lat":35.718061,"lng":139.721049,"delta_lat":[0,549,6646,-857,-1049,-6143],"delta_lng":[0,59,-8298,-2205,-9,8631]},"impl":true},
    {"code":2801010,"left":9930528,"id":"885b19","name":"雑司が谷","name_kana":"ぞうしがや","lat":35.720233,"lng":139.714795,"prefecture":13,"lines":[28010],"attr":"heat","postal_code":"171-0032","address":"豊島区雑司が谷二丁目","next":[9930528,1130211,9930530,9930527,9930529],"voronoi":{"lat":35.717206,"lng":139.719227,"delta_lat":[0,6143,-3283,-3555,-54],"delta_lng":[0,-8631,-93,6093,1111]},"impl":true},
    {"code":9930528,"id":"8f8793","name":"学習院下","name_kana":"がくしゅういんした","lat":35.716248,"lng":139.71247,"prefecture":13,"lines":[99305],"attr":"heat","postal_code":"171-0033","address":"豊島区高田２","next":[2801011,2801010,1130210,1130211,9930529],"voronoi":{"lat":35.720066,"lng":139.710503,"delta_lat":[0,-4328,-2585,-598,3956],"delta_lng":[0,-2931,1054,1422,6548]},"impl":true},
    {"code":1130211,"id":"9d7927","name":"目白","name_kana":"めじろ","lat":35.720476,"lng":139.706228,"prefecture":13,"lines":[11302],"attr":"eco","postal_code":"171-0031","address":"東京都豊島区目白三丁目3-1","open_date":"1885-03-16","next":[2200703,2200132,1130210,9930527,9930528,2801010,1130212],"voronoi":{"lat":35.724411,"lng":139.71058,"delta_lat":[0,-3325,-3207,-2140,4328,3283,1049],"delta_lng":[0,-11020,1370,6642,2931,93,9]},"impl":true},
    {"code":9930525,"left":2800203,"right":2800202,"id":"4b64f2","name":"東池袋四丁目","name_kana":"ひがしいけぶくろよんちょうめ","lat":35.72528,"lng":139.720012,"prefecture":13,"lines":[99305],"attr":"heat","postal_code":"170-0013","address":"豊島区東池袋５","next":[2800610,2800611,9930526,9930524],"voronoi":{"lat":35.719586,"lng":139.721642,"delta_lat":[0,5146,3027,-4087],"delta_lng":[0,-2614,2937,3062]},"impl":true},
    {"code":2800203,"left":2800611,"id":"607273","name":"茗荷谷","name_kana":"みょうがだに","lat":35.716989,"lng":139.737184,"prefecture":13,"lines":[28002],"attr":"eco","postal_code":"112-0006","address":"文京区小日向４-６-１５","next":[2800202,9930314,2800204,2800611,9930108,1131316,9930313,2800612],"voronoi":{"lat":35.715013,"lng":139.731722,"delta_lat":[0,5816,3927,-4642,-5247,-527,-3773,-632],"delta_lng":[0,1240,4736,6692,1551,-242,-2337,-1203]},"impl":true},
    {"code":2800611,"id":"2f67a0","name":"護国寺","name_kana":"ごこくじ","lat":35.719044,"lng":139.72754,"prefecture":13,"lines":[28006],"attr":"eco","postal_code":"112-0012","address":"東京都文京区大塚五丁目40-8","open_date":"1974-10-30","next":[2800612,2800203,9930526,9930525,2800202,9930527,9930524,9930530],"voronoi":{"lat":35.715013,"lng":139.731722,"delta_lat":[0,5816,2869,-25,-4086,-977,-549,-6395],"delta_lng":[0,1240,-7843,-91,-3385,-534,-59,5344]},"impl":true},
    {"code":2800202,"id":"8f64d8","name":"新大塚","name_kana":"しんおおつか","lat":35.72569,"lng":139.729971,"prefecture":13,"lines":[28002],"attr":"eco","postal_code":"112-0012","address":"文京区大塚４-５１-５","next":[2800203,9930523,9930314,1130213,2800611,1130214,9930524],"voronoi":{"lat":35.723697,"lng":139.725119,"delta_lat":[0,-2869,3927,1383,3053,-237,-706],"delta_lng":[0,7843,4736,-211,-2537,-4007,-2912]},"impl":true},
    {"code":9930523,"left":1130213,"right":1130214,"id":"e82aee","name":"大塚駅前","name_kana":"おおつかえきまえ","lat":35.732082,"lng":139.729593,"prefecture":13,"lines":[99305],"attr":"heat","postal_code":"170-0005","address":"豊島区南大塚３","next":[1130214,2800202,9930522,9930521,1130213],"voronoi":{"lat":35.733411,"lng":139.727983,"delta_lat":[0,2357,-33,-6544,-237],"delta_lng":[0,4400,1647,919,-4007]},"impl":true},
    {"code":1130213,"left":9930524,"right":9930522,"id":"839988","name":"大塚(東京)","original_name":"大塚","name_kana":"おおつか","lat":35.731412,"lng":139.728584,"prefecture":13,"lines":[11302],"attr":"heat","postal_code":"170-0005","address":"東京都豊島区南大塚三丁目33-1","open_date":"1903-04-01","next":[9930522,2800202,9930524,9930523],"voronoi":{"lat":35.728249,"lng":139.72803,"delta_lat":[0,4561,602,-4457],"delta_lng":[0,-3058,3011,2959]},"impl":true},
    {"code":9930524,"left":1130212,"id":"205055","name":"向原(東京)","original_name":"向原","name_kana":"むこうはら","lat":35.728938,"lng":139.724894,"prefecture":13,"lines":[99305],"attr":"heat","postal_code":"170-0005","address":"豊島区南大塚３","next":[9930522,2800610,2800611,9930525,2800202,1130213,2100102],"voronoi":{"lat":35.732809,"lng":139.724973,"delta_lat":[0,-4561,-4551,-25,4087,5808,1255],"delta_lng":[0,3058,-2912,-91,-3062,-3482,1902]},"impl":true},
    {"code":1130212,"id":"a4dfd2","name":"池袋","name_kana":"いけぶくろ","lat":35.730256,"lng":139.711086,"prefecture":13,"lines":[11302,11321,11328,11333,21001,22001,28002,28006,28010],"attr":"heat","postal_code":"171-0022","address":"東京都豊島区南池袋一丁目28-2","open_date":"1903-04-01","next":[2100104,9930526,9930527,1130211,2800608,2200132,2800610,2100102],"voronoi":{"lat":35.728395,"lng":139.71553,"delta_lat":[0,-3139,-857,12,7232,7624,98,-5834],"delta_lng":[0,-2720,-2205,-25,-5704,1833,208,11359]},"impl":true},
    {"code":9930522,"id":"471e26","name":"巣鴨新田","name_kana":"すがもしんでん","lat":35.735488,"lng":139.727769,"prefecture":13,"lines":[99305],"attr":"heat","postal_code":"170-0001","address":"豊島区西巣鴨１","next":[9930521,1130213,9930524,9930523,1132106,2100102,9930316],"voronoi":{"lat":35.735768,"lng":139.732384,"delta_lat":[0,-2357,-602,2013,5215,54,-41],"delta_lng":[0,-4400,-3011,-4587,2742,65,352]},"impl":true},
    {"code":1130214,"left":9930314,"right":9930521,"id":"e3310a","name":"巣鴨","name_kana":"すがも","lat":35.733445,"lng":139.739303,"prefecture":13,"lines":[11302,99303],"attr":"heat","postal_code":"170-0002","address":"東京都豊島区巣鴨一丁目16-1","open_date":"1903-04-01","next":[9930523,9930521,2800905,9930520,9930314,9930519,2800202,1130215],"voronoi":{"lat":35.739437,"lng":139.742016,"delta_lat":[0,886,-1047,-1021,-2520,-6544,-3053,6975],"delta_lng":[0,-3687,-1774,-912,-1613,919,2537,6973]},"impl":true},
    {"code":9930314,"id":"a29fc1","name":"千石","name_kana":"せんごく","lat":35.727957,"lng":139.744792,"prefecture":13,"lines":[99303],"attr":"eco","postal_code":"112-0011","address":"文京区千石１-２９-１３","next":[2800203,2800202,1130214,2800907,1130215,9930313],"voronoi":{"lat":35.730623,"lng":139.751231,"delta_lat":[0,2491,-6975,-1383,-4642,5138],"delta_lng":[0,-6772,-6973,211,6692,4582]},"impl":true},
    {"code":9930521,"id":"8d58ff","name":"庚申塚","name_kana":"こうしんづか","lat":35.739563,"lng":139.729743,"prefecture":13,"lines":[99305],"attr":"heat","postal_code":"170-0001","address":"豊島区西巣鴨３","next":[9930520,9930522,1130214,9930316,9930523],"voronoi":{"lat":35.735768,"lng":139.732384,"delta_lat":[0,4282,1193,-2988,-2520],"delta_lng":[0,-8839,4566,7533,-1613]},"impl":true},
    {"code":9930318,"left":9930319,"right":9930517,"id":"8988ea","name":"板橋区役所前","name_kana":"いたばしくやくしょまえ","lat":35.751284,"lng":139.710102,"prefecture":13,"lines":[99303],"attr":"heat","postal_code":"173-0004","address":"板橋区板橋２-６６-１７","next":[1132107,2100104,9930319,9930317,2100103],"voronoi":{"lat":35.744951,"lng":139.708224,"delta_lat":[0,9830,4236,-3592,-4496],"delta_lng":[0,-3776,9325,2675,-1124]},"impl":true},
    {"code":9930319,"left":2800605,"right":2100108,"id":"c575ad","name":"板橋本町","name_kana":"いたばしほんちょう","lat":35.761339,"lng":139.705535,"prefecture":13,"lines":[99303],"attr":"heat","postal_code":"173-0012","address":"板橋区大和町１７-１","next":[9930320,9930318,1131903,2100104,2100105,1132107],"voronoi":{"lat":35.759016,"lng":139.713773,"delta_lat":[0,-4236,635,7206,6646,-626],"delta_lng":[0,-9325,-2788,-3385,15406,679]},"impl":true},
    {"code":2800605,"left":2800604,"right":2100105,"id":"99d1ef","name":"氷川台","name_kana":"ひかわだい","lat":35.74955,"lng":139.665567,"prefecture":13,"lines":[28006,28010],"attr":"eco","postal_code":"179-0084","address":"東京都練馬区氷川台三丁目38-18","open_date":"1983-06-24","next":[2100107,2200402,2200301,2800604,2200105,2100108,2200106,2200302],"voronoi":{"lat":35.74422,"lng":139.663915,"delta_lat":[0,1727,1528,693,10893,655,-6283,-6662],"delta_lng":[0,-6264,-1591,-295,7671,3481,8139,-2944]},"impl":true},
    {"code":2800604,"left":2200402,"right":9930138,"id":"fd476e","name":"平和台(東京)","original_name":"平和台","name_kana":"へいわだい","lat":35.757863,"lng":139.653762,"prefecture":13,"lines":[28006,28010],"attr":"eco","postal_code":"179-0085","address":"東京都練馬区早宮2-17-48","open_date":"1983-06-24","next":[2200402,9930137,2100108,2800605,2800603,2100109],"voronoi":{"lat":35.765405,"lng":139.650756,"delta_lat":[0,-5164,-9554,-2518,10893,7943],"delta_lng":[0,-6402,4528,6883,7671,-10492]},"impl":true},
    {"code":2200402,"left":9930137,"id":"214d8c","name":"豊島園","name_kana":"としまえん","lat":35.742054,"lng":139.647979,"prefecture":13,"lines":[22004,99301],"attr":"cool","postal_code":"176-0001","address":"練馬区練馬４-１６-５","next":[2200107,9930137,2800604,2800605,2200106],"voronoi":{"lat":35.748168,"lng":139.655765,"delta_lat":[0,2518,-6893,-11395,15077],"delta_lng":[0,-6883,-8366,5725,9819]},"impl":true},
    {"code":9930137,"id":"d426d9","name":"練馬春日町","name_kana":"ねりまかすがちょう","lat":35.751452,"lng":139.640236,"prefecture":13,"lines":[99301],"attr":"heat","postal_code":"179-0074","address":"練馬区春日町３-２９-２５","next":[2200402,2800604,2200107,2200108,2800603,9930138],"voronoi":{"lat":35.747223,"lng":139.629697,"delta_lat":[0,-1918,-1511,6893,9554,1227],"delta_lng":[0,2835,7984,8366,-4528,-5995]},"impl":true},
    {"code":9930138,"id":"cc71eb","name":"光が丘","name_kana":"ひかりがおか","lat":35.758526,"lng":139.628603,"prefecture":13,"lines":[99301],"attr":"heat","postal_code":"179-0072","address":"練馬区光が丘２-９-５","next":[2800603,2200110,2100111,2200109,2800602,9930137,2200108],"voronoi":{"lat":35.747068,"lng":139.626461,"delta_lat":[0,7231,12040,3752,-3243,-5380,-14245],"delta_lng":[0,-10921,-8332,6958,20210,3982,-8662]},"impl":true},
    {"code":2100105,"left":2100104,"right":2100106,"id":"b641e4","name":"中板橋","name_kana":"なかいたばし","lat":35.756214,"lng":139.694628,"prefecture":13,"lines":[21001],"attr":"heat","postal_code":"173-0021","address":"板橋区弥生町３３-１","next":[9930320,2800607,9930319,2100106,2200301,2100104],"voronoi":{"lat":35.746837,"lng":139.693239,"delta_lat":[0,1620,76,16059,-1971,-7206],"delta_lng":[0,-5441,-58,7315,3220,3385]},"impl":true},
    {"code":2100104,"left":2200301,"id":"6b344e","name":"大山(東京)","original_name":"大山","name_kana":"おおやま","lat":35.748398,"lng":139.702589,"prefecture":13,"lines":[21001],"attr":"heat","postal_code":"173-0023","address":"板橋区大山町４-１","next":[2800608,2800607,1130212,9930318,9930319,2100103,2100105,2100102],"voronoi":{"lat":35.744951,"lng":139.708224,"delta_lat":[0,9830,635,-8578,-5131,-2440,98,284],"delta_lng":[0,-3776,-2788,-8421,3917,9553,208,143]},"impl":true},
    {"code":2200301,"id":"46f29b","name":"小竹向原","name_kana":"こたけむかいはら","lat":35.743803,"lng":139.678572,"prefecture":13,"lines":[22003,28006,28010],"attr":"eco","postal_code":"176-0004","address":"東京都練馬区小竹町二丁目16-15","open_date":"1983-06-24","next":[2100107,2200103,2200104,2200302,2800605,2100105,2100106,2800607],"voronoi":{"lat":35.737272,"lng":139.681971,"delta_lat":[0,-645,6310,3834,6662,535,-5435,-76],"delta_lng":[0,-1882,-6846,-1132,2944,4895,7790,58]},"impl":true},
    {"code":2100106,"id":"023509","name":"ときわ台(東京)","original_name":"ときわ台","name_kana":"ときわだい","lat":35.758771,"lng":139.689015,"prefecture":13,"lines":[21001],"attr":"cool","postal_code":"174-0071","address":"板橋区常盤台１-４３-１","next":[9930320,9930321,2100105,2100107,2200301,9930322],"voronoi":{"lat":35.766798,"lng":139.693397,"delta_lat":[0,-2205,-16059,5435,13738,662],"delta_lng":[0,1659,-7315,-7790,5259,4004]},"impl":true},
    {"code":2100108,"left":2800602,"right":9930321,"id":"b1b839","name":"東武練馬","name_kana":"とうぶねりま","lat":35.768698,"lng":139.661964,"prefecture":13,"lines":[21001],"attr":"cool","postal_code":"175-0083","address":"板橋区徳丸２-２-１４","next":[2100107,9930326,9930324,2800604,2100109,9930325,9930323,2800605],"voronoi":{"lat":35.774652,"lng":139.672191,"delta_lat":[0,1058,3335,-374,-660,-11006,-7943,655],"delta_lng":[0,-971,-5080,-10182,-1843,-1171,10492,3481]},"impl":true},
    {"code":2800602,"left":2100109,"right":2100110,"id":"ff93b4","name":"地下鉄成増","name_kana":"ちかてつなります","lat":35.776557,"lng":139.631497,"prefecture":13,"lines":[28006,28010],"attr":"eco","postal_code":"175-0094","address":"東京都板橋区成増二丁目11-3","open_date":"1983-06-24","next":[2800603,2100111,9930138,2100110],"voronoi":{"lat":35.785643,"lng":139.623916,"delta_lat":[0,-15552,-3243,5120],"delta_lng":[0,-9749,20210,2706]},"impl":true},
    {"code":2100109,"left":2800603,"id":"a190b9","name":"下赤塚","name_kana":"しもあかつか","lat":35.770558,"lng":139.644482,"prefecture":13,"lines":[21001],"attr":"eco","postal_code":"175-0093","address":"板橋区赤塚新町１-２３-１","next":[2100110,2800603,2100108,9930327,9930326,2800604],"voronoi":{"lat":35.765405,"lng":139.650756,"delta_lat":[0,8957,6987,-353,-2985,-11006],"delta_lng":[0,-12026,4252,5151,5982,-1171]},"impl":true},
    {"code":2800603,"id":"53aa8a","name":"地下鉄赤塚","name_kana":"ちかてつあかつか","lat":35.769939,"lng":139.644021,"prefecture":13,"lines":[28006,28010],"attr":"eco","postal_code":"179-0081","address":"東京都練馬区北町八丁目37-16","open_date":"1983-06-24","next":[2800602,9930138,2100109,9930137,2100110,2800604],"voronoi":{"lat":35.76024,"lng":139.644353,"delta_lat":[0,1227,5380,5120,2394,-8957],"delta_lng":[0,-5995,-3982,2706,1647,12026]},"impl":true},
    {"code":2100110,"id":"479ca7","name":"成増","name_kana":"なります","lat":35.777723,"lng":139.632708,"prefecture":13,"lines":[21001],"attr":"eco","postal_code":"175-0094","address":"板橋区成増２-１３-１","next":[2100109,2100111,2800603,2800602,9930327],"voronoi":{"lat":35.794707,"lng":139.628737,"delta_lat":[0,-9064,-13675,2394,6987],"delta_lng":[0,-4821,13167,1647,4252]},"impl":true},
    {"code":9930321,"left":9930320,"right":9930322,"id":"dd0ac1","name":"志村坂上","name_kana":"しむらさかうえ","lat":35.775725,"lng":139.69538,"prefecture":13,"lines":[99303],"attr":"heat","postal_code":"174-0056","address":"板橋区志村１-１４-１３","next":[1132110,9930320,1132109,2100106,9930322],"voronoi":{"lat":35.784456,"lng":139.697153,"delta_lat":[0,-6638,-11021,1571,14693],"delta_lng":[0,7263,-11020,-4183,2592]},"impl":true},
    {"code":9930320,"left":2100107,"id":"c209d7","name":"本蓮沼","name_kana":"もとはすぬま","lat":35.768782,"lng":139.702324,"prefecture":13,"lines":[99303],"attr":"heat","postal_code":"174-0052","address":"板橋区蓮沼町１９-８","next":[2100105,9930319,2100106,9930321,1132109,1131903],"voronoi":{"lat":35.776799,"lng":139.709939,"delta_lat":[0,1020,-11021,-2205,-1971,6646],"delta_lng":[0,-5523,-11020,1659,3220,15406]},"impl":true},
    {"code":2100107,"id":"c9494e","name":"上板橋","name_kana":"かみいたばし","lat":35.763596,"lng":139.67641,"prefecture":13,"lines":[21001],"attr":"cool","postal_code":"174-0076","address":"板橋区上板橋２-３６-７","next":[2100108,2200301,2800605,9930323,2100106,9930322],"voronoi":{"lat":35.753968,"lng":139.679951,"delta_lat":[0,-535,6283,14935,-450,-6495],"delta_lng":[0,-4895,-8139,5274,3613,9406]},"impl":true},
    {"code":9930322,"id":"2af1ec","name":"志村三丁目","name_kana":"しむらさんちょうめ","lat":35.777391,"lng":139.685937,"prefecture":13,"lines":[99303],"attr":"heat","postal_code":"174-0056","address":"板橋区志村３-２３-１","next":[1132110,2100107,2100106,9930323,9930321],"voronoi":{"lat":35.768368,"lng":139.689214,"delta_lat":[0,-662,6495,10868,-2008],"delta_lng":[0,-4004,-9406,10868,5134]},"impl":true},
    {"code":9930517,"left":9930316,"right":2800903,"id":"39d757","name":"飛鳥山","name_kana":"あすかやま","lat":35.750248,"lng":139.737382,"prefecture":13,"lines":[99305],"attr":"cool","postal_code":"114-0023","address":"北区滝野川１","next":[1133212,9930515,9930516,9930518,2800905],"voronoi":{"lat":35.747039,"lng":139.738917,"delta_lat":[0,5853,-1158,-1606,-1757],"delta_lng":[0,-8386,6476,2808,245]},"impl":true},
    {"code":9930316,"left":2100103,"right":2800905,"id":"41ab9e","name":"西巣鴨","name_kana":"にしすがも","lat":35.743508,"lng":139.728712,"prefecture":13,"lines":[99303],"attr":"heat","postal_code":"170-0001","address":"豊島区西巣鴨３-２５-１３","next":[9930520,9930317,9930521,9930518,9930519,1132106,9930522],"voronoi":{"lat":35.741244,"lng":139.72811,"delta_lat":[0,2227,6879,1856,-5926,-6188,-41],"delta_lng":[0,2765,-1679,-1077,-3632,-1295,352]},"impl":true},
    {"code":2100103,"left":1132106,"right":9930317,"id":"50e00f","name":"下板橋","name_kana":"しもいたばし","lat":35.745721,"lng":139.714785,"prefecture":13,"lines":[21001],"attr":"heat","postal_code":"170-0011","address":"豊島区池袋本町４-４３-１１","next":[1132106,2100104,9930317,2100102,9930318],"voronoi":{"lat":35.744951,"lng":139.708224,"delta_lat":[0,-5302,4423,3489,3368],"delta_lng":[0,-1164,9994,212,-1942]},"impl":true},
    {"code":1132106,"left":2100102,"id":"11fa58","name":"板橋","name_kana":"いたばし","lat":35.745435,"lng":139.719507,"prefecture":13,"lines":[11321],"attr":"cool","postal_code":"173-0004","address":"板橋区板橋１丁目","next":[9930317,9930522,2100103,9930316,2100102],"voronoi":{"lat":35.744072,"lng":139.717055,"delta_lat":[0,3489,-1281,-6188,-54],"delta_lng":[0,212,7221,-1295,-65]},"impl":true},
    {"code":2100102,"id":"2723d2","name":"北池袋","name_kana":"きたいけぶくろ","lat":35.741283,"lng":139.716749,"prefecture":13,"lines":[21001],"attr":"heat","postal_code":"170-0011","address":"豊島区池袋本町１-３６-６","next":[2800610,9930522,1132106,2100104,2100103,9930524,1130212],"voronoi":{"lat":35.733568,"lng":139.718484,"delta_lat":[0,1255,5215,4034,-4423,-284,-5834],"delta_lng":[0,1902,2742,-6073,-9994,-143,11359]},"impl":true},
    {"code":9930317,"id":"6b039d","name":"新板橋","name_kana":"しんいたばし","lat":35.748785,"lng":139.720101,"prefecture":13,"lines":[99303],"attr":"heat","postal_code":"173-0004","address":"板橋区板橋１-５３-１７","next":[9930316,1132106,9930518,9930318,2100103,1132107],"voronoi":{"lat":35.755425,"lng":139.716449,"delta_lat":[0,-4496,-3368,-1281,5926,1045],"delta_lng":[0,-1124,1942,7221,3632,97]},"impl":true},
    {"code":2800905,"left":9930519,"right":9930518,"id":"f48beb","name":"西ケ原","name_kana":"にしがはら","lat":35.746008,"lng":139.742322,"prefecture":13,"lines":[28009],"attr":"cool","postal_code":"114-0024","address":"東京都北区西ヶ原二丁目3-8","next":[9930518,1133213,9930519,1130215,1130214,9930515,9930517],"voronoi":{"lat":35.748504,"lng":139.743359,"delta_lat":[0,-6689,-2378,886,2066,4650,1332],"delta_lng":[0,2469,-3811,-3687,-327,915,1143]},"impl":true},
    {"code":9930519,"left":9930520,"id":"2ec451","name":"西ヶ原四丁目","name_kana":"にしがはらよんちょうめ","lat":35.744501,"lng":139.732779,"prefecture":13,"lines":[99305],"attr":"cool","postal_code":"114-0024","address":"東京都北区西ヶ原四丁目","next":[9930520,2800905,1130214,9930518,9930316],"voronoi":{"lat":35.739277,"lng":139.736556,"delta_lat":[0,1047,2066,7960,-6879],"delta_lng":[0,1774,-327,-8806,1679]},"impl":true},
    {"code":9930520,"id":"063881","name":"新庚申塚","name_kana":"しんこうしんづか","lat":35.741348,"lng":139.730451,"prefecture":13,"lines":[99305],"attr":"heat","postal_code":"170-0001","address":"豊島区西巣鴨４","next":[9930521,9930519,9930316,1130214],"voronoi":{"lat":35.74347,"lng":139.730876,"delta_lat":[0,-2227,-2988,1021],"delta_lng":[0,-2765,7533,912]},"impl":true},
    {"code":9930518,"id":"707210","name":"滝野川一丁目","name_kana":"たきのがわいっちょうめ","lat":35.747374,"lng":139.735376,"prefecture":13,"lines":[99305],"attr":"cool","postal_code":"114-0023","address":"北区滝野川１","next":[2800905,9930516,9930316,9930317,9930519,9930517,1132107],"voronoi":{"lat":35.75325,"lng":139.728216,"delta_lat":[0,-1045,-1856,-7960,4650,5853,824],"delta_lng":[0,-97,1077,8806,915,-8386,-1856]},"impl":true},
    {"code":2800903,"left":2800902,"right":1133212,"id":"89ed88","name":"王子神谷","name_kana":"おうじかみや","lat":35.765172,"lng":139.735933,"prefecture":13,"lines":[28009],"attr":"cool","postal_code":"114-0002","address":"北区王子５-２-１１","next":[9930514,2800902,9930515,1133211,9934208,9930516,9930513,9934207],"voronoi":{"lat":35.770038,"lng":139.753006,"delta_lat":[0,6008,-5475,-12217,1872,110,5238,2852],"delta_lng":[0,-1547,-20981,1843,11745,252,6398,2438]},"impl":true},
    {"code":2800902,"left":1133211,"right":1131903,"id":"e28f9a","name":"志茂","name_kana":"しも","lat":35.777948,"lng":139.732599,"prefecture":13,"lines":[28009],"attr":"cool","postal_code":"115-0042","address":"北区志茂２-１-１８","next":[9934208,2800903,9930702,9934209,1131903,1133211,2800901,9934210],"voronoi":{"lat":35.791109,"lng":139.749081,"delta_lat":[0,-1992,-9541,-7481,-1523,5475,1189,7769],"delta_lng":[0,-17335,-4971,-50,3753,20981,124,-737]},"impl":true},
    {"code":1133211,"left":1132107,"id":"47aa12","name":"東十条","name_kana":"ひがしじゅうじょう","lat":35.763803,"lng":139.726858,"prefecture":13,"lines":[11332],"attr":"cool","postal_code":"114-0001","address":"北区東十条３丁目","next":[1132107,2800903,2800902,9930516,1131903],"voronoi":{"lat":35.769007,"lng":139.719317,"delta_lat":[0,-13527,2875,12217,1523],"delta_lng":[0,10184,2819,-1843,-3753]},"impl":true},
    {"code":1132107,"id":"16774c","name":"十条(東京)","original_name":"十条","name_kana":"じゅうじょう","lat":35.760321,"lng":139.722233,"prefecture":13,"lines":[11321],"attr":"cool","postal_code":"114-0034","address":"北区上十条１丁目","next":[9930318,1133211,9930516,1131903,9930518,9930319,9930317],"voronoi":{"lat":35.753717,"lng":139.728676,"delta_lat":[0,1763,13527,-365,-9625,-3592,-2174],"delta_lng":[0,826,-10184,-4957,-587,2675,11768]},"impl":true},
    {"code":1131903,"id":"2fef76","name":"赤羽","name_kana":"あかばね","lat":35.778026,"lng":139.720928,"prefecture":13,"lines":[11319,11321,11323,11332,11333],"attr":"heat","postal_code":"115-0045","address":"北区赤羽１丁目","next":[2800902,9930319,1132107,2800901,1132109,1133211,9930320],"voronoi":{"lat":35.768641,"lng":139.71436,"delta_lat":[0,365,3088,7481,2935,-5712,-7531],"delta_lng":[0,4957,7407,50,-13469,-3366,3742]},"impl":true},
    {"code":1133212,"left":9930515,"right":9930516,"id":"b8c715","name":"王子","name_kana":"おうじ","lat":35.752165,"lng":139.738478,"prefecture":13,"lines":[11332,28009],"attr":"cool","postal_code":"114-0002","address":"北区王子１丁目","next":[9930516,9930517,9930515],"voronoi":{"lat":35.750128,"lng":139.739816,"delta_lat":[0,1606,3249],"delta_lng":[0,-2808,4481]},"impl":true},
    {"code":9930515,"id":"d831ed","name":"栄町(東京)","original_name":"栄町","name_kana":"さかえちょう","lat":35.750909,"lng":139.742124,"prefecture":13,"lines":[99305],"attr":"cool","postal_code":"114-0005","address":"北区栄町","next":[2800903,9930514,9930517,9930516,2800905,1133212,1133213],"voronoi":{"lat":35.748504,"lng":139.743359,"delta_lat":[0,-133,1757,4855,5243,110,-10370],"delta_lng":[0,-3298,-245,1673,2577,252,497]},"impl":true},
    {"code":9930516,"id":"30265b","name":"王子駅前","name_kana":"おうじえきまえ","lat":35.752998,"lng":139.737874,"prefecture":13,"lines":[99305],"attr":"cool","postal_code":"114-0002","address":"北区王子１","next":[1133212,1132107,9930518,1133211,9930515,9930517,2800903],"voronoi":{"lat":35.758354,"lng":139.732321,"delta_lat":[0,-2875,-1763,-824,-1158,3249,5243],"delta_lng":[0,-2819,-826,1856,6476,4481,2577]},"impl":true},
    {"code":9934203,"left":9930502,"right":2100211,"id":"b387b5","name":"赤土小学校前","name_kana":"あかどしょうがっこうまえ","lat":35.742454,"lng":139.768989,"prefecture":13,"lines":[99342],"attr":"heat","postal_code":"116-0012","address":"荒川区東尾久４-７-７","next":[9930509,9930510,1130217,2300103,9930508,1130216],"voronoi":{"lat":35.744067,"lng":139.762731,"delta_lat":[0,1857,-141,-4446,-4240,353],"delta_lng":[0,3534,4410,2426,-4650,-1735]},"impl":true},
    {"code":9930502,"left":1130218,"right":9930501,"id":"fdc789","name":"荒川一中前","name_kana":"あらかわいっちゅうまえ","lat":35.733659,"lng":139.788988,"prefecture":13,"lines":[99305],"attr":"eco","postal_code":"116-0003","address":"荒川区南千住１-１","next":[9930504,9930503,2800303,9930501,2300144,2300105],"voronoi":{"lat":35.730867,"lng":139.788985,"delta_lat":[0,-2678,10712,347,-824,-500],"delta_lng":[0,-4328,5377,402,2105,552]},"impl":true},
    {"code":1130218,"left":2800507,"right":1132003,"id":"84218b","name":"日暮里","name_kana":"にっぽり","lat":35.727908,"lng":139.771287,"prefecture":13,"lines":[11302,11320,11332,23001,23006,99342],"attr":"heat","postal_code":"116-0013","address":"東京都荒川区西日暮里二丁目19-1","open_date":"1905-04-01","next":[2300145,2800507,1130217,2300103,1130219,1132003,2800506],"voronoi":{"lat":35.722445,"lng":139.768862,"delta_lat":[0,1109,3855,5157,205,-5115,-4994],"delta_lng":[0,4699,3681,-4831,-745,-4672,1464]},"impl":true},
    {"code":2800507,"left":2800907,"right":2800304,"id":"375690","name":"根津","name_kana":"ねづ","lat":35.7174,"lng":139.765655,"prefecture":13,"lines":[28005],"attr":"eco","postal_code":"113-0031","address":"文京区根津１丁目","next":[9934602,2800205,2300145,1130218,9934601,2800506,2800908],"voronoi":{"lat":35.712621,"lng":139.761691,"delta_lat":[0,-1346,4441,4624,2105,217,-1930],"delta_lng":[0,2516,3377,1613,-335,-404,-6519]},"impl":true},
    {"code":2800907,"left":2800908,"right":2800506,"id":"076841","name":"本駒込","name_kana":"ほんこまごめ","lat":35.724155,"lng":139.753828,"prefecture":13,"lines":[28009],"attr":"cool","postal_code":"113-0023","address":"文京区向丘２-３７-１","next":[9930314,9930313,2800908,2800506,1130216,1130215],"voronoi":{"lat":35.730908,"lng":139.757639,"delta_lat":[0,-8137,-1840,4320,5371,1718],"delta_lng":[0,1205,-2858,-7014,2260,3770]},"impl":true},
    {"code":2800908,"left":9930313,"id":"668f91","name":"東大前","name_kana":"とうだいまえ","lat":35.717633,"lng":139.758025,"prefecture":13,"lines":[28009],"attr":"cool","postal_code":"113-0023","address":"文京区向丘１-１９-２","next":[2800205,2800907,9930108,2800506,9930313,2800507],"voronoi":{"lat":35.722771,"lng":139.758844,"delta_lat":[0,-1840,-5447,-3449,585,8111],"delta_lng":[0,-2858,-3492,5802,3395,248]},"impl":true},
    {"code":9930313,"id":"f7de7a","name":"白山(東京)","original_name":"白山","name_kana":"はくさん","lat":35.721408,"lng":139.752136,"prefecture":13,"lines":[99303],"attr":"eco","postal_code":"112-0001","address":"文京区白山５-３６-１０","next":[9930108,2800907,2800203,2800908,9930314],"voronoi":{"lat":35.720113,"lng":139.74439,"delta_lat":[0,-5247,618,5447,4320],"delta_lng":[0,1551,6553,3492,-7014]},"impl":true},
    {"code":2800506,"id":"1c40d3","name":"千駄木","name_kana":"せんだぎ","lat":35.725549,"lng":139.763243,"prefecture":13,"lines":[28005],"attr":"eco","postal_code":"113-0022","address":"文京区千駄木２丁目","next":[1130217,2800907,1130216,2800908,2800507,1130218],"voronoi":{"lat":35.720731,"lng":139.761938,"delta_lat":[0,2040,8137,457,-3710,-4994],"delta_lng":[0,-3095,-1205,2779,6576,1464]},"impl":true},
    {"code":2800304,"left":2300145,"right":1130219,"id":"a6c4cd","name":"入谷(東京)","original_name":"入谷","name_kana":"いりや","lat":35.719862,"lng":139.783924,"prefecture":13,"lines":[28003],"attr":"eco","postal_code":"110-0013","address":"台東区入谷１-６-４","next":[1130219,9930503,9930903,100402,2800103,2800303],"voronoi":{"lat":35.715011,"lng":139.786851,"delta_lat":[0,856,1452,10459,-186,-5889],"delta_lng":[0,-5520,-1282,2871,1107,7603]},"impl":true},
    {"code":2300145,"left":9934601,"id":"fb774c","name":"博物館動物園","name_kana":"はくぶつかんどうぶつえん","closed":true,"lat":35.718642,"lng":139.773474,"prefecture":13,"lines":[23001],"attr":"unknown","postal_code":"110-0007","address":"東京都台東区上野公園１３−２３","next":[1130218,1130219,9934601,2800507,100402],"voronoi":{"lat":35.71504,"lng":139.773659,"delta_lat":[0,5300,2105,1109,-5880],"delta_lng":[0,-4463,-335,4699,3679]},"impl":true},
    {"code":9934601,"id":"52db63","name":"東園(東京)","original_name":"東園","name_kana":"ひがしえん","lat":35.715835,"lng":139.770141,"prefecture":13,"lines":[99346],"attr":"heat","postal_code":"110-0007","address":"東京都台東区上野公園９","next":[100402,2300101,2300145,9934602,2800507],"voronoi":{"lat":35.715716,"lng":139.767583,"delta_lat":[0,-1444,560,208,5300],"delta_lng":[0,5263,751,62,-4463]},"impl":true},
    {"code":1130219,"id":"7011f0","name":"鶯谷","name_kana":"うぐいすだに","lat":35.721484,"lng":139.778015,"prefecture":13,"lines":[11302,11332],"attr":"heat","postal_code":"110-0003","address":"東京都台東区根岸一丁目4-1","open_date":"1912-07-11","next":[2800304,2300145,9930503,100402,1132003,1130218],"voronoi":{"lat":35.723553,"lng":139.77356,"delta_lat":[0,-5880,-355,10459,48,-417],"delta_lng":[0,3679,2809,2871,-76,-5602]},"impl":true},
    {"code":1132003,"left":2300103,"right":9930505,"id":"8c4a3a","name":"三河島","name_kana":"みかわしま","lat":35.733383,"lng":139.777131,"prefecture":13,"lines":[11320],"attr":"heat","postal_code":"116-0013","address":"荒川区西日暮里１丁目","next":[9930503,2300103,1130219,9930504,2300104,1130218],"voronoi":{"lat":35.732565,"lng":139.77241,"delta_lat":[0,5573,-495,-2730,-7088,-417],"delta_lng":[0,6350,1017,1890,1176,-5602]},"impl":true},
    {"code":2300103,"left":1130217,"right":1130216,"id":"062c62","name":"新三河島","name_kana":"しんみかわしま","lat":35.73714,"lng":139.773834,"prefecture":13,"lines":[23001],"attr":"heat","postal_code":"116-0013","address":"荒川区西日暮里６-２-１","next":[2300104,1132003,9934203,1130218,1130217,9930507,9930508],"voronoi":{"lat":35.739364,"lng":139.777927,"delta_lat":[0,-1226,-5573,205,4326,4240,-8],"delta_lng":[0,834,-6350,-745,-3215,4650,112]},"impl":true},
    {"code":1130217,"left":1130215,"id":"202b50","name":"西日暮里","name_kana":"にしにっぽり","lat":35.731954,"lng":139.766857,"prefecture":13,"lines":[11302,11332,28005,99342],"attr":"heat","postal_code":"116-0013","address":"東京都荒川区西日暮里五丁目22-1","open_date":"1971-04-20","next":[2800506,1130216,9934203,1130218,2300103],"voronoi":{"lat":35.737097,"lng":139.76845,"delta_lat":[0,353,-6084,-3710,5115],"delta_lng":[0,-1735,-6298,6576,4672]},"impl":true},
    {"code":1130215,"id":"fca8bb","name":"駒込","name_kana":"こまごめ","lat":35.736825,"lng":139.748053,"prefecture":13,"lines":[11302,28009],"attr":"heat","postal_code":"170-0003","address":"東京都豊島区駒込二丁目1-1","open_date":"1910-11-15","next":[1130216,1131902,2800905,1133213,9930314,1130214,2800907],"voronoi":{"lat":35.730623,"lng":139.751231,"delta_lat":[0,2491,6324,2378,816,-2837,-7454],"delta_lng":[0,-6772,-2443,3811,3734,4899,541]},"impl":true},
    {"code":1130216,"id":"fc4da0","name":"田端","name_kana":"たばた","lat":35.737781,"lng":139.761229,"prefecture":13,"lines":[11302,11332],"attr":"heat","postal_code":"114-0013","address":"東京都北区東田端一丁目17-1","open_date":"1896-04-01","next":[9930510,1130215,1130217,1131902,9930511,2800506,2800907,9934203],"voronoi":{"lat":35.731366,"lng":139.760417,"delta_lat":[0,-457,1432,7454,4454,-111,-71,-6617],"delta_lng":[0,-2779,-2637,-541,5458,2579,233,3985]},"impl":true},
    {"code":9930505,"left":9930503,"right":2300104,"id":"9c6712","name":"荒川七丁目","name_kana":"あらかわななちょうめ","lat":35.741975,"lng":139.78417,"prefecture":13,"lines":[99305],"attr":"eco","postal_code":"116-0002","address":"荒川区荒川７","next":[2300104,9930506,9930504,2300144],"voronoi":{"lat":35.74,"lng":139.782527,"delta_lat":[0,4157,10199,-13305],"delta_lng":[0,590,2613,3491]},"impl":true},
    {"code":9930503,"left":9930504,"id":"e261df","name":"荒川区役所前","name_kana":"あらかわくやくしょまえ","lat":35.73493,"lng":139.786456,"prefecture":13,"lines":[99305],"attr":"eco","postal_code":"116-0002","address":"荒川区荒川１","next":[2800304,1130219,9930502,9930504,1132003,2800303],"voronoi":{"lat":35.738901,"lng":139.790035,"delta_lat":[0,-3988,-7088,-48,-186,598],"delta_lng":[0,-8367,1176,76,1107,631]},"impl":true},
    {"code":9930504,"id":"2916d8","name":"荒川二丁目","name_kana":"あらかわにちょうめ","lat":35.738623,"lng":139.784696,"prefecture":13,"lines":[99305],"attr":"eco","postal_code":"116-0002","address":"荒川区荒川２","next":[9930502,2300144,9930503,1132003,2300104,9930505],"voronoi":{"lat":35.74,"lng":139.782527,"delta_lat":[0,-2356,-2730,3988,347,1802],"delta_lng":[0,-2750,1890,8367,402,-1215]},"impl":true},
    {"code":2300104,"id":"a537fe","name":"町屋","name_kana":"まちや","lat":35.742354,"lng":139.781499,"prefecture":13,"lines":[23001,28005],"attr":"heat","postal_code":"116-0001","address":"荒川区町屋１丁目","next":[2300103,9930505,9930504,1132003,9930506,9930507],"voronoi":{"lat":35.739364,"lng":139.777927,"delta_lat":[0,-1226,-495,2356,4157,-4583],"delta_lng":[0,834,1017,2750,590,-5127]},"impl":true},
    {"code":9930501,"left":2300203,"right":1131326,"id":"93acd4","name":"三ノ輪橋","name_kana":"みのわばし","lat":35.732248,"lng":139.791412,"prefecture":13,"lines":[99305],"attr":"eco","postal_code":"116-0003","address":"荒川区南千住１","next":[1132004,9930502,2800303,2300105],"voronoi":{"lat":35.731058,"lng":139.795871,"delta_lat":[0,-191,7057,-767],"delta_lng":[0,-6886,4108,1415]},"impl":true},
    {"code":2300203,"left":2100205,"right":2300114,"id":"7279d1","name":"八広","name_kana":"やひろ","lat":35.727687,"lng":139.828738,"prefecture":13,"lines":[23002],"attr":"heat","postal_code":"131-0041","address":"墨田区八広６-２５-２０","next":[2100503,2100205,1131324,2300204,2100206,2100502,2300202],"voronoi":{"lat":35.718413,"lng":139.837105,"delta_lat":[0,100,832,16094,-6781,-6584,-3109],"delta_lng":[0,654,1317,-11133,-4867,2347,3295]},"impl":true},
    {"code":2100205,"left":2300202,"right":2800303,"id":"d98fe7","name":"東向島","name_kana":"ひがしむこうじま","lat":35.724324,"lng":139.819306,"prefecture":13,"lines":[21002],"attr":"heat","postal_code":"131-0032","address":"墨田区東向島４丁目","next":[2300203,2100206,1132004,2300202,2100204],"voronoi":{"lat":35.725976,"lng":139.807791,"delta_lat":[0,4148,-1466,-6584,-855],"delta_lng":[0,2023,13262,2347,-7119]},"impl":true},
    {"code":2300202,"left":2100204,"id":"0411d3","name":"京成曳舟","name_kana":"けいせいひきふね","lat":35.718441,"lng":139.820012,"prefecture":13,"lines":[23002],"attr":"heat","postal_code":"131-0046","address":"墨田区京島１-３９-１","next":[2300201,2100204,2100205,2100502,2300203],"voronoi":{"lat":35.722074,"lng":139.825424,"delta_lat":[0,-855,-8374,-1755,7875],"delta_lng":[0,-7119,57,1919,8438]},"impl":true},
    {"code":2100204,"id":"e1efbf","name":"曳舟","name_kana":"ひきふね","lat":35.718418,"lng":139.816634,"prefecture":13,"lines":[21002,21005],"attr":"heat","postal_code":"131-0032","address":"墨田区東向島２丁目","next":[2100201,2300202,2300201,2100205,1132004,2100202],"voronoi":{"lat":35.712845,"lng":139.818361,"delta_lat":[0,8374,4757,-3338,-1043,-5070],"delta_lng":[0,-57,-10513,-3024,370,5546]},"impl":true},
    {"code":2800303,"id":"b0682e","name":"三ノ輪","name_kana":"みのわ","lat":35.729623,"lng":139.791485,"prefecture":13,"lines":[28003],"attr":"eco","postal_code":"110-0011","address":"台東区三ノ輪２-１４-７","next":[9930503,9930502,9930903,9930501,2100201,2800304,1132004],"voronoi":{"lat":35.722088,"lng":139.798369,"delta_lat":[0,-385,5889,598,2678,191,-8188],"delta_lng":[0,-6739,-7603,631,4328,6886,4562]},"impl":true},
    {"code":2300114,"left":1131327,"right":2300204,"id":"a8aaf1","name":"市川真間","name_kana":"いちかわまま","lat":35.73121,"lng":139.911717,"prefecture":12,"lines":[23001],"attr":"heat","postal_code":"272-0826","address":"市川市真間１-１１-１","next":[2300113,1131327,2300115,9934004],"voronoi":{"lat":35.724452,"lng":139.913546,"delta_lat":[0,9362,13061,-526],"delta_lng":[0,-6041,7825,6576]},"impl":true},
    {"code":1131327,"left":1131325,"id":"0d325f","name":"市川","name_kana":"いちかわ","lat":35.728903,"lng":139.908142,"prefecture":12,"lines":[11313,11314],"attr":"cool","postal_code":"272-0034","address":"市川市市川１丁目","next":[2300113,2300112,2300115,1131326,9930420,2300114],"voronoi":{"lat":35.71607,"lng":139.913077,"delta_lat":[0,3872,1470,5916,6486,-9362],"delta_lng":[0,-19941,240,4379,9750,6041]},"impl":true},
    {"code":1131325,"id":"00567c","name":"新小岩","name_kana":"しんこいわ","lat":35.716903,"lng":139.857777,"prefecture":13,"lines":[11313,11314],"attr":"heat","postal_code":"124-0024","address":"葛飾区新小岩１丁目","next":[1131326,2300205,9930416,9930417,9930418,1131324,2300109,2300204],"voronoi":{"lat":35.731681,"lng":139.862649,"delta_lat":[0,130,-22231,-7182,-2290,1296,19315,4019],"delta_lng":[0,2524,15116,-8807,-11698,-2913,-12970,2648]},"impl":true},
    {"code":2300204,"id":"005b38","name":"四ツ木","name_kana":"よつぎ","lat":35.731962,"lng":139.834918,"prefecture":13,"lines":[23002],"attr":"heat","postal_code":"124-0011","address":"葛飾区四つ木１-１-１","next":[2300108,2300203,2300107,1131324,1131325,2300205,2100206],"voronoi":{"lat":35.740955,"lng":139.833678,"delta_lat":[0,-1995,-14223,-4019,-1373,16094,2989],"delta_lng":[0,6282,6589,-2648,-4824,-11133,359]},"impl":true},
    {"code":1131326,"left":2300205,"right":2300112,"id":"48fc17","name":"小岩","name_kana":"こいわ","lat":35.733207,"lng":139.881755,"prefecture":13,"lines":[11313],"attr":"heat","postal_code":"133-0056","address":"江戸川区南小岩７丁目","next":[1131325,2300109,9930420,1131327,9930418,2300111,2300112,2300110],"voronoi":{"lat":35.736251,"lng":139.867383,"delta_lat":[0,-4440,-22231,0,10363,1470,14965,3670],"delta_lng":[0,-2211,15116,7,12840,240,-4670,-16800]},"impl":true},
    {"code":2300205,"left":2100206,"right":2300105,"id":"8c3f27","name":"京成立石","name_kana":"けいせいたていし","lat":35.738281,"lng":139.848558,"prefecture":13,"lines":[23002],"attr":"cool","postal_code":"124-0012","address":"葛飾区立石４-２４-１","next":[1131325,2300108,2300109,2300204],"voronoi":{"lat":35.731681,"lng":139.862649,"delta_lat":[0,14839,-7559,-14223],"delta_lng":[0,-14585,-8104,6589]},"impl":true},
    {"code":2100206,"left":1132004,"id":"72ef72","name":"鐘ヶ淵","name_kana":"かねがふち","lat":35.733712,"lng":139.820344,"prefecture":13,"lines":[21002],"attr":"heat","postal_code":"131-0031","address":"東京都墨田区墨田5丁目","next":[1132004,2300107,2300106,2100205,2300203,2100207,2300204],"voronoi":{"lat":35.73544,"lng":139.827944,"delta_lat":[0,-6781,1466,3594,3094,3254,-1638],"delta_lng":[0,-4867,-13262,55,3741,11522,3170]},"impl":true},
    {"code":1132004,"id":"a02091","name":"南千住","name_kana":"みなみせんじゅ","lat":35.734033,"lng":139.7994,"prefecture":13,"lines":[11320,28003,99309],"attr":"heat","postal_code":"116-0003","address":"荒川区南千住４丁目","next":[2100206,9930501,2100256,2300105,2100205,2300106,2100201,2100204,2800303],"voronoi":{"lat":35.722639,"lng":139.804767,"delta_lat":[0,3338,4148,3594,4313,1611,-2485,-6099,-8188],"delta_lng":[0,3024,2023,55,-3461,-3437,-8463,1363,4562]},"impl":true},
    {"code":2300105,"id":"59da0a","name":"千住大橋","name_kana":"せんじゅおおはし","lat":35.74243,"lng":139.796934,"prefecture":13,"lines":[23001],"attr":"eco","postal_code":"120-0038","address":"足立区千住橋戸町１１-１","next":[2100256,1132004,1132005,2300144,9930502,9930501],"voronoi":{"lat":35.737924,"lng":139.793094,"delta_lat":[0,500,10800,-1583,-7999,-2485],"delta_lng":[0,-552,5466,1446,3518,-8463]},"impl":true},
    {"code":2300112,"left":2300113,"right":2300111,"id":"0e0bda","name":"江戸川","name_kana":"えどがわ","lat":35.737723,"lng":139.896226,"prefecture":13,"lines":[23001],"attr":"cool","postal_code":"133-0051","address":"江戸川区北小岩３-２４-１５","next":[2300111,1131327,2300113,9934003,1131326],"voronoi":{"lat":35.736378,"lng":139.888706,"delta_lat":[0,12121,-1554,-19616,-5916],"delta_lng":[0,4295,8742,-3988,-4379]},"impl":true},
    {"code":2300113,"id":"b540aa","name":"国府台","name_kana":"こうのだい","lat":35.736301,"lng":139.90322,"prefecture":12,"lines":[23001],"attr":"heat","postal_code":"272-0034","address":"市川市市川３-３０-１","next":[1131327,9934004,2300114,9934003,2300112],"voronoi":{"lat":35.727328,"lng":139.897754,"delta_lat":[0,6486,13061,1647,-1578],"delta_lng":[0,9750,7825,-3972,-9615]},"impl":true},
    {"code":2300111,"id":"31292c","name":"京成小岩","name_kana":"けいせいこいわ","lat":35.742158,"lng":139.88371,"prefecture":13,"lines":[23001],"attr":"cool","postal_code":"133-0051","address":"江戸川区北小岩２-１０-９","next":[2300112,9934003,1131326,9934002,2300110],"voronoi":{"lat":35.740047,"lng":139.871906,"delta_lat":[0,-3670,12121,2516,-8526],"delta_lng":[0,16800,4295,-2408,-17414]},"impl":true},
    {"code":2100211,"left":9930511,"right":9934003,"id":"02d03f","name":"五反野","name_kana":"ごたんの","lat":35.765852,"lng":139.809643,"prefecture":13,"lines":[21002],"attr":"cool","postal_code":"120-0015","address":"足立区足立３丁目","next":[1132005,9930906,2100210,2100212],"voronoi":{"lat":35.760262,"lng":139.798792,"delta_lat":[0,-1461,6407,13859],"delta_lng":[0,4954,13260,-7655]},"impl":true},
    {"code":9930511,"left":9930507,"right":9934205,"id":"d2ef04","name":"小台","name_kana":"おだい","lat":35.750579,"lng":139.761779,"prefecture":13,"lines":[99305],"attr":"cool","postal_code":"116-0011","address":"荒川区西尾久５","next":[9930510,1130216,1131902,9930512,9934206,9934205],"voronoi":{"lat":35.75964,"lng":139.76275,"delta_lat":[0,1720,-16316,-796,-111,12385],"delta_lng":[0,-2537,-671,376,2579,1731]},"impl":true},
    {"code":9930507,"left":9930509,"right":2100256,"id":"ce9716","name":"町屋二丁目","name_kana":"まちやにちょうめ","lat":35.743837,"lng":139.776625,"prefecture":13,"lines":[99305],"attr":"eco","postal_code":"116-0002","address":"荒川区荒川６","next":[9930508,9930506,2300103,2300104],"voronoi":{"lat":35.739364,"lng":139.777927,"delta_lat":[0,1964,11386,-13141],"delta_lng":[0,-4714,7938,-3160]},"impl":true},
    {"code":9930509,"left":9930508,"right":9930510,"id":"860ecb","name":"熊野前","name_kana":"くまのまえ","lat":35.749212,"lng":139.769204,"prefecture":13,"lines":[99305,99342],"attr":"cool","postal_code":"116-0012","address":"荒川区東尾久５","next":[9934203,9930510,9934205,9930508],"voronoi":{"lat":35.752394,"lng":139.76767,"delta_lat":[0,-6470,-141,5144],"delta_lng":[0,-1406,4410,3786]},"impl":true},
    {"code":9930508,"left":1131902,"id":"8ce596","name":"東尾久三丁目","name_kana":"ひがしおくさんちょうめ","lat":35.745398,"lng":139.774386,"prefecture":13,"lines":[99305],"attr":"eco","postal_code":"116-0012","address":"荒川区東尾久３","next":[9930507,9934203,2300103,9934205,9930509,9930506],"voronoi":{"lat":35.750926,"lng":139.77446,"delta_lat":[0,-5144,-4446,-8,11386,1331],"delta_lng":[0,-3786,2426,112,7938,522]},"impl":true},
    {"code":1131902,"id":"1b1028","name":"尾久","name_kana":"おく","lat":35.74683,"lng":139.753846,"prefecture":13,"lines":[11319,11323],"attr":"heat","postal_code":"114-0011","address":"北区昭和町１丁目","next":[1130215,1133213,1130216,9930514,9930512,9930511,9930513],"voronoi":{"lat":35.747852,"lng":139.749856,"delta_lat":[0,-6,-5215,-2837,4454,796,4402],"delta_lng":[0,-4,-290,4899,5458,-376,-4395]},"impl":true},
    {"code":9930510,"id":"ee4c70","name":"宮ノ前","name_kana":"みやのまえ","lat":35.750135,"lng":139.764955,"prefecture":13,"lines":[99305],"attr":"cool","postal_code":"116-0012","address":"荒川区東尾久５","next":[1130216,9930511,9934203,9930509,9934205],"voronoi":{"lat":35.756522,"lng":139.764229,"delta_lat":[0,-12385,-71,1857,6470],"delta_lng":[0,-1731,233,3534,1406]},"impl":true},
    {"code":2100256,"left":2300144,"right":1132005,"id":"985bf0","name":"中千住","name_kana":"なかせんじゅ","closed":true,"lat":35.745976,"lng":139.804997,"prefecture":13,"lines":[21002],"attr":"unknown","postal_code":"120-0025","address":"東京都足立区千住東１丁目２３","next":[2100208,2300105,1132004,1132005,2300106],"voronoi":{"lat":35.747963,"lng":139.808969,"delta_lat":[0,-321,-7999,-1611,6157],"delta_lng":[0,-9515,3518,3437,1774]},"impl":true},
    {"code":2300144,"left":9930506,"id":"024cd8","name":"西千住","name_kana":"にしせんじゅ","closed":true,"lat":35.744336,"lng":139.793168,"prefecture":13,"lines":[23001],"attr":"unknown","postal_code":"120-0044","address":"東京都足立区１２ 千住緑町２丁目１５−３","next":[9930506,9930504,9934205,2300105,9930502,2100212,1132005,9934206,9930505],"voronoi":{"lat":35.739249,"lng":139.790436,"delta_lat":[0,-824,10800,9476,1131,-1261,-1215,-3000,-13305],"delta_lng":[0,2105,5466,-4324,-6696,-1103,-550,396,3491]},"impl":true},
    {"code":9930506,"id":"a599bb","name":"町屋駅前","name_kana":"まちやえきまえ","lat":35.74275,"lng":139.781145,"prefecture":13,"lines":[99305],"attr":"eco","postal_code":"116-0002","address":"荒川区荒川７","next":[2300144,9934205,9930507,9930505,2300104,9930508],"voronoi":{"lat":35.757356,"lng":139.785334,"delta_lat":[0,-3000,-10199,-4583,13141,1331],"delta_lng":[0,396,-2613,-5127,3160,522]},"impl":true},
    {"code":1132005,"id":"6a369b","name":"北千住","name_kana":"きたせんじゅ","lat":35.749677,"lng":139.804872,"prefecture":13,"lines":[11320,21002,28003,28005,99309],"attr":"cool","postal_code":"120-0026","address":"足立区千住旭町","next":[2100211,2100212,2300105,2100256,2100208,2100210,2300144],"voronoi":{"lat":35.758701,"lng":139.793684,"delta_lat":[0,1561,-1461,-6961,-3877,-321,1583],"delta_lng":[0,5108,4954,8082,-2859,-9515,-1446]},"impl":true},
    {"code":9934205,"left":9930514,"right":2100212,"id":"de1461","name":"足立小台","name_kana":"あだちおだい","lat":35.754658,"lng":139.770381,"prefecture":13,"lines":[99342],"attr":"cool","postal_code":"120-0046","address":"足立区小台１-２０-１","next":[9934206,2300144,9930506,9930509,9930508,9930510,9930511],"voronoi":{"lat":35.75964,"lng":139.76275,"delta_lat":[0,-1070,-1215,-3310,-3119,1467,4129],"delta_lng":[0,23134,-550,-3662,-7212,-6790,-3442]},"impl":true},
    {"code":9930514,"left":9930512,"right":9934208,"id":"767822","name":"梶原","name_kana":"かじわら","lat":35.751162,"lng":139.747403,"prefecture":13,"lines":[99305],"attr":"cool","postal_code":"114-0004","address":"北区堀船３","next":[2800903,9930513,1133213,9930515,1131902],"voronoi":{"lat":35.747846,"lng":139.749852,"delta_lat":[0,2120,10370,5238,-17722],"delta_lng":[0,-5037,-497,6398,-860]},"impl":true},
    {"code":9930512,"left":9930513,"id":"91a9d9","name":"荒川遊園地前","name_kana":"あらかわゆうえんちまえ","lat":35.750744,"lng":139.757767,"prefecture":13,"lines":[99305],"attr":"cool","postal_code":"116-0011","address":"荒川区西尾久５","next":[9934207,9934206,1131902,9930513,9930511],"voronoi":{"lat":35.745045,"lng":139.759542,"delta_lat":[0,4402,16373,-122,-4337],"delta_lng":[0,-4395,525,166,4375]},"impl":true},
    {"code":9930513,"id":"3769c9","name":"荒川車庫前","name_kana":"あらかわしゃこまえ","lat":35.750909,"lng":139.752617,"prefecture":13,"lines":[99305],"attr":"cool","postal_code":"116-0011","address":"荒川区西尾久７","next":[9930514,9934207,9930512,2800903,1131902],"voronoi":{"lat":35.747852,"lng":139.749856,"delta_lat":[0,17722,2852,-2607,-16373],"delta_lng":[0,860,2438,2519,-525]},"impl":true},
    {"code":9934208,"id":"5328fc","name":"江北","name_kana":"こうほく","lat":35.774021,"lng":139.770306,"prefecture":13,"lines":[99342],"attr":"eco","postal_code":"123-0872","address":"足立区江北４-３０-２７","next":[2800902,2800903,9934207,9934209,2100602],"voronoi":{"lat":35.770038,"lng":139.753006,"delta_lat":[0,6008,1189,674,-6219],"delta_lng":[0,-1547,124,23779,2724]},"impl":true},
    {"code":2100212,"left":9934206,"right":2100213,"id":"02a6aa","name":"梅島","name_kana":"うめじま","lat":35.772437,"lng":139.797916,"prefecture":13,"lines":[21002],"attr":"cool","postal_code":"123-0851","address":"足立区梅田７丁目","next":[1132005,9930906,9934206,2100214,2100211,9930907,2100213,2300144],"voronoi":{"lat":35.760262,"lng":139.798792,"delta_lat":[0,18805,584,7376,-1437,-23067,-2691,-1131],"delta_lng":[0,10559,17,-3865,-4422,-14940,847,6696]},"impl":true},
    {"code":9934206,"left":9934207,"id":"01129c","name":"扇大橋","name_kana":"おおぎおおはし","lat":35.763897,"lng":139.770808,"prefecture":13,"lines":[99342],"attr":"cool","postal_code":"123-0873","address":"足立区扇２-２５-７","next":[2100602,9934205,9930512,2100212,9934207,2100213,9930511,2300144],"voronoi":{"lat":35.758571,"lng":139.785885,"delta_lat":[0,1070,1720,4337,789,-412,-3552,-2691],"delta_lng":[0,-23134,-2537,-4375,27291,573,2438,847]},"impl":true},
    {"code":9934207,"id":"caac8b","name":"高野(東京)","original_name":"高野","name_kana":"こうや","lat":35.768359,"lng":139.770679,"prefecture":13,"lines":[99342],"attr":"cool","postal_code":"123-0873","address":"足立区扇２-４５-１","next":[9930512,9930513,2100602,9934208,9934206,2800903],"voronoi":{"lat":35.765819,"lng":139.755672,"delta_lat":[0,-122,789,5204,-1652,-1612],"delta_lng":[0,166,27291,-5044,-25080,148]},"impl":true},
    {"code":2100213,"id":"e4b840","name":"西新井","name_kana":"にしあらい","lat":35.777323,"lng":139.790372,"prefecture":13,"lines":[21002,21006],"attr":"eco","postal_code":"123-0843","address":"足立区西新井栄町２丁目","next":[2100602,2100214,9934206,2100212],"voronoi":{"lat":35.762522,"lng":139.78614,"delta_lat":[0,3552,19846,-331],"delta_lng":[0,-2438,3790,13588]},"impl":true},
    {"code":9934003,"left":2300108,"right":1132007,"id":"efbbef","name":"矢切","name_kana":"やぎり","lat":35.757503,"lng":139.899742,"prefecture":12,"lines":[99340],"attr":"eco","postal_code":"271-0096","address":"松戸市下矢切字入山津１２０","next":[2300302,2300113,2300111,2300112,1132008,9934002,9934004,1132009],"voronoi":{"lat":35.771445,"lng":139.888374,"delta_lat":[0,-3488,-6438,-10504,-2516,-1554,1578,22359],"delta_lng":[0,-1440,309,3349,2408,8742,9615,-8342]},"impl":true},
    {"code":2300108,"left":2100208,"right":9934002,"id":"2aeb93","name":"お花茶屋","name_kana":"おはなぢゃや","lat":35.747585,"lng":139.83988,"prefecture":13,"lines":[23001],"attr":"cool","postal_code":"124-0005","address":"葛飾区宝町２-３７-１","next":[2300107,2300204,2300109,1132006,1132007,2300205],"voronoi":{"lat":35.73896,"lng":139.83996,"delta_lat":[0,1995,15276,3481,-4773,-8420],"delta_lng":[0,-6282,80,3428,11751,-873]},"impl":true},
    {"code":2100208,"left":2100207,"right":2300107,"id":"1290e7","name":"牛田(東京)","original_name":"牛田","name_kana":"うしだ","lat":35.744555,"lng":139.811816,"prefecture":13,"lines":[21002],"attr":"heat","postal_code":"120-0023","address":"足立区千住曙町","next":[2100256,2300106,2100210,1132005,2100207],"voronoi":{"lat":35.744361,"lng":139.81493,"delta_lat":[0,-173,3774,3877,-386],"delta_lng":[0,-6748,786,2859,4996]},"impl":true},
    {"code":2100207,"left":2300106,"id":"65f971","name":"堀切","name_kana":"ほりきり","lat":35.742977,"lng":139.817727,"prefecture":13,"lines":[21002],"attr":"heat","postal_code":"120-0023","address":"足立区千住曙町","next":[2300106,2100206,2100208,2300107,2100210],"voronoi":{"lat":35.740067,"lng":139.825133,"delta_lat":[0,-3254,7549,7092,755],"delta_lng":[0,-11522,1320,1893,2531]},"impl":true},
    {"code":2300106,"id":"2fa681","name":"京成関屋","name_kana":"けいせいせきや","lat":35.744008,"lng":139.81183,"prefecture":13,"lines":[23001],"attr":"eco","postal_code":"120-0023","address":"足立区千住曙町２-２","next":[2100207,2100208,2100206,1132004,2100256],"voronoi":{"lat":35.738031,"lng":139.806409,"delta_lat":[0,-4313,3094,7549,-173],"delta_lng":[0,3461,3741,1320,-6748]},"impl":true},
    {"code":2300107,"id":"45ef17","name":"堀切菖蒲園","name_kana":"ほりきりしょうぶえん","lat":35.747649,"lng":139.827545,"prefecture":13,"lines":[23001],"attr":"eco","postal_code":"124-0006","address":"葛飾区堀切５-１-１","next":[2100206,2300108,2100210,1132006,2300204,2100207],"voronoi":{"lat":35.738429,"lng":139.828302,"delta_lat":[0,2527,15276,-2258,-1765,-12142],"delta_lng":[0,5375,80,-13027,-1376,5778]},"impl":true},
    {"code":9934002,"left":2300110,"right":2300302,"id":"a66967","name":"新柴又","name_kana":"しんしばまた","lat":35.75101,"lng":139.879376,"prefecture":13,"lines":[99340],"attr":"heat","postal_code":"125-0052","address":"葛飾区柴又５-７-１","next":[2300110,2300302,9934003,2300111],"voronoi":{"lat":35.761519,"lng":139.887244,"delta_lat":[0,-11126,-7904,8526],"delta_lng":[0,-14114,49,17414]},"impl":true},
    {"code":2300110,"left":2300109,"id":"74a83b","name":"京成高砂","name_kana":"けいせいたかさご","lat":35.750932,"lng":139.866875,"prefecture":13,"lines":[23001,23002,23003,23006,99340],"attr":"cool","postal_code":"125-0054","address":"東京都葛飾区高砂五丁目28-1","next":[2300109,1132007,9934002,2300302,2300303,1131326,2300111],"voronoi":{"lat":35.750393,"lng":139.873129,"delta_lat":[0,9663,1477,-3243,-22039,3797,2441],"delta_lng":[0,-6267,-7374,-2620,10515,4522,1273]},"impl":true},
    {"code":2300109,"id":"5f4d37","name":"青砥","name_kana":"あおと","lat":35.745883,"lng":139.856292,"prefecture":13,"lines":[23001,23002,23006],"attr":"cool","postal_code":"125-0062","address":"東京都葛飾区青戸三丁目36番1号","open_date":"1928-11-01","next":[2300110,2300108,1131326,1132007,2300205,1131325],"voronoi":{"lat":35.731681,"lng":139.862649,"delta_lat":[0,14839,8420,3350,-22039,-4440],"delta_lng":[0,-14585,873,7932,10515,-2211]},"impl":true},
    {"code":2300302,"id":"ff44f0","name":"柴又","name_kana":"しばまた","lat":35.756323,"lng":139.875188,"prefecture":13,"lines":[23003],"attr":"cool","postal_code":"125-0052","address":"葛飾区柴又４-８-１４","next":[2300303,9934003,1132008,9934002,2300110],"voronoi":{"lat":35.760056,"lng":139.866863,"delta_lat":[0,7626,275,-6438,-11126],"delta_lng":[0,19297,775,309,-14114]},"impl":true},
    {"code":1132007,"left":9930906,"right":2300303,"id":"389b50","name":"亀有","name_kana":"かめあり","lat":35.766527,"lng":139.847573,"prefecture":13,"lines":[11320],"attr":"eco","postal_code":"125-0061","address":"葛飾区亀有３","next":[1132006,2800501,2300303,2300109,2300110,2300108,9930908,1132008],"voronoi":{"lat":35.78784,"lng":139.856389,"delta_lat":[0,-365,-21303,-6459,-4773,3350,3243,8492],"delta_lng":[0,-5918,-14519,1233,11751,7932,2620,-724]},"impl":true},
    {"code":9930906,"left":1132006,"right":2800501,"id":"c96901","name":"青井","name_kana":"あおい","lat":35.771782,"lng":139.82038,"prefecture":13,"lines":[99309],"attr":"heat","postal_code":"120-0012","address":"足立区青井三丁目","next":[9930907,2100212,2800501,1132006,2100211,2100210],"voronoi":{"lat":35.765207,"lng":139.817005,"delta_lat":[0,13859,584,-1658,-8244,-5070],"delta_lng":[0,-7655,17,15218,3774,-10449]},"impl":true},
    {"code":1132006,"left":2100210,"id":"059265","name":"綾瀬","name_kana":"あやせ","lat":35.762222,"lng":139.825019,"prefecture":13,"lines":[11320,28005],"attr":"eco","postal_code":"120-0005","address":"足立区綾瀬３丁目","next":[1132007,9930906,2300107,2300108,2100210,2800501],"voronoi":{"lat":35.759712,"lng":139.837186,"delta_lat":[0,-3481,-2258,10705,5070,-3577],"delta_lng":[0,-3428,-13027,-2820,10449,7593]},"impl":true},
    {"code":2100210,"id":"bb15c2","name":"小菅","name_kana":"こすげ","lat":35.759039,"lng":139.812935,"prefecture":13,"lines":[21002],"attr":"cool","postal_code":"120-0015","address":"足立区足立２丁目","next":[2300107,2100208,1132006,9930906,1132005,2100211,2100207],"voronoi":{"lat":35.753973,"lng":139.820731,"delta_lat":[0,10705,529,-6407,-6961,-386,755],"delta_lng":[0,-2820,-905,-13260,8082,4996,2531]},"impl":true},
    {"code":2800501,"id":"5c5b3c","name":"北綾瀬","name_kana":"きたあやせ","lat":35.777117,"lng":139.832035,"prefecture":13,"lines":[28005],"attr":"eco","postal_code":"120-0006","address":"足立区谷中２丁目","next":[1132007,9930908,9930906,9930907,1132006],"voronoi":{"lat":35.787474,"lng":139.850472,"delta_lat":[0,5926,-15408,-8244,-3577],"delta_lng":[0,-14056,-11830,3774,7593]},"impl":true},
    {"code":2300303,"left":9934004,"right":1132008,"id":"53a7c3","name":"京成金町","name_kana":"けいせいかなまち","lat":35.768471,"lng":139.870387,"prefecture":13,"lines":[23003],"attr":"cool","postal_code":"125-0042","address":"葛飾区金町５-３７-９","next":[2300302,1132007,2300110,1132008],"voronoi":{"lat":35.770024,"lng":139.858765,"delta_lat":[0,-8492,-1477,7626],"delta_lng":[0,724,7374,19297]},"impl":true},
    {"code":9934004,"id":"d86d6f","name":"北国分","name_kana":"きたこくぶん","lat":35.762916,"lng":139.914252,"prefecture":12,"lines":[99340],"attr":"eco","postal_code":"272-0837","address":"市川市堀之内３-２１-１","next":[9934005,2300113,9932923,2300115,1132009,2300114,9934003],"voronoi":{"lat":35.770882,"lng":139.903016,"delta_lat":[0,5555,-594,-29033,-460,526,1647],"delta_lng":[0,8888,8886,4201,-3085,-6576,-3972]},"impl":true},
    {"code":1132008,"id":"d4669f","name":"金町","name_kana":"かなまち","lat":35.769582,"lng":139.870482,"prefecture":13,"lines":[11320],"attr":"eco","postal_code":"125-0042","address":"葛飾区金町６丁目","next":[2300302,1132009,9934003,9930909,2300303,9930908,1132007],"voronoi":{"lat":35.767682,"lng":139.88616,"delta_lat":[0,275,3488,25391,703,-9699,-17815],"delta_lng":[0,775,1440,-12479,-4910,-14596,2375]},"impl":true}
  ]
}