{
  "name":"segment39",
  "root":1130329,
  "east":139.617796,
  "west":139.201816,
  "south":35.653997,
  "north":35.873993,
  "station_size":155,
  "node_list":[
    {"code":1130329,"left":1131607,"right":2200711,"id":"1cdb04","name":"西府","name_kana":"にしふ","lat":35.670912,"lng":139.457477,"prefecture":13,"lines":[11303],"attr":"heat","postal_code":"183-0032","address":"東京都府中市本宿町一丁目40-6","next":[1130322,1130502,2400127,1130321,2400126,2400128],"voronoi":{"lat":35.666798,"lng":139.443004,"delta_lat":[0,16750,-7462,-10805,-198,184],"delta_lng":[0,16301,5196,-2309,-18044,-352]},"impl":true},
    {"code":1131607,"left":1131108,"right":2200123,"id":"ad2035","name":"武蔵五日市","name_kana":"むさしいつかいち","lat":35.732248,"lng":139.228039,"prefecture":13,"lines":[11316],"attr":"eco","postal_code":"190-0163","address":"あきる野市舘谷","next":[1131113,1131114,1131115,2400307,1131608,1131520,1131524,1131606],"voronoi":{"lat":35.737194,"lng":139.160136,"delta_lat":[0,-15992,-5882,-9200,-17339,-18279,7973,62690],"delta_lng":[0,-24356,-4131,9302,26663,53125,19044,2849]},"impl":true},
    {"code":1131108,"left":1131504,"right":9933411,"id":"d16878","name":"日野(東京)","original_name":"日野","name_kana":"ひの","lat":35.679244,"lng":139.39393,"prefecture":13,"lines":[11311,11312],"attr":"cool","postal_code":"191-0061","address":"日野市大坂上１丁目","next":[1131703,1131109,2400129,1131502,9933410,9933409,2400130,1131503],"voronoi":{"lat":35.691432,"lng":139.396819,"delta_lat":[0,-7564,-15973,-1505,629,7715,16006,506],"delta_lng":[0,5071,-1028,-1335,-8078,-12249,4123,1459]},"impl":true},
    {"code":1131504,"left":1131703,"right":1131602,"id":"5791be","name":"中神","name_kana":"なかがみ","lat":35.709058,"lng":139.375816,"prefecture":13,"lines":[11315],"attr":"heat","postal_code":"196-0025","address":"昭島市朝日町１丁目","next":[1131505,1131503,2200806,1131703,2200807],"voronoi":{"lat":35.719215,"lng":139.383769,"delta_lat":[0,-23170,3561,17153,3885],"delta_lng":[0,-7236,-11293,5112,11700]},"impl":true},
    {"code":1131703,"left":2400134,"right":1131502,"id":"9dc932","name":"小宮","name_kana":"こみや","lat":35.685799,"lng":139.368481,"prefecture":13,"lines":[11317],"attr":"heat","postal_code":"192-0031","address":"八王子市小宮町","next":[1131108,1131109,1131504,1131702,1131503,1131505,1131506,2400134],"voronoi":{"lat":35.673914,"lng":139.37754,"delta_lat":[0,821,16006,5305,3561,-5802,-4505,-3806],"delta_lng":[0,1659,4123,-6789,-11293,-23073,-6390,4386]},"impl":true},
    {"code":2400134,"left":1130620,"right":1131702,"id":"c62914","name":"京王八王子","name_kana":"けいおうはちおうじ","lat":35.657416,"lng":139.343851,"prefecture":13,"lines":[24001],"attr":"heat","postal_code":"192-0046","address":"八王子市明神町３-２７-１","next":[1131702,2400133,1130620,1131506,2400302,1131703],"voronoi":{"lat":35.657495,"lng":139.357132,"delta_lat":[0,-9373,717,40420,41,-3806],"delta_lng":[0,-11399,-1377,-15499,6920,4386]},"impl":true},
    {"code":1130620,"left":1131111,"id":"1f0587","name":"八王子","name_kana":"はちおうじ","lat":35.655555,"lng":139.338998,"prefecture":13,"lines":[11306,11311,11312,11317,11328],"attr":"eco","postal_code":"192-0083","address":"東京都八王子市旭町1-1","next":[1131506,1131111,2400302,2400134,2400303],"voronoi":{"lat":35.656727,"lng":139.325845,"delta_lat":[0,32646,-115,-40420,2674],"delta_lng":[0,1321,1692,15499,-15268]},"impl":true},
    {"code":1131111,"id":"99acba","name":"西八王子","name_kana":"にしはちおうじ","lat":35.656621,"lng":139.31264,"prefecture":13,"lines":[11311,11312],"attr":"eco","postal_code":"193-0835","address":"八王子市千人町２丁目","next":[2400304,2400303,9934801,1130620,1131506,1131604,1131603],"voronoi":{"lat":35.691038,"lng":139.296176,"delta_lat":[0,-1329,-38947,-1910,7876,32646,2040],"delta_lng":[0,-3660,16007,5931,11391,1321,-4279]},"impl":true},
    {"code":1131702,"id":"f7a7f0","name":"北八王子","name_kana":"きたはちおうじ","lat":35.669232,"lng":139.363348,"prefecture":13,"lines":[11317],"attr":"heat","postal_code":"192-0032","address":"八王子市石川町","next":[2400134,1131703,2400132,1131109,2400133],"voronoi":{"lat":35.656343,"lng":139.368119,"delta_lat":[0,17571,11580,-27999,-1733],"delta_lng":[0,9421,-37377,16969,4842]},"impl":true},
    {"code":1131502,"left":2400130,"right":1131503,"id":"30f74f","name":"西立川","name_kana":"にしたちかわ","lat":35.703526,"lng":139.393556,"prefecture":13,"lines":[11315],"attr":"heat","postal_code":"190-0013","address":"立川市富士見町１丁目","next":[1131503,9933410,2200806,1131108,9933411,9933412,9933413],"voronoi":{"lat":35.697771,"lng":139.402255,"delta_lat":[0,-515,-5824,-186,24935,370,-11128],"delta_lng":[0,-202,-5234,-12037,7764,7582,3749]},"impl":true},
    {"code":2400130,"left":1131109,"id":"8524fe","name":"南平","name_kana":"みなみだいら","lat":35.654559,"lng":139.392008,"prefecture":13,"lines":[24001],"attr":"heat","postal_code":"191-0041","address":"日野市南平６-９-３１","next":[9933406,2400502,2400129,2400131,1131109,1131108],"voronoi":{"lat":35.66204,"lng":139.401147,"delta_lat":[0,-3253,-19566,13684,14114,-629],"delta_lng":[0,93,-8286,-8141,6636,8078]},"impl":true},
    {"code":1131109,"id":"75ef7e","name":"豊田","name_kana":"とよだ","lat":35.659502,"lng":139.381495,"prefecture":13,"lines":[11311,11312],"attr":"cool","postal_code":"191-0053","address":"日野市豊田４丁目","next":[1131108,1131703,2400132,2400131,2400130,1131702],"voronoi":{"lat":35.674735,"lng":139.3792,"delta_lat":[0,-7715,-14114,1955,1482,17571],"delta_lng":[0,12249,-6636,-15109,-1584,9421]},"impl":true},
    {"code":1131503,"id":"d8dca5","name":"東中神","name_kana":"ひがしなかがみ","lat":35.706337,"lng":139.384529,"prefecture":13,"lines":[11315],"attr":"heat","postal_code":"196-0034","address":"昭島市玉川町１丁目","next":[1131504,1131502,2200806,1131703,1131108],"voronoi":{"lat":35.690741,"lng":139.383323,"delta_lat":[0,5305,23170,-3034,-24935],"delta_lng":[0,-6789,7236,8776,-7764]},"impl":true},
    {"code":1131602,"left":1131605,"right":2200807,"id":"7500a3","name":"熊川","name_kana":"くまがわ","lat":35.728321,"lng":139.33584,"prefecture":13,"lines":[11316],"attr":"heat","postal_code":"197-0003","address":"福生市熊川北","next":[1131705,1131506,1131603,1131507],"voronoi":{"lat":35.73698,"lng":139.350901,"delta_lat":[0,-27495,18108,9388],"delta_lng":[0,-25386,-1810,27021]},"impl":true},
    {"code":1131605,"left":1131603,"right":1131606,"id":"4bd7ca","name":"武蔵引田","name_kana":"むさしひきだ","lat":35.729711,"lng":139.269907,"prefecture":13,"lines":[11316],"attr":"cool","postal_code":"190-0100","address":"あきる野市下引田","next":[1131511,1131606,9934802,1131604,1131512],"voronoi":{"lat":35.756162,"lng":139.281094,"delta_lat":[0,-67675,-3830,75352,-15],"delta_lng":[0,-6898,-15279,6950,299]},"impl":true},
    {"code":1131603,"left":1131604,"id":"1a380e","name":"東秋留","name_kana":"ひがしあきる","lat":35.725904,"lng":139.311665,"prefecture":13,"lines":[11316],"attr":"heat","postal_code":"197-0823","address":"あきる野市野辺","next":[1131602,1131508,1131507,1131509,1131506,1131111,1131604],"voronoi":{"lat":35.742357,"lng":139.311307,"delta_lat":[0,-10386,-4377,-18108,-18072,-376,52823],"delta_lng":[0,10679,1719,1810,-2628,-26711,4434]},"impl":true},
    {"code":1131604,"id":"a32ffa","name":"秋川","name_kana":"あきがわ","lat":35.727998,"lng":139.286715,"prefecture":13,"lines":[11316],"attr":"cool","postal_code":"197-0827","address":"あきる野市油平","next":[1131511,1131510,9934802,1131605,9934801,1131509,1131111,1131603],"voronoi":{"lat":35.691038,"lng":139.296176,"delta_lat":[0,-1329,-608,-614,67675,23,-3105,-9219],"delta_lng":[0,-3660,-3128,-15191,6898,492,9616,9407]},"impl":true},
    {"code":1131606,"id":"1e3cf9","name":"武蔵増戸","name_kana":"むさしますこ","lat":35.730961,"lng":139.256355,"prefecture":13,"lines":[11316],"attr":"eco","postal_code":"190-0142","address":"あきる野市伊奈","next":[1131605,1131513,2400307,1131112,1131608,1131512,9934802,1131607],"voronoi":{"lat":35.678475,"lng":139.239782,"delta_lat":[0,527,1618,4037,75352,531,275,-19650],"delta_lng":[0,3847,5546,9742,6950,-1893,-9408,-11935]},"impl":true},
    {"code":2200807,"left":1131505,"right":2200806,"id":"bf42c0","name":"西武立川","name_kana":"せいぶたちかわ","lat":35.7262,"lng":139.370124,"prefecture":13,"lines":[22008],"attr":"heat","postal_code":"190-0034","address":"立川市西砂町１-２１-２","next":[1131706,2200806,1131505,1131705,1131506,1131504],"voronoi":{"lat":35.71676,"lng":139.370352,"delta_lat":[0,9281,11942,12054,8507,-37899],"delta_lng":[0,-13982,-2204,6915,16402,4569]},"impl":true},
    {"code":1131505,"left":1131506,"id":"c5e42d","name":"昭島","name_kana":"あきしま","lat":35.713305,"lng":139.361564,"prefecture":13,"lines":[11315],"attr":"heat","postal_code":"196-0015","address":"昭島市昭和町２丁目","next":[1131504,2200807,1131506,1131703],"voronoi":{"lat":35.71676,"lng":139.370352,"delta_lat":[0,9281,-32236,5802],"delta_lng":[0,-13982,-14203,23073]},"impl":true},
    {"code":1131506,"id":"d4c39b","name":"拝島","name_kana":"はいじま","lat":35.721278,"lng":139.343468,"prefecture":13,"lines":[11315,11316,11317,22008],"attr":"heat","postal_code":"196-0003","address":"昭島市松原町４丁目","next":[1131602,1130620,1131505,1131705,2200807,1131111,2400134,1131603,1131703],"voronoi":{"lat":35.6893,"lng":139.335778,"delta_lat":[0,-41,115,2040,18072,27495,1002,-11942,-32236],"delta_lng":[0,-6920,-1692,-4279,2628,25386,3266,2204,-14203]},"impl":true},
    {"code":2200806,"id":"703738","name":"武蔵砂川","name_kana":"むさしすながわ","lat":35.728876,"lng":139.392319,"prefecture":13,"lines":[22008],"attr":"eco","postal_code":"190-0032","address":"立川市上砂町５-４４-４","next":[9933413,9933416,2200807,1131504,1131503,1131502,9933418,1131706,2200503,9933419,2200805],"voronoi":{"lat":35.73233,"lng":139.405155,"delta_lat":[0,8312,22689,1381,-6168,-37899,-1429,-3034,370,4451,7039],"delta_lng":[0,-3458,-16362,-2123,-5729,4569,1717,8776,7582,3982,1518]},"impl":true},
    {"code":9933411,"left":9933408,"right":9933416,"id":"efd9e8","name":"立川南","name_kana":"たちかわみなみ","lat":35.696077,"lng":139.412546,"prefecture":13,"lines":[99334],"attr":"cool","postal_code":"190-0023","address":"立川市柴崎町３-７","next":[1130324,1130325,9933410,9933412,1131502],"voronoi":{"lat":35.697256,"lng":139.402053,"delta_lat":[0,-7660,4824,3368,-17],"delta_lng":[0,15073,990,-6181,-9680]},"impl":true},
    {"code":9933408,"left":9933409,"right":1130323,"id":"ce5510","name":"万願寺","name_kana":"まんがんじ","lat":35.671249,"lng":139.420079,"prefecture":13,"lines":[99334],"attr":"eco","postal_code":"191-0022","address":"日野市新井１２４","next":[9933409,1130324,1130323,2400128,2400129],"voronoi":{"lat":35.670507,"lng":139.411899,"delta_lat":[0,12352,-76,-11595,-9316],"delta_lng":[0,7956,450,13907,-11544]},"impl":true},
    {"code":9933409,"left":2400129,"right":9933410,"id":"a26094","name":"甲州街道","name_kana":"こうしゅうかいどう","lat":35.678262,"lng":139.409191,"prefecture":13,"lines":[99334],"attr":"eco","postal_code":"191-0012","address":"日野市日野１０３０","next":[9933408,1130324,2400129,9933410,1131108],"voronoi":{"lat":35.667896,"lng":139.400862,"delta_lat":[0,2612,12352,1009,0],"delta_lng":[0,11037,7956,-1063,-16902]},"impl":true},
    {"code":2400129,"left":9933406,"id":"3129f8","name":"高幡不動","name_kana":"たかはたふどう","lat":35.662361,"lng":139.412953,"prefecture":13,"lines":[24001,24005,99334],"attr":"heat","postal_code":"191-0031","address":"日野市高幡１３９","next":[2400130,2400128,1131108,9933406,9933409,9933408],"voronoi":{"lat":35.670507,"lng":139.411899,"delta_lat":[0,-2612,-1505,-4350,-6170,6002],"delta_lng":[0,-11037,-1335,1620,19884,1637]},"impl":true},
    {"code":9933406,"id":"71c621","name":"程久保","name_kana":"ほどくぼ","lat":35.655093,"lng":139.410698,"prefecture":13,"lines":[99334],"attr":"eco","postal_code":"191-0042","address":"日野市程久保８-１","next":[2400130,2400502,2400129,2400128,9933404,9933403],"voronoi":{"lat":35.655871,"lng":139.421031,"delta_lat":[0,6170,-3253,-10526,-969,1304],"delta_lng":[0,-19884,93,10191,6280,4122]},"impl":true},
    {"code":9933410,"id":"934cc5","name":"柴崎体育館","name_kana":"しばさきたいいくかん","lat":35.689475,"lng":139.409191,"prefecture":13,"lines":[99334],"attr":"eco","postal_code":"190-0023","address":"立川市柴崎町６-１０７","next":[1130324,9933411,1131502,1131108,9933409],"voronoi":{"lat":35.683869,"lng":139.40189,"delta_lat":[0,7564,5824,-7660,-5728],"delta_lng":[0,-5071,5234,15073,1666]},"impl":true},
    {"code":1130323,"left":1130322,"right":1130324,"id":"3c945e","name":"矢川","name_kana":"やがわ","lat":35.685079,"lng":139.431611,"prefecture":13,"lines":[11303],"attr":"eco","postal_code":"186-0011","address":"国立市谷保石田","next":[1130324,9933408,1131226,2400128,1130322],"voronoi":{"lat":35.671164,"lng":139.436212,"delta_lat":[0,24,11595,13283,-5885],"delta_lng":[0,-2001,-13907,14912,5654]},"impl":true},
    {"code":1130322,"left":2400128,"id":"58f039","name":"谷保","name_kana":"やほ","lat":35.681377,"lng":139.446724,"prefecture":13,"lines":[11303],"attr":"eco","postal_code":"186-0011","address":"国立市谷保町","next":[1130329,1130503,1131226,1130502,1130323,2400128],"voronoi":{"lat":35.683548,"lng":139.459306,"delta_lat":[0,3840,3127,-334,-19017,-4366],"delta_lng":[0,77,-2981,-15531,-4658,6792]},"impl":true},
    {"code":2400128,"id":"8f707c","name":"百草園","name_kana":"もぐさえん","lat":35.657362,"lng":139.431285,"prefecture":13,"lines":[24001],"attr":"heat","postal_code":"191-0033","address":"日野市百草２０９","next":[2400127,2400129,9933403,9933402,9933406,9933408,1130323,1130329,1130322],"voronoi":{"lat":35.671164,"lng":139.436212,"delta_lat":[0,24,-9316,-6002,-7274,-4565,-2095,23331,1531],"delta_lng":[0,-2001,-11544,-1637,802,6308,5921,9735,-792]},"impl":true},
    {"code":1130324,"id":"64c8fe","name":"西国立","name_kana":"にしくにたち","lat":35.69375,"lng":139.423887,"prefecture":13,"lines":[11303],"attr":"cool","postal_code":"190-0021","address":"立川市羽衣町１丁目","next":[9933411,9933414,1131226,9933410,9933413,9933408,1130323,1130325,9933409],"voronoi":{"lat":35.683869,"lng":139.418792,"delta_lat":[0,5728,4824,10110,559,2772,-11795,-13283,76],"delta_lng":[0,-1666,990,4420,861,8942,2878,-14912,-450]},"impl":true},
    {"code":9933416,"left":9933413,"right":9933415,"id":"25597b","name":"砂川七番","name_kana":"すながわななばん","lat":35.723319,"lng":139.418097,"prefecture":13,"lines":[99334],"attr":"heat","postal_code":"190-0002","address":"立川市幸町５-１","next":[9933413,2200806,9933414,9933415,2200804,2200805],"voronoi":{"lat":35.728042,"lng":139.405627,"delta_lat":[0,-7039,-1107,-525,4726,3101],"delta_lng":[0,-1518,3002,6364,15039,-1825]},"impl":true},
    {"code":9933413,"left":1130325,"right":9933414,"id":"dbeb1d","name":"高松(東京)","original_name":"高松","name_kana":"たかまつ","lat":35.710158,"lng":139.413242,"prefecture":13,"lines":[99334],"attr":"cool","postal_code":"190-0011","address":"立川市高松町１-１００","next":[9933416,9933414,2200806,1130324,1130325,1131502,9933412],"voronoi":{"lat":35.705424,"lng":139.403877,"delta_lat":[0,11128,4451,-1107,-14806,-559,-124],"delta_lng":[0,-3749,3982,3002,16285,-861,-3210]},"impl":true},
    {"code":1130325,"left":9933412,"id":"5ce7d3","name":"立川","name_kana":"たちかわ","lat":35.698202,"lng":139.413704,"prefecture":13,"lines":[11303,11311,11312,11315,11328],"attr":"cool","postal_code":"190-0012","address":"東京都立川市曙町二丁目1-1","next":[9933411,1130324,9933412,9933413],"voronoi":{"lat":35.704406,"lng":139.419325,"delta_lat":[0,-6618,-3368,10110],"delta_lng":[0,-7391,6181,4420]},"impl":true},
    {"code":9933412,"id":"ea3593","name":"立川北","name_kana":"たちかわきた","lat":35.699502,"lng":139.41254,"prefecture":13,"lines":[99334],"attr":"cool","postal_code":"190-0012","address":"立川市曙町２-４","next":[1130325,9933411,1131502,9933413],"voronoi":{"lat":35.705424,"lng":139.403877,"delta_lat":[0,-7652,17,6618],"delta_lng":[0,-1622,9680,7391]},"impl":true},
    {"code":9933414,"id":"6bb387","name":"立飛","name_kana":"たちひ","lat":35.714717,"lng":139.417387,"prefecture":13,"lines":[99334],"attr":"cool","postal_code":"190-0015","address":"立川市泉町９３５","next":[9933413,1130324,9933415,9933416,1131226],"voronoi":{"lat":35.71937,"lng":139.413475,"delta_lat":[0,525,-14806,2772,1225],"delta_lng":[0,-6364,16285,8942,655]},"impl":true},
    {"code":9933415,"left":1131226,"right":2200805,"id":"03ff6f","name":"泉体育館","name_kana":"いずみたいいくかん","lat":35.718775,"lng":139.419525,"prefecture":13,"lines":[99334],"attr":"heat","postal_code":"190-0015","address":"立川市泉町８４１","next":[9933414,1131226,9933416,2200804],"voronoi":{"lat":35.724097,"lng":139.428515,"delta_lat":[0,-4726,-10284,5850],"delta_lng":[0,-15039,19518,4264]},"impl":true},
    {"code":1131226,"id":"34c3aa","name":"国立","name_kana":"くにたち","lat":35.69923,"lng":139.44634,"prefecture":13,"lines":[11312],"attr":"cool","postal_code":"186-0001","address":"国立市北１丁目","next":[1130324,2200804,9933415,1130322,9933414,2201002,1130323,1130503,2201003],"voronoi":{"lat":35.717308,"lng":139.443848,"delta_lat":[0,-2372,-5850,-1225,-11795,-5885,334,13478,10048],"delta_lng":[0,-6591,-4264,-655,2878,5654,15531,-352,-6938]},"impl":true},
    {"code":2200805,"id":"5331ac","name":"玉川上水","name_kana":"たまがわじょうすい","lat":35.731751,"lng":139.418435,"prefecture":13,"lines":[22008,99334],"attr":"eco","postal_code":"190-0002","address":"立川市幸町６-３６-１","next":[9933418,2200804,9933416,2200806],"voronoi":{"lat":35.73233,"lng":139.405155,"delta_lat":[0,5122,-10254,844],"delta_lng":[0,20835,699,-21062]},"impl":true},
    {"code":2200123,"left":1131515,"right":2200117,"id":"b65c70","name":"仏子","name_kana":"ぶし","lat":35.83769,"lng":139.360115,"prefecture":11,"lines":[22001],"attr":"eco","postal_code":"358-0053","address":"入間市仏子８８０","next":[2200120,1131707,1132209,2200119,1131706,2200122,1131709,2200124],"voronoi":{"lat":35.819019,"lng":139.348787,"delta_lat":[0,-16464,-2818,823,9759,58592,1898,-130],"delta_lng":[0,14012,14087,395,3102,-10123,-11040,-345]},"impl":true},
    {"code":1131515,"left":1131509,"right":1131512,"id":"15001a","name":"日向和田","name_kana":"ひなたわだ","lat":35.788665,"lng":139.229515,"prefecture":13,"lines":[11315],"attr":"cool","postal_code":"198-0046","address":"青梅市日向和田３丁目","next":[1131514,1131520,1131516,1131517,1131608,1131519],"voronoi":{"lat":35.774038,"lng":139.200315,"delta_lat":[0,-3740,-1771,28191,-16110,-2136],"delta_lng":[0,-1020,31287,4061,-29767,-2444]},"impl":true},
    {"code":1131509,"left":1131511,"right":1131705,"id":"444bda","name":"羽村","name_kana":"はむら","lat":35.758073,"lng":139.316188,"prefecture":13,"lines":[11315],"attr":"heat","postal_code":"205-0014","address":"羽村市羽東１丁目","next":[1131510,1131603,1131604,1131706,1131508,1131705],"voronoi":{"lat":35.754448,"lng":139.32762,"delta_lat":[0,-12091,1504,9219,26363,-17150],"delta_lng":[0,-16313,-10697,-9407,33957,7330]},"impl":true},
    {"code":1131511,"left":1131510,"right":1131514,"id":"7d79b3","name":"河辺","name_kana":"かべ","lat":35.78473,"lng":139.284032,"prefecture":13,"lines":[11315],"attr":"heat","postal_code":"198-0036","address":"青梅市河辺町５丁目","next":[1131605,1131604,1131510,1131707,1131512],"voronoi":{"lat":35.759994,"lng":139.266167,"delta_lat":[0,-3832,23,46165,17730],"delta_lng":[0,14928,492,22021,-10391]},"impl":true},
    {"code":1131510,"left":1131608,"id":"0e5270","name":"小作","name_kana":"おざく","lat":35.776048,"lng":139.302233,"prefecture":13,"lines":[11315],"attr":"heat","postal_code":"205-0001","address":"羽村市小作台","next":[1131604,1131511,1131707,1131706,1131509],"voronoi":{"lat":35.785536,"lng":139.325828,"delta_lat":[0,16813,-46165,-3105,26363],"delta_lng":[0,-22221,-22021,9616,33957]},"impl":true},
    {"code":1131608,"id":"d4efc3","name":"武蔵岩井","name_kana":"むさしいわい","closed":true,"lat":35.748639,"lng":139.22725,"prefecture":13,"lines":[11316],"postal_code":"190-0181","address":"東京都西多摩郡日の出町大字大久野","open_date":"1925-09-20","closed_date":"1971-02-01","next":[1131513,1131606,1131514,1131515,1131607,1131520],"voronoi":{"lat":35.768528,"lng":139.230581,"delta_lat":[0,-5367,-2346,-19650,-3971,33105],"delta_lng":[0,20800,3185,-11935,-82496,39159]},"impl":false},
    {"code":1131514,"id":"e61716","name":"宮ノ平","name_kana":"みやのひら","lat":35.787545,"lng":139.237289,"prefecture":13,"lines":[11315],"attr":"cool","postal_code":"198-0046","address":"青梅市日向和田２丁目","next":[1131515,1131608,1131516,1131513],"voronoi":{"lat":35.768528,"lng":139.230581,"delta_lat":[0,28191,13221,-46779],"delta_lng":[0,4061,10068,6671]},"impl":true},
    {"code":1131705,"left":1131507,"right":1131706,"id":"77f8c0","name":"東福生","name_kana":"ひがしふっさ","lat":35.745811,"lng":139.33594,"prefecture":13,"lines":[11317],"attr":"cool","postal_code":"197-0013","address":"福生市武蔵野台１丁目","next":[1131602,1131508,2200807,1131506,1131509,1131507,1131706],"voronoi":{"lat":35.762292,"lng":139.332489,"delta_lat":[0,-7845,-13976,-3490,-1,1002,12054],"delta_lng":[0,-4870,5735,17371,175,3266,6915]},"impl":true},
    {"code":1131507,"left":1131508,"id":"bacb01","name":"牛浜","name_kana":"うしはま","lat":35.734547,"lng":139.333677,"prefecture":13,"lines":[11315],"attr":"heat","postal_code":"197-0024","address":"福生市牛浜","next":[1131508,1131603,1131705,1131602],"voronoi":{"lat":35.727594,"lng":139.323704,"delta_lat":[0,4377,8501,-3490],"delta_lng":[0,-1719,11369,17371]},"impl":true},
    {"code":1131508,"id":"d296fd","name":"福生","name_kana":"ふっさ","lat":35.742456,"lng":139.327763,"prefecture":13,"lines":[11315],"attr":"heat","postal_code":"197-0022","address":"福生市本町","next":[1131507,1131603,1131705,1131509],"voronoi":{"lat":35.742357,"lng":139.311307,"delta_lat":[0,-10386,8501,13976],"delta_lng":[0,10679,11369,-5735]},"impl":true},
    {"code":1131706,"id":"3d0273","name":"箱根ヶ崎","name_kana":"はこねがさき","lat":35.771158,"lng":139.346805,"prefecture":13,"lines":[11317],"attr":"eco","postal_code":"190-1221","address":"東京都西多摩郡瑞穂町大字箱根ケ崎397","next":[2200503,2200807,1131510,2200119,1131707,2200123,2200806,1131509,1131705],"voronoi":{"lat":35.758544,"lng":139.377483,"delta_lat":[0,6168,23596,11430,2818,-17019,-6094,-17150,-12256],"delta_lng":[0,5729,74,-6400,-14087,-36971,-669,7330,28592]},"impl":true},
    {"code":1131512,"left":1131517,"right":2200125,"id":"e161e7","name":"東青梅","name_kana":"ひがしおうめ","lat":35.789768,"lng":139.272841,"prefecture":13,"lines":[11315],"attr":"heat","postal_code":"198-0042","address":"青梅市東青梅１丁目","next":[1131513,1131606,2200125,1131511,1131605,2200128,1131707],"voronoi":{"lat":35.759994,"lng":139.266167,"delta_lat":[0,15,531,77699,-388,-14483,-3288],"delta_lng":[0,-299,-1893,3921,4733,19344,1244]},"impl":true},
    {"code":1131517,"left":1131513,"right":1131518,"id":"bccffb","name":"二俣尾","name_kana":"ふたまたお","lat":35.803946,"lng":139.216161,"prefecture":13,"lines":[11315],"attr":"cool","postal_code":"198-0171","address":"青梅市二俣尾４丁目","next":[2200129,1131519,1131515,1131516,1131513,1131518],"voronoi":{"lat":35.841643,"lng":139.251357,"delta_lat":[0,-4471,-56564,-2136,4367,69390],"delta_lng":[0,-1432,-45049,-2444,381,27311]},"impl":true},
    {"code":1131513,"left":1131516,"id":"2b964e","name":"青梅","name_kana":"おうめ","lat":35.790512,"lng":139.258096,"prefecture":13,"lines":[11315],"attr":"heat","postal_code":"198-0000","address":"青梅市青梅","next":[1131608,1131512,1131606,1131516,2200129,2200128,1131517,1131514],"voronoi":{"lat":35.760814,"lng":139.254566,"delta_lat":[0,-275,77699,3352,53,-4471,-27233,-46779],"delta_lng":[0,9408,3921,-14072,-2467,-1432,-5214,6671]},"impl":true},
    {"code":1131516,"id":"686ea2","name":"石神前","name_kana":"いしがみまえ","lat":35.79683,"lng":139.225096,"prefecture":13,"lines":[11315],"attr":"cool","postal_code":"198-0171","address":"青梅市二俣尾１丁目","next":[1131513,1131514,1131515,1131517],"voronoi":{"lat":35.780608,"lng":139.204875,"delta_lat":[0,16110,13221,27233],"delta_lng":[0,29767,10068,5214]},"impl":true},
    {"code":1131518,"id":"b9f844","name":"軍畑","name_kana":"いくさばた","lat":35.807382,"lng":139.207431,"prefecture":13,"lines":[11315],"attr":"cool","postal_code":"198-0172","address":"青梅市沢井１丁目","next":[2200129,2200130,1131519,1131517],"voronoi":{"lat":35.782839,"lng":139.202813,"delta_lat":[0,79392,-5347,-4655],"delta_lng":[0,-8115,27934,7492]},"impl":true},
    {"code":2200125,"left":2200124,"right":1131708,"id":"6b6685","name":"飯能","name_kana":"はんのう","lat":35.851189,"lng":139.318824,"prefecture":11,"lines":[22001],"attr":"heat","postal_code":"357-0038","address":"飯能市仲町１１-２１","next":[1131708,1131707,2200124,1131512,2200127,2200128],"voronoi":{"lat":35.869626,"lng":139.318116,"delta_lat":[0,-36432,-1542,-8285,14483,18016],"delta_lng":[0,8872,-618,-34398,-19344,16086]},"impl":true},
    {"code":2200124,"left":1131707,"id":"cf0568","name":"元加治","name_kana":"もとかじ","lat":35.84058,"lng":139.345316,"prefecture":11,"lines":[22001],"attr":"heat","postal_code":"358-0054","address":"入間市野田１６７","next":[1131709,1131708,1131707,2200125,2200123],"voronoi":{"lat":35.819019,"lng":139.348787,"delta_lat":[0,12633,1542,36359,1126],"delta_lng":[0,-22417,618,23201,8686]},"impl":true},
    {"code":1131707,"id":"eeb4d9","name":"金子","name_kana":"かねこ","lat":35.810822,"lng":139.328546,"prefecture":11,"lines":[11317],"attr":"heat","postal_code":"358-0046","address":"入間市南峯","next":[2200123,2200125,2200124,1131510,1131511,1131706,1131512],"voronoi":{"lat":35.823368,"lng":139.291973,"delta_lat":[0,8285,-12633,-16464,-17019,16813,17730],"delta_lng":[0,34398,22417,14012,-36971,-22221,-10391]},"impl":true},
    {"code":1131708,"id":"532b6d","name":"東飯能","name_kana":"ひがしはんのう","lat":35.852928,"lng":139.325965,"prefecture":11,"lines":[11317,22001],"attr":"heat","postal_code":"357-0034","address":"飯能市東町１丁目","next":[2200125,2200127,2200124,1131709],"voronoi":{"lat":35.876083,"lng":139.326821,"delta_lat":[0,-6456,-36432,36359],"delta_lng":[0,-8704,8872,23201]},"impl":true},
    {"code":2200117,"left":2200602,"right":2200119,"id":"403959","name":"西所沢","name_kana":"にしところざわ","lat":35.789303,"lng":139.455959,"prefecture":11,"lines":[22001,22005],"attr":"eco","postal_code":"359-1144","address":"所沢市西所沢１-１１-９","next":[2200131,2200721,2200723,2200724,2200118,2200902,2200502],"voronoi":{"lat":35.775215,"lng":139.462478,"delta_lat":[0,71,14116,8122,561,-7416,-12175],"delta_lng":[0,209,2175,-7523,-8370,-4643,8104]},"impl":true},
    {"code":2200602,"left":9933419,"right":2200902,"id":"fc7f46","name":"遊園地西","name_kana":"ゆうえんちにし","lat":35.769042,"lng":139.440166,"prefecture":11,"lines":[22006],"attr":"cool","postal_code":"359-1145","address":"所沢市山口２９３９","next":[2200601,2200502,2201107,2200503,2200902],"voronoi":{"lat":35.775146,"lng":139.430388,"delta_lat":[0,-16435,906,10593,3590],"delta_lng":[0,-1514,2974,12973,558]},"impl":true},
    {"code":9933419,"left":2200804,"right":2200503,"id":"4271b4","name":"上北台","name_kana":"かみきただい","lat":35.745824,"lng":139.415822,"prefecture":13,"lines":[99334],"attr":"heat","postal_code":"207-0023","address":"東大和市上北台１-７４２","next":[2201107,2200503,2200804,9933418,2200806],"voronoi":{"lat":35.763331,"lng":139.385336,"delta_lat":[0,-6486,-8901,-4070,-3232],"delta_lng":[0,42428,3349,-2870,-26545]},"impl":true},
    {"code":2200804,"left":9933418,"id":"ce03a9","name":"東大和市","name_kana":"ひがしやまとし","lat":35.732829,"lng":139.434249,"prefecture":13,"lines":[22008],"attr":"cool","postal_code":"207-0022","address":"東大和市桜が丘１-１４１５-１","next":[2200803,1131226,2201003,9933419,9933415,2201107,2200805,9933416,9933418],"voronoi":{"lat":35.747943,"lng":139.431112,"delta_lat":[0,-6956,-8552,-15127,-2372,9160,3101,10254,6422],"delta_lng":[0,16820,1387,-5471,-6591,-8743,-1825,-699,2252]},"impl":true},
    {"code":9933418,"id":"5f92f1","name":"桜街道","name_kana":"さくらかいどう","lat":35.739,"lng":139.416653,"prefecture":13,"lines":[99334],"attr":"heat","postal_code":"207-0023","address":"東大和市上北台３-４７０","next":[2200806,2200805,9933419,2200804],"voronoi":{"lat":35.740641,"lng":139.401697,"delta_lat":[0,-8312,5122,6422],"delta_lng":[0,3458,20835,2252]},"impl":true},
    {"code":2200503,"id":"9da248","name":"西武球場前","name_kana":"せいぶきゅうじょうまえ","lat":35.77093,"lng":139.41966,"prefecture":11,"lines":[22005,22006],"attr":"eco","postal_code":"359-1153","address":"所沢市上山口２０９０-３","next":[2200502,1131706,9933419,2200119,2201107,2200118,2200602,2200806],"voronoi":{"lat":35.764711,"lng":139.383213,"delta_lat":[0,23596,2535,-2943,-12754,-16435,-1866,6486],"delta_lng":[0,74,37310,4746,5046,-1514,-1111,-42428]},"impl":true},
    {"code":2200902,"left":2201107,"right":2200502,"id":"6cc2de","name":"西武園","name_kana":"せいぶえん","lat":35.767684,"lng":139.448904,"prefecture":13,"lines":[22009],"attr":"heat","postal_code":"189-0026","address":"東村山市多摩湖町４-２９-１","next":[2200502,2201107,2200117,2200601,2200721,2200602],"voronoi":{"lat":35.778494,"lng":139.452431,"delta_lat":[0,-3279,-16832,3297,8530,3590],"delta_lng":[0,10048,-7578,-7581,-2498,558]},"impl":true},
    {"code":2201107,"left":2200601,"id":"0a6039","name":"武蔵大和","name_kana":"むさしやまと","lat":35.756427,"lng":139.444008,"prefecture":13,"lines":[22011],"attr":"cool","postal_code":"189-0025","address":"東村山市廻田町３-９-１９","next":[2201106,9933419,2200503,2200902,2200804,2200602,2200721,2200803,2200601],"voronoi":{"lat":35.759616,"lng":139.431848,"delta_lat":[0,-906,-1866,-8901,-6956,6646,3565,7184,3297],"delta_lng":[0,-2974,-1111,3349,16820,6431,1732,-1195,-7581]},"impl":true},
    {"code":2200601,"id":"1666ba","name":"西武遊園地","name_kana":"せいぶゆうえんち","lat":35.765881,"lng":139.442747,"prefecture":13,"lines":[22006,22011],"attr":"cool","postal_code":"189-0026","address":"東村山市多摩湖町３-１５-１８","next":[2200602,2200902,2201107],"voronoi":{"lat":35.759616,"lng":139.431848,"delta_lat":[0,10593,-8530],"delta_lng":[0,12973,2498]},"impl":true},
    {"code":2200502,"id":"5edba2","name":"下山口","name_kana":"しもやまぐち","lat":35.77941,"lng":139.441097,"prefecture":11,"lines":[22005],"attr":"eco","postal_code":"359-1145","address":"所沢市山口１２５４-３","next":[2200503,2200902,2200118,2200602,2200117],"voronoi":{"lat":35.790668,"lng":139.444327,"delta_lat":[0,-2769,-12754,-1346,4694],"delta_lng":[0,-18984,5046,14991,7051]},"impl":true},
    {"code":2200119,"left":2200121,"right":2200724,"id":"9213bd","name":"狭山ヶ丘","name_kana":"さやまがおか","lat":35.810445,"lng":139.416975,"prefecture":11,"lines":[22001],"attr":"eco","postal_code":"359-1161","address":"埼玉県所沢市狭山ヶ丘一丁目2980","next":[1131706,2200725,2200503,2200118,2200123,2200120],"voronoi":{"lat":35.800561,"lng":139.377282,"delta_lat":[0,-823,-11430,2535,25675,3427],"delta_lng":[0,-395,6400,37310,12093,-7311]},"impl":true},
    {"code":2200121,"left":2200120,"right":2200726,"id":"c28602","name":"稲荷山公園","name_kana":"いなりやまこうえん","lat":35.845112,"lng":139.39842,"prefecture":11,"lines":[22001],"attr":"eco","postal_code":"350-1324","address":"狭山市稲荷山１-１","next":[2200122,2200120,2200725,2200726,1132209],"voronoi":{"lat":35.8741,"lng":139.38618,"delta_lat":[0,-45269,8021,4159,33381],"delta_lng":[0,12301,13530,1819,-27044]},"impl":true},
    {"code":2200120,"left":2200122,"id":"b6f639","name":"武蔵藤沢","name_kana":"むさしふじさわ","lat":35.820963,"lng":139.412736,"prefecture":11,"lines":[22001],"attr":"eco","postal_code":"358-0011","address":"入間市下藤沢４９４-４","next":[2200123,2200121,2200725,2200122,2200119],"voronoi":{"lat":35.800561,"lng":139.377282,"delta_lat":[0,9759,18511,8021,-16907],"delta_lng":[0,3102,18098,13530,13367]},"impl":true},
    {"code":2200122,"id":"0bd95a","name":"入間市","name_kana":"いるまし","lat":35.842904,"lng":139.390294,"prefecture":11,"lines":[22001],"attr":"eco","postal_code":"358-0008","address":"入間市河原町２-１","next":[2200121,1132209,2200120,2200123],"voronoi":{"lat":35.868912,"lng":139.370261,"delta_lat":[0,5188,-45269,-18511],"delta_lng":[0,15920,12301,-18098]},"impl":true},
    {"code":2200726,"id":"df8bff","name":"狭山市","name_kana":"さやまし","lat":35.856936,"lng":139.413015,"prefecture":11,"lines":[22007],"attr":"cool","postal_code":"350-1305","address":"狭山市入間川１-１-１","next":[2200727,1132209,1132208,2200725,2200121],"voronoi":{"lat":35.874392,"lng":139.386786,"delta_lat":[0,5589,2223,-29484,-11709],"delta_lng":[0,5976,16556,24551,-20039]},"impl":true},
    {"code":2200724,"left":2200118,"right":2200725,"id":"039422","name":"新所沢","name_kana":"しんところざわ","lat":35.805854,"lng":139.457069,"prefecture":11,"lines":[22007],"attr":"heat","postal_code":"359-1111","address":"所沢市緑町１-２１-２５","next":[2200727,2100118,2200725,2200117,2200728,2200118,2200723,2100119],"voronoi":{"lat":35.834024,"lng":139.489625,"delta_lat":[0,-36501,561,21847,27741,556,155,-9432],"delta_lng":[0,-32286,-8370,-6099,24816,1605,4533,11723]},"impl":true},
    {"code":2200118,"id":"1e6c5a","name":"小手指","name_kana":"こてさし","lat":35.800535,"lng":139.438016,"prefecture":11,"lines":[22001],"attr":"eco","postal_code":"359-1141","address":"所沢市小手指町１-８-１","next":[2200502,2200117,2200119,2200725,2200503,2200724],"voronoi":{"lat":35.819932,"lng":139.44287,"delta_lat":[0,-3414,-25675,-2943,2769,7416],"delta_lng":[0,-10181,-12093,4746,18984,4643]},"impl":true},
    {"code":2200725,"id":"262546","name":"入曽","name_kana":"いりそ","lat":35.832481,"lng":139.427304,"prefecture":11,"lines":[22007],"attr":"heat","postal_code":"350-1316","address":"狭山市南入曽５６７","next":[2200724,2200121,2200119,2200726,2200120,2200118,2200727],"voronoi":{"lat":35.852719,"lng":139.43387,"delta_lat":[0,-11709,-4159,-16907,-3427,3414,27741],"delta_lng":[0,-20039,-1819,13367,7311,10181,24816]},"impl":true},
    {"code":2200711,"left":2201203,"right":2100117,"id":"d5e4b3","name":"井荻","name_kana":"いおぎ","lat":35.72469,"lng":139.615303,"prefecture":13,"lines":[22007],"attr":"cool","postal_code":"167-0022","address":"杉並区下井草５-２３-１５","next":[1131217,2200712,2200710,2200109,1131218],"voronoi":{"lat":35.714954,"lng":139.619164,"delta_lat":[0,17278,1013,-19888,-716],"delta_lng":[0,1543,-11163,-1023,937]},"impl":true},
    {"code":2201203,"left":2400123,"right":2400614,"id":"cc8cf2","name":"多磨","name_kana":"たま","lat":35.676821,"lng":139.51713,"prefecture":13,"lines":[22012],"attr":"heat","postal_code":"183-0004","address":"府中市紅葉丘３-４２-２","next":[1131223,2400122,2201204,2201202,2400120,2400123,2400119,2400121],"voronoi":{"lat":35.669213,"lng":139.516978,"delta_lat":[0,7911,3201,4407,5411,-12647,-3697,-5711],"delta_lng":[0,-11215,-2343,-1623,12457,25481,-5725,-14593]},"impl":true},
    {"code":2400123,"left":2201206,"right":2201109,"id":"ba759a","name":"東府中","name_kana":"ひがしふちゅう","lat":35.668766,"lng":139.495257,"prefecture":13,"lines":[24001,24004],"attr":"eco","postal_code":"183-0015","address":"府中市清水が丘１-８-３","next":[2400124,1131223,2201205,2400402,2201203,1131106,2201206,2400122],"voronoi":{"lat":35.66238,"lng":139.497155,"delta_lat":[0,-1066,2012,16209,6289,1493,-2585,-4407],"delta_lng":[0,-2993,-3781,-756,1424,3249,7500,1623]},"impl":true},
    {"code":2201206,"left":2400402,"right":2400122,"id":"7d0de2","name":"是政","name_kana":"これまさ","lat":35.656242,"lng":139.488592,"prefecture":13,"lines":[22012],"attr":"heat","postal_code":"183-0014","address":"府中市是政５-８-２","next":[1130319,2400402,1130320,2400123,2201205],"voronoi":{"lat":35.663325,"lng":139.490381,"delta_lat":[0,-2198,-10994,3457,7723],"delta_lng":[0,-7411,-9144,20329,7]},"impl":true},
    {"code":2400402,"left":1130320,"right":1130321,"id":"d2670e","name":"府中競馬正門前","name_kana":"ふちゅうけいばせいもんまえ","lat":35.668288,"lng":139.485019,"prefecture":13,"lines":[24004],"attr":"cool","postal_code":"183-0016","address":"府中市八幡町１-１８","next":[1130320,2201206,2400123,2400124],"voronoi":{"lat":35.668056,"lng":139.480751,"delta_lat":[0,-6929,2198,16209],"delta_lng":[0,2219,7411,-756]},"impl":true},
    {"code":1130320,"left":2400126,"id":"6f9765","name":"府中本町","name_kana":"ふちゅうほんまち","lat":35.665766,"lng":139.477142,"prefecture":13,"lines":[11303,11305],"attr":"heat","postal_code":"183-0027","address":"府中市本町１丁目","next":[2400402,1130321,1130319,2400124,2201206,2400126],"voronoi":{"lat":35.656244,"lng":139.469412,"delta_lat":[0,14606,-2794,-6929,-10994,-1519],"delta_lng":[0,4774,6564,2219,-9144,-1985]},"impl":true},
    {"code":2400126,"id":"5f0aef","name":"中河原","name_kana":"なかがわら","lat":35.659549,"lng":139.457602,"prefecture":13,"lines":[24001],"attr":"eco","postal_code":"183-0034","address":"府中市住吉町２-１-１６","next":[2400207,2400127,2400206,1130321,1130320,1130329,1130319],"voronoi":{"lat":35.656244,"lng":139.469412,"delta_lat":[0,9037,-198,-23678,-1138,813,7534],"delta_lng":[0,-7220,-18044,19469,3568,2243,2412]},"impl":true},
    {"code":1130321,"id":"6522f1","name":"分倍河原","name_kana":"ぶばいがわら","lat":35.668493,"lng":139.468798,"prefecture":13,"lines":[11303,24001],"attr":"eco","postal_code":"183-0021","address":"府中市片町２丁目","next":[2400124,1130502,2400126,1130320,1130329],"voronoi":{"lat":35.674004,"lng":139.473121,"delta_lat":[0,-3153,-14606,9037,10805],"delta_lng":[0,1066,-4774,-7220,2309]},"impl":true},
    {"code":2400122,"left":2400121,"right":2201204,"id":"a65761","name":"多磨霊園","name_kana":"たまれいえん","lat":35.666197,"lng":139.502615,"prefecture":13,"lines":[24001],"attr":"eco","postal_code":"183-0015","address":"府中市清水が丘３-２６-１１","next":[2201203,2400121,2201205,2400123,2201204],"voronoi":{"lat":35.659895,"lng":139.505711,"delta_lat":[0,2484,17945,-3201,-14315],"delta_lng":[0,-8556,6266,2343,632]},"impl":true},
    {"code":2400121,"left":2201205,"id":"aedb2f","name":"武蔵野台","name_kana":"むさしのだい","lat":35.664159,"lng":139.511289,"prefecture":13,"lines":[24001],"attr":"eco","postal_code":"183-0011","address":"府中市白糸台４-１８-４","next":[2201204,2400120,2201205,2400122,1130318,2201203,1130317],"voronoi":{"lat":35.651546,"lng":139.513235,"delta_lat":[0,1079,7270,2913,6404,-1125,-16160],"delta_lng":[0,-2542,-4982,685,10583,2439,-5272]},"impl":true},
    {"code":2201205,"id":"01e2f1","name":"競艇場前","name_kana":"きょうていじょうまえ","lat":35.656232,"lng":139.499721,"prefecture":13,"lines":[22012],"attr":"heat","postal_code":"183-0013","address":"府中市小柳町４-１０-１１","next":[1130319,1130318,2400121,2400123,2400122,2201206],"voronoi":{"lat":35.65359,"lng":139.494154,"delta_lat":[0,-4412,3447,7270,2484,-1066],"delta_lng":[0,3099,13439,-4982,-8556,-2993]},"impl":true},
    {"code":2201204,"id":"eac5d2","name":"白糸台","name_kana":"しらいとだい","lat":35.666517,"lng":139.509862,"prefecture":13,"lines":[22012],"attr":"heat","postal_code":"183-0011","address":"府中市白糸台２-７１-６","next":[2400121,2201203,2400122],"voronoi":{"lat":35.669213,"lng":139.516978,"delta_lat":[0,7911,-14315],"delta_lng":[0,-11215,632]},"impl":true},
    {"code":2201109,"left":2201002,"right":1131223,"id":"8f0122","name":"東国分寺","name_kana":"ひがしこくぶんじ","closed":true,"lat":35.707616,"lng":139.478056,"prefecture":13,"lines":[22011],"attr":"unknown","postal_code":"185-0011","address":"東京都国分寺市本多２丁目７−２３","next":[2201102,1131106,2201002,1130503,1131223],"voronoi":{"lat":35.709007,"lng":139.49327,"delta_lat":[0,-7395,4873,9277,-2922],"delta_lng":[0,-19896,-3180,2478,21444]},"impl":true},
    {"code":2201002,"left":1130502,"right":2201003,"id":"72f153","name":"恋ヶ窪","name_kana":"こいがくぼ","lat":35.711385,"lng":139.463944,"prefecture":13,"lines":[22010],"attr":"heat","postal_code":"185-0003","address":"東京都国分寺市戸倉一丁目1-4","next":[1130503,2201003,2201109,1131226,2201102],"voronoi":{"lat":35.719116,"lng":139.470424,"delta_lat":[0,-5075,-10048,2491,9277],"delta_lng":[0,-21313,6938,14145,2478]},"impl":true},
    {"code":1130502,"left":1130503,"id":"72ed15","name":"北府中","name_kana":"きたふちゅう","lat":35.68088,"lng":139.471792,"prefecture":13,"lines":[11305],"attr":"heat","postal_code":"183-0057","address":"府中市晴見町２丁目","next":[2400124,1130329,1131106,1130321,1130503,1130322],"voronoi":{"lat":35.683548,"lng":139.459306,"delta_lat":[0,-7462,-2083,11994,5769,-4378],"delta_lng":[0,5196,8619,12774,-12269,-14243]},"impl":true},
    {"code":1130503,"id":"ecef28","name":"西国分寺","name_kana":"にしこくぶんじ","lat":35.699744,"lng":139.465994,"prefecture":13,"lines":[11305,11312],"attr":"heat","postal_code":"185-0013","address":"国分寺市西恋ケ窪２丁目","next":[1130322,2201002,1131106,1130502,2201109,1131226],"voronoi":{"lat":35.687389,"lng":139.459382,"delta_lat":[0,4378,9845,4873,-2491,-13478],"delta_lng":[0,14243,-251,-3180,-14145,352]},"impl":true},
    {"code":2201003,"id":"c7b6d3","name":"鷹の台","name_kana":"たかのだい","lat":35.723097,"lng":139.461155,"prefecture":13,"lines":[22010],"attr":"cool","postal_code":"187-0024","address":"小平市たかの台４５-４","next":[2200803,2200804,2201002,1130504,2201102,1131226],"voronoi":{"lat":35.717308,"lng":139.443848,"delta_lat":[0,15127,-2277,-8368,-2674,-5075],"delta_lng":[0,5471,14096,7140,-131,-21313]},"impl":true},
    {"code":1131223,"left":1131106,"right":2201102,"id":"416a65","name":"武蔵小金井","name_kana":"むさしこがねい","lat":35.701337,"lng":139.506483,"prefecture":13,"lines":[11312],"attr":"cool","postal_code":"184-0004","address":"小金井市本町６丁目","next":[2201203,1131222,2201102,2400123,2201202,1131106,2200718,2201109],"voronoi":{"lat":35.709007,"lng":139.49327,"delta_lat":[0,-21690,-2585,5411,5565,16495,4899,-4262],"delta_lng":[0,1027,7500,12457,1502,-275,-18007,-3358]},"impl":true},
    {"code":1131106,"left":2400124,"id":"936e1a","name":"国分寺","name_kana":"こくぶんじ","lat":35.700123,"lng":139.480841,"prefecture":13,"lines":[11311,11312,11328,22010,22011],"attr":"cool","postal_code":"185-0012","address":"東京都国分寺市本町二丁目1-23","next":[1130502,2400124,2201109,1130503,2400123,1131223],"voronoi":{"lat":35.709007,"lng":139.49327,"delta_lat":[0,-7395,-9845,-5769,-174,1493],"delta_lng":[0,-19896,251,12269,5154,3249]},"impl":true},
    {"code":2400124,"id":"917fad","name":"府中(東京)","original_name":"府中","name_kana":"ふちゅう","lat":35.672245,"lng":139.4799,"prefecture":13,"lines":[24001],"attr":"eco","postal_code":"183-0023","address":"府中市宮町１-１-１０","next":[2400123,1130502,1130321,1131106,1130320,2400402],"voronoi":{"lat":35.685824,"lng":139.491049,"delta_lat":[0,174,-11994,-3153,-2794,11478],"delta_lng":[0,-5154,-12774,1066,6564,8874]},"impl":true},
    {"code":2201102,"id":"238847","name":"一橋学園","name_kana":"ひとつばしがくえん","lat":35.72217,"lng":139.480039,"prefecture":13,"lines":[22011],"attr":"cool","postal_code":"187-0045","address":"小平市学園西町２-１-１","next":[1131223,2200719,2201103,2201109,2200718,1130504,2201002,2201003],"voronoi":{"lat":35.719116,"lng":139.470424,"delta_lat":[0,-3355,-2922,4262,5278,6773,-4505,-2857],"delta_lng":[0,2248,21444,3358,-630,-11854,-11635,-2800]},"impl":true},
    {"code":2400614,"left":2400112,"right":1131104,"id":"95617c","name":"久我山","name_kana":"くがやま","lat":35.688138,"lng":139.599211,"prefecture":13,"lines":[24006],"attr":"eco","postal_code":"168-0082","address":"杉並区久我山４-１-１１","next":[2400112,2400615,2400613,1131218],"voronoi":{"lat":35.696016,"lng":139.59659,"delta_lat":[0,-18762,748,17913],"delta_lng":[0,-7396,10357,7595]},"impl":true},
    {"code":2400112,"left":2400120,"right":2400612,"id":"9de545","name":"千歳烏山","name_kana":"ちとせからすやま","lat":35.667921,"lng":139.60067,"prefecture":13,"lines":[24001],"attr":"cool","postal_code":"157-0062","address":"世田谷区南烏山６-１-１","next":[2400614,2400113,2500114,2400615,2400111,2500113,2400613],"voronoi":{"lat":35.656841,"lng":139.608631,"delta_lat":[0,-2879,248,22732,312,748,-842],"delta_lng":[0,-7907,-4025,-8169,664,10357,2221]},"impl":true},
    {"code":2400120,"left":2400114,"right":2400113,"id":"941fd1","name":"飛田給","name_kana":"とびたきゅう","lat":35.660121,"lng":139.523666,"prefecture":13,"lines":[24001],"attr":"eco","postal_code":"182-0036","address":"調布市飛田給１-４２-１１","next":[2400121,1130317,2201203,2400119],"voronoi":{"lat":35.650618,"lng":139.522895,"delta_lat":[0,1310,16160,5711],"delta_lng":[0,-8749,5272,14593]},"impl":true},
    {"code":2400114,"left":2400119,"id":"a435c3","name":"つつじヶ丘","name_kana":"つつじがおか","lat":35.657936,"lng":139.575103,"prefecture":13,"lines":[24001],"attr":"cool","postal_code":"182-0006","address":"東京都調布市西つつじヶ丘三丁目35-1","next":[2400115,2500115,2400113,2500116,1131105,2400616],"voronoi":{"lat":35.68008,"lng":139.567018,"delta_lat":[0,-2097,-33028,115,4266,29810],"delta_lng":[0,-6351,15264,1476,7341,-13137]},"impl":true},
    {"code":2400119,"id":"521e4d","name":"西調布","name_kana":"にしちょうふ","lat":35.657169,"lng":139.529822,"prefecture":13,"lines":[24001],"attr":"eco","postal_code":"182-0035","address":"調布市上石原１-２５-１７","next":[2400202,2201203,2201202,2400120,1131221,2400118,1130317],"voronoi":{"lat":35.652377,"lng":139.536096,"delta_lat":[0,24768,606,-256,-3697,-23181,-2727],"delta_lng":[0,8721,-2005,-3076,-5725,-11116,4822]},"impl":true},
    {"code":2400113,"id":"231c79","name":"仙川","name_kana":"せんがわ","lat":35.662257,"lng":139.584908,"prefecture":13,"lines":[24001],"attr":"cool","postal_code":"182-0002","address":"調布市仙川町１-４３","next":[2500115,2400114,2400112,2400615,2400616,2500114],"voronoi":{"lat":35.676941,"lng":139.58853,"delta_lat":[0,2278,-74,-29810,502,4372],"delta_lng":[0,-15461,-1458,13137,5061,6890]},"impl":true},
    {"code":2400612,"left":2400110,"right":2400613,"id":"94210e","name":"高井戸","name_kana":"たかいど","lat":35.683253,"lng":139.615115,"prefecture":13,"lines":[24006],"attr":"heat","postal_code":"168-0071","address":"杉並区高井戸西２-１-２６","next":[1131217,2400111,2400613,2400110,2400109,2400611],"voronoi":{"lat":35.676836,"lng":139.620578,"delta_lat":[0,-290,113,1166,17099,-2228],"delta_lng":[0,-511,-8002,-2169,3299,9491]},"impl":true},
    {"code":2400110,"left":2400111,"id":"d00fcb","name":"八幡山","name_kana":"はちまんやま","lat":35.669982,"lng":139.614927,"prefecture":13,"lines":[24001],"attr":"cool","postal_code":"168-0074","address":"杉並区上高井戸１-１-１１","next":[2500113,2500112,2400109,2400612,2400111],"voronoi":{"lat":35.656943,"lng":139.610598,"delta_lat":[0,-651,1569,18686,113],"delta_lng":[0,3306,3649,2514,-8002]},"impl":true},
    {"code":2400111,"id":"0cc6b5","name":"芦花公園","name_kana":"ろかこうえん","lat":35.670479,"lng":139.608247,"prefecture":13,"lines":[24001],"attr":"cool","postal_code":"157-0062","address":"世田谷区南烏山３-１-１６","next":[2400612,2400110,2500113,2400112,2400613],"voronoi":{"lat":35.676659,"lng":139.612065,"delta_lat":[0,-19717,-102,20319,666],"delta_lng":[0,-1467,-1968,-6859,8125]},"impl":true},
    {"code":2400613,"id":"27b042","name":"富士見ヶ丘","name_kana":"ふじみがおか","lat":35.684805,"lng":139.607072,"prefecture":13,"lines":[24006],"attr":"heat","postal_code":"168-0082","address":"東京都杉並区久我山五丁目1番25号","next":[2400612,2400614,1131217,2400111,1131218,2400112],"voronoi":{"lat":35.677825,"lng":139.609896,"delta_lat":[0,17099,2134,-1144,-17913,-842],"delta_lng":[0,3299,-3227,-2823,-7595,2221]},"impl":true},
    {"code":1131104,"left":1131221,"right":2400616,"id":"b93403","name":"吉祥寺","name_kana":"きちじょうじ","lat":35.703119,"lng":139.579765,"prefecture":13,"lines":[11311,11312,11313,11328,24006],"attr":"heat","postal_code":"180-0003","address":"東京都武蔵野市吉祥寺南町","next":[1131105,2200714,2200713,2400616,1131218],"voronoi":{"lat":35.71292,"lng":139.589215,"delta_lat":[0,3162,-1858,-20453,11087],"delta_lng":[0,-5836,-13587,458,19263]},"impl":true},
    {"code":1131221,"left":2201202,"right":1131105,"id":"740f90","name":"武蔵境","name_kana":"むさしさかい","lat":35.702083,"lng":139.543402,"prefecture":13,"lines":[11312,22012],"attr":"cool","postal_code":"180-0022","address":"武蔵野市境１丁目","next":[1131222,2201202,1131105,2200717,2400118,2400119,2200716],"voronoi":{"lat":35.715641,"lng":139.547093,"delta_lat":[0,-2176,-12100,-23614,-606,93,36914],"delta_lng":[0,-13248,287,8680,2005,7938,-1308]},"impl":true},
    {"code":2201202,"left":1131222,"id":"fa0076","name":"新小金井","name_kana":"しんこがねい","lat":35.695908,"lng":139.526603,"prefecture":13,"lines":[22012],"attr":"heat","postal_code":"184-0011","address":"小金井市東町４-２４-１","next":[1131221,1131222,2201203,1131223,2400119],"voronoi":{"lat":35.677496,"lng":139.539736,"delta_lat":[0,12647,5565,5658,-23614],"delta_lng":[0,-25481,1502,18375,8680]},"impl":true},
    {"code":1131222,"id":"6ddba7","name":"東小金井","name_kana":"ひがしこがねい","lat":35.701643,"lng":139.524837,"prefecture":13,"lines":[11312],"attr":"cool","postal_code":"184-0002","address":"小金井市梶野町５丁目","next":[1131221,2201202,1131223,2200718,2200717],"voronoi":{"lat":35.701366,"lng":139.534131,"delta_lat":[0,-5658,16495,5300,-4037],"delta_lng":[0,-18375,-275,11179,7184]},"impl":true},
    {"code":1131105,"id":"62c5d8","name":"三鷹","name_kana":"みたか","lat":35.702683,"lng":139.560325,"prefecture":13,"lines":[11311,11312,11313,11328],"attr":"cool","postal_code":"181-0013","address":"東京都三鷹市下連雀三丁目46-1","open_date":"1930-06-25","next":[2400616,1131104,1131221,2400114,2400115,2200716,2400118,2200714,2200715],"voronoi":{"lat":35.716185,"lng":139.558161,"delta_lat":[0,-2032,-36914,-195,939,2097,13692,20453,656],"delta_lng":[0,-6715,1308,604,7308,6351,3232,-458,-1017]},"impl":true},
    {"code":2400616,"left":2400615,"right":1131218,"id":"f1433c","name":"井の頭公園","name_kana":"いのかしらこうえん","lat":35.697304,"lng":139.583112,"prefecture":13,"lines":[24006],"attr":"eco","postal_code":"181-0001","address":"三鷹市井の頭３-３５-１２","next":[1131105,2400615,1131104,1131218,2400113,2400114],"voronoi":{"lat":35.68008,"lng":139.567018,"delta_lat":[0,13692,11087,-4271,-21368,-74],"delta_lng":[0,3232,19263,1718,-18162,-1458]},"impl":true},
    {"code":2400615,"id":"5676c3","name":"三鷹台","name_kana":"みたかだい","lat":35.692046,"lng":139.589298,"prefecture":13,"lines":[24006],"attr":"eco","postal_code":"181-0001","address":"三鷹市井の頭１-３２-１","next":[1131218,2400614,2400616,2400113,2400112],"voronoi":{"lat":35.676941,"lng":139.58853,"delta_lat":[0,2278,21368,-4572,-18762],"delta_lng":[0,-15461,18162,5359,-7396]},"impl":true},
    {"code":1131218,"id":"c57fc6","name":"西荻窪","name_kana":"にしおぎくぼ","lat":35.703842,"lng":139.599361,"prefecture":13,"lines":[11312,11313],"attr":"cool","postal_code":"167-0053","address":"杉並区西荻南３丁目","next":[2400615,2200712,2200713,1131104,2400616,2400614,2400613,2200711,1131217],"voronoi":{"lat":35.712641,"lng":139.609457,"delta_lat":[0,716,1959,-2395,-8062,-4271,-4572,-101,1144],"delta_lng":[0,-937,-11764,-7542,298,1718,5359,10556,2823]},"impl":true},
    {"code":2100117,"left":2200721,"right":2200113,"id":"f8d99c","name":"鶴瀬","name_kana":"つるせ","lat":35.845776,"lng":139.539347,"prefecture":11,"lines":[21001],"attr":"eco","postal_code":"354-0024","address":"富士見市鶴瀬東１-１１-１","next":[1132203,2100116,1130506,2100118],"voronoi":{"lat":35.875908,"lng":139.567431,"delta_lat":[0,-57236,10426,50796],"delta_lng":[0,-37762,-20947,47616]},"impl":true},
    {"code":2200721,"left":2201103,"right":2100119,"id":"391782","name":"東村山","name_kana":"ひがしむらやま","lat":35.76006,"lng":139.465839,"prefecture":13,"lines":[22007,22009,22010],"attr":"cool","postal_code":"189-0014","address":"東村山市本町２-３-３２","next":[2200720,2200117,2201106,1130505,2200902,2201107,2200131],"voronoi":{"lat":35.775286,"lng":139.462688,"delta_lat":[0,-71,-16832,-7184,1131,11561,6892],"delta_lng":[0,-209,-7578,1195,9323,17789,-4537]},"impl":true},
    {"code":2201103,"left":2201106,"right":2200719,"id":"374254","name":"青梅街道","name_kana":"おうめかいどう","lat":35.73098,"lng":139.476628,"prefecture":13,"lines":[22011],"attr":"cool","postal_code":"187-0032","address":"小平市小川町２-１８４６","next":[2201102,2200802,1130504,2200719],"voronoi":{"lat":35.735732,"lng":139.481672,"delta_lat":[0,218,-11302,4505],"delta_lng":[0,-7739,-577,11635]},"impl":true},
    {"code":2201106,"left":1130504,"right":2200720,"id":"a481fb","name":"八坂(東京)","original_name":"八坂","name_kana":"やさか","lat":35.744925,"lng":139.467676,"prefecture":13,"lines":[22011],"attr":"cool","postal_code":"189-0013","address":"東村山市栄町３-１８-１","next":[2201107,2200720,2200721,2200802,2200803],"voronoi":{"lat":35.747633,"lng":139.454363,"delta_lat":[0,3565,1131,-8049,-5741],"delta_lng":[0,1732,9323,7520,-2592]},"impl":true},
    {"code":1130504,"left":2200803,"id":"f98d33","name":"新小平","name_kana":"しんこだいら","lat":35.73128,"lng":139.470745,"prefecture":13,"lines":[11305],"attr":"heat","postal_code":"187-0032","address":"小平市小川町２丁目","next":[2200802,2201103,2201102,2201003,2200803],"voronoi":{"lat":35.735949,"lng":139.473932,"delta_lat":[0,-11302,-2857,8368,8072],"delta_lng":[0,-577,-2800,-7140,7005]},"impl":true},
    {"code":2200803,"id":"66c336","name":"小川(東京)","original_name":"小川","name_kana":"おがわ","lat":35.737573,"lng":139.463493,"prefecture":13,"lines":[22008,22010],"attr":"cool","postal_code":"187-0031","address":"小平市小川東町１-２０-１","next":[2200802,2200804,2201003,2201106,2201107,1130504],"voronoi":{"lat":35.730159,"lng":139.463416,"delta_lat":[0,2277,8552,6646,-9094,-309],"delta_lng":[0,-14096,-1387,6431,15983,74]},"impl":true},
    {"code":2200720,"id":"183a69","name":"久米川","name_kana":"くめがわ","lat":35.749575,"lng":139.472653,"prefecture":13,"lines":[22007],"attr":"eco","postal_code":"189-0013","address":"東村山市栄町２-３-１","next":[2200721,2201106,1130505,2200719,2200802],"voronoi":{"lat":35.74428,"lng":139.472939,"delta_lat":[0,8049,11561,-6354,-6653],"delta_lng":[0,-7520,17789,8726,-5298]},"impl":true},
    {"code":2200719,"left":2200717,"right":2200802,"id":"d66447","name":"小平","name_kana":"こだいら","lat":35.736963,"lng":139.488491,"prefecture":13,"lines":[22007,22008],"attr":"eco","postal_code":"187-0041","address":"小平市美園町１-３４-１","next":[2201102,2200116,2200720,1130505,2200115,2201103,2200718,2200802],"voronoi":{"lat":35.735732,"lng":139.481672,"delta_lat":[0,-6579,-6773,27886,5524,1106,641,-6653],"delta_lng":[0,3319,11854,12214,-6198,-5723,-5204,-5298]},"impl":true},
    {"code":2200717,"left":2200718,"id":"ef646c","name":"田無","name_kana":"たなし","lat":35.727307,"lng":139.539259,"prefecture":13,"lines":[22007],"attr":"heat","postal_code":"188-0011","address":"西東京市田無町４-１-１","next":[1131221,2200114,2200716,1131222,2200113,2200718],"voronoi":{"lat":35.713465,"lng":139.533845,"delta_lat":[0,2176,23145,4017,-751,-24550],"delta_lng":[0,13248,-2300,-14733,-4510,1111]},"impl":true},
    {"code":2200718,"id":"a6fd0a","name":"花小金井","name_kana":"はなこがねい","lat":35.726129,"lng":139.513228,"prefecture":13,"lines":[22007],"attr":"eco","postal_code":"187-0002","address":"小平市花小金井１-１０-５","next":[2200115,2201102,1131222,1131223,2200114,2200719,2200717],"voronoi":{"lat":35.712202,"lng":139.515481,"delta_lat":[0,4899,5278,27886,-527,-7686,-24550],"delta_lng":[0,-18007,-630,12214,3631,12860,1111]},"impl":true},
    {"code":2200802,"id":"d798be","name":"萩山","name_kana":"はぎやま","lat":35.740759,"lng":139.476903,"prefecture":13,"lines":[22008,22011],"attr":"cool","postal_code":"189-0012","address":"東村山市萩山町２-１-１","next":[2200803,1130504,2201103,2201106,2200720,2200719],"voronoi":{"lat":35.74428,"lng":139.472939,"delta_lat":[0,-5741,-309,-2281,-218,15152],"delta_lng":[0,-2592,74,3512,7739,4964]},"impl":true},
    {"code":2100119,"left":2200131,"right":1130506,"id":"a52f15","name":"上福岡","name_kana":"かみふくおか","lat":35.873855,"lng":139.511782,"prefecture":11,"lines":[21001],"attr":"eco","postal_code":"356-0004","address":"ふじみ野市上福岡１-１-１","next":[2100120,2200728,2100118,1132204,2200724],"voronoi":{"lat":35.848384,"lng":139.473825,"delta_lat":[0,10257,30652,-5768,-44573],"delta_lng":[0,2816,35992,23299,-50384]},"impl":true},
    {"code":2200131,"left":2200116,"right":2200723,"id":"7de51b","name":"所沢","name_kana":"ところざわ","lat":35.786627,"lng":139.473324,"prefecture":11,"lines":[22001,22007],"attr":"eco","postal_code":"359-0037","address":"所沢市くすのき台１-１４-５","next":[2200117,1130506,1130505,2200721,2200723],"voronoi":{"lat":35.801855,"lng":139.491389,"delta_lat":[0,-31073,4503,14116,16921],"delta_lng":[0,-12719,-15983,2175,25647]},"impl":true},
    {"code":2200116,"left":1130505,"id":"3b8e1e","name":"秋津","name_kana":"あきつ","lat":35.778614,"lng":139.496539,"prefecture":13,"lines":[22001],"attr":"eco","postal_code":"189-0001","address":"東村山市秋津町５-７-８","next":[1130505,2200115,2200719,1130506],"voronoi":{"lat":35.79983,"lng":139.493015,"delta_lat":[0,-42934,-1106,25738],"delta_lng":[0,4123,5723,7038]},"impl":true},
    {"code":1130505,"id":"17bab4","name":"新秋津","name_kana":"しんあきつ","lat":35.778331,"lng":139.493592,"prefecture":13,"lines":[11305],"attr":"heat","postal_code":"189-0001","address":"東村山市秋津町５丁目","next":[2200116,2200720,2200719,1130506,2200721,2200131],"voronoi":{"lat":35.79983,"lng":139.493015,"delta_lat":[0,-42934,641,6354,6892,31073],"delta_lng":[0,4123,-5204,-8726,-4537,12719]},"impl":true},
    {"code":2200723,"id":"84fbd6","name":"航空公園","name_kana":"こうくうこうえん","lat":35.798272,"lng":139.465641,"prefecture":11,"lines":[22007],"attr":"eco","postal_code":"359-0042","address":"所沢市並木２-４-１","next":[2200117,1130506,2100118,2200131,2200724],"voronoi":{"lat":35.797523,"lng":139.457339,"delta_lat":[0,-8122,16921,25121,2581],"delta_lng":[0,7523,25647,1907,-2791]},"impl":true},
    {"code":1130506,"left":2200114,"right":2100118,"id":"87a22f","name":"東所沢","name_kana":"ひがしところざわ","lat":35.79461,"lng":139.513878,"prefecture":11,"lines":[11305],"attr":"heat","postal_code":"359-0022","address":"所沢市本郷１丁目","next":[2200115,2200723,2200116,1130505,1130507,2100116,2200131,2100118,2100117],"voronoi":{"lat":35.829098,"lng":139.508723,"delta_lat":[0,2346,-25121,-4467,-2026,-18302,7400,28484,1260],"delta_lng":[0,-16306,-1907,880,1625,16884,27433,-6173,-1489]},"impl":true},
    {"code":2200114,"left":2200115,"id":"214e4a","name":"東久留米","name_kana":"ひがしくるめ","lat":35.760445,"lng":139.533739,"prefecture":13,"lines":[22001],"attr":"cool","postal_code":"203-0014","address":"東久留米市東本町１-８","next":[1130507,2200717,2200115,2200113,2200718],"voronoi":{"lat":35.749738,"lng":139.51269,"delta_lat":[0,34102,-7020,-34017,-751],"delta_lng":[0,29055,13478,-25163,-4510]},"impl":true},
    {"code":2200115,"id":"ff8f93","name":"清瀬","name_kana":"きよせ","lat":35.772221,"lng":139.519917,"prefecture":13,"lines":[22001],"attr":"eco","postal_code":"204-0021","address":"清瀬市元町１-２-４","next":[1130506,2200718,1130507,2200116,2200719,2200114],"voronoi":{"lat":35.749738,"lng":139.51269,"delta_lat":[0,527,5524,25738,7400,-5087],"delta_lng":[0,-3631,-6198,7038,27433,4413]},"impl":true},
    {"code":2100118,"id":"e02127","name":"ふじみ野","name_kana":"ふじみの","lat":35.860735,"lng":139.523389,"prefecture":11,"lines":[21001],"attr":"eco","postal_code":"354-0031","address":"富士見市大字勝瀬３３４７","next":[2200724,1132203,1132204,2100119,1130506,2200723,2100117],"voronoi":{"lat":35.884902,"lng":139.549556,"delta_lat":[0,-1378,-44573,-4927,-2581,-2346,50796],"delta_lng":[0,-13624,-50384,4078,2791,16306,47616]},"impl":true},
    {"code":2200113,"left":2200111,"right":2100113,"id":"c2cac5","name":"ひばりヶ丘","name_kana":"ひばりがおか","lat":35.751485,"lng":139.545852,"prefecture":13,"lines":[22001],"attr":"cool","postal_code":"202-0005","address":"東京都西東京市住吉町三丁目","next":[2200112,1130507,2200716,2200114,2200717],"voronoi":{"lat":35.741924,"lng":139.555621,"delta_lat":[0,33808,1089,-34017,-4017],"delta_lng":[0,5037,-5436,-25163,14733]},"impl":true},
    {"code":2200111,"left":2200715,"right":2200109,"id":"77a7c6","name":"大泉学園","name_kana":"おおいずみがくえん","lat":35.749406,"lng":139.586732,"prefecture":13,"lines":[22001],"attr":"cool","postal_code":"178-0063","address":"練馬区東大泉１-２９-７","next":[2100112,2200110,2100111,2200713,2200112,2200714],"voronoi":{"lat":35.740301,"lng":139.577774,"delta_lat":[0,37973,-5099,-6294,-27841,-2262],"delta_lng":[0,-2369,17762,9575,-8033,-9487]},"impl":true},
    {"code":2200715,"left":2200714,"right":2200112,"id":"238aed","name":"東伏見","name_kana":"ひがしふしみ","lat":35.728761,"lng":139.563529,"prefecture":13,"lines":[22007],"attr":"heat","postal_code":"202-0021","address":"西東京市東伏見２-５-１","next":[2200716,2200112,2200714,1131105],"voronoi":{"lat":35.737372,"lng":139.570801,"delta_lat":[0,2809,-23996,-1304],"delta_lng":[0,-12943,304,10613]},"impl":true},
    {"code":2200714,"left":2200716,"id":"b727c7","name":"武蔵関","name_kana":"むさしせき","lat":35.7276,"lng":139.576417,"prefecture":13,"lines":[22007],"attr":"heat","postal_code":"177-0051","address":"練馬区関町北２-２９-１","next":[1131104,2200112,2200715,2200713,2200111,1131105],"voronoi":{"lat":35.716083,"lng":139.583379,"delta_lat":[0,20695,3523,-2929,-22491,-656],"delta_lng":[0,1843,-7448,-6973,-2026,1017]},"impl":true},
    {"code":2200716,"id":"26f830","name":"西武柳沢","name_kana":"せいぶやぎさわ","lat":35.728621,"lng":139.552477,"prefecture":13,"lines":[22007],"attr":"heat","postal_code":"202-0015","address":"西東京市保谷町３-１１-２４","next":[2200715,1131105,2200113,2200717,2200112,1131221],"voronoi":{"lat":35.715641,"lng":139.547093,"delta_lat":[0,23145,3137,-1743,-23996,-2032],"delta_lng":[0,-2300,10829,2236,304,-6715]},"impl":true},
    {"code":2200112,"id":"b2c5f9","name":"保谷","name_kana":"ほうや","lat":35.748222,"lng":139.567753,"prefecture":13,"lines":[22001],"attr":"cool","postal_code":"202-0012","address":"西東京市東町３-１４-３０","next":[2100112,2200113,2200715,2200714,2200111,1130507,2200716],"voronoi":{"lat":35.741924,"lng":139.555621,"delta_lat":[0,33808,2917,-375,-37973,-2929,2809],"delta_lng":[0,5037,14189,557,2369,-6973,-12943]},"impl":true},
    {"code":2200109,"left":2200712,"right":2200110,"id":"368b05","name":"練馬高野台","name_kana":"ねりまたかのだい","lat":35.740622,"lng":139.616749,"prefecture":13,"lines":[22001],"attr":"heat","postal_code":"177-0033","address":"練馬区高野台１-７-２７","next":[2200110,9930138,2200711,2200710,2200712,2200108],"voronoi":{"lat":35.732405,"lng":139.621074,"delta_lat":[0,-174,1013,243,20811,-7231],"delta_lng":[0,-367,-11163,-269,6266,10921]},"impl":true},
    {"code":2200712,"left":2200713,"id":"6f7fae","name":"上井草","name_kana":"かみいぐさ","lat":35.725326,"lng":139.602937,"prefecture":13,"lines":[22007],"attr":"heat","postal_code":"167-0023","address":"杉並区上井草３-３２-１","next":[1131218,2200711,2200110,2200713,2200109],"voronoi":{"lat":35.733488,"lng":139.609274,"delta_lat":[0,2407,-20579,-1959,19888],"delta_lng":[0,-10853,-1665,11764,1023]},"impl":true},
    {"code":2200713,"id":"4670c8","name":"上石神井","name_kana":"かみしゃくじい","lat":35.726189,"lng":139.592266,"prefecture":13,"lines":[22007],"attr":"heat","postal_code":"177-0044","address":"練馬区上石神井１-２-４５","next":[2200110,2200712,1131104,2200111,1131218,2200714],"voronoi":{"lat":35.739039,"lng":139.594708,"delta_lat":[0,-3145,-20579,-2395,3162,20695],"delta_lng":[0,3713,-1665,-7542,-5836,1843]},"impl":true},
    {"code":2200110,"id":"9b97c7","name":"石神井公園","name_kana":"しゃくじいこうえん","lat":35.743563,"lng":139.606981,"prefecture":13,"lines":[22001],"attr":"cool","postal_code":"177-0041","address":"練馬区石神井町３-２３-１０","next":[2200713,2200712,2200111,2200109,9930138,2100111],"voronoi":{"lat":35.76688,"lng":139.602742,"delta_lat":[0,-27841,-3145,-2407,20811,12040],"delta_lng":[0,-8033,3713,10853,6266,-8332]},"impl":true},
    {"code":2100113,"left":2100115,"right":2100112,"id":"88436c","name":"朝霞台","name_kana":"あさかだい","lat":35.814328,"lng":139.587189,"prefecture":11,"lines":[21001],"attr":"eco","postal_code":"351-0022","address":"朝霞市東弁財１-４-１７","next":[2100112,1130507,1130508,2100114],"voronoi":{"lat":35.805562,"lng":139.572954,"delta_lat":[0,-12403,19830,2791],"delta_lng":[0,4227,26565,-24070]},"impl":true},
    {"code":2100115,"left":2100114,"right":2100116,"id":"5610b2","name":"柳瀬川","name_kana":"やなせがわ","lat":35.830723,"lng":139.562071,"prefecture":11,"lines":[21001],"attr":"eco","postal_code":"353-0006","address":"志木市館２-５-１","next":[1130509,1132117,2100116,1130507,2100114],"voronoi":{"lat":35.816593,"lng":139.562354,"delta_lat":[0,3331,52081,-11083,-1172],"delta_lng":[0,-15608,34641,8701,239]},"impl":true},
    {"code":2100114,"left":1130507,"id":"14db1b","name":"志木","name_kana":"しき","lat":35.822105,"lng":139.575367,"prefecture":11,"lines":[21001],"attr":"eco","postal_code":"352-0001","address":"新座市東北２-３８-１","next":[1130507,2100115,2100113,1130508,1130509],"voronoi":{"lat":35.859751,"lng":139.590327,"delta_lat":[0,-43157,-11031,10218,29893],"delta_lng":[0,-27973,10600,6722,16578]},"impl":true},
    {"code":1130507,"id":"2cd2eb","name":"新座","name_kana":"にいざ","lat":35.80381,"lng":139.556328,"prefecture":11,"lines":[11305],"attr":"heat","postal_code":"352-0011","address":"新座市野火止５丁目","next":[2100114,2100113,2200115,2200114,2100115,2200113,1130506,2100116,2200112,2100112],"voronoi":{"lat":35.778648,"lng":139.574847,"delta_lat":[0,-2917,1089,7020,5087,28484,2513,-3331,-11031,-12403],"delta_lng":[0,-14189,-5436,-13478,-4413,-6173,15587,15608,10600,4227]},"impl":true},
    {"code":2100116,"id":"1a226a","name":"みずほ台","name_kana":"みずほだい","lat":35.838233,"lng":139.55078,"prefecture":11,"lines":[21001],"attr":"eco","postal_code":"354-0015","address":"富士見市東みずほ台２-２９-１","next":[1132117,2100115,1132203,1130507,1130506,2100117],"voronoi":{"lat":35.873556,"lng":139.580507,"delta_lat":[0,-1550,-52081,-2513,1260,57236],"delta_lng":[0,880,-34641,-15587,-1489,37762]},"impl":true},
    {"code":2100112,"left":2100111,"right":1130508,"id":"6d88f5","name":"朝霞","name_kana":"あさか","lat":35.796736,"lng":139.600321,"prefecture":11,"lines":[21001],"attr":"eco","postal_code":"351-0011","address":"朝霞市本町２-１３-５２","next":[2200112,2100113,2100111,2200111,1130509,1130508,1130507],"voronoi":{"lat":35.778648,"lng":139.574847,"delta_lat":[0,-375,-5099,42591,4524,-7300,-19830],"delta_lng":[0,557,17762,28934,-7831,-10524,-26565]},"impl":true},
    {"code":2100111,"id":"3174d1","name":"和光市","name_kana":"わこうし","lat":35.788507,"lng":139.612434,"prefecture":11,"lines":[21001,28006,28010],"attr":"eco","postal_code":"351-0114","address":"埼玉県和光市本町4-6","open_date":"1934-02-01","next":[2100112,2200111,2100110,1130509,9930138,2800602,9930327,2200110],"voronoi":{"lat":35.76688,"lng":139.602742,"delta_lat":[0,6294,42591,-1283,-19776,-9064,-15552,-3752],"delta_lng":[0,-9575,28934,4673,1963,-4821,-9749,-6958]},"impl":true},
    {"code":1130508,"id":"e5f6ae","name":"北朝霞","name_kana":"きたあさか","lat":35.815475,"lng":139.587322,"prefecture":11,"lines":[11305],"attr":"heat","postal_code":"351-0033","address":"朝霞市浜崎１丁目","next":[1130509,2100113,2100112,2100114],"voronoi":{"lat":35.82029,"lng":139.614269,"delta_lat":[0,-7300,2791,29893],"delta_lng":[0,-10524,-24070,16578]},"impl":true}
  ]
}