{
  "name":"segment13",
  "root":1140711,
  "east":140.490448,
  "west":137.013148,
  "south":36.298547,
  "north":37.09614,
  "station_size":582,
  "node_list":[
    {"code":1140711,"left":9941204,"right":9933016,"id":"42da0e","name":"北飯山","name_kana":"きたいいやま","lat":36.85883,"lng":138.363765,"prefecture":20,"lines":[11407],"attr":"heat","postal_code":"389-2253","address":"飯山市大字飯山","next":[1140313,1140712,9940522,100907,1140312],"voronoi":{"lat":36.910362,"lng":138.302883,"delta_lat":[0,-77930,-5366,54780,4025],"delta_lng":[0,138170,-13409,-138349,354]}},
    {"code":9941204,"left":1140915,"right":9940817,"id":"d01ec8","name":"欅平","name_kana":"けやきだいら","lat":36.696732,"lng":137.658179,"prefecture":16,"lines":[99412],"attr":"eco","postal_code":"938-0000","address":"黒部市宇奈月町黒部字黒部奥山国有林４１い林小班","next":[1140923,1140925,1140928,1140924,1140922,1140927,9940914,1140929,9941203,1140918],"voronoi":{"lat":36.508679,"lng":137.660069,"delta_lat":[0,41457,42124,15207,62394,20947,44142,-43210,-207061,14103],"delta_lng":[0,32076,30067,8321,20288,4274,6021,-236986,110343,17116]}},
    {"code":1140915,"left":9940906,"right":9940319,"id":"373994","name":"北細野","name_kana":"きたほその","lat":36.406439,"lng":137.862725,"prefecture":20,"lines":[11409],"attr":"eco","postal_code":"399-8501","address":"北安曇郡松川村細野","next":[1141209,9940714,1140914,9940914,1141207,1140916],"voronoi":{"lat":36.432344,"lng":137.937056,"delta_lat":[0,-9583,-88822,11777,9308,77763],"delta_lng":[0,-7481,-276573,-62182,3942,342223]}},
    {"code":9940906,"left":9940908,"right":9941304,"id":"aba330","name":"下段","name_kana":"しただん","lat":36.647899,"lng":137.317735,"prefecture":16,"lines":[99409],"attr":"eco","postal_code":"930-0235","address":"中新川郡立山町榎","next":[9940905,9941012,9940907,9940810],"voronoi":{"lat":36.637978,"lng":137.29382,"delta_lat":[0,10894,9604,-11426],"delta_lng":[0,-7329,76297,16212]}},
    {"code":9940908,"left":9940909,"right":1140924,"id":"31f4bf","name":"沢中山","name_kana":"さわなかやま","lat":36.622207,"lng":137.320972,"prefecture":16,"lines":[99409],"attr":"cool","postal_code":"930-1368","address":"中新川郡立山町岩峅寺","next":[9941014,9940909,9940911,9941013,9940907,9940913,9940910],"voronoi":{"lat":36.635213,"lng":137.381531,"delta_lat":[0,2052,-12003,-192,-9406,-3160,2317],"delta_lng":[0,1298,-79192,96,10659,42112,6339]}},
    {"code":9940909,"left":1141634,"right":9941012,"id":"3af27c","name":"岩峅寺","name_kana":"いわくらじ","lat":36.608214,"lng":137.319922,"prefecture":16,"lines":[99409,99410],"attr":"cool","postal_code":"930-1368","address":"中新川郡立山町岩峅寺","next":[9940908,9941014,9940910],"voronoi":{"lat":36.586975,"lng":137.314116,"delta_lat":[0,28690,-3160],"delta_lng":[0,276,42112]}},
    {"code":1141634,"left":1141639,"right":1141637,"id":"eead04","name":"打保","name_kana":"うつぼ","lat":36.383737,"lng":137.181902,"prefecture":21,"lines":[11416],"attr":"eco","postal_code":"509-4545","address":"飛騨市宮川町打保","next":[1141636,1141713,1141635,1141633,1141629,1141630,1141628],"voronoi":{"lat":36.315911,"lng":137.293122,"delta_lat":[0,-3733,182,133641,896,-89420,-27729],"delta_lng":[0,-70548,-1838,-182339,442,281135,43463]}},
    {"code":1141639,"left":1141633,"right":1141640,"id":"811698","name":"東八尾","name_kana":"ひがしやつお","lat":36.589645,"lng":137.174978,"prefecture":16,"lines":[11416],"attr":"cool","postal_code":"939-2314","address":"富山市八尾町城生","next":[1141640,9941010,9941007,9941006,1141638,1141642,1141641,9941009],"voronoi":{"lat":36.604426,"lng":137.214747,"delta_lat":[0,-81194,92914,11128,4156,-530,-4748,-11421],"delta_lng":[0,-61278,4433,11768,21280,754,5486,10488]}},
    {"code":1141633,"left":1141632,"id":"8d927b","name":"坂上","name_kana":"さかかみ","lat":36.327902,"lng":137.140979,"prefecture":21,"lines":[11416],"attr":"eco","postal_code":"509-4423","address":"飛騨市宮川町林","next":[1141713,1141630,1141634,1141632,1141631],"voronoi":{"lat":36.294639,"lng":137.146484,"delta_lat":[0,127505,23858,-133641,-15392],"delta_lng":[0,-127440,19353,182339,-43350]}},
    {"code":1141632,"id":"0d6e52","name":"角川","name_kana":"つのがわ","lat":36.30016,"lng":137.113223,"prefecture":21,"lines":[11416],"attr":"eco","postal_code":"509-4302","address":"飛騨市河合町小無雁","next":[1141713,9941616,9952538,1141631,1141633],"voronoi":{"lat":36.130957,"lng":136.95073,"delta_lat":[0,97956,8640,184591,-127505],"delta_lng":[0,-127951,2684,193580,127440]}},
    {"code":1141640,"id":"ae9f40","name":"越中八尾","name_kana":"えっちゅうやつお","lat":36.591391,"lng":137.138379,"prefecture":16,"lines":[11416],"attr":"cool","postal_code":"939-2376","address":"富山市八尾町福島","next":[1141709,1141713,1141639,1141638,1141708,1141637,1141707,1141635,1141641,1141706,1141705],"voronoi":{"lat":36.57839,"lng":137.037355,"delta_lat":[0,-1197,-23856,-27887,-8723,-49533,28390,11680,15968,92914,-15494],"delta_lng":[0,-292,-3327,-2110,116,14518,92788,8025,6395,4433,-112101]}},
    {"code":1141637,"left":1141636,"right":1141638,"id":"1a2a30","name":"楡原","name_kana":"にれはら","lat":36.529323,"lng":137.22872,"prefecture":16,"lines":[11416],"attr":"heat","postal_code":"939-2184","address":"富山市楡原","next":[9940910,1141640,9941013,1141638,1141635,1141636],"voronoi":{"lat":36.488748,"lng":137.160243,"delta_lat":[0,6837,11680,61236,-17752,-38958],"delta_lng":[0,-21194,8025,116236,21326,19263]}},
    {"code":1141636,"left":1141635,"id":"c6f0b0","name":"猪谷","name_kana":"いのたに","lat":36.471625,"lng":137.237975,"prefecture":16,"lines":[11416],"attr":"heat","postal_code":"939-2187","address":"富山市猪谷８８７","next":[1141634,9940913,1141627,9940911,1141628,1141635,9940910,1141637,9940912],"voronoi":{"lat":36.446271,"lng":137.363349,"delta_lat":[0,38721,26799,-23043,-131270,-27729,-147,2074,47396],"delta_lng":[0,-29105,-30346,-143656,159731,43463,1734,77139,-31037]}},
    {"code":1141635,"id":"ebb714","name":"杉原","name_kana":"すぎはら","lat":36.415806,"lng":137.192102,"prefecture":21,"lines":[11416],"attr":"eco","postal_code":"509-4542","address":"飛騨市宮川町杉原","next":[1141636,1141634,1141713,1141637,1141640],"voronoi":{"lat":36.488748,"lng":137.160243,"delta_lat":[0,-131270,89420,20297,28390],"delta_lng":[0,159731,-281135,7422,92788]}},
    {"code":1141638,"id":"4b9b53","name":"笹津","name_kana":"ささづ","lat":36.562129,"lng":137.211437,"prefecture":16,"lines":[11416],"attr":"heat","postal_code":"939-2223","address":"富山市笹津","next":[1141640,9941011,1141639,9941013,9941012,1141637,9941010],"voronoi":{"lat":36.585466,"lng":137.248343,"delta_lat":[0,-16312,-654,-61236,15968,81194,-9024],"delta_lng":[0,14597,370,-116236,6395,61278,21279]}},
    {"code":9941012,"left":9941010,"right":9941013,"id":"0e01f5","name":"大庄","name_kana":"おおしょう","lat":36.619565,"lng":137.275618,"prefecture":16,"lines":[99410],"attr":"eco","postal_code":"930-1304","address":"富山市南大場１３１","next":[9940905,9940906,9941011,1141638,9941013,9940907],"voronoi":{"lat":36.569155,"lng":137.26294,"delta_lat":[0,16312,65055,-1649,-10894,-4215],"delta_lng":[0,-14597,36616,1532,7329,1328]}},
    {"code":9941010,"left":9941011,"right":9941009,"id":"ec50ba","name":"開発","name_kana":"かいほつ","lat":36.636207,"lng":137.242854,"prefecture":16,"lines":[99410],"attr":"heat","postal_code":"939-8132","address":"富山市月岡町６-５９１","next":[1141639,9941009,1141638,9940804,9941011],"voronoi":{"lat":36.663173,"lng":137.266411,"delta_lat":[0,-48441,-10305,-9024,67198],"delta_lng":[0,-58733,7069,21279,31921]}},
    {"code":9941011,"left":1141641,"id":"f6a494","name":"月岡(富山)","name_kana":"つきおか","lat":36.626475,"lng":137.263341,"prefecture":16,"lines":[99410],"attr":"heat","postal_code":"939-8132","address":"富山市月岡町２-２８２","next":[9940905,1141638,9940904,9941012,9940804,9941010],"voronoi":{"lat":36.662273,"lng":137.276189,"delta_lat":[0,-10468,-1284,-65055,9936,67198],"delta_lng":[0,8020,750,-36616,-12317,31921]}},
    {"code":1141641,"id":"a12cba","name":"千里(富山)","name_kana":"ちさと","lat":36.634678,"lng":137.132396,"prefecture":16,"lines":[11416],"attr":"eco","postal_code":"939-2622","address":"富山市婦中町千里","next":[1141704,1141703,1141642,1141705,1141639,1141553,1141640],"voronoi":{"lat":36.600652,"lng":137.0458,"delta_lat":[0,35205,10824,5478,26886,-51771,-11128],"delta_lng":[0,4442,3619,2875,58530,54403,-11768]}},
    {"code":9941009,"id":"1ced71","name":"布市","name_kana":"ぬのいち","lat":36.645178,"lng":137.235455,"prefecture":16,"lines":[99410],"attr":"heat","postal_code":"939-8191","address":"富山市布市７４７","next":[9941008,9941010,9940804,1141639,9941007],"voronoi":{"lat":36.663902,"lng":137.265134,"delta_lat":[0,-730,-48441,11421,6818],"delta_lng":[0,1276,-58733,-10488,10495]}},
    {"code":9941013,"left":9941014,"right":9940907,"id":"1b8ce6","name":"上滝","name_kana":"かみだき","lat":36.609622,"lng":137.295564,"prefecture":16,"lines":[99410],"attr":"eco","postal_code":"930-1313","address":"富山市中滝２６０-１","next":[9940908,1141638,1141637,9941014,9941012,9940910,9940907],"voronoi":{"lat":36.62507,"lng":137.303733,"delta_lat":[0,-54286,-20036,17752,654,64609,-8501],"delta_lng":[0,-5364,-13734,-21326,-370,32208,8490]}},
    {"code":9941014,"id":"a3772f","name":"大川寺","name_kana":"だいせんじ","lat":36.608322,"lng":137.308721,"prefecture":16,"lines":[99410],"attr":"eco","postal_code":"930-1312","address":"富山市上滝１１","next":[9940910,9940908,9940909,9941013],"voronoi":{"lat":36.570784,"lng":137.298369,"delta_lat":[0,16190,28690,9406],"delta_lng":[0,15747,276,-10659]}},
    {"code":9940907,"id":"ca513d","name":"釜ヶ淵","name_kana":"かまがふち","lat":36.633317,"lng":137.319288,"prefecture":16,"lines":[99409],"attr":"eco","postal_code":"930-0241","address":"富山県中新川郡立山町道源寺","next":[9940913,9940810,9940908,9940906,9941012,9941013],"voronoi":{"lat":36.637266,"lng":137.38283,"delta_lat":[0,5471,4314,-9072,-4215,-8501],"delta_lng":[0,4180,-8010,-85180,1328,8490]}},
    {"code":1140924,"left":1140919,"right":9940914,"id":"ce7fa2","name":"海ノ口","name_kana":"うみのくち","lat":36.565652,"lng":137.841824,"prefecture":20,"lines":[11409],"attr":"cool","postal_code":"398-0001","address":"大町市大字平字下海道","next":[1140925,1140926,1140923,9941204],"voronoi":{"lat":36.576975,"lng":137.875129,"delta_lat":[0,-12521,-14319,42124],"delta_lng":[0,38085,-221068,30067]}},
    {"code":1140919,"left":1140922,"right":1140920,"id":"2896a2","name":"南大町","name_kana":"みなみおおまち","lat":36.491536,"lng":137.856269,"prefecture":20,"lines":[11409],"attr":"cool","postal_code":"398-0002","address":"大町市大町字大新田","next":[1140917,1140922,1140921,1140920,1140918],"voronoi":{"lat":36.46801,"lng":137.904283,"delta_lat":[0,37390,1395,-5995,-31960],"delta_lng":[0,-60695,-22087,-26232,84563]}},
    {"code":1140922,"left":1140917,"right":1140923,"id":"4edc91","name":"信濃木崎","name_kana":"しなのきざき","lat":36.535643,"lng":137.846189,"prefecture":20,"lines":[11409],"attr":"cool","postal_code":"398-0001","address":"大町市大字平字木崎","next":[1140918,1140923,1140919,1140921,9941204],"voronoi":{"lat":36.498781,"lng":137.651589,"delta_lat":[0,2019,5995,48137,-46254],"delta_lng":[0,143679,26232,74255,-235686]}},
    {"code":1140917,"left":1140918,"id":"5b5190","name":"安曇沓掛","name_kana":"あずみくつかけ","lat":36.447795,"lng":137.854784,"prefecture":20,"lines":[11409],"attr":"eco","postal_code":"398-0004","address":"大町市大字常盤区須沼","next":[1140919,1140920,1141209,1140918,1140916],"voronoi":{"lat":36.418726,"lng":137.751145,"delta_lat":[0,50115,-830,-4406,-14354],"delta_lng":[0,128686,24451,33581,-1528]}},
    {"code":1140918,"id":"e3e258","name":"信濃常盤","name_kana":"しなのときわ","lat":36.467403,"lng":137.847148,"prefecture":20,"lines":[11409],"attr":"eco","postal_code":"398-0004","address":"大町市大字常盤区下一本木","next":[1140922,1140916,1140919,1140917,9941204,9940914],"voronoi":{"lat":36.498781,"lng":137.651589,"delta_lat":[0,2019,-31960,-50115,-39308,105261],"delta_lng":[0,143679,84563,-128686,-147012,30340]}},
    {"code":1140923,"id":"4f3920","name":"稲尾","name_kana":"いなお","lat":36.554058,"lng":137.842575,"prefecture":20,"lines":[11409],"attr":"cool","postal_code":"398-0001","address":"大町市大字平字道下","next":[1140922,9941204,1140921,1140924,1140926],"voronoi":{"lat":36.564455,"lng":137.913214,"delta_lat":[0,-14319,-41457,46254,8727],"delta_lng":[0,-221068,-32076,235686,20766]}},
    {"code":1140920,"left":1140916,"right":1140921,"id":"757cec","name":"信濃大町","name_kana":"しなのおおまち","lat":36.50031,"lng":137.861674,"prefecture":20,"lines":[11409],"attr":"cool","postal_code":"398-0002","address":"大町市大字大町","next":[1140921,1140917,1140919,1141209,1141210],"voronoi":{"lat":36.527564,"lng":137.966774,"delta_lat":[0,-63959,4406,37390,27124],"delta_lng":[0,-28911,-33581,-60695,124394]}},
    {"code":1140916,"id":"a3581d","name":"信濃松川","name_kana":"しなのまつかわ","lat":36.424456,"lng":137.858631,"prefecture":20,"lines":[11409],"attr":"eco","postal_code":"399-8501","address":"北安曇郡松川村赤芝","next":[9940914,1141209,1140915,1140918,1140917],"voronoi":{"lat":36.432787,"lng":137.936986,"delta_lat":[0,-77763,24394,39308,30525],"delta_lng":[0,-342223,9371,147012,185190]}},
    {"code":1140921,"id":"c2dfcb","name":"北大町","name_kana":"きたおおまち","lat":36.517558,"lng":137.857913,"prefecture":20,"lines":[11409],"attr":"cool","postal_code":"398-0002","address":"大町市大字大町字荒沢","next":[1140923,1140919,1140922,1141213,1140920,1140926,1141210],"voronoi":{"lat":36.532525,"lng":137.967981,"delta_lat":[0,-27124,1395,48137,8727,2023,-439],"delta_lng":[0,-124394,-22087,74255,20766,62177,61]}},
    {"code":9940914,"left":9940913,"right":1140926,"id":"3e6079","name":"立山","name_kana":"たてやま","lat":36.583253,"lng":137.445234,"prefecture":16,"lines":[99409],"attr":"heat","postal_code":"930-1406","address":"中新川郡立山町芦峅寺ブナ坂","next":[1140916,9940714,1141627,9941203,9940810,1140915,9940838,9941204,9940820,9940913,1140918],"voronoi":{"lat":36.69174,"lng":137.52413,"delta_lat":[0,3436,15632,-443,-61250,-325492,-34045,56138,9308,24394,105261],"delta_lng":[0,-2520,-26271,-1929,-84721,54781,68672,58678,3942,9371,30340]}},
    {"code":9940913,"left":9940912,"right":9940910,"id":"de8a5e","name":"本宮(富山)","name_kana":"ほんぐう","lat":36.574919,"lng":137.395716,"prefecture":16,"lines":[99409],"attr":"heat","postal_code":"930-1455","address":"富山市本宮","next":[9940907,1141636,9940911,9940810,1141627,9940908,9940912,9940914],"voronoi":{"lat":36.331675,"lng":137.442309,"delta_lat":[0,47396,242787,13355,2052,5471,6378,-325492],"delta_lng":[0,-31037,-29028,-713,1298,4180,21680,54781]}},
    {"code":9940912,"left":9940911,"id":"1423f2","name":"有峰口","name_kana":"ありみねぐち","lat":36.573066,"lng":137.380218,"prefecture":16,"lines":[99409],"attr":"heat","postal_code":"930-1456","address":"富山市小見","next":[9940913,9940911,1141636],"voronoi":{"lat":36.446271,"lng":137.363349,"delta_lat":[0,175588,-242787],"delta_lng":[0,18895,29028]}},
    {"code":9940911,"id":"03ee4c","name":"千垣","name_kana":"ちがき","lat":36.573752,"lng":137.373843,"prefecture":16,"lines":[99409],"attr":"cool","postal_code":"930-1408","address":"中新川郡立山町千垣","next":[9940910,9940913,1141636,9940908,9940912],"voronoi":{"lat":36.446271,"lng":137.363349,"delta_lat":[0,38721,129830,20392,-13355],"delta_lng":[0,-29105,28599,18688,713]}},
    {"code":9940910,"id":"427b15","name":"横江","name_kana":"よこえ","lat":36.582175,"lng":137.335605,"prefecture":16,"lines":[99409],"attr":"cool","postal_code":"930-3277","address":"中新川郡立山町横江","next":[9940911,9941014,1141637,9940908,9940909,9941013,1141636],"voronoi":{"lat":36.614822,"lng":137.362843,"delta_lat":[0,-2317,-25530,-16190,-20036,-38958,-26799],"delta_lng":[0,-6339,-42388,-15747,-13734,19263,30346]}},
    {"code":1140926,"left":1140925,"right":1140927,"id":"793a33","name":"ヤナバスキー場前","name_kana":"やなばすきーじょうまえ","closed":true,"lat":36.605851,"lng":137.855039,"prefecture":20,"lines":[11409],"attr":"unknown","postal_code":"398-0001","address":"大町市大字平","open_date":"1985-12-24","closed_date":"2019-03-16","next":[1140931,1140924,1140925,1141213,1140927,1140928,1140923,1140929,1140921,1140930],"voronoi":{"lat":36.637512,"lng":137.993806,"delta_lat":[0,-71830,-2023,795,12521,38205,22556,5819,541,-5887],"delta_lng":[0,-15108,-62177,-3308,-38085,-41427,52267,36099,7022,60386]}},
    {"code":1140925,"id":"1f4f70","name":"簗場","name_kana":"やなば","lat":36.594666,"lng":137.844724,"prefecture":20,"lines":[11409],"attr":"cool","postal_code":"398-0001","address":"大町市大字平","next":[1140924,1140926,9941204,1140927],"voronoi":{"lat":36.607466,"lng":137.730533,"delta_lat":[0,-15207,-15284,38205],"delta_lng":[0,-8321,152916,-41427]}},
    {"code":1140927,"id":"aac8b3","name":"南神城","name_kana":"みなみかみしろ","lat":36.637105,"lng":137.841551,"prefecture":20,"lines":[11409],"attr":"cool","postal_code":"399-9211","address":"北安曇郡白馬村大字神城","next":[1140926,1140925,9941204,1140928],"voronoi":{"lat":36.669861,"lng":137.750822,"delta_lat":[0,-62394,7714,22556],"delta_lng":[0,-20288,103168,52267]}},
    {"code":9941304,"left":9941321,"right":1140929,"id":"5e9c97","name":"小泉町(富山)","name_kana":"こいずみちょう","lat":36.678745,"lng":137.217779,"prefecture":16,"lines":[99413],"attr":"cool","postal_code":"939-8082","address":"富山市小泉町中部","next":[9941301,9941305,9941303,1141645,9941004],"voronoi":{"lat":36.667176,"lng":137.193488,"delta_lat":[0,-811,2583,10661,3708],"delta_lng":[0,10,8020,21988,339]}},
    {"code":9941321,"left":9941308,"right":9941315,"id":"b025f8","name":"中町","name_kana":"なかまち","lat":36.690306,"lng":137.215722,"prefecture":16,"lines":[99413],"attr":"cool","postal_code":"930-0083","address":"富山県富山市総曲輪","open_date":"2013-05-17","next":[9942204,9941309,9941003,9941308],"voronoi":{"lat":36.690324,"lng":137.224271,"delta_lat":[0,727,-1356,-339],"delta_lng":[0,-10567,803,9622]}},
    {"code":9941308,"left":9942204,"right":9941306,"id":"08db76","name":"西町","name_kana":"にしちょう","lat":36.689001,"lng":137.215676,"prefecture":16,"lines":[99413,99422],"attr":"cool","postal_code":"930-0062","address":"富山県富山市西町","open_date":"1913-09-01","next":[9942204,9941003,9941321,9941307],"voronoi":{"lat":36.689356,"lng":137.224129,"delta_lat":[0,339,-2090,299],"delta_lng":[0,-9622,71,9451]}},
    {"code":9942204,"left":1141645,"right":9942203,"id":"d58818","name":"グランドプラザ前","name_kana":"ぐらんどぷらざまえ","lat":36.688923,"lng":137.213386,"prefecture":16,"lines":[99422],"attr":"eco","postal_code":"930-0062","address":"富山県富山市西町１","open_date":"2009-12-23","next":[9941307,9942202,9941309,9942203,9941308,9941321],"voronoi":{"lat":36.691051,"lng":137.213703,"delta_lat":[0,111,-674,-5786,2903,2090],"delta_lng":[0,-119,-922,-1311,3226,-71]}},
    {"code":1141645,"left":1141642,"id":"954572","name":"婦中鵜坂","name_kana":"ふちゅううさか","lat":36.67814,"lng":137.168917,"prefecture":16,"lines":[11416],"attr":"eco","postal_code":"939-2701","address":"富山市婦中町西本郷字西本郷１１６２ノ３","next":[9941305,1141554,9941319,1141643,9941304,1141553,1141642,9941301],"voronoi":{"lat":36.654715,"lng":137.191766,"delta_lat":[0,38937,986,2324,-12150,-16162,-1474,-811],"delta_lng":[0,-64237,555,23399,31740,10181,83,10]}},
    {"code":1141642,"id":"eff87a","name":"速星","name_kana":"はやほし","lat":36.664135,"lng":137.160428,"prefecture":16,"lines":[11416],"attr":"eco","postal_code":"939-2706","address":"富山市婦中町速星","next":[9941006,1141641,1141639,9941301,1141553,1141645],"voronoi":{"lat":36.693651,"lng":137.12753,"delta_lat":[0,-14606,-51771,4156,20380,2904],"delta_lng":[0,-12263,54403,21280,1124,-307]}},
    {"code":9942203,"id":"b440ee","name":"大手モール","name_kana":"おおてもーる","lat":36.689388,"lng":137.211334,"prefecture":16,"lines":[99422],"attr":"eco","postal_code":"930-0083","address":"富山県富山市総曲輪四丁目6","open_date":"2009-12-23","next":[9941318,9941316,9941307,9941305,9941317,9942204,9941306,9942202],"voronoi":{"lat":36.684703,"lng":137.211351,"delta_lat":[0,-154,-6317,-727,6366,5503,1192,-77],"delta_lng":[0,-109,-8283,-1165,2870,3364,1552,3082]}},
    {"code":9941306,"left":9941305,"right":9941307,"id":"2d1131","name":"広貫堂前","name_kana":"こうかんどうまえ","lat":36.683357,"lng":137.215934,"prefecture":16,"lines":[99413],"attr":"cool","postal_code":"939-8085","address":"富山市中野新町","next":[9941305,9941003,9942203,9941307,9941004],"voronoi":{"lat":36.685315,"lng":137.224272,"delta_lat":[0,-766,-6317,6135,594],"delta_lng":[0,-13029,-8283,21152,256]}},
    {"code":9941305,"id":"2563fb","name":"西中野","name_kana":"にしなかの","lat":36.680844,"lng":137.216663,"prefecture":16,"lines":[99413],"attr":"cool","postal_code":"939-8083","address":"富山市西中野本町","next":[9941319,1141645,9941304,9942203,9941004,9941306,9941318],"voronoi":{"lat":36.678231,"lng":137.20296,"delta_lat":[0,6135,-1050,-16141,1474,101,8754],"delta_lng":[0,21152,-267,-30357,-83,66,8324]}},
    {"code":9941307,"id":"a053f5","name":"上本町","name_kana":"かみほんまち","lat":36.686282,"lng":137.215762,"prefecture":16,"lines":[99413],"attr":"cool","postal_code":"930-0057","address":"富山市上本町","next":[9942204,9941003,9942203,9941308,9941306],"voronoi":{"lat":36.684549,"lng":137.211243,"delta_lat":[0,154,2903,299,-2590],"delta_lng":[0,109,3226,9451,243]}},
    {"code":9941315,"left":9941316,"right":9942202,"id":"478080","name":"県庁前(富山)","name_kana":"けんちょうまえ","lat":36.695728,"lng":137.20984,"prefecture":16,"lines":[99413],"attr":"eco","postal_code":"930-0094","address":"富山市安住町","open_date":"2013-05-17","next":[9941314,9942202,9941318,9941310,9941316,9941317],"voronoi":{"lat":36.696322,"lng":137.205821,"delta_lat":[0,4234,-4401,-1645,-772,970],"delta_lng":[0,-2487,9734,-302,-2029,-3252]}},
    {"code":9941316,"left":9941317,"right":9941319,"id":"cc16f9","name":"丸の内(富山)","name_kana":"まるのうち","lat":36.692563,"lng":137.208896,"prefecture":16,"lines":[99413,99422],"attr":"eco","postal_code":"930-0085","address":"富山県富山市丸の内一丁目","open_date":"1913-09-01","next":[9942202,9942203,9941317,9941315],"voronoi":{"lat":36.694707,"lng":137.207484,"delta_lat":[0,-5334,1192,3172],"delta_lng":[0,544,1552,1156]}},
    {"code":9941317,"left":9941318,"id":"ca5e38","name":"諏訪川原","name_kana":"すわのかわら","lat":36.692322,"lng":137.206535,"prefecture":16,"lines":[99413],"attr":"eco","postal_code":"930-0088","address":"富山市諏訪川原","next":[9941316,9941318,9942203,9941315],"voronoi":{"lat":36.689374,"lng":137.208029,"delta_lat":[0,-5503,12451,-1614],"delta_lng":[0,-3364,1156,1664]}},
    {"code":9941318,"id":"73516d","name":"安野屋","name_kana":"やすのや","lat":36.692522,"lng":137.204382,"prefecture":16,"lines":[99413],"attr":"eco","postal_code":"930-0087","address":"富山市安野屋町","next":[9941319,9942203,9941317,9941315,9941314,9941305],"voronoi":{"lat":36.66875,"lng":137.19347,"delta_lat":[0,33211,-1406,-4234,-12451,-6366],"delta_lng":[0,8567,1296,2487,-1156,-2870]}},
    {"code":9941319,"id":"dcf9b0","name":"富山トヨペット本社前（五福末広町）","name_kana":"とやまとよぺっとほんしゃまえ（ごふくすえひろちょう）","lat":36.694834,"lng":137.19542,"prefecture":16,"lines":[99413],"attr":"eco","postal_code":"930-0887","address":"富山市五福","next":[9941305,1141643,9941318,1141645,9941314,9941320],"voronoi":{"lat":36.685855,"lng":137.183479,"delta_lat":[0,-1043,-16162,101,33211,3551],"delta_lng":[0,-256,10181,66,8567,-903]}},
    {"code":9942202,"left":9941309,"right":9941310,"id":"63ae7a","name":"国際会議場前","name_kana":"こくさいかいぎじょうまえ","lat":36.691654,"lng":137.21139,"prefecture":16,"lines":[99422],"attr":"cool","postal_code":"930-0084","address":"富山県富山市大手町","open_date":"2009-12-23","next":[9941316,9941309,9941310,9942204,9941315,9942203],"voronoi":{"lat":36.690565,"lng":137.20958,"delta_lat":[0,3172,772,-1355,-1992,-674],"delta_lng":[0,1156,2029,882,-63,-922]}},
    {"code":9941309,"id":"18aecf","name":"荒町","name_kana":"あらまち","lat":36.691513,"lng":137.215805,"prefecture":16,"lines":[99413],"attr":"heat","postal_code":"930-0028","address":"富山市荒町","open_date":"2013-05-17","next":[9941310,9942202,9940802,9942204,9941321,9941003],"voronoi":{"lat":36.690324,"lng":137.224271,"delta_lat":[0,727,111,1992,-430,-1520],"delta_lng":[0,-10567,-119,63,10317,500]}},
    {"code":9941310,"id":"8fbd69","name":"桜橋(富山)","name_kana":"さくらばし","lat":36.69461,"lng":137.215934,"prefecture":16,"lines":[99413],"attr":"heat","postal_code":"930-0029","address":"富山市本町","open_date":"2013-05-17","next":[9941314,9941309,9942202,9941315,9940802,9941311],"voronoi":{"lat":36.692724,"lng":137.223964,"delta_lat":[0,430,1355,1645,43,-636],"delta_lng":[0,-10317,-882,302,39,10489]}},
    {"code":1140929,"left":9941008,"right":9941003,"id":"e1fb02","name":"飯森","name_kana":"いいもり","lat":36.670563,"lng":137.85006,"prefecture":20,"lines":[11409],"attr":"cool","postal_code":"399-9211","address":"北安曇郡白馬村大字神城字飯森","next":[1140928,1140930,1140926,9941204,9941203],"voronoi":{"lat":36.734949,"lng":137.761116,"delta_lat":[0,-44142,-47252,541,91095],"delta_lng":[0,-6021,166972,7022,-167896]}},
    {"code":9941008,"left":9941005,"right":1140928,"id":"a0cc52","name":"小杉(富山地方鉄道)","name_kana":"こすぎ","lat":36.649433,"lng":137.233164,"prefecture":16,"lines":[99410],"attr":"cool","postal_code":"939-8063","address":"富山県富山市小杉","next":[9941009,9940804,9940803,9941004,9941007],"voronoi":{"lat":36.63297,"lng":137.207685,"delta_lat":[0,30932,3142,640,-1106],"delta_lng":[0,57450,-4709,-1586,-7476]}},
    {"code":9941005,"left":9941007,"right":9941301,"id":"e7eb8d","name":"南富山","name_kana":"みなみとやま","lat":36.670406,"lng":137.2205,"prefecture":16,"lines":[99410],"attr":"cool","postal_code":"939-8073","address":"富山市大町２１７-８","next":[9941302,9941004,9941301,9941006],"voronoi":{"lat":36.6563,"lng":137.202082,"delta_lat":[0,15446,29,-3242],"delta_lng":[0,20081,4549,2797]}},
    {"code":9941007,"left":9941006,"id":"9c6461","name":"上堀","name_kana":"かみほり","lat":36.65338,"lng":137.230127,"prefecture":16,"lines":[99410],"attr":"cool","postal_code":"939-8057","address":"富山市堀６１","next":[1141639,9941006,9941004,9941008,9941009],"voronoi":{"lat":36.666578,"lng":137.251363,"delta_lat":[0,-539,-35139,-4748,6818],"delta_lng":[0,-11421,-48239,5486,10495]}},
    {"code":9941006,"id":"178713","name":"朝菜町","name_kana":"あさなまち","lat":36.660579,"lng":137.224883,"prefecture":16,"lines":[99410],"attr":"cool","postal_code":"939-8072","address":"富山市堀川町１３-１３","next":[1141642,9941007,1141639,9941005,9941301,9941004],"voronoi":{"lat":36.6309,"lng":137.191703,"delta_lat":[0,530,20380,4490,12233,-2494],"delta_lng":[0,-754,1124,10008,27427,10434]}},
    {"code":9941301,"id":"1a3fe6","name":"南富山駅前","name_kana":"みなみとやまえきまえ","lat":36.670484,"lng":137.22044,"prefecture":16,"lines":[99413],"attr":"cool","postal_code":"939-8073","address":"富山市大町２１７-８","next":[9941303,9941304,1141642,9941005,9941006,1141645,9941302],"voronoi":{"lat":36.6563,"lng":137.202082,"delta_lat":[0,-4490,2904,11650,2583,2926,-127],"delta_lng":[0,-10008,-307,1731,8020,13033,7612]}},
    {"code":1140928,"left":9940905,"right":9940904,"id":"969c95","name":"神城","name_kana":"かみしろ","lat":36.658287,"lng":137.846586,"prefecture":20,"lines":[11409],"attr":"cool","postal_code":"399-9211","address":"北安曇郡白馬村大字神城","next":[1140929,9941204,1140926,1140927],"voronoi":{"lat":36.669861,"lng":137.750822,"delta_lat":[0,20947,-47252,-5819],"delta_lng":[0,4274,166972,-36099]}},
    {"code":9940905,"id":"2208a9","name":"榎町","name_kana":"えのきまち","lat":36.657559,"lng":137.316519,"prefecture":16,"lines":[99409],"attr":"eco","postal_code":"930-0221","address":"中新川郡立山町前沢","next":[9941011,9940904,9940906,9941012,9940903,9940810],"voronoi":{"lat":36.666614,"lng":137.353498,"delta_lat":[0,1028,-15836,-1284,-1649,9604],"delta_lng":[0,-18276,-51013,750,1532,76297]}},
    {"code":9940904,"id":"753d69","name":"五百石","name_kana":"ごひゃくこく","lat":36.665361,"lng":137.314097,"prefecture":16,"lines":[99409],"attr":"eco","postal_code":"930-0221","address":"中新川郡立山町前沢","next":[9940903,9940905,9941011,9940804,9940805],"voronoi":{"lat":36.667642,"lng":137.335222,"delta_lat":[0,-15836,10468,10439,5732],"delta_lng":[0,-51013,-8020,7330,9334]}},
    {"code":9941003,"left":9941004,"right":9940902,"id":"cba7a3","name":"不二越","name_kana":"ふじこし","lat":36.687848,"lng":137.232453,"prefecture":16,"lines":[99410],"attr":"cool","postal_code":"930-0966","address":"富山市石金２-１-１","next":[9940839,9940802,9941307,9940803,9941004,9941306,9941309,9941321,9941308,9941016],"voronoi":{"lat":36.68302,"lng":137.248104,"delta_lat":[0,-7562,9502,354,2590,1452,968,880,304,-4100],"delta_lng":[0,3969,-27706,-96,-243,100,142,194,2205,16479]}},
    {"code":9941004,"left":9941302,"right":9940802,"id":"a3b063","name":"大泉(富山)","name_kana":"おおいずみ","lat":36.677719,"lng":137.228979,"prefecture":16,"lines":[99410],"attr":"cool","postal_code":"939-8058","address":"富山市大泉１５２０","next":[9941302,9941305,9941005,9941303,9941007,9941008,9941003,9941304,9941006,9940803,9941306],"voronoi":{"lat":36.684367,"lng":137.224111,"delta_lat":[0,-1050,-3708,-3242,-4591,-3242,-2494,539,1106,7774,9502],"delta_lng":[0,-267,-339,692,2514,2797,10434,11421,7476,-6766,-27706]}},
    {"code":9941302,"left":9941303,"id":"021a81","name":"大町(富山)","name_kana":"おおまち","lat":36.673066,"lng":137.220483,"prefecture":16,"lines":[99413],"attr":"cool","postal_code":"939-8073","address":"富山市大町２区","next":[9941004,9941005,9941303,9941301],"voronoi":{"lat":36.671873,"lng":137.21455,"delta_lat":[0,4493,-4591,-29],"delta_lng":[0,9647,2514,-4549]}},
    {"code":9941303,"id":"813966","name":"堀川小泉","name_kana":"ほりかわこいずみ","lat":36.675647,"lng":137.219281,"prefecture":16,"lines":[99413],"attr":"cool","postal_code":"939-8081","address":"富山市堀川小泉町","next":[9941301,9941302,9941304,9941004],"voronoi":{"lat":36.679608,"lng":137.223505,"delta_lat":[0,-10661,2926,4493],"delta_lng":[0,-21988,13033,9647]}},
    {"code":9940802,"id":"eb5b28","name":"稲荷町(富山)","name_kana":"いなりまち","lat":36.696597,"lng":137.231247,"prefecture":16,"lines":[99408,99410],"attr":"eco","postal_code":"930-0012","address":"富山市稲荷町","next":[9940839,9941003,9941309,9941311,9941504,9941016,9941310,9941503],"voronoi":{"lat":36.707232,"lng":137.234987,"delta_lat":[0,-10903,-4820,-304,1520,2837,289,10575],"delta_lng":[0,1474,-9792,-2205,-500,-369,16,9624]}},
    {"code":9940902,"left":9940903,"right":9941016,"id":"9986c0","name":"稚子塚","name_kana":"ちごづか","lat":36.686595,"lng":137.317515,"prefecture":16,"lines":[99409],"attr":"eco","postal_code":"930-0208","address":"中新川郡立山町浦田","next":[9940807,9940903,9940806,9940805,9940808],"voronoi":{"lat":36.682387,"lng":137.296295,"delta_lat":[0,7446,4216,-2100,-8119],"delta_lng":[0,4657,7411,15798,11106]}},
    {"code":9940903,"id":"e70f10","name":"田添","name_kana":"たぞえ","lat":36.679759,"lng":137.317768,"prefecture":16,"lines":[99409],"attr":"eco","postal_code":"930-0219","address":"中新川郡立山町田添","next":[9940902,9940904,9940805,9940810,9940905,9940809,9940840,9940808],"voronoi":{"lat":36.677699,"lng":137.343128,"delta_lat":[0,-10488,-597,1028,10803,3942,1443,-198],"delta_lng":[0,9999,370,-18276,-42369,3442,38972,420]}},
    {"code":9941016,"id":"39311d","name":"栄町(富山)","name_kana":"さかえまち","lat":36.692032,"lng":137.233494,"prefecture":16,"lines":[99410],"attr":"cool","postal_code":"930-0966","address":"富山市石金1丁目","open_date":"2019-03-16","next":[9940839,9940802,9941003],"voronoi":{"lat":36.691508,"lng":137.22667,"delta_lat":[0,4820,-8920],"delta_lng":[0,9792,6687]}},
    {"code":9940319,"left":9940313,"right":9940607,"id":"75ef20","name":"千曲","name_kana":"ちくま","lat":36.509039,"lng":138.141661,"prefecture":20,"lines":[99403],"attr":"eco","postal_code":"387-0016","address":"長野県千曲市大字寂蒔200","next":[9940316,1141212,9940603,9940605,9940315],"voronoi":{"lat":36.482186,"lng":138.120656,"delta_lat":[0,27859,18350,-4776,-622],"delta_lng":[0,-3688,31364,29585,691]}},
    {"code":9940313,"left":1140913,"right":9940407,"id":"501cfb","name":"テクノさかき","name_kana":"てくのさかき","lat":36.440584,"lng":138.188204,"prefecture":20,"lines":[99403],"attr":"eco","postal_code":"389-0603","address":"埴科郡坂城町大字南条字社宮神４９１０-５番地","next":[9940314,9940312,1141211,9940415,9940414],"voronoi":{"lat":36.404229,"lng":138.150513,"delta_lat":[0,6785,23065,37176,-69550],"delta_lng":[0,-22580,3519,115301,-79531]}},
    {"code":1140913,"left":1141207,"right":1141211,"id":"69cc08","name":"安曇追分","name_kana":"あずみおいわけ","lat":36.371795,"lng":137.872736,"prefecture":20,"lines":[11409],"attr":"eco","postal_code":"399-8302","address":"安曇野市穂高北穂高","next":[1140911,9940714,1140914,1141207,1140912],"voronoi":{"lat":36.396235,"lng":137.911756,"delta_lat":[0,-66377,-15866,24439,41991],"delta_lng":[0,-239539,56574,87593,90441]}},
    {"code":1141207,"left":1140911,"right":9940414,"id":"b8549c","name":"明科","name_kana":"あかしな","lat":36.353948,"lng":137.929967,"prefecture":20,"lines":[11412],"attr":"cool","postal_code":"399-7102","address":"安曇野市明科中川手","next":[1140912,1141209,1140914,1141208,1140910,1140911,1141206,1140913,1140915,1140909],"voronoi":{"lat":36.324914,"lng":137.919217,"delta_lat":[0,14854,13851,26803,15813,26525,9583,-9169,-83424,-15259],"delta_lng":[0,-11214,-4287,3109,4931,17820,7481,8199,46976,-72230]}},
    {"code":1140911,"left":1140909,"right":1140912,"id":"62e3e1","name":"穂高","name_kana":"ほたか","lat":36.33906,"lng":137.881869,"prefecture":20,"lines":[11409],"attr":"eco","postal_code":"399-8303","address":"安曇野市穂高","next":[1140913,1141207,1140912,9940714,1140910],"voronoi":{"lat":36.291445,"lng":137.784725,"delta_lat":[0,22548,24439,15188,-13851],"delta_lng":[0,-55935,87593,87332,4287]}},
    {"code":1140909,"left":1140910,"id":"0652cc","name":"豊科","name_kana":"とよしな","lat":36.299957,"lng":137.900896,"prefecture":20,"lines":[11409],"attr":"eco","postal_code":"399-8205","address":"安曇野市豊科","next":[1140907,1141206,1140910,1140908,1141207],"voronoi":{"lat":36.324914,"lng":137.919217,"delta_lat":[0,-43962,1597,18435,23507],"delta_lng":[0,-79086,17240,63583,-952]}},
    {"code":1140910,"id":"8de090","name":"柏矢町","name_kana":"はくやちょう","lat":36.322529,"lng":137.888349,"prefecture":20,"lines":[11409],"attr":"eco","postal_code":"399-8304","address":"安曇野市穂高柏原","next":[9940714,1140907,9940713,1140909,1141207,1140911],"voronoi":{"lat":36.291445,"lng":137.784725,"delta_lat":[0,-9908,-6348,5764,43962,14854],"delta_lng":[0,19733,16811,18861,79086,-11214]}},
    {"code":1140912,"id":"654858","name":"有明(長野)","name_kana":"ありあけ","lat":36.359949,"lng":137.878236,"prefecture":20,"lines":[11409],"attr":"eco","postal_code":"399-8302","address":"安曇野市穂高北穂高","next":[1141207,1140911,1140913],"voronoi":{"lat":36.338431,"lng":137.816384,"delta_lat":[0,15188,26803],"delta_lng":[0,87332,3109]}},
    {"code":9940414,"left":9940415,"right":9940413,"id":"6bd0e1","name":"八木沢","name_kana":"やぎさわ","lat":36.358365,"lng":138.175786,"prefecture":20,"lines":[99404],"attr":"eco","postal_code":"386-1327","address":"上田市大字八木沢字表田中４３９-２","next":[9940312,9940415,9940413,9940313],"voronoi":{"lat":36.398902,"lng":138.172267,"delta_lat":[0,-98082,103410,-2524],"delta_lng":[0,17365,-39120,16709]}},
    {"code":9940415,"left":1141206,"id":"08f02e","name":"別所温泉","name_kana":"べっしょおんせん","lat":36.353121,"lng":138.161924,"prefecture":20,"lines":[99404],"attr":"eco","postal_code":"386-1431","address":"上田市大字別所温泉１８５３-３","next":[9940411,1131145,9940414,1131146,1141211,1140901,1140902,9940413,1141208,1141204,9940313,9940412],"voronoi":{"lat":36.188421,"lng":138.216038,"delta_lat":[0,1472,24832,36468,36707,7263,84080,31772,-6785,-103410,-20393,-19440],"delta_lng":[0,-9889,-90711,-27040,-22813,-4198,26555,39991,22580,39120,6325,4647]}},
    {"code":1141206,"id":"02fdea","name":"田沢","name_kana":"たざわ","lat":36.301583,"lng":137.941029,"prefecture":20,"lines":[11412],"attr":"eco","postal_code":"399-8203","address":"安曇野市豊科田沢","next":[1140905,1140903,1141208,1140904,1140909,1140907,1140908,1141207,1140902],"voronoi":{"lat":36.33975,"lng":137.992232,"delta_lat":[0,-15259,-23507,-18840,-7183,-321,-777,2599,22839],"delta_lng":[0,-72230,952,5245,5367,718,4538,37451,73954]}},
    {"code":9940413,"id":"2484d7","name":"舞田","name_kana":"まいた","lat":36.359621,"lng":138.18288,"prefecture":20,"lines":[99404],"attr":"eco","postal_code":"386-1326","address":"上田市大字舞田字柳堂４４-６","next":[9940414,9940406,9940415,9940412,9940312],"voronoi":{"lat":36.398902,"lng":138.172267,"delta_lat":[0,-98082,-20393,111394,2052],"delta_lng":[0,17365,6325,-10898,-1488]}},
    {"code":1141211,"left":1141209,"right":9940315,"id":"962da0","name":"冠着","name_kana":"かむりき","lat":36.457215,"lng":138.079223,"prefecture":20,"lines":[11412],"attr":"cool","postal_code":"399-7711","address":"東筑摩郡筑北村坂井大野田","next":[9940315,9940314,9940415,9940313,1141212,1141210,1141208],"voronoi":{"lat":36.403911,"lng":138.066958,"delta_lat":[0,83826,-17887,-25495,-10276,-23065,-31772],"delta_lng":[0,-5689,57374,12333,476,-3519,-39991]}},
    {"code":1141209,"left":1141208,"right":1141210,"id":"10e921","name":"坂北","name_kana":"さかきた","lat":36.430663,"lng":138.015754,"prefecture":20,"lines":[11412],"attr":"cool","postal_code":"399-7601","address":"東筑摩郡筑北村坂北","next":[1141208,1140915,1141207,1141210,1140916,1140917,1140920],"voronoi":{"lat":36.463604,"lng":137.937863,"delta_lat":[0,-14354,-16464,-443,-9169,-12366,116755],"delta_lng":[0,-1528,650,71,8199,110989,-89470]}},
    {"code":1141208,"left":1140914,"id":"e820df","name":"西条(長野)","name_kana":"にしじょう","lat":36.400353,"lng":138.012377,"prefecture":20,"lines":[11412],"attr":"cool","postal_code":"399-7501","address":"東筑摩郡筑北村西条","next":[1141206,1140902,1141209,1141207,1141210,9940415,1141211],"voronoi":{"lat":36.403911,"lng":138.066958,"delta_lat":[0,6897,12366,-83424,-40449,-4139,84080],"delta_lng":[0,-10713,-110989,46976,55995,13160,26555]}},
    {"code":1140914,"id":"69ea49","name":"細野","name_kana":"ほその","lat":36.397107,"lng":137.865722,"prefecture":20,"lines":[11409],"attr":"eco","postal_code":"399-8501","address":"北安曇郡松川村細野","next":[1140915,9940714,1141207,1140913],"voronoi":{"lat":36.329858,"lng":137.672216,"delta_lat":[0,4080,88822,-26525],"delta_lng":[0,-19214,276573,-17820]}},
    {"code":1141210,"id":"3ce908","name":"聖高原","name_kana":"ひじりこうげん","lat":36.455069,"lng":138.047603,"prefecture":20,"lines":[11412],"attr":"cool","postal_code":"399-7700","address":"東筑摩郡麻績村漆田","next":[1141212,1141213,1141209,1141208,1141211,1140921,1140920],"voronoi":{"lat":36.565244,"lng":137.97876,"delta_lat":[0,-3419,-74087,-83826,6897,116755,4961],"delta_lng":[0,5518,76991,5689,-10713,-89470,1207]}},
    {"code":9940315,"left":9940314,"right":1141212,"id":"476c72","name":"戸倉","name_kana":"とぐら","lat":36.492913,"lng":138.153017,"prefecture":20,"lines":[99403],"attr":"eco","postal_code":"389-0804","address":"千曲市大字戸倉１４４５番地","next":[1141211,9940314,9940319,9940605,1141212],"voronoi":{"lat":36.46985,"lng":138.118642,"delta_lat":[0,-25495,65895,12746,-40811],"delta_lng":[0,12333,72100,-24467,-57952]}},
    {"code":9940314,"id":"92b766","name":"坂城","name_kana":"さかき","lat":36.46195,"lng":138.181315,"prefecture":20,"lines":[99403],"attr":"eco","postal_code":"389-0601","address":"埴科郡坂城町坂城","next":[1141211,9940313,9940605,9940315,9940312,100905,9940606],"voronoi":{"lat":36.508996,"lng":138.220173,"delta_lat":[0,1254,-65895,-10276,37176,13188,14524],"delta_lng":[0,-17097,-72100,476,115301,21613,13966]}},
    {"code":1141212,"id":"9cd0f3","name":"姨捨","name_kana":"おばすて","lat":36.502649,"lng":138.093388,"prefecture":20,"lines":[11412],"attr":"cool","postal_code":"387-0023","address":"千曲市大字八幡","next":[1141210,9940319,1141211,1141213,9940315,9940316],"voronoi":{"lat":36.527105,"lng":138.10255,"delta_lat":[0,34719,-74087,-17887,12335,27859],"delta_lng":[0,-118272,76991,57374,2014,-3688]}},
    {"code":9940407,"left":9940409,"right":9940403,"id":"7b763f","name":"神畑","name_kana":"かばたけ","lat":36.377841,"lng":138.216965,"prefecture":20,"lines":[99404],"attr":"eco","postal_code":"386-1103","address":"上田市大字神畑字孤池９４-５","next":[9940406,9940410,9940409,9940408,9940404,9940403],"voronoi":{"lat":36.370775,"lng":138.22991,"delta_lat":[0,7877,535,2612,-4871,-6033],"delta_lng":[0,-28778,-641,25239,6391,4494]}},
    {"code":9940409,"left":9940410,"right":9940308,"id":"6555ff","name":"下之郷","name_kana":"しものごう","lat":36.363249,"lng":138.217227,"prefecture":20,"lines":[99404],"attr":"eco","postal_code":"386-1211","address":"上田市大字下之郷５１７-３","next":[9940410,9940402,9940310,9940403,9940407,9940308,9940411,9940408,1131145,9940309],"voronoi":{"lat":36.311656,"lng":138.261498,"delta_lat":[0,50792,5171,3276,-120,-4845,-29484,-151708,-9177,84625],"delta_lng":[0,-13877,-5925,-5080,-6705,-18941,87,19071,28790,6650]}},
    {"code":9940410,"left":9940411,"right":9940408,"id":"0ef39c","name":"中塩田","name_kana":"なかしおだ","lat":36.363212,"lng":138.204728,"prefecture":20,"lines":[99404],"attr":"eco","postal_code":"386-1324","address":"上田市大字五加字富在家１２２５-６","next":[9940409,9940408,9940411,9940407,9940412,9940406],"voronoi":{"lat":36.378652,"lng":138.201132,"delta_lat":[0,-12722,-29484,43257,2908,-3424],"delta_lng":[0,9837,87,-16000,-659,6094]}},
    {"code":9940411,"left":9940412,"id":"83794b","name":"塩田町","name_kana":"しおだまち","lat":36.360888,"lng":138.198445,"prefecture":20,"lines":[99404],"attr":"eco","postal_code":"386-1325","address":"上田市大字中野字兼田４０-２","next":[9940415,9940410,1131145,9940409,9940412],"voronoi":{"lat":36.188421,"lng":138.216038,"delta_lat":[0,-3682,151708,43257,-118717],"delta_lng":[0,14090,-19071,-16000,5548]}},
    {"code":9940412,"id":"4e3549","name":"中野(長野)","name_kana":"なかの","lat":36.360654,"lng":138.193438,"prefecture":20,"lines":[99404],"attr":"eco","postal_code":"386-1325","address":"上田市大字中野字池下４９６-４","next":[9940410,9940406,9940411,9940413,9940415],"voronoi":{"lat":36.280427,"lng":138.195958,"delta_lat":[0,111394,-9209,-2908,-118717],"delta_lng":[0,-10898,9338,659,5548]}},
    {"code":9940408,"id":"76ecdb","name":"大学前(長野)","name_kana":"だいがくまえ","lat":36.371287,"lng":138.215171,"prefecture":20,"lines":[99404],"attr":"eco","postal_code":"386-1211","address":"上田市大字下之郷字上迎２８４-５","next":[9940410,9940407,9940409],"voronoi":{"lat":36.378652,"lng":138.201132,"delta_lat":[0,-12722,4845],"delta_lng":[0,9837,18941]}},
    {"code":9940308,"left":9940307,"right":9940309,"id":"cc31a2","name":"田中","name_kana":"たなか","lat":36.354433,"lng":138.329414,"prefecture":20,"lines":[99403],"attr":"heat","postal_code":"389-0516","address":"東御市田中２７９番地","next":[1133518,9940309,9940409,1140114,9940307,1131145],"voronoi":{"lat":36.175562,"lng":138.258918,"delta_lat":[0,84625,238756,-18587,-317719,-1487],"delta_lng":[0,6650,111844,14834,-110288,-2223]}},
    {"code":9940307,"id":"03d0ea","name":"滋野","name_kana":"しげの","lat":36.342586,"lng":138.363543,"prefecture":20,"lines":[99403],"attr":"heat","postal_code":"389-0512","address":"東御市滋野乙９７７番地","next":[1140122,1133518,1140130,9940308,1140126,1140114,1140131],"voronoi":{"lat":36.480355,"lng":138.392245,"delta_lat":[0,-317719,19859,5832,67805,6322,186599],"delta_lng":[0,-110288,36525,5435,46504,2352,51850]}},
    {"code":9940309,"id":"769aa9","name":"大屋","name_kana":"おおや","lat":36.369566,"lng":138.297109,"prefecture":20,"lines":[99403],"attr":"heat","postal_code":"386-0152","address":"上田市大字大屋４５４番地","next":[9940308,1133518,100905,9940409,9940610,9940310],"voronoi":{"lat":36.311656,"lng":138.261498,"delta_lat":[0,-51470,238756,8959,-5741,-35283],"delta_lng":[0,4070,111844,-5570,-31354,-19934]}},
    {"code":9940403,"left":9940404,"right":9940402,"id":"eefb87","name":"三好町","name_kana":"みよしちょう","lat":36.391712,"lng":138.235585,"prefecture":20,"lines":[99404],"attr":"cool","postal_code":"386-0034","address":"上田市大字中之条字中満丁２４０-５","next":[9940404,9940409,9940402,100905,9940407,9940312],"voronoi":{"lat":36.413245,"lng":138.230336,"delta_lat":[0,-36316,-6033,-3276,40512,9204],"delta_lng":[0,1786,4494,5080,-4218,-3267]}},
    {"code":9940404,"left":9940405,"right":9940312,"id":"22dcd7","name":"赤坂上","name_kana":"あかさかうえ","lat":36.391301,"lng":138.227224,"prefecture":20,"lines":[99404],"attr":"heat","postal_code":"386-1102","address":"上田市大字上田原字一ノ口８７５-７","next":[9940403,9940406,9940407,9940312,9940405],"voronoi":{"lat":36.407282,"lng":138.222028,"delta_lat":[0,5962,-36316,4871,223],"delta_lng":[0,8307,1786,-6391,-152]}},
    {"code":9940405,"left":9940406,"id":"55559b","name":"上田原","name_kana":"うえだはら","lat":36.390488,"lng":138.221439,"prefecture":20,"lines":[99404],"attr":"heat","postal_code":"386-1102","address":"上田市大字上田原字屋鋪田６９７-５","next":[9940406,9940312,9940404],"voronoi":{"lat":36.407282,"lng":138.222028,"delta_lat":[0,-8641,-16619],"delta_lng":[0,-17987,21537]}},
    {"code":9940406,"id":"3fef12","name":"寺下","name_kana":"てらした","lat":36.38388,"lng":138.21634,"prefecture":20,"lines":[99404],"attr":"heat","postal_code":"386-1103","address":"上田市大字神畑字寺下６１６-１","next":[9940312,9940407,9940405,9940404,9940413,9940410,9940412],"voronoi":{"lat":36.39182,"lng":138.185059,"delta_lat":[0,2052,4769,-16619,-223,-2612,3424],"delta_lng":[0,-1488,20470,21537,152,-25239,-6094]}},
    {"code":9940312,"id":"aed65d","name":"西上田","name_kana":"にしうえだ","lat":36.417318,"lng":138.20855,"prefecture":20,"lines":[99403],"attr":"eco","postal_code":"386-0043","address":"上田市下塩尻屋敷３４１番地","next":[9940406,9940414,9940313,9940405,9940314,9940404,9940413,9940403,100905],"voronoi":{"lat":36.471255,"lng":138.246753,"delta_lat":[0,-69550,-2804,-5029,4769,8641,5962,4091,67108],"delta_lng":[0,-79531,5046,11304,20470,17987,8307,3875,34155]}},
    {"code":9940402,"left":9940310,"right":100905,"id":"a68492","name":"城下(長野)","name_kana":"しろした","lat":36.392454,"lng":138.242712,"prefecture":20,"lines":[99404],"attr":"cool","postal_code":"386-0032","address":"上田市大字諏訪形字中田９８２","next":[9940409,9940403,100905,9940310],"voronoi":{"lat":36.408131,"lng":138.237478,"delta_lat":[0,-40512,-5171,17129],"delta_lng":[0,4218,5925,7741]}},
    {"code":9940310,"id":"c37250","name":"信濃国分寺","name_kana":"しなのこくぶんじ","lat":36.378592,"lng":138.273385,"prefecture":20,"lines":[99403],"attr":"eco","postal_code":"386-0016","address":"上田市大字国分字浦沖１２４６番地の５","next":[9940409,9940402,100905,9940309],"voronoi":{"lat":36.379578,"lng":138.255362,"delta_lat":[0,-17129,-50792,155221],"delta_lng":[0,-7741,13877,59056]}},
    {"code":100905,"id":"f3b943","name":"上田","name_kana":"うえだ","lat":36.396579,"lng":138.249298,"prefecture":20,"lines":[1009,99403,99404],"attr":"eco","postal_code":"386-0025","address":"上田市天神１丁目１８８７番地","next":[9940606,9940403,9940402,9940310,9940610,9940314,9940309,9940312],"voronoi":{"lat":36.498967,"lng":138.282331,"delta_lat":[0,3959,-766,-35283,-87300,28554,9204,67108],"delta_lng":[0,13086,45070,-19934,-65192,-17884,-3267,34155]}},
    {"code":9940607,"left":1140301,"right":9940509,"id":"dbc56f","name":"金井山","name_kana":"かないやま","closed":true,"lat":36.591282,"lng":138.201443,"prefecture":20,"lines":[99406],"attr":"unknown","postal_code":"381-1214","address":"長野市松代町柴新引４６２-２","closed_date":"2012-04-01","next":[1140302,1140303,9940606,9940608,9940605,1140304,9940604,100906],"voronoi":{"lat":36.575701,"lng":138.221523,"delta_lat":[0,4832,4179,2862,9942,9633,7904,3969],"delta_lng":[0,-36542,-9782,-2274,789,4342,7771,16728]}},
    {"code":1140301,"left":9940603,"right":100906,"id":"6bd549","name":"篠ノ井","name_kana":"しののい","lat":36.5771,"lng":138.138046,"prefecture":20,"lines":[11403,11412,99403],"attr":"cool","postal_code":"388-8007","address":"長野市篠ノ井布施高田","next":[9940317,1141213,1140302,9940603,9940604],"voronoi":{"lat":36.607284,"lng":138.088442,"delta_lat":[0,-42499,-3098,2922,15460],"delta_lng":[0,34679,16304,8214,10256]}},
    {"code":9940603,"left":9940317,"right":9940605,"id":"7e11cc","name":"雨宮","name_kana":"あめのみや","closed":true,"lat":36.548865,"lng":138.14809,"prefecture":20,"lines":[99406],"attr":"unknown","postal_code":"387-0001","address":"千曲市雨宮７６３-２","closed_date":"2012-04-01","next":[9940605,9940316,9940319,9940317,9940604,9940602,1140301],"voronoi":{"lat":36.528362,"lng":138.176472,"delta_lat":[0,-4744,4776,2785,13303,17204,2922],"delta_lng":[0,1446,-29585,-2353,-5439,-1116,8214]}},
    {"code":9940317,"left":9940602,"right":1141213,"id":"285cb8","name":"屋代高校前","name_kana":"やしろこうこうまえ","lat":36.547853,"lng":138.132489,"prefecture":20,"lines":[99403],"attr":"eco","postal_code":"387-0007","address":"千曲市大字屋代字新田１４１１の３番地","next":[1140301,1141213,9940603,9940602],"voronoi":{"lat":36.546027,"lng":138.11945,"delta_lat":[0,18758,-3098,-17204],"delta_lng":[0,3671,16304,1116]}},
    {"code":9940602,"left":9940316,"id":"646f1c","name":"東屋代","name_kana":"ひがしやしろ","closed":true,"lat":36.542321,"lng":138.132084,"prefecture":20,"lines":[99406],"attr":"unknown","postal_code":"387-0007","address":"千曲市屋代郷津７７８-４","closed_date":"2012-04-01","next":[9940316,9940317,1141213,9940603],"voronoi":{"lat":36.544483,"lng":138.140541,"delta_lat":[0,1544,-4110,-10737],"delta_lng":[0,-21091,-1764,28294]}},
    {"code":9940316,"id":"ee8671","name":"屋代","name_kana":"やしろ","lat":36.532062,"lng":138.128191,"prefecture":20,"lines":[99403,99406],"attr":"eco","postal_code":"387-0013","address":"千曲市大字小島３１３９番地","next":[9940319,9940602,9940603,1141213,1141212],"voronoi":{"lat":36.528394,"lng":138.148332,"delta_lat":[0,2785,10737,-14811,-17061],"delta_lng":[0,-2353,-28294,-15136,14419]}},
    {"code":1141213,"id":"2140e5","name":"稲荷山","name_kana":"いなりやま","lat":36.552633,"lng":138.108061,"prefecture":20,"lines":[11412],"attr":"cool","postal_code":"388-8014","address":"長野市篠ノ井塩崎","next":[9940317,1141210,1140301,9940316,1140926,1141212,1140932,1140921,9940602,1140303,1140302,1140931],"voronoi":{"lat":36.637512,"lng":137.993806,"delta_lat":[0,-71830,-439,-3419,-34719,14811,4110,18758,42499,22377,34901,-1286],"delta_lng":[0,-15108,61,5518,118272,15136,1764,3671,-34679,-25865,-50391,-1082]}},
    {"code":9940605,"left":9940604,"right":9940606,"id":"9dda29","name":"象山口","name_kana":"ぞうざんぐち","closed":true,"lat":36.561209,"lng":138.188596,"prefecture":20,"lines":[99406],"attr":"unknown","postal_code":"381-1233","address":"長野市松代町清野河原新田２０４１","closed_date":"2012-04-01","next":[9940603,9940606,9940604,9940314,9940319,9940607,9940315],"voronoi":{"lat":36.508996,"lng":138.220173,"delta_lat":[0,71537,4179,-56350,-4744,-622,-12746],"delta_lng":[0,-35192,-9782,1273,1446,691,24467]}},
    {"code":9940604,"id":"97acac","name":"岩野","name_kana":"いわの","closed":true,"lat":36.560628,"lng":138.162877,"prefecture":20,"lines":[99406],"attr":"unknown","postal_code":"381-1234","address":"長野市松代町岩野山裏１８-２","closed_date":"2012-04-01","next":[9940605,9940603,9940607,1140302,1140301],"voronoi":{"lat":36.587574,"lng":138.172924,"delta_lat":[0,-2862,-56350,36246,15460],"delta_lng":[0,2274,1273,-28833,10256]}},
    {"code":9940606,"id":"41c258","name":"松代","name_kana":"まつしろ","closed":true,"lat":36.565876,"lng":138.198083,"prefecture":20,"lines":[99406],"attr":"unknown","postal_code":"381-0000","address":"長野市松代町殿町７０","closed_date":"2012-04-01","next":[9940605,9940609,100905,9940607,9940608,9940314,9940610],"voronoi":{"lat":36.527508,"lng":138.275296,"delta_lat":[0,31503,16690,4832,-71537,-10029,3959],"delta_lng":[0,-30866,-22907,-36542,35192,62159,13086]}},
    {"code":100906,"left":1140304,"right":9940503,"id":"194165","name":"長野","name_kana":"ながの","lat":36.643307,"lng":138.189101,"prefecture":20,"lines":[1009,11403,99427,99405],"attr":"cool","postal_code":"380-0921","address":"長野市大字栗田１０３８番地","next":[1140306,9940608,9940502,1140304,9940607,9940503],"voronoi":{"lat":36.634649,"lng":138.218585,"delta_lat":[0,-1637,-13989,-3969,39882,-2071],"delta_lng":[0,1069,-17099,-16728,-19050,7289]}},
    {"code":1140304,"left":1140303,"right":1140930,"id":"1248e7","name":"安茂里","name_kana":"あもり","lat":36.630262,"lng":138.161791,"prefecture":20,"lines":[11403],"attr":"cool","postal_code":"380-0941","address":"長野市安茂里","next":[9940503,100906,1140303,1140934,9940607,1140311,9940504],"voronoi":{"lat":36.654935,"lng":138.166776,"delta_lat":[0,-39882,-7904,97742,38116,-7606,-69512],"delta_lng":[0,19050,-7771,-141573,21709,38018,62257]}},
    {"code":1140303,"left":1140302,"id":"02d89f","name":"川中島","name_kana":"かわなかじま","lat":36.614167,"lng":138.150679,"prefecture":20,"lines":[11403],"attr":"cool","postal_code":"381-2233","address":"長野市川中島町上氷鉋","next":[1140934,9940607,1140933,1140304,1140932,1141213,1140302],"voronoi":{"lat":36.62966,"lng":138.062577,"delta_lat":[0,34901,6611,17853,15866,-97742,-9633],"delta_lng":[0,-50391,3136,10655,10506,141573,-4342]}},
    {"code":1140302,"id":"8da665","name":"今井","name_kana":"いまい","lat":36.595732,"lng":138.145347,"prefecture":20,"lines":[11403],"attr":"cool","postal_code":"381-2226","address":"長野市川中島町今井２９６番地","next":[9940607,1141213,1140301,9940604,1140303],"voronoi":{"lat":36.62966,"lng":138.062577,"delta_lat":[0,-22377,-27215,7506,9942],"delta_lng":[0,25865,69453,15030,789]}},
    {"code":1140930,"id":"d0fc43","name":"白馬","name_kana":"はくば","lat":36.695922,"lng":137.863819,"prefecture":20,"lines":[11409],"attr":"cool","postal_code":"399-9301","address":"北安曇郡白馬村大字北城四ツ谷","next":[9941203,1140929,1140931,1140926],"voronoi":{"lat":36.644096,"lng":137.92909,"delta_lat":[0,91095,23394,-120376],"delta_lng":[0,-167896,4234,224048]}},
    {"code":9940503,"left":9940502,"right":9940504,"id":"b277a2","name":"権堂","name_kana":"ごんどう","lat":36.653088,"lng":138.19188,"prefecture":20,"lines":[99405],"attr":"cool","postal_code":"380-0833","address":"長野市権堂町２１９９-１０","next":[9940502,9940504,1140304,9940505,100906],"voronoi":{"lat":36.649876,"lng":138.204159,"delta_lat":[0,3439,12575,-10954,-2071],"delta_lng":[0,-2687,-43006,8310,7289]}},
    {"code":9940502,"id":"e16299","name":"市役所前(長野)","name_kana":"しやくしょまえ","lat":36.649141,"lng":138.191488,"prefecture":20,"lines":[99405],"attr":"cool","postal_code":"381-0000","address":"長野市鶴賀字森下１１２０-５","next":[9940503,100906,1140306,9940505],"voronoi":{"lat":36.634649,"lng":138.218585,"delta_lat":[0,18216,-2989,-11825],"delta_lng":[0,-44519,30094,12675]}},
    {"code":9940504,"id":"31cfb5","name":"善光寺下","name_kana":"ぜんこうじした","lat":36.658673,"lng":138.193513,"prefecture":20,"lines":[99405],"attr":"cool","postal_code":"380-0803","address":"長野市三輪７-９１９-２","next":[9940505,9940503,1140309,1140304,1140311],"voronoi":{"lat":36.733493,"lng":138.171741,"delta_lat":[0,-80179,12575,69512,-1871],"delta_lng":[0,29732,-43006,-62257,75465]}},
    {"code":9940509,"left":9940511,"right":9940508,"id":"c3c2a6","name":"附属中学前","name_kana":"ふぞくちゅうがくまえ","lat":36.662488,"lng":138.248298,"prefecture":20,"lines":[99405],"attr":"eco","postal_code":"381-0016","address":"長野市南堀中堰北８３-１","next":[1140306,9940510,1140307,9940508,9940611],"voronoi":{"lat":36.637359,"lng":138.232711,"delta_lat":[0,4496,33371,388,-31487],"delta_lng":[0,459,16715,2222,2986]}},
    {"code":9940511,"left":9940610,"right":9940512,"id":"ac4d59","name":"村山(長野)","name_kana":"むらやま","lat":36.659295,"lng":138.279556,"prefecture":20,"lines":[99405],"attr":"eco","postal_code":"382-0054","address":"須坂市高梨町流３０３-２","next":[9940512,1140308,9940510,9940514,9940612],"voronoi":{"lat":36.674103,"lng":138.290669,"delta_lat":[0,11480,-965,-36576,867],"delta_lng":[0,-7478,-9720,-7134,15092]}},
    {"code":9940610,"left":9940609,"right":9940611,"id":"84abb8","name":"若穂","name_kana":"わかほ","closed":true,"lat":36.610779,"lng":138.252938,"prefecture":20,"lines":[99406],"attr":"unknown","postal_code":"381-0101","address":"長野市若穂綿内田中７４８５","closed_date":"2012-04-01","next":[1133518,9940609,9940611,9940612,100905,9940606,9940309],"voronoi":{"lat":36.5159,"lng":138.374654,"delta_lat":[0,87105,22885,-98381,-24582,-766,5741],"delta_lng":[0,-86407,-49035,36083,20122,45070,31354]}},
    {"code":9940609,"left":9940608,"id":"1bdda2","name":"信濃川田","name_kana":"しなのかわだ","closed":true,"lat":36.605488,"lng":138.238512,"prefecture":20,"lines":[99406],"attr":"unknown","postal_code":"381-0103","address":"長野市若穂川田町下３１８０-２","closed_date":"2012-04-01","next":[9940608,9940611,9940606,1140306,9940610],"voronoi":{"lat":36.62589,"lng":138.239213,"delta_lat":[0,9405,-2239,-74044,-31503],"delta_lng":[0,-8731,-8356,22304,30866]}},
    {"code":9940608,"id":"eaf747","name":"大室","name_kana":"おおむろ","closed":true,"lat":36.601024,"lng":138.223692,"prefecture":20,"lines":[99406],"attr":"unknown","postal_code":"381-1211","address":"長野市松代町大室村北７２５-１","closed_date":"2012-04-01","next":[9940609,100906,9940607,9940606,1140306],"voronoi":{"lat":36.559011,"lng":138.244429,"delta_lat":[0,16690,43321,13989,44],"delta_lng":[0,-22907,-18968,17099,2472]}},
    {"code":9940611,"id":"0aefa0","name":"綿内","name_kana":"わたうち","closed":true,"lat":36.625075,"lng":138.25961,"prefecture":20,"lines":[99406],"attr":"unknown","postal_code":"381-0101","address":"長野市若穂綿内高野６４７２-２","closed_date":"2012-04-01","next":[9940510,1140306,9940612,9940609,9940610,9940509],"voronoi":{"lat":36.644367,"lng":138.262233,"delta_lat":[0,-41362,22885,9405,2064,6768],"delta_lng":[0,26014,-49035,-8731,2230,22382]}},
    {"code":9940512,"left":9940612,"right":9940513,"id":"bc569c","name":"日野(長野)","name_kana":"ひの","lat":36.655621,"lng":138.289574,"prefecture":20,"lines":[99405],"attr":"eco","postal_code":"382-0000","address":"須坂市小山蒔田２５１７-１５","next":[9940612,9940513,9940511,9940514],"voronoi":{"lat":36.674103,"lng":138.290669,"delta_lat":[0,-25194,-8589,29470],"delta_lng":[0,-9240,16801,-2452]}},
    {"code":9940612,"id":"212fd5","name":"井上","name_kana":"いのうえ","closed":true,"lat":36.638376,"lng":138.280758,"prefecture":20,"lines":[99406],"attr":"unknown","postal_code":"382-0045","address":"須坂市井上双六１７４０-４","closed_date":"2012-04-01","next":[9940512,1133518,9940510,9940611,9940513,9940610,9940511],"voronoi":{"lat":36.64032,"lng":138.29823,"delta_lat":[0,-107800,-16620,87105,41362,3675,867],"delta_lng":[0,84772,-8348,-86407,-26014,4104,15092]}},
    {"code":9940513,"id":"a82b87","name":"須坂","name_kana":"すざか","lat":36.656841,"lng":138.304239,"prefecture":20,"lines":[99405,99406],"attr":"heat","postal_code":"382-0000","address":"須坂市須坂宗石１２８８-２","next":[9940514,9940512,9940612,9940517,1133518],"voronoi":{"lat":36.532519,"lng":138.383003,"delta_lat":[0,107800,29470,-13868,-53188],"delta_lng":[0,-84772,-2452,66581,65368]}},
    {"code":9940508,"left":9940506,"right":9940514,"id":"f24f61","name":"朝陽","name_kana":"あさひ","lat":36.666326,"lng":138.240635,"prefecture":20,"lines":[99405],"attr":"cool","postal_code":"381-0016","address":"長野市南堀村北１９２-１","next":[1140307,1140306,9940509,9940507],"voronoi":{"lat":36.675226,"lng":138.249885,"delta_lat":[0,-33371,31060,5438],"delta_lng":[0,-16715,-2064,304]}},
    {"code":9940506,"left":1140306,"right":9940507,"id":"894e4e","name":"桐原(長野)","name_kana":"きりはら","lat":36.665642,"lng":138.21303,"prefecture":20,"lines":[99405],"attr":"cool","postal_code":"381-0000","address":"長野市古野宮西８２８-２","next":[1140306,9940507,9940505,1140309,1140307],"voronoi":{"lat":36.72216,"lng":138.197394,"delta_lat":[0,3892,-85174,22538,43305],"delta_lng":[0,-9999,29049,1231,-9822]}},
    {"code":1140306,"left":9940505,"id":"644734","name":"北長野","name_kana":"きたながの","lat":36.665123,"lng":138.222534,"prefecture":20,"lines":[99427],"attr":"cool","postal_code":"381-0044","address":"長野市中越","next":[9940509,9940505,9940506,100906,9940611,9940508,9940609,9940502,9940608,9940507],"voronoi":{"lat":36.663415,"lng":138.217675,"delta_lat":[0,-22538,-2827,-3402,-1637,44,2239,2064,4496,31060],"delta_lng":[0,-1231,391,1750,1069,2472,8356,2230,459,-2064]}},
    {"code":9940505,"id":"e3cbe6","name":"本郷(長野)","name_kana":"ほんごう","lat":36.662567,"lng":138.204014,"prefecture":20,"lines":[99405],"attr":"cool","postal_code":"380-0803","address":"長野市三輪３-１５-９","next":[1140306,1140309,9940504,9940506,9940503,9940502],"voronoi":{"lat":36.649876,"lng":138.204159,"delta_lat":[0,3439,80179,-7442,-85174,-2827],"delta_lng":[0,-2687,-29732,15654,29049,391]}},
    {"code":9940507,"id":"dc3caf","name":"信濃吉田","name_kana":"しなのよしだ","lat":36.667428,"lng":138.220904,"prefecture":20,"lines":[99405],"attr":"cool","postal_code":"381-0043","address":"長野市吉田３-９-１３","next":[9940506,1140307,9940508,1140306],"voronoi":{"lat":36.678353,"lng":138.23141,"delta_lat":[0,28368,-43305,9499],"delta_lng":[0,-23558,9822,13432]}},
    {"code":9940514,"left":9940510,"right":1140307,"id":"fcdfb4","name":"北須坂","name_kana":"きたすざか","lat":36.678283,"lng":138.308705,"prefecture":20,"lines":[99405],"attr":"heat","postal_code":"382-0071","address":"須坂市小河原町北山道北沖２１２９-４","next":[9940513,9940512,1140308,9940511,9940515,9940517,9940516],"voronoi":{"lat":36.685546,"lng":138.326318,"delta_lat":[0,7162,-7126,-11480,-4313,-13868,19386],"delta_lng":[0,-36394,-6733,7478,5109,66581,-16271]}},
    {"code":9940510,"id":"b6827e","name":"柳原(長野)","name_kana":"やなぎはら","lat":36.663438,"lng":138.258317,"prefecture":20,"lines":[99405],"attr":"eco","postal_code":"381-0012","address":"長野市柳原西井２１３３-２","next":[1140307,9940509,9940611,9940612,1140308,9940511],"voronoi":{"lat":36.648041,"lng":138.266337,"delta_lat":[0,-3675,-240,31487,10468,-1464],"delta_lng":[0,-4104,-7140,-2986,17084,4280]}},
    {"code":1140307,"id":"c640cc","name":"三才","name_kana":"さんさい","lat":36.686674,"lng":138.244079,"prefecture":20,"lines":[99427],"attr":"eco","postal_code":"381-0081","address":"長野市三才","next":[9940510,9940508,1140308,9940509,1140309,9940507,9940506],"voronoi":{"lat":36.678353,"lng":138.23141,"delta_lat":[0,-3127,388,10468,34024,2054,-15439],"delta_lng":[0,18475,2222,17084,-26844,-44954,10459]}},
    {"code":9940817,"left":1140503,"right":9940833,"id":"8e1cea","name":"浜加積","name_kana":"はまかづみ","lat":36.77743,"lng":137.361411,"prefecture":16,"lines":[99408],"attr":"eco","postal_code":"936-0016","address":"滑川市曲渕","next":[9941513,1140504,9940812,9940822,9940818],"voronoi":{"lat":36.86284,"lng":137.315562,"delta_lat":[0,30077,-12338,-127204,-4582],"delta_lng":[0,-33555,1572,84653,18444]}},
    {"code":1140503,"left":9941505,"right":1141804,"id":"6853d8","name":"水橋","name_kana":"みずはし","lat":36.743454,"lng":137.298404,"prefecture":16,"lines":[11405,99425],"attr":"eco","postal_code":"939-3524","address":"富山市水橋伊勢屋","next":[9941513,9940814,9940806,9940815,9940813,9940805,1140502],"voronoi":{"lat":36.774834,"lng":137.27246,"delta_lat":[0,51040,-39471,-46113,-11794,-5356,4098],"delta_lng":[0,14093,17607,15440,834,-24562,-21617]}},
    {"code":9941505,"left":9941501,"right":9940810,"id":"366204","name":"粟島（大阪屋ショップ前）","name_kana":"あわじま","lat":36.719391,"lng":137.224796,"prefecture":16,"lines":[99415],"attr":"heat","postal_code":"931-8314","address":"富山県富山市粟島町","next":[9941504,9940803,9941501,1140502,9941502,9941506,9940839],"voronoi":{"lat":36.719717,"lng":137.246774,"delta_lat":[0,663,751,-4027,-1265,-1128,4004],"delta_lng":[0,-610,-42723,6307,2469,28661,5160]}},
    {"code":9941501,"left":100911,"right":1141554,"id":"56b05c","name":"富山駅北","name_kana":"とやまえききた","closed":true,"lat":36.70249,"lng":137.214003,"prefecture":16,"lines":[99415],"attr":"unknown","postal_code":"930-0858","address":"富山市牛島町２４番３地先","next":[9941505,9940801,9941506,100911,9941502,9941322,9941320],"voronoi":{"lat":36.72374,"lng":137.198718,"delta_lat":[0,-2608,-4027,-15319,-158,1257,19180],"delta_lng":[0,4723,6307,6088,-1709,-1474,-13656]}},
    {"code":100911,"left":1141643,"right":9941313,"id":"7b9954","name":"富山","name_kana":"とやま","lat":36.701613,"lng":137.213255,"prefecture":16,"lines":[1009,11405,11416,99425],"attr":"eco","postal_code":"930-0001","address":"富山市明輪町","next":[9941501,9941313,9941322,9940801],"voronoi":{"lat":36.700933,"lng":137.213471,"delta_lat":[0,-19,1971,-1257],"delta_lng":[0,-426,-393,1474]}},
    {"code":1141643,"left":9941314,"right":9941322,"id":"9fb70a","name":"西富山","name_kana":"にしとやま","lat":36.699331,"lng":137.177029,"prefecture":16,"lines":[11416],"attr":"eco","postal_code":"930-0874","address":"富山市寺町","next":[1141554,9941319,9941320,1141645],"voronoi":{"lat":36.696962,"lng":137.151484,"delta_lat":[0,20837,-31944,-1043],"delta_lng":[0,33452,-1456,-256]}},
    {"code":9941314,"left":9941320,"id":"f99315","name":"新富町(富山)","name_kana":"しんとみちょう","lat":36.69886,"lng":137.211256,"prefecture":16,"lines":[99413],"attr":"eco","postal_code":"930-0002","address":"富山市新富町","open_date":"2013-05-17","next":[9941320,9941310,9941315,9941313,9941322,9941319,9941318,9941311],"voronoi":{"lat":36.700207,"lng":137.211846,"delta_lat":[0,5428,-122,-3551,-1406,-4401,43,1473],"delta_lng":[0,-10712,1,903,1296,9734,39,434]}},
    {"code":9941320,"id":"12c59c","name":"富山大学前","name_kana":"とやまだいがくまえ","lat":36.698688,"lng":137.191129,"prefecture":16,"lines":[99413],"attr":"eco","postal_code":"930-0887","address":"富山市五福","next":[9941314,1141643,9941506,9941501,1141554,9941319,9941322],"voronoi":{"lat":36.705513,"lng":137.201135,"delta_lat":[0,-19658,31944,12245,-6304,-1675,-16430],"delta_lng":[0,-17655,1456,9401,4381,279,2137]}},
    {"code":9941322,"id":"f72cbd","name":"富山駅","name_kana":"とやまえき","lat":36.701479,"lng":137.212583,"prefecture":16,"lines":[99413,99415],"attr":"eco","postal_code":"930-0001","address":"富山県富山市明輪町1-227","open_date":"2015-03-14","next":[9941314,9941313,9941501,100911,9941320],"voronoi":{"lat":36.700207,"lng":137.211846,"delta_lat":[0,707,1971,19180,-16430],"delta_lng":[0,1200,-393,-13656,2137]}},
    {"code":9941313,"left":9941312,"right":9940801,"id":"d56ebc","name":"電鉄富山駅・エスタ前","name_kana":"でんてつとやまえき・えすたまえ","lat":36.700236,"lng":137.213316,"prefecture":16,"lines":[99413],"attr":"heat","postal_code":"930-0003","address":"富山市桜町","open_date":"2013-05-17","next":[9940801,9941314,9941322,100911,9941311,9941312],"voronoi":{"lat":36.698008,"lng":137.21388,"delta_lat":[0,-337,2536,707,19,-1773],"delta_lng":[0,-340,-1695,1200,426,1091]}},
    {"code":9941312,"left":9941311,"id":"c3ba19","name":"地鉄ビル前","name_kana":"ちてつびるまえ","lat":36.698584,"lng":137.216105,"prefecture":16,"lines":[99413],"attr":"heat","postal_code":"930-0003","address":"富山市桜町","open_date":"2013-05-17","next":[9940801,9941502,9941311,9941503,9941313],"voronoi":{"lat":36.701039,"lng":137.216665,"delta_lat":[0,-406,-2625,0,1152],"delta_lng":[0,3482,1721,-7987,682]}},
    {"code":9941311,"id":"7e9dac","name":"電気ビル前","name_kana":"でんきびるまえ","lat":36.697432,"lng":137.216105,"prefecture":16,"lines":[99413],"attr":"heat","postal_code":"930-0004","address":"富山市桜橋通り","open_date":"2013-05-17","next":[9941312,9940802,9941503,9941314,9941313,9941310],"voronoi":{"lat":36.696198,"lng":137.213107,"delta_lat":[0,1473,337,0,-2157,-289],"delta_lng":[0,434,340,7987,1744,-16]}},
    {"code":9940801,"id":"86af15","name":"電鉄富山","name_kana":"でんてつとやま","lat":36.700757,"lng":137.214163,"prefecture":16,"lines":[99408,99410],"attr":"cool","postal_code":"930-0002","address":"富山市新富町","next":[9941313,9941312,9941501,9941502,100911],"voronoi":{"lat":36.700933,"lng":137.213471,"delta_lat":[0,-1773,1879,747,-158],"delta_lng":[0,1091,2102,-829,-1709]}},
    {"code":1141554,"left":1141551,"right":9941502,"id":"97f5d4","name":"呉羽","name_kana":"くれは","lat":36.718845,"lng":137.164874,"prefecture":16,"lines":[99425],"attr":"heat","postal_code":"930-0138","address":"富山市呉羽町","next":[1141643,1141645,9941509,9941513,9941506,9941507,1141553,9941424,9941320,9941508,9941510],"voronoi":{"lat":36.778978,"lng":137.175641,"delta_lat":[0,2021,-42772,-43590,2324,20837,12245,865,6499,5806,10489],"delta_lng":[0,-1238,-45049,-1270,23399,33452,9401,-47,-1302,-1560,-3992]}},
    {"code":1141551,"left":1141553,"right":9941401,"id":"81a1f9","name":"高岡","name_kana":"たかおか","lat":36.740948,"lng":137.015274,"prefecture":16,"lines":[11417,11418,99425],"attr":"eco","postal_code":"933-0021","address":"高岡市下関町","next":[100912,1141802,9941404,9941401],"voronoi":{"lat":36.736171,"lng":137.003038,"delta_lat":[0,-5975,13615,527],"delta_lng":[0,29151,-9545,-1481]}},
    {"code":1141553,"left":1141552,"id":"c1a36c","name":"小杉(あいの風とやま鉄道線)","name_kana":"こすぎ","lat":36.720947,"lng":137.092767,"prefecture":16,"lines":[99425],"attr":"heat","postal_code":"939-0341","address":"富山県射水市三ケ4156-2","next":[1141552,9941421,1141554,1141703,1141641,1141645,1141642,9941423,9941424],"voronoi":{"lat":36.694638,"lng":137.128084,"delta_lat":[0,-986,-14606,-26886,16500,78669,1397,-138,-10360],"delta_lng":[0,-555,-12263,-58530,-2905,27468,18244,613,29198]}},
    {"code":1141552,"id":"d5775e","name":"越中大門","name_kana":"えっちゅうだいもん","lat":36.733818,"lng":137.055904,"prefecture":16,"lines":[99425],"attr":"eco","postal_code":"939-0271","address":"射水市大島北野","next":[9941414,1141703,1141702,1141553,100912,9941419,9941421,1141803,9941413,1141802],"voronoi":{"lat":36.753746,"lng":137.053716,"delta_lat":[0,1983,370,-25,-8746,-78669,8778,28992,22252,21876],"delta_lng":[0,11374,5107,52,11050,-27468,-4552,-11349,-3505,12435]}},
    {"code":9941401,"id":"88440d","name":"高岡駅","name_kana":"たかおかえき","lat":36.742173,"lng":137.014722,"prefecture":16,"lines":[99414],"attr":"eco","postal_code":"933-0021","address":"高岡市下関町","next":[9941425,1141556,9941404,9941403,1141551,100912],"voronoi":{"lat":36.736261,"lng":137.002451,"delta_lat":[0,382,8167,100,-571,-8167],"delta_lng":[0,-68,13760,3810,1211,-18125]}},
    {"code":9941502,"left":9941503,"right":9941504,"id":"eeb842","name":"インテック本社前","name_kana":"いんてっくほんしゃまえ","lat":36.703556,"lng":137.216685,"prefecture":16,"lines":[99415],"attr":"heat","postal_code":"930-0856","address":"富山市牛島新町５番８地先","next":[9941503,9941312,9941505,9941501,9940801,9941504],"voronoi":{"lat":36.71584,"lng":137.212216,"delta_lat":[0,1265,-15319,-747,-406,7202],"delta_lng":[0,-2469,6088,829,3482,36]}},
    {"code":9941503,"id":"43c6d8","name":"奥田中学校前","name_kana":"おくだちゅうがっこうまえ","lat":36.703522,"lng":137.223637,"prefecture":16,"lines":[99415],"attr":"heat","postal_code":"930-0853","address":"富山市永楽町３２番地","next":[9941502,9941504,9941312,9941311,9940802],"voronoi":{"lat":36.69585,"lng":137.223612,"delta_lat":[0,2157,2625,7202,-1409],"delta_lng":[0,-1744,-1721,36,13053]}},
    {"code":9941504,"id":"ce460d","name":"下奥井","name_kana":"しもおくい","lat":36.711311,"lng":137.224478,"prefecture":16,"lines":[99415],"attr":"heat","postal_code":"930-0817","address":"富山市下奥井","next":[9941505,9941503,9940802,9940839,9941502],"voronoi":{"lat":36.71584,"lng":137.212216,"delta_lat":[0,-1128,-7480,-806,1409],"delta_lng":[0,28661,-5890,-1752,-13053]}},
    {"code":9940810,"left":9940807,"right":1140502,"id":"964936","name":"上市","name_kana":"かみいち","lat":36.704463,"lng":137.357603,"prefecture":16,"lines":[99408],"attr":"eco","postal_code":"930-0314","address":"中新川郡上市町若杉","next":[9940907,9940811,9940913,9940812,9940903,9940914,9940820,9940905,9940819,9940906,9940840],"voronoi":{"lat":36.666614,"lng":137.353498,"delta_lat":[0,-8137,-11426,-4314,6378,61250,6072,17203,-6992,-18208,-41229],"delta_lng":[0,9290,16212,8010,21680,84721,-16276,-59121,-32402,-36076,3592]}},
    {"code":9940807,"left":9940804,"right":9940809,"id":"b8ccfb","name":"寺田(富山)","name_kana":"てらだ","lat":36.698852,"lng":137.319145,"prefecture":16,"lines":[99408,99409],"attr":"eco","postal_code":"930-0208","address":"中新川郡立山町浦田","next":[9940902,9940806,9940808],"voronoi":{"lat":36.716905,"lng":137.320917,"delta_lat":[0,-22856,-2100],"delta_lng":[0,-12554,15798]}},
    {"code":9940804,"left":9940803,"right":9940805,"id":"e6c88e","name":"越中荏原","name_kana":"えっちゅうえばら","lat":36.698978,"lng":137.266222,"prefecture":16,"lines":[99408],"attr":"eco","postal_code":"930-0916","address":"富山市向新庄","next":[9941008,1140502,9940803,9940904,9940805,9941009,9941011,9941010],"voronoi":{"lat":36.662273,"lng":137.276189,"delta_lat":[0,10439,54208,-6039,-53837,-3142,-730,-572],"delta_lng":[0,7330,-9555,-14900,1362,4709,1276,1536]}},
    {"code":9940803,"left":9940839,"id":"00593f","name":"東新庄","name_kana":"ひがししんじょう","lat":36.698644,"lng":137.253021,"prefecture":16,"lines":[99408],"attr":"eco","postal_code":"930-0994","address":"富山市新庄新町","next":[9941008,9941505,9940804,9941003,9940839,1140502,9941004],"voronoi":{"lat":36.667045,"lng":137.260425,"delta_lat":[0,53837,-1164,-1002,-35695,-7562,-7774],"delta_lng":[0,-1362,-12290,-736,2067,3969,6766]}},
    {"code":9940839,"id":"6999d3","name":"新庄田中","name_kana":"しんじょうたなか","lat":36.697972,"lng":137.241417,"prefecture":16,"lines":[99408],"attr":"eco","postal_code":"930-0985","address":"富山県富山市田中町四丁目96-3","open_date":"2012-12-21","next":[9941003,9940802,9941016,9940803,9941505,9941504],"voronoi":{"lat":36.707232,"lng":137.234987,"delta_lat":[0,-10903,-8920,-4388,35695,-4004],"delta_lng":[0,1474,6687,4956,-2067,-5160]}},
    {"code":9940805,"id":"5653a6","name":"越中三郷","name_kana":"えっちゅうさんごう","lat":36.703309,"lng":137.290792,"prefecture":16,"lines":[99408],"attr":"eco","postal_code":"939-3542","address":"富山市水橋開発","next":[9940806,9940903,1140502,9940804,9940902,9940904,1140503],"voronoi":{"lat":36.689833,"lng":137.300952,"delta_lat":[0,-7446,-3942,-5732,54208,318,-4098],"delta_lng":[0,-4657,-3442,-9334,-9555,291,21617]}},
    {"code":9940809,"left":9940808,"right":9940840,"id":"0269ca","name":"相ノ木","name_kana":"あいのき","lat":36.701963,"lng":137.335472,"prefecture":16,"lines":[99408],"attr":"eco","postal_code":"930-0358","address":"中新川郡上市町正印新","next":[9940811,9940840,9940808,9940903,9940813],"voronoi":{"lat":36.716605,"lng":137.336468,"delta_lat":[0,-38906,5933,41875,-297],"delta_lng":[0,6660,-7442,-10475,2832]}},
    {"code":9940808,"id":"a799d2","name":"越中泉","name_kana":"えっちゅういずみ","lat":36.699905,"lng":137.327245,"prefecture":16,"lines":[99408],"attr":"eco","postal_code":"930-0201","address":"中新川郡立山町泉","next":[9940809,9940902,9940806,9940813,9940807,9940903],"voronoi":{"lat":36.683829,"lng":137.335267,"delta_lat":[0,8119,24956,9082,-480,-41875],"delta_lng":[0,-11106,-3244,2564,1731,10475]}},
    {"code":9940840,"id":"a8ed74","name":"新相ノ木","name_kana":"しんあいのき","lat":36.703128,"lng":137.342278,"prefecture":16,"lines":[99408],"attr":"eco","postal_code":"930-0372","address":"富山県中新川郡上市町上経田4-91","open_date":"2013-12-26","next":[9940809,9940903,9940811,9940810],"voronoi":{"lat":36.70844,"lng":137.349536,"delta_lat":[0,8165,-38906,-10488],"delta_lng":[0,-13067,6660,9999]}},
    {"code":1140502,"left":9941508,"right":9940811,"id":"0101d2","name":"東富山","name_kana":"ひがしとやま","lat":36.741589,"lng":137.248953,"prefecture":16,"lines":[11405,99425],"attr":"eco","postal_code":"931-8303","address":"富山市米田","next":[9941508,9941506,9941507,9940804,9941505,9940805,9941513,9940803,9941509,9941512,9941511,1140503,9941510],"voronoi":{"lat":36.7436,"lng":137.238282,"delta_lat":[0,-5825,-6153,-7441,-3801,-663,1164,6039,318,47596,-16325,-9329,-4014],"delta_lng":[0,-291,1693,3411,3069,610,12290,14900,291,-1795,-21552,-9837,-2248]}},
    {"code":9941508,"left":9941507,"right":9941509,"id":"756960","name":"犬島新町","name_kana":"いぬじましんまち","lat":36.735445,"lng":137.22662,"prefecture":16,"lines":[99415],"attr":"eco","postal_code":"931-8328","address":"富山市犬島新町１丁目１４番地","next":[1140502,9941509,9941507,1141554],"voronoi":{"lat":36.743213,"lng":137.191427,"delta_lat":[0,-5438,-6153,5785],"delta_lng":[0,46563,1693,-46696]}},
    {"code":9941507,"left":9941506,"id":"ad2027","name":"城川原","name_kana":"じょうがわら","lat":36.731103,"lng":137.226082,"prefecture":16,"lines":[99415],"attr":"heat","postal_code":"931-8325","address":"富山市城川原","next":[1140502,1141554,9941508,9941506],"voronoi":{"lat":36.730909,"lng":137.194289,"delta_lat":[0,6499,-5785,-7441],"delta_lng":[0,-1302,46696,3411]}},
    {"code":9941506,"id":"910c86","name":"越中中島","name_kana":"えっちゅうなかじま","lat":36.722121,"lng":137.224844,"prefecture":16,"lines":[99415],"attr":"heat","postal_code":"930-0801","address":"富山市中島３丁目","next":[1140502,9941320,1141554,9941501,9941505,9941507],"voronoi":{"lat":36.720381,"lng":137.246164,"delta_lat":[0,751,2608,6304,865,-6727],"delta_lng":[0,-42723,-4723,-4381,-47,48805]}},
    {"code":9941509,"id":"9ad5a3","name":"蓮町(馬場記念公園前)","name_kana":"はすまち（ばばきねんこうえんまえ）","lat":36.742663,"lng":137.227463,"prefecture":16,"lines":[99415],"attr":"eco","postal_code":"931-8333","address":"富山県富山市蓮町1丁目2番地","next":[9941508,9941510,1141554,1140502],"voronoi":{"lat":36.753703,"lng":137.187435,"delta_lat":[0,-10489,-5438,5825],"delta_lng":[0,3992,46563,291]}},
    {"code":9940811,"left":9940806,"right":9940812,"id":"8e25f9","name":"新宮川","name_kana":"しんみやかわ","lat":36.717292,"lng":137.351128,"prefecture":16,"lines":[99408],"attr":"eco","postal_code":"930-0313","address":"中新川郡上市町中江上","next":[9940809,9940810,9940812,9940813,9940840],"voronoi":{"lat":36.726648,"lng":137.385611,"delta_lat":[0,-554,-884,-8605,-8165],"delta_lng":[0,-55226,-2342,8425,13067]}},
    {"code":9940806,"id":"fdd352","name":"越中舟橋","name_kana":"えっちゅうふなはし","lat":36.705725,"lng":137.306632,"prefecture":16,"lines":[99408],"attr":"eco","postal_code":"930-0289","address":"中新川郡舟橋村竹内","next":[9940805,1140503,9940813,9940902,9940807,9940808],"voronoi":{"lat":36.728497,"lng":137.320433,"delta_lat":[0,-5356,-33308,4216,22856,9082],"delta_lng":[0,-24562,5080,7411,12554,2564]}},
    {"code":9940812,"id":"a17acd","name":"中加積","name_kana":"なかかづみ","lat":36.735309,"lng":137.350947,"prefecture":16,"lines":[99408],"attr":"eco","postal_code":"936-0846","address":"滑川市堀江","next":[9940819,9940810,9940811,1140504,9940813,9940817,1140505,9940818],"voronoi":{"lat":36.738268,"lng":137.409941,"delta_lat":[0,-4628,-6992,-554,26568,714,-4582,-7705],"delta_lng":[0,8073,-32402,-55226,27277,10569,18444,17784]}},
    {"code":1141804,"left":9941410,"right":9941424,"id":"95ab3d","name":"伏木","name_kana":"ふしき","lat":36.792306,"lng":137.05853,"prefecture":16,"lines":[11418],"attr":"eco","postal_code":"933-0112","address":"高岡市伏木古国府","next":[9941415,1141805,9941416,9941417],"voronoi":{"lat":36.790636,"lng":137.040911,"delta_lat":[0,-3241,5418,15124],"delta_lng":[0,15432,7078,6443]}},
    {"code":9941410,"left":9941407,"right":9941413,"id":"8949a3","name":"荻布","name_kana":"おぎの","lat":36.76682,"lng":137.035619,"prefecture":16,"lines":[99414],"attr":"eco","postal_code":"933-0073","address":"高岡市荻布","next":[9941409,1141803,9941411],"voronoi":{"lat":36.775981,"lng":137.024447,"delta_lat":[0,-18378,10361],"delta_lng":[0,16657,-3495]}},
    {"code":9941407,"left":9941405,"right":9941408,"id":"de3dbf","name":"市民病院前","name_kana":"しみんびょういんまえ","lat":36.758196,"lng":137.0261,"prefecture":16,"lines":[99414],"attr":"heat","postal_code":"933-0902","address":"高岡市向野町３","next":[9941406,1141802,1141807,9941408],"voronoi":{"lat":36.78987,"lng":137.001385,"delta_lat":[0,-1947,-33748,1041],"delta_lng":[0,-10197,36731,5011]}},
    {"code":9941405,"left":9941404,"right":9941406,"id":"5d920a","name":"広小路(富山)","name_kana":"ひろこうじ","lat":36.752566,"lng":137.020615,"prefecture":16,"lines":[99414],"attr":"heat","postal_code":"933-0912","address":"高岡市丸の内","next":[9941404,9941406,1141807,9941402,1141802],"voronoi":{"lat":36.787639,"lng":136.989317,"delta_lat":[0,-280,-13162,-25983,3564],"delta_lng":[0,-2678,10455,25997,1380]}},
    {"code":9941404,"left":9941403,"id":"cb9aa2","name":"急患医療センター前","name_kana":"きゅうかんいりょうせんたーまえ","lat":36.750686,"lng":137.018736,"prefecture":16,"lines":[99414],"attr":"heat","postal_code":"933-0913","address":"高岡市本町","next":[1141802,9941403,9941405,9941402,9941401,1141551],"voronoi":{"lat":36.748213,"lng":137.02309,"delta_lat":[0,25983,-7853,-21434,-571,-527],"delta_lng":[0,-25997,5721,17138,1211,1481]}},
    {"code":9941403,"id":"e76384","name":"坂下町","name_kana":"さかしたまち","lat":36.747367,"lng":137.014585,"prefecture":16,"lines":[99414],"attr":"heat","postal_code":"933-0038","address":"高岡市坂下町","next":[9941404,9941402,9941401,9941425],"voronoi":{"lat":36.745862,"lng":137.01428,"delta_lat":[0,20481,-21434,-100],"delta_lng":[0,-11466,17138,-3810]}},
    {"code":9941406,"id":"3344c0","name":"志貴野中学校前","name_kana":"しきのちゅうがっこうまえ","lat":36.755648,"lng":137.023759,"prefecture":16,"lines":[99414],"attr":"heat","postal_code":"933-0911","address":"高岡市あわら町","next":[9941405,9941407,1141807,1141802],"voronoi":{"lat":36.787923,"lng":136.991187,"delta_lat":[0,-285,-35861,2398],"delta_lng":[0,-1871,35154,3448]}},
    {"code":9941408,"left":1141802,"right":9941409,"id":"7a8c7a","name":"江尻","name_kana":"えじり","lat":36.762295,"lng":137.030603,"prefecture":16,"lines":[99414],"attr":"heat","postal_code":"933-0062","address":"高岡市江尻","next":[9941412,1141802,1141807,9941407,9941409],"voronoi":{"lat":36.755216,"lng":137.032929,"delta_lat":[0,34654,790,-6116,-30883],"delta_lng":[0,-31545,2918,8069,27639]}},
    {"code":1141802,"id":"e62c52","name":"越中中川","name_kana":"えっちゅうなかがわ","lat":36.749764,"lng":137.027851,"prefecture":16,"lines":[11418],"attr":"eco","postal_code":"933-0056","address":"高岡市中川","next":[1141803,9941404,9941409,9941408,1141551,9941407,1141552,9941406,100912,9941405],"voronoi":{"lat":36.754176,"lng":137.027919,"delta_lat":[0,1041,-1555,-1353,-1751,-21876,1515,13615,4402,3564],"delta_lng":[0,5011,7081,4159,2691,-12435,-2236,-9545,446,1380]}},
    {"code":9941409,"id":"7d0c7a","name":"旭ヶ丘(富山)","name_kana":"あさひがおか","lat":36.763965,"lng":137.032469,"prefecture":16,"lines":[99414],"attr":"heat","postal_code":"933-0062","address":"富山県高岡市江尻","next":[9941410,9941412,1141802,1141803,9941411,9941408],"voronoi":{"lat":36.784544,"lng":137.012371,"delta_lat":[0,-7324,-1239,-18378,-5295,1353],"delta_lng":[0,10588,1487,16657,3066,-4159]}},
    {"code":9941413,"left":9941412,"right":9941415,"id":"ae5289","name":"能町口","name_kana":"のうまちぐち","lat":36.773239,"lng":137.049031,"prefecture":16,"lines":[99414],"attr":"eco","postal_code":"933-0003","address":"高岡市能町","next":[9941414,9941412,1141552,1141803],"voronoi":{"lat":36.771763,"lng":137.043906,"delta_lat":[0,12695,-28728,-1983],"delta_lng":[0,-294,21479,-11374]}},
    {"code":9941412,"left":1141803,"right":1141806,"id":"11672c","name":"米島口","name_kana":"よねじまぐち","lat":36.773,"lng":137.038718,"prefecture":16,"lines":[99414],"attr":"eco","postal_code":"933-0076","address":"高岡市米島","next":[1141805,9941408,9941409,9941415,9941411,1141807,9941413,9941414,1141806,1141803],"voronoi":{"lat":36.770871,"lng":137.040283,"delta_lat":[0,6349,7324,6116,3386,490,-3916,-4858,-1305,-12695],"delta_lng":[0,-17324,-10588,-8069,7210,18779,10553,2482,285,294]}},
    {"code":1141803,"left":9941411,"id":"5ae81b","name":"能町","name_kana":"のうまち","lat":36.768259,"lng":137.039885,"prefecture":16,"lines":[11418],"attr":"eco","postal_code":"933-0003","address":"高岡市能町","next":[1141802,9941409,9941411,9941410,9941412,1141552,9941413],"voronoi":{"lat":36.771763,"lng":137.043906,"delta_lat":[0,-891,-2907,-10361,-5295,-1751,3189],"delta_lng":[0,-3622,-2675,3495,3066,2691,6856]}},
    {"code":9941411,"id":"07ac09","name":"新能町","name_kana":"しんのうまち","lat":36.770258,"lng":137.037713,"prefecture":16,"lines":[99414],"attr":"eco","postal_code":"933-0073","address":"高岡市荻布","next":[9941412,1141803,9941410,9941409],"voronoi":{"lat":36.777221,"lng":137.02296,"delta_lat":[0,-6349,-2907,8017],"delta_lng":[0,17324,-2675,-13162]}},
    {"code":1141806,"id":"20da04","name":"雨晴","name_kana":"あまはらし","lat":36.816484,"lng":137.037583,"prefecture":16,"lines":[11418],"attr":"heat","postal_code":"933-0136","address":"高岡市渋谷","next":[9941424,1141919,1141805,1141807,9941423,1141808,9941412],"voronoi":{"lat":36.948634,"lng":137.160675,"delta_lat":[0,5920,33576,-24766,-60454,-108863,490],"delta_lng":[0,3473,18892,-76292,-43024,-52212,18779]}},
    {"code":9941415,"left":9941414,"right":1141805,"id":"dc0732","name":"吉久","name_kana":"よしひさ","lat":36.782018,"lng":137.056369,"prefecture":16,"lines":[99414],"attr":"eco","postal_code":"933-0002","address":"高岡市吉久３","next":[9941412,9941416,1141804,1141805,9941414,9941418],"voronoi":{"lat":36.780927,"lng":137.063935,"delta_lat":[0,6467,3241,-15,-4858,-13090],"delta_lng":[0,-7593,-15432,-66,2482,21997]}},
    {"code":9941414,"id":"9f5bd1","name":"新吉久","name_kana":"しんよしひさ","lat":36.776086,"lng":137.052839,"prefecture":16,"lines":[99414],"attr":"eco","postal_code":"933-0002","address":"高岡市吉久１","next":[9941419,1141552,9941413,9941412,9941418,9941415],"voronoi":{"lat":36.766849,"lng":137.068041,"delta_lat":[0,-10749,-370,28728,1305,-13090],"delta_lng":[0,2156,-5107,-21479,-285,21997]}},
    {"code":1141805,"id":"566931","name":"越中国分","name_kana":"えっちゅうこくぶ","lat":36.805361,"lng":137.050729,"prefecture":16,"lines":[11418],"attr":"heat","postal_code":"933-0101","address":"高岡市伏木国分","next":[9941412,9941417,1141806,9941422,1141804,9941415,9941423],"voronoi":{"lat":36.794537,"lng":137.030292,"delta_lat":[0,-3916,15,17301,30130,31938,78629],"delta_lng":[0,10553,66,28953,31495,18081,41236]}},
    {"code":9941424,"left":9940814,"right":9941420,"id":"5c5478","name":"越ノ潟","name_kana":"こしのかた","lat":36.774704,"lng":137.111839,"prefecture":16,"lines":[99414],"attr":"cool","postal_code":"934-0024","address":"射水市越の潟町","next":[1141806,9941423,9941513,1141554,1141919,1141553],"voronoi":{"lat":36.748587,"lng":137.100156,"delta_lat":[0,205966,33576,8360,-215490,-42772],"delta_lng":[0,63992,18892,15145,-23782,-45049]}},
    {"code":9940814,"left":9941512,"right":9940815,"id":"527567","name":"西滑川","name_kana":"にしなめりかわ","lat":36.755579,"lng":137.334617,"prefecture":16,"lines":[99408],"attr":"eco","postal_code":"936-0066","address":"滑川市菰原","next":[1140503,9940813,9940815],"voronoi":{"lat":36.786403,"lng":137.30416,"delta_lat":[0,-46113,13939],"delta_lng":[0,15440,23156]}},
    {"code":9941512,"left":9941511,"right":9941513,"id":"6d2df5","name":"競輪場前(富山)","name_kana":"けいりんじょうまえ","lat":36.757454,"lng":137.233907,"prefecture":16,"lines":[99415],"attr":"cool","postal_code":"931-8376","address":"富山市岩瀬池田町","next":[9941511,9941513,1140502],"voronoi":{"lat":36.759823,"lng":137.223936,"delta_lat":[0,-10642,9329],"delta_lng":[0,17134,9837]}},
    {"code":9941511,"left":9941510,"id":"eabc08","name":"東岩瀬","name_kana":"ひがしいわせ","lat":36.751935,"lng":137.230479,"prefecture":16,"lines":[99415],"attr":"cool","postal_code":"931-8345","address":"富山市西宮","next":[9941513,9941512,9941510,1140502],"voronoi":{"lat":36.745167,"lng":137.238823,"delta_lat":[0,30206,-15550,-10642],"delta_lng":[0,-54834,39948,17134]}},
    {"code":9941510,"id":"e20a4a","name":"萩浦小学校前","name_kana":"はぎうらしょうがっこうまえ","lat":36.748602,"lng":137.228643,"prefecture":16,"lines":[99415],"attr":"eco","postal_code":"931-8345","address":"富山市西宮町6番地","next":[9941513,9941509,9941511,1141554,1140502],"voronoi":{"lat":36.7436,"lng":137.238282,"delta_lat":[0,10102,25276,-3606,-30206],"delta_lng":[0,-50846,-11794,8347,54834]}},
    {"code":9941513,"id":"c88fbd","name":"岩瀬浜","name_kana":"いわせはま","lat":36.761212,"lng":137.23409,"prefecture":16,"lines":[99415],"attr":"cool","postal_code":"931-8378","address":"富山市岩瀬天神町","next":[9940817,9940815,9941510,1140503,9941424,1141554,1141919,1140502,1140504,9941511,9940822,9940823,9941512,1140508],"voronoi":{"lat":36.901402,"lng":137.278771,"delta_lat":[0,-8485,-12338,-42711,-11994,-51040,-16325,1313,15550,3606,2021,215490,5335,-98453],"delta_lng":[0,3235,1572,2886,88,-14093,-21552,-26971,-39948,-8347,-1238,23782,5549,74089]}},
    {"code":9940815,"left":9940813,"right":1140504,"id":"abfb4d","name":"中滑川","name_kana":"なかなめりかわ","lat":36.761992,"lng":137.339963,"prefecture":16,"lines":[99408],"attr":"eco","postal_code":"936-0056","address":"滑川市田中新町","next":[9941513,1140504,9940814,9940813,1140503],"voronoi":{"lat":36.754229,"lng":137.342756,"delta_lat":[0,118,83521,-11994,-39471],"delta_lng":[0,10456,-66747,88,17607]}},
    {"code":9940813,"id":"587db3","name":"西加積","name_kana":"にしかづみ","lat":36.746405,"lng":137.340139,"prefecture":16,"lines":[99408],"attr":"eco","postal_code":"936-0857","address":"滑川市下梅沢","next":[9940814,9940811,9940815,1140503,9940806,9940809,1140504,9940812,9940808],"voronoi":{"lat":36.725986,"lng":137.323481,"delta_lat":[0,2510,11794,13939,118,-1686,-26568,-884,297],"delta_lng":[0,-3047,-834,23156,10456,4451,-27277,-2342,-2832]}},
    {"code":1140504,"id":"62f339","name":"滑川","name_kana":"なめりかわ","lat":36.768955,"lng":137.348676,"prefecture":16,"lines":[11405,99408,99425],"attr":"eco","postal_code":"936-0024","address":"滑川市辰野","next":[9940815,9940817,9941513,9940813,9940812],"voronoi":{"lat":36.88058,"lng":137.283578,"delta_lat":[0,-42711,-83521,-1686,714],"delta_lng":[0,2886,66747,4451,10569]}},
    {"code":9941420,"left":9941416,"right":9941423,"id":"dee3fa","name":"新町口","name_kana":"しんまちぐち","lat":36.778983,"lng":137.084259,"prefecture":16,"lines":[99414],"attr":"cool","postal_code":"934-0012","address":"射水市中央町","next":[9941421,9941419,9941422],"voronoi":{"lat":36.764286,"lng":137.075192,"delta_lat":[0,19344,30056],"delta_lng":[0,17021,2304]}},
    {"code":9941416,"left":9941419,"right":9941417,"id":"3d0434","name":"中伏木","name_kana":"なかふしき","lat":36.788224,"lng":137.061655,"prefecture":16,"lines":[99414],"attr":"eco","postal_code":"934-0001","address":"射水市庄西町２","next":[9941418,9941415,9941417,1141804],"voronoi":{"lat":36.787394,"lng":137.056343,"delta_lat":[0,-6467,2207,9678],"delta_lng":[0,7593,922,-1437]}},
    {"code":9941419,"left":9941418,"id":"a93373","name":"西新湊","name_kana":"にししんみなと","lat":36.781234,"lng":137.078505,"prefecture":16,"lines":[99414],"attr":"cool","postal_code":"934-0011","address":"射水市本町２","next":[9941420,9941414,9941418,9941421,9941417,1141552,9941422],"voronoi":{"lat":36.798601,"lng":137.081104,"delta_lat":[0,-31753,-10749,-25,8211,49400,7964],"delta_lng":[0,-13062,2156,52,4943,19325,1301]}},
    {"code":9941418,"id":"14ea26","name":"庄川口","name_kana":"しょうがわぐち","lat":36.784433,"lng":137.070729,"prefecture":16,"lines":[99414],"attr":"cool","postal_code":"934-0003","address":"射水市庄川本町","next":[9941416,9941419,9941414,9941417,9941415],"voronoi":{"lat":36.780927,"lng":137.063935,"delta_lat":[0,2207,15467,-31753,5824],"delta_lng":[0,922,16246,-13062,-2718]}},
    {"code":9941417,"id":"cb75e8","name":"六渡寺","name_kana":"ろくどうじ","lat":36.788935,"lng":137.066443,"prefecture":16,"lines":[99414],"attr":"eco","postal_code":"934-0001","address":"射水市庄西町１","next":[1141805,9941419,9941416,9941422,9941418,1141804],"voronoi":{"lat":36.838067,"lng":137.101359,"delta_lat":[0,-16417,-23048,-15467,9678,15124],"delta_lng":[0,-5540,-14715,-16246,-1437,6443]}},
    {"code":9941423,"left":9941421,"right":9941422,"id":"d19dd6","name":"海王丸","name_kana":"かいおうまる","lat":36.776726,"lng":137.105331,"prefecture":16,"lines":[99414],"attr":"cool","postal_code":"934-0024","address":"射水市越の潟町","next":[9941424,1141806,9941421,1141805,9941422,1141553],"voronoi":{"lat":36.954553,"lng":137.164149,"delta_lat":[0,-5920,-78629,-112469,-8810,-138],"delta_lng":[0,-3473,-41236,-20728,832,613]}},
    {"code":9941421,"id":"c34472","name":"中新湊","name_kana":"なかしんみなと","lat":36.775148,"lng":137.088617,"prefecture":16,"lines":[99414],"attr":"cool","postal_code":"934-0027","address":"射水市中新湊","next":[9941420,1141553,9941419,9941423,1141552,9941422],"voronoi":{"lat":36.748725,"lng":137.099543,"delta_lat":[0,-1397,8746,8211,19344,-26094],"delta_lng":[0,-18244,-11050,4943,17021,6498]}},
    {"code":9941422,"id":"110a2e","name":"東新湊","name_kana":"ひがししんみなと","lat":36.777825,"lng":137.099368,"prefecture":16,"lines":[99414],"attr":"cool","postal_code":"934-0025","address":"射水市八幡町３","next":[1141805,9941420,9941419,9941417,9941421,9941423],"voronoi":{"lat":36.757535,"lng":137.098711,"delta_lat":[0,26094,30056,7964,16417,31938],"delta_lng":[0,-6498,2304,1301,5540,18081]}},
    {"code":9940833,"left":1140933,"right":1140513,"id":"7a7f19","name":"下立口","name_kana":"おりたてぐち","lat":36.859571,"lng":137.532908,"prefecture":16,"lines":[99408],"attr":"cool","postal_code":"938-0861","address":"黒部市宇奈月町下立","next":[9940834,9940832,9940837,1140511],"voronoi":{"lat":36.907107,"lng":137.539096,"delta_lat":[0,-113195,33171,77946],"delta_lng":[0,-32103,23229,17117]}},
    {"code":1140933,"left":9940821,"right":1140707,"id":"38aec6","name":"千国","name_kana":"ちくに","lat":36.763249,"lng":137.900895,"prefecture":20,"lines":[11409],"attr":"cool","postal_code":"399-9400","address":"北安曇郡小谷村大字千国","next":[1140935,1140303,1140932,1140934],"voronoi":{"lat":36.671173,"lng":138.015321,"delta_lat":[0,126677,-8311,-100513],"delta_lng":[0,-192366,50376,152645]}},
    {"code":9940821,"left":9941201,"right":9940835,"id":"aeed3b","name":"電鉄魚津","name_kana":"でんてつうおづ","lat":36.815113,"lng":137.400288,"prefecture":16,"lines":[99408],"attr":"eco","postal_code":"937-0862","address":"魚津市文化町","next":[9940837,1140506,9940818,1140505,9940832,9940822,9940820],"voronoi":{"lat":36.832076,"lng":137.351933,"delta_lat":[0,12335,12339,-35586,-38553,-18461,-912],"delta_lng":[0,-15047,-13573,78845,80651,7484,146]}},
    {"code":9941201,"left":9940819,"right":1140932,"id":"044f90","name":"宇奈月","name_kana":"うなづき","lat":36.815038,"lng":137.58586,"prefecture":16,"lines":[99412],"attr":"cool","postal_code":"938-0282","address":"黒部市宇奈月温泉字桃原４８４-１５","next":[9940837,9940835,9940838,9941202,1140513],"voronoi":{"lat":36.745638,"lng":137.564976,"delta_lat":[0,104114,22284,17610,-9499],"delta_lng":[0,29452,21985,22465,24356]}},
    {"code":9940819,"left":1140505,"right":9940820,"id":"0737b3","name":"越中中村","name_kana":"えっちゅうなかむら","lat":36.790673,"lng":137.382688,"prefecture":16,"lines":[99408],"attr":"eco","postal_code":"936-0002","address":"滑川市中村","next":[9940812,9940820,1140505,9940810],"voronoi":{"lat":36.822177,"lng":137.361346,"delta_lat":[0,-83909,-4628,-17203],"delta_lng":[0,48594,8073,59121]}},
    {"code":1140505,"left":9940818,"id":"f0a7af","name":"東滑川","name_kana":"ひがしなめりかわ","lat":36.787987,"lng":137.37805,"prefecture":16,"lines":[11405,99425],"attr":"eco","postal_code":"936-0002","address":"滑川市中村","next":[9940820,9940819,9940818,9940821,9940812],"voronoi":{"lat":36.741088,"lng":137.404459,"delta_lat":[0,103323,-12335,-9900,-83909],"delta_lng":[0,-67573,15047,9413,48594]}},
    {"code":9940818,"id":"30add2","name":"早月加積","name_kana":"はやつきかづみ","lat":36.784082,"lng":137.372079,"prefecture":16,"lines":[99408],"attr":"eco","postal_code":"936-0808","address":"滑川市追分","next":[9940821,1140505,9940817,9940822,9940812],"voronoi":{"lat":36.748793,"lng":137.386675,"delta_lat":[0,114047,-6090,-12339,-103323],"delta_lng":[0,-71114,7752,13573,67573]}},
    {"code":9940820,"id":"4c8ee4","name":"西魚津","name_kana":"にしうおづ","lat":36.803775,"lng":137.394653,"prefecture":16,"lines":[99408],"attr":"eco","postal_code":"937-0851","address":"魚津市住吉","next":[1140505,9940838,9940837,9940819,9940810,9940914,9940821],"voronoi":{"lat":36.832076,"lng":137.351933,"delta_lat":[0,-9900,-105740,-6072,443,42517,9914],"delta_lng":[0,9413,115788,16276,1929,-2683,-2217]}},
    {"code":1140932,"left":1140931,"right":9941202,"id":"9a0e67","name":"白馬大池","name_kana":"はくばおおいけ","lat":36.739918,"lng":137.885531,"prefecture":20,"lines":[11409],"attr":"cool","postal_code":"399-9400","address":"北安曇郡小谷村大字千国","next":[1140935,1141213,1140937,1140931,1140933,1140303,9941203],"voronoi":{"lat":36.798678,"lng":137.766968,"delta_lat":[0,5192,-6020,-126677,-6611,-1286,114602],"delta_lng":[0,38301,17687,192366,-3136,-1082,-243644]}},
    {"code":1140931,"left":9941203,"id":"b9b335","name":"信濃森上","name_kana":"しなのもりうえ","lat":36.711132,"lng":137.871991,"prefecture":20,"lines":[11409],"attr":"cool","postal_code":"399-9301","address":"北安曇郡白馬村大字北城","next":[1140926,1140932,1140930,9941203,1141213],"voronoi":{"lat":36.777878,"lng":137.76746,"delta_lat":[0,-19292,-120376,-697,25763],"delta_lng":[0,-2032,224048,4331,17297]}},
    {"code":9941203,"id":"5acb4c","name":"鐘釣","name_kana":"かねつり","lat":36.734378,"lng":137.651315,"prefecture":16,"lines":[99412],"attr":"eco","postal_code":"938-0000","address":"黒部市宇奈月町黒部字黒部奥山国有林４６い林小班","next":[1140937,1140930,9940914,1140931,9941202,9940838,1140929,9941204,1140932],"voronoi":{"lat":36.758586,"lng":137.765427,"delta_lat":[0,-23394,-242,-43210,3436,15721,107903,-20122,-20800],"delta_lng":[0,-4234,-77,-236986,-2520,18863,212175,14319,492]}},
    {"code":9941202,"id":"19160e","name":"黒薙","name_kana":"くろなぎ","lat":36.786638,"lng":137.624738,"prefecture":16,"lines":[99412],"attr":"cool","postal_code":"938-0000","address":"黒部市宇奈月町黒部字黒部奥山国有林１０わ林小班","next":[1140513,9940838,1140937,9941203,9941201],"voronoi":{"lat":36.871205,"lng":137.730839,"delta_lat":[0,-52405,-107903,34741,134509],"delta_lng":[0,21809,-212175,24502,98258]}},
    {"code":9940835,"left":9940823,"right":9940837,"id":"56aa90","name":"愛本","name_kana":"あいもと","lat":36.855975,"lng":137.553769,"prefecture":16,"lines":[99408],"attr":"cool","postal_code":"938-0281","address":"黒部市宇奈月町内山","next":[9940834,9940836,9941201,1140512,1140513,1140511,9940837],"voronoi":{"lat":36.867596,"lng":137.60524,"delta_lat":[0,-19056,55417,-1363,-10645,-2303,-17610],"delta_lng":[0,-58820,7757,54247,27486,2967,-22465]}},
    {"code":9940823,"left":1140506,"right":9940834,"id":"ff4932","name":"経田","name_kana":"きょうでん","lat":36.848846,"lng":137.416203,"prefecture":16,"lines":[99408],"attr":"heat","postal_code":"937-0001","address":"魚津市浜経田","next":[9940828,9940824,1140508,9940827,9940822,9941513,1140506,9940826,1140507],"voronoi":{"lat":36.830261,"lng":137.457001,"delta_lat":[0,-3901,-14518,25153,64407,1969,-9547,-42136,-19482],"delta_lng":[0,2375,6602,-53671,-133536,-948,52842,102958,21930]}},
    {"code":1140506,"left":9940822,"id":"8507ed","name":"魚津","name_kana":"うおづ","lat":36.82642,"lng":137.405693,"prefecture":16,"lines":[11405,99425],"attr":"eco","postal_code":"937-0067","address":"魚津市釈迦堂","next":[9940821,9940832,9940823,9940828,9940830,9940822,9940829],"voronoi":{"lat":36.805782,"lng":137.470378,"delta_lat":[0,6061,25153,-15831,-38553,2473,1706],"delta_lng":[0,-4400,-53671,-10149,80651,-804,-873]}},
    {"code":9940822,"id":"a6d2f9","name":"新魚津","name_kana":"しんうおづ","lat":36.82657,"lng":137.405459,"prefecture":16,"lines":[99408],"attr":"heat","postal_code":"937-0067","address":"魚津市釈迦堂","next":[9940823,9941513,9940821,9940817,1140506,9940818],"voronoi":{"lat":36.86284,"lng":137.315562,"delta_lat":[0,30077,8485,-64407,-15831,35586],"delta_lng":[0,-33555,-3235,133536,-10149,-78845]}},
    {"code":9940834,"id":"aa94b5","name":"下立","name_kana":"おりたて","lat":36.857707,"lng":137.541396,"prefecture":16,"lines":[99408],"attr":"cool","postal_code":"938-0861","address":"黒部市宇奈月町下立","next":[9940833,9940835,1140511,9940837,9940836],"voronoi":{"lat":36.831686,"lng":137.534463,"delta_lat":[0,-4602,77946,-1073,-55417],"delta_lng":[0,-4241,17117,6838,-7757]}},
    {"code":9940837,"left":9940838,"right":9940836,"id":"ddf101","name":"音沢","name_kana":"おとざわ","lat":36.840716,"lng":137.559833,"prefecture":16,"lines":[99408],"attr":"cool","postal_code":"938-0000","address":"黒部市宇奈月町大滝","next":[9940821,9941201,9940820,9940838,9940834,9940833,9940832,9940836,9940835],"voronoi":{"lat":36.867596,"lng":137.60524,"delta_lat":[0,-35910,-4602,-33171,-29762,-912,-9914,96427,22284],"delta_lng":[0,-70777,-4241,-23229,-16700,146,2217,101771,21985]}},
    {"code":9940838,"id":"7cf1dd","name":"宇奈月温泉","name_kana":"うなづきおんせん","lat":36.815694,"lng":137.583541,"prefecture":16,"lines":[99408],"attr":"cool","postal_code":"938-0282","address":"黒部市宇奈月温泉桃原","next":[9940820,9940837,9941202,9940914,9941203,9941201],"voronoi":{"lat":36.753325,"lng":137.492657,"delta_lat":[0,-42517,-15632,15721,34741,104114],"delta_lng":[0,2683,26271,18863,24502,29452]}},
    {"code":9940836,"id":"967071","name":"内山","name_kana":"うちやま","lat":36.846826,"lng":137.556733,"prefecture":16,"lines":[99408],"attr":"cool","postal_code":"938-0281","address":"黒部市宇奈月町内山","next":[9940835,9940837,9940834],"voronoi":{"lat":36.867596,"lng":137.60524,"delta_lat":[0,-35910,16854],"delta_lng":[0,-70777,11957]}},
    {"code":1140707,"left":9940515,"right":1140310,"id":"1f853e","name":"上今井","name_kana":"かみいまい","lat":36.753947,"lng":138.319478,"prefecture":20,"lines":[11407],"attr":"eco","postal_code":"389-2102","address":"中野市上今井","next":[9940519,1140708,1140309,9940517,1140706,9940518],"voronoi":{"lat":36.755749,"lng":138.343483,"delta_lat":[0,15667,-12380,-27084,4096,2765],"delta_lng":[0,-60358,121,49476,5609,1726]}},
    {"code":9940515,"left":1140706,"right":9940517,"id":"929871","name":"小布施","name_kana":"おぶせ","lat":36.698942,"lng":138.312771,"prefecture":20,"lines":[99405],"attr":"heat","postal_code":"381-0201","address":"上高井郡小布施町小布施親木１４９７-２","next":[9940516,1140308,1140706,1140705,9940514],"voronoi":{"lat":36.692709,"lng":138.289925,"delta_lat":[0,9144,13200,42,-29548],"delta_lng":[0,2792,16929,241,16432]}},
    {"code":1140706,"left":1140705,"right":1140309,"id":"d21fd6","name":"立ヶ花","name_kana":"たてがはな","lat":36.731257,"lng":138.307057,"prefecture":20,"lines":[11407],"attr":"eco","postal_code":"389-1103","address":"長野県長野市豊野町蟹沢","next":[9940517,1140309,9940515,1140707,9940516,1140705],"voronoi":{"lat":36.715095,"lng":138.309886,"delta_lat":[0,11303,5555,27084,-6014,-37970],"delta_lng":[0,20408,2428,-49476,-2206,28605]}},
    {"code":1140705,"left":1140308,"id":"b2f53c","name":"信濃浅野","name_kana":"しなのあさの","lat":36.722011,"lng":138.294784,"prefecture":20,"lines":[11407],"attr":"eco","postal_code":"389-1104","address":"長野市豊野町浅野","next":[1140308,1140309,9940515,1140706],"voronoi":{"lat":36.753022,"lng":138.281041,"delta_lat":[0,-13952,-37218,13200],"delta_lng":[0,-9141,20817,16929]}},