{
  "name":"segment25",
  "root":3102742,
  "east":136.873051,
  "west":135.816602,
  "south":34.638653,
  "north":34.997587,
  "station_size":155,
  "node_list":[
    {"code":3102742,"left":1150908,"right":3000701,"id":"c51321","name":"久居","name_kana":"ひさい","lat":34.675543,"lng":136.477806,"prefecture":24,"lines":[31027],"attr":"heat","postal_code":"514-1118","address":"津市久居新町９９４-６","next":[3102743,3100547,1151006,3102741,3102740],"voronoi":{"lat":34.729596,"lng":136.42767,"delta_lat":[0,-59559,-1019,5105,34649],"delta_lng":[0,27695,39249,1215,-30646]},"impl":true},
    {"code":1150908,"left":3100539,"right":9960402,"id":"79194f","name":"島ヶ原","name_kana":"しまがはら","lat":34.767686,"lng":136.054184,"prefecture":24,"lines":[11509],"attr":"heat","postal_code":"519-1711","address":"三重県伊賀市島ヶ原広垣内5770","next":[3100538,9953115,9953102,1150909,9953103,3100537,9960406,9953108],"voronoi":{"lat":34.730044,"lng":136.089026,"delta_lat":[0,32622,58840,2743,-134724,9918,5518,23732],"delta_lng":[0,353,-17782,-42086,21538,21444,7329,8886]},"impl":true},
    {"code":3100539,"left":9953115,"right":3100540,"id":"ff94c3","name":"伊賀神戸","name_kana":"いがかんべ","lat":34.673639,"lng":136.152854,"prefecture":24,"lines":[31005,99531],"attr":"heat","postal_code":"518-0115","address":"伊賀市比土２６２８-３","next":[9953111,9953113,9953112,3100538,3100540],"voronoi":{"lat":34.629258,"lng":136.163912,"delta_lat":[0,63555,-1351,-5762,-38204],"delta_lng":[0,-34130,9015,14714,10980]},"impl":true},
    {"code":9953115,"left":1163702,"right":9953103,"id":"f4b82a","name":"四十九","name_kana":"しじゅく","lat":34.748194,"lng":136.137,"prefecture":24,"lines":[99531],"attr":"eco","postal_code":"518-0823","address":"三重県伊賀市四十九町","open_date":"2018-03-17","next":[9953103,9953108,1150908,9953107,9953109],"voronoi":{"lat":34.748446,"lng":136.163963,"delta_lat":[0,-19754,1351,20035,3429],"delta_lng":[0,-75254,318,30444,54018]},"impl":true},
    {"code":1163702,"left":3102019,"right":9953109,"id":"f41860","name":"京終","name_kana":"きょうばて","lat":34.670031,"lng":135.828446,"prefecture":29,"lines":[11637],"attr":"eco","postal_code":"630-8141","address":"奈良市南京終町","next":[1163703,1160704,1150912,1160705,1150911,3102019],"voronoi":{"lat":34.677018,"lng":135.825626,"delta_lat":[0,-15790,-3202,-10631,33768,1380],"delta_lng":[0,-17351,1828,127774,-28412,-2766]},"impl":true},
    {"code":3102019,"left":1163703,"right":1160702,"id":"0cc8f8","name":"近鉄奈良","name_kana":"きんてつなら","lat":34.684323,"lng":135.827472,"prefecture":29,"lines":[31020,31025],"attr":"eco","postal_code":"630-8215","address":"奈良市東向中町２９","next":[1160702,1160703,3102018,1150912,1160704,1163702],"voronoi":{"lat":34.677018,"lng":135.825626,"delta_lat":[0,13634,7467,12703,1036,-29315],"delta_lng":[0,-6135,496,19260,19969,47483]},"impl":true},
    {"code":1163703,"left":1160704,"id":"6d0b44","name":"帯解","name_kana":"おびとけ","lat":34.643156,"lng":135.82621,"prefecture":29,"lines":[11637],"attr":"eco","postal_code":"630-8444","address":"奈良市今市町１丁目","next":[1163702,3100533,1160705,1150911,3100532,1163704],"voronoi":{"lat":34.632,"lng":135.806335,"delta_lat":[0,26027,-10631,-191,-12396,-2137],"delta_lng":[0,3768,127774,205,-5053,-1883]},"impl":true},
    {"code":1160704,"id":"1da50f","name":"奈良","name_kana":"なら","lat":34.680482,"lng":135.818935,"prefecture":29,"lines":[11607,11618,11637],"attr":"eco","postal_code":"630-8122","address":"奈良市三条本町","next":[1163702,3102019,3102018,1160705],"voronoi":{"lat":34.677018,"lng":135.825626,"delta_lat":[0,13634,-25631,-3793],"delta_lng":[0,-6135,-15496,4280]},"impl":true},
    {"code":1160702,"id":"5541b7","name":"木津(京都)","original_name":"木津","name_kana":"きづ","lat":34.735962,"lng":135.824794,"prefecture":26,"lines":[11607,11617,11618],"attr":"eco","postal_code":"619-0214","address":"木津川市木津","next":[3102019,1161702,1160703,1161818,1150912],"voronoi":{"lat":34.748755,"lng":135.845538,"delta_lat":[0,-7645,-15453,-14835,1036],"delta_lng":[0,-31029,-1306,26044,19969]},"impl":true},
    {"code":9953109,"left":3100538,"right":9953108,"id":"577a5e","name":"市部","name_kana":"いちべ","lat":34.726245,"lng":136.148661,"prefecture":24,"lines":[99531],"attr":"cool","postal_code":"518-0102","address":"伊賀市市部４１７-２","next":[3100541,1150905,9953115,9953108,1150906,9953110,9953107],"voronoi":{"lat":34.753507,"lng":136.173489,"delta_lat":[0,-5061,-40851,36144,8114,3825,3725],"delta_lng":[0,-9526,-45129,88349,6262,-6277,-20008]},"impl":true},
    {"code":3100538,"left":3100537,"id":"389f20","name":"美旗","name_kana":"みはた","lat":34.662989,"lng":136.133022,"prefecture":24,"lines":[31005],"attr":"heat","postal_code":"518-0611","address":"名張市新田１８９１","next":[1150908,3100537,9953110,9953111,9953108,3100540,3100539],"voronoi":{"lat":34.609437,"lng":136.168279,"delta_lat":[0,90006,5518,-3042,-4992,-4114,-63555],"delta_lng":[0,-95786,7329,30062,12930,6967,34130]},"impl":true},
    {"code":3100537,"id":"cd4343","name":"桔梗が丘","name_kana":"ききょうがおか","lat":34.641297,"lng":136.112639,"prefecture":24,"lines":[31005],"attr":"heat","postal_code":"518-0621","address":"名張市桔梗が丘１番町１-１","next":[3100538,3100540,1151313,3100536,1150909,1150908],"voronoi":{"lat":34.609437,"lng":136.168279,"delta_lat":[0,-25014,-12329,111685,5746,9918],"delta_lng":[0,12119,-7002,-130197,7850,21444]},"impl":true},
    {"code":9953108,"id":"36a145","name":"猪田道","name_kana":"いだみち","lat":34.735424,"lng":136.140352,"prefecture":24,"lines":[99531],"attr":"cool","postal_code":"518-0101","address":"伊賀市依那具１０２４-４","next":[9953110,9953115,3100538,9953109,1150908],"voronoi":{"lat":34.704961,"lng":136.079823,"delta_lat":[0,-3042,5677,40851,-19754],"delta_lng":[0,30062,8949,45129,-75254]},"impl":true},
    {"code":9953103,"left":1150911,"right":9953105,"id":"1bcfba","name":"西大手","name_kana":"にしおおて","lat":34.766923,"lng":136.124675,"prefecture":24,"lines":[99531],"attr":"eco","postal_code":"518-0878","address":"伊賀市上野西大手町１","next":[9953115,9953106,9953102,9953104,9953107,1150907,1150908],"voronoi":{"lat":34.730044,"lng":136.089026,"delta_lat":[0,20035,6599,3367,18114,-164,-15329],"delta_lng":[0,30444,7048,1645,-2791,-2064,-33929]},"impl":true},
    {"code":1150911,"left":1150912,"right":1150909,"id":"66ea48","name":"笠置","name_kana":"かさぎ","lat":34.759086,"lng":135.934289,"prefecture":26,"lines":[11509],"attr":"cool","postal_code":"619-1303","address":"相楽郡笠置町笠置","next":[1150910,3300601,3100533,1150912,3100534,3300208,1161815,1163702,1163703,1150909],"voronoi":{"lat":34.661318,"lng":135.971721,"delta_lat":[0,-14114,191,33768,158300,16596,5240,4508,-191584,-6623],"delta_lng":[0,-33639,-205,-28412,-15935,7622,5549,30429,45480,277]},"impl":true},
    {"code":1150912,"left":1161818,"id":"5baa41","name":"加茂(京都)","original_name":"加茂","name_kana":"かも","lat":34.752575,"lng":135.869609,"prefecture":26,"lines":[11509,11607],"attr":"cool","postal_code":"619-1152","address":"木津川市加茂町里","next":[1161816,1150911,3102019,1161815,1163702,1160702,1161817,1161818],"voronoi":{"lat":34.768027,"lng":135.844691,"delta_lat":[0,36721,7692,27024,-158300,1380,29315,36897],"delta_lng":[0,15199,5841,27800,15935,-2766,-47483,-13678]},"impl":true},
    {"code":1161818,"id":"886b17","name":"上狛","name_kana":"かみこま","lat":34.750447,"lng":135.821225,"prefecture":26,"lines":[11618],"attr":"eco","postal_code":"619-0204","address":"木津川市山城町上狛","next":[1161817,1161702,1160702,3102521,3102522,1150912],"voronoi":{"lat":34.74111,"lng":135.81451,"delta_lat":[0,8455,7010,3908,7543,-19271],"delta_lng":[0,-6053,-1058,1301,35991,848]},"impl":true},
    {"code":1150909,"id":"8f8afe","name":"月ヶ瀬口","name_kana":"つきがせぐち","lat":34.762813,"lng":136.023703,"prefecture":26,"lines":[11509],"attr":"heat","postal_code":"619-1411","address":"京都府相楽郡南山城村大字北大河原小字殿田平尾53-3","next":[3100536,1150910,3100534,3100535,9960406,3100537,1150908,1150911],"voronoi":{"lat":34.669435,"lng":136.010707,"delta_lat":[0,3385,10959,5746,134724,2959,-152984,-6623],"delta_lng":[0,11014,21478,7850,-21538,-8994,-37907,277]},"impl":true},
    {"code":9953105,"left":9953107,"right":9953104,"id":"df73cf","name":"広小路(三重)","original_name":"広小路","name_kana":"ひろこうじ","lat":34.767054,"lng":136.134427,"prefecture":24,"lines":[99531],"attr":"eco","postal_code":"518-0831","address":"伊賀市上野農人町４２６-２","next":[1150907,9953104,9953106,1150906],"voronoi":{"lat":34.763433,"lng":136.131453,"delta_lat":[0,17192,6775,-15645],"delta_lng":[0,2060,12990,20214]},"impl":true},
    {"code":9953107,"left":9953106,"id":"6c1231","name":"桑町","name_kana":"くわまち","lat":34.754164,"lng":136.136621,"prefecture":24,"lines":[99531],"attr":"eco","postal_code":"518-0823","address":"伊賀市四十九町八反田２１３５","next":[1150906,9953115,9953106,9953103,9953109],"voronoi":{"lat":34.753507,"lng":136.173489,"delta_lat":[0,-3429,6599,6472,-3746],"delta_lng":[0,-54018,7048,53582,7059]},"impl":true},
    {"code":9953106,"id":"891bd3","name":"茅町","name_kana":"かやまち","lat":34.761524,"lng":136.135732,"prefecture":24,"lines":[99531],"attr":"eco","postal_code":"518-0838","address":"伊賀市上野茅町２６５２-２","next":[9953103,9953105,9953107,1150906,9953104],"voronoi":{"lat":34.771755,"lng":136.166718,"delta_lat":[0,-8606,-6472,3367,3389],"delta_lng":[0,13383,-53582,1645,3290]},"impl":true},
    {"code":9953104,"id":"56af99","name":"上野市","name_kana":"うえのし","lat":34.767654,"lng":136.129419,"prefecture":24,"lines":[99531],"attr":"eco","postal_code":"518-0873","address":"伊賀市上野丸之内６１-２","next":[9953105,9953103,1150907,9953106],"voronoi":{"lat":34.780626,"lng":136.133513,"delta_lat":[0,-2467,-18114,3389],"delta_lng":[0,-8141,2791,3290]},"impl":true},
    {"code":3100540,"left":1151306,"right":3100541,"id":"6ae63c","name":"青山町","name_kana":"あおやまちょう","lat":34.672848,"lng":136.177763,"prefecture":24,"lines":[31005],"attr":"heat","postal_code":"518-0226","address":"伊賀市阿保４０５","next":[3100542,9953112,3100537,3100538,3100541,9953113,1151313,3100539],"voronoi":{"lat":34.685018,"lng":136.170957,"delta_lat":[0,10509,-72065,-15883,-23156,25014,19821,18238],"delta_lng":[0,14071,25969,968,-31566,-12119,-4368,579]},"impl":true},
    {"code":1151306,"left":3100546,"right":3100547,"id":"401fa6","name":"井関","name_kana":"いせぎ","lat":34.642493,"lng":136.412653,"prefecture":24,"lines":[11513],"attr":"cool","postal_code":"515-2521","address":"津市一志町井関","next":[1151307,1151311,3100546,1151304,1151309,1151014,1151302,1151305,1151303],"voronoi":{"lat":34.543555,"lng":136.416567,"delta_lat":[0,-22792,-636,53203,4786,67798,7454,-17431,-36542],"delta_lng":[0,-11708,-2340,-21939,-315,18558,23061,9232,5364]},"impl":true},
    {"code":3100546,"left":1151307,"right":3100545,"id":"a23dce","name":"伊勢石橋","name_kana":"いせいしばし","lat":34.656783,"lng":136.408034,"prefecture":24,"lines":[31005],"attr":"eco","postal_code":"515-2524","address":"津市一志町大仰字久保垣内５２２-１","next":[1151003,3100545,1151306,1151307,3102740,1151305,3100547],"voronoi":{"lat":34.661357,"lng":136.422422,"delta_lat":[0,-7989,-7454,27079,78434,-13359,-3831],"delta_lng":[0,-538,-23061,-8021,14579,15501,2450]},"impl":true},
    {"code":1151307,"left":1151308,"id":"786718","name":"伊勢大井","name_kana":"いせおおい","lat":34.650013,"lng":136.385179,"prefecture":24,"lines":[11513],"attr":"cool","postal_code":"515-2523","address":"津市一志町井生","next":[1151306,3100545,1151309,3100546,1151308],"voronoi":{"lat":34.578116,"lng":136.380266,"delta_lat":[0,67798,27079,-23047,-53761],"delta_lng":[0,18558,-8021,-19880,4446]},"impl":true},
    {"code":1151308,"id":"a78c67","name":"伊勢川口","name_kana":"いせかわぐち","lat":34.64767,"lng":136.356849,"prefecture":24,"lines":[11513],"attr":"cool","postal_code":"515-2603","address":"津市白山町川口","next":[3100544,1151307,3100545,1151309],"voronoi":{"lat":34.657224,"lng":136.339814,"delta_lat":[0,4585,-11863,-53761],"delta_lng":[0,14971,16138,4446]},"impl":true},
    {"code":3100545,"id":"e6cbb8","name":"大三","name_kana":"おおみつ","lat":34.664058,"lng":136.368896,"prefecture":24,"lines":[31005],"attr":"eco","postal_code":"515-2602","address":"津市白山町二本木字横町８１５-１","next":[3100544,3100546,1150902,1151307,1151308,1151003],"voronoi":{"lat":34.672993,"lng":136.390802,"delta_lat":[0,-23047,11863,91821,-145,-2058],"delta_lng":[0,-19880,-16138,47998,1042,1557]},"impl":true},
    {"code":3100547,"left":1151304,"right":3102743,"id":"920cec","name":"川合高岡","name_kana":"かわいたかおか","lat":34.656425,"lng":136.436692,"prefecture":24,"lines":[31005],"attr":"eco","postal_code":"515-2516","address":"津市一志町田尻字垣内田９８-３","next":[3102743,3102742,1151305,1151304,3102740,3100546],"voronoi":{"lat":34.729596,"lng":136.42767,"delta_lat":[0,-59559,-2081,-14896,8298,72880],"delta_lng":[0,27695,355,-12971,-20326,910]},"impl":true},
    {"code":1151304,"left":1151305,"id":"181940","name":"伊勢八太","name_kana":"いせはた","lat":34.647523,"lng":136.446916,"prefecture":24,"lines":[11513],"attr":"cool","postal_code":"515-2514","address":"津市一志町小山（その他）","next":[1151303,3100547,1151306,3100548,1151305,3102743],"voronoi":{"lat":34.667956,"lng":136.455719,"delta_lat":[0,-14896,-17122,-36542,20430,29201],"delta_lng":[0,-12971,-11632,5364,17273,11778]},"impl":true},
    {"code":1151305,"id":"50ce1c","name":"一志","name_kana":"いちし","lat":34.654894,"lng":136.436067,"prefecture":24,"lines":[11513],"attr":"cool","postal_code":"515-2515","address":"津市一志町八太（その他）","next":[3100547,3100546,1151304,1151306],"voronoi":{"lat":34.653368,"lng":136.421884,"delta_lat":[0,7989,-8298,-17122],"delta_lng":[0,538,20326,-11632]},"impl":true},
    {"code":3102743,"id":"aab5c2","name":"桃園","name_kana":"ももぞの","lat":34.663372,"lng":136.47749,"prefecture":24,"lines":[31027],"attr":"heat","postal_code":"514-1123","address":"津市牧町３７５","next":[3100547,3102742,3100548,1151006,1151304],"voronoi":{"lat":34.649472,"lng":136.49679,"delta_lat":[0,19545,1019,-2081,-18929],"delta_lng":[0,-2177,-39249,355,9812]},"impl":true},
    {"code":3100541,"left":9953111,"right":3100543,"id":"6a81c9","name":"伊賀上津","name_kana":"いがこうづ","lat":34.682695,"lng":136.205088,"prefecture":24,"lines":[31005],"attr":"heat","postal_code":"518-0205","address":"伊賀市伊勢路１９２","next":[9953109,9953110,1150905,9953111,3100540,3100542,9953112],"voronoi":{"lat":34.72589,"lng":136.196005,"delta_lat":[0,17849,8114,-222,-128170,72065,16279],"delta_lng":[0,11177,6262,21616,-24064,-25969,4565]},"impl":true},
    {"code":9953111,"left":9953112,"right":9953110,"id":"07f3c1","name":"丸山(三重)","original_name":"丸山","name_kana":"まるやま","lat":34.704381,"lng":136.157461,"prefecture":24,"lines":[99531],"attr":"cool","postal_code":"518-0108","address":"伊賀市才良３５３-４","next":[3100539,3100538,3100541,9953112,9953110],"voronoi":{"lat":34.696926,"lng":136.122815,"delta_lat":[0,-4114,-1351,20344,14085],"delta_lng":[0,6967,9015,50796,6413]},"impl":true},
    {"code":9953112,"left":9953113,"id":"4cab50","name":"上林","name_kana":"うえばやし","lat":34.694998,"lng":136.161219,"prefecture":24,"lines":[99531],"attr":"heat","postal_code":"518-0112","address":"伊賀市上林原代２６-２","next":[3100540,3100539,9953113,9953111,3100541],"voronoi":{"lat":34.691462,"lng":136.138797,"delta_lat":[0,-5762,-682,10509,16279],"delta_lng":[0,14714,17446,14071,4565]},"impl":true},
    {"code":9953113,"id":"b6377b","name":"比土","name_kana":"ひど","lat":34.675828,"lng":136.16047,"prefecture":24,"lines":[99531],"attr":"heat","postal_code":"518-0115","address":"伊賀市比土城之越３３２-４","next":[3100539,9953112,3100540],"voronoi":{"lat":34.6857,"lng":136.15351,"delta_lat":[0,-38204,37522],"delta_lng":[0,10980,6466]},"impl":true},
    {"code":9953110,"id":"cc2895","name":"依那古","name_kana":"いなこ","lat":34.715199,"lng":136.15318,"prefecture":24,"lines":[99531],"attr":"cool","postal_code":"518-0103","address":"伊賀市沖１８-２","next":[9953108,3100541,3100538,9953109,9953111],"voronoi":{"lat":34.696926,"lng":136.122815,"delta_lat":[0,4992,5677,36144,-17849],"delta_lng":[0,-12930,8949,88349,-11177]},"impl":true},
    {"code":3100543,"left":3100544,"right":3100542,"id":"d743cf","name":"東青山","name_kana":"ひがしあおやま","lat":34.675599,"lng":136.321627,"prefecture":24,"lines":[31005],"attr":"cool","postal_code":"515-2623","address":"津市白山町上ノ村字北谷１０７４","next":[1151309,1150904,3100542,3100544,1150903,1151310],"voronoi":{"lat":34.658488,"lng":136.334534,"delta_lat":[0,99851,4934,-5037,-105587,-1858],"delta_lng":[0,3405,-44131,-13097,-1160,38859]},"impl":true},
    {"code":3100544,"id":"018456","name":"榊原温泉口","name_kana":"さかきばらおんせんぐち","lat":34.67468,"lng":136.348576,"prefecture":24,"lines":[31005],"attr":"cool","postal_code":"515-2621","address":"津市白山町佐田字寒谷１５２６-２","next":[3100545,1150902,1150903,1151308,3100543,1151309],"voronoi":{"lat":34.66181,"lng":136.354784,"delta_lat":[0,91821,6664,-1955,-99851,-1264],"delta_lng":[0,47998,-25150,-39694,-3405,5280]},"impl":true},
    {"code":3100542,"id":"f972ea","name":"西青山","name_kana":"にしあおやま","lat":34.676518,"lng":136.237988,"prefecture":24,"lines":[31005],"attr":"cool","postal_code":"518-0205","address":"伊賀市伊勢路青山１３５３-４","next":[1151313,3100540,3100543,1151312,1151310,1151311,1150905,3100541,1150904],"voronoi":{"lat":34.759313,"lng":136.270353,"delta_lat":[0,-7681,-128170,-15883,599,18095,5210,21167,105587],"delta_lng":[0,-35293,-24064,968,2797,45952,5623,13214,1160]},"impl":true},
    {"code":9960402,"left":3300604,"right":1151103,"id":"eba1c0","name":"紫香楽宮跡","name_kana":"しがらきぐうし","lat":34.915741,"lng":136.087967,"prefecture":25,"lines":[99604],"attr":"eco","postal_code":"529-1803","address":"甲賀市信楽町牧字下山","next":[1151104,1151107,1151109,9960403,1151105,1151108,1151106],"voronoi":{"lat":34.873618,"lng":136.138422,"delta_lat":[0,-2677,83748,278,3109,-14179,-25542],"delta_lng":[0,92,-103068,809,47086,32054,14158]},"impl":true},
    {"code":3300604,"left":1150910,"right":3300705,"id":"f54860","name":"粟津(滋賀)","original_name":"粟津","name_kana":"あわづ","lat":34.984789,"lng":135.895607,"prefecture":25,"lines":[33006],"attr":"heat","postal_code":"520-0835","address":"大津市別保１-７-６","next":[3300603,1160116,3300705,3300601,3300606,3300605],"voronoi":{"lat":34.985023,"lng":135.889408,"delta_lat":[0,-12355,-10421,3559,17201,6150],"delta_lng":[0,-18326,-2346,7997,21905,6547]},"impl":true},
    {"code":1150910,"left":3300603,"right":9960404,"id":"ea7202","name":"大河原(京都)","original_name":"大河原","name_kana":"おおかわら","lat":34.77175,"lng":135.987635,"prefecture":26,"lines":[11509],"attr":"heat","postal_code":"619-1411","address":"相楽郡南山城村大字北大河原","next":[1150911,1150909,3300601,9960406],"voronoi":{"lat":34.87332,"lng":135.954568,"delta_lat":[0,-7512,-191584,152984],"delta_lng":[0,-17438,45480,37907]},"impl":true},
    {"code":3300603,"left":3300601,"right":1160116,"id":"d39cb3","name":"京阪石山","name_kana":"けいはんいしやま","lat":34.979639,"lng":135.899651,"prefecture":25,"lines":[33006],"attr":"heat","postal_code":"520-0832","address":"大津市粟津町２番２８号","next":[3300604,3300602,3300601,1160116],"voronoi":{"lat":34.968888,"lng":135.886835,"delta_lat":[0,-3082,17201,-6560],"delta_lng":[0,-10103,21905,2626]},"impl":true},
    {"code":3300601,"left":3300602,"id":"0bebe9","name":"石山寺","name_kana":"いしやまでら","lat":34.967122,"lng":135.90347,"prefecture":25,"lines":[33006],"attr":"heat","postal_code":"520-0853","address":"大津市螢谷５-１３","next":[3300208,3300207,1150911,1160115,3300602,3300603,3300705,1150910,3300604,9960406,1161808,9961103],"voronoi":{"lat":34.917623,"lng":135.865727,"delta_lat":[0,-22726,-33598,4508,7512,36616,61608,-2656,-3082,-3559,-16855,-24215],"delta_lng":[0,15945,25030,30429,17438,20875,-55776,-32832,-10103,-7997,-9223,4281]},"impl":true},
    {"code":3300602,"id":"bf4dc0","name":"唐橋前","name_kana":"からはしまえ","lat":34.973304,"lng":135.90297,"prefecture":25,"lines":[33006],"attr":"heat","postal_code":"520-0854","address":"大津市鳥居川町７-１０","next":[1160116,3300601,3300603,1160115],"voronoi":{"lat":34.968888,"lng":135.886835,"delta_lat":[0,7559,5120,-10023],"delta_lng":[0,14428,12259,6145]},"impl":true},
    {"code":1160116,"id":"c328a7","name":"石山","name_kana":"いしやま","lat":34.97987,"lng":135.900228,"prefecture":25,"lines":[11601],"attr":"heat","postal_code":"520-0832","address":"大津市粟津町","next":[3300604,3300602,3300605,1160115,3300603],"voronoi":{"lat":34.983006,"lng":135.898638,"delta_lat":[0,6150,3401,-10991,-5120],"delta_lng":[0,6547,5162,3176,-12259]},"impl":true},
    {"code":9960404,"left":9960405,"right":9960403,"id":"51a447","name":"勅旨","name_kana":"ちょくし","lat":34.893681,"lng":136.073102,"prefecture":25,"lines":[99604],"attr":"heat","postal_code":"529-1804","address":"甲賀市信楽町勅旨字鳥居迫","next":[1150906,1160114,1151110,9960403,9960406,9960405],"voronoi":{"lat":34.86629,"lng":136.135377,"delta_lat":[0,79891,-2429,-9019,-33925,-38102],"delta_lng":[0,-125147,-4394,-7902,47645,86236]},"impl":true},
    {"code":9960405,"left":9960406,"id":"73f9bf","name":"玉桂寺前","name_kana":"ぎょくけいじまえ","lat":34.885257,"lng":136.06938,"prefecture":25,"lines":[99604],"attr":"heat","postal_code":"529-1804","address":"甲賀市信楽町勅旨字奥出","next":[1150907,1150906,9960406,9960404],"voronoi":{"lat":34.900807,"lng":136.045579,"delta_lat":[0,-58775,9801,10872],"delta_lng":[0,59241,17599,9396]},"impl":true},
    {"code":9960406,"id":"ba1668","name":"信楽","name_kana":"しがらき","lat":34.87713,"lng":136.061317,"prefecture":25,"lines":[99604],"attr":"cool","postal_code":"529-1851","address":"甲賀市信楽町長野","next":[1150907,9953102,9960405,1160114,9960404,1150909,3300601,1150910,1160115,1150908],"voronoi":{"lat":34.838119,"lng":136.099229,"delta_lat":[0,3914,58775,33925,-7870,-16927,-36616,-46112,-2959,-2743],"delta_lng":[0,5591,-59241,-47645,-8753,-13738,-20875,65949,8994,42086]},"impl":true},
    {"code":9960403,"id":"2f9b72","name":"雲井","name_kana":"くもい","lat":34.911249,"lng":136.084317,"prefecture":25,"lines":[99604],"attr":"eco","postal_code":"529-1803","address":"甲賀市信楽町牧字永楽","next":[1151109,9960404,9960402,1151110,1150906,1151104],"voronoi":{"lat":34.86629,"lng":136.135377,"delta_lat":[0,79891,1807,6701,-83748,-2215],"delta_lng":[0,-125147,2466,22749,103068,170]},"impl":true},
    {"code":3300705,"left":3300702,"right":3300606,"id":"cfbb14","name":"大谷(滋賀)","original_name":"大谷","name_kana":"おおたに","lat":34.994129,"lng":135.854116,"prefecture":25,"lines":[33007],"attr":"heat","postal_code":"520-0062","address":"大津市大谷町２３-５","next":[3300704,3300606,9961104,9961103,3300614,3300706,3300604,3300601,1160118,1160117],"voronoi":{"lat":34.986773,"lng":135.869308,"delta_lat":[0,11501,8558,25,-52615,-6835,-2016,16855,10421,3587],"delta_lng":[0,-9681,-15626,-455,8513,5436,2018,9223,2346,314]},"impl":true},
    {"code":3300702,"left":3300704,"right":1160119,"id":"a2d1dd","name":"京阪山科","name_kana":"けいはんやましな","lat":34.992039,"lng":135.816835,"prefecture":26,"lines":[33007],"attr":"heat","postal_code":"607-8012","address":"京都市山科区安朱桟敷町","next":[9961106,1160119,3300701,3300703],"voronoi":{"lat":34.989589,"lng":135.808014,"delta_lat":[0,-2436,-296,6646],"delta_lng":[0,-660,12965,126]},"impl":true},
    {"code":3300704,"left":3300703,"id":"099196","name":"追分(滋賀)","original_name":"追分","name_kana":"おいわけ","lat":34.991445,"lng":135.837528,"prefecture":25,"lines":[33007],"attr":"heat","postal_code":"520-0064","address":"大津市追分町６-２６","next":[3300705,3300703,9961105,9961104,9961106,3300614],"voronoi":{"lat":34.954243,"lng":135.852059,"delta_lat":[0,7870,11447,5927,35374,-8003],"delta_lng":[0,-9594,-9395,-2720,1197,11999]},"impl":true},
    {"code":3300703,"id":"72e0bd","name":"四宮","name_kana":"しのみや","lat":34.991903,"lng":135.823996,"prefecture":26,"lines":[33007],"attr":"cool","postal_code":"607-8045","address":"京都市山科区四ノ宮堂ノ後町","next":[9961106,1160119,3300704,3300615,3300614,3300702],"voronoi":{"lat":34.986858,"lng":135.820318,"delta_lat":[0,-7371,35374,6059,3041,-30457],"delta_lng":[0,10031,1197,-5090,-2974,-3038]},"impl":true},
    {"code":1160119,"id":"a4984d","name":"山科","name_kana":"やましな","lat":34.992636,"lng":135.816647,"prefecture":26,"lines":[11601,11605,99611],"attr":"heat","postal_code":"607-8009","address":"京都市山科区安朱北屋敷町","next":[9961109,3300615,3300703,3300616,3300702,3300701],"voronoi":{"lat":35.028467,"lng":135.819835,"delta_lat":[0,-1178,-3329,-30457,-3914,31129],"delta_lng":[0,1069,2578,-3038,-12431,7305]},"impl":true},
    {"code":3300606,"left":1160115,"right":3300607,"id":"3cba68","name":"中ノ庄","name_kana":"なかのしょう","lat":34.990857,"lng":135.891516,"prefecture":25,"lines":[33006],"attr":"heat","postal_code":"520-0837","address":"大津市中庄２-１６-２","next":[3300605,3300607,3300705,1160117,3300608,3300604],"voronoi":{"lat":34.997924,"lng":135.89992,"delta_lat":[0,-8561,-3889,-9220,-3587,12355],"delta_lng":[0,-16911,-4460,-7153,-314,18326]},"impl":true},
    {"code":1160115,"left":3300605,"id":"ba479c","name":"瀬田(滋賀)","original_name":"瀬田","name_kana":"せた","lat":34.987223,"lng":135.925673,"prefecture":25,"lines":[11601],"attr":"heat","postal_code":"520-2144","address":"大津市大萱１丁目","next":[3300607,3300601,3300605,1160114,3300602,1160116,9960406],"voronoi":{"lat":34.909935,"lng":135.975443,"delta_lat":[0,61608,10023,10991,13758,17628,-97081],"delta_lng":[0,-55776,-6145,-3176,463,3926,74446]},"impl":true},
    {"code":3300605,"id":"a53770","name":"瓦ヶ浜","name_kana":"かわらがはま","lat":34.988266,"lng":135.894696,"prefecture":25,"lines":[33006],"attr":"heat","postal_code":"520-0837","address":"滋賀県大津市中庄一丁目","next":[3300606,3300607,1160115,1160116,3300604],"voronoi":{"lat":34.985023,"lng":135.889408,"delta_lat":[0,12902,8391,-13758,-3401],"delta_lng":[0,10512,10890,-463,-5162]},"impl":true},
    {"code":3300607,"id":"15c0ac","name":"膳所本町","name_kana":"ぜぜほんまち","lat":34.995335,"lng":135.889249,"prefecture":25,"lines":[33006],"attr":"heat","postal_code":"520-0815","address":"大津市膳所２-８-５","next":[3300608,3300606,1160504,1160115,3300605,1160114],"voronoi":{"lat":35.006316,"lng":135.91081,"delta_lat":[0,-8391,-8561,47315,101,-12836],"delta_lng":[0,-10890,-16911,29599,246,1882]},"impl":true},
    {"code":1151103,"left":1151102,"right":9960122,"id":"eb1251","name":"甲賀","name_kana":"こうか","lat":34.9013,"lng":136.212679,"prefecture":25,"lines":[11511],"attr":"cool","postal_code":"520-3433","address":"甲賀市甲賀町大原市場","next":[9960119,9960120,1151104,1150905,1151102],"voronoi":{"lat":34.862118,"lng":136.19811,"delta_lat":[0,2252,84930,5820,-1139],"delta_lng":[0,-29234,56367,17506,18647]},"impl":true},
    {"code":1151102,"left":1150906,"right":1150902,"id":"5b2841","name":"油日","name_kana":"あぶらひ","lat":34.889691,"lng":136.22953,"prefecture":25,"lines":[11511],"attr":"cool","postal_code":"520-3421","address":"甲賀市甲賀町上野","next":[1150904,1150905,1151103,1150903,9960119],"voronoi":{"lat":34.953981,"lng":136.261396,"delta_lat":[0,-91863,-7456,49505,54995],"delta_lng":[0,-63286,22191,80758,23359]},"impl":true},
    {"code":1150906,"left":1150907,"right":1150905,"id":"f1fa3e","name":"佐那具","name_kana":"さなぐ","lat":34.804193,"lng":136.163171,"prefecture":24,"lines":[11509],"attr":"eco","postal_code":"518-0011","address":"伊賀市外山","next":[9960404,1150905,9960405,1150907,9953107,9953106,9953105,9953109,1151104,9960403],"voronoi":{"lat":34.863537,"lng":136.164918,"delta_lat":[0,-107858,3725,3746,8606,15645,64433,10872,3584,2436],"delta_lng":[0,42249,-20008,-7059,-13383,-20214,-24084,9396,3562,3306]},"impl":true},
    {"code":1150907,"left":9953102,"id":"5fd21f","name":"伊賀上野","name_kana":"いがうえの","lat":34.789143,"lng":136.122907,"prefecture":24,"lines":[11509,99531],"attr":"heat","postal_code":"518-0022","address":"伊賀市三田","next":[9960405,9953105,9960406,1150906,9953102,9953104,9953103],"voronoi":{"lat":34.777995,"lng":136.123308,"delta_lat":[0,60124,3914,9801,-64433,-6775,-2467],"delta_lng":[0,-24079,5591,17599,24084,-12990,-8141]},"impl":true},
    {"code":9953102,"id":"309792","name":"新居","name_kana":"にい","lat":34.786338,"lng":136.115903,"prefecture":24,"lines":[99531],"attr":"eco","postal_code":"518-0024","address":"伊賀市東高倉８３-２","next":[9960406,9953103,1150908,1150907],"voronoi":{"lat":34.762665,"lng":136.089379,"delta_lat":[0,58840,16613,-60124],"delta_lng":[0,-17782,27632,24079]},"impl":true},
    {"code":1150905,"id":"1a47ab","name":"新堂","name_kana":"しんどう","lat":34.821168,"lng":136.206507,"prefecture":24,"lines":[11509],"attr":"eco","postal_code":"519-1416","address":"伊賀市新堂中出","next":[1150906,1150904,1151104,9953109,1151102,1151103,3100541,3100542],"voronoi":{"lat":34.854662,"lng":136.220301,"delta_lat":[0,7456,2252,-834,-107858,-3825,-222,7681],"delta_lng":[0,-22191,-29234,-3958,42249,6277,21616,35293]},"impl":true},
    {"code":1150902,"left":1150903,"right":1150818,"id":"734da7","name":"関(三重)","original_name":"関","name_kana":"せき","lat":34.849064,"lng":136.394777,"prefecture":24,"lines":[11509],"attr":"cool","postal_code":"519-1111","address":"亀山市関町新所","next":[3100544,3100545,1151002,1151003,1150818,1150903,3100810],"voronoi":{"lat":34.96975,"lng":136.352927,"delta_lat":[0,-209456,-6664,-145,3112,41839,138298],"delta_lng":[0,24705,25150,1042,2568,17176,-2581]},"impl":true},
    {"code":1150903,"left":1150904,"id":"615ae8","name":"加太(三重)","original_name":"加太","name_kana":"かぶと","lat":34.842639,"lng":136.340305,"prefecture":24,"lines":[11509],"attr":"cool","postal_code":"519-1122","address":"亀山市加太市場","next":[3100810,1150904,3100544,9960119,3100543,1151102,1150902],"voronoi":{"lat":34.758339,"lng":136.337939,"delta_lat":[0,4934,140894,54995,15700,-5112,-209456],"delta_lng":[0,-44131,7252,23359,22029,6480,24705]},"impl":true},
    {"code":1150904,"id":"7820a8","name":"柘植","name_kana":"つげ","lat":34.846993,"lng":136.255704,"prefecture":24,"lines":[11509,11511],"attr":"cool","postal_code":"519-1402","address":"伊賀市柘植町小林","next":[1151102,1150905,1150903,3100543,3100542],"voronoi":{"lat":34.759313,"lng":136.270353,"delta_lat":[0,95350,49505,-140894,-5037],"delta_lng":[0,-50052,80758,-7252,-13097]},"impl":true},
    {"code":1150818,"id":"bdd8a9","name":"亀山(三重)","original_name":"亀山","name_kana":"かめやま","lat":34.850103,"lng":136.450451,"prefecture":24,"lines":[11508,11509,11510],"attr":"cool","postal_code":"519-0155","address":"亀山市御幸町","next":[3100810,1151002,1150902,1150817],"voronoi":{"lat":34.798436,"lng":136.423569,"delta_lat":[0,138298,-2616,-91003],"delta_lng":[0,-2581,18238,39276]},"impl":true},
    {"code":9960122,"left":9960123,"right":9960121,"id":"1f3979","name":"水口石橋","name_kana":"みなくちいしばし","lat":34.970072,"lng":136.171625,"prefecture":25,"lines":[99601],"attr":"eco","postal_code":"528-0014","address":"甲賀市水口町鹿深４５０８-１","next":[9960121,9960123,1151105],"voronoi":{"lat":34.950651,"lng":136.174482,"delta_lat":[0,35036,-36272],"delta_lng":[0,-11084,29031]},"impl":true},
    {"code":9960123,"left":1151105,"right":1151107,"id":"10e5b5","name":"水口城南","name_kana":"みなくちじょうなん","lat":34.968181,"lng":136.165648,"prefecture":25,"lines":[99601],"attr":"eco","postal_code":"528-0005","address":"甲賀市水口町水口字宮ノ下５６６８-２","next":[9960121,1151107,1151106,9960122,1151105],"voronoi":{"lat":34.950496,"lng":136.172804,"delta_lat":[0,23480,33435,-21725,-35036],"delta_lng":[0,-31616,10441,11768,11084]},"impl":true},
    {"code":1151105,"left":1151106,"id":"180114","name":"甲南","name_kana":"こうなん","lat":34.931804,"lng":136.16899,"prefecture":25,"lines":[11511],"attr":"cool","postal_code":"520-3322","address":"甲賀市甲南町深川","next":[9960121,1151104,9960122,1151106,9960402,9960123],"voronoi":{"lat":34.949415,"lng":136.192428,"delta_lat":[0,-497,-75300,44737,32142,154],"delta_lng":[0,2689,-56696,-8869,43252,1677]},"impl":true},
    {"code":1151106,"id":"2fb546","name":"貴生川","name_kana":"きぶかわ","lat":34.952236,"lng":136.153806,"prefecture":25,"lines":[11511,99601,99604],"attr":"eco","postal_code":"528-0041","address":"甲賀市水口町虫生野","next":[9960123,1151107,1151105,9960402],"voronoi":{"lat":34.943897,"lng":136.115394,"delta_lat":[0,30080,-23480,-32142],"delta_lng":[0,25794,31616,-43252]},"impl":true},
    {"code":1151107,"id":"7c82f7","name":"三雲","name_kana":"みくも","lat":34.983131,"lng":136.117777,"prefecture":25,"lines":[11511],"attr":"eco","postal_code":"520-3221","address":"湖南市三雲","next":[1151108,9960116,9960123,9960402,1151106,9960115,9960117,9960121],"voronoi":{"lat":35.007411,"lng":136.15163,"delta_lat":[0,-33435,-30080,14179,86534,-8232,-703,-16110],"delta_lng":[0,-10441,-25794,-32054,42807,12047,826,14439]},"impl":true},
    {"code":9960121,"left":1151104,"right":9960120,"id":"bb43f3","name":"水口","name_kana":"みなくち","lat":34.974238,"lng":136.17683,"prefecture":25,"lines":[99601],"attr":"eco","postal_code":"528-0005","address":"甲賀市水口町水口２４６９","next":[9960120,1151104,1151105,9960123,9960117,9960122,1151107],"voronoi":{"lat":35.019109,"lng":136.155549,"delta_lat":[0,-69572,-620,497,36272,21725,12153],"delta_lng":[0,43336,-3768,-2689,-29031,-11768,1830]},"impl":true},
    {"code":1151104,"id":"31ad62","name":"寺庄","name_kana":"てらしょう","lat":34.919078,"lng":136.185892,"prefecture":25,"lines":[11511],"attr":"cool","postal_code":"520-3301","address":"甲賀市甲南町寺庄","next":[9960121,1151105,9960402,1150905,1151103,1150906,9960403,9960120],"voronoi":{"lat":34.86437,"lng":136.168876,"delta_lat":[0,-834,5189,2215,2677,75300,620,-237],"delta_lng":[0,-3958,-26235,-170,-92,56696,3768,26358]},"impl":true},
    {"code":9960120,"id":"0ebc68","name":"水口松尾","name_kana":"みなくちまつお","lat":34.980224,"lng":136.18644,"prefecture":25,"lines":[99601],"attr":"eco","postal_code":"528-0005","address":"甲賀市水口町水口字知神１６３７-１","next":[9960121,1151103,9960119,9960118,9960117,1151104],"voronoi":{"lat":34.955121,"lng":136.242749,"delta_lat":[0,52236,11021,732,-69572,-237],"delta_lng":[0,-50593,-29334,-7273,43336,26358]},"impl":true},
    {"code":3000701,"left":9953004,"right":3102723,"id":"bea5fb","name":"常滑","name_kana":"とこなめ","lat":34.891167,"lng":136.834992,"prefecture":23,"lines":[30007,30008],"attr":"eco","postal_code":"479-0838","address":"常滑市鯉江本町５-１４１","next":[3000702,3000824,3000915,3000910,3000908,3000916,3000825],"voronoi":{"lat":34.888859,"lng":136.825784,"delta_lat":[0,-26640,7344,34965,4413,9625,-10747],"delta_lng":[0,44857,2957,5557,-1311,-4620,-21778]},"impl":true},
    {"code":9953004,"left":3102736,"right":9953003,"id":"9e9024","name":"鈴鹿サーキット稲生","name_kana":"すずかさーきっといのう","lat":34.841053,"lng":136.555154,"prefecture":24,"lines":[99530],"attr":"eco","postal_code":"510-0201","address":"鈴鹿市稲生町西３丁目８","next":[3102733,3102732,9953005,9953003,3101905],"voronoi":{"lat":34.850172,"lng":136.527621,"delta_lat":[0,-24305,2525,10540,20364],"delta_lng":[0,32398,5232,5981,-19225]},"impl":true},
    {"code":3102736,"left":1151004,"right":3101905,"id":"a110e1","name":"白塚","name_kana":"しらつか","lat":34.77066,"lng":136.53254,"prefecture":24,"lines":[31027],"attr":"cool","postal_code":"514-0101","address":"津市白塚町８２０-２","next":[1151006,3102735,3102734,3102737,3102738,9953009,9953008,1151004],"voronoi":{"lat":34.694224,"lng":136.650586,"delta_lat":[0,7227,75494,-3304,-7919,-22275,-29393,-10494],"delta_lng":[0,-8496,-102921,-22073,4633,21540,41669,17340]},"impl":true},
    {"code":1151004,"left":3102740,"right":3102737,"id":"e0a200","name":"津","name_kana":"つ","lat":34.73422,"lng":136.510486,"prefecture":24,"lines":[11510,31027,99530],"attr":"heat","postal_code":"514-0009","address":"津市羽所町","next":[1151003,3102738,1151006,3102736,1151005,3102740],"voronoi":{"lat":34.738926,"lng":136.480313,"delta_lat":[0,6073,-30945,-10494,-494,13130],"delta_lng":[0,15619,89006,17340,-15928,-65514]},"impl":true},
    {"code":3102740,"left":1151005,"right":1151003,"id":"497f0c","name":"津新町","name_kana":"つしんまち","lat":34.715632,"lng":136.50006,"prefecture":24,"lines":[31027],"attr":"heat","postal_code":"514-0042","address":"津市新町１-５-３５","next":[1151003,1151005,3100547,3100546,3102741,1151004,3102742],"voronoi":{"lat":34.729596,"lng":136.42767,"delta_lat":[0,4642,3831,858,-22730,-11025,3600],"delta_lng":[0,-4337,-2450,59430,40523,-31112,-24541]},"impl":true},
    {"code":1151005,"left":3102741,"id":"9877f5","name":"阿漕","name_kana":"あこぎ","lat":34.703554,"lng":136.50434,"prefecture":24,"lines":[11510],"attr":"cool","postal_code":"514-0838","address":"津市岩田字大倉","next":[3102740,1151006,3102741,1151004],"voronoi":{"lat":34.687178,"lng":136.516227,"delta_lat":[0,17994,11025,-13130],"delta_lng":[0,-26503,31112,65514]},"impl":true},
    {"code":3102741,"id":"21e6ee","name":"南が丘","name_kana":"みなみがおか","lat":34.692183,"lng":136.49662,"prefecture":24,"lines":[31027],"attr":"heat","postal_code":"514-0821","address":"津市大字垂水東焼尾２６１２-５９","next":[1151005,1151006,3102740,3102742],"voronoi":{"lat":34.708772,"lng":136.465183,"delta_lat":[0,-3600,-17994,-13055],"delta_lng":[0,24541,26503,-20398]},"impl":true},
    {"code":1151003,"id":"513e9a","name":"一身田","name_kana":"いしんでん","lat":34.76278,"lng":136.49938,"prefecture":24,"lines":[11510],"attr":"cool","postal_code":"514-0125","address":"津市大里窪田町","next":[1151004,3102740,3100546,3102738,1151002,1150902,9953008,9953009,3100545],"voronoi":{"lat":34.738069,"lng":136.420883,"delta_lat":[0,858,6073,5142,28319,15105,-36968,-3112,-2058],"delta_lng":[0,59430,15619,6440,9027,-8713,-96293,-2568,1557]},"impl":true},
    {"code":3102737,"left":3102738,"right":9953009,"id":"44db95","name":"高田本山","name_kana":"たかだほんざん","lat":34.755082,"lng":136.516431,"prefecture":24,"lines":[31027],"attr":"cool","postal_code":"514-0111","address":"津市一身田平野３６９-２","next":[3102736,9953009,3102738],"voronoi":{"lat":34.751074,"lng":136.50936,"delta_lat":[0,14648,-22275],"delta_lng":[0,12369,21540]},"impl":true},
    {"code":3102738,"left":1151006,"id":"738d90","name":"江戸橋","name_kana":"えどばし","lat":34.744425,"lng":136.514034,"prefecture":24,"lines":[31027],"attr":"cool","postal_code":"514-0008","address":"津市上浜町３-１３７-１","next":[1151004,1151003,3102736,3102737,9953009],"voronoi":{"lat":34.750141,"lng":136.502372,"delta_lat":[0,-5142,-30945,29393,7627],"delta_lng":[0,-6440,89006,-41669,-33909]},"impl":true},
    {"code":1151006,"id":"4e00be","name":"高茶屋","name_kana":"たかちゃや","lat":34.667277,"lng":136.51256,"prefecture":24,"lines":[11510],"attr":"cool","postal_code":"514-0817","address":"津市高茶屋小森町","next":[3100906,3102736,1151007,1151004,1151005,3102741,3100909,3100903,3102742,1151008,3100548,3100908,3102734,3102743],"voronoi":{"lat":34.643124,"lng":136.502696,"delta_lat":[0,-6543,1679,5372,19302,20798,3954,6539,9336,-494,-15889,-13055,-5105,-19545],"delta_lng":[0,65328,18637,20855,32411,26173,4140,-19654,-48308,-15928,-70123,-20398,-1215,2177]},"impl":true},
    {"code":9953009,"id":"bd757e","name":"東一身田","name_kana":"ひがしいしんでん","lat":34.758717,"lng":136.512126,"prefecture":24,"lines":[99530],"attr":"heat","postal_code":"514-0111","address":"津市一身田平野","next":[9953008,3102736,3102737,1151003,3102738],"voronoi":{"lat":34.750141,"lng":136.502372,"delta_lat":[0,28319,-4819,-7919,-14648],"delta_lng":[0,9027,5697,4633,-12369]},"impl":true},
    {"code":3101905,"left":1150817,"right":9953006,"id":"182b72","name":"平田町","name_kana":"ひらたちょう","lat":34.875124,"lng":136.542406,"prefecture":24,"lines":[31019],"attr":"heat","postal_code":"513-0806","address":"鈴鹿市算所３-１-１","next":[3101904,1150816,9953003,9953005,9953004,1150817],"voronoi":{"lat":34.867822,"lng":136.518065,"delta_lat":[0,25028,-28386,-5169,-9124,-243],"delta_lng":[0,30403,7283,-3745,-24386,-7107]},"impl":true},
    {"code":1150817,"left":9953008,"right":1150816,"id":"eff642","name":"井田川","name_kana":"いだがわ","lat":34.868319,"lng":136.492658,"prefecture":24,"lines":[11508],"attr":"heat","postal_code":"519-0101","address":"亀山市井田川町","next":[1150816,3100810,1151002,9953005,3101905,1150818],"voronoi":{"lat":34.934118,"lng":136.439225,"delta_lat":[0,4893,-71189,-17894,-14148,7335],"delta_lng":[0,36817,42023,2448,-11565,-30447]},"impl":true},
    {"code":9953008,"left":1151002,"id":"94a847","name":"河芸","name_kana":"かわげ","lat":34.781015,"lng":136.53099,"prefecture":24,"lines":[99530],"attr":"cool","postal_code":"510-0314","address":"津市河芸町浜田","next":[9953007,9953009,3102735,3102736,1151003,1151002],"voronoi":{"lat":34.792403,"lng":136.533915,"delta_lat":[0,-15457,-3304,4819,15105,12529],"delta_lng":[0,5254,-22073,-5697,-8713,8102]},"impl":true},
    {"code":1151002,"id":"1374f4","name":"下庄","name_kana":"しものしょう","lat":34.81423,"lng":136.479628,"prefecture":24,"lines":[11510],"attr":"cool","postal_code":"519-0133","address":"亀山市下庄町","next":[9953005,9953006,1150818,1150902,1150817,1151003,9953007,9953008],"voronoi":{"lat":34.793565,"lng":136.502685,"delta_lat":[0,-36968,41839,44679,-7335,-14191,-13825,-1670],"delta_lng":[0,-96293,17176,54933,30447,2655,-450,-366]},"impl":true},
    {"code":1150816,"id":"8a6aff","name":"加佐登","name_kana":"かさど","lat":34.890307,"lng":136.529907,"prefecture":24,"lines":[11508],"attr":"eco","postal_code":"513-0003","address":"鈴鹿市加佐登町","next":[3101904,3101905,3100810,3100805,1150817,3100807,3101308,3100809,1150815,3100806],"voronoi":{"lat":34.947189,"lng":136.501779,"delta_lat":[0,-696,-2408,-5073,-71189,25028,1454,42820,172,9682],"delta_lng":[0,-6572,-8235,-10930,42023,30403,452,-8506,-107,-36624]},"impl":true},
    {"code":9953006,"left":3102735,"right":9953005,"id":"a7a9c7","name":"中瀬古","name_kana":"なかせこ","lat":34.812167,"lng":136.543033,"prefecture":24,"lines":[99530],"attr":"cool","postal_code":"510-0259","address":"鈴鹿市中瀬古町字杉山","next":[1151002,9953007,3102733,9953005,3102734],"voronoi":{"lat":34.805959,"lng":136.550278,"delta_lat":[0,1806,13825,-3271,-6870],"delta_lng":[0,-39124,450,44252,118]},"impl":true},
    {"code":3102735,"left":9953007,"id":"1935fe","name":"豊津上野","name_kana":"とよつうえの","lat":34.785156,"lng":136.543173,"prefecture":24,"lines":[31027],"attr":"cool","postal_code":"510-0305","address":"津市河芸町中別保１５８１-１","next":[3102736,9953007,9953008,3102734],"voronoi":{"lat":34.79305,"lng":136.548441,"delta_lat":[0,-647,-15457,-75494],"delta_lng":[0,-14526,5254,102921]},"impl":true},
    {"code":9953007,"id":"01c546","name":"伊勢上野","name_kana":"いせうえの","lat":34.800444,"lng":136.542492,"prefecture":24,"lines":[99530],"attr":"cool","postal_code":"510-0304","address":"津市河芸町上野","next":[9953008,9953006,3102735,1151002,3102734],"voronoi":{"lat":34.807764,"lng":136.511154,"delta_lat":[0,-1670,-13692,647,12909],"delta_lng":[0,-366,23127,14526,1837]},"impl":true},
    {"code":9953005,"id":"24282e","name":"徳田(三重)","original_name":"徳田","name_kana":"とくだ","lat":34.826288,"lng":136.544077,"prefecture":24,"lines":[99530],"attr":"eco","postal_code":"510-0251","address":"鈴鹿市徳田町","next":[1151002,3101905,9953006,9953004,1150817,3102733],"voronoi":{"lat":34.850172,"lng":136.527621,"delta_lat":[0,-243,-14148,-14191,-3271,7548],"delta_lng":[0,-7107,-11565,2655,44252,4163]},"impl":true},
    {"code":9953003,"left":3102730,"right":3101901,"id":"7239d1","name":"玉垣","name_kana":"たまがき","lat":34.855104,"lng":136.570038,"prefecture":24,"lines":[99530],"attr":"eco","postal_code":"513-0817","address":"鈴鹿市桜島町１丁目２０","next":[3102731,9953002,3101905,3101902,3102732,3102730,3101904,9953004,3101903],"voronoi":{"lat":34.870279,"lng":136.574673,"delta_lat":[0,-5814,-5169,-20364,1749,12316,409,11374,4942],"delta_lng":[0,-18921,-3745,19225,4485,13453,3,-7146,-6097]},"impl":true},
    {"code":3102730,"left":3102732,"right":3001003,"id":"94defd","name":"千代崎","name_kana":"ちよざき","lat":34.854793,"lng":136.608332,"prefecture":24,"lines":[31027],"attr":"cool","postal_code":"510-0226","address":"鈴鹿市岸岡町１０９-２","next":[3101901,3102731,3001005,9953003,3101902,3000703],"voronoi":{"lat":34.743801,"lng":136.711708,"delta_lat":[0,109195,409,12516,-61966,-51310],"delta_lng":[0,-122538,3,16763,107562,1102]},"impl":true},
    {"code":3102732,"left":3102733,"right":3102731,"id":"6dca61","name":"鼓ヶ浦","name_kana":"つづみがうら","lat":34.826219,"lng":136.581299,"prefecture":24,"lines":[31027],"attr":"cool","postal_code":"510-0254","address":"三重県鈴鹿市寺家四丁目16-16","next":[3102733,9953004,9953003,3102731],"voronoi":{"lat":34.84068,"lng":136.575716,"delta_lat":[0,-1749,-10540,-116030],"delta_lng":[0,-4485,-5981,127168]},"impl":true},
    {"code":3102733,"left":3102734,"id":"8971df","name":"磯山","name_kana":"いそやま","lat":34.812609,"lng":136.568881,"prefecture":24,"lines":[31027],"attr":"cool","postal_code":"510-0256","address":"鈴鹿市磯山２-１２-６","next":[3102732,9953004,9953006,3100909,3001005,3102734,9953005,3102731],"voronoi":{"lat":34.696961,"lng":136.701591,"delta_lat":[0,-3648,118135,6870,7548,2525,-116030,-9745],"delta_lng":[0,-13929,-131688,-118,4163,5232,127168,9953]},"impl":true},
    {"code":3102734,"id":"12008f","name":"千里(三重)","original_name":"千里","name_kana":"ちさと","lat":34.798491,"lng":136.556216,"prefecture":24,"lines":[31027],"attr":"cool","postal_code":"510-0304","address":"津市河芸町上野１０６-２","next":[3100909,3102736,3102735,9953007,3102733,1151006,9953006],"voronoi":{"lat":34.805959,"lng":136.550278,"delta_lat":[0,-12909,-91598,-7227,-6539,5628,118135],"delta_lng":[0,-1837,93649,8496,19654,17422,-131688]},"impl":true},
    {"code":3102731,"id":"7838c7","name":"白子","name_kana":"しろこ","lat":34.833754,"lng":136.589584,"prefecture":24,"lines":[31027],"attr":"cool","postal_code":"510-0241","address":"鈴鹿市白子駅前２２-１","next":[9953003,3102730,3102732,3001005,3102733],"voronoi":{"lat":34.712361,"lng":136.692419,"delta_lat":[0,128319,12316,-109195,-41185],"delta_lng":[0,-116702,13453,122538,-9336]},"impl":true},
    {"code":3001003,"left":3001004,"right":3001002,"id":"fa5f47","name":"美浜緑苑","name_kana":"みはまりょくえん","lat":34.80028,"lng":136.863063,"prefecture":23,"lines":[30010],"attr":"heat","postal_code":"470-3233","address":"知多郡美浜町大字奥田字笑廻間２０-３","next":[3001002,3000703,3001004,3001005],"voronoi":{"lat":34.792211,"lng":136.792265,"delta_lat":[0,30238,-26697,-6257],"delta_lng":[0,38206,49325,-55598]},"impl":true},
    {"code":3001004,"left":3001005,"id":"ca1068","name":"知多奥田","name_kana":"ちたおくだ","lat":34.787617,"lng":136.864488,"prefecture":23,"lines":[30010],"attr":"cool","postal_code":"470-3233","address":"知多郡美浜町大字奥田字森越７０-３","next":[3001005,3001002,3000921,3001003],"voronoi":{"lat":34.789495,"lng":136.824198,"delta_lat":[0,-15531,20451,1337],"delta_lng":[0,62521,4192,-11115]},"impl":true},
    {"code":3001005,"id":"d893b6","name":"野間","name_kana":"のま","lat":34.7723,"lng":136.860683,"prefecture":23,"lines":[30010],"attr":"cool","postal_code":"470-3235","address":"知多郡美浜町大字野間字新大町１６８-２","next":[3001004,3001006,3000921,3100909,3102730,3000703,3001003,3102731,3102733,3100910],"voronoi":{"lat":34.685621,"lng":136.714133,"delta_lat":[0,11341,5655,41185,8844,39565,-2716,-15531,-5210,-88925],"delta_lng":[0,-12542,781,9336,2892,77665,31933,62521,550,-165565]},"impl":true},
    {"code":3001002,"id":"9d41b2","name":"上野間","name_kana":"かみのま","lat":34.807284,"lng":136.866854,"prefecture":23,"lines":[30010],"attr":"heat","postal_code":"470-3231","address":"知多郡美浜町大字上野間字小手廻間２-１","next":[3001004,3000916,3000917,3001003,3000918,3000702,3000921,3000703,3000920],"voronoi":{"lat":34.838848,"lng":136.883024,"delta_lat":[0,15492,558,-5931,-26518,-26697,-1337,728,16986],"delta_lng":[0,-13574,-575,-11095,-27310,49325,11115,470,3111]},"impl":true},
    {"code":3101901,"left":3101904,"right":3102728,"id":"fefc94","name":"伊勢若松","name_kana":"いせわかまつ","lat":34.869431,"lng":136.616765,"prefecture":24,"lines":[31019,31027],"attr":"eco","postal_code":"510-0222","address":"鈴鹿市若松西４-１７-８","next":[3102730,3102728,3000703,3101902],"voronoi":{"lat":34.865922,"lng":136.605936,"delta_lat":[0,-61966,20473,56349],"delta_lng":[0,107562,1042,-107212]},"impl":true},
    {"code":3101904,"left":3101902,"right":3101903,"id":"a7cd32","name":"三日市","name_kana":"みっかいち","lat":34.880232,"lng":136.562316,"prefecture":24,"lines":[31019],"attr":"cool","postal_code":"513-0807","address":"鈴鹿市三日市２-６-１","next":[3101903,3101905,1150816,1150815,9953003],"voronoi":{"lat":34.864464,"lng":136.555751,"delta_lat":[0,28386,1454,-7358,-16668],"delta_lng":[0,-7283,452,22770,2982]},"impl":true},
    {"code":3101902,"left":9953002,"id":"5676bd","name":"柳","name_kana":"やなぎ","lat":34.871381,"lng":136.595947,"prefecture":24,"lines":[31019],"attr":"eco","postal_code":"513-0811","address":"鈴鹿市柳町７２６-４","next":[9953003,9953002,3102730,3101901,3102728],"voronoi":{"lat":34.887401,"lng":136.605281,"delta_lat":[0,-22622,-11374,12516,14856],"delta_lng":[0,-23254,7146,16763,1392]},"impl":true},
    {"code":9953002,"id":"61fbf7","name":"鈴鹿","name_kana":"すずか","lat":34.878513,"lng":136.589009,"prefecture":24,"lines":[99530],"attr":"eco","postal_code":"513-0035","address":"鈴鹿市矢橋町１丁目１１","next":[3102728,9953003,3101902,3101903,1150814],"voronoi":{"lat":34.887401,"lng":136.605281,"delta_lat":[0,-22622,4942,23987,-2484],"delta_lng":[0,-23254,-6097,20847,8397]},"impl":true},
    {"code":3101903,"id":"030e62","name":"鈴鹿市","name_kana":"すずかし","lat":34.883899,"lng":136.582812,"prefecture":24,"lines":[31019],"attr":"cool","postal_code":"513-0801","address":"鈴鹿市神戸１-１-１","next":[3101904,1150815,1150814,9953002,9953003],"voronoi":{"lat":34.893708,"lng":136.596777,"delta_lat":[0,7057,-13819,-16668,-557],"delta_lng":[0,-12028,-13058,2982,1257]},"impl":true},
    {"code":3102728,"left":3000703,"right":3000702,"id":"f73ce1","name":"箕田","name_kana":"みだ","lat":34.879439,"lng":136.622025,"prefecture":24,"lines":[31027],"attr":"eco","postal_code":"513-0046","address":"鈴鹿市南堀江１-１８-１０","next":[9953002,3101901,3102727,1150814,3000703,3101902],"voronoi":{"lat":34.824429,"lng":136.71454,"delta_lat":[0,27503,40067,-774,-3823,-6624],"delta_lng":[0,2856,-111192,-1030,107,2047]},"impl":true},
    {"code":3000703,"id":"7070e7","name":"中部国際空港","name_kana":"ちゅうぶこくさいくうこう","lat":34.859262,"lng":136.816382,"prefecture":23,"lines":[30007],"attr":"eco","postal_code":"479-0881","address":"常滑市セントレア","next":[3102726,3101901,3000824,3000823,3102727,3000702,3001003,3001005,3102728,3102730,3001002],"voronoi":{"lat":34.822449,"lng":136.830471,"delta_lat":[0,-30238,-39565,51310,20473,27503,13474,36956,-6722,-3258,-43415],"delta_lng":[0,-38206,-77665,-1102,1042,2856,2292,9106,41227,12560,75200]},"impl":true},
    {"code":3000702,"id":"411bc8","name":"りんくう常滑","name_kana":"りんくうとこなめ","lat":34.87967,"lng":136.828164,"prefecture":23,"lines":[30007],"attr":"cool","postal_code":"479-0882","address":"常滑市りんくう町","next":[3000701,3000824,3000916,3000703,3001002,3000825],"voronoi":{"lat":34.862219,"lng":136.870641,"delta_lat":[0,-7322,-5931,43415,-43,-3479],"delta_lng":[0,-1766,-11095,-75200,19408,23796]},"impl":true},
    {"code":3102723,"left":3101404,"right":3000819,"id":"30f3fb","name":"海山道","name_kana":"みやまど","lat":34.943304,"lng":136.622956,"prefecture":24,"lines":[31027],"attr":"eco","postal_code":"510-0845","address":"四日市市海山道町２-８０-１","next":[3102726,1150812,3102724,1150813,3102722],"voronoi":{"lat":34.947784,"lng":136.615585,"delta_lat":[0,-9228,-4066,131,17594],"delta_lng":[0,1242,58635,613,-47369]},"impl":true},
    {"code":3101404,"left":3101305,"right":3100802,"id":"85febb","name":"西日野","name_kana":"にしひの","lat":34.952896,"lng":136.591163,"prefecture":24,"lines":[31014,31029],"attr":"heat","postal_code":"510-0943","address":"四日市市西日野町字東浦３０","next":[3101304,3100804,3101303,3101305,3101306,3101307,3101308,3100803],"voronoi":{"lat":34.96092,"lng":136.574575,"delta_lat":[0,-16854,-3744,11,987,5195,9418,5533],"delta_lng":[0,-17246,24452,226,3738,8877,2817,-1272]},"impl":true},
    {"code":3101305,"left":3101307,"right":1150813,"id":"8b8c75","name":"泊(三重)","original_name":"泊","name_kana":"とまり","lat":34.940375,"lng":136.598491,"prefecture":24,"lines":[31013,31028],"attr":"eco","postal_code":"510-0884","address":"四日市市泊町３-２０","next":[1150813,3101306,3101404,3101304],"voronoi":{"lat":34.934492,"lng":136.604734,"delta_lat":[0,6828,5195,-2407],"delta_lng":[0,-18990,8877,9133]},"impl":true},
    {"code":3101307,"left":3101308,"right":3101306,"id":"7e42c6","name":"小古曽","name_kana":"おごそ","lat":34.928701,"lng":136.592322,"prefecture":24,"lines":[31013,31028],"attr":"heat","postal_code":"510-0958","address":"四日市市小古曽２-６-１２","next":[3101308,3101306,1150814,3101404],"voronoi":{"lat":34.940321,"lng":136.58178,"delta_lat":[0,-21019,3817,17213],"delta_lng":[0,12512,11084,-23370]},"impl":true},
    {"code":3101308,"left":1150815,"id":"76ab5c","name":"内部","name_kana":"うつべ","lat":34.925515,"lng":136.58697,"prefecture":24,"lines":[31013,31028],"attr":"heat","postal_code":"510-0958","address":"四日市市小古曽３-５-２９","next":[3101307,1150815,1150816,3100804,1150814,3100805,3101404],"voronoi":{"lat":34.919303,"lng":136.594292,"delta_lat":[0,-10173,27995,172,733,6036,-3744],"delta_lng":[0,-13055,-40823,-107,1303,15718,24452]},"impl":true},
    {"code":1150815,"id":"d2ef03","name":"河曲","name_kana":"かわの","lat":34.897878,"lng":136.568018,"prefecture":24,"lines":[11508],"attr":"eco","postal_code":"513-0015","address":"鈴鹿市木田町","next":[3101903,1150814,3101308,3101904,1150816],"voronoi":{"lat":34.886947,"lng":136.571691,"delta_lat":[0,13819,8364,27995,-42820],"delta_lng":[0,13058,-3511,-40823,8506]},"impl":true},
    {"code":3101306,"id":"3de7e6","name":"追分(三重)","original_name":"追分","name_kana":"おいわけ","lat":34.933931,"lng":136.596174,"prefecture":24,"lines":[31013,31028],"attr":"cool","postal_code":"510-0882","address":"四日市市追分３-３-１９","next":[3102724,3101305,1150813,1150814,3101307,3101404],"voronoi":{"lat":34.940332,"lng":136.582006,"delta_lat":[0,-17213,352,3474,7546,6828],"delta_lng":[0,23370,3478,122,-4242,-18990]},"impl":true},
    {"code":1150813,"left":3102724,"right":3101304,"id":"0b9891","name":"南四日市","name_kana":"みなみよっかいち","lat":34.941514,"lng":136.609662,"prefecture":24,"lines":[11508],"attr":"eco","postal_code":"510-0886","address":"四日市市日永東３","next":[3101305,3102722,3101306,3101304,3101302,3102723,3102724,3101303],"voronoi":{"lat":34.949419,"lng":136.608935,"delta_lat":[0,-5311,-9616,-7546,11611,9228,2500,13],"delta_lng":[0,-5181,980,4242,7851,-1242,-3944,-294]},"impl":true},
    {"code":3102724,"left":1150814,"id":"9fe323","name":"塩浜","name_kana":"しおはま","lat":34.933008,"lng":136.622242,"prefecture":24,"lines":[31027],"attr":"eco","postal_code":"510-0862","address":"四日市市御薗町２-８２","next":[3101306,3102726,3102723,1150814,1150813,3102725],"voronoi":{"lat":34.922511,"lng":136.609758,"delta_lat":[0,960,3474,11611,-4066,-3808],"delta_lng":[0,-904,122,7851,58635,-11942]},"impl":true},
    {"code":1150814,"id":"e55b33","name":"河原田","name_kana":"かわらだ","lat":34.910684,"lng":136.598527,"prefecture":24,"lines":[11508,99530],"attr":"eco","postal_code":"510-0874","address":"四日市市河原田町","next":[3102727,3101903,3101306,1150815,3102728,3101307,3102724,9953002,3102725,3101308],"voronoi":{"lat":34.909129,"lng":136.581237,"delta_lat":[0,-8364,-7057,-2484,774,11123,19390,960,-352,-3817],"delta_lng":[0,3511,12028,8397,1030,7624,-4069,-904,-3478,-11084]},"impl":true},
    {"code":3101304,"id":"523e39","name":"南日永","name_kana":"みなみひなが","lat":34.949949,"lng":136.601015,"prefecture":24,"lines":[31013,31028],"attr":"eco","postal_code":"510-0885","address":"四日市市日永４-５-４８","next":[3101303,1150813,3101404,3101305],"voronoi":{"lat":34.946515,"lng":136.594621,"delta_lat":[0,9418,-6514,-5311],"delta_lng":[0,2817,11497,-5181]},"impl":true},
    {"code":3100802,"left":3100805,"right":3101302,"id":"147510","name":"中川原","name_kana":"なかがわら","lat":34.969242,"lng":136.602715,"prefecture":24,"lines":[31008],"attr":"eco","postal_code":"510-0833","address":"四日市市中川原２-２-１４","next":[3100803,3102719,3101303,3102720,3100801,3101302,9952804],"voronoi":{"lat":34.999929,"lng":136.602491,"delta_lat":[0,-24068,-8701,-4437,-1047,39662,-186],"delta_lng":[0,9446,-1528,-5804,-8226,1754,3626]},"impl":true},
    {"code":3100805,"left":3100803,"right":3100806,"id":"3adb92","name":"高角","name_kana":"たかつの","lat":34.983287,"lng":136.554488,"prefecture":24,"lines":[31008],"attr":"cool","postal_code":"512-0923","address":"四日市市高角町字境田２１９３-４","next":[1150816,3100806,9952805,3100804,3101308],"voronoi":{"lat":35.008147,"lng":136.573154,"delta_lat":[0,2451,-63620,-9682,733],"delta_lng":[0,-3765,-65706,36624,1303]},"impl":true},
    {"code":3100803,"left":3100804,"id":"a83434","name":"伊勢松本","name_kana":"いせまつもと","lat":34.969772,"lng":136.590736,"prefecture":24,"lines":[31008],"attr":"eco","postal_code":"510-0836","address":"四日市市松本３-３-８","next":[3100802,3101303,9952805,9952804,3100804,3101404],"voronoi":{"lat":34.961676,"lng":136.596379,"delta_lat":[0,39662,1301,-159,-41561,546],"delta_lng":[0,1754,-5379,-4358,-13822,21592]},"impl":true},
    {"code":3100804,"id":"fcd98b","name":"伊勢川島","name_kana":"いせかわしま","lat":34.977688,"lng":136.566934,"prefecture":24,"lines":[31008],"attr":"eco","postal_code":"512-0934","address":"四日市市川島町字川原１０５２","next":[3101404,3100803,3100805,3101308,9952805],"voronoi":{"lat":35.008147,"lng":136.573154,"delta_lat":[0,-70118,6036,16854,41561],"delta_lng":[0,-31544,15718,17246,13822]},"impl":true},
    {"code":3100806,"id":"86f04e","name":"桜(三重)","original_name":"桜","name_kana":"さくら","lat":34.996586,"lng":136.541611,"prefecture":24,"lines":[31008],"attr":"cool","postal_code":"512-1212","address":"四日市市智積町字武佐４１２-１","next":[9952806,3100807,3100805,1150816,9952805],"voronoi":{"lat":34.946979,"lng":136.503684,"delta_lat":[0,210,80255,-10978,-5867],"delta_lng":[0,-1904,40103,22650,4857]},"impl":true},
    {"code":3101302,"left":3102722,"right":3100801,"id":"2865ee","name":"赤堀","name_kana":"あかほり","lat":34.95919,"lng":136.6104,"prefecture":24,"lines":[31013,31028,31029],"attr":"eco","postal_code":"510-0826","address":"四日市市赤堀２-１３-２０","next":[3102722,3100801,1150813,3101303,3100802],"voronoi":{"lat":34.962724,"lng":136.604606,"delta_lat":[0,-12426,-13,10781,6095],"delta_lng":[0,6742,294,4367,-5599]},"impl":true},
    {"code":3102722,"left":3101303,"id":"3836cb","name":"新正","name_kana":"しんしょう","lat":34.955816,"lng":136.61873,"prefecture":24,"lines":[31027],"attr":"eco","postal_code":"510-0064","address":"四日市市新正４-５-２０","next":[3101302,3100801,1150813,3102723,1150812],"voronoi":{"lat":34.947784,"lng":136.615585,"delta_lat":[0,2500,10781,255,-9105],"delta_lng":[0,-3944,4367,7202,5496]},"impl":true},
    {"code":3101303,"id":"1cf5ec","name":"日永","name_kana":"ひなが","lat":34.95594,"lng":136.604409,"prefecture":24,"lines":[31013,31014,31028,31029],"attr":"eco","postal_code":"510-0885","address":"四日市市日永１-１４-６","next":[3100803,3101304,3101302,3100802,3101404,1150813],"voronoi":{"lat":34.949419,"lng":136.608935,"delta_lat":[0,6514,5533,211,1047,-12426],"delta_lng":[0,-11497,-1272,213,8226,6742]},"impl":true},
    {"code":3100801,"id":"a33b9c","name":"近鉄四日市（あすなろう四日市）","name_kana":"きんてつよっかいち（あすなろうよっかいち）","lat":34.966495,"lng":136.618352,"prefecture":24,"lines":[31008,31013,31027,31028,31029],"attr":"eco","postal_code":"510-0075","address":"四日市市安島１-１-５６","next":[3102722,3101302,3102720,3100802,1150812],"voronoi":{"lat":34.975862,"lng":136.611938,"delta_lat":[0,-8701,-6095,255,8285],"delta_lng":[0,-1528,5599,7202,2646]},"impl":true},
    {"code":3000819,"left":3000822,"right":1150811,"id":"a94555","name":"日長","name_kana":"ひなが","lat":34.96162,"lng":136.832152,"prefecture":23,"lines":[30008],"attr":"cool","postal_code":"478-0041","address":"知多市日長字森下１０８-１","next":[3102716,3102714,3000820,3102715,9950911,9952901,3000818],"voronoi":{"lat":34.981044,"lng":136.74344,"delta_lat":[0,11929,14943,2252,10088,-5692,-69541],"delta_lng":[0,3780,7011,1410,7088,29424,74676]},"impl":true},
    {"code":3000822,"left":3000823,"right":3000821,"id":"f6b6ce","name":"西ノ口","name_kana":"にしのくち","lat":34.926759,"lng":136.82663,"prefecture":23,"lines":[30008],"attr":"eco","postal_code":"479-0864","address":"常滑市住吉町４丁目３４番地","next":[1150811,3000824,3102726,3000821,3000908,3000823],"voronoi":{"lat":34.930608,"lng":136.727265,"delta_lat":[0,2368,9355,-16540,-6648,-1112],"delta_lng":[0,-265,3697,142034,326,-15294]},"impl":true},
    {"code":3000823,"left":3102726,"right":3102725,"id":"34cc07","name":"蒲池(愛知)","original_name":"蒲池","name_kana":"かばいけ","lat":34.915408,"lng":136.825536,"prefecture":23,"lines":[30008],"attr":"eco","postal_code":"479-0856","address":"常滑市蒲池町５-１０５","next":[3000703,3102726,3000822,3000824],"voronoi":{"lat":34.930608,"lng":136.727265,"delta_lat":[0,-28246,-6722,22391],"delta_lng":[0,1529,41227,87742]},"impl":true},
    {"code":3102726,"left":3102727,"id":"d018f9","name":"楠","name_kana":"くす","lat":34.90489,"lng":136.631208,"prefecture":24,"lines":[31027],"attr":"eco","postal_code":"510-0105","address":"四日市市楠町南川２２","next":[3000703,3102724,3102723,3000823,3000822,3102725,1150812,3102727,1150811],"voronoi":{"lat":34.935331,"lng":136.715534,"delta_lat":[0,-710,-131,-3808,-27481,-37796,36956,28246,2368],"delta_lng":[0,-39459,-613,-11942,-48466,104633,9106,-1529,-265]},"impl":true},
    {"code":3102727,"id":"4993c0","name":"長太ノ浦","name_kana":"なごのうら","lat":34.89158,"lng":136.6264,"prefecture":24,"lines":[31027],"attr":"eco","postal_code":"513-0043","address":"鈴鹿市長太栄町２-１８-１９","next":[1150814,3102725,3000703,3102728,3102726],"voronoi":{"lat":34.851931,"lng":136.717395,"delta_lat":[0,40067,11123,80,-37796],"delta_lng":[0,-111192,7624,1227,104633]},"impl":true},
    {"code":3102725,"id":"6e4edb","name":"北楠","name_kana":"きたくす","lat":34.916197,"lng":136.624797,"prefecture":24,"lines":[31027],"attr":"eco","postal_code":"510-0103","address":"四日市市楠町北五味塚２０４８","next":[3102727,3102726,1150814,3102724],"voronoi":{"lat":34.922511,"lng":136.609758,"delta_lat":[0,-19390,80,27481],"delta_lng":[0,4069,1227,48466]},"impl":true},
    {"code":3000821,"left":3000825,"right":3000820,"id":"f78304","name":"大野町","name_kana":"おおのまち","lat":34.935441,"lng":136.827641,"prefecture":23,"lines":[30008],"attr":"cool","postal_code":"479-0866","address":"常滑市大野町５-１７０","next":[3000820,3000908,1150811,3000822,3000907],"voronoi":{"lat":34.925791,"lng":136.872731,"delta_lat":[0,16540,7090,-10022,-11448],"delta_lng":[0,-142034,2440,138904,790]},"impl":true},
    {"code":3000825,"left":3000824,"id":"e51d9a","name":"多屋","name_kana":"たや","lat":34.896983,"lng":136.830695,"prefecture":23,"lines":[30008],"attr":"eco","postal_code":"479-0839","address":"常滑市多屋町５-１６０","next":[3000824,3000702,3000701],"voronoi":{"lat":34.888859,"lng":136.825784,"delta_lat":[0,3479,15481],"delta_lng":[0,-23796,49458]},"impl":true},
    {"code":3000824,"id":"b729b8","name":"榎戸(愛知)","original_name":"榎戸","name_kana":"えのきど","lat":34.90489,"lng":136.82822,"prefecture":23,"lines":[30008],"attr":"eco","postal_code":"479-0848","address":"常滑市港町５-２０８","next":[3000702,3000822,3000703,3000908,3000701,3000825,3000823],"voronoi":{"lat":34.89564,"lng":136.77002,"delta_lat":[0,-3258,-43,15481,10747,576,-1112],"delta_lng":[0,12560,19408,49458,21778,-168,-15294]},"impl":true},
    {"code":3000820,"id":"6cde84","name":"新舞子","name_kana":"しんまいこ","lat":34.949689,"lng":136.828669,"prefecture":23,"lines":[30008],"attr":"cool","postal_code":"478-0036","address":"知多市新舞子字大瀬５５-１","next":[3000821,3000907,3000818,3000819,3102716,1150811],"voronoi":{"lat":34.949421,"lng":136.733137,"delta_lat":[0,-10022,2030,3594,36021,-15234],"delta_lng":[0,138904,187,-5398,-123389,-6004]},"impl":true},
    {"code":1150811,"left":3102719,"right":3000817,"id":"77f722","name":"富田浜","name_kana":"とみだはま","lat":34.996553,"lng":136.65004,"prefecture":24,"lines":[11508],"attr":"cool","postal_code":"510-8011","address":"四日市市東茂福町","next":[3000821,3000822,1150810,3102716,3102718,1150812,3000820,3102717,3102726,3102719],"voronoi":{"lat":34.935331,"lng":136.715534,"delta_lat":[0,-2356,9355,7090,16389,29703,6285,-816,-25289,-1097],"delta_lng":[0,11465,3697,2440,4300,-60392,-23437,-11594,6071,603]},"impl":true},
    {"code":3102719,"left":1150812,"right":3102718,"id":"065654","name":"阿倉川","name_kana":"あくらがわ","lat":34.985207,"lng":136.629417,"prefecture":24,"lines":[31027],"attr":"eco","postal_code":"510-0803","address":"四日市市阿倉川町８-９","next":[9952804,3100802,3102720,9952803,3102718,1150812,1150811],"voronoi":{"lat":34.97415,"lng":136.635354,"delta_lat":[0,25780,1223,127,3569,-29156,-1097],"delta_lng":[0,-32862,-732,258,14055,32012,603]},"impl":true},
    {"code":1150812,"left":3102720,"id":"765792","name":"四日市","name_kana":"よっかいち","lat":34.962721,"lng":136.630168,"prefecture":24,"lines":[11508],"attr":"cool","postal_code":"510-0093","address":"四日市市本町","next":[3102720,3102723,3102726,3102719,1150811,3102722,3100801],"voronoi":{"lat":34.97415,"lng":136.635354,"delta_lat":[0,446,-39264,-710,17594,9105,8285],"delta_lng":[0,13334,66847,-39459,-47369,-5496,2646]},"impl":true},
    {"code":3102720,"id":"cc5297","name":"川原町","name_kana":"かわらまち","lat":34.977283,"lng":136.623201,"prefecture":24,"lines":[31027],"attr":"eco","postal_code":"510-0806","address":"四日市市本郷町１-１","next":[1150812,3102719,3100801,3100802],"voronoi":{"lat":34.969606,"lng":136.625856,"delta_lat":[0,4544,25780,-24068],"delta_lng":[0,9497,-32862,9446]},"impl":true},
    {"code":3102718,"id":"5eb271","name":"霞ヶ浦","name_kana":"かすみがうら","lat":34.993392,"lng":136.636872,"prefecture":24,"lines":[31027],"attr":"eco","postal_code":"510-0001","address":"三重県四日市市八田一丁目14-2","next":[9952803,1150811,9952802,3102719,3102717],"voronoi":{"lat":34.975692,"lng":136.648084,"delta_lat":[0,29156,791,2104,-6762],"delta_lng":[0,-32012,1505,17332,7104]},"impl":true},
    {"code":3000817,"left":3000818,"right":3000816,"id":"3922ee","name":"古見(愛知)","original_name":"古見","name_kana":"こみ","lat":34.987809,"lng":136.856673,"prefecture":23,"lines":[30008],"attr":"cool","postal_code":"478-0017","address":"知多市新知字森下２９-３","next":[3000906,3000818,3000816,3000904,9950911],"voronoi":{"lat":35.014098,"lng":136.819474,"delta_lat":[0,-55915,999,8050,49093],"delta_lng":[0,59145,555,2035,-44021]},"impl":true},
    {"code":3000818,"id":"8be37b","name":"長浦(愛知)","original_name":"長浦","name_kana":"ながうら","lat":34.978432,"lng":136.847808,"prefecture":23,"lines":[30008],"attr":"cool","postal_code":"478-0042","address":"知多市長浦１-４００","next":[3000817,3000906,3000820,9950911,3000907,3000819],"voronoi":{"lat":35.014564,"lng":136.792153,"delta_lat":[0,-466,-55915,-13451,-3303,3594],"delta_lng":[0,27321,59145,-4622,-1770,-5398]},"impl":true},
    {"code":3000816,"id":"3739b9","name":"朝倉(愛知)","original_name":"朝倉","name_kana":"あさくら","lat":34.993858,"lng":136.863419,"prefecture":23,"lines":[30008],"attr":"cool","postal_code":"478-0047","address":"知多市緑町２５-８","next":[3000815,3000817,3000904,9950911],"voronoi":{"lat":34.97137,"lng":136.882909,"delta_lat":[0,-4139,49093,5109],"delta_lng":[0,-1699,-44021,19472]},"impl":true}
  ]
}