{
  "name":"segment34",
  "root":1140214,
  "east":138.945467,
  "west":137.400288,
  "south":35.092569,
  "north":35.653997,
  "station_size":155,
  "node_list":[
    {"code":1140214,"left":9952403,"right":1140212,"id":"a2b43a","name":"寄畑","name_kana":"よりはた","lat":35.264832,"lng":138.474932,"prefecture":19,"lines":[11402],"attr":"heat","postal_code":"409-2305","address":"南巨摩郡南部町内船","next":[1140211,1140215,9950814,1140213],"voronoi":{"lat":35.315248,"lng":138.543422,"delta_lat":[0,-107462,-59095,159874],"delta_lng":[0,-189028,12244,173076]},"impl":true},
    {"code":9952403,"left":1141337,"right":1141405,"id":"4b69a8","name":"飯沼","name_kana":"いいぬま","lat":35.418529,"lng":137.461257,"prefecture":21,"lines":[99524],"attr":"eco","postal_code":"509-7322","address":"中津川市飯沼字市之坪","next":[9952402,9952404,1141119,9952405,1141120],"voronoi":{"lat":35.411912,"lng":137.43747,"delta_lat":[0,4604,33094,5523,-65448],"delta_lng":[0,-6060,28321,30808,128711]},"impl":true},
    {"code":1141337,"left":1141344,"right":9950808,"id":"9fd540","name":"水窪","name_kana":"みさくぼ","lat":35.163371,"lng":137.870501,"prefecture":22,"lines":[11413],"attr":"heat","postal_code":"431-4102","address":"浜松市天竜区水窪町地頭方","next":[9950718,9950803,9950807,1141338,1141336,1141343,1141339],"voronoi":{"lat":35.182161,"lng":137.847237,"delta_lat":[0,-19699,-18295,26763,7464,62296,-15573],"delta_lng":[0,-10267,161343,8060,1094,-941,-101454]},"impl":true},
    {"code":1141344,"left":1141339,"right":9952404,"id":"cef8f5","name":"為栗","name_kana":"してぐり","lat":35.311687,"lng":137.848503,"prefecture":20,"lines":[11413],"attr":"eco","postal_code":"399-1201","address":"下伊那郡天龍村平岡","next":[1141343,9950807,9950812,1141342,1141345],"voronoi":{"lat":35.307754,"lng":137.789561,"delta_lat":[0,-16967,26326,8202,62070],"delta_lng":[0,47358,197458,3990,22773]},"impl":true},
    {"code":1141339,"left":1141341,"right":1141336,"id":"9d241b","name":"小和田","name_kana":"こわだ","lat":35.209862,"lng":137.835971,"prefecture":22,"lines":[11413],"attr":"eco","postal_code":"431-4101","address":"浜松市天竜区水窪町奥領家","next":[1141340,1141338,1141343,1141337],"voronoi":{"lat":35.182161,"lng":137.847237,"delta_lat":[0,39426,4054,-524],"delta_lng":[0,-43793,99730,1898]},"impl":true},
    {"code":1141341,"left":1141340,"right":1141342,"id":"bedb0a","name":"伊那小沢","name_kana":"いなこざわ","lat":35.25406,"lng":137.834709,"prefecture":20,"lines":[11413],"attr":"eco","postal_code":"399-1201","address":"下伊那郡天龍村平岡","next":[1141340,1141342,1141338,1141343],"voronoi":{"lat":35.262564,"lng":137.845483,"delta_lat":[0,-17392,-1230,1364],"delta_lng":[0,-108808,4828,121902]},"impl":true},
    {"code":1141340,"left":1141338,"id":"a57cc2","name":"中井侍","name_kana":"なかいさむらい","lat":35.235913,"lng":137.834912,"prefecture":20,"lines":[11413],"attr":"eco","postal_code":"399-1201","address":"下伊那郡天龍村平岡","next":[1141339,1141341,1141343,1141338],"voronoi":{"lat":35.225641,"lng":137.903174,"delta_lat":[0,19666,-1364,-22356],"delta_lng":[0,-39769,-121902,61941]},"impl":true},
    {"code":1141338,"id":"34dce1","name":"大嵐","name_kana":"おおぞれ","lat":35.190466,"lng":137.818509,"prefecture":22,"lines":[11413],"attr":"eco","postal_code":"431-4101","address":"浜松市天竜区水窪町奥領家","next":[1141327,1141329,1141325,1141335,1141341,1141336,1141332,1141333,1141342,9952406,1141340,9952404,1141337,1141339,1141334],"voronoi":{"lat":35.154293,"lng":137.831134,"delta_lat":[0,8168,19699,39426,22356,1230,21043,-14742,-31862,-14974,-51024,-2939,-3877,-5473,1534],"delta_lng":[0,5837,10267,-43793,-61941,-4828,-114761,-8582,-14795,21727,97016,7177,26126,61828,3230]},"impl":true},
    {"code":1141342,"id":"42dfd3","name":"鶯巣","name_kana":"うぐす","lat":35.267286,"lng":137.832595,"prefecture":20,"lines":[11413],"attr":"eco","postal_code":"399-1201","address":"下伊那郡天龍村平岡","next":[1141341,1141347,9952404,1141338,1141344,1141343,1141345],"voronoi":{"lat":35.311054,"lng":137.763391,"delta_lat":[0,-22824,-22015,-21043,17392,28223,16967],"delta_lng":[0,-133671,-7806,114761,108808,-8564,-47358]},"impl":true},
    {"code":1141336,"left":1141335,"right":1141343,"id":"4c1812","name":"向市場","name_kana":"むかいちば","lat":35.154067,"lng":137.869446,"prefecture":22,"lines":[11413],"attr":"heat","postal_code":"431-4102","address":"浜松市天竜区水窪町地頭方","next":[1141335,1141338,9950716,9950718,1141337],"voronoi":{"lat":35.162461,"lng":137.836971,"delta_lat":[0,-8168,-50392,24784,15481],"delta_lng":[0,-5837,151851,11272,4057]},"impl":true},
    {"code":1141335,"left":1141334,"id":"a7b28a","name":"城西","name_kana":"しろにし","lat":35.131569,"lng":137.86198,"prefecture":22,"lines":[11413],"attr":"heat","postal_code":"431-4111","address":"浜松市天竜区佐久間町相月","next":[1141336,1141338,9950716,1141334],"voronoi":{"lat":35.142858,"lng":137.815641,"delta_lat":[0,11435,-50392,-32892],"delta_lng":[0,15492,151851,-11310]},"impl":true},
    {"code":1141334,"id":"4cefcd","name":"相月","name_kana":"あいづき","lat":35.114988,"lng":137.854345,"prefecture":22,"lines":[11413],"attr":"heat","postal_code":"431-4111","address":"浜松市天竜区佐久間町相月","next":[9950516,9950510,9950715,9950713,1141332,9950716,1141333,1141335,1141338,9950710,9950509],"voronoi":{"lat":34.99272,"lng":137.938801,"delta_lat":[0,22112,44519,11659,71849,-1534,-128868,-33645,-1220,3743,2374],"delta_lng":[0,12244,17549,3080,-156033,-3230,66835,19426,9104,15192,8778]},"impl":true},
    {"code":1141343,"id":"ee52b2","name":"平岡","name_kana":"ひらおか","lat":35.273652,"lng":137.853574,"prefecture":20,"lines":[11413],"attr":"eco","postal_code":"399-1201","address":"下伊那郡天龍村平岡","next":[1141340,1141344,1141341,9950807,1141342,1141339,1141337],"voronoi":{"lat":35.317113,"lng":138.034377,"delta_lat":[0,-26326,-28223,-17258,-19666,-524,15573],"delta_lng":[0,-197458,8564,17922,39769,1898,101454]},"impl":true},
    {"code":9952404,"left":9952411,"right":1141347,"id":"4a2701","name":"阿木","name_kana":"あぎ","lat":35.399759,"lng":137.458962,"prefecture":21,"lines":[99524],"attr":"eco","postal_code":"508-0002","address":"中津川市阿木","next":[1141342,1141348,9952405,9952403,1141338,1141120,1141347,9952406],"voronoi":{"lat":35.266216,"lng":137.621915,"delta_lat":[0,22015,75029,19666,6760,22227,-37903,-122536],"delta_lng":[0,7806,5165,-144,-15491,-181780,22108,153754]},"impl":true},
    {"code":9952411,"left":9952406,"right":9952405,"id":"0cef1e","name":"極楽","name_kana":"ごくらく","lat":35.379944,"lng":137.432619,"prefecture":21,"lines":[99524],"attr":"heat","postal_code":"509-7403","address":"岐阜県恵那市岩村町","next":[1141117,1141118,9952406,9952405,9952407],"voronoi":{"lat":35.400771,"lng":137.387355,"delta_lat":[0,7767,993,-33195,-4672],"delta_lng":[0,5743,3000,49823,-30077]},"impl":true},
    {"code":9952406,"left":9952407,"id":"6214fb","name":"岩村","name_kana":"いわむら","lat":35.368864,"lng":137.43434,"prefecture":21,"lines":[99524],"attr":"heat","postal_code":"509-7403","address":"恵那市岩村町","next":[9952409,1141338,9952405,9952411,9952410,1141325,9952407,9952404],"voronoi":{"lat":35.374009,"lng":137.459578,"delta_lat":[0,2327,-4672,-58334,-8235,-97104,11620,31862],"delta_lng":[0,-13658,-30077,29655,8616,129583,14840,14795]},"impl":true},
    {"code":9952407,"id":"d1e1f1","name":"花白温泉","name_kana":"はなしろおんせん","lat":35.355071,"lng":137.407207,"prefecture":21,"lines":[99524],"attr":"heat","postal_code":"509-7602","address":"恵那市山岡町馬場山田","next":[1141117,9952408,9952409,9952406,9952411],"voronoi":{"lat":35.31333,"lng":137.445498,"delta_lat":[0,18869,65282,3290,-29107],"delta_lng":[0,-35315,-27969,5140,28489]},"impl":true},
    {"code":9952405,"id":"15933e","name":"飯羽間","name_kana":"いいばま","lat":35.387222,"lng":137.437468,"prefecture":21,"lines":[99524],"attr":"heat","postal_code":"509-7401","address":"恵那市岩村町飯羽間字光学","next":[9952404,1141118,9952402,9952406,9952411,9952403],"voronoi":{"lat":35.374009,"lng":137.459578,"delta_lat":[0,2327,33195,2705,4280,-4604],"delta_lng":[0,-13658,-49823,6179,29134,6060]},"impl":true},
    {"code":1141347,"left":1141345,"right":1141348,"id":"a63f4e","name":"門島","name_kana":"かどしま","lat":35.375306,"lng":137.814151,"prefecture":20,"lines":[11413],"attr":"cool","postal_code":"399-1801","address":"下伊那郡泰阜村","next":[1141342,1141349,1141348,1141346,1141345,9952404],"voronoi":{"lat":35.288231,"lng":137.62972,"delta_lat":[0,22824,18369,64664,588,-31416],"delta_lng":[0,133671,26415,71592,-8595,-217918]},"impl":true},
    {"code":1141345,"left":1141346,"id":"df3c7c","name":"温田","name_kana":"ぬくた","lat":35.336273,"lng":137.841294,"prefecture":20,"lines":[11413],"attr":"eco","postal_code":"399-1801","address":"下伊那郡泰阜村","next":[1141346,1141415,9950812,1141344,1141347,1141342],"voronoi":{"lat":35.311054,"lng":137.763391,"delta_lat":[0,18369,71681,-1358,-12361,-79631],"delta_lng":[0,26415,270293,6390,-5349,-271579]},"impl":true},
    {"code":1141346,"id":"c61ac8","name":"田本","name_kana":"たもと","lat":35.348988,"lng":137.837922,"prefecture":20,"lines":[11413],"attr":"cool","postal_code":"399-1801","address":"下伊那郡泰阜村田本","next":[1141345,1141404,1141347,1141415,1141349],"voronoi":{"lat":35.394087,"lng":137.861399,"delta_lat":[0,-64664,71681,8584,1426],"delta_lng":[0,-71592,270293,-35343,-105864]},"impl":true},
    {"code":1141348,"id":"1f8073","name":"唐笠","name_kana":"からかさ","lat":35.402338,"lng":137.810254,"prefecture":20,"lines":[11413],"attr":"cool","postal_code":"399-1801","address":"下伊那郡泰阜村","next":[1141349,9952404,1141350,1141121,1141347,1141402,1141120],"voronoi":{"lat":35.443549,"lng":137.661303,"delta_lat":[0,-6982,-13835,-28057,-31416,19666,1],"delta_lng":[0,66536,56642,68322,-217918,-144,0]},"impl":true},
    {"code":9950808,"left":9950805,"right":1140216,"id":"f400bf","name":"長島ダム","name_kana":"ながしまだむ","lat":35.168787,"lng":138.157124,"prefecture":22,"lines":[99508],"attr":"cool","postal_code":"428-0402","address":"榛原郡川根本町犬間","next":[9950812,9950809,9950807,9950806],"voronoi":{"lat":35.159555,"lng":138.151864,"delta_lat":[0,33740,-13876,-23028],"delta_lng":[0,-3492,18782,-8829]},"impl":true},
    {"code":9950805,"left":9950803,"right":9950807,"id":"828854","name":"川根小山","name_kana":"かわねこやま","lat":35.141753,"lng":138.14106,"prefecture":22,"lines":[99508],"attr":"heat","postal_code":"428-0412","address":"榛原郡川根本町奥泉","next":[9950806,9950807,9950804],"voronoi":{"lat":35.167947,"lng":138.051852,"delta_lat":[0,-11713,-24025],"delta_lng":[0,80143,28484]},"impl":true},
    {"code":9950803,"left":9950802,"right":9950804,"id":"095582","name":"沢間","name_kana":"さわま","lat":35.124705,"lng":138.134365,"prefecture":22,"lines":[99508],"attr":"heat","postal_code":"428-0411","address":"榛原郡川根本町千頭","next":[9950720,9950807,9950804,1141337,9950802,9950718],"voronoi":{"lat":35.115653,"lng":138.131012,"delta_lat":[0,11177,42212,9351,-7464,-57562],"delta_lng":[0,14125,-99396,-38273,-1094,106987]},"impl":true},
    {"code":9950802,"left":9950720,"id":"69b17f","name":"川根両国","name_kana":"かわねりょうごく","lat":35.116836,"lng":138.140592,"prefecture":22,"lines":[99508],"attr":"heat","postal_code":"428-0411","address":"榛原郡川根本町千頭","next":[9950810,9950401,9950720,9950803,9950806,9950804,9950809],"voronoi":{"lat":35.056922,"lng":138.270059,"delta_lat":[0,-2393,61124,11177,1565,-3468,-1569],"delta_lng":[0,-1366,-137681,14125,21400,15839,2796]},"impl":true},
    {"code":9950720,"id":"423e1b","name":"千頭","name_kana":"せんず","lat":35.107754,"lng":138.13656,"prefecture":22,"lines":[99507,99508],"attr":"eco","postal_code":"428-0411","address":"榛原郡川根本町千頭","next":[9950803,1150119,9950401,9950802,9950719,9950718],"voronoi":{"lat":35.113367,"lng":138.11336,"delta_lat":[0,2286,-61124,-17971,-6877,77943],"delta_lng":[0,17651,137681,-9451,-5043,-135891]},"impl":true},
    {"code":9950804,"id":"3d4b2d","name":"土本","name_kana":"どもと","lat":35.136057,"lng":138.139186,"prefecture":22,"lines":[99508],"attr":"heat","postal_code":"428-0412","address":"榛原郡川根本町奥泉","next":[9950807,9950803,9950806,9950802,9950805],"voronoi":{"lat":35.128396,"lng":138.166536,"delta_lat":[0,-1565,42212,-1096,-35738],"delta_lng":[0,-21400,-99396,6111,108627]},"impl":true},
    {"code":9950807,"left":9950809,"right":9950810,"id":"25bd88","name":"アプトいちしろ","name_kana":"あぷといちしろ","lat":35.167514,"lng":138.144825,"prefecture":22,"lines":[99508],"attr":"heat","postal_code":"428-0401","address":"榛原郡川根本町梅地","next":[9950804,9950803,1141344,9950806,1141337,9950808,9950805,9950812,1141343],"voronoi":{"lat":35.240689,"lng":138.006527,"delta_lat":[0,-62296,-9351,-1096,-11713,3321,33740,132021,-8202],"delta_lng":[0,941,38273,6111,80143,19870,-3492,-110005,-3990]},"impl":true},
    {"code":9950809,"left":9950806,"id":"ee0a35","name":"ひらんだ","name_kana":"ひらんだ","lat":35.164806,"lng":138.167507,"prefecture":22,"lines":[99508],"attr":"cool","postal_code":"428-0402","address":"榛原郡川根本町犬間","next":[9950812,9950806,9950810,9950811,9950808,9950802],"voronoi":{"lat":35.124928,"lng":138.182376,"delta_lat":[0,31463,23028,-989,-15,-55056],"delta_lng":[0,-24050,8829,3940,12,14065]},"impl":true},
    {"code":9950806,"id":"b389d4","name":"奥泉","name_kana":"おくいずみ","lat":35.149739,"lng":138.147796,"prefecture":22,"lines":[99508],"attr":"heat","postal_code":"428-0412","address":"榛原郡川根本町奥泉","next":[9950805,9950809,9950807,9950804,9950802,9950808],"voronoi":{"lat":35.159555,"lng":138.151864,"delta_lat":[0,-3321,-24025,-3813,-3468,31463],"delta_lng":[0,-19870,28484,6058,15839,-24050]},"impl":true},
    {"code":9950810,"id":"b19930","name":"奥大井湖上","name_kana":"おくおおいこじょう","lat":35.1682,"lng":138.180792,"prefecture":22,"lines":[99508],"attr":"cool","postal_code":"428-0401","address":"榛原郡川根本町梅地","next":[9950814,9950802,9950813,9950809,9950811,9950401],"voronoi":{"lat":35.056922,"lng":138.270059,"delta_lat":[0,66436,55056,-28733,-6821,-48130],"delta_lng":[0,-84887,-14065,69595,11984,52574]},"impl":true},
    {"code":1140216,"left":9950812,"right":1140217,"id":"ffc196","name":"甲斐大島","name_kana":"かいおおしま","lat":35.32817,"lng":138.45218,"prefecture":19,"lines":[11402],"attr":"heat","postal_code":"409-2415","address":"南巨摩郡身延町大島","next":[1140211,1140217,1140215,9950814],"voronoi":{"lat":35.332404,"lng":138.555778,"delta_lat":[0,9490,6821,-77821],"delta_lng":[0,10947,-269468,39042]},"impl":true},
    {"code":9950812,"left":9950813,"right":9950814,"id":"cf6343","name":"尾盛","name_kana":"おもり","lat":35.192131,"lng":138.174369,"prefecture":22,"lines":[99508],"attr":"eco","postal_code":"428-0402","address":"榛原郡川根本町犬間","next":[1141415,9950808,9950809,9950813,1141344,9950811,9950814,1141345,9950807],"voronoi":{"lat":35.325315,"lng":138.038368,"delta_lat":[0,62070,12361,27670,-195778,-42549,-10660,989,13876],"delta_lng":[0,22773,5349,34344,84235,-846,-13128,-3940,-18782]},"impl":true},
    {"code":9950813,"left":9950811,"id":"2eb835","name":"閑蔵","name_kana":"かんぞう","lat":35.191737,"lng":138.194189,"prefecture":22,"lines":[99508],"attr":"eco","postal_code":"428-0504","address":"静岡市葵区井川","next":[9950810,9950812,9950814,9950811],"voronoi":{"lat":35.14286,"lng":138.252686,"delta_lat":[0,88778,-42549,-39408],"delta_lng":[0,-67617,-846,56479]},"impl":true},
    {"code":9950811,"id":"77966c","name":"接岨峡温泉","name_kana":"せっそきょうおんせん","lat":35.178821,"lng":138.185177,"prefecture":22,"lines":[99508],"attr":"cool","postal_code":"428-0402","address":"榛原郡川根本町犬間","next":[9950812,9950809,9950810,9950813],"voronoi":{"lat":35.178415,"lng":138.171106,"delta_lat":[0,15,10660,-39408],"delta_lng":[0,-12,13128,56479]},"impl":true},
    {"code":9950814,"id":"85fa4f","name":"井川","name_kana":"いかわ","lat":35.212242,"lng":138.221111,"prefecture":22,"lines":[99508],"attr":"eco","postal_code":"428-0504","address":"静岡市葵区井川","next":[1140217,9950810,1141415,1140215,9950401,9950406,9950813,1140224,9950812,9950407,1141418,1140216,1140213,1140218,1140219,1150116,1140214,1141417],"voronoi":{"lat":35.493474,"lng":138.178638,"delta_lat":[0,-26610,-35137,-52874,-30137,-77821,-63109,-59095,-3642,-1353,-21513,-8666,-18786,48130,88778,195778,9523,23069],"delta_lng":[0,30828,30388,38021,19383,39042,18094,12244,475,-1283,-23780,-10085,-26705,-52574,-67617,-84235,9595,26530]},"impl":true},
    {"code":1140217,"left":1140215,"right":1140218,"id":"049e0d","name":"身延","name_kana":"みのぶ","lat":35.361397,"lng":138.453021,"prefecture":19,"lines":[11402],"attr":"heat","postal_code":"409-2412","address":"南巨摩郡身延町角打","next":[9950814,1140216,1140211,1140208,1140218,1140220],"voronoi":{"lat":35.36566,"lng":138.555585,"delta_lat":[0,13193,-30137,-6821,7861,6966],"delta_lng":[0,-277711,19383,269468,12273,6332]},"impl":true},
    {"code":1140215,"id":"7da131","name":"内船","name_kana":"うつぶな","lat":35.282183,"lng":138.465068,"prefecture":19,"lines":[11402],"attr":"heat","postal_code":"409-2305","address":"南巨摩郡南部町内船","next":[1140211,9950814,1140216,1140214],"voronoi":{"lat":35.332404,"lng":138.555778,"delta_lat":[0,-61510,-63109,107462],"delta_lng":[0,-219479,18094,189028]},"impl":true},
    {"code":1140218,"id":"c9373e","name":"塩之沢","name_kana":"しおのさわ","lat":35.379626,"lng":138.453887,"prefecture":19,"lines":[11402],"attr":"eco","postal_code":"409-2403","address":"南巨摩郡身延町帯金","next":[1140220,1140217,9950814,1140219],"voronoi":{"lat":35.36566,"lng":138.555585,"delta_lat":[0,13193,52874,-36258],"delta_lng":[0,-277711,-38021,241298]},"impl":true},
    {"code":1141405,"left":1141408,"right":1140226,"id":"2ae00c","name":"毛賀","name_kana":"けが","lat":35.487445,"lng":137.839332,"prefecture":20,"lines":[11414],"attr":"heat","postal_code":"395-0813","address":"飯田市毛賀","next":[1141408,1141404,1141406,1141403],"voronoi":{"lat":35.485584,"lng":137.813604,"delta_lat":[0,9097,-12234,-1430],"delta_lng":[0,16020,51999,-58776]},"impl":true},
    {"code":1141408,"left":1141402,"right":1141125,"id":"4bca94","name":"鼎","name_kana":"かなえ","lat":35.506726,"lng":137.828383,"prefecture":20,"lines":[11414],"attr":"heat","postal_code":"395-0801","address":"飯田市鼎中平","next":[1141410,1141405,1141403,1141406,1141409,1141411,1141412,1141407],"voronoi":{"lat":35.498409,"lng":137.832428,"delta_lat":[0,-3728,-9097,26,24185,4768,-428,-2070],"delta_lng":[0,-2804,-16020,-1826,7039,8563,5429,2624]},"impl":true},
    {"code":1141402,"left":1141119,"right":1141351,"id":"ac5eb9","name":"川路","name_kana":"かわじ","lat":35.452946,"lng":137.815564,"prefecture":20,"lines":[11414],"attr":"heat","postal_code":"399-2431","address":"飯田市川路","next":[1141124,1141121,1141409,1141348,1141350,1141351,1141403],"voronoi":{"lat":35.437916,"lng":137.755034,"delta_lat":[0,-1349,6982,16111,7564,14169,-32321],"delta_lng":[0,-27194,-66536,4072,5336,130148,29347]},"impl":true},
    {"code":1141119,"left":9952402,"right":1141120,"id":"708948","name":"美乃坂本","name_kana":"みのさかもと","lat":35.479286,"lng":137.450364,"prefecture":21,"lines":[11411],"attr":"eco","postal_code":"509-9131","address":"中津川市千旦林","next":[1141120,1141614,9952403,1141613,1141118,9952402,1141122],"voronoi":{"lat":35.455134,"lng":137.490539,"delta_lat":[0,-5523,21553,138682,1587,24324,-71645],"delta_lng":[0,-30808,-32936,-78857,598,14012,84249]},"impl":true},
    {"code":9952402,"left":1141118,"id":"2d1757","name":"東野(岐阜)","original_name":"東野","name_kana":"ひがしの","lat":35.446315,"lng":137.428788,"prefecture":21,"lines":[99524],"attr":"cool","postal_code":"509-7202","address":"恵那市東野大字中切","next":[9952403,9952405,1141119,1141118],"voronoi":{"lat":35.412237,"lng":137.402276,"delta_lat":[0,4280,33094,21553],"delta_lng":[0,29134,28321,-32936]},"impl":true},
    {"code":1141118,"id":"39017f","name":"恵那","name_kana":"えな","lat":35.455063,"lng":137.407764,"prefecture":21,"lines":[11411,99524],"attr":"eco","postal_code":"509-7201","address":"恵那市大井町神ノ木","next":[1141117,1141613,9952405,1141119,9952411,9952402],"voronoi":{"lat":35.609846,"lng":137.347939,"delta_lat":[0,-21854,-179453,993,2705,58927],"delta_lng":[0,-12183,57342,3000,6179,24519]},"impl":true},
    {"code":1141120,"id":"7865ca","name":"中津川","name_kana":"なかつがわ","lat":35.50036,"lng":137.502867,"prefecture":21,"lines":[11411],"attr":"eco","postal_code":"508-0033","address":"中津川市太田町２丁目","next":[1141119,1141121,1141122,9952404,9952403,1141348],"voronoi":{"lat":35.550719,"lng":137.48184,"delta_lat":[0,13393,-108978,-65448,-6760,1],"delta_lng":[0,-35043,43742,128711,15491,0]},"impl":true},
    {"code":1141351,"left":1141349,"right":1141403,"id":"efccc1","name":"天竜峡","name_kana":"てんりゅうきょう","lat":35.441114,"lng":137.81732,"prefecture":20,"lines":[11413,11414],"attr":"heat","postal_code":"399-2431","address":"飯田市川路","next":[1141403,1141350,1141402],"voronoi":{"lat":35.432753,"lng":137.866014,"delta_lat":[0,5164,11156],"delta_lng":[0,-110980,75173]},"impl":true},
    {"code":1141349,"left":1141350,"id":"1d3830","name":"金野","name_kana":"きんの","lat":35.419128,"lng":137.817149,"prefecture":20,"lines":[11413],"attr":"heat","postal_code":"399-2223","address":"飯田市千栄","next":[1141348,1141347,1141404,1141350,1141346],"voronoi":{"lat":35.426581,"lng":137.88017,"delta_lat":[0,-3849,-28057,-588,17027],"delta_lng":[0,-95688,68322,8595,57494]},"impl":true},
    {"code":1141350,"id":"17a20f","name":"千代","name_kana":"ちよ","lat":35.428949,"lng":137.816754,"prefecture":20,"lines":[11413],"attr":"heat","postal_code":"399-2223","address":"飯田市千栄","next":[1141351,1141348,1141404,1141349,1141403,1141402],"voronoi":{"lat":35.432753,"lng":137.866014,"delta_lat":[0,-1403,-4768,-3849,13835,1349],"delta_lng":[0,4471,9685,-95688,-56642,27194]},"impl":true},
    {"code":1141403,"id":"a90136","name":"時又","name_kana":"ときまた","lat":35.46402,"lng":137.82776,"prefecture":20,"lines":[11414],"attr":"heat","postal_code":"399-2563","address":"飯田市時又","next":[1141351,1141408,1141409,1141404,1141350,1141402,1141405],"voronoi":{"lat":35.485584,"lng":137.813604,"delta_lat":[0,26,-4217,-32321,-16320,-1403,49668],"delta_lng":[0,-1826,-10918,29347,35807,4471,-47638]},"impl":true},
    {"code":1141125,"left":1141123,"right":1141412,"id":"a7b952","name":"十二兼","name_kana":"じゅうにかね","lat":35.645418,"lng":137.617569,"prefecture":20,"lines":[11411],"attr":"eco","postal_code":"399-5301","address":"木曽郡南木曽町大字読書","next":[1141124,1141617,1141127,1141126,1141123],"voronoi":{"lat":35.607675,"lng":137.688844,"delta_lat":[0,22567,147422,-1133,-146575],"delta_lng":[0,-18892,-219146,-479,122013]},"impl":true},
    {"code":1141123,"left":1141122,"right":1141124,"id":"dbb864","name":"田立","name_kana":"ただち","lat":35.588281,"lng":137.54893,"prefecture":20,"lines":[11411],"attr":"eco","postal_code":"399-5303","address":"木曽郡南木曽町大字田立","next":[1141124,1141122,1141121,1141617,1141125],"voronoi":{"lat":35.542205,"lng":137.587931,"delta_lat":[0,6708,184490,43129,-146575],"delta_lng":[0,-22422,-145464,30282,122013]},"impl":true},
    {"code":1141122,"left":1141121,"id":"d97669","name":"坂下","name_kana":"さかした","lat":35.574218,"lng":137.531094,"prefecture":21,"lines":[11411],"attr":"eco","postal_code":"509-9232","address":"中津川市坂下","next":[1141123,1141120,1141617,1141121,1141119,1141616,1141614],"voronoi":{"lat":35.685449,"lng":137.381998,"delta_lat":[0,47954,-184490,1806,13393,71645,11506],"delta_lng":[0,38046,145464,-83668,-35043,-84249,1950]},"impl":true},
    {"code":1141121,"id":"2001ca","name":"落合川","name_kana":"おちあいがわ","lat":35.525116,"lng":137.530034,"prefecture":21,"lines":[11411],"attr":"eco","postal_code":"508-0006","address":"中津川市落合","next":[1141120,1141123,1141402,1141348,1141124,1141122],"voronoi":{"lat":35.550719,"lng":137.48184,"delta_lat":[0,-167792,60623,16111,82544,6708],"delta_lng":[0,152901,26562,4072,-77445,-22422]},"impl":true},
    {"code":1141124,"id":"1b6c57","name":"南木曽","name_kana":"なぎそ","lat":35.598896,"lng":137.608672,"prefecture":20,"lines":[11411],"attr":"eco","postal_code":"399-5301","address":"木曽郡南木曽町大字読書","next":[1141123,1141409,1141125,1141402,1141121,1141127],"voronoi":{"lat":35.607675,"lng":137.688844,"delta_lat":[0,22281,-87752,-82544,7564,118892],"delta_lng":[0,-116504,15591,77445,5336,51345]},"impl":true},
    {"code":1141412,"left":1141410,"right":1141411,"id":"e55f72","name":"伊那上郷","name_kana":"いなかみさと","lat":35.520164,"lng":137.838984,"prefecture":20,"lines":[11414],"attr":"cool","postal_code":"395-0004","address":"飯田市上郷黒田","next":[1141407,1141408,1141411,1141413],"voronoi":{"lat":35.544822,"lng":137.839294,"delta_lat":[0,-30686,-2070,889],"delta_lng":[0,-6486,2624,23330]},"impl":true},
    {"code":1141410,"left":1141409,"id":"53e7f7","name":"飯田","name_kana":"いいだ","lat":35.519544,"lng":137.821244,"prefecture":20,"lines":[11414],"attr":"heat","postal_code":"395-0000","address":"飯田市上飯田","next":[1141408,1141411,1141409,1141128,1141421],"voronoi":{"lat":35.629048,"lng":137.786839,"delta_lat":[0,-19357,-99896,4768,110631],"delta_lng":[0,-27281,59258,8563,-34459]},"impl":true},
    {"code":1141409,"id":"638b64","name":"切石","name_kana":"きりいし","lat":35.512339,"lng":137.809098,"prefecture":20,"lines":[11414],"attr":"heat","postal_code":"395-0807","address":"飯田市鼎切石","next":[1141124,1141128,1141403,1141408,1141402,1141127,1141410],"voronoi":{"lat":35.485611,"lng":137.811778,"delta_lat":[0,-4217,-14169,118892,1712,21863,-99896],"delta_lng":[0,-10918,-130148,51345,2034,35468,59258]},"impl":true},
    {"code":1141411,"id":"4692f3","name":"桜町(長野)","original_name":"桜町","name_kana":"さくらまち","lat":35.522147,"lng":137.829601,"prefecture":20,"lines":[11414],"attr":"heat","postal_code":"395-0014","address":"飯田市桜町２丁目","next":[1141410,1141413,1141421,1141408,1141416,1141419,1141412],"voronoi":{"lat":35.609538,"lng":137.815472,"delta_lat":[0,985,7942,6729,-110631,-428,30686],"delta_lng":[0,-749,-10180,-11622,34459,5429,6486]},"impl":true},
    {"code":1140226,"left":1140219,"right":1141417,"id":"87ad50","name":"鰍沢口","name_kana":"かじかざわぐち","lat":35.541375,"lng":138.470916,"prefecture":19,"lines":[11402],"attr":"cool","postal_code":"409-3603","address":"西八代郡市川三郷町黒沢","next":[1131136,1131133,1140228,1131134,1140227,1140225,1141423,1140224],"voronoi":{"lat":35.561213,"lng":138.191978,"delta_lat":[0,18001,27115,14692,-8,-89233,-8991,-624],"delta_lng":[0,4148,99651,126443,72,76127,5580,-69376]},"impl":true},
    {"code":1140219,"left":1141407,"right":1140224,"id":"61188b","name":"波高島","name_kana":"はだかじま","lat":35.418624,"lng":138.459747,"prefecture":19,"lines":[11402],"attr":"eco","postal_code":"409-2945","address":"南巨摩郡身延町波高島","next":[1140224,1140223,1140221,1140220,9950814,1140218],"voronoi":{"lat":35.431727,"lng":138.239853,"delta_lat":[0,35137,-8204,-5189,-13706,-44296],"delta_lng":[0,-30388,183207,42639,20809,25031]},"impl":true},
    {"code":1141407,"left":1141406,"right":1141413,"id":"218c06","name":"下山村","name_kana":"しもやまむら","lat":35.50426,"lng":137.83959,"prefecture":20,"lines":[11414],"attr":"heat","postal_code":"395-0803","address":"飯田市鼎下山","next":[1141412,1141406,1141408,1141413],"voronoi":{"lat":35.498409,"lng":137.832428,"delta_lat":[0,13656,889,-5628],"delta_lng":[0,3005,23330,7642]},"impl":true},
    {"code":1141406,"left":1141404,"id":"0eced8","name":"伊那八幡","name_kana":"いなやわた","lat":35.49683,"lng":137.84154,"prefecture":20,"lines":[11414],"attr":"heat","postal_code":"395-0000","address":"飯田市松尾","next":[1141414,1141408,1141407,1141413,1141405,1141404],"voronoi":{"lat":35.482448,"lng":137.881622,"delta_lat":[0,12234,3728,8917,-20547,-7281],"delta_lng":[0,-51999,2804,33977,38342,9884]},"impl":true},
    {"code":1141404,"id":"536ce8","name":"駄科","name_kana":"だしな","lat":35.4754,"lng":137.839625,"prefecture":20,"lines":[11414],"attr":"heat","postal_code":"399-2561","address":"飯田市駄科","next":[1141405,1141414,1141349,1141350,1141403,1141346,1141406,1141415],"voronoi":{"lat":35.411115,"lng":137.918892,"delta_lat":[0,15467,4768,49668,1430,-2949,-727,-69083],"delta_lng":[0,-38723,-9685,-47638,58776,33008,1358,108768]},"impl":true},
    {"code":1141413,"id":"1b5693","name":"元善光寺","name_kana":"もとぜんこうじ","lat":35.533843,"lng":137.861375,"prefecture":20,"lines":[11414],"attr":"cool","postal_code":"395-0001","address":"飯田市座光寺","next":[1141411,1141406,1141414,1141407,1141412,1141416],"voronoi":{"lat":35.609538,"lng":137.815472,"delta_lat":[0,-64717,-31867,-5628,-20547,111279],"delta_lng":[0,23823,19468,7642,38342,-76397]},"impl":true},
    {"code":1140224,"left":1140220,"right":1140225,"id":"1dc5f5","name":"甲斐岩間","name_kana":"かいいわま","lat":35.492539,"lng":138.463057,"prefecture":19,"lines":[11402],"attr":"eco","postal_code":"409-3244","address":"西八代郡市川三郷町岩間","next":[1141418,1141423,1140219,9950814,1140223,1140226,1140225],"voronoi":{"lat":35.458659,"lng":138.392673,"delta_lat":[0,8204,26610,63176,4564,-39048,-30854],"delta_lng":[0,-183207,-30828,11853,1487,242645,41669]},"impl":true},
    {"code":1140220,"left":1140223,"id":"022cd9","name":"下部温泉","name_kana":"しもべおんせん","lat":35.425751,"lng":138.472359,"prefecture":19,"lines":[11402],"attr":"eco","postal_code":"409-2936","address":"南巨摩郡身延町常葉","next":[1140221,9940118,1140218,1140219,1140208,1140217],"voronoi":{"lat":35.36566,"lng":138.555585,"delta_lat":[0,29809,44296,-43819,-5002,-34222],"delta_lng":[0,-74434,-25031,180630,1223,-52643]},"impl":true},
    {"code":1140223,"id":"2d6e1d","name":"久那土","name_kana":"くなど","lat":35.48144,"lng":138.467391,"prefecture":19,"lines":[11402],"attr":"eco","postal_code":"409-3117","address":"南巨摩郡身延町三沢","next":[1140222,1140219,1140224,1140225,1140221],"voronoi":{"lat":35.487955,"lng":138.495548,"delta_lat":[0,3357,-32652,-5189,6175],"delta_lng":[0,-19256,-83619,42639,23620]},"impl":true},
    {"code":1140225,"id":"b8c1cd","name":"落居","name_kana":"おちい","lat":35.503612,"lng":138.471256,"prefecture":19,"lines":[11402],"attr":"cool","postal_code":"409-3231","address":"西八代郡市川三郷町落居","next":[1140228,1140229,1140226,1140222,1140224,1140223],"voronoi":{"lat":35.491311,"lng":138.476292,"delta_lat":[0,30854,624,-8051,-14797,-11987],"delta_lng":[0,-41669,69376,14933,22008,-45392]},"impl":true},
    {"code":1141417,"left":1141416,"right":1141419,"id":"0d2711","name":"山吹","name_kana":"やまぶき","lat":35.577758,"lng":137.903282,"prefecture":20,"lines":[11414],"attr":"cool","postal_code":"399-3101","address":"下伊那郡高森町山吹","next":[1141419,1141415,1141418,1141416,9950814],"voronoi":{"lat":35.436939,"lng":138.110428,"delta_lat":[0,113783,47343,-86,-137971],"delta_lng":[0,-193678,-33198,4393,249013]},"impl":true},
    {"code":1141416,"left":1141415,"right":1141421,"id":"310662","name":"下平","name_kana":"しもだいら","lat":35.572597,"lng":137.895922,"prefecture":20,"lines":[11414],"attr":"cool","postal_code":"399-3101","address":"下伊那郡高森町山吹","next":[1141419,1141415,1141411,1141417,1141414,1141413],"voronoi":{"lat":35.609538,"lng":137.815472,"delta_lat":[0,985,-12458,-47343,18796,28540],"delta_lng":[0,-749,68830,33198,-46813,-41588]},"impl":true},
    {"code":1141415,"left":1141414,"id":"4280c0","name":"市田","name_kana":"いちだ","lat":35.549325,"lng":137.886578,"prefecture":20,"lines":[11414],"attr":"cool","postal_code":"399-3103","address":"下伊那郡高森町下市田","next":[9950812,9950814,1141417,1141416,1141345,1141404,1141346,1141414],"voronoi":{"lat":35.409688,"lng":138.024756,"delta_lat":[0,-8584,-1358,27670,9523,113783,18796,-90747],"delta_lng":[0,35343,6390,34344,9595,-193678,-46813,46051]},"impl":true},
    {"code":1141414,"id":"e5ff2a","name":"下市田","name_kana":"しもいちだ","lat":35.544165,"lng":137.87641,"prefecture":20,"lines":[11414],"attr":"cool","postal_code":"399-3103","address":"下伊那郡高森町下市田","next":[1141406,1141404,1141413,1141416,1141415],"voronoi":{"lat":35.569518,"lng":137.869937,"delta_lat":[0,28540,-111279,-7281,-727],"delta_lng":[0,-41588,76397,9884,1358]},"impl":true},
    {"code":1141421,"id":"23c785","name":"高遠原","name_kana":"たかとおばら","lat":35.644693,"lng":137.90055,"prefecture":20,"lines":[11414],"attr":"cool","postal_code":"399-3705","address":"上伊那郡飯島町七久保","next":[1141128,1141411,1141129,1141422,1141420,1141426,1141419,1141410],"voronoi":{"lat":35.629048,"lng":137.786839,"delta_lat":[0,35694,59717,-11532,-72115,-10596,-11751,6729],"delta_lng":[0,9196,28300,23299,66477,-18915,-90654,-11622]},"impl":true},
    {"code":1141419,"left":1141418,"right":1141420,"id":"6921b4","name":"上片桐","name_kana":"かみかたぎり","lat":35.617583,"lng":137.904064,"prefecture":20,"lines":[11414],"attr":"cool","postal_code":"399-3301","address":"下伊那郡松川町上片桐","next":[1141416,1141417,1141418,1141420,1141411,1141421],"voronoi":{"lat":35.618466,"lng":137.804543,"delta_lat":[0,-7942,-12458,-86,14461,17776],"delta_lng":[0,10180,68830,4393,34558,-27307]},"impl":true},
    {"code":1141418,"id":"847193","name":"伊那大島","name_kana":"いなおおしま","lat":35.595698,"lng":137.913222,"prefecture":20,"lines":[11414],"attr":"cool","postal_code":"399-3303","address":"下伊那郡松川町元大島","next":[1140224,1141420,1141419,9950814,1141417,1141423],"voronoi":{"lat":35.616974,"lng":137.972058,"delta_lat":[0,-4534,-14461,-137971,33465,63176],"delta_lng":[0,-49555,-34558,249013,41679,11853]},"impl":true},
    {"code":1141420,"id":"ee40b2","name":"伊那田島","name_kana":"いなたじま","lat":35.627221,"lng":137.910338,"prefecture":20,"lines":[11414],"attr":"cool","postal_code":"399-3802","address":"上伊那郡中川村片桐","next":[1141418,1141423,1141419,1141421,1141422],"voronoi":{"lat":35.640813,"lng":137.914112,"delta_lat":[0,-10596,-17776,4534,23179],"delta_lng":[0,-18915,27307,49555,-39998]},"impl":true},
    {"code":1140212,"left":9950305,"right":9940114,"id":"221d42","name":"十島","name_kana":"とおしま","lat":35.230153,"lng":138.515802,"prefecture":19,"lines":[11402],"attr":"heat","postal_code":"409-2303","address":"南巨摩郡南部町十島","next":[1150114,1140210,1150113,1140213,1140211],"voronoi":{"lat":35.270896,"lng":138.525768,"delta_lat":[0,-132466,394,14952,40986],"delta_lng":[0,-92335,11538,53833,28051]},"impl":true},
    {"code":9950305,"left":9950303,"right":1150107,"id":"f07a05","name":"岳南原田","name_kana":"がくなんはらだ","lat":35.166076,"lng":138.704517,"prefecture":22,"lines":[99503],"attr":"cool","postal_code":"417-0852","address":"富士市原田２１７-１","next":[9950306,1140205,1150108,9950308,9950307,9950309,9950304,1140206,1140204],"voronoi":{"lat":35.201413,"lng":138.685527,"delta_lat":[0,-46303,-223,30120,44656,8215,76947,-1483,-75480],"delta_lng":[0,16205,2834,15221,12153,1572,10082,-927,-42918]},"impl":true},
    {"code":9950303,"left":1140202,"right":1140206,"id":"2144ea","name":"吉原本町","name_kana":"よしわらほんちょう","lat":35.160821,"lng":138.689774,"prefecture":22,"lines":[99503],"attr":"cool","postal_code":"417-0051","address":"富士市吉原１-８４-２","next":[9950302,1140203,1140204,9950304,100207,1140201],"voronoi":{"lat":35.157539,"lng":138.67218,"delta_lat":[0,1962,31989,-15298,-10105,-4253],"delta_lng":[0,19785,-12233,-9964,-1670,1029]},"impl":true},
    {"code":1140202,"left":1150111,"right":1140201,"id":"3e8a64","name":"柚木(JR)","original_name":"柚木","name_kana":"ゆのき","lat":35.157468,"lng":138.639157,"prefecture":22,"lines":[11402],"attr":"cool","postal_code":"416-0908","address":"静岡県富士市柚木213","next":[1140201,1140205,1140209,1150110,1140203],"voronoi":{"lat":35.179756,"lng":138.615726,"delta_lat":[0,-232,-4975,-35931,20884],"delta_lng":[0,-3129,-3791,28535,10334]},"impl":true},
    {"code":1150111,"left":1150112,"right":1150110,"id":"0ab3fd","name":"新蒲原","name_kana":"しんかんばら","lat":35.119599,"lng":138.608117,"prefecture":22,"lines":[11501],"attr":"cool","postal_code":"421-3203","address":"静岡市清水区蒲原","next":[1150112,1150110,1150107,1150108,1150114,100207],"voronoi":{"lat":35.116718,"lng":138.641424,"delta_lat":[0,25011,-122491,-111263,68962,20533],"delta_lng":[0,-51488,27015,86505,-8364,-5260]},"impl":true},
    {"code":1150112,"left":1150113,"id":"9256f7","name":"蒲原","name_kana":"かんばら","lat":35.114005,"lng":138.582752,"prefecture":22,"lines":[11501],"attr":"cool","postal_code":"421-3214","address":"静岡市清水区蒲原堰沢","next":[1150111,1140210,1150114,1150110,1140209,1150113],"voronoi":{"lat":35.148843,"lng":138.54337,"delta_lat":[0,7896,-8,-15001,-122491,1285],"delta_lng":[0,34770,442,11354,27015,-1298]},"impl":true},
    {"code":1150113,"id":"8119bf","name":"由比","name_kana":"ゆい","lat":35.097108,"lng":138.552756,"prefecture":22,"lines":[11501],"attr":"cool","postal_code":"421-3111","address":"静岡市清水区由比今宿","next":[1150114,1140210,1140212,1150112],"voronoi":{"lat":35.148843,"lng":138.54337,"delta_lat":[0,4934,-14952,-118301],"delta_lng":[0,-44567,-53833,170683]},"impl":true},
    {"code":1150110,"id":"f22253","name":"富士川","name_kana":"ふじかわ","lat":35.141119,"lng":138.618571,"prefecture":22,"lines":[11501],"attr":"cool","postal_code":"421-3306","address":"静岡県富士市中之郷1228-4","next":[1140202,1150111,1140209,1150112,100207,1140201],"voronoi":{"lat":35.116718,"lng":138.641424,"delta_lat":[0,25011,15001,17819,-35931,-12247],"delta_lng":[0,-51488,-11354,30224,28535,3893]},"impl":true},
    {"code":1140201,"left":1150108,"right":9950302,"id":"056f2a","name":"富士","name_kana":"ふじ","lat":35.151497,"lng":138.651225,"prefecture":22,"lines":[11402,11501],"attr":"cool","postal_code":"416-0914","address":"富士市本町１丁目","next":[1140202,100207,1140203,9950303,1150110],"voronoi":{"lat":35.138619,"lng":138.637342,"delta_lat":[0,20884,6584,-4253,-35462],"delta_lng":[0,10334,20423,1029,-27893]},"impl":true},
    {"code":1150108,"left":100207,"id":"48fa60","name":"吉原","name_kana":"よしわら","lat":35.143845,"lng":138.702768,"prefecture":22,"lines":[11501,99503],"attr":"cool","postal_code":"417-0015","address":"富士市鈴川町","next":[9950305,9950307,1150107,9950306,100207,9950302,1150111,9950304],"voronoi":{"lat":35.154888,"lng":138.704566,"delta_lat":[0,-8059,-7557,-162334,20533,141317,15486,837],"delta_lng":[0,13123,6278,-28874,-5260,-6606,16997,1508]},"impl":true},
    {"code":100207,"id":"d12d73","name":"新富士(静岡)","original_name":"新富士","name_kana":"しんふじ","lat":35.142,"lng":138.663299,"prefecture":22,"lines":[1002],"attr":"heat","postal_code":"416-0939","address":"静岡県富士市川成島６５４−１０","next":[1140201,1150108,1150110,9950303,1150111,9950302],"voronoi":{"lat":34.99747,"lng":138.689833,"delta_lat":[0,119248,9653,35462,-4295,-18751],"delta_lng":[0,-48408,-190,27893,3053,11046]},"impl":true},
    {"code":9950302,"id":"ad37dd","name":"ジヤトコ前（ジヤトコ１地区前）","name_kana":"じゃとこまえ","lat":35.157775,"lng":138.690076,"prefecture":22,"lines":[99503],"attr":"cool","postal_code":"417-0061","address":"静岡県富士市伝法3653-2","next":[9950303,1150108,9950304,100207],"voronoi":{"lat":35.157539,"lng":138.67218,"delta_lat":[0,1962,-5227,-15486],"delta_lng":[0,19785,8258,-16997]},"impl":true},
    {"code":1140206,"left":1140207,"right":1140204,"id":"86325e","name":"源道寺","name_kana":"げんどうじ","lat":35.214463,"lng":138.627057,"prefecture":22,"lines":[11402],"attr":"cool","postal_code":"418-0034","address":"富士宮市黒田源道寺町","next":[9940117,9940116,1140209,9950305,9950309,1140207,1140205],"voronoi":{"lat":35.191176,"lng":138.611242,"delta_lat":[0,6007,157511,-17109,-11911,-10848,-1483],"delta_lng":[0,-2132,90173,30304,19005,-4998,-927]},"impl":true},
    {"code":1140207,"left":1140209,"right":1140208,"id":"35637c","name":"富士宮","name_kana":"ふじのみや","lat":35.221409,"lng":138.614924,"prefecture":22,"lines":[11402],"attr":"heat","postal_code":"418-0065","address":"富士宮市中央町","next":[9940117,1140209,9940118,1140206,1140208],"voronoi":{"lat":35.363935,"lng":138.684488,"delta_lat":[0,-9241,-157511,8536,172200],"delta_lng":[0,14794,-90173,-6165,56396]},"impl":true},
    {"code":1140209,"left":1140210,"id":"0f0873","name":"沼久保","name_kana":"ぬまくぼ","lat":35.199278,"lng":138.584283,"prefecture":22,"lines":[11402],"attr":"heat","postal_code":"418-0036","address":"富士宮市沼久保","next":[1140210,1140206,1140205,1140202,1150110,1150112,1140207,1140208],"voronoi":{"lat":35.227922,"lng":138.571154,"delta_lat":[0,-71184,-8,17819,4975,11651,6007,8536],"delta_lng":[0,6986,442,30224,3791,-1356,-2132,-6165]},"impl":true},
    {"code":1140210,"id":"e9c597","name":"芝川","name_kana":"しばかわ","lat":35.197272,"lng":138.563845,"prefecture":22,"lines":[11402],"attr":"eco","postal_code":"419-0316","address":"静岡県富士宮市羽鮒1231","next":[1140209,1140208,1140211,1150113,1150112,1140212],"voronoi":{"lat":35.229697,"lng":138.569862,"delta_lat":[0,-1775,-71184,-7896,4934,40986],"delta_lng":[0,1292,6986,-34770,-44567,28051]},"impl":true},
    {"code":1140208,"id":"854d0f","name":"西富士宮","name_kana":"にしふじのみや","lat":35.225456,"lng":138.602567,"prefecture":22,"lines":[11402],"attr":"heat","postal_code":"418-0042","address":"富士宮市貴船町","next":[1140210,1140211,9940118,1140217,1140220,1140209,1140207],"voronoi":{"lat":35.390944,"lng":138.637974,"delta_lat":[0,-34222,-6966,-120058,-1775,-22204,172200],"delta_lng":[0,-52643,-6332,-9136,1292,31790,56396]},"impl":true},
    {"code":1140204,"left":9950304,"right":1140205,"id":"934559","name":"入山瀬","name_kana":"いりやませ","lat":35.188276,"lng":138.647622,"prefecture":22,"lines":[11402],"attr":"cool","postal_code":"419-0202","address":"富士市久沢","next":[1140203,9950304,9950303,9950305,1140205],"voronoi":{"lat":35.180589,"lng":138.618745,"delta_lat":[0,-4398,15298,9924,36449],"delta_lng":[0,51024,9964,5794,14222]},"impl":true},
    {"code":9950304,"left":1140203,"id":"3c8015","name":"本吉原","name_kana":"ほんよしわら","lat":35.161946,"lng":138.692716,"prefecture":22,"lines":[99503],"attr":"cool","postal_code":"417-0001","address":"富士市今泉１-１７-３９","next":[1140204,9950305,9950303,9950302,1150108],"voronoi":{"lat":35.154273,"lng":138.700223,"delta_lat":[0,5227,31989,9924,-46303],"delta_lng":[0,-8258,-12233,5794,16205]},"impl":true},
    {"code":1140203,"id":"e229e4","name":"竪堀","name_kana":"たてぼり","lat":35.168075,"lng":138.645881,"prefecture":22,"lines":[11402],"attr":"cool","postal_code":"416-0907","address":"富士市中島","next":[1140204,9950303,1140205,1140202,1140201],"voronoi":{"lat":35.159503,"lng":138.647675,"delta_lat":[0,20254,833,-4398,-10105],"delta_lng":[0,-31949,3018,51024,-1670]},"impl":true},
    {"code":1140205,"id":"1f48ad","name":"富士根","name_kana":"ふじね","lat":35.205251,"lng":138.63562,"prefecture":22,"lines":[11402],"attr":"cool","postal_code":"419-0205","address":"富士市天間","next":[9950305,1140202,1140209,1140203,1140204,1140206],"voronoi":{"lat":35.191176,"lng":138.611242,"delta_lat":[0,-11651,232,833,57273,75480],"delta_lng":[0,1356,3129,3018,81004,42918]},"impl":true},
    {"code":1150107,"left":1150517,"right":9950310,"id":"8da4fa","name":"東田子の浦","name_kana":"ひがしたごのうら","lat":35.136255,"lng":138.745441,"prefecture":22,"lines":[11501],"attr":"cool","postal_code":"417-0832","address":"富士市中柏原新田","next":[9950307,1150114,1150108,9950211,9950309,9950310,1150111,1150106,9950308],"voronoi":{"lat":35.148322,"lng":138.740944,"delta_lat":[0,-10117,-247268,-2604,19642,68962,162334,3421,5470],"delta_lng":[0,30272,-58483,-1922,-7355,-8364,28874,3825,11507]},"impl":true},
    {"code":1150517,"left":1150105,"right":9950202,"id":"583dfc","name":"下土狩","name_kana":"しもとがり","lat":35.128379,"lng":138.895126,"prefecture":22,"lines":[11505],"attr":"heat","postal_code":"411-0943","address":"駿東郡長泉町下土狩","next":[1150518,100206,1150516,9950202],"voronoi":{"lat":35.136444,"lng":138.904342,"delta_lat":[0,8019,-31364,9578],"delta_lng":[0,-36429,29175,5426]},"impl":true},
    {"code":1150105,"left":1150518,"right":1150106,"id":"d2f4e4","name":"片浜","name_kana":"かたはま","lat":35.11825,"lng":138.818937,"prefecture":22,"lines":[11501],"attr":"cool","postal_code":"410-0875","address":"沼津市今沢","next":[9950211,1150515,1150518,1150516,1150104,1150106],"voronoi":{"lat":34.942575,"lng":138.759466,"delta_lat":[0,26491,173387,10980,33165,19353],"delta_lng":[0,27651,64184,364,-12117,-11377]},"impl":true},
    {"code":1150518,"left":1150104,"id":"e5a514","name":"大岡","name_kana":"おおおか","lat":35.116158,"lng":138.881988,"prefecture":22,"lines":[11505],"attr":"eco","postal_code":"410-0022","address":"沼津市大岡","next":[1150104,9950204,1150517,9950206,9950203,1150105,9950202,1150516],"voronoi":{"lat":35.153432,"lng":138.851665,"delta_lat":[0,-10980,-72190,8386,2750,2058,29642,31364],"delta_lng":[0,-364,43369,5260,320,-3,-3159,-29175]},"impl":true},
    {"code":1150104,"id":"6650f8","name":"沼津","name_kana":"ぬまづ","lat":35.103011,"lng":138.860104,"prefecture":22,"lines":[11501,11505],"attr":"cool","postal_code":"410-0801","address":"沼津市大手町１丁目","next":[9950206,1150518,9950209,9950208,9950207,9950211,9950210,1150105],"voronoi":{"lat":34.969066,"lng":138.787117,"delta_lat":[0,62750,387,4197,14785,12785,6293,72190],"delta_lng":[0,87973,399,3030,8567,5714,1870,-43369]},"impl":true},
    {"code":1150106,"id":"cf81b1","name":"原(静岡)","original_name":"原","name_kana":"はら","lat":35.124915,"lng":138.793387,"prefecture":22,"lines":[11501],"attr":"cool","postal_code":"410-0312","address":"沼津市原","next":[9950310,9950211,1150515,1150107,1150105],"voronoi":{"lat":34.942575,"lng":138.759466,"delta_lat":[0,-51637,247268,74405,-6660],"delta_lng":[0,-46732,58483,54284,2670]},"impl":true},
    {"code":9950202,"left":9950204,"right":100206,"id":"d45e17","name":"三島広小路","name_kana":"みしまひろこうじ","lat":35.119272,"lng":138.911202,"prefecture":22,"lines":[99502],"attr":"cool","postal_code":"411-0856","address":"三島市広小路町","next":[100206,1150517,1150518,9950203],"voronoi":{"lat":35.083456,"lng":138.900247,"delta_lat":[0,29642,9578,143],"delta_lng":[0,-3159,5426,14457]},"impl":true},
    {"code":9950204,"left":9950203,"id":"57b46d","name":"三島二日町","name_kana":"みしまふつかまち","lat":35.111039,"lng":138.926001,"prefecture":22,"lines":[99502],"attr":"cool","postal_code":"411-0832","address":"三島市南二日町","next":[1150518,9950205,9950206,9950203,1150102,100206],"voronoi":{"lat":35.113395,"lng":138.948668,"delta_lat":[0,-33473,-1273,2750,57930,10529],"delta_lng":[0,-46094,-2645,320,39481,10775]},"impl":true},
    {"code":9950203,"id":"2e9bc4","name":"三島田町","name_kana":"みしまたまち","lat":35.116205,"lng":138.918421,"prefecture":22,"lines":[99502],"attr":"cool","postal_code":"411-0854","address":"三島市北田町","next":[1150518,9950204,100206,9950202],"voronoi":{"lat":35.083456,"lng":138.900247,"delta_lat":[0,-2058,57930,-16509],"delta_lng":[0,3,39481,-22760]},"impl":true},
    {"code":100206,"id":"909cad","name":"三島","name_kana":"みしま","lat":35.126253,"lng":138.911133,"prefecture":22,"lines":[1002,11501,99502],"attr":"cool","postal_code":"411-0036","address":"三島市一番町","next":[9950202,1150515,1150517,1150102,9950203,1150516,9950204],"voronoi":{"lat":35.150463,"lng":138.950682,"delta_lat":[0,-919,-13100,-13767,143,16509,10529],"delta_lng":[0,-22542,-23798,-1828,14457,22760,10775]},"impl":true},
    {"code":9950310,"left":9950309,"right":1150515,"id":"83b5af","name":"岳南江尾","name_kana":"がくなんえのお","lat":35.155261,"lng":138.751793,"prefecture":22,"lines":[99503],"attr":"eco","postal_code":"417-0811","address":"富士市江尾１４３-２","next":[1150106,1150515,1150514,1150107,9950309,1150513],"voronoi":{"lat":35.251444,"lng":138.808833,"delta_lat":[0,-103121,-10117,74405,956,25530],"delta_lng":[0,-67889,30272,54284,-98,-9102]},"impl":true},
    {"code":9950309,"left":9950308,"right":9950306,"id":"61da1d","name":"神谷","name_kana":"かみや","lat":35.16103,"lng":138.74303,"prefecture":22,"lines":[99503],"attr":"eco","postal_code":"417-0821","address":"富士市神谷３７９-２","next":[1150512,9950305,9940116,1150513,1150107,9950308,1140206,9950310],"voronoi":{"lat":35.148322,"lng":138.740944,"delta_lat":[0,-160,89716,76947,10848,-3291,-17120,-53819],"delta_lng":[0,-1646,-5787,10082,4998,20160,10888,29194]},"impl":true},
    {"code":9950308,"left":9950307,"id":"4a5db5","name":"須津","name_kana":"すど","lat":35.160444,"lng":138.733944,"prefecture":22,"lines":[99503],"attr":"heat","postal_code":"417-0826","address":"富士市中里１０６-２","next":[9950305,9950307,9950309,1150107],"voronoi":{"lat":35.142693,"lng":138.727791,"delta_lat":[0,86971,8215,-89716],"delta_lng":[0,4148,1572,5787]},"impl":true},
    {"code":9950307,"id":"009bbf","name":"岳南富士岡","name_kana":"がくなんふじおか","lat":35.160949,"lng":138.723356,"prefecture":22,"lines":[99503],"attr":"heat","postal_code":"417-0841","address":"富士市富士岡５３８-１","next":[1150107,9950305,1150108,9950306,9950308],"voronoi":{"lat":35.185008,"lng":138.719786,"delta_lat":[0,-38179,-7557,3421,86971],"delta_lng":[0,-2098,6278,3825,4148]},"impl":true},
    {"code":9950306,"id":"301801","name":"比奈","name_kana":"ひな","lat":35.161485,"lng":138.713602,"prefecture":22,"lines":[99503],"attr":"heat","postal_code":"417-0847","address":"富士市比奈１-６６６-１","next":[9950305,1150108,9950307],"voronoi":{"lat":35.146828,"lng":138.717688,"delta_lat":[0,8059,30120],"delta_lng":[0,-13123,15221]},"impl":true},
    {"code":1150515,"left":1150516,"right":1150514,"id":"01cb22","name":"裾野","name_kana":"すその","lat":35.171372,"lng":138.909293,"prefecture":22,"lines":[11505],"attr":"heat","postal_code":"410-1127","address":"裾野市平松","next":[1150514,1150102,1150106,9950310,1150516,100206,1150105],"voronoi":{"lat":35.20595,"lng":138.82817,"delta_lat":[0,6660,956,-35226,-27878,-919,37054],"delta_lng":[0,-2670,-98,153567,-28288,-22542,-88592]},"impl":true},
    {"code":1150516,"id":"6a7034","name":"長泉なめり","name_kana":"ながいずみなめり","lat":35.147633,"lng":138.899364,"prefecture":22,"lines":[11505],"attr":"heat","postal_code":"411-0933","address":"駿東郡長泉町納米里５８-６","next":[1150515,1150517,100206,1150105,1150518],"voronoi":{"lat":35.153432,"lng":138.851665,"delta_lat":[0,33165,-37054,-13100,8019],"delta_lng":[0,-12117,88592,-23798,-36429]},"impl":true},
    {"code":1150514,"id":"b2a56d","name":"岩波","name_kana":"いわなみ","lat":35.21498,"lng":138.919296,"prefecture":22,"lines":[11505],"attr":"cool","postal_code":"410-1101","address":"裾野市岩波","next":[1150515,9933909,9950310,1150513,9933911,1150102],"voronoi":{"lat":35.215923,"lng":138.988459,"delta_lat":[0,18405,4768,-25530,-35226,7404],"delta_lng":[0,-5123,-167035,9102,153567,15214]},"impl":true},
    {"code":9940114,"left":1140228,"right":9940107,"id":"9637d4","name":"下吉田","name_kana":"しもよしだ","lat":35.497909,"lng":138.80366,"prefecture":19,"lines":[99401],"attr":"eco","postal_code":"403-0011","address":"富士吉田市新倉","next":[9940113,9940115,9940116,9940118],"voronoi":{"lat":35.480991,"lng":138.817214,"delta_lat":[0,4344,27787,30422],"delta_lng":[0,-7830,-22989,281]},"impl":true},
    {"code":1140228,"left":1140211,"right":1140233,"id":"8a6f62","name":"市川本町","name_kana":"いちかわほんまち","lat":35.560684,"lng":138.502028,"prefecture":19,"lines":[11402],"attr":"cool","postal_code":"409-3603","address":"西八代郡市川三郷町黒沢","next":[1140225,1140227,1140226,1140229,1140231],"voronoi":{"lat":35.590606,"lng":138.496852,"delta_lat":[0,-58826,-8991,-8051,73798],"delta_lng":[0,1566,5580,14933,-19248]},"impl":true},
    {"code":1140211,"left":1140222,"right":9940115,"id":"13d476","name":"稲子","name_kana":"いなこ","lat":35.230454,"lng":138.536892,"prefecture":22,"lines":[11402],"attr":"eco","postal_code":"419-0312","address":"静岡県富士宮市下稲子355","next":[1140215,1140216,1140214,1140208,1140210,1140217,1140213,1140212],"voronoi":{"lat":35.270896,"lng":138.525768,"delta_lat":[0,37668,6683,17157,9490,7861,-120058,-34935],"delta_lng":[0,13946,3708,12357,10947,12273,-9136,-43008]},"impl":true},
    {"code":1140222,"left":1140213,"right":1140227,"id":"15bfa3","name":"市ノ瀬","name_kana":"いちのせ","lat":35.462345,"lng":138.482154,"prefecture":19,"lines":[11402],"attr":"eco","postal_code":"409-2938","address":"南巨摩郡身延町市之瀬","next":[1140223,1140230,1140221,1140229,1140225,9940118],"voronoi":{"lat":35.459645,"lng":138.458931,"delta_lat":[0,28309,11987,-7881,-20863,-63335],"delta_lng":[0,36616,45392,27297,58404,7928]},"impl":true},
    {"code":1140213,"left":1140221,"id":"831a40","name":"井出","name_kana":"いで","lat":35.247449,"lng":138.490989,"prefecture":19,"lines":[11402],"attr":"heat","postal_code":"409-2304","address":"南巨摩郡南部町井出","next":[1150114,9950412,1150116,1140211,9950814,9950411,1140212,1140214],"voronoi":{"lat":35.14869,"lng":138.366637,"delta_lat":[0,-3642,-2791,-1695,-3988,1856,132466,37668],"delta_lng":[0,475,13941,10541,30117,11721,92335,13946]},"impl":true},
    {"code":1140221,"id":"e161a2","name":"甲斐常葉","name_kana":"かいときわ","lat":35.444779,"lng":138.476975,"prefecture":19,"lines":[11402],"attr":"eco","postal_code":"409-2936","address":"南巨摩郡身延町常葉","next":[1140222,1140220,1140219,1140223,9940118],"voronoi":{"lat":35.439764,"lng":138.45612,"delta_lat":[0,13706,6175,-51783,-11917],"delta_lng":[0,-20809,23620,175637,2182]},"impl":true},
    {"code":1140227,"id":"a7f9c0","name":"市川大門","name_kana":"いちかわだいもん","lat":35.560451,"lng":138.493276,"prefecture":19,"lines":[11402],"attr":"cool","postal_code":"409-3603","address":"西八代郡市川三郷町黒沢","next":[1140232,1140228,1140226,1140231,1131133],"voronoi":{"lat":35.607469,"lng":138.479669,"delta_lat":[0,-16863,-58826,89233,1732],"delta_lng":[0,17183,1566,-76127,38312]},"impl":true},
    {"code":9940115,"left":9940116,"right":9940118,"id":"65c6f8","name":"月江寺","name_kana":"げっこうじ","lat":35.493313,"lng":138.798105,"prefecture":19,"lines":[99401],"attr":"eco","postal_code":"403-0013","address":"富士吉田市緑ケ丘１丁目","next":[9940116,9940117,9940114,9940118],"voronoi":{"lat":35.507971,"lng":138.785529,"delta_lat":[0,-17933,-4703,27787],"delta_lng":[0,4846,19009,-22989]},"impl":true},
    {"code":9940116,"left":9940117,"id":"d0f9c2","name":"富士山","name_kana":"ふじさん","lat":35.483536,"lng":138.795686,"prefecture":19,"lines":[99401],"attr":"cool","postal_code":"403-0016","address":"富士吉田市松山","open_date":"1929-06-19","next":[9940115,9940113,9950309,1140206,9940117,1150511,9940112,1150512,9940114],"voronoi":{"lat":35.460541,"lng":138.840167,"delta_lat":[0,-53734,-67864,-16560,3291,11911,152453,-4703,-4344],"delta_lng":[0,44769,-89929,-26255,-20160,-19005,60789,19009,7830]},"impl":true},
    {"code":9940117,"id":"7d78ab","name":"富士急ハイランド","name_kana":"ふじきゅうはいらんど","lat":35.488974,"lng":138.782048,"prefecture":19,"lines":[99401],"attr":"cool","postal_code":"401-0301","address":"南都留郡富士河口湖町船津字剣丸尾","next":[1140206,1140207,9940115,9940116,9940118],"voronoi":{"lat":35.363935,"lng":138.684488,"delta_lat":[0,-9241,-17109,152453,17933],"delta_lng":[0,14794,30304,60789,-4846]},"impl":true},
    {"code":9940118,"id":"a918d7","name":"河口湖","name_kana":"かわぐちこ","lat":35.498231,"lng":138.768852,"prefecture":19,"lines":[99401],"attr":"cool","postal_code":"401-0301","address":"南都留郡富士河口湖町船津","next":[1131123,1140230,1140220,1140208,9940117,1131122,1131129,1140207,9940114,9940115,1140221,1140222,9940113],"voronoi":{"lat":35.513121,"lng":138.786395,"delta_lat":[0,-5151,-144036,13984,13025,5002,11917,63335,57350,47147,-5648,-12802,-13701],"delta_lng":[0,-866,-101041,-25148,-21367,-1223,-2182,-7928,16477,55959,62373,24010,1217]},"impl":true},
    {"code":1140233,"left":1140231,"right":1131123,"id":"d2ff27","name":"常永","name_kana":"じょうえい","lat":35.616877,"lng":138.532909,"prefecture":19,"lines":[11402],"attr":"cool","postal_code":"409-3862","address":"中巨摩郡昭和町上河東","next":[1131132,1140232,1140234],"voronoi":{"lat":35.629797,"lng":138.476457,"delta_lat":[0,13640,-42723],"delta_lng":[0,51999,30456]},"impl":true},
    {"code":1140231,"left":1140230,"right":1140232,"id":"9fe752","name":"東花輪","name_kana":"ひがしはなわ","lat":35.594749,"lng":138.526935,"prefecture":19,"lines":[11402],"attr":"cool","postal_code":"409-3842","address":"中央市東花輪","next":[1140230,1140234,1140235,1140227,1140228,1140229,1140232],"voronoi":{"lat":35.607469,"lng":138.479669,"delta_lat":[0,-16863,-2070,-393,-25644,23828,6779],"delta_lng":[0,17183,2831,793,99708,-23203,-9644]},"impl":true},
    {"code":1140230,"left":1140229,"id":"1b8c32","name":"甲斐上野","name_kana":"かいうえの","lat":35.569592,"lng":138.520465,"prefecture":19,"lines":[11402],"attr":"cool","postal_code":"409-3612","address":"西八代郡市川三郷町上野","next":[1131129,1140231,1140222,1140235,9940118,1140229],"voronoi":{"lat":35.588143,"lng":138.500476,"delta_lat":[0,-25644,-28674,-5278,-57350,20863],"delta_lng":[0,99708,38862,4071,-16477,-58404]},"impl":true},
    {"code":1140229,"id":"bb4a1d","name":"芦川","name_kana":"あしがわ","lat":35.563087,"lng":138.511241,"prefecture":19,"lines":[11402],"attr":"cool","postal_code":"409-3612","address":"西八代郡市川三郷町上野","next":[1140225,1140222,1140228,1140231,1140230],"voronoi":{"lat":35.588143,"lng":138.500476,"delta_lat":[0,393,-73798,-14797,-7881],"delta_lng":[0,-793,19248,22008,27297]},"impl":true},
    {"code":1140232,"id":"12c7b0","name":"小井川","name_kana":"こいかわ","lat":35.604442,"lng":138.528523,"prefecture":19,"lines":[11402],"attr":"cool","postal_code":"409-3823","address":"中央市上三條","next":[1140227,1131133,1131132,1140233,1140234,1140231],"voronoi":{"lat":35.600714,"lng":138.558913,"delta_lat":[0,29083,-310,-6742,-15276,-14363],"delta_lng":[0,-82455,-2157,-13697,19066,87668]},"impl":true},
    {"code":1131123,"left":1140235,"right":1140236,"id":"ebc02e","name":"甲斐大和","name_kana":"かいやまと","lat":35.639364,"lng":138.781632,"prefecture":19,"lines":[11311],"attr":"heat","postal_code":"409-1203","address":"甲州市大和町初鹿野","next":[1131128,1131125,9940118,1131121,1131122,1131129,1131124,1131120],"voronoi":{"lat":35.716855,"lng":138.876876,"delta_lat":[0,-10701,-136107,5648,7958,1136,121718,55269],"delta_lng":[0,-4715,-110712,-62373,987,316,105947,77839]},"impl":true},
    {"code":1140235,"left":1140234,"id":"36dd8f","name":"甲斐住吉","name_kana":"かいすみよし","lat":35.63658,"lng":138.569892,"prefecture":19,"lines":[11402],"attr":"cool","postal_code":"400-0851","address":"甲府市住吉２丁目","next":[1140230,1131131,1140234,1140231,1131129,1140236],"voronoi":{"lat":35.651623,"lng":138.562729,"delta_lat":[0,-223,-65073,-23828,-28674,55640],"delta_lng":[0,-7755,22008,23203,38862,-18083]},"impl":true},
    {"code":1140234,"id":"481c72","name":"国母","name_kana":"こくぼ","lat":35.630567,"lng":138.552113,"prefecture":19,"lines":[11402],"attr":"cool","postal_code":"409-3866","address":"中巨摩郡昭和町西条","next":[1131132,1140231,1140235,1140232,1140233,1131131],"voronoi":{"lat":35.586328,"lng":138.576981,"delta_lat":[0,6779,7608,42723,13154,-5191],"delta_lng":[0,-9644,-8425,-30456,15311,11206]},"impl":true},
    {"code":1140236,"id":"0b8717","name":"南甲府","name_kana":"みなみこうふ","lat":35.643496,"lng":138.577274,"prefecture":19,"lines":[11402],"attr":"cool","postal_code":"400-0863","address":"甲府市南口町","next":[1140237,1131131,1131130,1140238,1140235,1131129],"voronoi":{"lat":35.651623,"lng":138.562729,"delta_lat":[0,2050,-1131,-8357,-28323,-26397],"delta_lng":[0,5849,13514,11385,20988,6499]},"impl":true},
    {"code":9940107,"left":9940109,"right":9940104,"id":"0fee81","name":"谷村町","name_kana":"やむらまち","lat":35.550744,"lng":138.904631,"prefecture":19,"lines":[99401],"attr":"heat","postal_code":"402-0053","address":"都留市上谷１丁目","next":[9940104,9940106,1150509,1150508,9940108,9940105],"voronoi":{"lat":35.479399,"lng":139.000033,"delta_lat":[0,-2230,-8748,96052,-22078,-15570],"delta_lng":[0,-3073,-18017,-96286,49244,20955]},"impl":true},
    {"code":9940109,"left":9940111,"right":1150511,"id":"98a5d6","name":"十日市場(山梨)","original_name":"十日市場","name_kana":"とおかいちば","lat":35.538881,"lng":138.887489,"prefecture":19,"lines":[99401],"attr":"heat","postal_code":"402-0031","address":"都留市十日市場","next":[9940111,9940106,9940110,1150509,9940112,1131121,9940108],"voronoi":{"lat":35.564894,"lng":138.882098,"delta_lat":[0,1372,-383,-103403,-27435,-9291,16759],"delta_lng":[0,-1254,-6025,15742,9544,4568,27340]},"impl":true},
    {"code":9940111,"left":9940112,"right":9940110,"id":"5a67a3","name":"三つ峠","name_kana":"みつとうげ","lat":35.524291,"lng":138.84555,"prefecture":19,"lines":[99401],"attr":"eco","postal_code":"403-0022","address":"南都留郡西桂町小沼","next":[9940109,9940110,9940112,1131122],"voronoi":{"lat":35.462481,"lng":138.89056,"delta_lat":[0,-27435,121052,9519],"delta_lng":[0,9544,-96072,37255]},"impl":true},
    {"code":9940112,"left":9940113,"id":"80fe64","name":"寿","name_kana":"ことぶき","lat":35.508442,"lng":138.82558,"prefecture":19,"lines":[99401],"attr":"eco","postal_code":"403-0001","address":"富士吉田市上暮地","next":[9940111,9940116,9940109,1150509,9940113,1131122,1150511],"voronoi":{"lat":35.406806,"lng":138.884935,"delta_lat":[0,53734,95521,36,-121052,-9291,-15811],"delta_lng":[0,-44769,-45431,9297,96072,4568,-13717]},"impl":true},
    {"code":9940113,"id":"8aed41","name":"葭池温泉前","name_kana":"よしいけおんせんまえ","lat":35.502084,"lng":138.812212,"prefecture":19,"lines":[99401],"attr":"eco","postal_code":"403-0004","address":"富士吉田市下吉田","next":[9940116,9940114,9940112,1131122,9940118],"voronoi":{"lat":35.480991,"lng":138.817214,"delta_lat":[0,-20450,95521,1183,-13701],"delta_lng":[0,22952,-45431,-9276,1217]},"impl":true},
    {"code":9940110,"id":"dae996","name":"東桂","name_kana":"ひがしかつら","lat":35.536334,"lng":138.870758,"prefecture":19,"lines":[99401],"attr":"heat","postal_code":"402-0034","address":"都留市桂町","next":[1131121,9940111,9940109,1131122],"voronoi":{"lat":35.565884,"lng":138.874819,"delta_lat":[0,-103403,103136,5911],"delta_lng":[0,15742,-49273,8772]},"impl":true},
    {"code":1150511,"left":1150512,"right":9940108,"id":"937738","name":"御殿場","name_kana":"ごてんば","lat":35.299933,"lng":138.93424,"prefecture":22,"lines":[11505],"attr":"cool","postal_code":"412-0043","address":"御殿場市新橋","next":[1150512,1150510,1150509,9940116,9933911,9940112],"voronoi":{"lat":35.406806,"lng":138.884935,"delta_lat":[0,-67864,-71827,3295,127181,12352],"delta_lng":[0,-89929,192629,1420,-86580,-11520]},"impl":true},
    {"code":1150512,"left":1150513,"id":"ea9e20","name":"南御殿場","name_kana":"みなみごてんば","lat":35.277269,"lng":138.925789,"prefecture":22,"lines":[11505],"attr":"cool","postal_code":"412-0039","address":"御殿場市竈","next":[1150511,1150513,9950309,9940116,9933911],"voronoi":{"lat":35.251131,"lng":138.984184,"delta_lat":[0,54132,17120,16560,-71827],"delta_lng":[0,-204545,-10888,26255,192629]},"impl":true},
    {"code":1150513,"id":"8f9af5","name":"富士岡","name_kana":"ふじおか","lat":35.257299,"lng":138.920504,"prefecture":22,"lines":[11505],"attr":"cool","postal_code":"412-0035","address":"御殿場市中山","next":[1150512,9950309,1150514,9933911,9950310],"voronoi":{"lat":35.251444,"lng":138.808833,"delta_lat":[0,53819,-54132,-16802,4768],"delta_lng":[0,-29194,204545,-849,-167035]},"impl":true},
    {"code":9940108,"id":"4684d0","name":"都留文科大学前","name_kana":"つるぶんかだいがくまえ","lat":35.542531,"lng":138.896438,"prefecture":19,"lines":[99401],"attr":"heat","postal_code":"402-0054","address":"都留市田原２-６５４","next":[1150509,9940106,9940107,9940109],"voronoi":{"lat":35.46842,"lng":138.978943,"delta_lat":[0,96052,422,-122381],"delta_lng":[0,-96286,-559,49915]},"impl":true},
    {"code":9940104,"left":1131121,"right":9940102,"id":"1302e8","name":"禾生","name_kana":"かせい","lat":35.575175,"lng":138.929191,"prefecture":19,"lines":[99401],"attr":"heat","postal_code":"402-0004","address":"都留市古川渡","next":[1131118,9940103,9940107,1131117,1150508,9940105,1131119],"voronoi":{"lat":35.490532,"lng":139.011188,"delta_lat":[0,-4633,-6500,47426,59598,-5672,-18443],"delta_lng":[0,1280,-12436,-47177,-41142,49847,17741]},"impl":true},
    {"code":1131121,"left":9940105,"right":1131122,"id":"5934aa","name":"初狩","name_kana":"はつかり","lat":35.594274,"lng":138.883966,"prefecture":19,"lines":[11311],"attr":"heat","postal_code":"401-0021","address":"大月市初狩町下初狩","next":[9940106,9940110,1131123,1131120,9940105,9940102,9940103,9940109,1131122],"voronoi":{"lat":35.571528,"lng":138.850059,"delta_lat":[0,-5644,383,9970,12515,24194,54970,48939,-10701],"delta_lng":[0,24759,6025,15688,10999,418,-15292,-15780,-4715]},"impl":true},
    {"code":9940105,"left":9940106,"id":"2e6985","name":"赤坂(山梨)","original_name":"赤坂","name_kana":"あかさか","lat":35.566093,"lng":138.916035,"prefecture":19,"lines":[99401],"attr":"heat","postal_code":"402-0005","address":"都留市四日市場","next":[9940103,9940106,9940104,1131121,9940107],"voronoi":{"lat":35.542395,"lng":138.9319,"delta_lat":[0,33842,12515,-2329,-59598],"delta_lng":[0,-35369,10999,4183,41142]},"impl":true},
    {"code":9940106,"id":"7be04c","name":"都留市","name_kana":"つるし","lat":35.557199,"lng":138.907525,"prefecture":19,"lines":[99401],"attr":"heat","postal_code":"402-0056","address":"都留市つる１-１２-１","next":[1131121,9940107,9940105,9940109,9940108],"voronoi":{"lat":35.564894,"lng":138.882098,"delta_lat":[0,1372,9970,-33842,22078],"delta_lng":[0,-1254,15688,35369,-49244]},"impl":true},
    {"code":1131122,"id":"753d84","name":"笹子","name_kana":"ささご","lat":35.603921,"lng":138.825205,"prefecture":19,"lines":[11311],"attr":"heat","postal_code":"401-0025","address":"大月市笹子町黒野田","next":[1131123,9940118,9940111,9940112,1131121,9940113,9940110],"voronoi":{"lat":35.565616,"lng":138.841288,"delta_lat":[0,-9519,-36,1183,12802,136107,-134626],"delta_lng":[0,-37255,-9297,-9276,-24010,110712,-22102]},"impl":true},
    {"code":9940102,"left":9940103,"right":1131120,"id":"618ea0","name":"上大月","name_kana":"かみおおつき","lat":35.609341,"lng":138.938128,"prefecture":19,"lines":[99401],"attr":"heat","postal_code":"401-0013","address":"大月市大月２丁目","next":[1131119,9940103,1131121,1131120],"voronoi":{"lat":35.592445,"lng":138.955441,"delta_lat":[0,20500,54970,-74264],"delta_lng":[0,-47492,-15292,62643]},"impl":true},
    {"code":9940103,"id":"124342","name":"田野倉","name_kana":"たのくら","lat":35.593456,"lng":138.931271,"prefecture":19,"lines":[99401],"attr":"heat","postal_code":"402-0001","address":"都留市田野倉","next":[1131119,9940104,9940105,9940102,1131121],"voronoi":{"lat":35.592445,"lng":138.955441,"delta_lat":[0,-11695,5672,2329,24194],"delta_lng":[0,6120,-49847,-4183,418]},"impl":true},
    {"code":1131120,"id":"3c541f","name":"大月","name_kana":"おおつき","lat":35.613222,"lng":138.942729,"prefecture":19,"lines":[11311,99401],"attr":"heat","postal_code":"401-0013","address":"大月市大月１丁目","next":[1131125,1131525,1131121,1131119,9930635,9940102,1131123],"voronoi":{"lat":35.793147,"lng":138.898062,"delta_lat":[0,-2113,-30736,-166647,74264,48939,44921],"delta_lng":[0,20372,39087,-2222,-62643,-15780,7289]},"impl":true}
  ]
}