{
  "name":"segment9",
  "root":9950539,
  "east":139.574291,
  "west":137.012838,
  "south":-90.0,
  "north":35.487143,
  "station_size":582,
  "node_list":[
    {"code":9950539,"left":1141316,"right":9933905,"id":"51d876","name":"森町病院前","name_kana":"もりまちびょういんまえ","lat":34.826157,"lng":137.91773,"prefecture":22,"lines":[99505],"attr":"eco","postal_code":"437-0214","address":"静岡県周智郡森町草ケ谷","next":[9950511,9950512,9950513,9950510,9950509,9950507],"voronoi":{"lat":34.819293,"lng":137.92804,"delta_lat":[0,49090,-2763,-2843,-65872,11623],"delta_lng":[0,-36950,-3,807,34791,5524]}},
    {"code":1141316,"left":9952109,"right":9951109,"id":"9455e8","name":"大海","name_kana":"おおみ","lat":34.930164,"lng":137.548682,"prefecture":23,"lines":[11413],"attr":"cool","postal_code":"441-1315","address":"新城市大海","next":[1141318,1141320,1141317,1141321,1141319,1141322,1141313,1141314,9952410,1141315],"voronoi":{"lat":34.927515,"lng":137.556697,"delta_lat":[0,18616,39326,3848,23613,101612,-12920,-53358,-100087,-26502],"delta_lng":[0,4761,-3490,-1550,-14809,-82066,-30113,28029,57935,22176]}},
    {"code":9952109,"left":3000102,"right":9950613,"id":"429f8f","name":"東田坂上","name_kana":"あずまださかうえ","lat":34.765783,"lng":137.408495,"prefecture":23,"lines":[99521],"attr":"heat","postal_code":"441-0000","address":"豊橋市","next":[9952202,9952110,9952003,1141305,3000205,9952108],"voronoi":{"lat":34.747484,"lng":137.406437,"delta_lat":[0,-886,4388,45303,-1375,-348],"delta_lng":[0,733,2328,4116,-6185,-555]}},
    {"code":3000102,"left":9952008,"right":3000110,"id":"2cf1fd","name":"伊奈","name_kana":"いな","lat":34.802857,"lng":137.354743,"prefecture":23,"lines":[30001],"attr":"cool","postal_code":"441-0105","address":"愛知県豊川市伊奈町南山新田292-1","next":[1141304,3000103,3000203,1150211],"voronoi":{"lat":34.810815,"lng":137.365683,"delta_lat":[0,4946,-11940,-5448],"delta_lng":[0,-6478,-15501,14026]}},
    {"code":9952008,"left":3000405,"right":9952103,"id":"721489","name":"植田(豊橋鉄道)","name_kana":"うえた","lat":34.711085,"lng":137.373047,"prefecture":23,"lines":[99520],"attr":"eco","postal_code":"441-8134","address":"愛知県豊橋市植田町中畑","next":[9952009,1150209,9952010,9952007,9952006],"voronoi":{"lat":34.735219,"lng":137.347454,"delta_lat":[0,-74990,-8195,25624,47880],"delta_lng":[0,64652,8734,-5723,-49728]}},
    {"code":3000405,"left":9952012,"right":3000406,"id":"cc7608","name":"こどもの国(愛知)","name_kana":"こどものくに","lat":34.788791,"lng":137.162721,"prefecture":23,"lines":[30004],"attr":"heat","postal_code":"444-0701","address":"愛知県西尾市東幡豆町御堂前","next":[3000406,3000408,3000404,9952016,3000407,1150217],"voronoi":{"lat":34.813745,"lng":137.164661,"delta_lat":[0,-11085,-107918,-26414,148269,-2489],"delta_lng":[0,4975,8411,-30252,7832,8704]}},
    {"code":9952012,"left":9952015,"right":9952009,"id":"64fa21","name":"杉山","name_kana":"すぎやま","lat":34.680301,"lng":137.320759,"prefecture":23,"lines":[99520],"attr":"heat","postal_code":"441-3302","address":"豊橋市杉山町字前屋敷","next":[9952010,9952011,1150213,9952013,9952015],"voronoi":{"lat":34.742004,"lng":137.280299,"delta_lat":[0,417,-86304,-160003,237589],"delta_lng":[0,1491,71184,65779,-136112]}},
    {"code":9952015,"left":9952014,"right":9952013,"id":"757e6d","name":"神戸(愛知)","name_kana":"かんべ","lat":34.668253,"lng":137.278044,"prefecture":23,"lines":[99520],"attr":"cool","postal_code":"441-3415","address":"田原市神戸町字大坪","next":[1150213,9952013,9952016,9952014,9952012],"voronoi":{"lat":34.704788,"lng":137.287759,"delta_lat":[0,-96801,134616,-600,-8301],"delta_lng":[0,-4898,-20909,18346,2342]}},
    {"code":9952014,"left":9952016,"id":"abdc64","name":"豊島","name_kana":"としま","lat":34.667459,"lng":137.293737,"prefecture":23,"lines":[99520],"attr":"cool","postal_code":"441-3417","address":"田原市豊島町字奥谷","next":[3101515,1150206,9952015,9952013,1150204,9952016],"voronoi":{"lat":33.910613,"lng":137.50208,"delta_lat":[0,101368,233108,459700,-96801,-421165],"delta_lng":[0,-5558,-22714,-186048,-4898,10013]}},
    {"code":9952016,"id":"8cf9c1","name":"三河田原","name_kana":"みかわたはら","lat":34.666875,"lng":137.269172,"prefecture":23,"lines":[99520],"attr":"cool","postal_code":"441-3421","address":"田原市田原町字東大浜１６","next":[3101502,1150214,9952015,3000406,3000315,1150213,3101505,3101515,3000403,3000404,3000405,3000402,9952014],"voronoi":{"lat":34.607988,"lng":137.282861,"delta_lat":[0,134616,236,-2779,-45319,-26414,-31891,-13085,-28367,-32674,-93030,-132500,-149958],"delta_lng":[0,-20909,-2556,-19715,-61634,-30252,-31707,-11108,-21828,-20969,41131,69826,119734]}},
    {"code":9952013,"id":"525ba6","name":"やぐま台","name_kana":"やぐまだい","lat":34.673809,"lng":137.309427,"prefecture":23,"lines":[99520],"attr":"heat","postal_code":"441-3412","address":"田原市谷熊町字鳥郷","next":[9952010,9952015,1150206,9952014,9952012],"voronoi":{"lat":34.40065,"lng":137.461539,"delta_lat":[0,-155561,459700,28914,-237589],"delta_lng":[0,12268,-186048,-5119,136112]}},
    {"code":9952009,"left":9952010,"right":1141303,"id":"a9697b","name":"向ヶ丘","name_kana":"むこうがおか","lat":34.706351,"lng":137.367556,"prefecture":23,"lines":[99520],"attr":"heat","postal_code":"441-8134","address":"愛知県豊橋市植田町西蛤沢","next":[9952010,9952008,1141302,9952011,9952006],"voronoi":{"lat":34.744509,"lng":137.333821,"delta_lat":[0,194,-27037,-57438,74990],"delta_lng":[0,-2096,11763,68618,-64652]}},
    {"code":9952010,"left":9952011,"id":"8848c9","name":"大清水","name_kana":"おおしみず","lat":34.695966,"lng":137.358863,"prefecture":23,"lines":[99520],"attr":"heat","postal_code":"441-8133","address":"豊橋市大清水町字大清水３-１２２","next":[1150209,9952012,9952013,9952009,9952008,1150206,1150208,9952011],"voronoi":{"lat":34.717667,"lng":137.343488,"delta_lat":[0,-57438,-8195,-85345,-45496,-120543,95464,160003],"delta_lng":[0,68618,8734,31797,9871,-969,-42787,-65779]}},
    {"code":9952011,"id":"79b9db","name":"老津","name_kana":"おいつ","lat":34.692344,"lng":137.33536,"prefecture":23,"lines":[99520],"attr":"heat","postal_code":"441-3301","address":"豊橋市老津町字西高縄","next":[1150211,1150212,1141303,9952012,1150213,1141302,9952010,9952009],"voronoi":{"lat":34.656117,"lng":137.352974,"delta_lat":[0,86304,4974,2728,-2290,-302,-2827,-27037],"delta_lng":[0,-71184,11694,17385,13993,757,6107,11763]}},
    {"code":1141303,"id":"e2c179","name":"下地","name_kana":"しもじ","lat":34.780939,"lng":137.370612,"prefecture":23,"lines":[11413],"attr":"heat","postal_code":"440-0093","address":"豊橋市横須賀町横須賀","next":[9952011,1141304,1141305,1141302,1150211],"voronoi":{"lat":34.747832,"lng":137.324861,"delta_lat":[0,-302,41997,4627,-8795],"delta_lng":[0,757,63571,-11558,-19329]}},
    {"code":3000406,"left":3000402,"right":1141304,"id":"aa73e3","name":"西浦","name_kana":"にしうら","lat":34.79003,"lng":137.178617,"prefecture":23,"lines":[30004],"attr":"cool","postal_code":"443-0105","address":"蒲郡市西浦町馬々４８-１","next":[9952016,3000405,3000407,1150214],"voronoi":{"lat":34.759404,"lng":137.231708,"delta_lat":[0,43255,-107918,45319],"delta_lng":[0,-62071,8411,61634]}},
    {"code":3000402,"left":3000404,"right":3000315,"id":"d64908","name":"三河鳥羽","name_kana":"みかわとば","lat":34.793214,"lng":137.104984,"prefecture":23,"lines":[30004],"attr":"heat","postal_code":"444-0704","address":"愛知県西尾市鳥羽町","next":[3000315,3000313,3000403,9952016],"voronoi":{"lat":34.594985,"lng":137.083152,"delta_lat":[0,216598,24108,-212339],"delta_lng":[0,5286,26750,-10208]}},
    {"code":3000404,"left":3000403,"id":"171cbb","name":"東幡豆","name_kana":"ひがしはず","lat":34.789693,"lng":137.145645,"prefecture":23,"lines":[30004],"attr":"heat","postal_code":"444-0701","address":"愛知県西尾市東幡豆町小見行田","next":[1150217,9952016,3000405,3000403],"voronoi":{"lat":34.816596,"lng":137.155628,"delta_lat":[0,-148269,-31891,191964],"delta_lng":[0,-7832,-31707,21564]}},
    {"code":3000403,"id":"27e2e9","name":"西幡豆","name_kana":"にしはず","lat":34.792431,"lng":137.121271,"prefecture":23,"lines":[30004],"attr":"heat","postal_code":"444-0703","address":"愛知県西尾市西幡豆町中屋敷16番地4","next":[3000313,1150218,9952016,3000402,3000404,1150217],"voronoi":{"lat":34.636437,"lng":137.116089,"delta_lat":[0,-13085,212339,5522,-10523,-2289],"delta_lng":[0,-11108,10208,4193,16442,1829]}},
    {"code":3000315,"id":"e1c43e","name":"吉良吉田","name_kana":"きらよしだ","lat":34.794043,"lng":137.071017,"prefecture":23,"lines":[30003,30004],"attr":"eco","postal_code":"444-0516","address":"愛知県西尾市吉良町吉田船戸5","next":[3000920,3000921,3000402,9952016,3101502,1151211,3000313,3001006,3000311],"voronoi":{"lat":34.811582,"lng":137.088439,"delta_lat":[0,-216598,-32674,4637,28570,39298,129124,26551,22148],"delta_lng":[0,-5286,-20969,-6467,-38498,-9934,-13257,656,49967]}},
    {"code":1141304,"left":1150211,"right":3000407,"id":"527453","name":"小坂井","name_kana":"こざかい","lat":34.797544,"lng":137.363056,"prefecture":23,"lines":[11413],"attr":"heat","postal_code":"441-0103","address":"愛知県豊川市小坂井町倉屋敷72","next":[3000102,1150211,1141303,3000203,1141305],"voronoi":{"lat":34.785359,"lng":137.358303,"delta_lat":[0,13013,12442,-719,-15941],"delta_lng":[0,-572,7953,2512,9436]}},
    {"code":1150211,"id":"c8b03e","name":"西小坂井","name_kana":"にしこざかい","lat":34.79708,"lng":137.352499,"prefecture":23,"lines":[11502],"attr":"heat","postal_code":"441-0105","address":"愛知県豊川市伊奈町前山20","next":[9952011,1141304,3000103,1150212,3000102,1141303],"voronoi":{"lat":34.798372,"lng":137.357731,"delta_lat":[0,5448,-4545,-49153,-2290,37527],"delta_lng":[0,-14026,-11616,-21220,13993,33441]}},
    {"code":3000407,"id":"649274","name":"形原","name_kana":"かたはら","lat":34.798607,"lng":137.184594,"prefecture":23,"lines":[30004],"attr":"cool","postal_code":"443-0104","address":"蒲郡市形原町形原御嶽６２","next":[1150214,1150215,3000408,3000406,3000405],"voronoi":{"lat":34.813745,"lng":137.164661,"delta_lat":[0,-17007,-22890,-14443,43255],"delta_lng":[0,49110,13380,4556,-62071]}},
    {"code":9952103,"left":9952005,"right":9952105,"id":"5a378f","name":"新川(愛知)","name_kana":"しんかわ","lat":34.762857,"lng":137.389483,"prefecture":23,"lines":[99521],"attr":"eco","postal_code":"441-0000","address":"豊橋市","next":[9952102,9952002,9952106,9952104,9952107],"voronoi":{"lat":34.759044,"lng":137.387223,"delta_lat":[0,5921,-1467,-4641,-1010],"delta_lng":[0,552,5578,3122,285]}},
    {"code":9952005,"left":9952001,"right":9952003,"id":"78cd1a","name":"南栄","name_kana":"みなみさかえ","lat":34.73592,"lng":137.385446,"prefecture":23,"lines":[99520],"attr":"eco","postal_code":"441-8107","address":"豊橋市南栄町字空池４６","next":[9952006,9952004,1150209,9952202],"voronoi":{"lat":34.737508,"lng":137.409794,"delta_lat":[0,2466,-19824,12774],"delta_lng":[0,-46134,46522,2414]}},
    {"code":9952001,"left":9952006,"right":100211,"id":"90b04d","name":"新豊橋","name_kana":"しんとよはし","lat":34.762272,"lng":137.383375,"prefecture":23,"lines":[99520],"attr":"eco","postal_code":"440-0075","address":"豊橋市花田町字西宿４１","next":[100211,9952101,9952002,9952102],"voronoi":{"lat":34.754303,"lng":137.379713,"delta_lat":[0,8727,210,-4543],"delta_lng":[0,3233,1394,1825]}},
    {"code":9952006,"left":9952007,"id":"f0a3d2","name":"高師","name_kana":"たかし","lat":34.727068,"lng":137.381674,"prefecture":23,"lines":[99520],"attr":"eco","postal_code":"441-8156","address":"豊橋市高師町字北新切","next":[9952004,100211,1141302,9952005,9952008,1150209,9952009,9952007],"voronoi":{"lat":34.725538,"lng":137.36539,"delta_lat":[0,9681,9291,928,-58,-5406,-19824,-2652],"delta_lng":[0,-17935,-13633,5899,4576,19363,46522,-58]}},
    {"code":9952007,"id":"489d6b","name":"芦原","name_kana":"あしはら","lat":34.718433,"lng":137.380122,"prefecture":23,"lines":[99520],"attr":"eco","postal_code":"441-8155","address":"豊橋市芦原町字東","next":[9952008,1150209,9952006],"voronoi":{"lat":34.725538,"lng":137.36539,"delta_lat":[0,-47880,39840],"delta_lng":[0,49728,-4994]}},
    {"code":100211,"id":"ce07ed","name":"豊橋","name_kana":"とよはし","lat":34.762734,"lng":137.382128,"prefecture":23,"lines":[11413,11502,30001,1002],"attr":"heat","postal_code":"440-0075","address":"豊橋市花田町西宿","next":[9952004,1141302,9952001,9952006,9952101,9952003,9952002],"voronoi":{"lat":34.763029,"lng":137.382946,"delta_lat":[0,5428,-23020,-58,4751,2428,1744],"delta_lng":[0,-6191,-37035,4576,27581,5651,2185]}},
    {"code":9952003,"left":9952004,"right":9952002,"id":"0f4b83","name":"小池","name_kana":"こいけ","lat":34.748891,"lng":137.388076,"prefecture":23,"lines":[99520],"attr":"eco","postal_code":"441-8042","address":"豊橋市小池町字原下","next":[9952109,9952108,9952002,9952004,100211,9952202],"voronoi":{"lat":34.75013,"lng":137.371877,"delta_lat":[0,2428,-1702,-3373,-886,-8609],"delta_lng":[0,5651,25478,3430,733,2404]}},
    {"code":9952004,"id":"3c277c","name":"愛知大学前","name_kana":"あいちだいがくまえ","lat":34.741682,"lng":137.385754,"prefecture":23,"lines":[99520],"attr":"eco","postal_code":"441-8108","address":"豊橋市町畑町","next":[100211,9952006,9952202,9952003,9952005],"voronoi":{"lat":34.739974,"lng":137.36366,"delta_lat":[0,5406,4751,-12142,-481],"delta_lng":[0,-19363,27581,37696,220]}},
    {"code":9952002,"id":"0885d9","name":"柳生橋","name_kana":"やぎゅうばし","lat":34.75479,"lng":137.38847,"prefecture":23,"lines":[99520],"attr":"eco","postal_code":"440-0877","address":"豊橋市南松山町１５４","next":[9952103,9952108,9952001,9952102,9952003,9952107,100211],"voronoi":{"lat":34.758697,"lng":137.386166,"delta_lat":[0,347,-1197,-5794,-1196,1702,1744],"delta_lng":[0,1058,9537,5434,812,-25478,2185]}},
    {"code":9952105,"left":9952104,"right":9952107,"id":"3c02f6","name":"市役所前(愛知)","name_kana":"しやくしょまえ","lat":34.767369,"lng":137.392488,"prefecture":23,"lines":[99521],"attr":"eco","postal_code":"441-0000","address":"豊橋市","next":[1141305,9952104,1141302,9952106],"voronoi":{"lat":34.763666,"lng":137.393325,"delta_lat":[0,12445,12942,1847],"delta_lng":[0,-8016,5909,7035]}},
    {"code":9952104,"left":9952102,"right":1141302,"id":"699dc5","name":"札木","name_kana":"ふだぎ","lat":34.765959,"lng":137.390299,"prefecture":23,"lines":[99521],"attr":"eco","postal_code":"441-0000","address":"豊橋市","next":[9952105,9952106,9952102,1141302,9952103,9952101],"voronoi":{"lat":34.774052,"lng":137.384065,"delta_lat":[0,2058,-12445,-168,1467,3476],"delta_lng":[0,1244,8016,29,-5578,-2082]}},
    {"code":9952102,"left":9952101,"id":"8444d7","name":"駅前大通","name_kana":"えきまえおおどおり","lat":34.763209,"lng":137.385707,"prefecture":23,"lines":[99521],"attr":"eco","postal_code":"441-0000","address":"豊橋市","next":[9952103,9952104,9952002,9952001,9952101],"voronoi":{"lat":34.76324,"lng":137.38434,"delta_lat":[0,-4543,347,5921,3476],"delta_lng":[0,1825,1058,552,-2082]}},
    {"code":9952101,"id":"e90bad","name":"駅前","name_kana":"えきまえ","lat":34.763879,"lng":137.383132,"prefecture":23,"lines":[99521],"attr":"eco","postal_code":"441-0000","address":"豊橋市","next":[9952001,100211,1141302,9952102,9952104],"voronoi":{"lat":34.774052,"lng":137.384065,"delta_lat":[0,-5595,-5428,210,5201],"delta_lng":[0,-7309,6191,1394,1353]}},
    {"code":1141302,"id":"eceb77","name":"船町","name_kana":"ふなまち","lat":34.775809,"lng":137.374001,"prefecture":23,"lines":[11413],"attr":"heat","postal_code":"440-0071","address":"豊橋市北島町北島","next":[100211,9952006,9952105,9952009,1141305,9952104,9952011,9952101,1141303],"voronoi":{"lat":34.747531,"lng":137.325619,"delta_lat":[0,-2827,-194,928,23020,5595,2058,12942,475],"delta_lng":[0,6107,2096,5899,37035,7309,1244,5909,-2028]}},
    {"code":9952107,"left":9952108,"right":9952106,"id":"35476a","name":"東八町","name_kana":"ひがしはっちょう","lat":34.765924,"lng":137.400341,"prefecture":23,"lines":[99521],"attr":"eco","postal_code":"441-0000","address":"豊橋市","next":[9952108,1141305,9952002,9952106,9952103],"voronoi":{"lat":34.752052,"lng":137.402195,"delta_lat":[0,40520,-208,-33508,-1010],"delta_lng":[0,982,-475,-6226,285]}},
    {"code":9952108,"id":"096170","name":"前畑","name_kana":"まえはた","lat":34.765818,"lng":137.404718,"prefecture":23,"lines":[99521],"attr":"heat","postal_code":"441-0000","address":"豊橋市","next":[9952002,1141305,9952003,9952107,9952109],"voronoi":{"lat":34.792572,"lng":137.403176,"delta_lat":[0,-40520,-1196,-3373,47082],"delta_lng":[0,-982,812,3430,437]}},
    {"code":9952106,"id":"52c554","name":"豊橋公園前","name_kana":"とよはしこうえんまえ","lat":34.766841,"lng":137.395406,"prefecture":23,"lines":[99521],"attr":"eco","postal_code":"441-0000","address":"豊橋市","next":[9952104,1141305,9952103,9952107,9952105],"voronoi":{"lat":34.763666,"lng":137.393325,"delta_lat":[0,-168,-4641,33508,-1465],"delta_lng":[0,29,3122,6226,-4449]}},
    {"code":3000110,"left":3000309,"right":1150215,"id":"97d701","name":"藤川","name_kana":"ふじかわ","lat":34.913304,"lng":137.218428,"prefecture":23,"lines":[30001],"attr":"cool","postal_code":"444-3523","address":"岡崎市藤川町字松本","next":[3000409,9951105,3000109,1150242,3000111,1150218,3000521,3000112],"voronoi":{"lat":34.97082,"lng":137.232105,"delta_lat":[0,-80681,-10908,-9402,-313,160987,-6119,-2361],"delta_lng":[0,-38164,4812,9300,1676,91244,-31092,-2569]}},
    {"code":3000309,"left":1150217,"right":3000305,"id":"b192c2","name":"西尾口","name_kana":"にしおぐち","lat":34.870647,"lng":137.062661,"prefecture":23,"lines":[30003],"attr":"cool","postal_code":"445-0073","address":"西尾市寄住町柴草７-３","next":[3000316,3000308,3000313,3000310,1150242,1150218],"voronoi":{"lat":34.860672,"lng":137.11308,"delta_lat":[0,-7544,21949,1158,-5303,-4405],"delta_lng":[0,-33302,-30320,50475,12996,768]}},
    {"code":1150217,"left":1150218,"right":1150216,"id":"3b52f5","name":"三ヶ根","name_kana":"さんがね","lat":34.836449,"lng":137.176348,"prefecture":23,"lines":[11502],"attr":"heat","postal_code":"444-0124","address":"愛知県額田郡幸田町大字深溝字大池田12-1","next":[3000409,3000404,3000408,1150218,3000405,3000403,1150216],"voronoi":{"lat":34.864992,"lng":137.203624,"delta_lat":[0,-34303,-2289,-11804,-2489,13186,17715],"delta_lng":[0,-67800,1829,17975,8704,22871,7931]}},
    {"code":1150218,"left":3000313,"right":3000310,"id":"91f1d5","name":"幸田","name_kana":"こうだ","lat":34.859926,"lng":137.16447,"prefecture":23,"lines":[11502],"attr":"heat","postal_code":"444-0116","address":"額田郡幸田町芦谷字幸田","next":[3000313,1150217,3000403,3000110,1150242,3000409,3000309],"voronoi":{"lat":34.860672,"lng":137.11308,"delta_lat":[0,-19459,-10523,34303,4837,9402,-12705],"delta_lng":[0,6302,16442,67800,4430,-9300,-85057]}},
    {"code":3000313,"left":3000311,"id":"919a6a","name":"上横須賀","name_kana":"かみよこすか","lat":34.829941,"lng":137.071883,"prefecture":23,"lines":[30003],"attr":"eco","postal_code":"444-0521","address":"愛知県西尾市吉良町上横須賀宮前60-2","next":[3000403,1150218,3000310,3000402,3000309,3000315,3000311],"voronoi":{"lat":34.812639,"lng":137.04465,"delta_lat":[0,-1056,24108,5522,19459,-7544,-5368],"delta_lng":[0,43788,26750,4193,-6302,-33302,-12940]}},
    {"code":3000311,"id":"e45cb6","name":"福地","name_kana":"ふくち","lat":34.844663,"lng":137.048579,"prefecture":23,"lines":[30003],"attr":"eco","postal_code":"445-0873","address":"西尾市川口町松原２８","next":[3000310,3000920,3000501,3000313,3000315],"voronoi":{"lat":34.79049,"lng":136.994683,"delta_lat":[0,11747,67089,-21567,-35121],"delta_lng":[0,-4236,31302,45088,-22187]}},
    {"code":3000310,"id":"9719ba","name":"西尾","name_kana":"にしお","lat":34.863917,"lng":137.057789,"prefecture":23,"lines":[30003],"attr":"cool","postal_code":"445-0851","address":"西尾市住吉町４-１８","next":[3000311,3000308,3000313,3000501,3000309,3000502],"voronoi":{"lat":34.870765,"lng":137.021951,"delta_lat":[0,-1438,-21567,5368,21949,6810],"delta_lng":[0,-202,45088,12940,-30320,-23684]}},
    {"code":1150216,"left":3000408,"right":3000409,"id":"d99dea","name":"三河塩津","name_kana":"みかわしおつ","lat":34.825295,"lng":137.201261,"prefecture":23,"lines":[11502],"attr":"heat","postal_code":"443-0046","address":"蒲郡市竹谷町油井","next":[3000409,3000408,1150217],"voronoi":{"lat":34.807652,"lng":137.207536,"delta_lat":[0,19641,17715],"delta_lng":[0,-20334,7931]}},
    {"code":3000408,"id":"a56324","name":"三河鹿島","name_kana":"みかわかしま","lat":34.813313,"lng":137.189687,"prefecture":23,"lines":[30004],"attr":"cool","postal_code":"443-0037","address":"蒲郡市鹿島町横砂３９-１","next":[1150215,3000409,3000407,1150217,1150216,3000405],"voronoi":{"lat":34.814108,"lng":137.164332,"delta_lat":[0,13186,-19641,-4591,-6324,17007],"delta_lng":[0,22871,20334,4555,1680,-49110]}},
    {"code":3000409,"id":"d03f4c","name":"蒲郡競艇場前","name_kana":"がまごおりきょうていじょうまえ","lat":34.825545,"lng":137.202014,"prefecture":23,"lines":[30004],"attr":"eco","postal_code":"443-0046","address":"蒲郡市竹谷町油井１７-９","next":[3000110,1150217,1150216,3000109,3000408,1150215,1150218],"voronoi":{"lat":34.869516,"lng":137.20973,"delta_lat":[0,-4743,-61712,4591,37356,19984,4837],"delta_lng":[0,8590,-6228,-4555,-12403,8490,4430]}},
    {"code":3000305,"left":3000316,"right":3000111,"id":"152f4b","name":"堀内公園","name_kana":"ほりうちこうえん","lat":34.927834,"lng":137.089636,"prefecture":23,"lines":[30003],"attr":"heat","postal_code":"444-1155","address":"安城市堀内町前山９２","next":[1150220,3000304,3000316,100212,3000306],"voronoi":{"lat":34.92508,"lng":137.06954,"delta_lat":[0,9016,2672,-6881,-10655],"delta_lng":[0,-15624,3893,52688,5951]}},
    {"code":3000316,"left":3000308,"right":3000306,"id":"75e556","name":"南桜井(愛知)","name_kana":"みなみさくらい","lat":34.906302,"lng":137.07721,"prefecture":23,"lines":[30003],"attr":"heat","postal_code":"444-1162","address":"安城市小川町水遣２３","next":[3000309,3000308,100212,1150242,3000307,3000305,3000306],"voronoi":{"lat":34.92508,"lng":137.06954,"delta_lat":[0,9016,-2863,-42865,-12134,-5303,8923],"delta_lng":[0,-15624,-11140,35630,21527,12996,1999]}},
    {"code":3000308,"left":3000307,"id":"48cb3c","name":"桜町前","name_kana":"さくらまちまえ","lat":34.880107,"lng":137.062444,"prefecture":23,"lines":[30003],"attr":"cool","postal_code":"445-0804","address":"西尾市緑町４-２８","next":[3000310,3000316,3000309,3000502,3000307],"voronoi":{"lat":34.882368,"lng":137.025822,"delta_lat":[0,-482,-6810,1158,12134],"delta_lng":[0,-48,23684,50475,-21527]}},
    {"code":3000307,"id":"8dfd0e","name":"米津","name_kana":"よねづ","lat":34.892822,"lng":137.060993,"prefecture":23,"lines":[30003],"attr":"cool","postal_code":"445-0802","address":"西尾市米津町仲之畑１-１","next":[3000502,3000503,3000506,3000504,3000316,3000505,3000308,100212],"voronoi":{"lat":34.931227,"lng":137.035853,"delta_lat":[0,-7621,-1859,-28296,-4656,-6426,6000,42865],"delta_lng":[0,-4074,-746,-5449,-250,487,52584,-35630]}},
    {"code":3000306,"id":"949736","name":"桜井(愛知)","name_kana":"さくらい","lat":34.917477,"lng":137.088345,"prefecture":23,"lines":[30003],"attr":"heat","postal_code":"444-1154","address":"安城市桜井町新田１２４","next":[1150242,1150219,1150220,3000316,3000305],"voronoi":{"lat":34.92508,"lng":137.06954,"delta_lat":[0,-45226,23919,6288,9171],"delta_lng":[0,45388,9903,-724,-7659]}},
    {"code":3000111,"left":1150242,"right":1150219,"id":"f0ec09","name":"美合","name_kana":"みあい","lat":34.923763,"lng":137.196317,"prefecture":23,"lines":[30001],"attr":"cool","postal_code":"444-0802","address":"岡崎市美合町一ノ久保","next":[1150219,1150242,3000112,3000110],"voronoi":{"lat":34.89014,"lng":137.193942,"delta_lat":[0,17819,10004,52858],"delta_lng":[0,-17866,424,55606]}},
    {"code":1150242,"id":"3ee381","name":"相見","name_kana":"あいみ","lat":34.887676,"lng":137.160325,"prefecture":23,"lines":[11502],"attr":"heat","postal_code":"444-0113","address":"愛知県額田郡幸田町大字菱池字カマ46","next":[1150219,3000306,3000111,3000316,3000110,1150218,3000309],"voronoi":{"lat":34.870931,"lng":137.112928,"delta_lat":[0,8923,23919,4185,-17819,-10908,-12705],"delta_lng":[0,1999,9903,51245,17866,4812,-85057]}},
    {"code":1150219,"id":"ee2a2f","name":"岡崎","name_kana":"おかざき","lat":34.925417,"lng":137.157243,"prefecture":23,"lines":[11502,99511],"attr":"heat","postal_code":"444-0813","address":"岡崎市羽根町東荒子","next":[3000111,1150242,9951102,3000113,3000306,1150220,3000112],"voronoi":{"lat":34.936514,"lng":137.167924,"delta_lat":[0,637,-10644,-16445,-6288,4185,10004],"delta_lng":[0,-1672,-31931,-10214,724,51245,424]}},
    {"code":1150215,"left":1141305,"right":3000105,"id":"b96ff7","name":"蒲郡","name_kana":"がまごおり","lat":34.823078,"lng":137.226459,"prefecture":23,"lines":[11502,30004],"attr":"heat","postal_code":"443-0043","address":"蒲郡市元町","next":[1150214,3000108,3000407,3000408,3000109,3000409],"voronoi":{"lat":34.803061,"lng":137.212092,"delta_lat":[0,-6324,-22890,83420,3284,4222],"delta_lng":[0,1680,13380,17719,-6845,-19706]}},
    {"code":1141305,"left":1150213,"right":3000205,"id":"91ac19","name":"牛久保","name_kana":"うしくぼ","lat":34.808563,"lng":137.381671,"prefecture":23,"lines":[11413],"attr":"heat","postal_code":"442-0826","address":"豊川市牛久保町","next":[9952105,9952108,3000204,9952109,1141302,3000205,9952106,1141303,1141304,9952107,3000203],"voronoi":{"lat":34.810095,"lng":137.368195,"delta_lat":[0,-15941,-4627,-475,1847,1465,208,1993,348,10666,11949],"delta_lng":[0,9436,11558,2028,7035,4449,475,3697,555,-9780,-19556]}},
    {"code":1150213,"left":3000103,"right":1150214,"id":"fb6a50","name":"三河大塚","name_kana":"みかわおおつか","lat":34.815744,"lng":137.28287,"prefecture":23,"lines":[11502],"attr":"heat","postal_code":"443-0013","address":"蒲郡市大塚町笹子","next":[3000107,9952015,1150214,3000106,9952016,3000105,9952011,9952012,1150212],"voronoi":{"lat":34.747395,"lng":137.293483,"delta_lat":[0,-4974,-417,600,236,102592,-1971,-5846,-5639],"delta_lng":[0,-11694,-1491,-18346,-2556,8196,20291,9009,4440]}},
    {"code":3000103,"left":1150212,"id":"f73bf9","name":"小田渕","name_kana":"おだぶち","lat":34.814739,"lng":137.34559,"prefecture":23,"lines":[30001],"attr":"cool","postal_code":"442-0844","address":"豊川市小田渕町大字卯足","next":[1150211,3000102,3000104,1150212,3000202,3000203],"voronoi":{"lat":34.81755,"lng":137.358578,"delta_lat":[0,9367,-5666,-21975,4545,11940],"delta_lng":[0,-20708,-7380,1598,11616,15501]}},
    {"code":1150212,"id":"562b8e","name":"愛知御津","name_kana":"あいちみと","lat":34.812624,"lng":137.316492,"prefecture":23,"lines":[11502],"attr":"heat","postal_code":"441-0312","address":"豊川市御津町西方字松本","next":[3000105,9952011,1150211,3000103,3000104,1150213],"voronoi":{"lat":34.830642,"lng":137.31035,"delta_lat":[0,-9392,-21975,-49153,-2728,84581],"delta_lng":[0,20140,1598,-21220,-17385,7849]}},
    {"code":1150214,"id":"f03b39","name":"三河三谷","name_kana":"みかわみや","lat":34.818546,"lng":137.247795,"prefecture":23,"lines":[11502],"attr":"heat","postal_code":"443-0021","address":"蒲郡市三谷町上野","next":[3000407,9952016,1150213,1150215,3000107,3000108,3000406],"voronoi":{"lat":34.742839,"lng":137.259397,"delta_lat":[0,102592,10329,1507,-83420,-14443,-19344],"delta_lng":[0,8196,-13537,-9185,-17719,4556,7974]}},
    {"code":3000205,"left":3000204,"right":1141306,"id":"983b66","name":"豊川稲荷","name_kana":"とよかわいなり","lat":34.821755,"lng":137.396058,"prefecture":23,"lines":[30002],"attr":"eco","postal_code":"442-0033","address":"豊川市豊川町仁保通１８","next":[1141306,9952110,1141305,3000203,9952109,3000204],"voronoi":{"lat":34.83901,"lng":137.384364,"delta_lat":[0,673,-43154,-241,-1375,10666],"delta_lng":[0,45,30000,-796,-6185,-9780]}},
    {"code":3000204,"id":"0139b2","name":"稲荷口","name_kana":"いなりぐち","lat":34.818435,"lng":137.387703,"prefecture":23,"lines":[30002],"attr":"cool","postal_code":"442-0044","address":"豊川市二見町駅前通","next":[3000203,1141305,3000205],"voronoi":{"lat":34.817529,"lng":137.378092,"delta_lat":[0,21482,-33431],"delta_lng":[0,6272,13284]}},
    {"code":1141306,"id":"abbb82","name":"豊川(愛知)","name_kana":"とよかわ","lat":34.822519,"lng":137.397157,"prefecture":23,"lines":[11413],"attr":"heat","postal_code":"442-0033","address":"豊川市豊川町","next":[1141307,3000205,3000203,9952112,9952110,9952113,9952111],"voronoi":{"lat":34.797384,"lng":137.417465,"delta_lat":[0,-855,43154,9977,-40154,-7510,-1973],"delta_lng":[0,-3056,-30000,353,58625,-13546,-4651]}},
    {"code":3000105,"left":3000108,"right":3000202,"id":"3b7f86","name":"御油","name_kana":"ごゆ","lat":34.846113,"lng":137.321443,"prefecture":23,"lines":[30001],"attr":"cool","postal_code":"441-0211","address":"豊川市御油町西井領","next":[1150212,3000202,1150213,3000106,3000104],"voronoi":{"lat":34.89211,"lng":137.366889,"delta_lat":[0,-54496,-5639,-1333,30576],"delta_lng":[0,-69996,4440,9018,39463]}},
    {"code":3000108,"left":3000106,"right":3000109,"id":"267a9f","name":"本宿(愛知)","name_kana":"もとじゅく","lat":34.893025,"lng":137.260014,"prefecture":23,"lines":[30001],"attr":"cool","postal_code":"444-3505","address":"岡崎市本宿町一里山","next":[1150215,1141312,3000109,1141310,3000521,3000107,1150214,1141308,3000522],"voronoi":{"lat":35.031539,"lng":137.303938,"delta_lat":[0,-755,-170233,-3284,-1507,148898,14777,25670,9241],"delta_lng":[0,-2030,-63883,6845,9185,112669,2463,2202,-321]}},
    {"code":3000106,"left":3000107,"id":"339a34","name":"名電赤坂","name_kana":"めいでんあかさか","lat":34.859331,"lng":137.311152,"prefecture":23,"lines":[30001],"attr":"cool","postal_code":"441-0202","address":"豊川市赤坂町松本","next":[3000107,1150213,1141308,3000105,3000202,1141307],"voronoi":{"lat":34.89245,"lng":137.367139,"delta_lat":[0,-340,-54496,5846,145084,-77362],"delta_lng":[0,-251,-69996,-9009,78033,3292]}},
    {"code":3000107,"id":"1b2600","name":"名電長沢","name_kana":"めいでんながさわ","lat":34.871623,"lng":137.288298,"prefecture":23,"lines":[30001],"attr":"cool","postal_code":"441-0203","address":"豊川市長沢町音羽","next":[1150213,3000106,1150214,1141308,3000108],"voronoi":{"lat":34.855761,"lng":137.254056,"delta_lat":[0,-10329,-1971,145084,16114],"delta_lng":[0,13537,20291,78033,808]}},
    {"code":3000109,"id":"15cf91","name":"名電山中","name_kana":"めいでんやまなか","lat":34.899474,"lng":137.242829,"prefecture":23,"lines":[30001],"attr":"cool","postal_code":"444-3511","address":"岡崎市舞木町山中町","next":[3000521,3000409,3000110,3000108,1150215],"voronoi":{"lat":34.864774,"lng":137.21832,"delta_lat":[0,4743,160987,281,-170233],"delta_lng":[0,-8590,91244,935,-63883]}},
    {"code":3000202,"left":3000203,"right":3000104,"id":"22a25b","name":"八幡(愛知)","name_kana":"やわた","lat":34.82916,"lng":137.352113,"prefecture":23,"lines":[30002],"attr":"heat","postal_code":"442-0857","address":"豊川市八幡町野路","next":[3000104,3000203,3000105,1141307,3000106,3000103],"voronoi":{"lat":34.826916,"lng":137.337871,"delta_lat":[0,34302,30892,340,-24029,-50872],"delta_lng":[0,11943,17075,251,7216,-15777]}},
    {"code":3000203,"id":"6fff0e","name":"諏訪町","name_kana":"すわちょう","lat":34.823464,"lng":137.370479,"prefecture":23,"lines":[30002],"attr":"heat","postal_code":"442-0068","address":"豊川市諏訪３-２５０","next":[3000202,1141307,1141306,3000204,1141304,3000205,3000102,3000103,1141305],"voronoi":{"lat":34.810095,"lng":137.368195,"delta_lat":[0,719,4946,1789,50872,-18761,-9977,-673,-21482],"delta_lng":[0,-2512,-6478,-627,15777,10407,-353,-45,-6272]}},
    {"code":3000104,"id":"59ae7e","name":"国府(愛知)","name_kana":"こう","lat":34.83752,"lng":137.328101,"prefecture":23,"lines":[30001,30002],"attr":"cool","postal_code":"442-0856","address":"豊川市久保町葉善寺","next":[3000202,3000103,1150212,3000105],"voronoi":{"lat":34.830642,"lng":137.31035,"delta_lat":[0,-9392,5666,34302],"delta_lng":[0,20140,7380,11943]}},
    {"code":9950613,"left":1150203,"right":9950524,"id":"569c5a","name":"浜北","name_kana":"はまきた","lat":34.791358,"lng":137.784356,"prefecture":22,"lines":[99506],"attr":"cool","postal_code":"434-0037","address":"浜松市浜北区沼５４-１","next":[9950611,9950614,9950520,9950612,1150132],"voronoi":{"lat":34.808371,"lng":137.769849,"delta_lat":[0,-2337,-41828,-6404,5228],"delta_lng":[0,-8585,45524,8908,11584]}},
    {"code":1150203,"left":9952202,"right":1150135,"id":"97c1dd","name":"高塚","name_kana":"たかつか","lat":34.690425,"lng":137.681303,"prefecture":22,"lines":[11502],"attr":"cool","postal_code":"432-8065","address":"浜松市南区高塚町","next":[9950601,9950604,3101515,9950525,9950606,9950528,1150131,1150204,9950605,9950602,9950603,9950526],"voronoi":{"lat":34.752481,"lng":137.682246,"delta_lat":[0,-7752,-8405,-5865,-17291,-4996,-446808,-1404217,474671,1410045,4070,6267],"delta_lng":[0,5538,5003,2852,6732,1653,113350,161886,-208655,-121373,5899,24926]}},
    {"code":9952202,"left":9950535,"right":9950534,"id":"4f4812","name":"運動公園前(愛知)","name_kana":"うんどうこうえんまえ","lat":34.75845,"lng":137.422314,"prefecture":23,"lines":[99521,99522],"attr":"cool","postal_code":"441-0000","address":"豊橋市","next":[1150209,9952109,9952112,9952110,9952004,9952003,9952111,9952113,9952005],"voronoi":{"lat":34.745081,"lng":137.436426,"delta_lat":[0,16525,-515,-3660,-6446,-4388,-8609,-481,-4584],"delta_lng":[0,-10745,-6939,-4382,-4862,-2328,2404,220,2802]}},
    {"code":9950535,"left":9950536,"right":1150206,"id":"4a12e7","name":"知波田","name_kana":"ちばた","lat":34.753069,"lng":137.511873,"prefecture":22,"lines":[99505],"attr":"heat","postal_code":"431-0404","address":"湖西市太田","next":[1150207,1150208,9950538,9950536,1141309,9952113,9950534],"voronoi":{"lat":34.813048,"lng":137.480779,"delta_lat":[0,-1965,-48406,-770,-13640,-6540,8760],"delta_lng":[0,-3212,-6105,838,19425,44450,9274]}},
    {"code":9950536,"left":1150208,"right":9950538,"id":"5b8b70","name":"アスモ前","name_kana":"あすもまえ","lat":34.727685,"lng":137.49405,"prefecture":22,"lines":[99505],"attr":"heat","postal_code":"431-0400","address":"湖西市小俣","next":[1150208,9950538,9950535,1150207],"voronoi":{"lat":34.748267,"lng":137.491724,"delta_lat":[0,13640,-83311,30467],"delta_lng":[0,-19425,38673,6358]}},
    {"code":1150208,"left":1150209,"id":"1431d4","name":"新所原","name_kana":"しんじょはら","lat":34.723205,"lng":137.484399,"prefecture":22,"lines":[11502,99505],"attr":"heat","postal_code":"431-0424","address":"湖西市新所原３丁目","next":[9950536,1150206,1150209,9952010,1150207,9950535,9952113],"voronoi":{"lat":34.761906,"lng":137.472299,"delta_lat":[0,-83311,-22585,-134818,45496,184835,11153],"delta_lng":[0,38673,-2337,-46127,-9871,10593,8231]}},
    {"code":1150209,"id":"9d560a","name":"二川","name_kana":"ふたがわ","lat":34.725809,"lng":137.438966,"prefecture":23,"lines":[11502],"attr":"heat","postal_code":"441-3144","address":"豊橋市大岩町南元屋敷","next":[9952010,9952202,9952008,1150208,9952113,9952007,9952006,9952005],"voronoi":{"lat":34.72015,"lng":137.410182,"delta_lat":[0,-2652,-39840,-25624,-85345,184835,-6442,-12158],"delta_lng":[0,-58,4994,5723,31797,10593,-26805,-23830]}},
    {"code":9950538,"id":"fa2bf9","name":"大森(静岡)","name_kana":"おおもり","lat":34.737865,"lng":137.509636,"prefecture":22,"lines":[99505],"attr":"heat","postal_code":"431-0421","address":"静岡県湖西市新所5404-1","next":[9950536,1150207,9950535],"voronoi":{"lat":34.748267,"lng":137.491724,"delta_lat":[0,-39204,32664],"delta_lng":[0,25606,18844]}},
    {"code":1150206,"left":1150204,"right":1150207,"id":"c16e29","name":"新居町","name_kana":"あらいまち","lat":34.694276,"lng":137.568953,"prefecture":22,"lines":[11502],"attr":"heat","postal_code":"431-0302","address":"静岡県湖西市新居町新居","next":[1150208,9952014,9952013,9952010,1150207,9950529,1150205,1150204],"voronoi":{"lat":34.01198,"lng":137.496521,"delta_lat":[0,233108,155561,120543,134818,83486,-220,-483901],"delta_lng":[0,-22714,-12268,969,46127,82411,689,-58897]}},
    {"code":1150204,"left":1150205,"id":"cf43e5","name":"舞阪","name_kana":"まいさか","lat":34.685701,"lng":137.626422,"prefecture":22,"lines":[11502],"attr":"cool","postal_code":"431-0203","address":"浜松市西区馬郡町","next":[3101515,1150205,9950528,1150203,9952014,1150206],"voronoi":{"lat":34.01198,"lng":137.496521,"delta_lat":[0,-101368,-578794,1410045,-3316,-483172],"delta_lng":[0,5558,268525,-121373,-24904,-91489]}},
    {"code":1150205,"id":"407fff","name":"弁天島","name_kana":"べんてんじま","lat":34.690125,"lng":137.603058,"prefecture":22,"lines":[11502],"attr":"cool","postal_code":"431-0214","address":"浜松市西区舞阪町弁天島","next":[1150204,9950529,1150206,9950528],"voronoi":{"lat":34.739952,"lng":137.609492,"delta_lat":[0,-676,-483901,483172],"delta_lng":[0,-17756,-58897,91489]}},
    {"code":1150207,"id":"86992b","name":"鷲津","name_kana":"わしづ","lat":34.716819,"lng":137.546116,"prefecture":22,"lines":[11502],"attr":"heat","postal_code":"431-0431","address":"湖西市鷲津","next":[9950529,9950535,1150206,1150208,9950538,9950536,9950530,9950534],"voronoi":{"lat":34.741636,"lng":137.588135,"delta_lat":[0,-2140,-83486,22585,30467,32664,8760,1545],"delta_lng":[0,2911,-82411,2337,6358,18844,9274,23777]}},
    {"code":9950534,"left":9952111,"right":9950528,"id":"cf4bf6","name":"尾奈","name_kana":"おな","lat":34.783958,"lng":137.541755,"prefecture":22,"lines":[99505],"attr":"heat","postal_code":"431-1424","address":"浜松市北区三ヶ日町下尾奈","next":[9950533,1141309,9950531,1150207,9950530,9950535],"voronoi":{"lat":34.813048,"lng":137.480779,"delta_lat":[0,143,-29965,-19059,-12135,-1545],"delta_lng":[0,120,79661,6918,1748,-23777]}},
    {"code":9952111,"left":9952113,"right":9952110,"id":"430b6f","name":"競輪場前(愛知)","name_kana":"けいりんじょうまえ","lat":34.765078,"lng":137.416778,"prefecture":23,"lines":[99521],"attr":"heat","postal_code":"441-0000","address":"豊橋市","next":[9952110,9952112,1141306,9952202],"voronoi":{"lat":34.757432,"lng":137.414359,"delta_lat":[0,39953,2639,-38932],"delta_lng":[0,3106,7725,-6449]}},
    {"code":9952113,"left":9952112,"id":"6bf4ba","name":"赤岩口","name_kana":"あかいわぐち","lat":34.763403,"lng":137.429931,"prefecture":23,"lines":[99521],"attr":"cool","postal_code":"441-0000","address":"豊橋市","next":[1141309,9952112,1150209,1141306,1141307,1150208,9950535,9952202],"voronoi":{"lat":34.761607,"lng":137.42568,"delta_lat":[0,40390,7510,3333,-1757,-48406,-11153,-6442],"delta_lng":[0,4161,13546,18312,15867,-6105,-8231,-26805]}},
    {"code":9952112,"id":"486382","name":"井原(愛知)","name_kana":"いはら","lat":34.764232,"lng":137.421885,"prefecture":23,"lines":[99521,99522],"attr":"cool","postal_code":"441-0000","address":"豊橋市","next":[9952202,9952113,1141306,9952111],"voronoi":{"lat":34.761092,"lng":137.418741,"delta_lat":[0,515,40390,-1973],"delta_lng":[0,6939,4161,-4651]}},
    {"code":9952110,"id":"06ec4f","name":"東田","name_kana":"あずまだ","lat":34.76536,"lng":137.413151,"prefecture":23,"lines":[99521],"attr":"heat","postal_code":"441-0000","address":"豊橋市","next":[9952111,3000205,9952109,9952202,1141306],"voronoi":{"lat":34.796529,"lng":137.414409,"delta_lat":[0,-241,-45303,6446,39953],"delta_lng":[0,-796,-4116,4862,3106]}},
    {"code":9950528,"left":9950529,"right":9950530,"id":"ed1d06","name":"寸座","name_kana":"すんざ","lat":34.790102,"lng":137.612523,"prefecture":22,"lines":[99505],"attr":"cool","postal_code":"432-0000","address":"浜松市北区細江町気賀","next":[1150204,1150203,9950527,9950529,9950526,1150205],"voronoi":{"lat":34.741863,"lng":137.649232,"delta_lat":[0,4070,32662,26635,-65278,-1405],"delta_lng":[0,5899,-14186,-36167,4714,14836]}},
    {"code":9950529,"id":"ffa3cf","name":"浜名湖佐久米","name_kana":"はまなこさくめ","lat":34.789146,"lng":137.599286,"prefecture":22,"lines":[99505],"attr":"cool","postal_code":"431-1401","address":"浜松市北区三ヶ日町佐久米","next":[1150207,9950530,9950528,9950527,1150206,1150205],"voronoi":{"lat":34.805231,"lng":137.604777,"delta_lat":[0,14897,-78491,-2140,-220,676],"delta_lng":[0,-8827,-7815,2911,689,17756]}},
    {"code":9950530,"id":"faf625","name":"東都筑","name_kana":"ひがしつづき","lat":34.790412,"lng":137.586571,"prefecture":22,"lines":[99505],"attr":"cool","postal_code":"431-1402","address":"浜松市北区三ヶ日町都筑","next":[9950531,9950529,9950527,1150207,9950534],"voronoi":{"lat":34.764167,"lng":137.567478,"delta_lat":[0,60038,-4077,-78491,10395],"delta_lng":[0,27083,1390,-7815,-18910]}},
    {"code":1150135,"left":9950604,"right":9950609,"id":"fb262e","name":"御厨(静岡)","name_kana":"みくりや","lat":34.718447,"lng":137.88534,"prefecture":22,"lines":[11501],"attr":"eco","postal_code":"438-0038","address":"日本静岡県磐田市鎌田","next":[1150127,9950512,1150131,1150129,1150130,9950513,9950116],"voronoi":{"lat":32.81567,"lng":138.345799,"delta_lat":[0,1952831,811,-940,-205201,-105742,-1421019],"delta_lng":[0,-490627,4165,24603,115835,46843,307269]}},
    {"code":9950604,"left":9950602,"right":1150132,"id":"c14825","name":"八幡(静岡)","name_kana":"はちまん","lat":34.717012,"lng":137.73598,"prefecture":22,"lines":[99506],"attr":"heat","postal_code":"430-0918","address":"浜松市中区八幡町１３９-４","next":[1150203,9950603,1150133,9950605,100210],"voronoi":{"lat":34.713679,"lng":137.757604,"delta_lat":[0,22645,-5865,-20878,-1207],"delta_lng":[0,-64817,2852,48959,13004]}},
    {"code":9950602,"left":100210,"right":9950603,"id":"60125c","name":"第一通り","name_kana":"だいいちどおり","lat":34.707477,"lng":137.732845,"prefecture":22,"lines":[99506],"attr":"heat","postal_code":"430-0944","address":"浜松市中区田町２３０-２８","next":[1150203,9950601,100210,9950603],"voronoi":{"lat":34.713168,"lng":137.70237,"delta_lat":[0,-4996,-2791,2922],"delta_lng":[0,1653,29232,5513]}},
    {"code":100210,"left":9950601,"id":"24381e","name":"浜松","name_kana":"はままつ","lat":34.703866,"lng":137.734759,"prefecture":22,"lines":[11501,11502,1002],"attr":"eco","postal_code":"430-0926","address":"浜松市中区砂山町","next":[9950603,1150132,1150131,9950602,1150133,9950601,9950604],"voronoi":{"lat":34.608726,"lng":137.787018,"delta_lat":[0,-271948,-38658,407261,2922,1278,-1207],"delta_lng":[0,26229,2062,-82053,5513,5829,13004]}},
    {"code":9950601,"id":"d3314a","name":"新浜松","name_kana":"しんはままつ","lat":34.703402,"lng":137.732456,"prefecture":22,"lines":[99506],"attr":"heat","postal_code":"430-0933","address":"浜松市中区鍛冶町４","next":[1150203,1150131,9950602,100210],"voronoi":{"lat":34.705382,"lng":137.733255,"delta_lat":[0,2791,-446808,36756],"delta_lng":[0,-29232,113350,-2065]}},
    {"code":9950603,"id":"57c80b","name":"遠州病院","name_kana":"えんしゅうびょういん","lat":34.710657,"lng":137.73327,"prefecture":22,"lines":[99506],"attr":"heat","postal_code":"430-0916","address":"浜松市中区早馬町２-２１","next":[9950604,100210,1150203,9950602],"voronoi":{"lat":34.713168,"lng":137.70237,"delta_lat":[0,17291,-20878,-1278],"delta_lng":[0,-6732,48959,-5829]}},
    {"code":1150132,"left":1150131,"right":1150133,"id":"b623af","name":"豊田町","name_kana":"とよだちょう","lat":34.7121,"lng":137.82013,"prefecture":22,"lines":[11501],"attr":"eco","postal_code":"438-0821","address":"磐田市立野","next":[1150133,9950611,100210,9950613,9950614,1150131],"voronoi":{"lat":34.336779,"lng":137.813247,"delta_lat":[0,271948,140609,8466,5228,4357],"delta_lng":[0,-26229,16825,11854,11584,12355]}},
    {"code":1150131,"id":"2c8c4a","name":"磐田","name_kana":"いわた","lat":34.710132,"lng":137.852244,"prefecture":22,"lines":[11501],"attr":"eco","postal_code":"438-0078","address":"磐田市中泉","next":[9950614,9950513,3101515,100210,1150203,1150135,9950116,1150132,9950601,3101516],"voronoi":{"lat":32.524177,"lng":138.10757,"delta_lat":[0,332970,1404217,36756,38658,430608,2385,-1270,-1952831,-843662],"delta_lng":[0,-128311,-161886,-2065,-2062,26389,3361,12175,490627,-23551]}},
    {"code":1150133,"id":"abb7c4","name":"天竜川","name_kana":"てんりゅうがわ","lat":34.716994,"lng":137.77923,"prefecture":22,"lines":[11501],"attr":"eco","postal_code":"435-0013","address":"浜松市東区天龍川町","next":[9950606,9950609,9950607,1150132,9950611,9950604,9950605,9950610,100210,9950608],"voronoi":{"lat":34.747499,"lng":137.78734,"delta_lat":[0,515,1321,-140609,99648,5305,9325,5575,892,11141],"delta_lng":[0,1664,14839,-16825,-29416,2,1732,2387,645,12308]}},
    {"code":9950609,"left":9950607,"right":9950611,"id":"203326","name":"さぎの宮","name_kana":"さぎのみや","lat":34.757275,"lng":137.757327,"prefecture":22,"lines":[99506],"attr":"heat","postal_code":"431-3113","address":"浜松市東区大瀬町４１７-２","next":[1150133,9950607,9950608,9950610,9950523],"voronoi":{"lat":34.775953,"lng":137.716837,"delta_lat":[0,-6733,-28607,6887,34931],"delta_lng":[0,8743,49096,12664,-62069]}},
    {"code":9950607,"left":9950606,"right":9950608,"id":"45849f","name":"上島","name_kana":"かみじま","lat":34.741573,"lng":137.745233,"prefecture":22,"lines":[99506],"attr":"heat","postal_code":"433-8122","address":"浜松市中区上島３-４０-１","next":[9950524,1150133,9950609,9950606,9950523,9950608],"voronoi":{"lat":34.728579,"lng":137.761722,"delta_lat":[0,33097,6718,7558,-6733,-39748],"delta_lng":[0,-69224,7896,16442,8743,36788]}},
    {"code":9950606,"left":9950605,"id":"9c1af4","name":"曳馬","name_kana":"ひくま","lat":34.733255,"lng":137.741256,"prefecture":22,"lines":[99506],"attr":"heat","postal_code":"430-0901","address":"浜松市中区曳馬４-２０-３","next":[1150133,9950605,1150203,9950524,9950607,9950525],"voronoi":{"lat":34.752481,"lng":137.682246,"delta_lat":[0,-7752,-21725,5575,33097,-1839],"delta_lng":[0,5538,71552,2387,-69224,-2559]}},
    {"code":9950605,"id":"135637","name":"助信","name_kana":"すけのぶ","lat":34.724537,"lng":137.738609,"prefecture":22,"lines":[99506],"attr":"heat","postal_code":"430-0911","address":"浜松市中区新津町２８-４","next":[9950606,1150203,1150133,9950604],"voronoi":{"lat":34.736324,"lng":137.692787,"delta_lat":[0,8405,-21725,-9325],"delta_lng":[0,-5003,71552,-1732]}},
    {"code":9950608,"id":"c8b8bd","name":"自動車学校前","name_kana":"じどうしゃがっこうまえ","lat":34.747489,"lng":137.751625,"prefecture":22,"lines":[99506],"attr":"heat","postal_code":"431-3122","address":"浜松市東区有玉南町１７３９","next":[9950609,9950607,1150133],"voronoi":{"lat":34.729471,"lng":137.762367,"delta_lat":[0,39748,-28607],"delta_lng":[0,-36788,49096]}},
    {"code":9950611,"left":9950610,"right":9950612,"id":"a5b2ae","name":"遠州西ヶ崎","name_kana":"えんしゅうにしがさき","lat":34.776821,"lng":137.773905,"prefecture":22,"lines":[99506],"attr":"cool","postal_code":"431-3115","address":"浜松市東区西ヶ崎町686-1","next":[9950613,1150133,1150132,9950610,9950612],"voronoi":{"lat":34.757801,"lng":137.815696,"delta_lat":[0,-8466,-1321,45691,-29500],"delta_lng":[0,-11854,-14839,-38043,55828]}},
    {"code":9950610,"id":"4b70fa","name":"積志","name_kana":"せきし","lat":34.768082,"lng":137.763409,"prefecture":22,"lines":[99506],"attr":"cool","postal_code":"431-3114","address":"浜松市東区積志町８１４","next":[9950612,9950611,9950521,9950523,9950609,1150133,9950522],"voronoi":{"lat":34.799639,"lng":137.744306,"delta_lat":[0,-5934,-45691,-515,34931,14296,1003],"delta_lng":[0,6654,38043,-1664,-62069,13670,1336]}},
    {"code":9950612,"id":"559de2","name":"遠州小松","name_kana":"えんしゅうこまつ","lat":34.784264,"lng":137.777838,"prefecture":22,"lines":[99506],"attr":"cool","postal_code":"434-0042","address":"浜松市浜北区小松４５００-１","next":[9950610,9950521,9950613,9950520,9950611],"voronoi":{"lat":34.806034,"lng":137.761264,"delta_lat":[0,-983,-5411,-5934,-29500],"delta_lng":[0,-11042,-5916,6654,55828]}},
    {"code":9950524,"left":1141309,"right":9950520,"id":"e607d6","name":"金指","name_kana":"かなさし","lat":34.816951,"lng":137.681103,"prefecture":22,"lines":[99505],"attr":"cool","postal_code":"431-2213","address":"浜松市北区引佐町金指","next":[9950607,1141320,9950522,9950606,9950523,9950525],"voronoi":{"lat":34.761677,"lng":137.692498,"delta_lat":[0,6718,79124,56099,-14078,-129702],"delta_lng":[0,7896,-8268,-17012,-24345,39170]}},
    {"code":1141309,"left":9950531,"right":1141314,"id":"c60d29","name":"江島","name_kana":"えじま","lat":34.868029,"lng":137.441518,"prefecture":23,"lines":[11413],"attr":"heat","postal_code":"441-1201","address":"豊川市東上町丸塚","next":[1141307,1141310,9952113,1141308,9950534,9950533,9950535],"voronoi":{"lat":34.81319,"lng":137.480898,"delta_lat":[0,2257,113716,-100409,-15915,-1757,1965],"delta_lng":[0,1577,-68380,35732,11872,15867,3212]}},
    {"code":9950531,"left":1141307,"right":9950526,"id":"871ae0","name":"都筑","name_kana":"つづき","lat":34.79585,"lng":137.574516,"prefecture":22,"lines":[99505],"attr":"cool","postal_code":"431-1402","address":"浜松市北区三ヶ日町都筑","next":[9950530,1141318,9950527,9950534,1141317,9950532,9950533],"voronoi":{"lat":34.764167,"lng":137.567478,"delta_lat":[0,60038,38145,-544,-64,-71821,-6695],"delta_lng":[0,27083,-5253,-7445,-343,-21143,183]}},
    {"code":1141307,"left":9950532,"right":1141308,"id":"ba4a04","name":"三河一宮","name_kana":"みかわいちのみや","lat":34.847911,"lng":137.414549,"prefecture":23,"lines":[11413],"attr":"heat","postal_code":"441-1231","address":"豊川市一宮町下新切","next":[1141309,1141306,3000203,1141308,3000202,9952113,3000106],"voronoi":{"lat":34.828754,"lng":137.449828,"delta_lat":[0,-15915,-3333,40154,18761,24029,18732],"delta_lng":[0,11872,-18312,-58625,-10407,-7216,2069]}},
    {"code":9950532,"left":9950533,"id":"e43a84","name":"三ヶ日","name_kana":"みっかび","lat":34.802565,"lng":137.551705,"prefecture":22,"lines":[99505],"attr":"heat","postal_code":"431-1414","address":"浜松市北区三ヶ日町三ヶ日1148-3","next":[1141315,1141317,1141313,1141314,1141311,9950533,9950531,1141312],"voronoi":{"lat":34.854777,"lng":137.528229,"delta_lat":[0,308,6625,32,-71821,45022,15623,2135],"delta_lng":[0,890,29699,22702,-21143,-58488,18346,3586]}},
    {"code":9950533,"id":"f60269","name":"奥浜名湖","name_kana":"おくはまなこ","lat":34.795068,"lng":137.545934,"prefecture":22,"lines":[99505],"attr":"heat","postal_code":"431-1424","address":"浜松市北区三ヶ日町下尾奈","next":[9950534,1141310,1141309,9950532,1141311,9950531],"voronoi":{"lat":34.78992,"lng":137.560377,"delta_lat":[0,45022,-4004,-15491,-2257,-29965],"delta_lng":[0,-58488,-5543,-13870,-1577,79661]}},
    {"code":1141308,"id":"342300","name":"長山","name_kana":"ながやま","lat":34.864449,"lng":137.431458,"prefecture":23,"lines":[11413],"attr":"heat","postal_code":"441-1202","address":"豊川市上長山町西水神平","next":[1141309,3000106,1141307,3000107,1141310,3000108],"voronoi":{"lat":34.929163,"lng":137.414095,"delta_lat":[0,-100409,82428,77362,16114,14777],"delta_lng":[0,35732,-80619,-3292,808,2463]}},
    {"code":9950526,"left":9950527,"right":9950525,"id":"158bea","name":"気賀","name_kana":"きが","lat":34.80722,"lng":137.651937,"prefecture":22,"lines":[99505],"attr":"cool","postal_code":"431-1305","address":"浜松市北区細江町気賀","next":[1141319,9950527,9950528,9950525,1150203],"voronoi":{"lat":34.745934,"lng":137.65513,"delta_lat":[0,32662,97813,4419,-128627],"delta_lng":[0,-14186,-15749,7383,47478]}},
    {"code":9950527,"id":"fecc7c","name":"西気賀","name_kana":"にしきが","lat":34.802323,"lng":137.621523,"prefecture":22,"lines":[99505],"attr":"cool","postal_code":"431-1305","address":"浜松市北区細江町気賀","next":[1141318,9950528,9950526,9950531,9950529,9950530,1141319],"voronoi":{"lat":34.778596,"lng":137.640945,"delta_lat":[0,26635,14897,4077,38145,7031,7028],"delta_lng":[0,-36167,-8827,-1390,-5253,15384,20504]}},
    {"code":9950525,"id":"d1216e","name":"岡地","name_kana":"おかじ","lat":34.812295,"lng":137.665686,"prefecture":22,"lines":[99505],"attr":"cool","postal_code":"431-1305","address":"浜松市北区細江町気賀","next":[1141320,1150203,1141319,9950606,9950526,9950524],"voronoi":{"lat":34.752481,"lng":137.682246,"delta_lat":[0,-281,128627,1403,7309,-129702],"delta_lng":[0,-2189,-47478,1900,16291,39170]}},
    {"code":1141314,"left":1141312,"right":1141317,"id":"442d85","name":"茶臼山","name_kana":"ちゃうすやま","lat":34.910334,"lng":137.514424,"prefecture":23,"lines":[11413],"attr":"cool","postal_code":"441-1302","address":"新城市富永","next":[1141313,9950532,1141316,1141315],"voronoi":{"lat":34.948165,"lng":137.515394,"delta_lat":[0,100087,-193475,308],"delta_lng":[0,-57935,70769,890]}},
    {"code":1141312,"left":1141311,"right":1141313,"id":"fcf43a","name":"新城","name_kana":"しんしろ","lat":34.901112,"lng":137.49304,"prefecture":23,"lines":[11413],"attr":"heat","postal_code":"441-1377","address":"新城市宮ノ西","next":[1141313,9952410,1141310,3000108,3000522,1141311,9950532],"voronoi":{"lat":34.850566,"lng":137.520235,"delta_lat":[0,171896,22644,9241,38151,1074,-240871],"delta_lng":[0,-133970,-14875,-321,26420,4118,122214]}},
    {"code":1141311,"left":1141310,"id":"201e4f","name":"野田城","name_kana":"のだじょう","lat":34.889282,"lng":137.477861,"prefecture":23,"lines":[11413],"attr":"heat","postal_code":"441-1343","address":"新城市野田","next":[1141310,9950532,1141312,9950533],"voronoi":{"lat":34.850566,"lng":137.520235,"delta_lat":[0,171896,-191523,4004],"delta_lng":[0,-133970,110081,5543]}},
    {"code":1141310,"id":"d29a91","name":"東上","name_kana":"とうじょう","lat":34.876278,"lng":137.455236,"prefecture":23,"lines":[11413],"attr":"heat","postal_code":"441-1201","address":"豊川市東上町東京寺","next":[1141309,9950533,1141312,1141311,3000108,1141308],"voronoi":{"lat":34.815448,"lng":137.482476,"delta_lat":[0,15491,191523,22644,-25670,-90272],"delta_lng":[0,13870,-110081,-14875,-2202,44908]}},
    {"code":1141313,"id":"f485f4","name":"東新町","name_kana":"ひがししんまち","lat":34.906129,"lng":137.502928,"prefecture":23,"lines":[11413],"attr":"heat","postal_code":"441-1361","address":"新城市平井若杉","next":[1141312,1141314,1141316,9950532,9952410],"voronoi":{"lat":35.093571,"lng":137.401606,"delta_lat":[0,-240871,2076,193475,53358],"delta_lng":[0,122214,4408,-70769,-28029]}},
    {"code":1141317,"left":1141315,"right":1141318,"id":"23f291","name":"鳥居","name_kana":"とりい","lat":34.920834,"lng":137.551537,"prefecture":23,"lines":[11413],"attr":"cool","postal_code":"441-1317","address":"新城市有海","next":[1141316,9950532,1141315,9950531,1141318],"voronoi":{"lat":34.861742,"lng":137.581519,"delta_lat":[0,-32,59953,5852,-65709],"delta_lng":[0,-22702,-21247,19127,25165]}},
    {"code":1141315,"id":"c1ed16","name":"三河東郷","name_kana":"みかわとうごう","lat":34.912224,"lng":137.527242,"prefecture":23,"lines":[11413],"attr":"cool","postal_code":"441-1306","address":"新城市川路","next":[9950532,1141317,1141314,1141316],"voronoi":{"lat":34.948165,"lng":137.515394,"delta_lat":[0,-93080,6625,59953],"delta_lng":[0,13724,29699,-21247]}},
    {"code":1141318,"id":"b28fe9","name":"長篠城","name_kana":"ながしのじょう","lat":34.92599,"lng":137.565,"prefecture":23,"lines":[11413],"attr":"cool","postal_code":"441-1634","address":"新城市長篠","next":[1141316,9950527,9950531,1141319,1141317],"voronoi":{"lat":34.927515,"lng":137.556697,"delta_lat":[0,18616,-76750,-7031,-544],"delta_lng":[0,4761,43233,-15384,-7445]}},
    {"code":9950520,"left":9950616,"right":9950517,"id":"944db8","name":"宮口","name_kana":"みやぐち","lat":34.830389,"lng":137.773731,"prefecture":22,"lines":[99505],"attr":"cool","postal_code":"434-0004","address":"浜松市浜北区宮口","next":[9950519,9950616,9950613,9950612,9950517,9950521,9950614,9950615],"voronoi":{"lat":34.812049,"lng":137.777232,"delta_lat":[0,-3678,-2337,-983,86845,-5829,-59507,-7921],"delta_lng":[0,-7382,-8585,-11042,8355,4319,23150,-2162]}},
    {"code":9950616,"left":9950523,"right":9950511,"id":"00f9ea","name":"遠州芝本","name_kana":"えんしゅうしばもと","lat":34.823599,"lng":137.7986,"prefecture":22,"lines":[99506],"attr":"eco","postal_code":"434-0015","address":"浜松市浜北区於呂３０６１-２","next":[9950615,9950520,9950514,9950519,9950617],"voronoi":{"lat":34.830227,"lng":137.794581,"delta_lat":[0,-3668,-7921,-8428,13745],"delta_lng":[0,-8534,-2162,41904,-4511]}},
    {"code":9950523,"left":9950615,"right":9950522,"id":"45f019","name":"常葉大学前","name_kana":"とこはだいがくまえ","lat":34.81989,"lng":137.709231,"prefecture":22,"lines":[99505],"attr":"cool","postal_code":"431-2102","address":"浜松市北区都田町字吉影","next":[9950610,9950607,9950524,9950609,9950522],"voronoi":{"lat":34.847519,"lng":137.692127,"delta_lat":[0,-79124,7558,6478,14296],"delta_lng":[0,8268,16442,8434,13670]}},
    {"code":9950615,"left":9950614,"id":"8a83fd","name":"遠州小林","name_kana":"えんしゅうこばやし","lat":34.808374,"lng":137.795538,"prefecture":22,"lines":[99506],"attr":"cool","postal_code":"434-0014","address":"浜松市浜北区本沢合８７１-７","next":[9950513,9950616,9950514,9950614,9950520],"voronoi":{"lat":34.810211,"lng":137.825788,"delta_lat":[0,-15356,-18824,36018,6590],"delta_lng":[0,9977,4881,-63415,6653]}},
    {"code":9950614,"id":"958305","name":"美薗中央公園","name_kana":"みそのちゅうおうこうえん","lat":34.798208,"lng":137.789764,"prefecture":22,"lines":[99506],"attr":"cool","postal_code":"434-0038","address":"浜松市浜北区貴布祢４８７-３","next":[1150131,9950513,9950613,1150132,9950615,9950520],"voronoi":{"lat":34.808371,"lng":137.769849,"delta_lat":[0,-45341,4357,2385,6259,36018],"delta_lng":[0,57431,12355,3361,-2350,-63415]}},
    {"code":9950522,"id":"3a1f94","name":"都田","name_kana":"みやこだ","lat":34.828223,"lng":137.718272,"prefecture":22,"lines":[99505],"attr":"cool","postal_code":"431-2102","address":"浜松市北区都田町","next":[9950521,9950524,1141320,9950610,9950523,1141323],"voronoi":{"lat":34.79773,"lng":137.740277,"delta_lat":[0,-1003,50792,56099,5940,3156],"delta_lng":[0,-1336,-46814,-17012,6380,6904]}},
    {"code":9950511,"left":9950512,"right":9950513,"id":"e21747","name":"円田","name_kana":"えんでん","lat":34.820793,"lng":137.907574,"prefecture":22,"lines":[99505],"attr":"eco","postal_code":"437-0221","address":"周智郡森町円田","next":[9950539,9950512,9950506,9950507,1150130],"voronoi":{"lat":34.778245,"lng":137.904499,"delta_lat":[0,84532,-65872,-10744,-3896],"delta_lng":[0,-12605,34791,-2798,-2025]}},
    {"code":9950512,"id":"1499d7","name":"遠江一宮","name_kana":"とおとうみいちのみや","lat":34.818045,"lng":137.889145,"prefecture":22,"lines":[99505],"attr":"eco","postal_code":"437-0226","address":"周智郡森町一宮","next":[1150130,9950539,9950511,1150135,9950513],"voronoi":{"lat":34.769312,"lng":137.859336,"delta_lat":[0,-940,9872,84532,2843],"delta_lng":[0,24603,20560,-12605,-807]}},
    {"code":9950513,"id":"0a4687","name":"敷地","name_kana":"しきじ","lat":34.826218,"lng":137.864355,"prefecture":22,"lines":[99505],"attr":"eco","postal_code":"438-0106","address":"磐田市敷地","next":[9950614,1150131,9950514,9950615,9950515,9950539,9950510,1150135,9950512],"voronoi":{"lat":34.868382,"lng":137.891091,"delta_lat":[0,34784,-25831,-82481,-18824,-6259,-1270,811,96307],"delta_lng":[0,-2833,-15985,-36507,4881,2350,12175,4165,31751]}},
    {"code":9950517,"left":9950519,"right":9950515,"id":"ce43d0","name":"二俣本町","name_kana":"ふたまたほんまち","lat":34.859504,"lng":137.813015,"prefecture":22,"lines":[99505],"attr":"eco","postal_code":"431-3314","address":"浜松市天竜区二俣町二俣","next":[9950518,9950519,9950521,1141330,1141328,9950516,1141326,9950520,1141325],"voronoi":{"lat":34.933478,"lng":137.745699,"delta_lat":[0,-41582,-5829,-24408,-10724,114409,-3091,-8215,-16948],"delta_lng":[0,12878,4319,25983,27191,6281,-16396,-25830,-28958]}},
    {"code":9950519,"left":9950617,"right":9950518,"id":"e238c6","name":"岩水寺","name_kana":"がんすいじ","lat":34.837705,"lng":137.792537,"prefecture":22,"lines":[99505],"attr":"eco","postal_code":"434-0016","address":"浜松市浜北区根堅","next":[9950520,9950617,9950517,9950518,9950616],"voronoi":{"lat":34.843287,"lng":137.799644,"delta_lat":[0,18372,24408,-59507,3668],"delta_lng":[0,-10765,-25983,23150,8534]}},
    {"code":9950617,"left":9950521,"id":"c47a0c","name":"遠州岩水寺","name_kana":"えんしゅうがんすいじ","lat":34.834373,"lng":137.801131,"prefecture":22,"lines":[99506],"attr":"eco","postal_code":"434-0015","address":"浜松市浜北区於呂２８１９-３","next":[9950519,9950514,9950515,9950616,9950518],"voronoi":{"lat":34.829139,"lng":137.820911,"delta_lat":[0,-5184,6272,13059,-10983],"delta_lng":[0,366,-26697,5064,19837]}},
    {"code":9950521,"id":"c32448","name":"フルーツパーク","name_kana":"ふるーつぱーく","lat":34.834406,"lng":137.731976,"prefecture":22,"lines":[99505],"attr":"cool","postal_code":"431-2102","address":"浜松市北区都田町","next":[9950612,1141324,9950517,9950522,1141325,9950610,1141323,9950520],"voronoi":{"lat":34.933478,"lng":137.745699,"delta_lat":[0,-2250,-13284,-5230,-114984,1910,5411,86845],"delta_lng":[0,-15320,-32692,-9289,51878,4030,5916,8355]}},
    {"code":9950518,"id":"79a480","name":"西鹿島","name_kana":"にしかじま","lat":34.846758,"lng":137.807988,"prefecture":22,"lines":[99505,99506],"attr":"eco","postal_code":"431-3312","address":"浜松市天竜区二俣町南鹿島","next":[9950516,9950517,9950515,9950519,9950617],"voronoi":{"lat":34.843287,"lng":137.799644,"delta_lat":[0,18372,-10724,-2851,-15780],"delta_lng":[0,-10765,27191,2922,489]}},
    {"code":9950515,"left":9950514,"right":9950516,"id":"48a338","name":"上野部","name_kana":"かみのべ","lat":34.847442,"lng":137.830058,"prefecture":22,"lines":[99505],"attr":"eco","postal_code":"438-0111","address":"磐田市上野部","next":[9950518,9950513,9950617,9950510,9950514,9950516],"voronoi":{"lat":34.848084,"lng":137.818993,"delta_lat":[0,-15780,-3164,48196,25831,5071],"delta_lng":[0,489,1430,51361,15985,880]}},
    {"code":9950514,"id":"a1c0b3","name":"豊岡(静岡)","name_kana":"とよおか","lat":34.837105,"lng":137.839758,"prefecture":22,"lines":[99505],"attr":"eco","postal_code":"438-0113","address":"磐田市新開","next":[9950513,9950615,9950617,9950616,9950515],"voronoi":{"lat":34.829139,"lng":137.820911,"delta_lat":[0,-5184,-13745,-15356,82481],"delta_lng":[0,366,4511,9977,36507]}},
    {"code":9950516,"id":"cba1fc","name":"天竜二俣","name_kana":"てんりゅうふたまた","lat":34.859118,"lng":137.820045,"prefecture":22,"lines":[99505],"attr":"eco","postal_code":"431-3311","address":"浜松市天竜区二俣町阿蔵","next":[9950518,1141332,1141334,9950517,9950510,1141331,1141330,9950515],"voronoi":{"lat":34.977591,"lng":137.907776,"delta_lat":[0,1220,-607,-6021,-6840,-114409,-2851,60154],"delta_lng":[0,-9104,-8007,-37645,-30669,-6281,2922,70145]}},
    {"code":9951109,"left":9951118,"right":9951115,"id":"a16117","name":"末野原","name_kana":"すえのはら","lat":35.03949,"lng":137.146866,"prefecture":23,"lines":[99511],"attr":"cool","postal_code":"470-1201","address":"豊田市豊栄町１２丁目","next":[3000517,3000516,9951110,9951108,9951105],"voronoi":{"lat":35.014026,"lng":137.172773,"delta_lat":[0,27253,739,7867,-26175],"delta_lng":[0,-41933,14,8501,102370]}},
    {"code":9951118,"left":1150221,"right":1150704,"id":"99f8de","name":"八草","name_kana":"やくさ","lat":35.175404,"lng":137.106945,"prefecture":23,"lines":[99511,99512],"attr":"heat","postal_code":"470-0356","address":"豊田市八草町字石坂","next":[9951119,9951117,9951208,9951207,3000606],"voronoi":{"lat":35.153128,"lng":137.094297,"delta_lat":[0,7004,26666,12876,-46864],"delta_lng":[0,938,10514,59001,-69480]}},
    {"code":1150221,"left":3000120,"right":3000515,"id":"be67b1","name":"安城","name_kana":"あんじょう","lat":34.959986,"lng":137.08716,"prefecture":23,"lines":[11502],"attr":"heat","postal_code":"446-0032","address":"安城市御幸本町","next":[100212,3000303,3000304,3000302,3000117],"voronoi":{"lat":34.958353,"lng":137.093396,"delta_lat":[0,-11980,-1395,27863,167],"delta_lng":[0,-18115,-8576,10293,2610]}},
    {"code":3000120,"left":3000513,"right":9951204,"id":"c380b2","name":"一ツ木","name_kana":"ひとつぎ","lat":35.01367,"lng":137.02551,"prefecture":23,"lines":[30001],"attr":"eco","postal_code":"448-0000","address":"刈谷市一木本郷前","next":[1150224,1150225,3000511,3000119,3000121],"voronoi":{"lat":35.012764,"lng":137.005012,"delta_lat":[0,-2006,-5436,-1520,32058],"delta_lng":[0,887,7358,16067,16967]}},
    {"code":3000513,"left":3000511,"right":3000118,"id":"223d1f","name":"三河知立","name_kana":"みかわちりゅう","lat":35.004002,"lng":137.045311,"prefecture":23,"lines":[30005],"attr":"cool","postal_code":"472-0042","address":"知立市内幸町加藤２０","next":[3000118,3000119,1150223,3000514,1150240],"voronoi":{"lat":34.990349,"lng":137.049726,"delta_lat":[0,29364,17319,-44151,-1877],"delta_lng":[0,8842,-3760,-17060,2231]}},
    {"code":3000511,"left":1150223,"right":3000119,"id":"74d94f","name":"重原","name_kana":"しげはら","lat":34.994824,"lng":137.023727,"prefecture":23,"lines":[30005],"attr":"heat","postal_code":"472-0026","address":"知立市上重原町本郷４-４","next":[3000119,1150240,3000120,1150224],"voronoi":{"lat":35.005322,"lng":137.013256,"delta_lat":[0,-1520,-10429,-7247],"delta_lng":[0,16067,7460,-18785]}},
    {"code":1150223,"left":1150240,"id":"fbb418","name":"東刈谷","name_kana":"ひがしかりや","lat":34.97741,"lng":137.043525,"prefecture":23,"lines":[11502],"attr":"heat","postal_code":"448-0807","address":"刈谷市東刈谷町１丁目","next":[3000118,3000506,3000508,3000507,1150240,3000513,100212],"voronoi":{"lat":34.933685,"lng":137.034506,"delta_lat":[0,6796,2138,9690,38696,-655,-5859],"delta_lng":[0,-5914,-1223,-2723,15333,9747,7360]}},
    {"code":1150240,"id":"73aaee","name":"野田新町","name_kana":"のだしんまち","lat":34.983528,"lng":137.028085,"prefecture":23,"lines":[11502],"attr":"cool","postal_code":"448-0862","address":"刈谷市野田新町","next":[3000511,3000119,1150223,3000513,3000508,1150224],"voronoi":{"lat":34.993373,"lng":137.036784,"delta_lat":[0,-491,-1877,-38696,20105,13712],"delta_lng":[0,965,2231,-15333,-12094,5446]}},
    {"code":3000119,"id":"b527bc","name":"知立","name_kana":"ちりゅう","lat":35.006198,"lng":137.039628,"prefecture":23,"lines":[30001,30005],"attr":"eco","postal_code":"472-0037","address":"知立市栄２丁目","next":[3000514,3000511,1150240,3000513,3000120,3000121],"voronoi":{"lat":35.037033,"lng":137.054809,"delta_lat":[0,-44151,491,10429,32058,7570],"delta_lng":[0,-17060,-965,-7460,16967,7714]}},
    {"code":3000118,"left":3000117,"right":3000514,"id":"d91387","name":"牛田(愛知)","name_kana":"うしだ","lat":34.999294,"lng":137.060946,"prefecture":23,"lines":[30001],"attr":"eco","postal_code":"472-0003","address":"知立市牛田","next":[3000117,1150223,3000513,100212,3000514],"voronoi":{"lat":35.019714,"lng":137.058568,"delta_lat":[0,-29364,-5859,-11,12261],"delta_lng":[0,-8842,7360,11747,6211]}},
    {"code":3000117,"left":100212,"id":"2098cd","name":"新安城","name_kana":"しんあんじょう","lat":34.986885,"lng":137.085443,"prefecture":23,"lines":[30001,30003],"attr":"eco","postal_code":"446-0007","address":"安城市東栄町１丁目","next":[3000118,3000302,9951107,3000515,3000514,3000116,1150221,100212],"voronoi":{"lat":34.98448,"lng":137.068833,"delta_lat":[0,12261,7912,-2598,-4804,-17456,-6786,-167],"delta_lng":[0,6211,22915,9836,2589,-8294,-22483,-2610]}},
    {"code":100212,"id":"221e91","name":"三河安城","name_kana":"みかわあんじょう","lat":34.96968,"lng":137.060918,"prefecture":23,"lines":[11502,1002],"attr":"heat","postal_code":"446-0054","address":"安城市二本木町二ツ池","next":[3000506,3000316,1150221,3000118,1150223,3000305,3000307,3000304,3000117],"voronoi":{"lat":34.98448,"lng":137.068833,"delta_lat":[0,11,-50806,-2458,7,2863,2672,8210,27863],"delta_lng":[0,-11747,-22580,1347,6922,11140,3893,8896,10293]}},
    {"code":3000514,"id":"05621a","name":"三河八橋","name_kana":"みかわやつはし","lat":35.010913,"lng":137.077147,"prefecture":23,"lines":[30005],"attr":"cool","postal_code":"473-0924","address":"豊田市花園町五反田３９","next":[3000119,3000121,3000515,3000117,3000513,3000118],"voronoi":{"lat":35.004653,"lng":137.09796,"delta_lat":[0,49450,-10673,-6397,-17319,-22973],"delta_lng":[0,-40638,-3317,804,3760,16476]}},
    {"code":9951204,"left":3000609,"right":9951205,"id":"faa3ef","name":"長久手古戦場","name_kana":"ながくてこせんじょう","lat":35.171574,"lng":137.049932,"prefecture":23,"lines":[99512],"attr":"eco","postal_code":"480-1118","address":"愛知県長久手市横道41","next":[9951202,3000608,3000607,3001216,9951205,9951203],"voronoi":{"lat":35.193938,"lng":137.050736,"delta_lat":[0,-219,-46836,-1940,162,32762],"delta_lng":[0,4059,1528,-5431,-7465,581]}},
    {"code":3000609,"left":3000608,"right":9951203,"id":"99ea78","name":"赤池(愛知)","name_kana":"あかいけ","lat":35.121097,"lng":137.017978,"prefecture":23,"lines":[30006,99516],"attr":"eco","postal_code":"470-0125","address":"日進市赤池１-１５０３","next":[3000608,9951321,9951619,9951721,9951320,9951203],"voronoi":{"lat":35.148796,"lng":137.021923,"delta_lat":[0,-358,-260,-41889,-15460,52650],"delta_lng":[0,-4273,-1254,-6313,20744,4647]}},
    {"code":3000608,"left":3000121,"id":"aa272f","name":"日進(愛知)","name_kana":"にっしん","lat":35.118378,"lng":137.04878,"prefecture":23,"lines":[30006],"attr":"eco","postal_code":"470-0113","address":"日進市栄２-１７０８","next":[3000609,9951721,9951204,3000121,3000515,3000607,3000122,9951203],"voronoi":{"lat":35.144943,"lng":137.050893,"delta_lat":[0,-72667,-7366,1297,8243,16380,52650,1625],"delta_lng":[0,21314,-14411,-3563,-15677,-7728,4647,7953]}},
    {"code":3000121,"id":"97371d","name":"富士松","name_kana":"ふじまつ","lat":35.029759,"lng":137.016508,"prefecture":23,"lines":[30001],"attr":"eco","postal_code":"448-0005","address":"刈谷市今川町下矢戸","next":[3000514,3000122,3000608,3000119,1150225,3000120,3000515],"voronoi":{"lat":35.066207,"lng":137.054232,"delta_lat":[0,-44298,-9145,23096,7570,10673,10807],"delta_lng":[0,-60331,11110,41279,7714,3317,474]}},
    {"code":9951203,"id":"e8fff7","name":"杁ヶ池公園","name_kana":"いりがいけこうえん","lat":35.171788,"lng":137.037866,"prefecture":23,"lines":[99512],"attr":"eco","postal_code":"480-1116","address":"愛知県長久手市杁ヶ池","next":[9951201,3000609,9951202,3000608,9951204,9951321],"voronoi":{"lat":35.169923,"lng":137.025297,"delta_lat":[0,7943,-32762,-1625,5317,20706],"delta_lng":[0,18711,-581,-7953,-13551,3104]}},
    {"code":9951205,"left":3000607,"right":9951206,"id":"238c40","name":"芸大通","name_kana":"げいだいどおり","lat":35.171938,"lng":137.061092,"prefecture":23,"lines":[99512],"attr":"eco","postal_code":"480-1103","address":"愛知県長久手市岩作","next":[3000607,9951120,3001216,9951204,9951206],"voronoi":{"lat":35.19268,"lng":137.065841,"delta_lat":[0,2418,-1380,-46836,2018],"delta_lng":[0,-4044,-7001,1528,16415]}},
    {"code":3000607,"id":"cdf9d5","name":"米野木","name_kana":"こめのき","lat":35.123728,"lng":137.06702,"prefecture":23,"lines":[30006],"attr":"cool","postal_code":"470-0111","address":"日進市米野木町南山１８５-３","next":[9951206,9951205,3000517,3000515,3000606,9951204,3000516,3000608],"voronoi":{"lat":35.144943,"lng":137.050893,"delta_lat":[0,1940,2018,-532,-68537,-892,-5545,-1119],"delta_lng":[0,5431,16415,2774,11129,-935,-9717,-3783]}},
    {"code":9951206,"id":"702c07","name":"公園西","name_kana":"こうえんにし","lat":35.174403,"lng":137.076737,"prefecture":23,"lines":[99512],"attr":"heat","postal_code":"480-1345","address":"愛知県長久手市丸山","next":[3000607,9951207,9951120,3000606,9951205],"voronoi":{"lat":35.148369,"lng":137.075512,"delta_lat":[0,4450,37972,1890,-43780],"delta_lng":[0,14214,-11994,-11892,6898]}},
    {"code":3000515,"left":1150220,"right":3000517,"id":"81eeef","name":"若林(愛知)","name_kana":"わかばやし","lat":35.026284,"lng":137.095851,"prefecture":23,"lines":[30005],"attr":"cool","postal_code":"473-0914","address":"豊田市若林東町沖田３７","next":[3000514,3000117,3000607,3000608,3000516,9951107,3000121],"voronoi":{"lat":35.054102,"lng":137.057322,"delta_lat":[0,-49450,-2598,18267,53073,-1119,-7366],"delta_lng":[0,40638,9836,6880,-38686,-3783,-14411]}},
    {"code":1150220,"left":3000302,"right":9951106,"id":"1bad7a","name":"西岡崎","name_kana":"にしおかざき","lat":34.946572,"lng":137.123187,"prefecture":23,"lines":[11502],"attr":"heat","postal_code":"444-0938","address":"岡崎市昭和町北浦","next":[3000304,3000116,3000305,3000115,3000306,1150219,3000303,9951102],"voronoi":{"lat":34.960098,"lng":137.12615,"delta_lat":[0,-3494,-13629,-13088,-10655,-9171,16445,19875],"delta_lng":[0,-17038,-2397,3782,5951,7659,10214,3753]}},
    {"code":3000302,"left":3000303,"right":3000116,"id":"b138c9","name":"北安城","name_kana":"きたあんじょう","lat":34.964677,"lng":137.092146,"prefecture":23,"lines":[30003],"attr":"heat","postal_code":"446-0061","address":"安城市新田町新栄１","next":[3000117,3000303,3000116,1150221],"voronoi":{"lat":34.973008,"lng":137.079608,"delta_lat":[0,6786,-21095,-346],"delta_lng":[0,22483,5437,-14132]}},
    {"code":3000303,"left":3000304,"id":"f88d29","name":"南安城","name_kana":"みなみあんじょう","lat":34.951976,"lng":137.092457,"prefecture":23,"lines":[30003],"attr":"heat","postal_code":"446-0000","address":"安城市的場４１-２","next":[3000302,1150221,3000116,1150220,3000304],"voronoi":{"lat":34.946374,"lng":137.07528,"delta_lat":[0,11980,346,-2095,-13629],"delta_lng":[0,18115,14132,1584,-2397]}},
    {"code":3000304,"id":"8bfe80","name":"碧海古井","name_kana":"へきかいふるい","lat":34.93723,"lng":137.090863,"prefecture":23,"lines":[30003],"attr":"heat","postal_code":"446-0025","address":"安城市古井町字大久後４-５","next":[1150220,3000305,1150221,3000303,100212],"voronoi":{"lat":34.946374,"lng":137.07528,"delta_lat":[0,-3398,-13088,6881,8210],"delta_lng":[0,31434,3782,-52688,8896]}},
    {"code":3000116,"id":"f8c850","name":"宇頭","name_kana":"うとう","lat":34.971367,"lng":137.118103,"prefecture":23,"lines":[30001],"attr":"cool","postal_code":"444-0905","address":"岡崎市宇頭町山ノ神","next":[1150220,3000115,3000303,9951106,3000302,9951107,3000117],"voronoi":{"lat":34.979794,"lng":137.10209,"delta_lat":[0,-21095,-2095,3494,18551,16928,1673],"delta_lng":[0,5437,1584,17038,8674,-19756,-4683]}},
    {"code":9951106,"left":3000115,"right":9951107,"id":"3ebbad","name":"北野桝塚","name_kana":"きたのますづか","lat":34.996289,"lng":137.139457,"prefecture":23,"lines":[99511],"attr":"cool","postal_code":"444-0951","address":"岡崎市北野町字二番訳","next":[3000116,9951107,9951108,9951105,3000115],"voronoi":{"lat":35.012261,"lng":137.167782,"delta_lat":[0,-200,-16483,-16928,39],"delta_lng":[0,-13123,-39591,19756,2755]}},
    {"code":3000115,"id":"16d648","name":"矢作橋","name_kana":"やはぎばし","lat":34.961149,"lng":137.139957,"prefecture":23,"lines":[30001],"attr":"cool","postal_code":"444-0943","address":"岡崎市矢作町字馬乗","next":[9951103,9951104,3000114,3000116,1150220,9951106,9951102,9951105],"voronoi":{"lat":34.978689,"lng":137.137579,"delta_lat":[0,-39,-18551,-13717,2638,2076,15048,7824],"delta_lng":[0,-2755,-8674,11924,4382,959,5797,-4908]}},
    {"code":9951107,"id":"160ff9","name":"三河上郷","name_kana":"みかわかみごう","lat":35.012384,"lng":137.132756,"prefecture":23,"lines":[99511],"attr":"cool","postal_code":"470-1218","address":"豊田市上郷町５丁目","next":[3000117,3000516,9951106,9951108,3000116,3000515],"voronoi":{"lat":35.002054,"lng":137.107795,"delta_lat":[0,-4804,-1673,16483,13362,-5101],"delta_lng":[0,2589,4683,39591,-32137,-7846]}},
    {"code":3000517,"left":3000606,"right":3000604,"id":"1ff13c","name":"土橋(愛知)","name_kana":"つちはし","lat":35.058179,"lng":137.129572,"prefecture":23,"lines":[30005],"attr":"cool","postal_code":"471-0842","address":"豊田市土橋町８-１４５","next":[3000606,9951110,9951109,3000605,9951111,3000607,3000516,3000604,9951112],"voronoi":{"lat":35.063731,"lng":137.141156,"delta_lat":[0,-13846,-7867,36921,892,7203,4657,-169,-8308],"delta_lng":[0,-1802,-8501,-45147,935,13103,17442,1406,10358]}},
    {"code":3000606,"left":3000516,"right":9951117,"id":"5220a4","name":"黒笹","name_kana":"くろざさ","lat":35.127681,"lng":137.091365,"prefecture":23,"lines":[30006],"attr":"cool","postal_code":"470-0201","address":"愛知県みよし市黒笹町縄手36-2","next":[3000517,9951117,9951206,3000607,3000605,9951118,9951207],"voronoi":{"lat":35.152819,"lng":137.089726,"delta_lat":[0,-4450,-68537,7203,58624,7152,318],"delta_lng":[0,-14214,11129,13103,2253,-6727,-973]}},
    {"code":3000516,"left":3000605,"id":"2f0e3c","name":"竹村","name_kana":"たけむら","lat":35.040067,"lng":137.11476,"prefecture":23,"lines":[30005],"attr":"cool","postal_code":"473-0906","address":"豊田市竹町宮下１６","next":[9951109,9951107,3000517,3000607,3000515,9951108],"voronoi":{"lat":35.042019,"lng":137.130853,"delta_lat":[0,36921,-5545,-53073,5101,15857],"delta_lng":[0,-45147,-9717,38686,7846,8318]}},
    {"code":3000605,"id":"ed9b2e","name":"三好ヶ丘","name_kana":"みよしがおか","lat":35.126918,"lng":137.111219,"prefecture":23,"lines":[30006],"attr":"cool","postal_code":"470-0202","address":"愛知県みよし市三好丘二丁目1-1","next":[9951116,3000517,3000604,3000606,9951117],"voronoi":{"lat":35.126969,"lng":137.124822,"delta_lat":[0,-35278,-4657,58624,-5767],"delta_lng":[0,-7635,-17442,2253,17382]}},
    {"code":9951117,"id":"98d99f","name":"篠原(愛知)","name_kana":"ささばら","lat":35.155171,"lng":137.120592,"prefecture":23,"lines":[99511],"attr":"heat","postal_code":"470-0352","address":"豊田市篠原町砂ヶ入","next":[3000606,9951115,9951119,9951118,9951116,3000605],"voronoi":{"lat":35.161264,"lng":137.148101,"delta_lat":[0,47916,-9506,-46864,-7152,-5767],"delta_lng":[0,38478,-21828,-69480,6727,17382]}},
    {"code":3000604,"left":9951108,"right":9951116,"id":"9d8286","name":"浄水","name_kana":"じょうすい","lat":35.121298,"lng":137.137186,"prefecture":23,"lines":[30006],"attr":"heat","postal_code":"470-0343","address":"豊田市浄水町伊保原２４３","next":[9951112,9951116,3000603,3000605,3000517,9951115],"voronoi":{"lat":35.129737,"lng":137.139888,"delta_lat":[0,-2768,-35278,-169,11402,19855],"delta_lng":[0,-15067,-7635,1406,23211,5607]}},
    {"code":9951108,"id":"0cda58","name":"永覚","name_kana":"えかく","lat":35.027361,"lng":137.138983,"prefecture":23,"lines":[99511],"attr":"cool","postal_code":"471-0000","address":"豊田市高根","next":[9951105,9951109,9951107,9951106,3000516],"voronoi":{"lat":35.025422,"lng":137.122522,"delta_lat":[0,-13362,200,1766,27253],"delta_lng":[0,32137,13123,4991,-41933]}},
    {"code":9951116,"id":"8b2b09","name":"保見","name_kana":"ほみ","lat":35.136665,"lng":137.134363,"prefecture":23,"lines":[99511],"attr":"heat","postal_code":"470-0344","address":"豊田市保見町権堂坊","next":[3000604,3000605,9951115,9951117],"voronoi":{"lat":35.139892,"lng":137.11938,"delta_lat":[0,-12922,2768,31527],"delta_lng":[0,5442,15067,8212]}},
    {"code":1150704,"left":1141110,"right":1141111,"id":"0f233e","name":"姫","name_kana":"ひめ","lat":35.382004,"lng":137.072078,"prefecture":21,"lines":[11507],"attr":"cool","postal_code":"507-0061","address":"多治見市姫町１丁目","next":[3001709,3001708,3001710,1141110,3001704,1150703,3001703,1150705],"voronoi":{"lat":35.401994,"lng":137.098569,"delta_lat":[0,-4957,-1605,-66157,2656,9941,18596,43780],"delta_lng":[0,7870,1593,-75477,-11039,836,6862,61771]}},
    {"code":1141110,"left":3001215,"right":1141609,"id":"38fc31","name":"高蔵寺","name_kana":"こうぞうじ","lat":35.26434,"lng":137.043766,"prefecture":23,"lines":[11411,99511],"attr":"eco","postal_code":"487-0013","address":"春日井市高蔵寺町３丁目","next":[1141111,3001703,3001215,1150703,1141109,3001216,1150704,9951122,3001812],"voronoi":{"lat":35.331932,"lng":137.021517,"delta_lat":[0,-2656,-4882,-55900,-27930,-797,2135,77751,12116],"delta_lng":[0,11039,10263,20541,-13817,-4463,-13779,-18669,8565]}},
    {"code":3001215,"left":9951201,"right":3001217,"id":"624dd2","name":"尾張旭","name_kana":"おわりあさひ","lat":35.216743,"lng":137.036393,"prefecture":23,"lines":[30012],"attr":"heat","postal_code":"488-0801","address":"尾張旭市東大道町原田２５９１-３","next":[9951201,3001214,3001216,1141110,1141109,9951202],"voronoi":{"lat":35.239767,"lng":137.04508,"delta_lat":[0,2135,-4446,-38697,-1508,-251],"delta_lng":[0,-13779,-6654,5985,3555,9593]}},
    {"code":9951201,"left":9951202,"right":3001214,"id":"59c2e7","name":"藤が丘(愛知)","name_kana":"ふじがおか","lat":35.182113,"lng":137.02171,"prefecture":23,"lines":[99512,99513],"attr":"eco","postal_code":"465-0032","address":"名古屋市名東区藤が丘１６３","next":[3001215,9951321,3001213,9951203,3001214,3001212,9951202],"voronoi":{"lat":35.169923,"lng":137.025297,"delta_lat":[0,-421,22686,1396,4547,627,-1508],"delta_lng":[0,-270,-18236,1373,12455,10012,3555]}},
    {"code":9951202,"left":9951321,"id":"d9adfd","name":"はなみずき通","name_kana":"はなみずきどおり","lat":35.17767,"lng":137.035369,"prefecture":23,"lines":[99512],"attr":"eco","postal_code":"480-1151","address":"愛知県長久手市久保山","next":[3001216,9951204,9951203,3001215,9951201],"voronoi":{"lat":35.196999,"lng":137.04378,"delta_lat":[0,-3062,-16071,-7943,27327],"delta_lng":[0,6957,-6728,-18711,8889]}},
    {"code":9951321,"id":"a949ef","name":"本郷(愛知)","name_kana":"ほんごう","lat":35.175453,"lng":137.013425,"prefecture":23,"lines":[99513],"attr":"cool","postal_code":"465-0024","address":"名古屋市名東区本郷２-１５３","next":[9951201,3000609,3001212,9951320,9951203],"voronoi":{"lat":35.148796,"lng":137.021923,"delta_lat":[0,-358,43033,717,-22686],"delta_lng":[0,-4273,-12189,1330,18236]}},
    {"code":3001214,"id":"7c77b8","name":"旭前","name_kana":"あさひまえ","lat":35.214162,"lng":137.019706,"prefecture":23,"lines":[30012],"attr":"heat","postal_code":"488-0855","address":"愛知県尾張旭市旭前町五丁目4-5","next":[3001215,3001213,9951201,1141109],"voronoi":{"lat":35.198758,"lng":137.030632,"delta_lat":[0,-627,35461,3863],"delta_lng":[0,-10012,-12726,16753]}},
    {"code":3001217,"left":3001216,"right":9951122,"id":"60c6c6","name":"水野","name_kana":"みずの","lat":35.224296,"lng":137.069659,"prefecture":23,"lines":[30012],"attr":"eco","postal_code":"489-0917","address":"瀬戸市效範町２-７５","next":[3001218,9951122,9951120,3001216],"voronoi":{"lat":35.238967,"lng":137.052325,"delta_lat":[0,-1708,-22219,-6123],"delta_lng":[0,19481,3310,-8835]}},
    {"code":3001216,"id":"5369ad","name":"三郷(愛知)","name_kana":"さんごう","lat":35.216258,"lng":137.052352,"prefecture":23,"lines":[30012],"attr":"heat","postal_code":"488-0015","address":"尾張旭市三郷町栄９２-１","next":[9951202,9951122,3001215,1141110,9951205,9951204,3001217,9951120],"voronoi":{"lat":35.238967,"lng":137.052325,"delta_lat":[0,1596,-797,-42767,-3062,-219,1380,13819],"delta_lng":[0,-2783,-4463,-1300,6957,4059,7001,4485]}},
    {"code":9951122,"id":"f8c301","name":"中水野","name_kana":"なかみずの","lat":35.250399,"lng":137.071947,"prefecture":23,"lines":[99511],"attr":"eco","postal_code":"489-0000","address":"瀬戸市内山町","next":[3001219,3001216,1141111,3001220,9951121,3001217,1141110,3001218],"voronoi":{"lat":35.240435,"lng":137.083761,"delta_lat":[0,3276,11969,12813,-27930,-1596,-1708,9],"delta_lng":[0,6808,11960,-39170,-13817,2783,19481,37]}},
    {"code":1141609,"left":1150707,"right":1150706,"id":"1e3497","name":"古井","name_kana":"こび","lat":35.457295,"lng":137.047497,"prefecture":21,"lines":[11416],"attr":"heat","postal_code":"505-0021","address":"美濃加茂市森山町１丁目","next":[1141608,9952503,1141610,9952502,1150707,3001708],"voronoi":{"lat":35.494582,"lng":137.018343,"delta_lat":[0,-2273,-6926,-32412,-5926,13262],"delta_lng":[0,-132,1137,13504,35630,8026]}},
    {"code":1150707,"left":3001706,"right":1141608,"id":"e773b4","name":"美濃川合","name_kana":"みのかわい","lat":35.444138,"lng":137.045309,"prefecture":21,"lines":[11507],"attr":"eco","postal_code":"505-0022","address":"美濃加茂市川合町","next":[3001707,3001706,1141608,3001708,1141609],"voronoi":{"lat":35.45297,"lng":137.032851,"delta_lat":[0,-8510,-11662,9166,5080],"delta_lng":[0,-487,16257,18537,1323]}},
    {"code":3001706,"left":3001705,"id":"f69224","name":"日本ライン今渡","name_kana":"にほんらいんいまわたり","lat":35.432302,"lng":137.036818,"prefecture":21,"lines":[30017],"attr":"heat","postal_code":"509-0207","address":"可児市今渡字野市場４０６-２","next":[3001705,1150707,1141608,3001707,1150706],"voronoi":{"lat":35.432798,"lng":137.048621,"delta_lat":[0,11662,-12724,-19946,16748],"delta_lng":[0,-16257,-9765,15418,8561]}},
    {"code":3001705,"id":"0efd2c","name":"可児川","name_kana":"かにがわ","lat":35.41812,"lng":137.01847,"prefecture":21,"lines":[30017],"attr":"cool","postal_code":"509-0206","address":"可児市土田字北割田１３５６-７","next":[3001706,3001704,1141608,1150706,9952502,1150705,1141607],"voronoi":{"lat":35.432304,"lng":137.006971,"delta_lat":[0,-567,-19946,-9355,-4150,23082,6596],"delta_lng":[0,15629,15418,1195,-2232,-39484,1306]}},
    {"code":1141608,"id":"a98761","name":"美濃太田","name_kana":"みのおおた","lat":35.445617,"lng":137.019467,"prefecture":21,"lines":[11416,11507,99525],"attr":"eco","postal_code":"505-0041","address":"美濃加茂市太田町立石","next":[1141609,1150707,3001705,3001706,9952502],"voronoi":{"lat":35.45297,"lng":137.032851,"delta_lat":[0,-8510,-12724,567,53079],"delta_lng":[0,-487,-9765,-15629,12377]}},
    {"code":1150706,"left":1150705,"right":3001707,"id":"0def7e","name":"可児","name_kana":"かに","lat":35.422832,"lng":137.055345,"prefecture":21,"lines":[11507],"attr":"eco","postal_code":"509-0203","address":"可児市下恵土","next":[3001707,1150705,3001705,3001706],"voronoi":{"lat":35.412218,"lng":137.073093,"delta_lat":[0,-9782,9355,16748],"delta_lng":[0,-33880,-1195,8561]}},
    {"code":1150705,"id":"d31dde","name":"下切","name_kana":"しもぎり","lat":35.393777,"lng":137.063734,"prefecture":21,"lines":[11507],"attr":"cool","postal_code":"509-0245","address":"可児市下切字青木","next":[3001707,3001708,3001704,1150706,3001705,1150704],"voronoi":{"lat":35.360469,"lng":137.029215,"delta_lat":[0,37817,4150,9782,858,-8827],"delta_lng":[0,7766,2232,33880,3120,14773]}},
    {"code":3001707,"id":"9f19da","name":"新可児","name_kana":"しんかに","lat":35.423282,"lng":137.055622,"prefecture":21,"lines":[30017],"attr":"heat","postal_code":"509-0203","address":"可児市下恵土字前田１２２５-１","next":[1150707,1150706,1150705,3001706,3001708],"voronoi":{"lat":35.412218,"lng":137.073093,"delta_lat":[0,16321,4260,9166,-28889],"delta_lng":[0,-26514,2043,18537,9054]}},
    {"code":1141111,"left":9951207,"right":3001709,"id":"6f2036","name":"定光寺","name_kana":"じょうこうじ","lat":35.278015,"lng":137.080981,"prefecture":23,"lines":[11411],"attr":"eco","postal_code":"487-0004","address":"春日井市玉野町","next":[1141110,9951122,3001220,1150703,1141112],"voronoi":{"lat":35.323649,"lng":137.049702,"delta_lat":[0,744,-55900,-12813,7076],"delta_lng":[0,-6883,20541,39170,22992]}},
    {"code":9951207,"left":3001218,"right":9951119,"id":"105f49","name":"愛・地球博記念公園","name_kana":"あい・ちきゅうはくきねんこうえん","lat":35.177948,"lng":137.08796,"prefecture":23,"lines":[99512],"attr":"heat","postal_code":"480-1342","address":"愛知県長久手市茨ヶ廻間","next":[9951206,9951119,9951120,9951118,9951208,3000606],"voronoi":{"lat":35.160133,"lng":137.095236,"delta_lat":[0,30745,2061,-2148,-37972,310],"delta_lng":[0,-4501,-2875,-10127,11994,4571]}},
    {"code":3001218,"left":3001219,"right":9951121,"id":"8dc7de","name":"新瀬戸","name_kana":"しんせと","lat":35.225485,"lng":137.077639,"prefecture":23,"lines":[30012],"attr":"eco","postal_code":"489-0066","address":"瀬戸市東横山町６２","next":[3001217,9951121,3001219,9951122,9951120],"voronoi":{"lat":35.220972,"lng":137.080583,"delta_lat":[0,16296,-9,-22219,1146],"delta_lng":[0,-8739,-37,3310,5101]}},
    {"code":3001219,"left":9951120,"id":"dedfa0","name":"瀬戸市役所前","name_kana":"せとしやくしょまえ","lat":35.224986,"lng":137.084177,"prefecture":23,"lines":[30012],"attr":"eco","postal_code":"489-0065","address":"瀬戸市西追分町２","next":[9951122,9951120,9951121,3001218,3001220],"voronoi":{"lat":35.216186,"lng":137.080217,"delta_lat":[0,4786,19463,3276,-28862],"delta_lng":[0,365,3179,6808,238]}},
    {"code":9951120,"id":"78a736","name":"瀬戸口","name_kana":"せとぐち","lat":35.206679,"lng":137.081866,"prefecture":23,"lines":[99511],"attr":"eco","postal_code":"489-0877","address":"瀬戸市東赤重町２丁目","next":[3001219,9951206,3001220,9951207,9951205,9951119,3001217,3001218,3001216],"voronoi":{"lat":35.21504,"lng":137.075117,"delta_lat":[0,1146,-1337,-4159,-17752,-2148,1890,2418,13819],"delta_lng":[0,5101,10590,4973,-7921,-10127,-11892,-4044,4485]}},
    {"code":9951121,"id":"faf16f","name":"瀬戸市","name_kana":"せとし","lat":35.225921,"lng":137.078452,"prefecture":23,"lines":[99511],"attr":"eco","postal_code":"489-0066","address":"瀬戸市東横山町","next":[3001218,9951122,3001219],"voronoi":{"lat":35.237268,"lng":137.071843,"delta_lat":[0,-16296,19463],"delta_lng":[0,8739,3179]}},
    {"code":9951119,"left":9951208,"right":3001220,"id":"3f7cf0","name":"山口(愛知)","name_kana":"やまぐち","lat":35.197656,"lng":137.102089,"prefecture":23,"lines":[99511],"attr":"eco","postal_code":"489-0961","address":"瀬戸市田中町","next":[3000523,9951207,9951115,9951117,3001220,9951118,9951208,9951120],"voronoi":{"lat":35.192939,"lng":137.08786,"delta_lat":[0,-2061,-4079,12876,9506,4368,17107,-19965],"delta_lng":[0,2875,15015,59001,21828,6129,16749,-113676]}},
    {"code":9951208,"id":"27d13c","name":"陶磁資料館南","name_kana":"とうじしりょうかんみなみ","lat":35.179286,"lng":137.097099,"prefecture":23,"lines":[99512],"attr":"heat","postal_code":"470-0356","address":"豊田市八草町","next":[9951119,9951118,9951207],"voronoi":{"lat":35.190878,"lng":137.090734,"delta_lat":[0,-4079,-26666],"delta_lng":[0,15015,-10514]}},
    {"code":3001220,"id":"c45106","name":"尾張瀬戸","name_kana":"おわりせと","lat":35.225094,"lng":137.09727,"prefecture":23,"lines":[30012],"attr":"eco","postal_code":"489-0811","address":"瀬戸市山脇町７","next":[1141112,9951120,1141114,1141111,9951122,9951119,3000523,3001219],"voronoi":{"lat":35.243712,"lng":137.090569,"delta_lat":[0,11969,7076,-3183,-18998,-9920,-19965,4159],"delta_lng":[0,11960,22992,66259,30154,-12478,-113676,-4973]}},
    {"code":3001709,"left":1150703,"right":3001711,"id":"9a21d8","name":"顔戸","name_kana":"ごうど","lat":35.434522,"lng":137.105154,"prefecture":21,"lines":[30017],"attr":"eco","postal_code":"505-0122","address":"可児郡御嵩町大字顔戸山之神３１８-３","next":[1141610,1141611,3001708,1150704,3001710],"voronoi":{"lat":35.397037,"lng":137.10644,"delta_lat":[0,4957,65414,9632,3665],"delta_lng":[0,-7870,-4813,12649,16383]}},
    {"code":1150703,"left":1141112,"right":3001708,"id":"471e79","name":"根本","name_kana":"ねもと","lat":35.361548,"lng":137.090008,"prefecture":21,"lines":[11507],"attr":"heat","postal_code":"507-0065","address":"多治見市根本町２丁目","next":[3001710,1141110,1141112,1150704,1141111,1150702,3001711],"voronoi":{"lat":35.325477,"lng":137.059432,"delta_lat":[0,-1827,744,4882,66157,-2902,-8443],"delta_lng":[0,-9731,-6883,-10263,75477,6377,15341]}},
    {"code":1141112,"left":1150702,"id":"5a6824","name":"古虎渓","name_kana":"ここけい","lat":35.302955,"lng":137.101011,"prefecture":21,"lines":[11411],"attr":"cool","postal_code":"507-0044","address":"多治見市諏訪町神田","next":[3001220,1150703,1141114,1150702,1141111,1141113],"voronoi":{"lat":35.325982,"lng":137.098908,"delta_lat":[0,-505,-1827,-60893,-3183,17587],"delta_lng":[0,-39476,-9731,75820,66259,-12312]}},
    {"code":1150702,"id":"39e13f","name":"小泉","name_kana":"こいずみ","lat":35.349055,"lng":137.100421,"prefecture":21,"lines":[11507],"attr":"heat","postal_code":"507-0073","address":"多治見市小泉町１丁目","next":[1141113,1141114,1141112,1150703,3001711],"voronoi":{"lat":35.384088,"lng":137.129751,"delta_lat":[0,-58611,505,54234,1192],"delta_lng":[0,-70318,39476,38973,-156]}},
    {"code":3001708,"id":"8007d2","name":"明智(名古屋鉄道)","name_kana":"あけち","lat":35.433208,"lng":137.087295,"prefecture":21,"lines":[30017],"attr":"eco","postal_code":"509-0217","address":"岐阜県可児市平貝戸川田551","next":[1141610,1150705,3001709,1150704,1150707,1141609,3001707],"voronoi":{"lat":35.441965,"lng":137.067159,"delta_lat":[0,5080,13262,7102,-65414,2254,8827],"delta_lng":[0,1323,8026,17249,4813,-7584,-14773]}},
    {"code":3001711,"left":1141113,"right":3001710,"id":"752575","name":"御嵩","name_kana":"みたけ","lat":35.429723,"lng":137.127527,"prefecture":21,"lines":[30017],"attr":"eco","postal_code":"505-0121","address":"可児郡御嵩町中字西之門２３０２-２","next":[1141116,1141612,1141613,1141115,1141114,3001710,1150702,1150703],"voronoi":{"lat":35.381408,"lng":137.137726,"delta_lat":[0,54356,27195,16203,11810,-4130,-94311,-8443],"delta_lng":[0,69759,13248,1699,-30840,-51787,-25395,15341]}},
    {"code":1141113,"id":"be0527","name":"多治見","name_kana":"たじみ","lat":35.334774,"lng":137.120294,"prefecture":21,"lines":[11411,11507],"attr":"cool","postal_code":"507-0037","address":"多治見市音羽町２丁目","next":[1150702,1141114,1141112],"voronoi":{"lat":35.325982,"lng":137.098908,"delta_lat":[0,54234,-103055],"delta_lng":[0,38973,41587]}},
    {"code":3001710,"id":"9107cc","name":"御嵩口","name_kana":"みたけぐち","lat":35.431281,"lng":137.121741,"prefecture":21,"lines":[30017],"attr":"eco","postal_code":"505-0121","address":"可児郡御嵩町中字茶園原４７３","next":[1150703,1141612,1141611,1150704,3001709,3001711],"voronoi":{"lat":35.486776,"lng":137.137479,"delta_lat":[0,-6071,-83668,-1605,-2902,94311],"delta_lng":[0,-14691,-16349,1593,6377,25395]}},
    {"code":9951115,"left":3000522,"right":1141347,"id":"98eea6","name":"貝津","name_kana":"かいづ","lat":35.133089,"lng":137.148091,"prefecture":23,"lines":[99511],"attr":"heat","postal_code":"470-0348","address":"豊田市貝津町片坂１０５-３","next":[3000523,9951119,9951117,9951114,9951116,3000603,3000604],"voronoi":{"lat":35.125517,"lng":137.153791,"delta_lat":[0,21368,66664,-4368,-47916,-31527,-6958],"delta_lng":[0,16131,22786,-6129,-38478,-8212,7522]}},
    {"code":3000522,"left":3000518,"right":1141327,"id":"3b1e9f","name":"平戸橋","name_kana":"ひらとばし","lat":35.114628,"lng":137.184725,"prefecture":23,"lines":[30005],"attr":"eco","postal_code":"470-0331","address":"豊田市平戸橋町石平４３","next":[1141312,3000523,9952410,3000521,3000108],"voronoi":{"lat":35.092497,"lng":137.397489,"delta_lat":[0,109952,-87558,-83352,22807],"delta_lng":[0,-103933,-116798,127181,67130]}},
    {"code":3000518,"left":3000114,"right":3000520,"id":"46cf35","name":"上挙母","name_kana":"うわごろも","lat":35.071854,"lng":137.154453,"prefecture":23,"lines":[30005],"attr":"cool","postal_code":"471-0876","address":"豊田市金谷町２-９６","next":[9951111,9951110,3000519,3000521,9951112],"voronoi":{"lat":35.079864,"lng":137.152526,"delta_lat":[0,-16332,-15454,27925,3874],"delta_lng":[0,613,72258,-38900,-33745]}},
    {"code":3000114,"left":9951110,"right":9951104,"id":"a8ac09","name":"岡崎公園前","name_kana":"おかざきこうえんまえ","lat":34.954984,"lng":137.153309,"prefecture":23,"lines":[30001],"attr":"cool","postal_code":"444-0921","address":"岡崎市中岡崎町","next":[3000115,3000113,9951102,9951103],"voronoi":{"lat":34.94746,"lng":137.159007,"delta_lat":[0,1560,2076,8589],"delta_lng":[0,-16551,959,18277]}},
    {"code":9951110,"left":9951103,"right":9951111,"id":"be31ea","name":"三河豊田","name_kana":"みかわとよた","lat":35.0554,"lng":137.150934,"prefecture":23,"lines":[99511],"attr":"cool","postal_code":"471-0826","address":"豊田市トヨタ町","next":[9951111,3000521,3000517,3000518,9951109,9951105],"voronoi":{"lat":35.023711,"lng":137.241725,"delta_lat":[0,26175,13846,-200,-15454,-23023],"delta_lng":[0,-102370,1802,11983,72258,41166]}},
    {"code":9951103,"left":9951102,"id":"48c7a7","name":"中岡崎","name_kana":"なかおかざき","lat":34.956231,"lng":137.152723,"prefecture":23,"lines":[99511],"attr":"cool","postal_code":"444-0923","address":"岡崎市八帖町字住環通り","next":[3000115,3000113,9951104,3000114],"voronoi":{"lat":34.951095,"lng":137.143414,"delta_lat":[0,15048,-4110,-2349],"delta_lng":[0,5797,13176,-696]}},
    {"code":9951102,"id":"78ee62","name":"六名","name_kana":"むつな","lat":34.941132,"lng":137.152004,"prefecture":23,"lines":[99511],"attr":"cool","postal_code":"444-0846","address":"岡崎市六名新町","next":[1150219,3000113,3000114,1150220,3000115],"voronoi":{"lat":34.946381,"lng":137.138073,"delta_lat":[0,-19875,10644,10309,1560],"delta_lng":[0,-3753,31931,-7245,-16551]}},
    {"code":9951111,"id":"f4f9fe","name":"新上挙母","name_kana":"しんうわごろも","lat":35.071732,"lng":137.151206,"prefecture":23,"lines":[99511],"attr":"cool","postal_code":"471-0831","address":"豊田市司町１丁目","next":[9951110,3000517,9951112,3000518],"voronoi":{"lat":35.079864,"lng":137.152526,"delta_lat":[0,3351,-19483,-200],"delta_lng":[0,-23576,12206,11983]}},
    {"code":9951104,"left":3000112,"right":9951105,"id":"00a3d6","name":"北岡崎","name_kana":"きたおかざき","lat":34.972301,"lng":137.157736,"prefecture":23,"lines":[99511],"attr":"cool","postal_code":"444-0913","address":"岡崎市葵町","next":[3000115,9951103,3000112,3000113,9951105],"voronoi":{"lat":34.973968,"lng":137.144303,"delta_lat":[0,-7824,-4110,23453,12434],"delta_lng":[0,4908,13176,49845,16949]}},
    {"code":3000112,"left":3000113,"id":"001a97","name":"男川","name_kana":"おとがわ","lat":34.937461,"lng":137.183296,"prefecture":23,"lines":[30001],"attr":"cool","postal_code":"444-0811","address":"岡崎市大西町揚枝","next":[9951105,3000111,9951104,3000113,3000110,1150219],"voronoi":{"lat":34.936514,"lng":137.167924,"delta_lat":[0,48973,12434,24103,-51203,-52858],"delta_lng":[0,44309,16949,38131,-35207,-55606]}},
    {"code":3000113,"id":"d4f80c","name":"東岡崎","name_kana":"ひがしおかざき","lat":34.951904,"lng":137.167333,"prefecture":23,"lines":[30001],"attr":"cool","postal_code":"444-0860","address":"岡崎市明大寺本町４丁目","next":[9951103,1150219,9951102,3000114,3000112,9951104],"voronoi":{"lat":34.936514,"lng":137.167924,"delta_lat":[0,637,10309,12225,2349,23453],"delta_lng":[0,-1672,-7245,2685,696,49845]}},
    {"code":9951105,"id":"d4b6d6","name":"大門(愛知)","name_kana":"だいもん","lat":34.982411,"lng":137.154883,"prefecture":23,"lines":[99511],"attr":"cool","postal_code":"444-2134","address":"岡崎市大樹寺２丁目","next":[3000112,3000521,3000110,9951108,9951104,9951110,9951106,3000115,9951109],"voronoi":{"lat":35.014026,"lng":137.172773,"delta_lat":[0,-1766,-33572,-4721,23953,24103,2361,670,-1344],"delta_lng":[0,-4991,-30203,6725,84878,38131,2569,-3318,-24839]}},
    {"code":3000520,"left":9951113,"right":9951114,"id":"dcb6ff","name":"梅坪","name_kana":"うめつぼ","lat":35.099654,"lng":137.162206,"prefecture":23,"lines":[30005,30006],"attr":"eco","postal_code":"471-0064","address":"豊田市梅坪町７-１２５","next":[9951112,9951113,3000519,3000521],"voronoi":{"lat":35.104782,"lng":137.170695,"delta_lat":[0,-5354,-4768,-11398],"delta_lng":[0,-20296,6379,23539]}},
    {"code":9951113,"left":3000519,"right":3000603,"id":"452a27","name":"愛環梅坪","name_kana":"あいかんうめつぼ","lat":35.105056,"lng":137.160781,"prefecture":23,"lines":[99511],"attr":"heat","postal_code":"471-0071","address":"豊田市東梅坪町一丁目６","next":[3000520,9951114,3000603,3000521,9951112],"voronoi":{"lat":35.104782,"lng":137.170695,"delta_lat":[0,7941,643,-10472,-3466],"delta_lng":[0,-1078,-5917,-21426,8125]}},
    {"code":3000519,"left":9951112,"id":"c32de8","name":"豊田市","name_kana":"とよたし","lat":35.087305,"lng":137.156227,"prefecture":23,"lines":[30005,30006],"attr":"cool","postal_code":"471-0026","address":"豊田市若宮町１-３５","next":[3000520,3000521,3000518,9951112],"voronoi":{"lat":35.083263,"lng":137.180318,"delta_lat":[0,-7260,3874,14784],"delta_lng":[0,6180,-33745,4026]}},
    {"code":9951112,"id":"842717","name":"新豊田","name_kana":"しんとよた","lat":35.088041,"lng":137.153524,"prefecture":23,"lines":[99511],"attr":"cool","postal_code":"471-0034","address":"豊田市小坂本町１丁目","next":[3000520,3000604,9951111,3000603,3000517,3000518,9951113,3000519],"voronoi":{"lat":35.079877,"lng":137.152753,"delta_lat":[0,-13,3351,8308,11402,-30,-3466,-4768],"delta_lng":[0,-226,-23576,-10358,23211,471,8125,6379]}},
    {"code":3000603,"id":"f8abb2","name":"上豊田","name_kana":"かみとよた","lat":35.116168,"lng":137.15535,"prefecture":23,"lines":[30006],"attr":"heat","postal_code":"470-0341","address":"豊田市上原町西山１３５-２","next":[9951114,9951113,3000604,9951112,9951115],"voronoi":{"lat":35.113366,"lng":137.163701,"delta_lat":[0,-10472,30,19855,2737],"delta_lng":[0,-21426,-471,5607,6380]}},
    {"code":9951114,"left":3000521,"right":3000523,"id":"b8b176","name":"四郷","name_kana":"しごう","lat":35.12211,"lng":137.162635,"prefecture":23,"lines":[99511],"attr":"heat","postal_code":"470-0373","address":"豊田市四郷町森前","next":[3000523,3000603,9951113,9951115,3000521],"voronoi":{"lat":35.112723,"lng":137.169617,"delta_lat":[0,643,12150,21368,-32555],"delta_lng":[0,-5917,-9910,16131,1016]}},
    {"code":3000521,"id":"c2efbd","name":"越戸","name_kana":"こしど","lat":35.10769,"lng":137.180178,"prefecture":23,"lines":[30005],"attr":"eco","postal_code":"470-0332","address":"豊田市越戸町梅盛４","next":[3000523,3000109,9951110,9951105,9951113,3000519,3000108,3000518,3000110,9951114,3000520,3000522],"voronoi":{"lat":35.030784,"lng":137.301908,"delta_lat":[0,-281,-6119,670,23023,27925,7260,21520,7941,1606,562,-83352],"delta_lng":[0,-935,-31092,-3318,-41166,-38900,-6180,-9622,-1078,1320,5820,127181]}},
    {"code":3000523,"id":"258d3a","name":"猿投","name_kana":"さなげ","lat":35.122613,"lng":137.178739,"prefecture":23,"lines":[30005],"attr":"eco","postal_code":"470-0372","address":"豊田市井上町５-６２","next":[9951114,9951115,3000521,9951119,1141114,9952410,1141115,3001220,3000522],"voronoi":{"lat":35.229744,"lng":137.269541,"delta_lat":[0,10666,166,-9920,-17107,-66664,-32555,562,87558],"delta_lng":[0,-35874,-11732,-12478,-16749,-22786,1016,5820,116798]}},
    {"code":1141327,"left":1141323,"right":1141332,"id":"ce684a","name":"出馬","name_kana":"いずんま","lat":35.049322,"lng":137.744276,"prefecture":22,"lines":[11413],"attr":"cool","postal_code":"431-3906","address":"浜松市天竜区佐久間町浦川","next":[1141338,1141325,1141326,1141328,1141329],"voronoi":{"lat":35.002552,"lng":137.753457,"delta_lat":[0,169405,32681,-51024,-77415],"delta_lng":[0,-112951,-20241,97016,28163]}},
    {"code":1141323,"left":1141321,"right":1141325,"id":"92b5c8","name":"柿平","name_kana":"かきだいら","lat":34.990587,"lng":137.644048,"prefecture":23,"lines":[11413],"attr":"eco","postal_code":"441-1621","address":"新城市下吉田","next":[1141324,1141320,9950521,1141322,9950522,1141321],"voronoi":{"lat":34.972015,"lng":137.63406,"delta_lat":[0,70907,-124979,-5230,-3156,24072],"delta_lng":[0,-6152,69780,-9289,-6904,-22599]}},
    {"code":1141321,"left":1141320,"right":1141322,"id":"600479","name":"湯谷温泉","name_kana":"ゆやおんせん","lat":34.970516,"lng":137.613026,"prefecture":23,"lines":[11413],"attr":"cool","postal_code":"441-1631","address":"新城市豊岡","next":[1141322,1141316,1141320,1141323],"voronoi":{"lat":34.989305,"lng":137.556418,"delta_lat":[0,23613,-40902,-38386],"delta_lng":[0,-14809,92450,24836]}},
    {"code":1141320,"left":1141319,"id":"839edd","name":"三河大野","name_kana":"みかわおおの","lat":34.952038,"lng":137.602987,"prefecture":23,"lines":[11413],"attr":"cool","postal_code":"441-1632","address":"新城市富栄","next":[9950525,1141316,9950524,1141323,9950522,1141321,1141319],"voronoi":{"lat":34.88954,"lng":137.650769,"delta_lat":[0,14078,5940,24072,55675,-3848,-103226],"delta_lng":[0,24345,6380,-22599,-102477,1550,76510]}},
    {"code":1141319,"id":"377bd1","name":"本長篠","name_kana":"ほんながしの","lat":34.932664,"lng":137.576848,"prefecture":23,"lines":[11413],"attr":"cool","postal_code":"441-1634","address":"新城市長篠","next":[9950526,1141316,1141318,9950525,9950527,1141320],"voronoi":{"lat":34.985456,"lng":137.557968,"delta_lat":[0,-39326,-76750,7028,4419,1403],"delta_lng":[0,3490,43233,20504,7383,1900]}},
    {"code":1141322,"id":"8c4975","name":"三河槙原","name_kana":"みかわまきはら","lat":34.988589,"lng":137.621022,"prefecture":23,"lines":[11413],"attr":"eco","postal_code":"441-1631","address":"愛知県新城市豊岡字ドウデイ2","next":[9952410,1141321,1141324,1141316,1141323,1141325],"voronoi":{"lat":35.042922,"lng":137.627907,"delta_lat":[0,-70907,40902,101612,87342,-8527],"delta_lng":[0,6152,-92450,-82066,118710,3679]}},