{
  "name":"segment14",
  "root":1161108,
  "east":134.150461,
  "west":131.97669,
  "south":34.3948,
  "north":34.580213,
  "station_size":145,
  "node_list":[
    {"code":1161108,"left":9970907,"right":1161009,"id":"33880d","name":"八本松","name_kana":"はちほんまつ","lat":34.445466,"lng":132.688048,"prefecture":34,"lines":[11611],"attr":"cool","postal_code":"739-0141","address":"東広島市八本松町飯田","next":[1161109,1161131,1171612,1171435,1171436,1171434,100311,9970802],"voronoi":{"lat":34.346923,"lng":132.664709,"delta_lat":[0,1876,30582,132792,-6166,-19128,-21966,-24824],"delta_lng":[0,5407,23972,23814,-22492,-40364,-19013,4727]}},
    {"code":9970907,"left":9970903,"right":1171709,"id":"7bb208","name":"祇園新橋北","name_kana":"ぎおんしんばしきた","lat":34.435148,"lng":132.47075,"prefecture":34,"lines":[99709],"attr":"heat","postal_code":"731-0113","address":"広島市安佐南区西原４-４３-２８","next":[1171705,9970906,1171444,9970908],"voronoi":{"lat":34.428907,"lng":132.482151,"delta_lat":[0,3192,9197,-6295],"delta_lng":[0,-18186,4594,12687]}},
    {"code":9970903,"left":9971113,"right":9971705,"id":"0d99a7","name":"城北","name_kana":"じょうほく","lat":34.405407,"lng":132.458914,"prefecture":34,"lines":[99709],"attr":"heat","postal_code":"730-0005","address":"広島市中区西白島町２５-８０","next":[1161130,9970902,9971502,9971705,9971703,9971501,9971503,9971111,1161116],"voronoi":{"lat":34.405104,"lng":132.462232,"delta_lat":[0,-2788,-1350,432,458,2454,2967,2954,225],"delta_lng":[0,-391,-1161,-5399,-847,-295,477,1440,127]}},
    {"code":9971113,"left":9971112,"right":9971502,"id":"b08eac","name":"十日市町","name_kana":"とうかいちまち","lat":34.397438,"lng":132.447138,"prefecture":34,"lines":[99711,99712,99714,99715,99716],"attr":"cool","postal_code":"730-0805","address":"広島市中区十日市町１","next":[9971112,9971114,9971504,9971115,9971116],"voronoi":{"lat":34.396645,"lng":132.44503,"delta_lat":[0,-1094,3350,1788,-2082],"delta_lng":[0,3539,496,-6685,704]}},
    {"code":9971112,"left":9971117,"right":9971111,"id":"c76b9e","name":"本川町","name_kana":"ほんかわちょう","lat":34.396942,"lng":132.450485,"prefecture":34,"lines":[99711,99712,99714,99715],"attr":"cool","postal_code":"730-0802","address":"広島市中区本川町１","next":[9971503,9971011,9971113,9971012,9971111,9971114,9971504],"voronoi":{"lat":34.40117,"lng":132.453249,"delta_lat":[0,-9308,-223,-153,4064,3350,2232],"delta_lng":[0,-2112,-224,-254,-2091,496,3960]}},
    {"code":9971117,"left":9971116,"right":9971120,"id":"045a08","name":"観音町(広島)","original_name":"観音町","name_kana":"かんおんまち","lat":34.395534,"lng":132.438405,"prefecture":34,"lines":[99711,99712],"attr":"heat","postal_code":"733-0031","address":"広島市西区観音町","next":[1171703,9971119,9971503,1161117,9971504,9971116,9971118],"voronoi":{"lat":34.396356,"lng":132.436018,"delta_lat":[0,8468,4449,-193,-2818,-3304,-9731],"delta_lng":[0,-1031,981,467,2265,1902,-1428]}},
    {"code":9971116,"left":9971119,"id":"b11c25","name":"天満町","name_kana":"てんまちょう","lat":34.395216,"lng":132.440572,"prefecture":34,"lines":[99711,99712],"attr":"cool","postal_code":"733-0031","address":"広島市西区観音町","next":[9971115,9971504,9971113,9971118,9971415,9971117],"voronoi":{"lat":34.393227,"lng":132.439173,"delta_lat":[0,-2903,1185,7097,2082,2270],"delta_lng":[0,969,1632,1309,-704,-1778]}},
    {"code":9971119,"id":"3445d8","name":"福島町","name_kana":"ふくしまちょう","lat":34.394985,"lng":132.433898,"prefecture":34,"lines":[99711,99712],"attr":"heat","postal_code":"733-0024","address":"広島市西区福島町２","next":[9971117,9971418,1161117,9971120,9971118,9971121],"voronoi":{"lat":34.388769,"lng":132.42811,"delta_lat":[0,10900,5156,-8468,-10295,-1337],"delta_lng":[0,4396,2480,1031,-3506,-3495]}},
    {"code":9971120,"id":"269fb2","name":"広電西広島（己斐）","name_kana":"ひろでんにしひろしま(こい)","lat":34.397261,"lng":132.428255,"prefecture":34,"lines":[99711,99712],"attr":"eco","postal_code":"733-0812","address":"広島市西区己斐本町一丁目","next":[9971121,1161117,9971119],"voronoi":{"lat":34.395409,"lng":132.423696,"delta_lat":[0,-6641,10900],"delta_lng":[0,4415,4396]}},
    {"code":9971111,"left":9971009,"right":9970902,"id":"9ca2ba","name":"原爆ドーム前","name_kana":"げんばくどーむまえ","lat":34.396163,"lng":132.453918,"prefecture":34,"lines":[99711,99712,99714,99715],"attr":"cool","postal_code":"730-0051","address":"広島市中区大手町１","next":[9971503,9970902,9971112,9970901,9971110,9971011,9970903],"voronoi":{"lat":34.397702,"lng":132.455881,"delta_lat":[0,-3321,-1177,-1342,9308,686,-458],"delta_lng":[0,-772,-1062,-2910,2112,1185,847]}},
    {"code":9971009,"left":9971110,"id":"db8f16","name":"紙屋町東","name_kana":"かみやちょうひがし","lat":34.395101,"lng":132.458167,"prefecture":34,"lines":[99710,99711,99714],"attr":"cool","postal_code":"730-0031","address":"広島市中区紙屋町","next":[9971110,9970901,9971008,9970902],"voronoi":{"lat":34.393156,"lng":132.459189,"delta_lat":[0,1266,1575,-71],"delta_lng":[0,-1875,464,1956]}},
    {"code":9971110,"id":"27ea6b","name":"紙屋町西","name_kana":"かみやちょうにし","lat":34.395455,"lng":132.456965,"prefecture":34,"lines":[99711,99712,99714,99715],"attr":"cool","postal_code":"730-0031","address":"広島市中区紙屋町","next":[9971009,9970902,9971111,9970901],"voronoi":{"lat":34.395997,"lng":132.457778,"delta_lat":[0,1705,-3321,41],"delta_lng":[0,-1896,-772,2204]}},
    {"code":9970902,"id":"90fc64","name":"県庁前(広島)","original_name":"県庁前","name_kana":"けんちょうまえ","lat":34.396863,"lng":132.458231,"prefecture":34,"lines":[99709],"attr":"heat","postal_code":"730-0011","address":"広島市中区基町１０-９０","next":[9970903,9971111,9971702,9971009,9971110,9971703,9971008],"voronoi":{"lat":34.395926,"lng":132.459734,"delta_lat":[0,71,1705,3696,-432,-1045,-2048],"delta_lng":[0,-1956,-1896,-600,5399,443,302]}},
    {"code":9971502,"left":9971503,"right":1161116,"id":"0af1ff","name":"横川一丁目","name_kana":"よこがわいっちょうめ","lat":34.406848,"lng":132.449949,"prefecture":34,"lines":[99715,99716],"attr":"eco","postal_code":"733-0011","address":"広島市西区横川町１","next":[9971503,9970903,1161116,1171703,9971501],"voronoi":{"lat":34.409409,"lng":132.444239,"delta_lat":[0,598,-911,-4785,2967],"delta_lng":[0,-3969,-3724,17594,477]}},
    {"code":9971503,"left":9971504,"right":1171703,"id":"ef136d","name":"別院前","name_kana":"べついんまえ","lat":34.404245,"lng":132.449241,"prefecture":34,"lines":[99715,99716],"attr":"eco","postal_code":"730-0803","address":"広島市中区広瀬北町","next":[9971111,9971112,9971504,9971502,1171703,9971117,9970903],"voronoi":{"lat":34.40431,"lng":132.454139,"delta_lat":[0,4785,-15,-2818,-5130,38,686],"delta_lng":[0,-17594,-111,2265,14325,225,1185]}},
    {"code":9971504,"left":1161117,"id":"62a4fe","name":"寺町","name_kana":"てらまち","lat":34.401129,"lng":132.448125,"prefecture":34,"lines":[99715,99716],"attr":"eco","postal_code":"730-0804","address":"広島市中区広瀬町","next":[9971503,9971113,9971116,9971112,9971117],"voronoi":{"lat":34.406263,"lng":132.4387,"delta_lat":[0,-5130,-2232,1788,2270],"delta_lng":[0,14325,-3960,-6685,-1778]}},
    {"code":1161117,"id":"709bdf","name":"西広島","name_kana":"にしひろしま","lat":34.397832,"lng":132.427979,"prefecture":34,"lines":[11611],"attr":"heat","postal_code":"733-0812","address":"広島市西区己斐本町１丁目","next":[9971120,9971121,9970921,9971119,9971117,1171703],"voronoi":{"lat":34.42282,"lng":132.4224,"delta_lat":[0,-9294,-18117,4259,5156,4449],"delta_lng":[0,-12512,13807,8811,2480,981]}},
    {"code":1171703,"id":"81b6dc","name":"三滝","name_kana":"みたき","lat":34.417278,"lng":132.447397,"prefecture":34,"lines":[11717],"attr":"heat","postal_code":"733-0802","address":"広島市西区三滝本町２丁目","next":[9971503,9971117,1171704,9970905,9971502,9970921,9970920,1161117,1161116],"voronoi":{"lat":34.41949,"lng":132.456009,"delta_lat":[0,19922,-10937,-5655,-13547,-193,15,911,6754],"delta_lng":[0,-25527,-5918,-2164,13567,467,111,3724,15718]}},
    {"code":1161116,"left":9971501,"right":1171704,"id":"e557b0","name":"横川(広島)","original_name":"横川","name_kana":"よこがわ","lat":34.410173,"lng":132.45045,"prefecture":34,"lines":[11611,11717],"attr":"heat","postal_code":"733-0011","address":"広島市西区横川町３丁目","next":[9970904,9971502,1161130,9971501,9970905,1171703,9970903],"voronoi":{"lat":34.410231,"lng":132.456057,"delta_lat":[0,-823,598,6754,-321,-4326,-1657],"delta_lng":[0,-11818,-3969,15718,159,308,-271]}},
    {"code":9971501,"id":"3be35a","name":"横川駅","name_kana":"よこがわえき","lat":34.409512,"lng":132.450496,"prefecture":34,"lines":[99715,99716],"attr":"eco","postal_code":"733-0011","address":"広島市西区横川町３","next":[9970903,1161116,9971502],"voronoi":{"lat":34.410231,"lng":132.456057,"delta_lat":[0,-823,-2131],"delta_lng":[0,-11818,10378]}},
    {"code":1171704,"id":"577b0e","name":"安芸長束","name_kana":"あきながつか","lat":34.428382,"lng":132.456063,"prefecture":34,"lines":[11717],"attr":"heat","postal_code":"731-0135","address":"広島市安佐南区長束４丁目","next":[9970905,1171703,9970918,9970906,9970920,1171705,9970916],"voronoi":{"lat":34.44513,"lng":132.433824,"delta_lat":[0,-3568,-2149,-19922,4778,7357,15120],"delta_lng":[0,-2815,-527,25527,6302,811,-26480]}},
    {"code":9971705,"left":100312,"right":9970803,"id":"82c7f4","name":"白島(広島電鉄)","original_name":"白島","name_kana":"はくしま","lat":34.404484,"lng":132.465506,"prefecture":34,"lines":[99717],"attr":"cool","postal_code":"730-0012","address":"広島市中区東白島町","next":[9970903,9970904,9971704,9970905,100312,9971703,1161130],"voronoi":{"lat":34.411347,"lng":132.472391,"delta_lat":[0,414,-6202,-3245,2,2788,3208],"delta_lng":[0,5692,-4327,-11871,-43,391,3126]}},
    {"code":100312,"left":9971703,"right":1171445,"id":"1f0cee","name":"広島","name_kana":"ひろしま","lat":34.397446,"lng":132.475593,"prefecture":34,"lines":[1003,11611,11714,11716,11717],"attr":"heat","postal_code":"732-0822","address":"広島市南区松原町","next":[9971703,9970906,9971002,1171445,9971001,9971005,9971704,9971705,9970905],"voronoi":{"lat":34.414921,"lng":132.485284,"delta_lat":[0,-16926,-1465,1187,172,1611,6059,6202,2626],"delta_lng":[0,1429,-9154,-7184,-96,383,3093,4327,4698]}},
    {"code":9971703,"left":9971001,"right":9971704,"id":"615146","name":"縮景園前","name_kana":"しゅっけいえんまえ","lat":34.399881,"lng":132.465334,"prefecture":34,"lines":[99717],"attr":"eco","postal_code":"730-0012","address":"広島市中区上八丁堀","next":[100312,9971704,9970903,9970902,9971702,9971705,9971005],"voronoi":{"lat":34.399501,"lng":132.470662,"delta_lat":[0,2814,2,-1350,-1045,-2296,264],"delta_lng":[0,-8778,-43,-1161,443,8454,702]}},
    {"code":9971001,"left":9971702,"id":"da83b7","name":"広島駅","name_kana":"ひろしまえき","lat":34.396296,"lng":132.475403,"prefecture":34,"lines":[99710,99711,99713,99714],"attr":"heat","postal_code":"732-0822","address":"広島市南区松原町","next":[9971004,100312,9971002,9971003,9971005],"voronoi":{"lat":34.395034,"lng":132.472956,"delta_lat":[0,-118,1615,1187,-238],"delta_lng":[0,1090,3514,-7184,100]}},
    {"code":9971702,"id":"2a6c37","name":"女学院前","name_kana":"じょがくいんまえ","lat":34.397827,"lng":132.464776,"prefecture":34,"lines":[99717],"attr":"eco","postal_code":"730-0012","address":"広島市中区上八丁堀","next":[9971005,9970902,9971008,9971007,9971703,9971006],"voronoi":{"lat":34.397625,"lng":132.469577,"delta_lat":[0,2296,-2048,-1525,-742,128],"delta_lng":[0,-8454,302,1273,2121,1887]}},
    {"code":9971704,"id":"1903bf","name":"家庭裁判所前","name_kana":"かていさいばんしょまえ","lat":34.402289,"lng":132.466106,"prefecture":34,"lines":[99717],"attr":"cool","postal_code":"730-0012","address":"広島市中区上八丁堀","next":[9971703,9971705,100312],"voronoi":{"lat":34.402315,"lng":132.461885,"delta_lat":[0,-2814,6059],"delta_lng":[0,8778,3093]}},
    {"code":1171445,"left":9971002,"right":1161110,"id":"a60b9b","name":"矢賀","name_kana":"やが","lat":34.399319,"lng":132.497769,"prefecture":34,"lines":[11714],"attr":"heat","postal_code":"732-0042","address":"広島市東区矢賀５丁目","next":[1161112,100312,1161114,9970906,1161111,1171444,9971002],"voronoi":{"lat":34.396071,"lng":132.522769,"delta_lat":[0,11150,18215,-7783,-2731,-16926,-3967],"delta_lng":[0,9263,2281,-46380,-2649,1429,778]}},
    {"code":9971002,"id":"99731b","name":"猿猴橋町","name_kana":"えんこうばしちょう","lat":34.395047,"lng":132.475977,"prefecture":34,"lines":[99710,99711,99713,99714],"attr":"cool","postal_code":"732-0823","address":"広島市南区猿猴橋町","next":[100312,9971003,1171445,9971001,1161114],"voronoi":{"lat":34.38869,"lng":132.486275,"delta_lat":[0,6225,1615,1465,-3967],"delta_lng":[0,-12230,3514,9154,778]}},
    {"code":1161110,"id":"ad1d56","name":"中野東","name_kana":"なかのひがし","lat":34.403275,"lng":132.578753,"prefecture":34,"lines":[11611],"attr":"cool","postal_code":"739-0321","address":"広島市安芸区中野５丁目","next":[1171616,1161109,1171617,9970801,1161111,1171618,9970803,1171612],"voronoi":{"lat":34.410848,"lng":132.589606,"delta_lat":[0,6552,15731,-108677,276,3207,1544,13105],"delta_lng":[0,-7123,-39723,85469,2195,15336,5432,9454]}},
    {"code":9970803,"left":9970905,"right":9970801,"id":"e3d579","name":"みどり中央","name_kana":"みどりちゅうおう","lat":34.430248,"lng":132.589435,"prefecture":34,"lines":[99708],"attr":"heat","postal_code":"739-0313","address":"広島市安芸区瀬野西四丁目","next":[1171438,9970801,9970802,1161111,1171439,1161110],"voronoi":{"lat":34.433131,"lng":132.542761,"delta_lat":[0,219,25330,4175,-39465,-5990],"delta_lng":[0,-328,43131,22570,-18656,-6994]}},
    {"code":9970905,"left":9970904,"right":9970906,"id":"4a7e80","name":"牛田(広島)","original_name":"牛田","name_kana":"うした","lat":34.417142,"lng":132.464585,"prefecture":34,"lines":[99709],"attr":"heat","postal_code":"732-0068","address":"広島市東区牛田新町２-４-４４","next":[1171704,9970906,9971705,1161116,1171703,9970904,100312],"voronoi":{"lat":34.411762,"lng":132.478083,"delta_lat":[0,-414,5092,321,2730,4778,-9881],"delta_lng":[0,-5692,-16244,-159,22,6302,20469]}},
    {"code":9970904,"left":1161130,"id":"bd958b","name":"白島(広島高速交通)","original_name":"白島","name_kana":"はくしま","lat":34.411045,"lng":132.462674,"prefecture":34,"lines":[99709],"attr":"heat","postal_code":"730-0001","address":"広島県広島市中区白島北町2","next":[1161116,1161130,9971705,9970905],"voronoi":{"lat":34.416439,"lng":132.456146,"delta_lat":[0,-4326,-3801,3035],"delta_lng":[0,308,8904,7032]}},
    {"code":1161130,"id":"454a78","name":"新白島","name_kana":"しんはくしま","lat":34.408361,"lng":132.461528,"prefecture":34,"lines":[11611,11717,99709],"attr":"cool","postal_code":"730-0005","address":"広島市中区西白島町154-1","next":[9970903,9970904,1161116,9971705],"voronoi":{"lat":34.412114,"lng":132.456455,"delta_lat":[0,-1657,-5352,3208],"delta_lng":[0,-271,6049,3126]}},
    {"code":9970906,"id":"242ab5","name":"不動院前","name_kana":"ふどういんまえ","lat":34.426921,"lng":132.469306,"prefecture":34,"lines":[99709],"attr":"heat","postal_code":"732-0068","address":"広島市東区牛田新町３-３-１２","next":[100312,1171445,9970907,1171444,1171705,9970905,1171704],"voronoi":{"lat":34.424269,"lng":132.462311,"delta_lat":[0,-9881,534,2731,11254,3192,-473],"delta_lng":[0,20469,2504,2649,-5782,-18186,-843]}},
    {"code":9970801,"left":1161109,"right":9970802,"id":"f5403f","name":"みどり口","name_kana":"みどりぐち","lat":34.422294,"lng":132.596248,"prefecture":34,"lines":[99708],"attr":"heat","postal_code":"739-0311","address":"広島市安芸区瀬野一丁目","next":[9970802,9970803,1161109,1161110],"voronoi":{"lat":34.417399,"lng":132.582484,"delta_lat":[0,5990,2476,-15018],"delta_lng":[0,6994,9285,-9156]}},
    {"code":1161109,"id":"1b4d08","name":"瀬野","name_kana":"せの","lat":34.421994,"lng":132.59674,"prefecture":34,"lines":[11611],"attr":"cool","postal_code":"739-0311","address":"広島市安芸区瀬野１丁目","next":[1161110,1161108,1171612,9970801,9970802],"voronoi":{"lat":34.425865,"lng":132.598763,"delta_lat":[0,-15018,-68262,4338,93166],"delta_lng":[0,-9156,71040,4062,-23949]}},
    {"code":9970802,"id":"264750","name":"みどり中街","name_kana":"みどりなかまち","lat":34.42771,"lng":132.594804,"prefecture":34,"lines":[99708],"attr":"heat","postal_code":"739-0313","address":"広島市安芸区瀬野西一丁目","next":[9970801,1171436,9970803,1161109,1171438,1161108],"voronoi":{"lat":34.464913,"lng":132.636032,"delta_lat":[0,2097,-4156,-39465,2476,14224],"delta_lng":[0,-12403,-15496,-18656,9285,41997]}},
    {"code":1171709,"left":1171707,"right":1171711,"id":"15973a","name":"七軒茶屋","name_kana":"しちけんぢゃや","lat":34.472609,"lng":132.481156,"prefecture":34,"lines":[11717],"attr":"cool","postal_code":"731-0103","address":"広島市安佐南区緑井７丁目","next":[9970912,1171708,9970913,1171710,1171715,1171443],"voronoi":{"lat":34.50013,"lng":132.472798,"delta_lat":[0,1056,-10790,-12402,-14681,8702],"delta_lng":[0,-3199,-984,2160,14252,5638]}},
    {"code":1171707,"left":1171706,"right":9970914,"id":"f9226d","name":"大町(広島)","original_name":"大町","name_kana":"おおまち","lat":34.461136,"lng":132.470655,"prefecture":34,"lines":[11717,99709],"attr":"heat","postal_code":"731-0124","address":"広島市安佐南区大町東２丁目","next":[1171706,9970910,1171708,9970912],"voronoi":{"lat":34.458256,"lng":132.459314,"delta_lat":[0,-2590,7014,4935],"delta_lng":[0,10718,5188,-6005]}},
    {"code":1171706,"left":9970920,"right":9970909,"id":"1e5f51","name":"古市橋","name_kana":"ふるいちばし","lat":34.450516,"lng":132.468089,"prefecture":34,"lines":[11717],"attr":"heat","postal_code":"731-0123","address":"広島市安佐南区古市３丁目","next":[1171707,9970909,9970910,1171705,9970908,9970914,9970912,9970913],"voronoi":{"lat":34.458256,"lng":132.459314,"delta_lat":[0,-2590,-2068,-5260,-4763,10787,498,185],"delta_lng":[0,10718,2173,794,-5157,-20900,535,305]}},
    {"code":9970920,"left":1171705,"right":9970919,"id":"877928","name":"大塚(広島)","original_name":"大塚","name_kana":"おおづか","lat":34.441466,"lng":132.402702,"prefecture":34,"lines":[99709],"attr":"eco","postal_code":"731-3167","address":"広島市安佐南区大塚西三丁目21","next":[9970918,9970921,9970919,1171704,1171703],"voronoi":{"lat":34.428476,"lng":132.424564,"delta_lat":[0,27050,-10139,-3825,-2149],"delta_lng":[0,-63002,60972,8475,-527]}},
    {"code":1171705,"left":9970921,"id":"684ff1","name":"下祇園","name_kana":"しもぎおん","lat":34.439354,"lng":132.462328,"prefecture":34,"lines":[11717],"attr":"heat","postal_code":"731-0138","address":"広島市安佐南区祇園３丁目","next":[9970907,9970915,9970914,9970906,1171706,9970908,9970916,1171704],"voronoi":{"lat":34.432099,"lng":132.463966,"delta_lat":[0,9197,2280,10787,-1684,-1373,-4560,-15120],"delta_lng":[0,4594,-717,-20900,-3469,-2027,-4804,26480]}},
    {"code":9970921,"id":"738542","name":"広域公園前","name_kana":"こういきこうえんまえ","lat":34.43538,"lng":132.400089,"prefecture":34,"lines":[99709],"attr":"eco","postal_code":"731-3167","address":"広島市安佐南区大塚西４-４-８","next":[9971124,9971132,1161118,1161119,9971122,9970920,1161117,9971123,9971128,9970919,9971131,9971121,9971130,1171703],"voronoi":{"lat":34.455525,"lng":132.361562,"delta_lat":[0,21933,-47962,-12467,-1637,-4005,-1974,-2231,638,1858,1749,2099,9294,5655],"delta_lng":[0,-89231,59858,18429,2982,8486,5197,16337,8974,8072,4692,4530,12512,2164]}},
    {"code":9970919,"id":"87c607","name":"伴中央","name_kana":"ともちゅうおう","lat":34.455514,"lng":132.405038,"prefecture":34,"lines":[99709],"attr":"eco","postal_code":"731-3161","address":"広島市安佐南区沼田町大字伴４２１９-１１","next":[9971134,9971132,9970918,1170141,1161120,9970921,9970920,1170138,1161121,1170140],"voronoi":{"lat":34.612079,"lng":132.17033,"delta_lat":[0,-40438,-16554,-4065,-45863,-27701,-21933,-10139,206506,-34849],"delta_lng":[0,-30632,21890,5544,64566,40634,89231,60972,-207128,-40676]}},
    {"code":9970909,"left":9970908,"right":9970910,"id":"d0564c","name":"中筋","name_kana":"なかすじ","lat":34.451869,"lng":132.477049,"prefecture":34,"lines":[99709],"attr":"heat","postal_code":"731-0122","address":"広島市安佐南区中筋２-６-１７","next":[1171706,1171443,9970910,1171444,9970908],"voronoi":{"lat":34.451333,"lng":132.490219,"delta_lat":[0,6744,-4479,-5260,-3016],"delta_lng":[0,-4377,-13636,794,11429]}},
    {"code":9970908,"id":"e875eb","name":"西原(広島)","original_name":"西原","name_kana":"にしはら","lat":34.44327,"lng":132.47478,"prefecture":34,"lines":[99709],"attr":"heat","postal_code":"731-0113","address":"広島市安佐南区西原８-３４-１","next":[1171706,1171705,9970909,9970907,1171444],"voronoi":{"lat":34.435001,"lng":132.481246,"delta_lat":[0,6295,2280,4763,-3016],"delta_lng":[0,-12687,-717,5157,11429]}},
    {"code":9970910,"id":"59085f","name":"古市(広島)","original_name":"古市","name_kana":"ふるいち","lat":34.457863,"lng":132.47508,"prefecture":34,"lines":[99709],"attr":"heat","postal_code":"731-0121","address":"広島市安佐南区中須１-１-１６","next":[1171707,1171708,1171706,9970909,1171443],"voronoi":{"lat":34.453598,"lng":132.472206,"delta_lat":[0,2068,7014,-765,-3838],"delta_lng":[0,-2173,5188,9525,1096]}},
    {"code":9970914,"left":9970916,"right":9970912,"id":"17ffac","name":"上安","name_kana":"かみやす","lat":34.475735,"lng":132.444662,"prefecture":34,"lines":[99709],"attr":"cool","postal_code":"731-0154","address":"広島市安佐南区上安２-３０-１０","next":[1171705,1171715,1171706,9970915,9970913],"voronoi":{"lat":34.53941,"lng":132.435501,"delta_lat":[0,-86732,1684,498,64421],"delta_lng":[0,7972,3469,535,4339]}},
    {"code":9970916,"left":9970917,"right":9970915,"id":"c15f95","name":"長楽寺","name_kana":"ちょうらくじ","lat":34.472782,"lng":132.4306,"prefecture":34,"lines":[99709],"attr":"cool","postal_code":"731-0143","address":"広島市安佐南区長楽寺１-２８-３７","next":[9970918,9970917,9970915,1171705,1171715,1171704],"voronoi":{"lat":34.451306,"lng":132.441447,"delta_lat":[0,140194,7046,-146508,-6908,1616],"delta_lng":[0,-43916,-4800,37334,3760,2818]}},
    {"code":9970917,"left":9970918,"id":"8b4857","name":"伴","name_kana":"とも","lat":34.469996,"lng":132.419667,"prefecture":34,"lines":[99709],"attr":"cool","postal_code":"731-3161","address":"広島市安佐南区沼田町大字伴８６６９-４","next":[1171715,1170705,9970916,1170138,1170137,9970918,1170706],"voronoi":{"lat":34.598546,"lng":132.392731,"delta_lat":[0,-146508,209103,20424,13855,9547,450],"delta_lng":[0,37334,-204270,22093,18106,54316,6157]}},
    {"code":9970918,"id":"176e70","name":"大原(広島)","original_name":"大原","name_kana":"おおはら","lat":34.462852,"lng":132.412354,"prefecture":34,"lines":[99709],"attr":"eco","postal_code":"731-3161","address":"広島市安佐南区沼田町大字伴５８１５-１１","next":[9970916,1170138,9970920,9970919,1171704,9970917],"voronoi":{"lat":34.44513,"lng":132.433824,"delta_lat":[0,-3568,3825,206506,9248,-209103],"delta_lng":[0,-2815,-8475,-207128,10388,204270]}},
    {"code":9970915,"id":"3e5bb6","name":"高取","name_kana":"たかとり","lat":34.475132,"lng":132.438102,"prefecture":34,"lines":[99709],"attr":"cool","postal_code":"731-0144","address":"広島市安佐南区高取北１-４-２８","next":[1171705,9970916,1171715,9970914],"voronoi":{"lat":34.53941,"lng":132.435501,"delta_lat":[0,52089,-140194,1373],"delta_lng":[0,-37971,43916,2027]}},
    {"code":9970912,"left":1171708,"right":9970913,"id":"85c50d","name":"毘沙門台","name_kana":"びしゃもんだい","lat":34.469417,"lng":132.462827,"prefecture":34,"lines":[99709],"attr":"cool","postal_code":"731-0152","address":"広島市安佐南区毘沙門台１-７-４５","next":[1171708,1171709,1171707,9970913,1171706],"voronoi":{"lat":34.467615,"lng":132.469215,"delta_lat":[0,10379,12402,-35351,3211],"delta_lng":[0,1560,-2160,-20833,11532]}},
    {"code":1171708,"id":"eb31b0","name":"緑井","name_kana":"みどりい","lat":34.467459,"lng":132.475851,"prefecture":34,"lines":[11717],"attr":"cool","postal_code":"731-0103","address":"広島市安佐南区緑井４丁目","next":[9970912,1171707,9970910,1171709,1171443],"voronoi":{"lat":34.461915,"lng":132.484746,"delta_lat":[0,765,4935,10379,-14681],"delta_lng":[0,-9525,-6005,1560,14252]}},
    {"code":9970913,"id":"6d0bcb","name":"安東","name_kana":"やすひがし","lat":34.475169,"lng":132.453067,"prefecture":34,"lines":[99709],"attr":"cool","postal_code":"731-0153","address":"広島市安佐南区安東２-１０-１","next":[1171715,1171709,9970912,9970914,1171706],"voronoi":{"lat":34.45486,"lng":132.447478,"delta_lat":[0,64421,-18095,-10790,-35351],"delta_lng":[0,4339,17783,-984,-20833]}},
    {"code":1171711,"left":1171441,"right":1171437,"id":"26c4ac","name":"上八木","name_kana":"かみやぎ","lat":34.489805,"lng":132.506037,"prefecture":34,"lines":[11717],"attr":"cool","postal_code":"731-0101","address":"広島市安佐南区八木８丁目","next":[1171710,1171441,1171442,1171712,1171715],"voronoi":{"lat":34.49933,"lng":132.48958,"delta_lat":[0,-14891,3477,3206,11441],"delta_lng":[0,11199,14510,193,-17143]}},
    {"code":1171441,"left":1171710,"right":1171440,"id":"26e0a3","name":"下深川","name_kana":"しもふかわ","lat":34.488683,"lng":132.524702,"prefecture":34,"lines":[11714],"attr":"heat","postal_code":"739-1751","address":"広島市安佐北区深川１丁目","next":[1171711,1171713,1171442,1171712,1171440,1171437],"voronoi":{"lat":34.474316,"lng":132.520667,"delta_lat":[0,13601,3206,19775,9613,-7101],"delta_lng":[0,-5378,193,19844,16089,1336]}},
    {"code":1171710,"left":1171443,"right":1171442,"id":"80b7e0","name":"梅林(広島)","original_name":"梅林","name_kana":"ばいりん","lat":34.480877,"lng":132.494166,"prefecture":34,"lines":[11717],"attr":"cool","postal_code":"731-0101","address":"広島市安佐南区八木３丁目","next":[1171711,1171715,1171442,1171443,1171709],"voronoi":{"lat":34.50013,"lng":132.472798,"delta_lat":[0,-800,-14891,-11828,-596],"delta_lng":[0,16782,11199,1001,-11115]}},
    {"code":1171443,"left":1171444,"id":"a4e10a","name":"安芸矢口","name_kana":"あきやぐち","lat":34.463579,"lng":132.495094,"prefecture":34,"lines":[11714],"attr":"heat","postal_code":"739-1734","address":"広島市安佐北区口田１丁目","next":[1171442,9970909,1171708,9970910,1171710,1171444,1171440,1171709],"voronoi":{"lat":34.472612,"lng":132.501781,"delta_lat":[0,-12730,-14041,5493,6744,3838,1398,8702],"delta_lng":[0,18353,6320,-36235,-4377,-1096,282,5638]}},
    {"code":1171444,"id":"8b42a0","name":"戸坂","name_kana":"へさか","lat":34.438193,"lng":132.491246,"prefecture":34,"lines":[11714],"attr":"heat","postal_code":"732-0001","address":"広島市東区戸坂惣田１丁目","next":[1161111,9970906,1171445,9970907,9970909,1171440,1171443,9970908],"voronoi":{"lat":34.435001,"lng":132.481246,"delta_lat":[0,-6094,-11254,7783,7616,12789,5493,-6011],"delta_lng":[0,905,5782,46380,4977,-12837,-36235,-5790]}},
    {"code":1171442,"id":"c26f2e","name":"玖村","name_kana":"くむら","lat":34.482039,"lng":132.507898,"prefecture":34,"lines":[11714],"attr":"heat","postal_code":"739-1731","address":"広島市安佐北区落合２丁目","next":[1171443,1171710,1171440,1171711,1171441],"voronoi":{"lat":34.487916,"lng":132.51529,"delta_lat":[0,-3477,-11828,-12730,14434],"delta_lng":[0,-14510,1001,18353,534]}},
    {"code":1171440,"left":1171439,"right":1171438,"id":"134625","name":"中深川","name_kana":"なかふかわ","lat":34.481076,"lng":132.533971,"prefecture":34,"lines":[11714],"attr":"heat","postal_code":"739-1751","address":"広島市安佐北区深川５丁目","next":[1171438,1171444,1161111,1171442,1171439,1171437,1171443,1171441],"voronoi":{"lat":34.512981,"lng":132.552906,"delta_lat":[0,-5301,-74348,-280,12789,14041,14434,39094],"delta_lng":[0,652,-13407,-861,-12837,-6320,534,32084]}},
    {"code":1171439,"id":"029ea8","name":"上深川","name_kana":"かみふかわ","lat":34.47591,"lng":132.562619,"prefecture":34,"lines":[11714],"attr":"heat","postal_code":"739-1752","address":"広島市安佐北区上深川町","next":[1171438,1161111,1171440,9970803],"voronoi":{"lat":34.43335,"lng":132.542432,"delta_lat":[0,-18,74348,-49000],"delta_lng":[0,-2281,13407,32005]}},
    {"code":1171438,"id":"3d4379","name":"狩留家","name_kana":"かるが","lat":34.486614,"lng":132.579007,"prefecture":34,"lines":[11714],"attr":"heat","postal_code":"739-1753","address":"広島市安佐北区狩留家町","next":[9970803,1171436,1171439,1171440,9970802,1171437],"voronoi":{"lat":34.512981,"lng":132.552906,"delta_lat":[0,-5301,-49000,4175,4156,2413],"delta_lng":[0,652,32005,22570,15496,-2148]}},
    {"code":1171437,"left":1171714,"right":1171435,"id":"dcad9e","name":"白木山","name_kana":"しらきやま","lat":34.500563,"lng":132.587867,"prefecture":34,"lines":[11714],"attr":"heat","postal_code":"739-1521","address":"広島市安佐北区白木町三田","next":[1171713,1171436,1171440,1171441,1171438],"voronoi":{"lat":34.512981,"lng":132.552906,"delta_lat":[0,429,7101,51567,-102654],"delta_lng":[0,-155,-1336,7690,62376]}},
    {"code":1171714,"left":1171712,"right":1171715,"id":"1b4580","name":"河戸帆待川","name_kana":"こうどほまちがわ","lat":34.5167,"lng":132.505003,"prefecture":34,"lines":[11717],"attr":"eco","postal_code":"731-0231","address":"広島市安佐北区亀山二丁目27-12","open_date":"2017-03-04","next":[1171436,1170722,1171715,1171435,1171433,1171713],"voronoi":{"lat":34.617763,"lng":132.560211,"delta_lat":[0,13520,95540,1993,-224572,73357],"delta_lng":[0,-2137,-38264,-6234,-13914,59357]}},
    {"code":1171712,"left":1171713,"id":"4df498","name":"中島(広島)","original_name":"中島","name_kana":"なかしま","lat":34.500351,"lng":132.513075,"prefecture":34,"lines":[11717],"attr":"cool","postal_code":"731-0223","address":"広島市安佐北区可部南１丁目","next":[1171713,1171711,1171715,1171441],"voronoi":{"lat":34.491123,"lng":132.515482,"delta_lat":[0,11441,1158,7176],"delta_lng":[0,-17143,1140,35847]}},
    {"code":1171713,"id":"e004e3","name":"可部","name_kana":"かべ","lat":34.512066,"lng":132.51073,"prefecture":34,"lines":[11717],"attr":"cool","postal_code":"731-0221","address":"広島市安佐北区可部２丁目","next":[1171437,1171712,1171436,1171441,1171714,1171715],"voronoi":{"lat":34.503722,"lng":132.499479,"delta_lat":[0,7176,9613,51567,5523,-73357],"delta_lng":[0,35847,16089,7690,-86,-59357]}},
    {"code":1171715,"id":"0f51ff","name":"あき亀山","name_kana":"あきかめやま","lat":34.517264,"lng":132.4959,"prefecture":34,"lines":[11717],"attr":"eco","postal_code":"731-0232","address":"広島市安佐北区亀山南一丁目1-1","open_date":"2017-03-04","next":[9970917,1170706,9970914,1171710,1170722,1170707,1171714,9970915,9970913,1171712,1171711,1171713,9970916,1171709],"voronoi":{"lat":34.49933,"lng":132.48958,"delta_lat":[0,3233,1158,522,224572,10203,-17815,-15787,-106871,-7046,-52089,-20129,-18095,-1056],"delta_lng":[0,8759,1140,183,13914,-29695,-95828,-61587,66264,4800,37971,16315,17783,3199]}},
    {"code":1171435,"left":1171436,"right":1171434,"id":"82b3ae","name":"上三田","name_kana":"かみみた","lat":34.538646,"lng":132.64389,"prefecture":34,"lines":[11714],"attr":"heat","postal_code":"739-1521","address":"広島市安佐北区白木町三田","next":[1171436,1171434,1171433,1171714,1161108],"voronoi":{"lat":34.631138,"lng":132.558286,"delta_lat":[0,144,-13520,-130883,19128],"delta_lng":[0,-211,2137,94834,40364]}},
    {"code":1171436,"id":"d50436","name":"中三田","name_kana":"なかみた","lat":34.513604,"lng":132.609329,"prefecture":34,"lines":[11714],"attr":"heat","postal_code":"739-1521","address":"広島市安佐北区白木町三田","next":[1171435,1171714,1171438,1171713,9970802,1171437,1161108],"voronoi":{"lat":34.464913,"lng":132.636032,"delta_lat":[0,2097,2413,102654,5523,40162,-130883],"delta_lng":[0,-12403,-2148,-62376,-86,1192,94834]}},
    {"code":1171434,"id":"59f5d2","name":"志和口","name_kana":"しわぐち","lat":34.554333,"lng":132.658205,"prefecture":34,"lines":[11714],"attr":"heat","postal_code":"739-1411","address":"広島市安佐北区白木町市川","next":[1161131,1171433,1171435,1161108],"voronoi":{"lat":34.526418,"lng":132.743313,"delta_lat":[0,104721,-125131,6166],"delta_lng":[0,-185028,137124,22492]}},
    {"code":1161009,"left":1161011,"right":9970409,"id":"b8972f","name":"鴨方","name_kana":"かもがた","lat":34.5273,"lng":133.587705,"prefecture":33,"lines":[11610],"attr":"eco","postal_code":"719-0252","address":"浅口市鴨方町六条院中","next":[9970506,9970508,9971901,1180614,1161010,1161008],"voronoi":{"lat":34.383414,"lng":133.645002,"delta_lat":[0,-2168,175889,21192,-272,-169673],"delta_lng":[0,-4178,-92344,36969,759,69716]}},
    {"code":1161011,"left":1161016,"right":9971908,"id":"bba8da","name":"笠岡","name_kana":"かさおか","lat":34.504913,"lng":133.504705,"prefecture":33,"lines":[11610],"attr":"cool","postal_code":"714-0081","address":"笠岡市笠岡","next":[1161012,9970511,1180616,9970510,1161010,9970509],"voronoi":{"lat":34.551268,"lng":133.492555,"delta_lat":[0,-8044,-2803,-247378,30830,226298],"delta_lng":[0,-19780,-4307,24644,46479,-14700]}},
    {"code":1161016,"left":1161102,"right":100308,"id":"d19064","name":"松永","name_kana":"まつなが","lat":34.450958,"lng":133.258532,"prefecture":34,"lines":[11610],"attr":"heat","postal_code":"729-0104","address":"福山市松永町","next":[1172012,1161017,1161015,1180630,1172016],"voronoi":{"lat":34.50276,"lng":133.263377,"delta_lat":[0,-278546,-639,269824,12102],"delta_lng":[0,125653,-4615,-170432,23490]}},
    {"code":1161102,"left":1161105,"right":100309,"id":"5e758c","name":"本郷(広島)","original_name":"本郷","name_kana":"ほんごう","lat":34.409617,"lng":132.987358,"prefecture":34,"lines":[11611],"attr":"eco","postal_code":"729-0412","address":"三原市本郷町本郷","next":[1171606,1161103,100310,1171607,1171608,1172019,1171605,1171604],"voronoi":{"lat":34.52127,"lng":133.046293,"delta_lat":[0,23806,-137847,-7180,-21341,-6060,1979,13956],"delta_lng":[0,-42777,-84528,6487,35002,17635,36611,18909]}},
    {"code":1161105,"left":1161107,"right":1161106,"id":"8229fd","name":"白市","name_kana":"しらいち","lat":34.443022,"lng":132.83225,"prefecture":34,"lines":[11611],"attr":"eco","postal_code":"739-2121","address":"東広島市高屋町小谷","next":[1171610,1161106,1161104,100311,1171608,1161103,1171609],"voronoi":{"lat":34.402194,"lng":132.88563,"delta_lat":[0,2748,78994,-82884,-20079,-1940,6837],"delta_lng":[0,-1246,-71349,-5871,14869,16794,24974]}},
    {"code":1161107,"left":1161131,"id":"0cd9eb","name":"西条(広島)","original_name":"西条","name_kana":"さいじょう","lat":34.431394,"lng":132.743909,"prefecture":34,"lines":[11611],"attr":"cool","postal_code":"739-0001","address":"東広島市西条町大字西条","next":[1161131,100311,1161106],"voronoi":{"lat":34.398254,"lng":132.719574,"delta_lat":[0,85292,-65286],"delta_lng":[0,31612,21712]}},
    {"code":1161131,"id":"60a7a0","name":"寺家","name_kana":"じけ","lat":34.439249,"lng":132.722715,"prefecture":34,"lines":[11611],"attr":"cool","postal_code":"739-0041","address":"広島県東広島市西条町寺家","open_date":"2017-03-04","next":[1171433,1161107,1171434,100311,1161108,1161106],"voronoi":{"lat":34.398254,"lng":132.719574,"delta_lat":[0,-18873,132792,14244,1053,-43924],"delta_lng":[0,-25486,23814,25412,3254,4618]}},
    {"code":1161106,"id":"b44a6e","name":"西高屋","name_kana":"にしたかや","lat":34.446139,"lng":132.788246,"prefecture":34,"lines":[11611],"attr":"cool","postal_code":"739-2125","address":"東広島市高屋町中島","next":[1161105,1161131,1171433,1171432,100311,1161104,1161107],"voronoi":{"lat":34.401051,"lng":132.807165,"delta_lat":[0,82884,64611,-20727,-349,-43924,-65286],"delta_lng":[0,5871,-14775,-51263,-430,4618,21712]}},
    {"code":100309,"left":1161018,"right":1161017,"id":"81053f","name":"新尾道","name_kana":"しんおのみち","lat":34.430001,"lng":133.190301,"prefecture":34,"lines":[1003],"attr":"cool","postal_code":"722-0022","address":"広島県尾道市栗原町","next":[1172016,1161019,1172018,1161018,1161017,100310],"voronoi":{"lat":34.500334,"lng":133.113259,"delta_lat":[0,1107,-10149,-71660,-6833,57298],"delta_lng":[0,7494,84209,8251,-66596,-25037]}},
    {"code":1161018,"left":100310,"id":"7b0a3f","name":"尾道","name_kana":"おのみち","lat":34.404826,"lng":133.192884,"prefecture":34,"lines":[11610],"attr":"cool","postal_code":"722-0036","address":"尾道市東御所町","next":[1180630,100309,1161017,1171603,1161019],"voronoi":{"lat":34.171843,"lng":133.206968,"delta_lat":[0,47481,200308,-6833,-91807],"delta_lng":[0,155969,-149724,-66596,12851]}},
    {"code":100310,"id":"4d901a","name":"三原","name_kana":"みはら","lat":34.400486,"lng":133.083049,"prefecture":34,"lines":[1003,11610,11611,11716],"attr":"eco","postal_code":"723-0014","address":"三原市城町","next":[1171604,1161102,1172018,1171603,1161019,1172019,100309],"voronoi":{"lat":34.500334,"lng":133.113259,"delta_lat":[0,17794,3142,-132687,-4275,1102,84687],"delta_lng":[0,-40302,-26663,-12661,6203,49662,32082]}},
    {"code":1161017,"id":"08ceb5","name":"東尾道","name_kana":"ひがしおのみち","lat":34.434937,"lng":133.233168,"prefecture":34,"lines":[11610],"attr":"cool","postal_code":"729-0141","address":"尾道市高須町字東新涯","next":[1161018,100309,1161016,1172016,1180630],"voronoi":{"lat":34.493399,"lng":133.213982,"delta_lat":[0,-2108,-71660,-200308,4252],"delta_lng":[0,-9021,8251,149724,21478]}},
    {"code":100308,"left":1161015,"right":1161012,"id":"6bb02c","name":"福山","name_kana":"ふくやま","lat":34.489291,"lng":133.361429,"prefecture":34,"lines":[1003,11610,11720],"attr":"heat","postal_code":"720-0066","address":"福山市三之丸町","next":[1180627,1172002,1161013,1180621,1172003,1161015],"voronoi":{"lat":34.228449,"lng":133.411305,"delta_lat":[0,4414,271234,1605,-56164,-221175],"delta_lng":[0,5472,-34910,-25069,-13816,67851]}},
    {"code":1161015,"left":1161103,"right":1172002,"id":"405ce7","name":"備後赤坂","name_kana":"びんごあかさか","lat":34.472108,"lng":133.305417,"prefecture":34,"lines":[11610],"attr":"heat","postal_code":"720-0843","address":"福山市赤坂町大字赤坂","next":[1172011,1172010,1172012,1180630,1161016,1180627,1172002,100308,1172009],"voronoi":{"lat":34.449538,"lng":133.342982,"delta_lat":[0,-221175,-3791,-358,278546,394,4664,1606,-462],"delta_lng":[0,67851,-12695,-9109,-125653,904,15904,24859,6173]}},
    {"code":1161103,"left":1161104,"id":"914b9d","name":"河内","name_kana":"こうち","lat":34.469248,"lng":132.890113,"prefecture":34,"lines":[11611],"attr":"eco","postal_code":"739-2201","address":"東広島市河内町中河内","next":[1161102,1171608,1161104,1171431,1171430,1161105,1171428,1172025,1172019],"voronoi":{"lat":34.585352,"lng":132.974051,"delta_lat":[0,32977,-102,-4051,-28310,-180925,-2748,5035,137847],"delta_lng":[0,-84654,-319,-6955,-38234,40496,1246,33358,84528]}},
    {"code":1161104,"id":"2c5d89","name":"入野(広島)","original_name":"入野","name_kana":"にゅうの","lat":34.46067,"lng":132.851789,"prefecture":34,"lines":[11611],"attr":"eco","postal_code":"739-2208","address":"東広島市河内町入野","next":[1171432,1161103,1171431,1161105,1161106],"voronoi":{"lat":34.548547,"lng":132.79826,"delta_lat":[0,34776,2544,-180925,78994],"delta_lng":[0,40744,4884,40496,-71349]}},
    {"code":1172002,"id":"888540","name":"備後本庄","name_kana":"びんごほんじょう","lat":34.493312,"lng":133.345083,"prefecture":34,"lines":[11720],"attr":"heat","postal_code":"720-0076","address":"福山市本庄町中","next":[100308,1172003,1172009,1172008,1161015],"voronoi":{"lat":34.505703,"lng":133.356799,"delta_lat":[0,14967,-3378,-8329,-59424],"delta_lng":[0,-22837,-9819,-12926,31766]}},
    {"code":1161012,"left":1161013,"right":1172003,"id":"a108b5","name":"大門(広島)","original_name":"大門","name_kana":"だいもん","lat":34.498462,"lng":133.43995,"prefecture":34,"lines":[11610],"attr":"heat","postal_code":"721-0921","address":"福山市大門町大門","next":[9970513,1161011,9970512,9970511,1180616,1161013,1180621],"voronoi":{"lat":34.253545,"lng":133.447387,"delta_lat":[0,277016,9483,1727,-1350,-247378,-35676],"delta_lng":[0,-28159,16722,21258,11260,24644,-39100]}},
    {"code":1161013,"id":"9bf939","name":"東福山","name_kana":"ひがしふくやま","lat":34.494949,"lng":133.40539,"prefecture":34,"lines":[11610],"attr":"heat","postal_code":"721-0942","address":"福山市引野町５丁目","next":[9970513,1180621,1172003,100308,9970514,1172004,1161012],"voronoi":{"lat":34.232863,"lng":133.416777,"delta_lat":[0,271234,9143,16067,1139,115,-277016],"delta_lng":[0,-34910,5769,25437,3544,2611,28159]}},
    {"code":1172003,"id":"8b9ca9","name":"横尾","name_kana":"よこお","lat":34.52139,"lng":133.363484,"prefecture":34,"lines":[11720],"attr":"heat","postal_code":"720-0011","address":"福山市横尾町","next":[1161013,1172002,1172008,1172006,1172007,1172004,100308],"voronoi":{"lat":34.513241,"lng":133.387637,"delta_lat":[0,24220,-718,-12793,-3280,-14967,-1605],"delta_lng":[0,-24978,-11062,-15218,-2417,22837,25069]}},
    {"code":9971908,"left":9971905,"right":9971910,"id":"afc007","name":"児島小川","name_kana":"こじまおがわ","closed":true,"lat":34.481002,"lng":133.799912,"prefecture":33,"lines":[99719],"attr":"unknown","postal_code":"711-0911","address":"岡山県倉敷市児島小川７丁目１-３４","next":[1171005,9971901,9970410,9971906,9971909,9971907,1171004],"voronoi":{"lat":34.485989,"lng":133.807562,"delta_lat":[0,-9558,-4831,-1567,-72,6222,54],"delta_lng":[0,-56782,-3081,6355,21697,38011,127]}},
    {"code":9971905,"left":9971906,"right":9971904,"id":"a95eb7","name":"阿津","name_kana":"あつ","closed":true,"lat":34.455464,"lng":133.803697,"prefecture":33,"lines":[99719],"attr":"unknown","postal_code":"711-0923","address":"岡山県倉敷市児島阿津２丁目２-１５","next":[9971906,1171005,9971902,9971904],"voronoi":{"lat":34.448701,"lng":133.801041,"delta_lat":[0,626,10639,-4490],"delta_lng":[0,-5924,9090,8188]}},
    {"code":9971906,"left":9971902,"right":9971907,"id":"7e7ac5","name":"備前赤崎","name_kana":"びぜんあかさき","closed":true,"lat":34.458761,"lng":133.799838,"prefecture":33,"lines":[99719],"attr":"unknown","postal_code":"711-0931","address":"岡山県倉敷市児島赤崎１丁目１０-１０","next":[9971907,9971905,9971908,9971901,1171005,9971902],"voronoi":{"lat":34.449188,"lng":133.794109,"delta_lat":[0,20845,-72,-7514,-2481,-10639],"delta_lng":[0,-40055,21697,27179,1276,-9090]}},
    {"code":9971902,"left":9971901,"id":"0a37a1","name":"東下津井","name_kana":"ひがししもつい","closed":true,"lat":34.441532,"lng":133.802223,"prefecture":33,"lines":[99719],"attr":"unknown","postal_code":"711-0926","address":"岡山県倉敷市下津井吹上１丁目９-７","next":[9971904,9971905,9971903,9971906,9971901],"voronoi":{"lat":34.449188,"lng":133.794109,"delta_lat":[0,139,-626,-4381,-19324],"delta_lng":[0,1007,5924,4573,-6676]}},
    {"code":9971901,"id":"be42a8","name":"下津井","name_kana":"しもつい","closed":true,"lat":34.439004,"lng":133.789556,"prefecture":33,"lines":[99719],"attr":"unknown","postal_code":"711-0927","address":"岡山県倉敷市下津井４丁目４-２４","next":[9971908,1161008,9970410,1171006,1161009,1180101,1180614,1180612,9971906,1180611,9971903,9971902],"voronoi":{"lat":34.372725,"lng":133.802104,"delta_lat":[0,-7992,-157,3567,6465,8805,24968,4431,58788,-1567,-20845,-24192],"delta_lng":[0,-43962,-6856,-45485,-33558,-27241,10922,2676,89100,6355,40055,4828]}},
    {"code":9971907,"id":"653f4b","name":"児島(下津井電鉄)","original_name":"児島","name_kana":"こじま","closed":true,"lat":34.4672,"lng":133.802171,"prefecture":33,"lines":[99719],"attr":"unknown","postal_code":"711-0913","address":"岡山県倉敷市児島味野３丁目３-６８","next":[9971906,1171005,9971908],"voronoi":{"lat":34.469962,"lng":133.775752,"delta_lat":[0,-7514,13736],"delta_lng":[0,27179,10832]}},
    {"code":9971904,"left":9971903,"right":1171005,"id":"660b85","name":"琴海","name_kana":"きんかい","closed":true,"lat":34.447828,"lng":133.808254,"prefecture":33,"lines":[99719],"attr":"unknown","postal_code":"711-0923","address":"岡山県倉敷市児島阿津２丁目１２-７","next":[1170912,9971903,9971902,9971905,1171005,1170915],"voronoi":{"lat":34.444321,"lng":133.805613,"delta_lat":[0,4381,6775,2434,-5282,-28001],"delta_lng":[0,-4573,11354,69487,5201,9088]}},
    {"code":9971903,"id":"e2a5ab","name":"鷲羽山","name_kana":"わしゅうざん","closed":true,"lat":34.440034,"lng":133.806559,"prefecture":33,"lines":[99719],"attr":"unknown","postal_code":"711-0925","address":"岡山県倉敷市下津井田之浦２丁目１１","next":[9971904,1171006,1180608,1180609,9971902,1170915,9971901],"voronoi":{"lat":34.424997,"lng":133.798937,"delta_lat":[0,19324,-19693,-13899,-18089,-18697,-1217],"delta_lng":[0,6676,90557,5195,-29227,-47185,-22850]}},
    {"code":1171005,"id":"c84376","name":"児島(JR)","original_name":"児島","name_kana":"こじま","lat":34.462817,"lng":133.807729,"prefecture":33,"lines":[11710],"attr":"eco","postal_code":"711-0921","address":"倉敷市児島駅前１丁目","next":[9971908,1171004,9971907,1170912,9971905,9971906,9971904],"voronoi":{"lat":34.455477,"lng":133.812394,"delta_lat":[0,4490,2481,13736,54,-18088,-239],"delta_lng":[0,-8188,-1276,10832,127,67800,192]}},
    {"code":9971910,"left":9970410,"right":1170915,"id":"3c4937","name":"稗田","name_kana":"ひえだ","closed":true,"lat":34.499198,"lng":133.804301,"prefecture":33,"lines":[99719],"attr":"unknown","postal_code":"711-0937","address":"岡山県倉敷市児島稗田町４０１４−５","next":[9971911,9971909,1171004,1171003],"voronoi":{"lat":34.491039,"lng":133.806723,"delta_lat":[0,16148,8229,-6283],"delta_lng":[0,-31721,36183,9200]}},
    {"code":9970410,"left":9971909,"right":9971911,"id":"9d5674","name":"三菱自工前","name_kana":"みつびしじこうまえ","lat":34.522906,"lng":133.734197,"prefecture":33,"lines":[99704],"attr":"cool","postal_code":"712-8071","address":"倉敷市水島海岸通２-１-１","next":[9971908,9970409,9971901,1161008,9970408,9971909,9970407,100307],"voronoi":{"lat":34.499002,"lng":133.672286,"delta_lat":[0,-86189,58788,4831,21765,39631,11258,1530],"delta_lng":[0,-13687,89100,3081,11711,-35267,-13815,-2141]}},
    {"code":9971909,"left":1161010,"id":"584a28","name":"柳田(岡山)","original_name":"柳田","name_kana":"やないだ","closed":true,"lat":34.488197,"lng":133.798701,"prefecture":33,"lines":[99719],"attr":"unknown","postal_code":"711-0936","address":"岡山県倉敷市児島柳田町８７３−２","next":[1171004,9971911,9970410,9971908,9970409,9971910],"voronoi":{"lat":34.485989,"lng":133.807562,"delta_lat":[0,-9558,21765,8873,118,-16148],"delta_lng":[0,-56782,11711,6326,6184,31721]}},
    {"code":1161010,"id":"d52e25","name":"里庄","name_kana":"さとしょう","lat":34.507905,"lng":133.550763,"prefecture":33,"lines":[11610],"attr":"cool","postal_code":"719-0302","address":"浅口郡里庄町大字新庄","next":[1161009,1180616,1180614,1161011,9970508,1180615,9970509],"voronoi":{"lat":34.557135,"lng":133.548479,"delta_lat":[0,-175889,-3074,-48485,-5813,226298,6034],"delta_lng":[0,92344,-4367,-85136,-11729,-14700,12473]}},
    {"code":9971911,"id":"fcc226","name":"福田","name_kana":"ふくだ","closed":true,"lat":34.527062,"lng":133.797964,"prefecture":33,"lines":[99719],"attr":"unknown","postal_code":"710-0145","address":"岡山県倉敷市福江８１７−１","next":[9970405,9971914,9971912,9971909,9970409,9971910,9970406,1171003,9970408,9970407],"voronoi":{"lat":34.549039,"lng":133.777321,"delta_lat":[0,8418,-2142,-25205,-14694,-8229,-118,13275,4570,6102],"delta_lng":[0,5974,4018,23492,380,-36183,-6184,493,581,1247]}},
    {"code":1170915,"left":1171004,"right":1170914,"id":"145258","name":"宇野","name_kana":"うの","lat":34.495035,"lng":133.953706,"prefecture":33,"lines":[11709],"attr":"cool","postal_code":"706-0002","address":"玉野市築港１丁目","next":[1180201,1170912,1163116,1180602,1170914,9980201,1180608,9971903,1163117,9980409,1180603,1180607,9971904],"voronoi":{"lat":34.410728,"lng":133.901366,"delta_lat":[0,-8069,-2326,725,26070,25796,33886,19183,43973,3993,-69841,-31490,-28001],"delta_lng":[0,21499,9044,3063,71853,39970,51021,17105,-62508,-7994,-138456,-18880,9088]}},
    {"code":1171004,"id":"070fb4","name":"上の町","name_kana":"かみのちょう","lat":34.490944,"lng":133.815233,"prefecture":33,"lines":[11710],"attr":"eco","postal_code":"711-0907","address":"倉敷市児島上の町２","next":[9971909,1171005,1171003,1170912,9971910,1170911,9971908],"voronoi":{"lat":34.45815,"lng":133.881689,"delta_lat":[0,26570,16011,8403,-18094,-5050,-9752],"delta_lng":[0,-13797,-11364,-36144,-13662,840,6327]}},
    {"code":1170914,"id":"56e854","name":"備前田井","name_kana":"びぜんたい","lat":34.516027,"lng":133.943117,"prefecture":33,"lines":[11709],"attr":"cool","postal_code":"706-0001","address":"玉野市田井","next":[1163117,1163118,1170913,1170912,1170915,9970610],"voronoi":{"lat":34.575593,"lng":134.010824,"delta_lat":[0,-21633,-69841,4627,97468,31],"delta_lng":[0,33595,-138456,1419,66094,12142]}},
    {"code":9970409,"left":9970514,"right":9970406,"id":"2ed891","name":"水島","name_kana":"みずしま","lat":34.529169,"lng":133.741235,"prefecture":33,"lines":[99704],"attr":"cool","postal_code":"712-8057","address":"倉敷市水島東千鳥町１０-１","next":[9970408,9970410,9971911,9971909],"voronoi":{"lat":34.498196,"lng":133.762491,"delta_lat":[0,39631,-17483,-13275],"delta_lng":[0,-35267,42086,-493]}},
    {"code":9970514,"left":1172007,"right":1172012,"id":"eb09c2","name":"湯野","name_kana":"ゆの","lat":34.552754,"lng":133.38681,"prefecture":34,"lines":[99705],"attr":"heat","postal_code":"720-2121","address":"福山市神辺町湯野８８番地の１","next":[1172004,9970513,1161013,1172005],"voronoi":{"lat":34.529307,"lng":133.413074,"delta_lat":[0,1139,50240,-33977],"delta_lng":[0,3544,-39093,1831]}},
    {"code":1172007,"left":1172008,"right":1161008,"id":"e42238","name":"万能倉","name_kana":"まなぐら","lat":34.551092,"lng":133.338516,"prefecture":34,"lines":[11720],"attr":"heat","postal_code":"720-1131","address":"福山市駅家町大字万能倉","next":[1172014,1172006,1171408,1172008,1172003,1172013],"voronoi":{"lat":34.729359,"lng":133.321853,"delta_lat":[0,1713,-194329,-12793,150886,4999],"delta_lng":[0,9267,20476,-15218,-24076,698]}},
    {"code":1172008,"left":1172009,"right":1172011,"id":"35cb9c","name":"駅家","name_kana":"えきや","lat":34.549079,"lng":133.3259,"prefecture":34,"lines":[11720],"attr":"heat","postal_code":"720-1132","address":"福山市駅家町大字倉光","next":[1172002,1172013,1172009,1172003,1172007,1172011],"voronoi":{"lat":34.607493,"lng":133.307183,"delta_lat":[0,-90201,3378,3280,150886,-10248],"delta_lng":[0,16959,9819,2417,-24076,-1961]}},
    {"code":1172009,"left":1172010,"id":"846ade","name":"近田","name_kana":"ちかた","lat":34.54627,"lng":133.31096,"prefecture":34,"lines":[11720],"attr":"heat","postal_code":"720-1133","address":"福山市駅家町大字近田","next":[1172002,1172011,1172010,1172008,1161015],"voronoi":{"lat":34.517292,"lng":133.324143,"delta_lat":[0,90201,-1040,-97028,-462],"delta_lng":[0,-16959,-189,-1951,6173]}},
    {"code":1172010,"id":"91c1cc","name":"戸手","name_kana":"とで","lat":34.546478,"lng":133.300613,"prefecture":34,"lines":[11720],"attr":"heat","postal_code":"729-3101","address":"福山市新市町大字戸手","next":[1161015,1172009,1172011],"voronoi":{"lat":34.507818,"lng":133.280184,"delta_lat":[0,1606,97028],"delta_lng":[0,24859,1951]}},
    {"code":1172011,"id":"34ae03","name":"上戸手","name_kana":"かみとで","lat":34.5515,"lng":133.282137,"prefecture":34,"lines":[11720],"attr":"heat","postal_code":"729-3101","address":"福山市新市町大字戸手","next":[1161015,1172013,1172012,1172009,1172010,1172008],"voronoi":{"lat":34.612187,"lng":133.289518,"delta_lat":[0,-109033,4664,98634,1040,57095],"delta_lng":[0,-25238,15904,26810,189,3158]}},
    {"code":1161008,"left":1172004,"right":1172005,"id":"7fe9e4","name":"金光","name_kana":"こんこう","lat":34.540909,"lng":133.620826,"prefecture":33,"lines":[11610],"attr":"eco","postal_code":"719-0104","address":"浅口市金光町占見新田","next":[9971901,9970410,100307,9970506,1161009],"voronoi":{"lat":34.412812,"lng":133.6586,"delta_lat":[0,86189,79879,-826,-169673],"delta_lng":[0,13687,-33582,-52497,69716]}},
    {"code":1172004,"id":"e3b244","name":"神辺","name_kana":"かんなべ","lat":34.537131,"lng":133.378747,"prefecture":34,"lines":[11720,99705],"attr":"heat","postal_code":"720-2124","address":"福山市神辺町川南","next":[1172005,9970514,1172006,1161013,1172003],"voronoi":{"lat":34.537461,"lng":133.362659,"delta_lat":[0,1589,7660,-17402,-16067],"delta_lng":[0,1499,15198,33718,-25437]}},
    {"code":1172005,"id":"36405f","name":"湯田村","name_kana":"ゆだむら","lat":34.551918,"lng":133.371294,"prefecture":34,"lines":[11720],"attr":"heat","postal_code":"720-2126","address":"福山市神辺町徳田","next":[1172004,1172006,9970513,9970514],"voronoi":{"lat":34.580687,"lng":133.377524,"delta_lat":[0,11626,-53263,7660],"delta_lng":[0,-4836,-8531,15198]}},
    {"code":1172012,"left":1172014,"right":9970513,"id":"a8cc08","name":"新市","name_kana":"しんいち","lat":34.554429,"lng":133.269483,"prefecture":34,"lines":[11720],"attr":"heat","postal_code":"729-3103","address":"福山市新市町大字新市","next":[1161016,1172011,1172016,1161015,1172013],"voronoi":{"lat":34.513323,"lng":133.237458,"delta_lat":[0,-7821,-2741,394,109033],"delta_lng":[0,15,25904,904,25238]}},
    {"code":1172014,"left":1172013,"right":1172015,"id":"b659c7","name":"鵜飼","name_kana":"うかい","lat":34.567905,"lng":133.244462,"prefecture":34,"lines":[11720],"attr":"heat","postal_code":"726-0002","address":"府中市鵜飼町","next":[1172015,1171408,1172007,1172016,1172013],"voronoi":{"lat":34.537379,"lng":133.233105,"delta_lat":[0,9140,183757,-917,-49524],"delta_lng":[0,-3171,81440,10479,-8853]}},
    {"code":1172013,"left":1172016,"id":"f7f127","name":"高木(広島)","original_name":"高木","name_kana":"たかぎ","lat":34.562987,"lng":133.253231,"prefecture":34,"lines":[11720],"attr":"heat","postal_code":"726-0013","address":"広島県府中市高木町39-5","next":[1172011,1172008,1172016,1172007,1172012,1172014],"voronoi":{"lat":34.537379,"lng":133.233105,"delta_lat":[0,-24056,98865,52400,10248,4999],"delta_lng":[0,4352,52061,20823,1961,698]}},
    {"code":1172016,"id":"ea88ac","name":"下川辺","name_kana":"しもかわべ","lat":34.554311,"lng":133.205282,"prefecture":34,"lines":[11720],"attr":"heat","postal_code":"726-0027","address":"府中市篠根町","next":[100309,1172018,1172012,1172017,1172015,1161017,1172013,1172014,1161016],"voronoi":{"lat":34.513323,"lng":133.237458,"delta_lat":[0,24056,9140,28119,-18222,-54975,-10149,2108,12102],"delta_lng":[0,-4352,-3171,-15858,-42585,-50739,84209,9021,23490]}},
    {"code":1172015,"id":"b84136","name":"府中(広島)","original_name":"府中","name_kana":"ふちゅう","lat":34.571646,"lng":133.236021,"prefecture":34,"lines":[11720],"attr":"heat","postal_code":"726-0004","address":"府中市府川町","next":[1172021,1171408,1172014,1172017,1172016,1172020],"voronoi":{"lat":34.733698,"lng":133.281379,"delta_lat":[0,-3422,-183757,28119,117872,24941],"delta_lng":[0,29996,-81440,-15858,29427,20957]}},
    {"code":9970513,"left":1172006,"right":100307,"id":"76172b","name":"御領(広島)","original_name":"御領","name_kana":"ごりょう","lat":34.564822,"lng":133.402319,"prefecture":34,"lines":[99705],"attr":"heat","postal_code":"720-2117","address":"福山市神辺町下御領２６１番地の３","next":[1161012,9970512,1161013,9970514,1172005,1172006],"voronoi":{"lat":34.580687,"lng":133.377524,"delta_lat":[0,-50240,115,9483,180019,-127751],"delta_lng":[0,39093,2611,16722,-98598,35336]}},
    {"code":1172006,"id":"5936ba","name":"道上","name_kana":"みちのうえ","lat":34.553503,"lng":133.361398,"prefecture":34,"lines":[11720],"attr":"heat","postal_code":"720-2104","address":"福山市神辺町道上","next":[1172005,1171408,1172004,1172007,9970512,1172003,9970513],"voronoi":{"lat":34.720064,"lng":133.337352,"delta_lat":[0,11445,-437,-194329,718,1589,53263],"delta_lng":[0,-4500,-1732,20476,11062,1499,8531]}},
    {"code":100307,"id":"d59841","name":"新倉敷","name_kana":"しんくらしき","lat":34.56509,"lng":133.678344,"prefecture":33,"lines":[1003,11610],"attr":"eco","postal_code":"710-0252","address":"倉敷市玉島爪崎","next":[9970506,9970504,9970505,1161008,9970407,1161006,9970410],"voronoi":{"lat":34.499002,"lng":133.672286,"delta_lat":[0,79879,7116,10713,-3060,-40360,-2674],"delta_lng":[0,-33582,6204,36782,13811,16859,-1092]}},
    {"code":9970406,"left":1170910,"right":9971913,"id":"8aee74","name":"弥生","name_kana":"やよい","lat":34.544359,"lng":133.747534,"prefecture":33,"lines":[99704],"attr":"heat","postal_code":"712-8035","address":"倉敷市水島東弥生町７８","next":[9970404,9970405,9971911,9970407],"voronoi":{"lat":34.553477,"lng":133.715833,"delta_lat":[0,1741,-6178,-18023],"delta_lng":[0,14573,46915,-6182]}},
    {"code":1170910,"left":9970407,"right":1170913,"id":"3a9ee6","name":"備前片岡","name_kana":"びぜんかたおか","lat":34.54381,"lng":133.861837,"prefecture":33,"lines":[11709],"attr":"eco","postal_code":"709-1215","address":"岡山市灘崎町片岡","next":[1170904,1170909,1170908,1170905,1170911,1171003],"voronoi":{"lat":34.533167,"lng":133.843911,"delta_lat":[0,40853,896,1357,-2854,-68580],"delta_lng":[0,12541,826,7669,19551,-28616]}},
    {"code":9970407,"left":1171003,"right":9971912,"id":"3a220a","name":"栄(岡山)","original_name":"栄","name_kana":"さかえ","lat":34.53791,"lng":133.744915,"prefecture":33,"lines":[99704],"attr":"heat","postal_code":"712-8033","address":"倉敷市水島東栄町７９-１","next":[100307,9970406,1161006,9970408,9970404,9971911,9970410],"voronoi":{"lat":34.550615,"lng":133.711268,"delta_lat":[0,2674,147,40,-22460,-6102,24171],"delta_lng":[0,1092,412,3060,55306,-1247,-56482]}},
    {"code":1171003,"left":9970408,"id":"4ba336","name":"木見","name_kana":"きみ","lat":34.52773,"lng":133.823785,"prefecture":33,"lines":[11710],"attr":"cool","postal_code":"710-0143","address":"倉敷市木見","next":[1171004,1170911,1171002,9971911,9971912,9971910,1170910,1170909],"voronoi":{"lat":34.538137,"lng":133.833183,"delta_lat":[0,1253,-9280,-14694,-6283,-8403,4108,28328],"delta_lng":[0,-7001,-15377,380,9200,36144,-646,-11971]}},
    {"code":9970408,"id":"da061f","name":"常盤(岡山)","original_name":"常盤","name_kana":"ときわ","lat":34.53401,"lng":133.743246,"prefecture":33,"lines":[99704],"attr":"heat","postal_code":"712-8058","address":"倉敷市水島東常盤町７０","next":[9970409,9970410,9971911,9970407],"voronoi":{"lat":34.549086,"lng":133.713409,"delta_lat":[0,-11258,-17483,4570],"delta_lng":[0,13815,42086,581]}},
    {"code":9971912,"id":"4b7a8c","name":"林(岡山)","original_name":"林","name_kana":"はやし","closed":true,"lat":34.542705,"lng":133.814748,"prefecture":33,"lines":[99719],"attr":"unknown","postal_code":"710-0142","address":"岡山県倉敷市林４６３","next":[9971914,9971911,9971913,1171003,1171002],"voronoi":{"lat":34.530111,"lng":133.810804,"delta_lat":[0,25205,-2066,-4030,-9829],"delta_lng":[0,-23492,20604,11985,6280]}},
    {"code":1170913,"left":1170912,"right":1170911,"id":"1b42cf","name":"八浜","name_kana":"はちはま","lat":34.532039,"lng":133.919504,"prefecture":33,"lines":[11709],"attr":"cool","postal_code":"706-0224","address":"玉野市八浜町大崎","next":[9970610,1170914,1170904,1170903,1170912],"voronoi":{"lat":34.576358,"lng":133.905176,"delta_lat":[0,6536,7280,-3961,-97468],"delta_lng":[0,10325,36824,21151,-66094]}},
    {"code":1170912,"id":"fd60f1","name":"常山","name_kana":"つねやま","lat":34.531374,"lng":133.893096,"prefecture":33,"lines":[11709],"attr":"cool","postal_code":"706-0000","address":"玉野市藤木","next":[9971904,1170915,1170914,1171005,1170904,1171004,1170913,1170911],"voronoi":{"lat":34.48472,"lng":133.867893,"delta_lat":[0,-26570,-239,-5282,31490,4627,87613,-988],"delta_lng":[0,13797,192,5201,18880,1419,-2206,-3475]}},
    {"code":1170911,"id":"26afc8","name":"迫川","name_kana":"はざかわ","lat":34.536484,"lng":133.879394,"prefecture":33,"lines":[11709],"attr":"cool","postal_code":"709-1211","address":"岡山市灘崎町迫川","next":[1170904,1171003,1171004,1170910,1170912],"voronoi":{"lat":34.48472,"lng":133.867893,"delta_lat":[0,16011,4108,68580,1952],"delta_lng":[0,-11364,-646,28616,17202]}},
    {"code":9971913,"left":9970404,"right":1170909,"id":"12fcb3","name":"藤戸","name_kana":"ふじと","closed":true,"lat":34.557524,"lng":133.819731,"prefecture":33,"lines":[99719],"attr":"unknown","postal_code":"710-0133","address":"岡山県倉敷市藤戸町藤戸１０８８−３","next":[9971914,1171002,1170909,9971912,1170908],"voronoi":{"lat":34.562507,"lng":133.830158,"delta_lat":[0,-13288,4030,12527,-1123],"delta_lng":[0,-10256,-11985,19477,3534]}},
    {"code":9970404,"left":9971914,"right":9970403,"id":"99b16a","name":"福井(岡山)","original_name":"福井","name_kana":"ふくい","lat":34.569804,"lng":133.744495,"prefecture":33,"lines":[99704],"attr":"heat","postal_code":"710-0844","address":"倉敷市福井３９８-１","next":[9970406,9970405,9970403,1161006,9970407],"voronoi":{"lat":34.555217,"lng":133.730405,"delta_lat":[0,21641,-4950,-18472,40],"delta_lng":[0,35067,-34943,-17757,3060]}},
    {"code":9971914,"left":9970405,"id":"c21438","name":"天城","name_kana":"あまき","closed":true,"lat":34.562227,"lng":133.816706,"prefecture":33,"lines":[99719],"attr":"unknown","postal_code":"710-0132","address":"岡山県倉敷市藤戸町天城２３９３−９","next":[9970405,9971913,9971911,9971912,9970401,1161005,1170908],"voronoi":{"lat":34.586359,"lng":133.794478,"delta_lat":[0,-754,-14371,-13777,-2142,-2066,12527],"delta_lng":[0,-588,-10791,196,4018,20604,19477]}},
    {"code":9970405,"id":"22a475","name":"浦田(岡山)","original_name":"浦田","name_kana":"うらだ","lat":34.561271,"lng":133.749761,"prefecture":33,"lines":[99704],"attr":"heat","postal_code":"712-8031","address":"倉敷市福田町浦田２４６５-９","next":[9971911,9971914,9970404,9970403,9970406,9970401],"voronoi":{"lat":34.577445,"lng":133.766989,"delta_lat":[0,-587,-21641,-6178,8418,13777],"delta_lng":[0,-1516,-35067,46915,5974,-196]}},
    {"code":9970403,"id":"098d32","name":"西富井","name_kana":"にしとみい","lat":34.577809,"lng":133.743361,"prefecture":33,"lines":[99704],"attr":"heat","postal_code":"710-0846","address":"倉敷市上富井大西６２８-２０","next":[9970404,9970405,1161006,9970401,9970402],"voronoi":{"lat":34.586539,"lng":133.738061,"delta_lat":[0,-14630,4950,587,1173],"delta_lng":[0,-7531,34943,1516,-1253]}},
    {"code":1170909,"left":1171002,"right":1170908,"id":"5c15ce","name":"彦崎","name_kana":"ひこさき","lat":34.552035,"lng":133.835045,"prefecture":33,"lines":[11709],"attr":"eco","postal_code":"709-1213","address":"岡山市灘崎町彦崎","next":[9971913,1171002,1170910,1170908,1171003],"voronoi":{"lat":34.538137,"lng":133.833183,"delta_lat":[0,24370,2146,9366,-40853],"delta_lng":[0,-3025,770,25525,-12541]}},
    {"code":1171002,"id":"be9fff","name":"植松","name_kana":"うえまつ","lat":34.551158,"lng":133.827979,"prefecture":33,"lines":[11710],"attr":"cool","postal_code":"710-0151","address":"岡山市灘崎町植松","next":[9971913,1170909,1171003,9971912],"voronoi":{"lat":34.549219,"lng":133.819902,"delta_lat":[0,13288,-24370,1253],"delta_lng":[0,10256,3025,-7001]}},
    {"code":1170908,"id":"690535","name":"茶屋町","name_kana":"ちゃやまち","lat":34.57694,"lng":133.825906,"prefecture":33,"lines":[11709,11710,99719],"attr":"eco","postal_code":"710-1101","address":"倉敷市茶屋町","next":[1161005,1170907,1170905,1170910,9971914,1170909,9971913],"voronoi":{"lat":34.565777,"lng":133.827394,"delta_lat":[0,20583,2433,-7321,-6556,-896,-9366],"delta_lng":[0,-32916,1016,54238,7547,-826,-25525]}}
  ]
}