{
  "name":"segment27",
  "root":3000515,
  "east":137.400288,
  "west":136.873051,
  "south":34.638653,
  "north":35.069244,
  "station_size":155,
  "node_list":[
    {"code":3000515,"left":3000303,"right":1150213,"id":"81eeef","name":"若林(愛知)","original_name":"若林","name_kana":"わかばやし","lat":35.026284,"lng":137.095851,"prefecture":23,"lines":[30005],"attr":"cool","postal_code":"473-0914","address":"豊田市若林東町沖田３７","next":[3000514,3000117,3000607,3000608,3000516,9951107,3000121],"voronoi":{"lat":35.054102,"lng":137.057322,"delta_lat":[0,-49450,-2598,18267,53073,-1119,-7366],"delta_lng":[0,40638,9836,6880,-38686,-3783,-14411]},"impl":true},
    {"code":3000303,"left":1150605,"right":1150225,"id":"f88d29","name":"南安城","name_kana":"みなみあんじょう","lat":34.951976,"lng":137.092457,"prefecture":23,"lines":[30003],"attr":"heat","postal_code":"446-0000","address":"安城市的場４１-２","next":[3000302,1150221,3000116,1150220,3000304],"voronoi":{"lat":34.946374,"lng":137.07528,"delta_lat":[0,11980,346,-2095,-13629],"delta_lng":[0,18115,14132,1584,-2397]},"impl":true},
    {"code":1150605,"left":3000914,"right":3000503,"id":"c28d63","name":"東浦","name_kana":"ひがしうら","lat":34.949574,"lng":136.970725,"prefecture":23,"lines":[11506],"attr":"heat","postal_code":"470-2105","address":"知多郡東浦町藤江字抑牛","next":[3000906,3000907,3000507,3000506,3000905,3000908,1150604,1150606],"voronoi":{"lat":34.941076,"lng":136.944389,"delta_lat":[0,400,9275,7248,3997,-4489,-19504,-5819],"delta_lng":[0,-141,-1369,739,920,37099,-3429,-5683]},"impl":true},
    {"code":3000914,"left":3000915,"right":3000912,"id":"53a907","name":"成岩","name_kana":"ならわ","lat":34.886209,"lng":136.921879,"prefecture":23,"lines":[30009],"attr":"cool","postal_code":"475-0846","address":"半田市栄町３-４","next":[3000912,3000913,1150609,1150608,3000915],"voronoi":{"lat":34.903757,"lng":136.883704,"delta_lat":[0,-6299,-9830,-5917,-1468],"delta_lng":[0,26215,18626,5486,-11398]},"impl":true},
    {"code":3000915,"left":3000917,"right":1150610,"id":"e7aef2","name":"青山(愛知)","original_name":"青山","name_kana":"あおやま","lat":34.878132,"lng":136.917,"prefecture":23,"lines":[30009],"attr":"cool","postal_code":"475-0837","address":"半田市有楽町４-６","next":[1150609,3000910,3000916,3000701,3000912,3000914],"voronoi":{"lat":34.903757,"lng":136.883704,"delta_lat":[0,47,725,-34965,-1265,11944],"delta_lng":[0,-128,-4420,-5557,41861,7173]},"impl":true},
    {"code":3000917,"left":3000921,"right":3000916,"id":"77e317","name":"知多武豊","name_kana":"ちたたけとよ","lat":34.850732,"lng":136.916439,"prefecture":23,"lines":[30009],"attr":"eco","postal_code":"470-2347","address":"知多郡武豊町字道崎４３-８","next":[3000918,3001002,3000916,1150610],"voronoi":{"lat":34.854565,"lng":136.917429,"delta_lat":[0,-226,-15492,1180],"delta_lng":[0,-47979,13574,42800]},"impl":true},
    {"code":3000921,"left":3001006,"id":"dcf12e","name":"河和","name_kana":"こうわ","lat":34.777771,"lng":136.912528,"prefecture":23,"lines":[30009],"attr":"eco","postal_code":"470-2406","address":"知多郡美浜町大字河和字北田面５-１","next":[3001005,3001004,3000315,3001006,3000920,3001002],"voronoi":{"lat":34.794414,"lng":136.89091,"delta_lat":[0,-20451,-5210,-133938,129124,31203],"delta_lng":[0,-4192,550,120016,-13257,-102647]},"impl":true},
    {"code":3001006,"id":"7631c3","name":"内海(愛知)","original_name":"内海","name_kana":"うつみ","lat":34.744631,"lng":136.875544,"prefecture":23,"lines":[30010],"attr":"eco","postal_code":"470-3321","address":"知多郡南知多町大字内海字先苅１７１-４","next":[3001005,1151208,1151210,3100910,3000315,1151209,1151211,3000921],"voronoi":{"lat":34.595517,"lng":137.017219,"delta_lat":[0,21281,491,5316,34169,23054,88925,-133938],"delta_lng":[0,-167702,-2013,-17284,-83633,-24883,165565,120016]},"impl":true},
    {"code":3000916,"id":"470870","name":"上ゲ","name_kana":"あげ","lat":34.858389,"lng":136.916403,"prefecture":23,"lines":[30009],"attr":"cool","postal_code":"470-2339","address":"知多郡武豊町字下門２３-５","next":[3000915,3001002,1150610,3000702,3000917,1150609,3000701],"voronoi":{"lat":34.868298,"lng":136.915459,"delta_lat":[0,-4832,-8901,-226,558,7322,7344],"delta_lng":[0,10946,-8976,-47979,-575,1766,2957]},"impl":true},
    {"code":1150610,"left":3000920,"right":1150609,"id":"4a7e89","name":"武豊","name_kana":"たけとよ","lat":34.853507,"lng":136.921244,"prefecture":23,"lines":[11506],"attr":"eco","postal_code":"470-2344","address":"知多郡武豊町金下","next":[3000501,3000916,1150609,3000918,3000917],"voronoi":{"lat":34.854565,"lng":136.917429,"delta_lat":[0,8901,-2933,-26836,6330],"delta_lng":[0,8976,28057,8561,-37199]},"impl":true},
    {"code":3000920,"left":3000918,"id":"a70370","name":"河和口","name_kana":"こうわぐち","lat":34.797805,"lng":136.918618,"prefecture":23,"lines":[30009],"attr":"eco","postal_code":"470-2401","address":"知多郡美浜町大字布土字中平井３３-１","next":[3000315,3000311,3000918,3000921,3000501,3001002],"voronoi":{"lat":34.795142,"lng":136.89138,"delta_lat":[0,-31203,26551,11747,13957,-4066],"delta_lng":[0,102647,656,-4236,-15883,-80073]},"impl":true},
    {"code":3000918,"id":"7c82a4","name":"富貴","name_kana":"ふき","lat":34.828823,"lng":136.917043,"prefecture":23,"lines":[30009,30010],"attr":"eco","postal_code":"470-2531","address":"知多郡武豊町大字冨貴外前田５-５","next":[3000501,3000917,3000920,3001002,1150610],"voronoi":{"lat":34.816195,"lng":136.974565,"delta_lat":[0,-4066,26719,1180,-6330],"delta_lng":[0,-80073,-11467,42800,37199]},"impl":true},
    {"code":1150609,"id":"6c18d4","name":"東成岩","name_kana":"ひがしならわ","lat":34.874279,"lng":136.923416,"prefecture":23,"lines":[11506],"attr":"eco","postal_code":"475-0838","address":"半田市旭町３丁目","next":[3000915,1150608,3000501,3000914,1150610,3000916],"voronoi":{"lat":34.868298,"lng":136.915459,"delta_lat":[0,11944,1468,-7257,-13920,2933],"delta_lng":[0,7173,11398,20485,-53,-28057]},"impl":true},
    {"code":3000912,"left":3000908,"right":1150607,"id":"a97998","name":"住吉町","name_kana":"すみよしちょう","lat":34.902042,"lng":136.925684,"prefecture":23,"lines":[30009],"attr":"cool","postal_code":"475-0902","address":"半田市宮路町１５６-２","next":[1150608,3000914,3000910,1150607,3000915,3000911,3000913],"voronoi":{"lat":34.901465,"lng":136.933612,"delta_lat":[0,4353,-1434,-580,-47,-6299,602],"delta_lng":[0,-351,-45691,-3994,128,26215,18080]},"impl":true},
    {"code":3000908,"left":3000911,"right":3000907,"id":"5738b4","name":"阿久比","name_kana":"あぐい","lat":34.931256,"lng":136.918517,"prefecture":23,"lines":[30009],"attr":"heat","postal_code":"470-2213","address":"知多郡阿久比町大字阿久比字千速５４-３","next":[3000821,3000824,3000907,3000910,3000701,1150605,1150606,3000822],"voronoi":{"lat":34.925791,"lng":136.872731,"delta_lat":[0,2160,13525,-400,-9315,-22819,9625,576],"delta_lng":[0,100,71418,141,-2687,-63858,-4620,-168]},"impl":true},
    {"code":3000911,"left":3000910,"id":"68b795","name":"半田口","name_kana":"はんだぐち","lat":34.909111,"lng":136.925462,"prefecture":23,"lines":[30009],"attr":"heat","postal_code":"475-0961","address":"半田市岩滑中町２-１５０","next":[3000910,1150607,3000912],"voronoi":{"lat":34.904383,"lng":136.887569,"delta_lat":[0,11953,-10519],"delta_lng":[0,49535,-3844]},"impl":true},
    {"code":3000910,"id":"f0ab6d","name":"植大","name_kana":"うえだい","lat":34.917457,"lng":136.923448,"prefecture":23,"lines":[30009],"attr":"heat","postal_code":"470-2216","address":"知多郡阿久比町植大大前田４-３","next":[3000915,1150607,3000911,3000912,3000908,3000701,1150606],"voronoi":{"lat":34.931761,"lng":136.941703,"delta_lat":[0,-22819,-4413,-725,580,11953,6284],"delta_lng":[0,-63858,1311,4420,3994,49535,4970]},"impl":true},
    {"code":3000907,"id":"c19084","name":"坂部","name_kana":"さかべ","lat":34.941579,"lng":136.916562,"prefecture":23,"lines":[30009],"attr":"heat","postal_code":"470-2212","address":"知多郡阿久比町大字卯坂字上向田３５-７","next":[1150605,3000820,3000906,3000908,3000821,3000818],"voronoi":{"lat":34.950751,"lng":136.94288,"delta_lat":[0,-9275,-13525,11448,2030,3303],"delta_lng":[0,1369,-71418,-790,187,1770]},"impl":true},
    {"code":1150607,"left":1150608,"right":1150606,"id":"172fdf","name":"乙川","name_kana":"おっかわ","lat":34.903306,"lng":136.941344,"prefecture":23,"lines":[11506],"attr":"cool","postal_code":"475-0054","address":"半田市乙川町","next":[3000910,3000911,1150608,3000912,3000501,3000502,1150606],"voronoi":{"lat":34.887839,"lng":136.962927,"delta_lat":[0,-11908,25533,4353,10519,6284,-28732],"delta_lng":[0,-7872,-21444,-351,3844,4970,22852]},"impl":true},
    {"code":1150608,"left":3000913,"id":"467543","name":"半田","name_kana":"はんだ","lat":34.894167,"lng":136.930462,"prefecture":23,"lines":[11506],"attr":"cool","postal_code":"475-0887","address":"半田市御幸町","next":[3000913,3000912,1150609,1150607,3000914,3000501],"voronoi":{"lat":34.901465,"lng":136.933612,"delta_lat":[0,-3405,-10432,-5917,-7257,1478],"delta_lng":[0,-5613,546,5486,20485,540]},"impl":true},
    {"code":3000913,"id":"0116a6","name":"知多半田","name_kana":"ちたはんだ","lat":34.893931,"lng":136.925954,"prefecture":23,"lines":[30009],"attr":"cool","postal_code":"475-0857","address":"半田市広小路町１２８-１","next":[1150608,3000914,3000912],"voronoi":{"lat":34.887628,"lng":136.928544,"delta_lat":[0,9830,602],"delta_lng":[0,-18626,18080]},"impl":true},
    {"code":1150606,"id":"4e9f0a","name":"亀崎","name_kana":"かめざき","lat":34.918986,"lng":136.961058,"prefecture":23,"lines":[11506],"attr":"cool","postal_code":"475-0029","address":"半田市亀崎常盤町２丁目","next":[3000506,3000908,1150607,3000910,3000504,1150605,3000503,3000505,3000502],"voronoi":{"lat":34.893889,"lng":136.964927,"delta_lat":[0,28732,9140,9315,-8892,-5102,-16258,-5461,-11128],"delta_lng":[0,-22852,-372,2687,28136,2085,1463,-2254,-8508]},"impl":true},
    {"code":3000503,"left":3000307,"right":3000316,"id":"08a56c","name":"新川町(愛知)","original_name":"新川町","name_kana":"しんかわまち","lat":34.896619,"lng":136.990312,"prefecture":23,"lines":[30005],"attr":"heat","postal_code":"447-0863","address":"碧南市新川町３-１１３","next":[3000504,3000307,3000502,1150606],"voronoi":{"lat":34.89345,"lng":137.025584,"delta_lat":[0,-4656,5440,11128],"delta_lng":[0,-250,-60023,8508]},"impl":true},
    {"code":3000307,"left":3000501,"right":3000309,"id":"8dfd0e","name":"米津","name_kana":"よねづ","lat":34.892822,"lng":137.060993,"prefecture":23,"lines":[30003],"attr":"cool","postal_code":"445-0802","address":"西尾市米津町仲之畑１-１","next":[3000502,3000503,3000506,3000504,3000316,3000505,3000308,100212],"voronoi":{"lat":34.931227,"lng":137.035853,"delta_lat":[0,-7621,-1859,-28296,-4656,-6426,6000,42865],"delta_lng":[0,-4074,-746,-5449,-250,487,52584,-35630]},"impl":true},
    {"code":3000501,"left":3000310,"right":3000502,"id":"c6fb2d","name":"碧南","name_kana":"へきなん","lat":34.874041,"lng":136.985613,"prefecture":23,"lines":[30005],"attr":"heat","postal_code":"447-0846","address":"碧南市中町５-４８","next":[3000918,1150610,3000311,1150609,1150607,3000310,1150608,3000920,3000502],"voronoi":{"lat":34.887839,"lng":136.962927,"delta_lat":[0,-11908,-1478,-13920,-26836,-17503,-13957,67089,1438],"delta_lng":[0,-7872,-540,-53,8561,11541,15883,31302,202]},"impl":true},
    {"code":3000310,"left":3000311,"id":"9719ba","name":"西尾","name_kana":"にしお","lat":34.863917,"lng":137.057789,"prefecture":23,"lines":[30003],"attr":"cool","postal_code":"445-0851","address":"西尾市住吉町４-１８","next":[3000311,3000308,3000313,3000501,3000309,3000502],"voronoi":{"lat":34.870765,"lng":137.021951,"delta_lat":[0,-1438,-21567,5368,21949,6810],"delta_lng":[0,-202,45088,12940,-30320,-23684]},"impl":true},
    {"code":3000311,"id":"e45cb6","name":"福地","name_kana":"ふくち","lat":34.844663,"lng":137.048579,"prefecture":23,"lines":[30003],"attr":"eco","postal_code":"445-0873","address":"西尾市川口町松原２８","next":[3000310,3000920,3000501,3000313,3000315],"voronoi":{"lat":34.79049,"lng":136.994683,"delta_lat":[0,11747,67089,-21567,-35121],"delta_lng":[0,-4236,31302,45088,-22187]},"impl":true},
    {"code":3000502,"id":"c38cb3","name":"碧南中央","name_kana":"へきなんちゅうおう","lat":34.887395,"lng":136.989476,"prefecture":23,"lines":[30005],"attr":"heat","postal_code":"447-0877","address":"碧南市栄町３-５９","next":[3000307,3000308,1150607,3000503,3000310,3000501,1150606],"voronoi":{"lat":34.888795,"lng":137.025334,"delta_lat":[0,-6426,-482,-11122,17075,6049,346],"delta_lng":[0,487,-48,-3822,-59024,1999,385]},"impl":true},
    {"code":3000309,"left":3000313,"right":3000308,"id":"b192c2","name":"西尾口","name_kana":"にしおぐち","lat":34.870647,"lng":137.062661,"prefecture":23,"lines":[30003],"attr":"cool","postal_code":"445-0073","address":"西尾市寄住町柴草７-３","next":[3000316,3000308,3000313,3000310,1150242,1150218],"voronoi":{"lat":34.860672,"lng":137.11308,"delta_lat":[0,-7544,21949,1158,-5303,-4405],"delta_lng":[0,-33302,-30320,50475,12996,768]},"impl":true},
    {"code":3000313,"left":3000315,"id":"919a6a","name":"上横須賀","name_kana":"かみよこすか","lat":34.829941,"lng":137.071883,"prefecture":23,"lines":[30003],"attr":"eco","postal_code":"444-0521","address":"愛知県西尾市吉良町上横須賀宮前60-2","next":[3000403,1150218,3000310,3000402,3000309,3000315,3000311],"voronoi":{"lat":34.812639,"lng":137.04465,"delta_lat":[0,-1056,24108,5522,19459,-7544,-5368],"delta_lng":[0,43788,26750,4193,-6302,-33302,-12940]},"impl":true},
    {"code":3000315,"id":"e1c43e","name":"吉良吉田","name_kana":"きらよしだ","lat":34.794043,"lng":137.071017,"prefecture":23,"lines":[30003,30004],"attr":"eco","postal_code":"444-0516","address":"愛知県西尾市吉良町吉田船戸5","next":[3000920,3000921,3000402,9952016,3101502,1151211,3000313,3001006,3000311],"voronoi":{"lat":34.811582,"lng":137.088439,"delta_lat":[0,-216598,-32674,4637,28570,39298,129124,26551,22148],"delta_lng":[0,-5286,-20969,-6467,-38498,-9934,-13257,656,49967]},"impl":true},
    {"code":3000308,"id":"48cb3c","name":"桜町前","name_kana":"さくらまちまえ","lat":34.880107,"lng":137.062444,"prefecture":23,"lines":[30003],"attr":"cool","postal_code":"445-0804","address":"西尾市緑町４-２８","next":[3000310,3000316,3000309,3000502,3000307],"voronoi":{"lat":34.882368,"lng":137.025822,"delta_lat":[0,-482,-6810,1158,12134],"delta_lng":[0,-48,23684,50475,-21527]},"impl":true},
    {"code":3000316,"left":3000506,"right":3000305,"id":"75e556","name":"南桜井(愛知)","original_name":"南桜井","name_kana":"みなみさくらい","lat":34.906302,"lng":137.07721,"prefecture":23,"lines":[30003],"attr":"heat","postal_code":"444-1162","address":"安城市小川町水遣２３","next":[3000309,3000308,100212,1150242,3000307,3000305,3000306],"voronoi":{"lat":34.92508,"lng":137.06954,"delta_lat":[0,9016,-2863,-42865,-12134,-5303,8923],"delta_lng":[0,-15624,-11140,35630,21527,12996,1999]},"impl":true},
    {"code":3000506,"left":3000504,"right":3000507,"id":"2e6077","name":"三河高浜","name_kana":"みかわたかはま","lat":34.930796,"lng":136.989954,"prefecture":23,"lines":[30005],"attr":"heat","postal_code":"444-1334","address":"高浜市春日町５-３-１","next":[1150606,100212,1150605,1150223,3000507,3000307,3000505],"voronoi":{"lat":34.931227,"lng":137.035853,"delta_lat":[0,2458,6796,-2478,-5819,-5102,-3476],"delta_lng":[0,-1347,-5914,-50384,-5683,2085,57169]},"impl":true},
    {"code":3000504,"left":3000505,"id":"7dc59d","name":"北新川","name_kana":"きたしんかわ","lat":34.906018,"lng":136.992475,"prefecture":23,"lines":[30005],"attr":"heat","postal_code":"447-0065","address":"碧南市久沓町４-１９","next":[3000503,3000307,1150606,3000505],"voronoi":{"lat":34.910824,"lng":136.976074,"delta_lat":[0,-5461,-11912,28296],"delta_lng":[0,-2254,51765,5449]},"impl":true},
    {"code":3000505,"id":"f87b9c","name":"高浜港","name_kana":"たかはまみなと","lat":34.921536,"lng":136.989391,"prefecture":23,"lines":[30005],"attr":"heat","postal_code":"444-1325","address":"高浜市青木町６-３-１","next":[3000506,3000307,3000504,1150606],"voronoi":{"lat":34.927082,"lng":136.974611,"delta_lat":[0,-3476,-1859,-10923],"delta_lng":[0,57169,-746,-54960]},"impl":true},
    {"code":3000507,"id":"262cad","name":"吉浜(愛知)","original_name":"吉浜","name_kana":"よしはま","lat":34.946327,"lng":136.98919,"prefecture":23,"lines":[30005],"attr":"heat","postal_code":"444-1331","address":"高浜市屋敷町１-２-３０","next":[1150605,1150223,3000506,1150604,3000508],"voronoi":{"lat":34.940481,"lng":137.028592,"delta_lat":[0,-2478,19504,963,-15851],"delta_lng":[0,-50384,3429,1273,44459]},"impl":true},
    {"code":3000305,"left":3000306,"right":3000304,"id":"152f4b","name":"堀内公園","name_kana":"ほりうちこうえん","lat":34.927834,"lng":137.089636,"prefecture":23,"lines":[30003],"attr":"heat","postal_code":"444-1155","address":"安城市堀内町前山９２","next":[1150220,3000304,3000316,100212,3000306],"voronoi":{"lat":34.92508,"lng":137.06954,"delta_lat":[0,9016,2672,-6881,-10655],"delta_lng":[0,-15624,3893,52688,5951]},"impl":true},
    {"code":3000306,"id":"949736","name":"桜井(愛知)","original_name":"桜井","name_kana":"さくらい","lat":34.917477,"lng":137.088345,"prefecture":23,"lines":[30003],"attr":"heat","postal_code":"444-1154","address":"安城市桜井町新田１２４","next":[1150242,1150219,1150220,3000316,3000305],"voronoi":{"lat":34.92508,"lng":137.06954,"delta_lat":[0,-45226,23919,6288,9171],"delta_lng":[0,45388,9903,-724,-7659]},"impl":true},
    {"code":3000304,"id":"8bfe80","name":"碧海古井","name_kana":"へきかいふるい","lat":34.93723,"lng":137.090863,"prefecture":23,"lines":[30003],"attr":"heat","postal_code":"446-0025","address":"安城市古井町字大久後４-５","next":[1150220,3000305,1150221,3000303,100212],"voronoi":{"lat":34.946374,"lng":137.07528,"delta_lat":[0,-3398,-13088,6881,8210],"delta_lng":[0,31434,3782,-52688,8896]},"impl":true},
    {"code":1150225,"left":3000902,"right":3000511,"id":"32228e","name":"逢妻","name_kana":"あいづま","lat":34.998215,"lng":136.990544,"prefecture":23,"lines":[11502],"attr":"cool","postal_code":"448-0831","address":"刈谷市熊野町２丁目","next":[3000122,3000120,1150224,1150226,1150602,3000509,3000121,1150603],"voronoi":{"lat":34.989009,"lng":136.98193,"delta_lat":[0,19039,17816,-3956,-9145,-2006,-17538,-4231],"delta_lng":[0,-4124,6461,9634,11110,887,-6752,-17198]},"impl":true},
    {"code":3000902,"left":3000905,"right":3000810,"id":"742242","name":"高横須賀","name_kana":"たかよこすか","lat":35.009608,"lng":136.893696,"prefecture":23,"lines":[30009],"attr":"heat","postal_code":"477-0037","address":"東海市高横須賀町松本１-３","next":[3000813,3000903,3000812,3000815,3000814],"voronoi":{"lat":35.017651,"lng":136.917465,"delta_lat":[0,-1859,-22590,3537,17825],"delta_lng":[0,8197,-35012,-1831,1162]},"impl":true},
    {"code":3000905,"left":3000903,"right":1150602,"id":"5ecd9e","name":"巽ヶ丘","name_kana":"たつみがおか","lat":34.962265,"lng":136.915556,"prefecture":23,"lines":[30009],"attr":"heat","postal_code":"478-0012","address":"愛知県知多市巽ヶ丘3丁目134","next":[1150603,1150605,3000906,1150604,3000904],"voronoi":{"lat":34.972392,"lng":136.943533,"delta_lat":[0,-10397,-3997,1624,15772],"delta_lng":[0,1006,-920,-61528,60424]},"impl":true},
    {"code":3000903,"left":3000906,"right":3000815,"id":"484597","name":"南加木屋","name_kana":"みなみかぎや","lat":34.989216,"lng":136.906853,"prefecture":23,"lines":[30009],"attr":"heat","postal_code":"477-0032","address":"東海市加木屋町南平井１５","next":[1150226,3000902,1150227,3000815,3000812,3000904],"voronoi":{"lat":34.971642,"lng":136.883104,"delta_lat":[0,21560,22590,226,-1907,-22639],"delta_lng":[0,7547,35012,1412,1839,8023]},"impl":true},
    {"code":3000906,"left":3000904,"id":"9258a2","name":"白沢(愛知)","original_name":"白沢","name_kana":"しらさわ","lat":34.955219,"lng":136.91537,"prefecture":23,"lines":[30009],"attr":"heat","postal_code":"470-2201","address":"知多郡阿久比町大字白沢字豊石山１７-４","next":[1150605,3000817,3000904,3000818,3000907,3000905],"voronoi":{"lat":34.959623,"lng":136.882091,"delta_lat":[0,-441,-999,-13451,6019,7248],"delta_lng":[0,-2916,-555,-4622,68882,739]},"impl":true},
    {"code":3000904,"id":"d46bd5","name":"八幡新田","name_kana":"やわたしんでん","lat":34.973674,"lng":136.912578,"prefecture":23,"lines":[30009],"attr":"heat","postal_code":"477-0032","address":"東海市加木屋町陀々法師４３-１","next":[3000815,3000906,1150602,3000816,1150603,3000817,1150226,3000903,3000905],"voronoi":{"lat":34.959623,"lng":136.882091,"delta_lat":[0,-441,8050,4139,272,19830,-4948,-2783,-8347],"delta_lng":[0,-2916,2035,1699,195,53833,3523,972,1083]},"impl":true},
    {"code":3000815,"id":"1ecff4","name":"寺本","name_kana":"てらもと","lat":35.000191,"lng":136.875498,"prefecture":23,"lines":[30008],"attr":"cool","postal_code":"478-0001","address":"知多市八幡字西水代１３５-２","next":[3000904,3000816,9950911,3000814,3000902,3000903],"voronoi":{"lat":34.996739,"lng":136.88882,"delta_lat":[0,27535,-2841,-50063,272,21560],"delta_lng":[0,-26949,-5210,26248,195,7547]},"impl":true},
    {"code":1150602,"left":1150604,"right":1150226,"id":"8dacc5","name":"尾張森岡","name_kana":"おわりもりおか","lat":34.993826,"lng":136.970279,"prefecture":23,"lines":[11506],"attr":"heat","postal_code":"470-2101","address":"知多郡東浦町森岡字前田","next":[1150603,1150226,3000904,1150225],"voronoi":{"lat":35.008048,"lng":136.977807,"delta_lat":[0,-21524,-2783,5268],"delta_lng":[0,-37347,972,40499]},"impl":true},
    {"code":1150604,"left":1150603,"id":"592952","name":"石浜","name_kana":"いしはま","lat":34.967813,"lng":136.972932,"prefecture":23,"lines":[11506],"attr":"heat","postal_code":"470-2103","address":"知多郡東浦町石浜字中子新田","next":[3000905,1150603,3000509,1150605,3000508,3000507],"voronoi":{"lat":34.97365,"lng":136.985547,"delta_lat":[0,1829,-3087,-10397,-4489,963],"delta_lng":[0,-1487,-40528,1006,37099,1273]},"impl":true},
    {"code":1150603,"id":"4bf8d0","name":"緒川","name_kana":"おがわ","lat":34.981372,"lng":136.971899,"prefecture":23,"lines":[11506],"attr":"heat","postal_code":"470-2102","address":"知多郡東浦町緒川字竹塚","next":[1150602,3000905,3000904,1150604,3000509,1150225],"voronoi":{"lat":34.97548,"lng":136.984061,"delta_lat":[0,-3087,3002,8347,5268,-21],"delta_lng":[0,-40528,-1018,-1083,40499,18]},"impl":true},
    {"code":1150226,"id":"2e64b6","name":"大府","name_kana":"おおぶ","lat":35.008665,"lng":136.961727,"prefecture":23,"lines":[11502,11506],"attr":"cool","postal_code":"474-0025","address":"大府市中央町３丁目","next":[3000903,3000123,1150602,1150225,1150227,3000904,3000122],"voronoi":{"lat":35.02645,"lng":136.983857,"delta_lat":[0,1781,-14120,-22639,-4948,21524,17816],"delta_lng":[0,-2289,-52655,8023,3523,37347,6461]},"impl":true},
    {"code":3000810,"left":3000812,"right":3000124,"id":"0b1358","name":"名和(愛知)","original_name":"名和","name_kana":"なわ","lat":35.060914,"lng":136.911709,"prefecture":23,"lines":[30008],"attr":"heat","postal_code":"476-0002","address":"東海市名和町四番割８１-７","next":[3000809,1150241,3000811,1150228],"voronoi":{"lat":35.042191,"lng":136.927568,"delta_lat":[0,19529,8205,-16239],"delta_lng":[0,-40678,37671,4741]},"impl":true},
    {"code":3000812,"left":3000813,"right":3000811,"id":"9800fb","name":"新日鉄前","name_kana":"しんにってつまえ","lat":35.035161,"lng":136.899491,"prefecture":23,"lines":[30008],"attr":"heat","postal_code":"476-0015","address":"東海市東海町２-６-４","next":[3000811,3000902,3000813,1150227,9950911,3000903],"voronoi":{"lat":35.015792,"lng":136.925662,"delta_lat":[0,1859,20670,12095,-23301,-11097],"delta_lng":[0,-8197,-44199,3262,50529,17]},"impl":true},
    {"code":3000813,"left":3000814,"id":"0a0944","name":"太田川","name_kana":"おおたがわ","lat":35.020221,"lng":136.892504,"prefecture":23,"lines":[30008,30009],"attr":"heat","postal_code":"477-0031","address":"東海市大田町後田５２","next":[3000902,3000814,3000812,9950911],"voronoi":{"lat":35.029737,"lng":136.867631,"delta_lat":[0,-15173,3087,20670],"delta_lng":[0,22351,27484,-44199]},"impl":true},
    {"code":3000814,"id":"101b20","name":"尾張横須賀","name_kana":"おわりよこすか","lat":35.010132,"lng":136.885655,"prefecture":23,"lines":[30008],"attr":"cool","postal_code":"477-0034","address":"東海市養父町北反田１３-２","next":[3000813,3000815,3000902,9950911],"voronoi":{"lat":35.014564,"lng":136.889981,"delta_lat":[0,-17825,27535,5463],"delta_lng":[0,-1162,-26949,5760]},"impl":true},
    {"code":3000811,"id":"91caad","name":"聚楽園","name_kana":"しゅうらくえん","lat":35.042857,"lng":136.90304,"prefecture":23,"lines":[30008],"attr":"heat","postal_code":"476-0003","address":"東海市荒尾町リの割２３５-３","next":[3000812,9950910,1150227,9950911,1150241,3000810,3000809],"voronoi":{"lat":35.062892,"lng":136.88113,"delta_lat":[0,-5850,-6625,-23301,11041,4034,19529],"delta_lng":[0,-3876,-725,50529,1630,-1120,-40678]},"impl":true},
    {"code":3000124,"left":1150227,"right":3000125,"id":"c9d624","name":"中京競馬場前","name_kana":"ちゅうきょうけいばじょうまえ","lat":35.061302,"lng":136.98158,"prefecture":23,"lines":[30001],"attr":"eco","postal_code":"458-0801","address":"名古屋市緑区鳴海町大字境松","next":[9951721,3000125,1150227,3000123,9951720],"voronoi":{"lat":35.073247,"lng":136.999178,"delta_lat":[0,-34353,10412,30576,-73],"delta_lng":[0,-22030,-10056,18600,343]},"impl":true},
    {"code":1150227,"left":1150241,"id":"608792","name":"共和","name_kana":"きょうわ","lat":35.035245,"lng":136.954599,"prefecture":23,"lines":[11502],"attr":"cool","postal_code":"474-0074","address":"大府市共栄町９丁目","next":[3000123,3000811,3000812,1150226,3000124,3000903,3000125,1150241],"voronoi":{"lat":35.049306,"lng":136.967092,"delta_lat":[0,-10412,-10662,-14120,1907,11097,11041,11741],"delta_lng":[0,10056,4420,-52655,-1839,-17,1630,37241]},"impl":true},
    {"code":1150241,"id":"05a34a","name":"南大高","name_kana":"みなみおおだか","lat":35.055403,"lng":136.948244,"prefecture":23,"lines":[11502],"attr":"cool","postal_code":"459-8001","address":"名古屋市緑区大高町字池之内4-10","next":[3000126,1150228,3000810,3000811,3000125,1150227],"voronoi":{"lat":35.038157,"lng":136.928687,"delta_lat":[0,4034,11495,12272,-9409,-6651],"delta_lng":[0,-1120,1734,21227,11823,3577]},"impl":true},
    {"code":3000125,"id":"479e21","name":"有松","name_kana":"ありまつ","lat":35.067687,"lng":136.971084,"prefecture":23,"lines":[30001],"attr":"eco","postal_code":"458-0824","address":"名古屋市緑区鳴海町有松裏","next":[3000124,1150227,9951719,9951720,1150241,3000126,9951718],"voronoi":{"lat":35.085376,"lng":136.970013,"delta_lat":[0,-28827,-6651,-592,30576,4591,1037],"delta_lng":[0,-7662,3577,1164,18600,-7669,-7053]},"impl":true},
    {"code":3000511,"left":1150223,"right":3000119,"id":"74d94f","name":"重原","name_kana":"しげはら","lat":34.994824,"lng":137.023727,"prefecture":23,"lines":[30005],"attr":"heat","postal_code":"472-0026","address":"知立市上重原町本郷４-４","next":[3000119,1150240,3000120,1150224],"voronoi":{"lat":35.005322,"lng":137.013256,"delta_lat":[0,-1520,-10429,-7247],"delta_lng":[0,16067,7460,-18785]},"impl":true},
    {"code":1150223,"left":3000509,"right":100212,"id":"fbb418","name":"東刈谷","name_kana":"ひがしかりや","lat":34.97741,"lng":137.043525,"prefecture":23,"lines":[11502],"attr":"heat","postal_code":"448-0807","address":"刈谷市東刈谷町１丁目","next":[3000118,3000506,3000508,3000507,1150240,3000513,100212],"voronoi":{"lat":34.933685,"lng":137.034506,"delta_lat":[0,6796,2138,9690,38696,-655,-5859],"delta_lng":[0,-5914,-1223,-2723,15333,9747,7360]},"impl":true},
    {"code":3000509,"left":1150240,"right":1150224,"id":"2d1e0a","name":"刈谷市","name_kana":"かりやし","lat":34.984803,"lng":136.993844,"prefecture":23,"lines":[30005],"attr":"heat","postal_code":"448-0844","address":"刈谷市広小路３-５０４-１","next":[1150224,3000508,1150604,1150603,1150225],"voronoi":{"lat":34.975282,"lng":137.006727,"delta_lat":[0,-1632,1829,13509,4231],"delta_lng":[0,-21179,-1487,-2112,17198]},"impl":true},
    {"code":1150240,"left":3000508,"id":"73aaee","name":"野田新町","name_kana":"のだしんまち","lat":34.983528,"lng":137.028085,"prefecture":23,"lines":[11502],"attr":"cool","postal_code":"448-0862","address":"刈谷市野田新町","next":[3000511,3000119,1150223,3000513,3000508,1150224],"voronoi":{"lat":34.993373,"lng":137.036784,"delta_lat":[0,-491,-1877,-38696,20105,13712],"delta_lng":[0,965,2231,-15333,-12094,5446]},"impl":true},
    {"code":3000508,"id":"3d2ccb","name":"小垣江","name_kana":"おがきえ","lat":34.9639,"lng":136.995455,"prefecture":23,"lines":[30005],"attr":"heat","postal_code":"448-0813","address":"刈谷市小垣江町字下半ノ木２０-３","next":[1150224,3000509,1150223,1150240,1150604,3000507],"voronoi":{"lat":34.958469,"lng":136.98291,"delta_lat":[0,15181,1632,-2869,-20105,-9690],"delta_lng":[0,2637,21179,5826,12094,2723]},"impl":true},
    {"code":1150224,"id":"b05cea","name":"刈谷","name_kana":"かりや","lat":34.991156,"lng":137.008878,"prefecture":23,"lines":[11502,30005],"attr":"cool","postal_code":"448-0028","address":"刈谷市桜町１丁目","next":[3000509,3000508,3000120,1150225,3000511,1150240],"voronoi":{"lat":35.005322,"lng":137.013256,"delta_lat":[0,5436,-17538,-17937,-2869,13712],"delta_lng":[0,-7358,-6752,7580,5826,5446]},"impl":true},
    {"code":100212,"left":3000302,"right":3000117,"id":"221e91","name":"三河安城","name_kana":"みかわあんじょう","lat":34.96968,"lng":137.060918,"prefecture":23,"lines":[1002,11502],"attr":"heat","postal_code":"446-0054","address":"安城市二本木町二ツ池","next":[3000506,3000316,1150221,3000118,1150223,3000305,3000307,3000304,3000117],"voronoi":{"lat":34.98448,"lng":137.068833,"delta_lat":[0,11,-50806,-2458,7,2863,2672,8210,27863],"delta_lng":[0,-11747,-22580,1347,6922,11140,3893,8896,10293]},"impl":true},
    {"code":3000302,"left":1150221,"id":"b138c9","name":"北安城","name_kana":"きたあんじょう","lat":34.964677,"lng":137.092146,"prefecture":23,"lines":[30003],"attr":"heat","postal_code":"446-0061","address":"安城市新田町新栄１","next":[3000117,3000303,3000116,1150221],"voronoi":{"lat":34.973008,"lng":137.079608,"delta_lat":[0,6786,-21095,-346],"delta_lng":[0,22483,5437,-14132]},"impl":true},
    {"code":1150221,"id":"be67b1","name":"安城","name_kana":"あんじょう","lat":34.959986,"lng":137.08716,"prefecture":23,"lines":[11502],"attr":"heat","postal_code":"446-0032","address":"安城市御幸本町","next":[100212,3000303,3000304,3000302,3000117],"voronoi":{"lat":34.958353,"lng":137.093396,"delta_lat":[0,-11980,-1395,27863,167],"delta_lng":[0,-18115,-8576,10293,2610]},"impl":true},
    {"code":3000117,"id":"2098cd","name":"新安城","name_kana":"しんあんじょう","lat":34.986885,"lng":137.085443,"prefecture":23,"lines":[30001,30003],"attr":"eco","postal_code":"446-0007","address":"安城市東栄町１丁目","next":[3000118,3000302,9951107,3000515,3000514,3000116,1150221,100212],"voronoi":{"lat":34.98448,"lng":137.068833,"delta_lat":[0,12261,7912,-2598,-4804,-17456,-6786,-167],"delta_lng":[0,6211,22915,9836,2589,-8294,-22483,-2610]},"impl":true},
    {"code":3000119,"left":3000122,"right":3000513,"id":"b527bc","name":"知立","name_kana":"ちりゅう","lat":35.006198,"lng":137.039628,"prefecture":23,"lines":[30001,30005],"attr":"eco","postal_code":"472-0037","address":"知立市栄２丁目","next":[3000514,3000511,1150240,3000513,3000120,3000121],"voronoi":{"lat":35.037033,"lng":137.054809,"delta_lat":[0,-44151,491,10429,32058,7570],"delta_lng":[0,-17060,-965,-7460,16967,7714]},"impl":true},
    {"code":3000122,"left":3000120,"right":3000123,"id":"f2d3e1","name":"豊明","name_kana":"とよあけ","lat":35.041127,"lng":137.008161,"prefecture":23,"lines":[30001],"attr":"eco","postal_code":"470-1141","address":"豊明市阿野町字明定","next":[1150225,9951721,3000123,3000121,1150226,3000608],"voronoi":{"lat":35.07445,"lng":137.038555,"delta_lat":[0,-2679,-45320,-586,-3956,44298],"delta_lng":[0,-14286,-40412,410,9634,60331]},"impl":true},
    {"code":3000120,"left":3000121,"id":"c380b2","name":"一ツ木","name_kana":"ひとつぎ","lat":35.01367,"lng":137.02551,"prefecture":23,"lines":[30001],"attr":"eco","postal_code":"448-0000","address":"刈谷市一木本郷前","next":[1150224,1150225,3000511,3000119,3000121],"voronoi":{"lat":35.012764,"lng":137.005012,"delta_lat":[0,-2006,-5436,-1520,32058],"delta_lng":[0,887,7358,16067,16967]},"impl":true},
    {"code":3000121,"id":"97371d","name":"富士松","name_kana":"ふじまつ","lat":35.029759,"lng":137.016508,"prefecture":23,"lines":[30001],"attr":"eco","postal_code":"448-0005","address":"刈谷市今川町下矢戸","next":[3000514,3000122,3000608,3000119,1150225,3000120,3000515],"voronoi":{"lat":35.066207,"lng":137.054232,"delta_lat":[0,-44298,-9145,23096,7570,10673,10807],"delta_lng":[0,-60331,11110,41279,7714,3317,474]},"impl":true},
    {"code":3000123,"id":"e91642","name":"前後","name_kana":"ぜんご","lat":35.05227,"lng":136.995665,"prefecture":23,"lines":[30001],"attr":"eco","postal_code":"470-1151","address":"豊明市前後町字大代","next":[1150226,1150227,3000122,3000124,9951721],"voronoi":{"lat":35.073247,"lng":136.999178,"delta_lat":[0,-34353,-10662,-1781,45320],"delta_lng":[0,-22030,4420,2289,40412]},"impl":true},
    {"code":3000513,"left":3000118,"right":3000514,"id":"223d1f","name":"三河知立","name_kana":"みかわちりゅう","lat":35.004002,"lng":137.045311,"prefecture":23,"lines":[30005],"attr":"cool","postal_code":"472-0042","address":"知立市内幸町加藤２０","next":[3000118,3000119,1150223,3000514,1150240],"voronoi":{"lat":34.990349,"lng":137.049726,"delta_lat":[0,29364,17319,-44151,-1877],"delta_lng":[0,8842,-3760,-17060,2231]},"impl":true},
    {"code":3000118,"id":"d91387","name":"牛田(愛知)","original_name":"牛田","name_kana":"うしだ","lat":34.999294,"lng":137.060946,"prefecture":23,"lines":[30001],"attr":"eco","postal_code":"472-0003","address":"知立市牛田","next":[3000117,1150223,3000513,100212,3000514],"voronoi":{"lat":35.019714,"lng":137.058568,"delta_lat":[0,-29364,-5859,-11,12261],"delta_lng":[0,-8842,7360,11747,6211]},"impl":true},
    {"code":3000514,"id":"05621a","name":"三河八橋","name_kana":"みかわやつはし","lat":35.010913,"lng":137.077147,"prefecture":23,"lines":[30005],"attr":"cool","postal_code":"473-0924","address":"豊田市花園町五反田３９","next":[3000119,3000121,3000515,3000117,3000513,3000118],"voronoi":{"lat":35.004653,"lng":137.09796,"delta_lat":[0,49450,-10673,-6397,-17319,-22973],"delta_lng":[0,-40638,-3317,804,3760,16476]},"impl":true},
    {"code":1150213,"left":9952009,"right":1150217,"id":"fb6a50","name":"三河大塚","name_kana":"みかわおおつか","lat":34.815744,"lng":137.28287,"prefecture":23,"lines":[11502],"attr":"heat","postal_code":"443-0013","address":"蒲郡市大塚町笹子","next":[3000107,9952015,1150214,3000106,9952016,3000105,9952011,9952012,1150212],"voronoi":{"lat":34.747395,"lng":137.293483,"delta_lat":[0,-4974,-417,600,236,102592,-1971,-5846,-5639],"delta_lng":[0,-11694,-1491,-18346,-2556,8196,20291,9009,4440]},"impl":true},
    {"code":9952009,"left":3000406,"right":9952103,"id":"a9697b","name":"向ヶ丘","name_kana":"むこうがおか","lat":34.706351,"lng":137.367556,"prefecture":23,"lines":[99520],"attr":"heat","postal_code":"441-8134","address":"愛知県豊橋市植田町西蛤沢","next":[9952010,9952008,1141302,9952011,9952006],"voronoi":{"lat":34.744509,"lng":137.333821,"delta_lat":[0,194,-27037,-57438,74990],"delta_lng":[0,-2096,11763,68618,-64652]},"impl":true},
    {"code":3000406,"left":9952014,"right":1150212,"id":"aa73e3","name":"西浦","name_kana":"にしうら","lat":34.79003,"lng":137.178617,"prefecture":23,"lines":[30004],"attr":"cool","postal_code":"443-0105","address":"蒲郡市西浦町馬々４８-１","next":[9952016,3000405,3000407,1150214],"voronoi":{"lat":34.759404,"lng":137.231708,"delta_lat":[0,43255,-107918,45319],"delta_lng":[0,-62071,8411,61634]},"impl":true},
    {"code":9952014,"left":3000405,"right":9952011,"id":"abdc64","name":"豊島","name_kana":"としま","lat":34.667459,"lng":137.293737,"prefecture":23,"lines":[99520],"attr":"cool","postal_code":"441-3417","address":"田原市豊島町字奥谷","next":[3101515,1150206,9952015,9952013,1150204,9952016],"voronoi":{"lat":33.910613,"lng":137.50208,"delta_lat":[0,101368,233108,459700,-96801,-421165],"delta_lng":[0,-5558,-22714,-186048,-4898,10013]},"impl":true},
    {"code":3000405,"left":9952015,"right":3000404,"id":"cc7608","name":"こどもの国(愛知)","original_name":"こどもの国","name_kana":"こどものくに","lat":34.788791,"lng":137.162721,"prefecture":23,"lines":[30004],"attr":"heat","postal_code":"444-0701","address":"愛知県西尾市東幡豆町御堂前","next":[3000406,3000408,3000404,9952016,3000407,1150217],"voronoi":{"lat":34.813745,"lng":137.164661,"delta_lat":[0,-11085,-107918,-26414,148269,-2489],"delta_lng":[0,4975,8411,-30252,7832,8704]},"impl":true},
    {"code":9952015,"left":9952016,"id":"757e6d","name":"神戸(愛知)","original_name":"神戸","name_kana":"かんべ","lat":34.668253,"lng":137.278044,"prefecture":23,"lines":[99520],"attr":"cool","postal_code":"441-3415","address":"田原市神戸町字大坪","next":[1150213,9952013,9952016,9952014,9952012],"voronoi":{"lat":34.704788,"lng":137.287759,"delta_lat":[0,-96801,134616,-600,-8301],"delta_lng":[0,-4898,-20909,18346,2342]},"impl":true},
    {"code":9952016,"id":"8cf9c1","name":"三河田原","name_kana":"みかわたはら","lat":34.666875,"lng":137.269172,"prefecture":23,"lines":[99520],"attr":"cool","postal_code":"441-3421","address":"田原市田原町字東大浜１６","next":[3101502,1150214,9952015,3000406,3000315,1150213,3101505,3101515,3000403,3000404,3000405,3000402,9952014],"voronoi":{"lat":34.607988,"lng":137.282861,"delta_lat":[0,134616,236,-2779,-45319,-26414,-31891,-13085,-28367,-32674,-93030,-132500,-149958],"delta_lng":[0,-20909,-2556,-19715,-61634,-30252,-31707,-11108,-21828,-20969,41131,69826,119734]},"impl":true},
    {"code":3000404,"id":"171cbb","name":"東幡豆","name_kana":"ひがしはず","lat":34.789693,"lng":137.145645,"prefecture":23,"lines":[30004],"attr":"heat","postal_code":"444-0701","address":"愛知県西尾市東幡豆町小見行田","next":[1150217,9952016,3000405,3000403],"voronoi":{"lat":34.816596,"lng":137.155628,"delta_lat":[0,-148269,-31891,191964],"delta_lng":[0,-7832,-31707,21564]},"impl":true},
    {"code":9952011,"left":9952012,"right":9952010,"id":"79b9db","name":"老津","name_kana":"おいつ","lat":34.692344,"lng":137.33536,"prefecture":23,"lines":[99520],"attr":"heat","postal_code":"441-3301","address":"豊橋市老津町字西高縄","next":[1150211,1150212,1141303,9952012,1150213,1141302,9952010,9952009],"voronoi":{"lat":34.656117,"lng":137.352974,"delta_lat":[0,86304,4974,2728,-2290,-302,-2827,-27037],"delta_lng":[0,-71184,11694,17385,13993,757,6107,11763]},"impl":true},
    {"code":9952012,"left":9952013,"id":"64fa21","name":"杉山","name_kana":"すぎやま","lat":34.680301,"lng":137.320759,"prefecture":23,"lines":[99520],"attr":"heat","postal_code":"441-3302","address":"豊橋市杉山町字前屋敷","next":[9952010,9952011,1150213,9952013,9952015],"voronoi":{"lat":34.742004,"lng":137.280299,"delta_lat":[0,417,-86304,-160003,237589],"delta_lng":[0,1491,71184,65779,-136112]},"impl":true},
    {"code":9952013,"id":"525ba6","name":"やぐま台","name_kana":"やぐまだい","lat":34.673809,"lng":137.309427,"prefecture":23,"lines":[99520],"attr":"heat","postal_code":"441-3412","address":"田原市谷熊町字鳥郷","next":[9952010,9952015,1150206,9952014,9952012],"voronoi":{"lat":34.40065,"lng":137.461539,"delta_lat":[0,-155561,459700,28914,-237589],"delta_lng":[0,12268,-186048,-5119,136112]},"impl":true},
    {"code":9952010,"id":"8848c9","name":"大清水","name_kana":"おおしみず","lat":34.695966,"lng":137.358863,"prefecture":23,"lines":[99520],"attr":"heat","postal_code":"441-8133","address":"豊橋市大清水町字大清水３-１２２","next":[1150209,9952012,9952013,9952009,9952008,1150206,1150208,9952011],"voronoi":{"lat":34.717667,"lng":137.343488,"delta_lat":[0,-57438,-8195,-85345,-45496,-120543,95464,160003],"delta_lng":[0,68618,8734,31797,9871,-969,-42787,-65779]},"impl":true},
    {"code":1150212,"left":3000407,"right":3000102,"id":"562b8e","name":"愛知御津","name_kana":"あいちみと","lat":34.812624,"lng":137.316492,"prefecture":23,"lines":[11502],"attr":"heat","postal_code":"441-0312","address":"豊川市御津町西方字松本","next":[3000105,9952011,1150211,3000103,3000104,1150213],"voronoi":{"lat":34.830642,"lng":137.31035,"delta_lat":[0,-9392,-21975,-49153,-2728,84581],"delta_lng":[0,20140,1598,-21220,-17385,7849]},"impl":true},
    {"code":3000407,"left":3000403,"right":3000408,"id":"649274","name":"形原","name_kana":"かたはら","lat":34.798607,"lng":137.184594,"prefecture":23,"lines":[30004],"attr":"cool","postal_code":"443-0104","address":"蒲郡市形原町形原御嶽６２","next":[1150214,1150215,3000408,3000406,3000405],"voronoi":{"lat":34.813745,"lng":137.164661,"delta_lat":[0,-17007,-22890,-14443,43255],"delta_lng":[0,49110,13380,4556,-62071]},"impl":true},
    {"code":3000403,"left":3000402,"id":"27e2e9","name":"西幡豆","name_kana":"にしはず","lat":34.792431,"lng":137.121271,"prefecture":23,"lines":[30004],"attr":"heat","postal_code":"444-0703","address":"愛知県西尾市西幡豆町中屋敷16番地4","next":[3000313,1150218,9952016,3000402,3000404,1150217],"voronoi":{"lat":34.636437,"lng":137.116089,"delta_lat":[0,-13085,212339,5522,-10523,-2289],"delta_lng":[0,-11108,10208,4193,16442,1829]},"impl":true},
    {"code":3000402,"id":"d64908","name":"三河鳥羽","name_kana":"みかわとば","lat":34.793214,"lng":137.104984,"prefecture":23,"lines":[30004],"attr":"heat","postal_code":"444-0704","address":"愛知県西尾市鳥羽町","next":[3000315,3000313,3000403,9952016],"voronoi":{"lat":34.594985,"lng":137.083152,"delta_lat":[0,216598,24108,-212339],"delta_lng":[0,5286,26750,-10208]},"impl":true},
    {"code":3000408,"id":"a56324","name":"三河鹿島","name_kana":"みかわかしま","lat":34.813313,"lng":137.189687,"prefecture":23,"lines":[30004],"attr":"cool","postal_code":"443-0037","address":"蒲郡市鹿島町横砂３９-１","next":[1150215,3000409,3000407,1150217,1150216,3000405],"voronoi":{"lat":34.814108,"lng":137.164332,"delta_lat":[0,13186,-19641,-4591,-6324,17007],"delta_lng":[0,22871,20334,4555,1680,-49110]},"impl":true},
    {"code":3000102,"left":1141304,"right":3000103,"id":"2cf1fd","name":"伊奈","name_kana":"いな","lat":34.802857,"lng":137.354743,"prefecture":23,"lines":[30001],"attr":"cool","postal_code":"441-0105","address":"愛知県豊川市伊奈町南山新田292-1","next":[1141304,3000103,3000203,1150211],"voronoi":{"lat":34.810815,"lng":137.365683,"delta_lat":[0,4946,-11940,-5448],"delta_lng":[0,-6478,-15501,14026]},"impl":true},
    {"code":1141304,"left":1150211,"id":"527453","name":"小坂井","name_kana":"こざかい","lat":34.797544,"lng":137.363056,"prefecture":23,"lines":[11413],"attr":"heat","postal_code":"441-0103","address":"愛知県豊川市小坂井町倉屋敷72","next":[3000102,1150211,1141303,3000203,1141305],"voronoi":{"lat":34.785359,"lng":137.358303,"delta_lat":[0,13013,12442,-719,-15941],"delta_lng":[0,-572,7953,2512,9436]},"impl":true},
    {"code":1150211,"id":"c8b03e","name":"西小坂井","name_kana":"にしこざかい","lat":34.79708,"lng":137.352499,"prefecture":23,"lines":[11502],"attr":"heat","postal_code":"441-0105","address":"愛知県豊川市伊奈町前山20","next":[9952011,1141304,3000103,1150212,3000102,1141303],"voronoi":{"lat":34.798372,"lng":137.357731,"delta_lat":[0,5448,-4545,-49153,-2290,37527],"delta_lng":[0,-14026,-11616,-21220,13993,33441]},"impl":true},
    {"code":3000103,"id":"f73bf9","name":"小田渕","name_kana":"おだぶち","lat":34.814739,"lng":137.34559,"prefecture":23,"lines":[30001],"attr":"cool","postal_code":"442-0844","address":"豊川市小田渕町大字卯足","next":[1150211,3000102,3000104,1150212,3000202,3000203],"voronoi":{"lat":34.81755,"lng":137.358578,"delta_lat":[0,9367,-5666,-21975,4545,11940],"delta_lng":[0,-20708,-7380,1598,11616,15501]},"impl":true},
    {"code":9952103,"left":9952001,"right":9952102,"id":"5a378f","name":"新川(愛知)","original_name":"新川","name_kana":"しんかわ","lat":34.762857,"lng":137.389483,"prefecture":23,"lines":[99521],"attr":"eco","postal_code":"441-0000","address":"豊橋市","next":[9952102,9952002,9952106,9952104,9952107],"voronoi":{"lat":34.759044,"lng":137.387223,"delta_lat":[0,5921,-1467,-4641,-1010],"delta_lng":[0,552,5578,3122,285]},"impl":true},
    {"code":9952001,"left":9952006,"right":9952003,"id":"90b04d","name":"新豊橋","name_kana":"しんとよはし","lat":34.762272,"lng":137.383375,"prefecture":23,"lines":[99520],"attr":"eco","postal_code":"440-0075","address":"豊橋市花田町字西宿４１","next":[100211,9952101,9952002,9952102],"voronoi":{"lat":34.754303,"lng":137.379713,"delta_lat":[0,8727,210,-4543],"delta_lng":[0,3233,1394,1825]},"impl":true},
    {"code":9952006,"left":9952007,"right":100211,"id":"f0a3d2","name":"高師","name_kana":"たかし","lat":34.727068,"lng":137.381674,"prefecture":23,"lines":[99520],"attr":"eco","postal_code":"441-8156","address":"豊橋市高師町字北新切","next":[9952004,100211,1141302,9952005,9952008,1150209,9952009,9952007],"voronoi":{"lat":34.725538,"lng":137.36539,"delta_lat":[0,9681,9291,928,-58,-5406,-19824,-2652],"delta_lng":[0,-17935,-13633,5899,4576,19363,46522,-58]},"impl":true},
    {"code":9952007,"left":9952008,"id":"489d6b","name":"芦原","name_kana":"あしはら","lat":34.718433,"lng":137.380122,"prefecture":23,"lines":[99520],"attr":"eco","postal_code":"441-8155","address":"豊橋市芦原町字東","next":[9952008,1150209,9952006],"voronoi":{"lat":34.725538,"lng":137.36539,"delta_lat":[0,-47880,39840],"delta_lng":[0,49728,-4994]},"impl":true},
    {"code":9952008,"id":"721489","name":"植田(豊橋鉄道)","original_name":"植田","name_kana":"うえた","lat":34.711085,"lng":137.373047,"prefecture":23,"lines":[99520],"attr":"eco","postal_code":"441-8134","address":"愛知県豊橋市植田町中畑","next":[9952009,1150209,9952010,9952007,9952006],"voronoi":{"lat":34.735219,"lng":137.347454,"delta_lat":[0,-74990,-8195,25624,47880],"delta_lng":[0,64652,8734,-5723,-49728]},"impl":true},
    {"code":100211,"id":"ce07ed","name":"豊橋","name_kana":"とよはし","lat":34.762734,"lng":137.382128,"prefecture":23,"lines":[1002,11413,11502,30001],"attr":"heat","postal_code":"440-0075","address":"豊橋市花田町西宿","next":[9952004,1141302,9952001,9952006,9952101,9952003,9952002],"voronoi":{"lat":34.763029,"lng":137.382946,"delta_lat":[0,5428,-23020,-58,4751,2428,1744],"delta_lng":[0,-6191,-37035,4576,27581,5651,2185]},"impl":true},
    {"code":9952003,"left":9952004,"right":9952002,"id":"0f4b83","name":"小池","name_kana":"こいけ","lat":34.748891,"lng":137.388076,"prefecture":23,"lines":[99520],"attr":"eco","postal_code":"441-8042","address":"豊橋市小池町字原下","next":[9952109,9952108,9952002,9952004,100211,9952202],"voronoi":{"lat":34.75013,"lng":137.371877,"delta_lat":[0,2428,-1702,-3373,-886,-8609],"delta_lng":[0,5651,25478,3430,733,2404]},"impl":true},
    {"code":9952004,"left":9952005,"id":"3c277c","name":"愛知大学前","name_kana":"あいちだいがくまえ","lat":34.741682,"lng":137.385754,"prefecture":23,"lines":[99520],"attr":"eco","postal_code":"441-8108","address":"豊橋市町畑町","next":[100211,9952006,9952202,9952003,9952005],"voronoi":{"lat":34.739974,"lng":137.36366,"delta_lat":[0,5406,4751,-12142,-481],"delta_lng":[0,-19363,27581,37696,220]},"impl":true},
    {"code":9952005,"id":"78cd1a","name":"南栄","name_kana":"みなみさかえ","lat":34.73592,"lng":137.385446,"prefecture":23,"lines":[99520],"attr":"eco","postal_code":"441-8107","address":"豊橋市南栄町字空池４６","next":[9952006,9952004,1150209,9952202],"voronoi":{"lat":34.737508,"lng":137.409794,"delta_lat":[0,2466,-19824,12774],"delta_lng":[0,-46134,46522,2414]},"impl":true},
    {"code":9952002,"id":"0885d9","name":"柳生橋","name_kana":"やぎゅうばし","lat":34.75479,"lng":137.38847,"prefecture":23,"lines":[99520],"attr":"eco","postal_code":"440-0877","address":"豊橋市南松山町１５４","next":[9952103,9952108,9952001,9952102,9952003,9952107,100211],"voronoi":{"lat":34.758697,"lng":137.386166,"delta_lat":[0,347,-1197,-5794,-1196,1702,1744],"delta_lng":[0,1058,9537,5434,812,-25478,2185]},"impl":true},
    {"code":9952102,"left":1141303,"right":9952106,"id":"8444d7","name":"駅前大通","name_kana":"えきまえおおどおり","lat":34.763209,"lng":137.385707,"prefecture":23,"lines":[99521],"attr":"eco","postal_code":"441-0000","address":"豊橋市","next":[9952103,9952104,9952002,9952001,9952101],"voronoi":{"lat":34.76324,"lng":137.38434,"delta_lat":[0,-4543,347,5921,3476],"delta_lng":[0,1825,1058,552,-2082]},"impl":true},
    {"code":1141303,"left":9952101,"right":1141305,"id":"e2c179","name":"下地","name_kana":"しもじ","lat":34.780939,"lng":137.370612,"prefecture":23,"lines":[11413],"attr":"heat","postal_code":"440-0093","address":"豊橋市横須賀町横須賀","next":[9952011,1141304,1141305,1141302,1150211],"voronoi":{"lat":34.747832,"lng":137.324861,"delta_lat":[0,-302,41997,4627,-8795],"delta_lng":[0,757,63571,-11558,-19329]},"impl":true},
    {"code":9952101,"left":1141302,"id":"e90bad","name":"駅前","name_kana":"えきまえ","lat":34.763879,"lng":137.383132,"prefecture":23,"lines":[99521],"attr":"eco","postal_code":"441-0000","address":"豊橋市","next":[9952001,100211,1141302,9952102,9952104],"voronoi":{"lat":34.774052,"lng":137.384065,"delta_lat":[0,-5595,-5428,210,5201],"delta_lng":[0,-7309,6191,1394,1353]},"impl":true},
    {"code":1141302,"id":"eceb77","name":"船町","name_kana":"ふなまち","lat":34.775809,"lng":137.374001,"prefecture":23,"lines":[11413],"attr":"heat","postal_code":"440-0071","address":"豊橋市北島町北島","next":[100211,9952006,9952105,9952009,1141305,9952104,9952011,9952101,1141303],"voronoi":{"lat":34.747531,"lng":137.325619,"delta_lat":[0,-2827,-194,928,23020,5595,2058,12942,475],"delta_lng":[0,6107,2096,5899,37035,7309,1244,5909,-2028]},"impl":true},
    {"code":1141305,"id":"91ac19","name":"牛久保","name_kana":"うしくぼ","lat":34.808563,"lng":137.381671,"prefecture":23,"lines":[11413],"attr":"heat","postal_code":"442-0826","address":"豊川市牛久保町","next":[9952105,9952108,3000204,9952109,1141302,3000205,9952106,1141303,1141304,9952107,3000203],"voronoi":{"lat":34.810095,"lng":137.368195,"delta_lat":[0,-15941,-4627,-475,1847,1465,208,1993,348,10666,11949],"delta_lng":[0,9436,11558,2028,7035,4449,475,3697,555,-9780,-19556]},"impl":true},
    {"code":9952106,"left":9952104,"right":9952105,"id":"52c554","name":"豊橋公園前","name_kana":"とよはしこうえんまえ","lat":34.766841,"lng":137.395406,"prefecture":23,"lines":[99521],"attr":"eco","postal_code":"441-0000","address":"豊橋市","next":[9952104,1141305,9952103,9952107,9952105],"voronoi":{"lat":34.763666,"lng":137.393325,"delta_lat":[0,-168,-4641,33508,-1465],"delta_lng":[0,29,3122,6226,-4449]},"impl":true},
    {"code":9952104,"id":"699dc5","name":"札木","name_kana":"ふだぎ","lat":34.765959,"lng":137.390299,"prefecture":23,"lines":[99521],"attr":"eco","postal_code":"441-0000","address":"豊橋市","next":[9952105,9952106,9952102,1141302,9952103,9952101],"voronoi":{"lat":34.774052,"lng":137.384065,"delta_lat":[0,2058,-12445,-168,1467,3476],"delta_lng":[0,1244,8016,29,-5578,-2082]},"impl":true},
    {"code":9952105,"id":"3c02f6","name":"市役所前(愛知)","original_name":"市役所前","name_kana":"しやくしょまえ","lat":34.767369,"lng":137.392488,"prefecture":23,"lines":[99521],"attr":"eco","postal_code":"441-0000","address":"豊橋市","next":[1141305,9952104,1141302,9952106],"voronoi":{"lat":34.763666,"lng":137.393325,"delta_lat":[0,12445,12942,1847],"delta_lng":[0,-8016,5909,7035]},"impl":true},
    {"code":1150217,"left":3000116,"right":3000104,"id":"3b52f5","name":"三ヶ根","name_kana":"さんがね","lat":34.836449,"lng":137.176348,"prefecture":23,"lines":[11502],"attr":"heat","postal_code":"444-0124","address":"愛知県額田郡幸田町大字深溝字大池田12-1","next":[3000409,3000404,3000408,1150218,3000405,3000403,1150216],"voronoi":{"lat":34.864992,"lng":137.203624,"delta_lat":[0,-34303,-2289,-11804,-2489,13186,17715],"delta_lng":[0,-67800,1829,17975,8704,22871,7931]},"impl":true},
    {"code":3000116,"left":3000114,"right":9951106,"id":"f8c850","name":"宇頭","name_kana":"うとう","lat":34.971367,"lng":137.118103,"prefecture":23,"lines":[30001],"attr":"cool","postal_code":"444-0905","address":"岡崎市宇頭町山ノ神","next":[1150220,3000115,3000303,9951106,3000302,9951107,3000117],"voronoi":{"lat":34.979794,"lng":137.10209,"delta_lat":[0,-21095,-2095,3494,18551,16928,1673],"delta_lng":[0,5437,1584,17038,8674,-19756,-4683]},"impl":true},
    {"code":3000114,"left":9951103,"right":1150219,"id":"a8ac09","name":"岡崎公園前","name_kana":"おかざきこうえんまえ","lat":34.954984,"lng":137.153309,"prefecture":23,"lines":[30001],"attr":"cool","postal_code":"444-0921","address":"岡崎市中岡崎町","next":[3000115,3000113,9951102,9951103],"voronoi":{"lat":34.94746,"lng":137.159007,"delta_lat":[0,1560,2076,8589],"delta_lng":[0,-16551,959,18277]},"impl":true},
    {"code":9951103,"left":9951102,"right":3000115,"id":"48c7a7","name":"中岡崎","name_kana":"なかおかざき","lat":34.956231,"lng":137.152723,"prefecture":23,"lines":[99511],"attr":"cool","postal_code":"444-0923","address":"岡崎市八帖町字住環通り","next":[3000115,3000113,9951104,3000114],"voronoi":{"lat":34.951095,"lng":137.143414,"delta_lat":[0,15048,-4110,-2349],"delta_lng":[0,5797,13176,-696]},"impl":true},
    {"code":9951102,"left":1150220,"id":"78ee62","name":"六名","name_kana":"むつな","lat":34.941132,"lng":137.152004,"prefecture":23,"lines":[99511],"attr":"cool","postal_code":"444-0846","address":"岡崎市六名新町","next":[1150219,3000113,3000114,1150220,3000115],"voronoi":{"lat":34.946381,"lng":137.138073,"delta_lat":[0,-19875,10644,10309,1560],"delta_lng":[0,-3753,31931,-7245,-16551]},"impl":true},
    {"code":1150220,"id":"1bad7a","name":"西岡崎","name_kana":"にしおかざき","lat":34.946572,"lng":137.123187,"prefecture":23,"lines":[11502],"attr":"heat","postal_code":"444-0938","address":"岡崎市昭和町北浦","next":[3000304,3000116,3000305,3000115,3000306,1150219,3000303,9951102],"voronoi":{"lat":34.960098,"lng":137.12615,"delta_lat":[0,-3494,-13629,-13088,-10655,-9171,16445,19875],"delta_lng":[0,-17038,-2397,3782,5951,7659,10214,3753]},"impl":true},
    {"code":3000115,"id":"16d648","name":"矢作橋","name_kana":"やはぎばし","lat":34.961149,"lng":137.139957,"prefecture":23,"lines":[30001],"attr":"cool","postal_code":"444-0943","address":"岡崎市矢作町字馬乗","next":[9951103,9951104,3000114,3000116,1150220,9951106,9951102,9951105],"voronoi":{"lat":34.978689,"lng":137.137579,"delta_lat":[0,-39,-18551,-13717,2638,2076,15048,7824],"delta_lng":[0,-2755,-8674,11924,4382,959,5797,-4908]},"impl":true},
    {"code":1150219,"left":1150218,"right":3000113,"id":"ee2a2f","name":"岡崎","name_kana":"おかざき","lat":34.925417,"lng":137.157243,"prefecture":23,"lines":[11502,99511],"attr":"heat","postal_code":"444-0813","address":"岡崎市羽根町東荒子","next":[3000111,1150242,9951102,3000113,3000306,1150220,3000112],"voronoi":{"lat":34.936514,"lng":137.167924,"delta_lat":[0,637,-10644,-16445,-6288,4185,10004],"delta_lng":[0,-1672,-31931,-10214,724,51245,424]},"impl":true},
    {"code":1150218,"left":1150242,"id":"91f1d5","name":"幸田","name_kana":"こうだ","lat":34.859926,"lng":137.16447,"prefecture":23,"lines":[11502],"attr":"heat","postal_code":"444-0116","address":"額田郡幸田町芦谷字幸田","next":[3000313,1150217,3000403,3000110,1150242,3000409,3000309],"voronoi":{"lat":34.860672,"lng":137.11308,"delta_lat":[0,-19459,-10523,34303,4837,9402,-12705],"delta_lng":[0,6302,16442,67800,4430,-9300,-85057]},"impl":true},
    {"code":1150242,"id":"3ee381","name":"相見","name_kana":"あいみ","lat":34.887676,"lng":137.160325,"prefecture":23,"lines":[11502],"attr":"heat","postal_code":"444-0113","address":"愛知県額田郡幸田町大字菱池字カマ46","open_date":"2012-03-12","next":[1150219,3000306,3000111,3000316,3000110,1150218,3000309],"voronoi":{"lat":34.870931,"lng":137.112928,"delta_lat":[0,8923,23919,4185,-17819,-10908,-12705],"delta_lng":[0,1999,9903,51245,17866,4812,-85057]},"impl":true},
    {"code":3000113,"id":"d4f80c","name":"東岡崎","name_kana":"ひがしおかざき","lat":34.951904,"lng":137.167333,"prefecture":23,"lines":[30001],"attr":"cool","postal_code":"444-0860","address":"岡崎市明大寺本町４丁目","next":[9951103,1150219,9951102,3000114,3000112,9951104],"voronoi":{"lat":34.936514,"lng":137.167924,"delta_lat":[0,637,10309,12225,2349,23453],"delta_lng":[0,-1672,-7245,2685,696,49845]},"impl":true},
    {"code":9951106,"left":3000516,"right":9951109,"id":"3ebbad","name":"北野桝塚","name_kana":"きたのますづか","lat":34.996289,"lng":137.139457,"prefecture":23,"lines":[99511],"attr":"cool","postal_code":"444-0951","address":"岡崎市北野町字二番訳","next":[3000116,9951107,9951108,9951105,3000115],"voronoi":{"lat":35.012261,"lng":137.167782,"delta_lat":[0,-200,-16483,-16928,39],"delta_lng":[0,-13123,-39591,19756,2755]},"impl":true},
    {"code":3000516,"left":9951108,"right":3000517,"id":"2f0e3c","name":"竹村","name_kana":"たけむら","lat":35.040067,"lng":137.11476,"prefecture":23,"lines":[30005],"attr":"cool","postal_code":"473-0906","address":"豊田市竹町宮下１６","next":[9951109,9951107,3000517,3000607,3000515,9951108],"voronoi":{"lat":35.042019,"lng":137.130853,"delta_lat":[0,36921,-5545,-53073,5101,15857],"delta_lng":[0,-45147,-9717,38686,7846,8318]},"impl":true},
    {"code":9951108,"left":9951107,"id":"0cda58","name":"永覚","name_kana":"えかく","lat":35.027361,"lng":137.138983,"prefecture":23,"lines":[99511],"attr":"cool","postal_code":"471-0000","address":"豊田市高根","next":[9951105,9951109,9951107,9951106,3000516],"voronoi":{"lat":35.025422,"lng":137.122522,"delta_lat":[0,-13362,200,1766,27253],"delta_lng":[0,32137,13123,4991,-41933]},"impl":true},
    {"code":9951107,"id":"160ff9","name":"三河上郷","name_kana":"みかわかみごう","lat":35.012384,"lng":137.132756,"prefecture":23,"lines":[99511],"attr":"cool","postal_code":"470-1218","address":"豊田市上郷町５丁目","next":[3000117,3000516,9951106,9951108,3000116,3000515],"voronoi":{"lat":35.002054,"lng":137.107795,"delta_lat":[0,-4804,-1673,16483,13362,-5101],"delta_lng":[0,2589,4683,39591,-32137,-7846]},"impl":true},
    {"code":3000517,"id":"1ff13c","name":"土橋(愛知)","original_name":"土橋","name_kana":"つちはし","lat":35.058179,"lng":137.129572,"prefecture":23,"lines":[30005],"attr":"cool","postal_code":"471-0842","address":"豊田市土橋町８-１４５","next":[3000606,9951110,9951109,3000605,9951111,3000607,3000516,3000604,9951112],"voronoi":{"lat":35.063731,"lng":137.141156,"delta_lat":[0,-13846,-7867,36921,892,7203,4657,-169,-8308],"delta_lng":[0,-1802,-8501,-45147,935,13103,17442,1406,10358]},"impl":true},
    {"code":9951109,"left":9951104,"right":9951110,"id":"a16117","name":"末野原","name_kana":"すえのはら","lat":35.03949,"lng":137.146866,"prefecture":23,"lines":[99511],"attr":"cool","postal_code":"470-1201","address":"豊田市豊栄町１２丁目","next":[3000517,3000516,9951110,9951108,9951105],"voronoi":{"lat":35.014026,"lng":137.172773,"delta_lat":[0,27253,739,7867,-26175],"delta_lng":[0,-41933,14,8501,102370]},"impl":true},
    {"code":9951104,"left":9951105,"id":"00a3d6","name":"北岡崎","name_kana":"きたおかざき","lat":34.972301,"lng":137.157736,"prefecture":23,"lines":[99511],"attr":"cool","postal_code":"444-0913","address":"岡崎市葵町","next":[3000115,9951103,3000112,3000113,9951105],"voronoi":{"lat":34.973968,"lng":137.144303,"delta_lat":[0,-7824,-4110,23453,12434],"delta_lng":[0,4908,13176,49845,16949]},"impl":true},
    {"code":9951105,"id":"d4b6d6","name":"大門(愛知)","original_name":"大門","name_kana":"だいもん","lat":34.982411,"lng":137.154883,"prefecture":23,"lines":[99511],"attr":"cool","postal_code":"444-2134","address":"岡崎市大樹寺２丁目","next":[3000112,3000521,3000110,9951108,9951104,9951110,9951106,3000115,9951109],"voronoi":{"lat":35.014026,"lng":137.172773,"delta_lat":[0,-1766,-33572,-4721,23953,24103,2361,670,-1344],"delta_lng":[0,-4991,-30203,6725,84878,38131,2569,-3318,-24839]},"impl":true},
    {"code":9951110,"id":"be31ea","name":"三河豊田","name_kana":"みかわとよた","lat":35.0554,"lng":137.150934,"prefecture":23,"lines":[99511],"attr":"cool","postal_code":"471-0826","address":"豊田市トヨタ町","next":[9951111,3000521,3000517,3000518,9951109,9951105],"voronoi":{"lat":35.023711,"lng":137.241725,"delta_lat":[0,26175,13846,-200,-15454,-23023],"delta_lng":[0,-102370,1802,11983,72258,41166]},"impl":true},
    {"code":3000104,"left":3000202,"right":3000108,"id":"59ae7e","name":"国府(愛知)","original_name":"国府","name_kana":"こう","lat":34.83752,"lng":137.328101,"prefecture":23,"lines":[30001,30002],"attr":"cool","postal_code":"442-0856","address":"豊川市久保町葉善寺","next":[3000202,3000103,1150212,3000105],"voronoi":{"lat":34.830642,"lng":137.31035,"delta_lat":[0,-9392,5666,34302],"delta_lng":[0,20140,7380,11943]},"impl":true},
    {"code":3000202,"left":1150216,"right":1141306,"id":"22a25b","name":"八幡(愛知)","original_name":"八幡","name_kana":"やわた","lat":34.82916,"lng":137.352113,"prefecture":23,"lines":[30002],"attr":"heat","postal_code":"442-0857","address":"豊川市八幡町野路","next":[3000104,3000203,3000105,1141307,3000106,3000103],"voronoi":{"lat":34.826916,"lng":137.337871,"delta_lat":[0,34302,30892,340,-24029,-50872],"delta_lng":[0,11943,17075,251,7216,-15777]},"impl":true},
    {"code":1150216,"left":1150214,"right":3000409,"id":"d99dea","name":"三河塩津","name_kana":"みかわしおつ","lat":34.825295,"lng":137.201261,"prefecture":23,"lines":[11502],"attr":"heat","postal_code":"443-0046","address":"蒲郡市竹谷町油井","next":[3000409,3000408,1150217],"voronoi":{"lat":34.807652,"lng":137.207536,"delta_lat":[0,19641,17715],"delta_lng":[0,-20334,7931]},"impl":true},
    {"code":1150214,"left":1150215,"id":"f03b39","name":"三河三谷","name_kana":"みかわみや","lat":34.818546,"lng":137.247795,"prefecture":23,"lines":[11502],"attr":"heat","postal_code":"443-0021","address":"蒲郡市三谷町上野","next":[3000407,9952016,1150213,1150215,3000107,3000108,3000406],"voronoi":{"lat":34.742839,"lng":137.259397,"delta_lat":[0,102592,10329,1507,-83420,-14443,-19344],"delta_lng":[0,8196,-13537,-9185,-17719,4556,7974]},"impl":true},
    {"code":1150215,"id":"b96ff7","name":"蒲郡","name_kana":"がまごおり","lat":34.823078,"lng":137.226459,"prefecture":23,"lines":[11502,30004],"attr":"heat","postal_code":"443-0043","address":"蒲郡市元町","next":[1150214,3000108,3000407,3000408,3000109,3000409],"voronoi":{"lat":34.803061,"lng":137.212092,"delta_lat":[0,-6324,-22890,83420,3284,4222],"delta_lng":[0,1680,13380,17719,-6845,-19706]},"impl":true},
    {"code":3000409,"id":"d03f4c","name":"蒲郡競艇場前","name_kana":"がまごおりきょうていじょうまえ","lat":34.825545,"lng":137.202014,"prefecture":23,"lines":[30004],"attr":"eco","postal_code":"443-0046","address":"蒲郡市竹谷町油井１７-９","next":[3000110,1150217,1150216,3000109,3000408,1150215,1150218],"voronoi":{"lat":34.869516,"lng":137.20973,"delta_lat":[0,-4743,-61712,4591,37356,19984,4837],"delta_lng":[0,8590,-6228,-4555,-12403,8490,4430]},"impl":true},
    {"code":1141306,"left":3000205,"right":3000203,"id":"abbb82","name":"豊川(愛知)","original_name":"豊川","name_kana":"とよかわ","lat":34.822519,"lng":137.397157,"prefecture":23,"lines":[11413],"attr":"heat","postal_code":"442-0033","address":"豊川市豊川町","next":[1141307,3000205,3000203,9952112,9952110,9952113,9952111],"voronoi":{"lat":34.797384,"lng":137.417465,"delta_lat":[0,-855,43154,9977,-40154,-7510,-1973],"delta_lng":[0,-3056,-30000,353,58625,-13546,-4651]},"impl":true},
    {"code":3000205,"left":3000204,"id":"983b66","name":"豊川稲荷","name_kana":"とよかわいなり","lat":34.821755,"lng":137.396058,"prefecture":23,"lines":[30002],"attr":"eco","postal_code":"442-0033","address":"豊川市豊川町仁保通１８","next":[1141306,9952110,1141305,3000203,9952109,3000204],"voronoi":{"lat":34.83901,"lng":137.384364,"delta_lat":[0,673,-43154,-241,-1375,10666],"delta_lng":[0,45,30000,-796,-6185,-9780]},"impl":true},
    {"code":3000204,"id":"0139b2","name":"稲荷口","name_kana":"いなりぐち","lat":34.818435,"lng":137.387703,"prefecture":23,"lines":[30002],"attr":"cool","postal_code":"442-0044","address":"豊川市二見町駅前通","next":[3000203,1141305,3000205],"voronoi":{"lat":34.817529,"lng":137.378092,"delta_lat":[0,21482,-33431],"delta_lng":[0,6272,13284]},"impl":true},
    {"code":3000203,"id":"6fff0e","name":"諏訪町","name_kana":"すわちょう","lat":34.823464,"lng":137.370479,"prefecture":23,"lines":[30002],"attr":"heat","postal_code":"442-0068","address":"豊川市諏訪３-２５０","next":[3000202,1141307,1141306,3000204,1141304,3000205,3000102,3000103,1141305],"voronoi":{"lat":34.810095,"lng":137.368195,"delta_lat":[0,719,4946,1789,50872,-18761,-9977,-673,-21482],"delta_lng":[0,-2512,-6478,-627,15777,10407,-353,-45,-6272]},"impl":true},
    {"code":3000108,"left":3000111,"right":3000106,"id":"267a9f","name":"本宿(愛知)","original_name":"本宿","name_kana":"もとじゅく","lat":34.893025,"lng":137.260014,"prefecture":23,"lines":[30001],"attr":"cool","postal_code":"444-3505","address":"岡崎市本宿町一里山","next":[1150215,1141312,3000109,1141310,3000521,3000107,1150214,1141308,3000522],"voronoi":{"lat":35.031539,"lng":137.303938,"delta_lat":[0,-755,-170233,-3284,-1507,148898,14777,25670,9241],"delta_lng":[0,-2030,-63883,6845,9185,112669,2463,2202,-321]},"impl":true},
    {"code":3000111,"left":3000109,"right":3000112,"id":"f0ec09","name":"美合","name_kana":"みあい","lat":34.923763,"lng":137.196317,"prefecture":23,"lines":[30001],"attr":"cool","postal_code":"444-0802","address":"岡崎市美合町一ノ久保","next":[1150219,1150242,3000112,3000110],"voronoi":{"lat":34.89014,"lng":137.193942,"delta_lat":[0,17819,10004,52858],"delta_lng":[0,-17866,424,55606]},"impl":true},
    {"code":3000109,"left":3000110,"id":"15cf91","name":"名電山中","name_kana":"めいでんやまなか","lat":34.899474,"lng":137.242829,"prefecture":23,"lines":[30001],"attr":"cool","postal_code":"444-3511","address":"岡崎市舞木町山中町","next":[3000521,3000409,3000110,3000108,1150215],"voronoi":{"lat":34.864774,"lng":137.21832,"delta_lat":[0,4743,160987,281,-170233],"delta_lng":[0,-8590,91244,935,-63883]},"impl":true},
    {"code":3000110,"id":"97d701","name":"藤川","name_kana":"ふじかわ","lat":34.913304,"lng":137.218428,"prefecture":23,"lines":[30001],"attr":"cool","postal_code":"444-3523","address":"岡崎市藤川町字松本","next":[3000409,9951105,3000109,1150242,3000111,1150218,3000521,3000112],"voronoi":{"lat":34.97082,"lng":137.232105,"delta_lat":[0,-80681,-10908,-9402,-313,160987,-6119,-2361],"delta_lng":[0,-38164,4812,9300,1676,91244,-31092,-2569]},"impl":true},
    {"code":3000112,"id":"001a97","name":"男川","name_kana":"おとがわ","lat":34.937461,"lng":137.183296,"prefecture":23,"lines":[30001],"attr":"cool","postal_code":"444-0811","address":"岡崎市大西町揚枝","next":[9951105,3000111,9951104,3000113,3000110,1150219],"voronoi":{"lat":34.936514,"lng":137.167924,"delta_lat":[0,48973,12434,24103,-51203,-52858],"delta_lng":[0,44309,16949,38131,-35207,-55606]},"impl":true},
    {"code":3000106,"left":3000105,"right":3000107,"id":"339a34","name":"名電赤坂","name_kana":"めいでんあかさか","lat":34.859331,"lng":137.311152,"prefecture":23,"lines":[30001],"attr":"cool","postal_code":"441-0202","address":"豊川市赤坂町松本","next":[3000107,1150213,1141308,3000105,3000202,1141307],"voronoi":{"lat":34.89245,"lng":137.367139,"delta_lat":[0,-340,-54496,5846,145084,-77362],"delta_lng":[0,-251,-69996,-9009,78033,3292]},"impl":true},
    {"code":3000105,"id":"3b7f86","name":"御油","name_kana":"ごゆ","lat":34.846113,"lng":137.321443,"prefecture":23,"lines":[30001],"attr":"cool","postal_code":"441-0211","address":"豊川市御油町西井領","next":[1150212,3000202,1150213,3000106,3000104],"voronoi":{"lat":34.89211,"lng":137.366889,"delta_lat":[0,-54496,-5639,-1333,30576],"delta_lng":[0,-69996,4440,9018,39463]},"impl":true},
    {"code":3000107,"id":"1b2600","name":"名電長沢","name_kana":"めいでんながさわ","lat":34.871623,"lng":137.288298,"prefecture":23,"lines":[30001],"attr":"cool","postal_code":"441-0203","address":"豊川市長沢町音羽","next":[1150213,3000106,1150214,1141308,3000108],"voronoi":{"lat":34.855761,"lng":137.254056,"delta_lat":[0,-10329,-1971,145084,16114],"delta_lng":[0,13537,20291,78033,808]},"impl":true}
  ]
}