{
  "name":"segment31",
  "root":3001813,
  "east":137.400288,
  "west":136.820942,
  "south":35.222478,
  "north":36.57605,
  "station_size":155,
  "node_list":[
    {"code":3001813,"left":3001603,"right":9952502,"id":"568071","name":"羽黒(愛知)","original_name":"羽黒","name_kana":"はぐろ","lat":35.351519,"lng":136.952486,"prefecture":23,"lines":[30018],"attr":"eco","postal_code":"484-0894","address":"犬山市羽黒字古市場７５-１","next":[3001517,3001516,3001703,3001702,3001812,3001515,3001518],"voronoi":{"lat":35.354945,"lng":136.988028,"delta_lat":[0,-21480,9816,4306,11319,7813,86],"delta_lng":[0,29812,-86311,948,6574,14137,353]},"impl":true},
    {"code":3001603,"left":3001515,"right":9952509,"id":"713ee1","name":"羽場(岐阜)","original_name":"羽場","name_kana":"はば","lat":35.40119,"lng":136.921535,"prefecture":21,"lines":[30016],"attr":"cool","postal_code":"509-0135","address":"各務原市鵜沼羽場町６丁目","next":[3001602,3001604,9952506,3001516],"voronoi":{"lat":35.44002,"lng":136.931249,"delta_lat":[0,535,-57963,1662],"delta_lng":[0,-5737,-13026,12823]},"impl":true},
    {"code":3001515,"left":3001513,"right":3001811,"id":"7e7f21","name":"扶桑","name_kana":"ふそう","lat":35.359557,"lng":136.91597,"prefecture":23,"lines":[30015],"attr":"heat","postal_code":"480-0102","address":"丹羽郡扶桑町大字高雄字下山","next":[3001606,3001514,3001605,3001516,3001813,3001811,3001812],"voronoi":{"lat":35.334964,"lng":136.924461,"delta_lat":[0,-123,36680,6546,2806,-33286,-4306],"delta_lng":[0,-187,-34266,9953,8045,24471,-948]},"impl":true},
    {"code":3001513,"left":3001508,"right":3001609,"id":"1b4f26","name":"江南(愛知)","original_name":"江南","name_kana":"こうなん","lat":35.33475,"lng":136.872109,"prefecture":23,"lines":[30015],"attr":"heat","postal_code":"483-8213","address":"江南市古知野町字朝日","next":[3001607,3000152,3001612,3001609,1150237,1150238,3000151,3001512,3001608,3001611,3001610,3001514],"voronoi":{"lat":35.323938,"lng":136.832325,"delta_lat":[0,4560,13632,4561,5442,3301,4536,2918,3089,1920,-576,-40469],"delta_lng":[0,-2018,-2697,-450,868,4472,7751,6343,8154,12059,9471,14499]},"impl":true},
    {"code":3001508,"left":3001511,"right":3001509,"id":"0b681e","name":"徳重・名古屋芸大","name_kana":"とくしげ・なごやげいだい","lat":35.256045,"lng":136.873384,"prefecture":23,"lines":[30015],"attr":"cool","postal_code":"481-0038","address":"北名古屋市徳重大畑","next":[3001509,3001507,1150236,9951004],"voronoi":{"lat":35.246665,"lng":136.891812,"delta_lat":[0,8409,9728,-9753],"delta_lng":[0,-44681,-566,53366]},"impl":true},
    {"code":3001511,"left":3001507,"right":3001512,"id":"6f5fb9","name":"石仏","name_kana":"いしぼとけ","lat":35.295545,"lng":136.871144,"prefecture":23,"lines":[30015],"attr":"heat","postal_code":"482-0034","address":"岩倉市石仏町","next":[3001510,3001808,3001512,1150237,1150236,3000149],"voronoi":{"lat":35.282301,"lng":136.839235,"delta_lat":[0,8129,13432,5618,-13359,-9033],"delta_lng":[0,60353,1499,-65817,-1129,1036]},"impl":true},
    {"code":3001507,"left":1150235,"id":"f72bf5","name":"西春","name_kana":"にしはる","lat":35.244627,"lng":136.871235,"prefecture":23,"lines":[30015],"attr":"cool","postal_code":"481-0041","address":"北名古屋市九之坪南町","next":[9951004,3001506,1150236,3001508,9951002,1150235],"voronoi":{"lat":35.230307,"lng":136.860199,"delta_lat":[0,7235,9124,8409,-6887,-14480],"delta_lng":[0,26810,4802,-44681,-1146,7583]},"impl":true},
    {"code":1150235,"id":"bfecc7","name":"清洲","name_kana":"きよす","lat":35.225406,"lng":136.834529,"prefecture":23,"lines":[11502],"attr":"eco","postal_code":"492-8173","address":"稲沢市北市場町","next":[3000145,9951002,3000144,1150236,3001507],"voronoi":{"lat":35.21906,"lng":136.844687,"delta_lat":[0,-1417,21263,9282,-14480],"delta_lng":[0,-18619,1070,18847,7583]},"impl":true},
    {"code":3001512,"id":"201c1c","name":"布袋","name_kana":"ほてい","lat":35.317135,"lng":136.872987,"prefecture":23,"lines":[30015],"attr":"heat","postal_code":"483-8141","address":"江南市布袋町西布","next":[3001514,3001511,1150237,3001808,3001513],"voronoi":{"lat":35.312457,"lng":136.905423,"delta_lat":[0,-8595,5618,14457,2914],"delta_lng":[0,-4336,-65817,-2946,58452]},"impl":true},
    {"code":3001509,"left":9951004,"right":3001510,"id":"5fc92f","name":"大山寺","name_kana":"たいさんじ","lat":35.263508,"lng":136.874748,"prefecture":23,"lines":[30015],"attr":"cool","postal_code":"482-0014","address":"岩倉市大山寺町東出","next":[9951004,3001807,1150236,3001805,3001508,3001806,3001510],"voronoi":{"lat":35.268324,"lng":136.845877,"delta_lat":[0,-3521,-9753,2457,9711,232,5594],"delta_lng":[0,688,53366,3177,-86,-34,-1924]},"impl":true},
    {"code":9951004,"left":3001506,"id":"a1ea5f","name":"比良(愛知)","original_name":"比良","name_kana":"ひら","lat":35.228549,"lng":136.90178,"prefecture":23,"lines":[99510],"attr":"heat","postal_code":"452-0802","address":"名古屋市西区比良３","next":[3001509,9951405,3001507,9951003,3001506,9951005,3001801,3001508,9951603,3001805,9951602,3001804],"voronoi":{"lat":35.218062,"lng":136.917365,"delta_lat":[0,-2817,-2612,1798,11447,9189,2474,9124,8384,2457,-7891,-6327],"delta_lng":[0,-2497,-9757,-4033,-10324,-3240,-504,4802,8119,3177,9463,4004]},"impl":true},
    {"code":3001506,"id":"a692a3","name":"上小田井","name_kana":"かみおたい","lat":35.223482,"lng":136.876941,"prefecture":23,"lines":[30015,99516],"attr":"cool","postal_code":"452-0816","address":"名古屋市西区貴生町","next":[9951002,3001507,3001505,9951004,9951003],"voronoi":{"lat":35.237541,"lng":136.887009,"delta_lat":[0,-7235,-11024,-212,15997],"delta_lng":[0,-26810,5275,11049,10990]},"impl":true},
    {"code":3001510,"id":"f9abd0","name":"岩倉(愛知)","original_name":"岩倉","name_kana":"いわくら","lat":35.277972,"lng":136.873511,"prefecture":23,"lines":[30015],"attr":"cool","postal_code":"482-0043","address":"岩倉市本町１丁目","next":[3001511,3001808,3001807,3001509,1150236],"voronoi":{"lat":35.282301,"lng":136.839235,"delta_lat":[0,8129,-2029,-15358,-4720],"delta_lng":[0,60353,413,1062,-55187]},"impl":true},
    {"code":3001609,"left":1141603,"right":3001607,"id":"dbafcd","name":"各務原市役所前","name_kana":"かかみがはらしやくしょまえ","lat":35.400869,"lng":136.847067,"prefecture":21,"lines":[30016],"attr":"eco","postal_code":"504-0912","address":"各務原市那加桜町２丁目","next":[3001608,3001610,3001513,9952507,1141604,9952508],"voronoi":{"lat":35.464311,"lng":136.853376,"delta_lat":[0,-1750,-96584,-3089,111780,-3007],"delta_lng":[0,165,1207,-8154,-6338,4080]},"impl":true},
    {"code":1141603,"left":3001611,"right":3001610,"id":"a2bcc6","name":"那加","name_kana":"なか","lat":35.400538,"lng":136.835466,"prefecture":21,"lines":[11416],"attr":"cool","postal_code":"504-0966","address":"各務原市那加本町","next":[3001611,3001612,9952508,1141602,3001610],"voronoi":{"lat":35.476263,"lng":136.838243,"delta_lat":[0,12953,-17659,-43206,-42836],"delta_lng":[0,-14997,-807,4527,11762]},"impl":true},
    {"code":3001611,"left":3001612,"id":"e1459d","name":"新那加","name_kana":"しんなか","lat":35.400097,"lng":136.83386,"prefecture":21,"lines":[30016],"attr":"eco","postal_code":"504-0961","address":"各務原市那加新那加町","next":[1141603,3001612,3001610,3001513],"voronoi":{"lat":35.355433,"lng":136.8325,"delta_lat":[0,72917,-42836,-25545],"delta_lng":[0,-5534,11762,1523]},"impl":true},
    {"code":3001612,"id":"4566ca","name":"新加納","name_kana":"しんかのう","lat":35.39938,"lng":136.824414,"prefecture":21,"lines":[30016],"attr":"eco","postal_code":"504-0034","address":"各務原市那加浜見町１丁目","next":[3001613,3001611,1150238,1141603,3001513,1141602],"voronoi":{"lat":35.421217,"lng":136.816228,"delta_lat":[0,-63029,-6055,3301,72917,43206],"delta_lng":[0,4861,6938,4472,-5534,-4527]},"impl":true},
    {"code":3001610,"id":"eb95d3","name":"市民公園前","name_kana":"しみんこうえんまえ","lat":35.400572,"lng":136.841829,"prefecture":21,"lines":[30016],"attr":"eco","postal_code":"504-0911","address":"各務原市那加門前町４丁目","next":[3001609,9952508,3001611,1141603,3001513],"voronoi":{"lat":35.35997,"lng":136.84025,"delta_lat":[0,25545,90748,-1595,-111780],"delta_lng":[0,-1523,-485,2013,6338]},"impl":true},
    {"code":3001607,"left":3001514,"right":3001608,"id":"ad720a","name":"三柿野","name_kana":"みかきの","lat":35.400156,"lng":136.876084,"prefecture":21,"lines":[30016],"attr":"heat","postal_code":"504-0904","address":"各務原市蘇原三柿野町字往来添","next":[3001513,3001608,3001606,1141604,3001514],"voronoi":{"lat":35.415567,"lng":136.882763,"delta_lat":[0,-22225,-25446,-576,2736],"delta_lng":[0,-14391,-1566,9471,6286]},"impl":true},
    {"code":3001514,"left":3001606,"id":"604067","name":"柏森","name_kana":"かしわもり","lat":35.344807,"lng":136.900181,"prefecture":23,"lines":[30015],"attr":"heat","postal_code":"480-0103","address":"丹羽郡扶桑町柏森天神","next":[3001811,3001512,3001809,3001515,3001808,3001606,3001810,3001607,3001513],"voronoi":{"lat":35.312457,"lng":136.905423,"delta_lat":[0,50,5026,6108,11200,36680,-1465,-2736,-40469],"delta_lng":[0,98,6296,5406,7051,-34266,-7445,-6286,14499]},"impl":true},
    {"code":3001606,"id":"224603","name":"二十軒","name_kana":"にじっけん","lat":35.400098,"lng":136.889307,"prefecture":21,"lines":[30016],"attr":"heat","postal_code":"509-0146","address":"各務原市鵜沼三ツ池町３丁目","next":[3001515,1141604,1141605,3001607,3001514,3001605],"voronoi":{"lat":35.403784,"lng":136.894631,"delta_lat":[0,28553,-16770,-45511,1465,6546],"delta_lng":[0,-8988,-2879,-200,7445,9953]},"impl":true},
    {"code":3001608,"id":"886725","name":"六軒(岐阜)","original_name":"六軒","name_kana":"ろっけん","lat":35.40105,"lng":136.861554,"prefecture":21,"lines":[30016],"attr":"heat","postal_code":"504-0905","address":"各務原市蘇原六軒町４丁目","next":[3001607,3001609,1141604,3001513],"voronoi":{"lat":35.393343,"lng":136.868372,"delta_lat":[0,69218,-96584,1920],"delta_lng":[0,-14832,1207,12059]},"impl":true},
    {"code":3001811,"left":9951005,"right":1141606,"id":"ba4337","name":"田県神社前","name_kana":"たがたじんじゃまえ","lat":35.317422,"lng":136.943675,"prefecture":23,"lines":[30018],"attr":"heat","postal_code":"485-0003","address":"小牧市久保一色字佃１０５２-２","next":[3001514,3001810,3001812,3001515,1141109],"voronoi":{"lat":35.295554,"lng":136.98489,"delta_lat":[0,28088,11200,123,-32641],"delta_lng":[0,-67666,7051,187,66673]},"impl":true},
    {"code":9951005,"left":3001807,"right":3001809,"id":"1ae087","name":"味美(東海交通事業)","original_name":"味美","name_kana":"あじよし","lat":35.229504,"lng":136.932263,"prefecture":23,"lines":[99510],"attr":"heat","postal_code":"486-0956","address":"愛知県春日井市中新町二丁目","next":[3001802,9951004,3001804,3001801,3001803],"voronoi":{"lat":35.241986,"lng":136.92342,"delta_lat":[0,1302,-25226,-203,10790],"delta_lng":[0,-6846,790,1985,19690]},"impl":true},
    {"code":3001807,"left":3001805,"right":3001808,"id":"272885","name":"小牧口","name_kana":"こまきぐち","lat":35.281717,"lng":136.927675,"prefecture":23,"lines":[30018],"attr":"cool","postal_code":"485-0023","address":"小牧市北外山字大畔","next":[3001509,3001510,3001808,3001806],"voronoi":{"lat":35.288401,"lng":136.900001,"delta_lat":[0,-15358,-5594,15826],"delta_lng":[0,1062,1924,45490]},"impl":true},
    {"code":3001805,"left":3001806,"id":"b53c82","name":"牛山","name_kana":"うしやま","lat":35.264014,"lng":136.931356,"prefecture":23,"lines":[30018],"attr":"cool","postal_code":"486-0901","address":"春日井市牛山町字下荒井９５１","next":[3001509,1141108,3001804,3001806,9951004],"voronoi":{"lat":35.267909,"lng":136.963877,"delta_lat":[0,566,-1258,-9711,-7891],"delta_lng":[0,219,-61075,86,9463]},"impl":true},
    {"code":3001806,"id":"78ac5d","name":"間内","name_kana":"まない","lat":35.271585,"lng":136.9312,"prefecture":23,"lines":[30018],"attr":"cool","postal_code":"486-0901","address":"春日井市牛山町字間内２８１-３","next":[3001809,3001509,3001805,3001807,1141108,3001808],"voronoi":{"lat":35.279924,"lng":136.970115,"delta_lat":[0,-11449,-1258,232,15826,79],"delta_lng":[0,-6019,-61075,-34,45490,507]},"impl":true},
    {"code":3001808,"id":"15ac6b","name":"小牧","name_kana":"こまき","lat":35.28915,"lng":136.928461,"prefecture":23,"lines":[30018],"attr":"heat","postal_code":"485-0029","address":"小牧市中央１丁目","next":[3001511,3001510,3001809,3001514,3001807,3001512,3001806],"voronoi":{"lat":35.283275,"lng":136.948478,"delta_lat":[0,5126,2029,13432,8595,50,-29153],"delta_lng":[0,-48476,-413,1499,4336,98,43463]},"impl":true},
    {"code":3001809,"left":3001803,"right":3001810,"id":"f6105c","name":"小牧原","name_kana":"こまきはら","lat":35.300145,"lng":136.935836,"prefecture":23,"lines":[30018],"attr":"heat","postal_code":"485-0012","address":"小牧市小牧原新田字南原","next":[3001810,3001514,3001806,3001808,1141108],"voronoi":{"lat":35.279924,"lng":136.970115,"delta_lat":[0,3430,29153,5026,-31745],"delta_lng":[0,-21131,-43463,6296,65055]},"impl":true},
    {"code":3001803,"left":3001804,"id":"f19125","name":"味美(名古屋鉄道)","original_name":"味美","name_kana":"あじよし","lat":35.235209,"lng":136.937134,"prefecture":23,"lines":[30018],"attr":"cool","postal_code":"486-0958","address":"愛知県春日井市西本町","next":[1141107,3001804,9951005,3001802],"voronoi":{"lat":35.243566,"lng":136.949819,"delta_lat":[0,-1579,-13337,-516],"delta_lng":[0,-26399,15619,6437]},"impl":true},
    {"code":3001804,"id":"62f1b4","name":"春日井(名古屋鉄道)","original_name":"春日井","name_kana":"かすがい","lat":35.25035,"lng":136.936228,"prefecture":23,"lines":[30018],"attr":"cool","postal_code":"486-0963","address":"春日井市大字春日井町字土合","next":[1141107,3001805,3001803,9951005,1141108,9951004],"voronoi":{"lat":35.241986,"lng":136.92342,"delta_lat":[0,1579,11956,12388,-18294,-6327],"delta_lng":[0,26399,12238,1820,-51307,4004]},"impl":true},
    {"code":3001810,"id":"226bd8","name":"味岡","name_kana":"あじおか","lat":35.309301,"lng":136.940304,"prefecture":23,"lines":[30018],"attr":"heat","postal_code":"485-0011","address":"小牧市岩崎１４３","next":[3001809,1141108,3001811,3001514,1141109],"voronoi":{"lat":35.323642,"lng":136.917223,"delta_lat":[0,-6108,-31745,821,8944],"delta_lng":[0,-5406,65055,1208,6809]},"impl":true},
    {"code":1141606,"left":3001520,"right":3001518,"id":"1c318f","name":"鵜沼","name_kana":"うぬま","lat":35.397897,"lng":136.945122,"prefecture":21,"lines":[11416],"attr":"cool","postal_code":"509-0124","address":"各務原市鵜沼山崎町３丁目","next":[3001520,1141607,3001519,3001602,3001703],"voronoi":{"lat":35.430836,"lng":136.944223,"delta_lat":[0,-29465,-6705,3570,8711],"delta_lng":[0,-4971,9112,15242,2035]},"impl":true},
    {"code":3001520,"left":3001517,"right":3001602,"id":"944974","name":"新鵜沼","name_kana":"しんうぬま","lat":35.396799,"lng":136.944314,"prefecture":21,"lines":[30015,30016],"attr":"cool","postal_code":"509-0125","address":"各務原市鵜沼南町","next":[3001519,1141606,3001602],"voronoi":{"lat":35.389764,"lng":136.936074,"delta_lat":[0,4902,6705],"delta_lng":[0,12289,-9112]},"impl":true},
    {"code":3001517,"left":3001516,"id":"fcf795","name":"犬山口","name_kana":"いぬやまぐち","lat":35.374212,"lng":136.939945,"prefecture":23,"lines":[30015],"attr":"eco","postal_code":"484-0081","address":"犬山市大字犬山字末友","next":[3001516,3001813,3001602,3001518],"voronoi":{"lat":35.386291,"lng":136.933379,"delta_lat":[0,-2148,-25236,7813],"delta_lng":[0,-7513,13186,14137]},"impl":true},
    {"code":3001516,"id":"6b6030","name":"木津用水","name_kana":"こつようすい","lat":35.366914,"lng":136.925977,"prefecture":23,"lines":[30015],"attr":"eco","postal_code":"480-0102","address":"丹羽郡扶桑町大字高雄字米の山","next":[3001517,3001813,3001515,3001604,3001602,3001603,3001605],"voronoi":{"lat":35.382592,"lng":136.912487,"delta_lat":[0,1662,-111,-25236,-11319,33286,61],"delta_lng":[0,12823,556,13186,-6574,-24471,86]},"impl":true},
    {"code":3001602,"id":"9b2fcc","name":"鵜沼宿","name_kana":"うぬまじゅく","lat":35.400015,"lng":136.932567,"prefecture":21,"lines":[30016],"attr":"cool","postal_code":"509-0132","address":"各務原市鵜沼西町４丁目","next":[3001603,1141607,3001519,9952506,3001517,3001520,3001516,1141606,9952505,3001518],"voronoi":{"lat":35.386291,"lng":136.933379,"delta_lat":[0,-2148,111,55766,105,-900,-8389,-29465,-11607,-3076],"delta_lng":[0,-7513,-556,5940,2262,5722,4989,-4971,-3177,-2080]},"impl":true},
    {"code":3001518,"left":3001812,"right":3001519,"id":"65b458","name":"犬山","name_kana":"いぬやま","lat":35.379871,"lng":136.945536,"prefecture":23,"lines":[30015,30017,30018],"attr":"eco","postal_code":"484-0081","address":"犬山市大字犬山字富士見町","next":[3001519,3001517,3001602,3001813,3001702],"voronoi":{"lat":35.366806,"lng":136.953542,"delta_lat":[0,-86,19571,397,-2587],"delta_lng":[0,-353,-19810,616,19926]},"impl":true},
    {"code":3001812,"id":"f3d412","name":"楽田","name_kana":"がくでん","lat":35.330548,"lng":136.950101,"prefecture":23,"lines":[30018],"attr":"eco","postal_code":"484-0861","address":"犬山市若宮１２６-２","next":[3001703,1141109,3001813,3001811,1141110,3001515],"voronoi":{"lat":35.333465,"lng":137.017841,"delta_lat":[0,-1697,-12116,-17329,32641,8317],"delta_lng":[0,3356,-8565,-21497,-66673,7068]},"impl":true},
    {"code":3001519,"id":"603736","name":"犬山遊園","name_kana":"いぬやまゆうえん","lat":35.390331,"lng":136.946894,"prefecture":23,"lines":[30015],"attr":"eco","postal_code":"484-0081","address":"犬山市大字犬山字端泉寺","next":[3001520,3001703,3001518,3001602,3001702,1141606],"voronoi":{"lat":35.397705,"lng":136.963596,"delta_lat":[0,-13605,2587,3076,4902,3570],"delta_lng":[0,-9676,-19926,2080,12289,15242]},"impl":true},
    {"code":9952509,"left":9952532,"right":9952516,"id":"f410bf","name":"関市役所前","name_kana":"せきしやくしょまえ","lat":35.499004,"lng":136.912787,"prefecture":21,"lines":[99525],"attr":"eco","postal_code":"501-3217","address":"関市下有知字境松東","next":[9952508,9952510,1141602,3001617,9952506],"voronoi":{"lat":35.520002,"lng":136.802005,"delta_lat":[0,-21195,-3987,-349,8977],"delta_lng":[0,13227,3521,107968,10620]},"impl":true},
    {"code":9952532,"left":1141605,"right":9952535,"id":"f5a6a3","name":"上万場","name_kana":"かみまんば","lat":35.844429,"lng":136.876707,"prefecture":21,"lines":[99525],"attr":"heat","postal_code":"501-4611","address":"郡上市大和町万場字杵棚","next":[9952531,9952535,1141620,9952533],"voronoi":{"lat":35.805416,"lng":136.823376,"delta_lat":[0,123195,310,-48804],"delta_lng":[0,206940,-63,-122782]},"impl":true},
    {"code":1141605,"left":9952530,"right":9952528,"id":"5ebd9e","name":"各務ヶ原","name_kana":"かがみがはら","lat":35.403812,"lng":136.901106,"prefecture":21,"lines":[11416],"attr":"cool","postal_code":"509-0141","address":"岐阜県各務原市鵜沼各務原町一丁目243","next":[3001604,3001606,9952507,3001605,1141604],"voronoi":{"lat":35.403784,"lng":136.894631,"delta_lat":[0,-1160,40840,3830,-14957],"delta_lng":[0,12011,1973,-23297,325]},"impl":true},
    {"code":9952530,"left":3001605,"right":9952531,"id":"f0fbe3","name":"郡上大和","name_kana":"ぐじょうやまと","lat":35.815224,"lng":136.894872,"prefecture":21,"lines":[99525],"attr":"heat","postal_code":"501-4612","address":"郡上市大和町剣字小倉","next":[9952619,9952531,9952529,9952528],"voronoi":{"lat":35.891821,"lng":136.994649,"delta_lat":[0,-156655,-22758,55025],"delta_lng":[0,-245749,14688,85692]},"impl":true},
    {"code":3001605,"left":1141604,"id":"1f8551","name":"名電各務原","name_kana":"めいでんかかみがはら","lat":35.402518,"lng":136.900981,"prefecture":21,"lines":[30016],"attr":"heat","postal_code":"509-0141","address":"各務原市鵜沼各務原町２丁目","next":[3001515,3001604,1141605,3001516,3001606],"voronoi":{"lat":35.380874,"lng":136.908006,"delta_lat":[0,61,21690,1160,-25717],"delta_lng":[0,86,-1451,-12011,5331]},"impl":true},
    {"code":1141604,"id":"45f71c","name":"蘇原","name_kana":"そはら","lat":35.403167,"lng":136.871434,"prefecture":21,"lines":[11416],"attr":"cool","postal_code":"504-0821","address":"各務原市蘇原瑞雲町１丁目","next":[3001606,9952507,3001608,3001607,1141605,3001609],"voronoi":{"lat":35.393343,"lng":136.868372,"delta_lat":[0,22225,16770,14957,17016,-1750],"delta_lng":[0,14391,2879,-325,-31942,165]},"impl":true},
    {"code":9952531,"id":"68dd29","name":"万場","name_kana":"まんば","lat":35.833702,"lng":136.883093,"prefecture":21,"lines":[99525],"attr":"heat","postal_code":"501-4611","address":"郡上市大和町万場字会津","next":[9952532,9952530,9952619,9952529,1141620,9952533],"voronoi":{"lat":35.928611,"lng":137.030315,"delta_lat":[0,-9645,-27145,-156655,10205,60045],"delta_lng":[0,2310,-37977,-245749,-7583,82059]},"impl":true},
    {"code":9952528,"left":9952508,"right":9952529,"id":"e3befd","name":"山田(岐阜)","original_name":"山田","name_kana":"やまだ","lat":35.789003,"lng":136.911709,"prefecture":21,"lines":[99525],"attr":"heat","postal_code":"501-4606","address":"郡上市大和町河辺字長池","next":[9952619,9952529,9952521,9952525,9952530,9952527,9952517],"voronoi":{"lat":35.677847,"lng":136.789415,"delta_lat":[0,36490,112908,-59813,-55025,-35657,1036],"delta_lng":[0,69650,108069,-117854,-85692,18545,7067]},"impl":true},
    {"code":9952508,"left":3001604,"id":"295045","name":"関(岐阜)","original_name":"関","name_kana":"せき","lat":35.490027,"lng":136.912758,"prefecture":21,"lines":[99525],"attr":"cool","postal_code":"501-3881","address":"関市元重町","next":[9952509,9952507,1141603,3001610,1141602,9952506,3001609],"voronoi":{"lat":35.474667,"lng":136.840255,"delta_lat":[0,1595,12953,5604,-349,-5617,-17193],"delta_lng":[0,-2013,-14997,-4492,107968,-3504,-78882]},"impl":true},
    {"code":3001604,"id":"4d8488","name":"苧ヶ瀬","name_kana":"おがせ","lat":35.403273,"lng":136.912266,"prefecture":21,"lines":[30016],"attr":"cool","postal_code":"509-0141","address":"岐阜県各務原市鵜沼各務原町五丁目250","next":[1141605,3001516,9952506,3001605,3001603,9952507],"voronoi":{"lat":35.440554,"lng":136.925513,"delta_lat":[0,-57963,-1657,21690,40840,-93],"delta_lng":[0,-13026,-4394,-1451,1973,3887]},"impl":true},
    {"code":9952529,"id":"ee690e","name":"徳永","name_kana":"とくなが","lat":35.805087,"lng":136.903546,"prefecture":21,"lines":[99525],"attr":"heat","postal_code":"501-4607","address":"郡上市大和町徳永字ノゾエ","next":[9952528,9952530,9952531,1141620,9952527],"voronoi":{"lat":35.918966,"lng":137.032626,"delta_lat":[0,-27145,-124388,59813,60841],"delta_lng":[0,-37977,-145369,117854,76329]},"impl":true},
    {"code":9952535,"left":9952537,"right":1141712,"id":"6f0fe7","name":"美濃白鳥","name_kana":"みのしろとり","lat":35.884946,"lng":136.860602,"prefecture":21,"lines":[99525],"attr":"heat","postal_code":"501-5121","address":"郡上市白鳥町白鳥字大栗","next":[9952536,9952532,9952533,1141620,9952534],"voronoi":{"lat":35.88021,"lng":136.822573,"delta_lat":[0,128119,-79409,-48804,-5761],"delta_lng":[0,201729,5950,-122782,-23015]},"impl":true},
    {"code":9952537,"left":9952534,"right":9952538,"id":"ad5109","name":"白山長滝","name_kana":"はくさんながたき","lat":35.919722,"lng":136.832312,"prefecture":21,"lines":[99525],"attr":"heat","postal_code":"501-5104","address":"郡上市白鳥町長滝字大門","next":[9952538,9952534,1142123,9952536],"voronoi":{"lat":35.87604,"lng":136.811063,"delta_lat":[0,-30353,58568,24219],"delta_lng":[0,-58255,-5222,98242]},"impl":true},
    {"code":9952534,"left":9952536,"id":"456a70","name":"大島(岐阜)","original_name":"大島","name_kana":"おおしま","lat":35.868426,"lng":136.859039,"prefecture":21,"lines":[99525],"attr":"heat","postal_code":"501-5124","address":"郡上市白鳥町大島字蒲会津","next":[1142123,9952533,9952537,9952536,9952535],"voronoi":{"lat":35.782865,"lng":136.741341,"delta_lat":[0,62821,30353,4171,-5855],"delta_lng":[0,11467,58255,11511,61882]},"impl":true},
    {"code":9952536,"id":"e4b1e7","name":"白鳥高原","name_kana":"しろとりこうげん","lat":35.912617,"lng":136.843028,"prefecture":21,"lines":[99525],"attr":"heat","postal_code":"501-5103","address":"郡上市白鳥町二日町字清水垣内","next":[9952535,1141620,9952538,9952537,1141625,9952534],"voronoi":{"lat":36.00833,"lng":137.024303,"delta_lat":[0,40028,12489,-132373,-52434,4171],"delta_lng":[0,211,-5425,-173261,-34765,11511]},"impl":true},
    {"code":9952538,"id":"73aeb6","name":"北濃","name_kana":"ほくのう","lat":35.92994,"lng":136.829793,"prefecture":21,"lines":[99525],"attr":"heat","postal_code":"501-5102","address":"郡上市白鳥町歩岐島字中河原","next":[1141631,1142121,9952537,1141625,9952536,1141632,1142123,9941616],"voronoi":{"lat":36.130957,"lng":136.95073,"delta_lat":[0,-62585,-7525,-132373,-24219,132068,165606,26984],"delta_lng":[0,65504,2854,-173261,-98242,-19967,26746,68415]},"impl":true},
    {"code":1141712,"left":1141713,"right":1141711,"id":"e4b809","name":"越中山田","name_kana":"えっちゅうやまだ","lat":36.538513,"lng":136.887522,"prefecture":16,"lines":[11417],"attr":"eco","postal_code":"939-1734","address":"南砺市竹林","next":[1141710,1141713,9941616,9941601,1141711],"voronoi":{"lat":36.550194,"lng":136.917839,"delta_lat":[0,-120609,47674,13422,65050],"delta_lng":[0,-140639,-15608,843,135880]},"impl":true},
    {"code":1141713,"left":9952533,"id":"3ca18d","name":"城端","name_kana":"じょうはな","lat":36.522012,"lng":136.901673,"prefecture":16,"lines":[11417],"attr":"eco","postal_code":"939-1852","address":"南砺市是安","next":[1141709,1141633,1141640,1141632,9941616,1141712,1141634,1141635,1141710],"voronoi":{"lat":36.516728,"lng":137.031742,"delta_lat":[0,-49533,-20297,-896,-23858,-184591,192032,120609,558],"delta_lng":[0,14518,-7422,-442,-19353,-193580,-48264,140639,8588]},"impl":true},
    {"code":9952533,"id":"a26c12","name":"大中","name_kana":"おおなか","lat":35.853775,"lng":136.868405,"prefecture":21,"lines":[99525],"attr":"heat","postal_code":"501-5124","address":"郡上市白鳥町大島字芝添","next":[9952534,9952535,9952619,1142123,9952532,9952531],"voronoi":{"lat":35.74537,"lng":136.741317,"delta_lat":[0,8251,29244,91490,5761,-74701],"delta_lng":[0,-7142,7166,143115,23015,-84095]},"impl":true},
    {"code":1141711,"id":"150a6e","name":"福光","name_kana":"ふくみつ","lat":36.558121,"lng":136.878135,"prefecture":16,"lines":[11417],"attr":"eco","postal_code":"939-1732","address":"南砺市荒木","next":[9941601,1141548,1141546,1141544,1141545,1141547,1141710,1141712],"voronoi":{"lat":36.612662,"lng":136.847357,"delta_lat":[0,-1999,-34884,-3825,-58178,-7255,-15840,65050],"delta_lng":[0,-18622,-46107,-2590,-16660,-1238,295,135880]},"impl":true},
    {"code":9952516,"left":9952513,"right":9952520,"id":"63554d","name":"母野","name_kana":"はんの","lat":35.59875,"lng":136.942009,"prefecture":21,"lines":[99525],"attr":"heat","postal_code":"501-4101","address":"郡上市美並町上田字境目","next":[9952519,9952515,9952514,9952517,9952518],"voronoi":{"lat":35.603678,"lng":136.977333,"delta_lat":[0,-14712,3341,15925,-2486],"delta_lng":[0,-50765,-8484,34367,18024]},"impl":true},
    {"code":9952513,"left":9952511,"right":9952514,"id":"b310ad","name":"梅山","name_kana":"うめやま","lat":35.548981,"lng":136.918025,"prefecture":21,"lines":[99525],"attr":"eco","postal_code":"501-3700","address":"美濃市藤岡","next":[9952616,9952610,9952512,9952614,9952615,9952514,9952504,9952517,9952511],"voronoi":{"lat":35.532659,"lng":136.960371,"delta_lat":[0,47791,5593,32521,1708,9420,-22073,-75651,-631],"delta_lng":[0,-178985,-1115,719,102,1096,61994,128124,-903]},"impl":true},
    {"code":9952511,"left":9952510,"right":9952512,"id":"45a7d2","name":"松森","name_kana":"まつもり","lat":35.526808,"lng":136.915367,"prefecture":21,"lines":[99525],"attr":"eco","postal_code":"501-3753","address":"美濃市松森字八幡前","next":[9952510,9952512,9952504,9952505,3001617,9952513],"voronoi":{"lat":35.532659,"lng":136.960371,"delta_lat":[0,2093,-7439,-9455,5442,8037],"delta_lng":[0,-169628,6003,158131,8878,7648]},"impl":true},
    {"code":9952510,"left":9952507,"id":"b05c50","name":"関下有知","name_kana":"せきしもうち","lat":35.513679,"lng":136.914582,"prefecture":21,"lines":[99525],"attr":"eco","postal_code":"501-3217","address":"関市下有知走り下り","next":[9952511,9952509,3001617,9952505,9952506],"voronoi":{"lat":35.503448,"lng":136.937341,"delta_lat":[0,16554,7311,-9455,-13685],"delta_lng":[0,-135336,-5259,158131,-15828]},"impl":true},
    {"code":9952507,"id":"2207ad","name":"刃物会館前","name_kana":"はものかいかんまえ","lat":35.483434,"lng":136.914195,"prefecture":21,"lines":[99525],"attr":"cool","postal_code":"501-3873","address":"関市日ノ出町字古町","next":[9952508,1141604,1141605,3001604,9952506,3001609],"voronoi":{"lat":35.471661,"lng":136.844336,"delta_lat":[0,17193,-45482,93,3830,17016],"delta_lng":[0,78882,-10716,-3887,-23297,-31942]},"impl":true},
    {"code":9952512,"id":"96c3e6","name":"美濃市","name_kana":"みのし","lat":35.539618,"lng":136.915525,"prefecture":21,"lines":[99525],"attr":"eco","postal_code":"501-3732","address":"美濃市広岡町","next":[3001617,9952511,9952513,9952610],"voronoi":{"lat":35.534751,"lng":136.790744,"delta_lat":[0,-2093,47791,-43124],"delta_lng":[0,169628,-178985,7052]},"impl":true},
    {"code":9952514,"left":9952505,"right":9952515,"id":"f9b323","name":"湯の洞温泉口","name_kana":"ゆのほらおんせんぐち","lat":35.571281,"lng":136.931192,"prefecture":21,"lines":[99525],"attr":"eco","postal_code":"501-3704","address":"美濃市保木脇字神明下","next":[9952513,9952516,9952517,9952515,9952504],"voronoi":{"lat":35.588966,"lng":136.926569,"delta_lat":[0,3341,15312,-75651,7388],"delta_lng":[0,-8484,-73902,128124,18465]},"impl":true},
    {"code":9952505,"left":9952506,"id":"6522c4","name":"関富岡","name_kana":"せきとみおか","lat":35.478588,"lng":136.944923,"prefecture":21,"lines":[99525],"attr":"cool","postal_code":"501-3911","address":"関市肥田瀬字屋敷田","next":[9952510,9952504,9952511,1141607,3001602,9952506],"voronoi":{"lat":35.517858,"lng":136.954878,"delta_lat":[0,5442,-75507,-8568,900,64048],"delta_lng":[0,8878,-10513,-14009,-5722,5538]},"impl":true},
    {"code":9952506,"id":"190f48","name":"関口","name_kana":"せきぐち","lat":35.479976,"lng":136.928872,"prefecture":21,"lines":[99525],"attr":"cool","postal_code":"501-3826","address":"関市関口町１丁目","next":[9952509,3001602,3001604,3001603,9952505,9952507,9952508,9952510],"voronoi":{"lat":35.440125,"lng":136.933511,"delta_lat":[0,-105,535,2817,45482,5617,8977,725],"delta_lng":[0,-2262,-5737,-13011,10716,3504,10620,1708]},"impl":true},
    {"code":9952515,"id":"bac147","name":"洲原","name_kana":"すはら","lat":35.588954,"lng":136.944848,"prefecture":21,"lines":[99525],"attr":"eco","postal_code":"501-3706","address":"美濃市須原字鐘寿場","next":[9952516,9952504,9952519,9952514,1141610,1141611],"voronoi":{"lat":35.549678,"lng":137.014815,"delta_lat":[0,-6232,-4091,49610,14712,-9146],"delta_lng":[0,-5276,-18767,-64203,50765,60798]},"impl":true},
    {"code":9952520,"left":9952526,"right":9952521,"id":"9b0476","name":"大矢","name_kana":"おおや","lat":35.637327,"lng":136.95024,"prefecture":21,"lines":[99525],"attr":"heat","postal_code":"501-4107","address":"郡上市美並町大原字湊","next":[9952521,9952518,9952519],"voronoi":{"lat":35.631834,"lng":136.937602,"delta_lat":[0,25192,-22815],"delta_lng":[0,-81877,144889]},"impl":true},
    {"code":9952526,"left":9952518,"right":9952527,"id":"e3b65d","name":"郡上八幡","name_kana":"ぐじょうはちまん","lat":35.741877,"lng":136.947364,"prefecture":21,"lines":[99525],"attr":"heat","postal_code":"501-4224","address":"郡上市八幡町城南町字中島","next":[1141615,1141616,1141619,9952525,9952527,9952524],"voronoi":{"lat":35.754672,"lng":137.075212,"delta_lat":[0,56915,18167,-109594,19827,6158],"delta_lng":[0,3625,-9069,-193882,173637,22555]},"impl":true},
    {"code":9952518,"left":9952517,"id":"c1af83","name":"八坂(岐阜)","original_name":"八坂","name_kana":"やさか","lat":35.620186,"lng":136.944966,"prefecture":21,"lines":[99525],"attr":"heat","postal_code":"501-4101","address":"郡上市美並町上田字髭畑","next":[9952519,9952517,9952520,9952516,9952521],"voronoi":{"lat":35.631834,"lng":136.937602,"delta_lat":[0,-26088,2486,52570,-3776],"delta_lng":[0,32873,-18024,-111562,14836]},"impl":true},
    {"code":9952517,"id":"7e912c","name":"木尾","name_kana":"こんの","lat":35.606394,"lng":136.938467,"prefecture":21,"lines":[99525],"attr":"heat","postal_code":"501-4101","address":"郡上市美並町上田字堀畑","next":[9952619,9952514,9952516,9952618,9952513,9952518,9952617,9952521,9952528,9952616],"voronoi":{"lat":35.636289,"lng":136.781671,"delta_lat":[0,23359,13532,3571,1036,-16985,-52570,-15925,15312,22073],"delta_lng":[0,-343,487,318,7067,51690,111562,-34367,-73902,-61994]},"impl":true},
    {"code":9952527,"id":"965528","name":"自然園前","name_kana":"しぜんえんまえ","lat":35.7702,"lng":136.931354,"prefecture":21,"lines":[99525],"attr":"heat","postal_code":"501-4233","address":"郡上市八幡町瀬取字藤薮","next":[1141620,9952526,9952525,1141619,9952529,9952528],"voronoi":{"lat":35.888086,"lng":137.043462,"delta_lat":[0,-32626,-25707,-109594,-5822,112908],"delta_lng":[0,16780,9525,-193882,-16821,108069]},"impl":true},
    {"code":9952521,"left":9952519,"right":9952525,"id":"68f5d2","name":"福野(岐阜)","original_name":"福野","name_kana":"ふくの","lat":35.646726,"lng":136.95172,"prefecture":21,"lines":[99525],"attr":"heat","postal_code":"501-4106","address":"郡上市美並町白山字山際","next":[9952528,9952519,9952520,9952525,9952522,9952518,9952523,9952517],"voronoi":{"lat":35.677786,"lng":136.789199,"delta_lat":[0,61,1103,-36788,-9492,1540,22815,3776],"delta_lng":[0,215,58044,154361,25930,-27135,-144889,-14836]},"impl":true},
    {"code":9952519,"id":"fba318","name":"みなみ子宝温泉","name_kana":"みなみこだからおんせん","lat":35.627308,"lng":136.950618,"prefecture":21,"lines":[99525],"attr":"heat","postal_code":"501-4107","address":"郡上市美並町大原字石橋２６６９番地１","next":[9952516,9952518,9952521,9952515,1141611,1141612,9952523,9952520],"voronoi":{"lat":35.631834,"lng":136.937602,"delta_lat":[0,-26088,-2068,-9146,5566,26098,6475,1540],"delta_lng":[0,32873,6858,60798,4580,13361,-28323,-27135]},"impl":true},
    {"code":9952525,"id":"cbc950","name":"相生(岐阜)","original_name":"相生","name_kana":"あいおい","lat":35.715114,"lng":136.95042,"prefecture":21,"lines":[99525],"attr":"heat","postal_code":"501-4236","address":"郡上市八幡町相生字御花屋敷","next":[9952526,9952521,9952528,9952527,9952522,9952524],"voronoi":{"lat":35.685041,"lng":136.919101,"delta_lat":[0,-6090,-1103,36490,5822,19827],"delta_lng":[0,-71642,-58044,69650,16821,173637]},"impl":true},
    {"code":9952502,"left":9951121,"right":1141616,"id":"4f00cc","name":"前平公園","name_kana":"まえひらこうえん","lat":35.449771,"lng":137.001652,"prefecture":21,"lines":[99525],"attr":"cool","postal_code":"505-0041","address":"美濃加茂市太田町宮前","next":[1141607,3001705,1141609,9952503,1141608],"voronoi":{"lat":35.492309,"lng":137.018211,"delta_lat":[0,-49590,-14755,4340,53079],"delta_lng":[0,-33347,13939,8168,12377]},"impl":true},
    {"code":9951121,"left":3001703,"right":1141114,"id":"faf16f","name":"瀬戸市","name_kana":"せとし","lat":35.225921,"lng":137.078452,"prefecture":23,"lines":[99511],"attr":"eco","postal_code":"489-0066","address":"瀬戸市東横山町","next":[3001218,9951122,3001219],"voronoi":{"lat":35.237268,"lng":137.071843,"delta_lat":[0,-16296,19463],"delta_lng":[0,8739,3179]},"impl":true},
    {"code":3001703,"left":1141110,"right":3001706,"id":"a8b624","name":"善師野","name_kana":"ぜんじの","lat":35.389744,"lng":136.980027,"prefecture":23,"lines":[30017],"attr":"cool","postal_code":"484-0003","address":"犬山市大字善師野字真土５-２","next":[3001812,3001704,1141607,3001519,1141110,3001813,3001702,1141606,1150704],"voronoi":{"lat":35.40901,"lng":136.98956,"delta_lat":[0,-2064,-8711,-530,-42760,-21480,-1697,163,9941],"delta_lng":[0,-23919,-2035,-9,24432,29812,3356,320,836]},"impl":true},
    {"code":1141110,"left":1141109,"right":9951122,"id":"38fc31","name":"高蔵寺","name_kana":"こうぞうじ","lat":35.26434,"lng":137.043766,"prefecture":23,"lines":[11411,99511],"attr":"eco","postal_code":"487-0013","address":"春日井市高蔵寺町３丁目","next":[1141111,3001703,3001215,1150703,1141109,3001216,1150704,9951122,3001812],"voronoi":{"lat":35.331932,"lng":137.021517,"delta_lat":[0,-2656,-4882,-55900,-27930,-797,2135,77751,12116],"delta_lng":[0,11039,10263,20541,-13817,-4463,-13779,-18669,8565]},"impl":true},
    {"code":1141109,"left":1141108,"right":3001702,"id":"0c2c06","name":"神領","name_kana":"じんりょう","lat":35.256234,"lng":137.010006,"prefecture":23,"lines":[11411],"attr":"cool","postal_code":"486-0821","address":"春日井市神領町字向拝","next":[3001213,3001812,1141110,3001215,3001810,1141108,3001811,3001214],"voronoi":{"lat":35.241901,"lng":137.031301,"delta_lat":[0,77751,-17329,-6770,-8944,-53059,42,3863],"delta_lng":[0,-18669,-21497,-6245,-6809,28131,1682,16753]},"impl":true},
    {"code":1141108,"left":1141107,"id":"fab84b","name":"春日井(JR)","original_name":"春日井","name_kana":"かすがい","lat":35.243139,"lng":136.985307,"prefecture":23,"lines":[11411],"attr":"cool","postal_code":"486-0833","address":"愛知県春日井市上条町一丁目5162","next":[3001810,3001805,3001809,9952309,3001806,1141109,3001804,3001213,1141107],"voronoi":{"lat":35.255522,"lng":136.962057,"delta_lat":[0,12388,566,11449,5864,821,-53059,-4292,2845],"delta_lng":[0,1820,219,6019,6757,1208,28131,-5328,-28079]},"impl":true},
    {"code":1141107,"id":"3c4833","name":"勝川","name_kana":"かちがわ","lat":35.22982,"lng":136.956285,"prefecture":23,"lines":[11411,99510],"attr":"cool","postal_code":"486-0931","address":"春日井市松新町６丁目","next":[9952307,3001804,9952309,1141106,3001803,3001802,1141108,9952306,9952308],"voronoi":{"lat":35.232104,"lng":136.972804,"delta_lat":[0,23418,-11956,-15432,-8408,-1195,1970,8406,2004],"delta_lng":[0,-10747,-12238,-4343,3061,5300,6635,10604,1232]},"impl":true},
    {"code":3001702,"id":"f5e920","name":"富岡前","name_kana":"とみおかまえ","lat":35.379508,"lng":136.962112,"prefecture":23,"lines":[30017],"attr":"cool","postal_code":"484-0092","address":"犬山市大字富岡字株池１２７-３","next":[3001519,3001813,3001703,3001518],"voronoi":{"lat":35.397705,"lng":136.963596,"delta_lat":[0,-42760,11860,17295],"delta_lng":[0,24432,-34487,379]},"impl":true},
    {"code":9951122,"left":3001218,"right":1150704,"id":"f8c301","name":"中水野","name_kana":"なかみずの","lat":35.250399,"lng":137.071947,"prefecture":23,"lines":[99511],"attr":"eco","postal_code":"489-0000","address":"瀬戸市内山町","next":[3001219,3001216,1141111,3001220,9951121,3001217,1141110,3001218],"voronoi":{"lat":35.240435,"lng":137.083761,"delta_lat":[0,3276,11969,12813,-27930,-1596,-1708,9],"delta_lng":[0,6808,11960,-39170,-13817,2783,19481,37]},"impl":true},
    {"code":3001218,"left":3001217,"id":"8dc7de","name":"新瀬戸","name_kana":"しんせと","lat":35.225485,"lng":137.077639,"prefecture":23,"lines":[30012],"attr":"eco","postal_code":"489-0066","address":"瀬戸市東横山町６２","next":[3001217,9951121,3001219,9951122,9951120],"voronoi":{"lat":35.220972,"lng":137.080583,"delta_lat":[0,16296,-9,-22219,1146],"delta_lng":[0,-8739,-37,3310,5101]},"impl":true},
    {"code":3001217,"id":"60c6c6","name":"水野","name_kana":"みずの","lat":35.224296,"lng":137.069659,"prefecture":23,"lines":[30012],"attr":"eco","postal_code":"489-0917","address":"瀬戸市效範町２-７５","next":[3001218,9951122,9951120,3001216],"voronoi":{"lat":35.238967,"lng":137.052325,"delta_lat":[0,-1708,-22219,-6123],"delta_lng":[0,19481,3310,-8835]},"impl":true},
    {"code":1150704,"id":"0f233e","name":"姫","name_kana":"ひめ","lat":35.382004,"lng":137.072078,"prefecture":21,"lines":[11507],"attr":"cool","postal_code":"507-0061","address":"多治見市姫町１丁目","next":[3001709,3001708,3001710,1141110,3001704,1150703,3001703,1150705],"voronoi":{"lat":35.401994,"lng":137.098569,"delta_lat":[0,-4957,-1605,-66157,2656,9941,18596,43780],"delta_lng":[0,7870,1593,-75477,-11039,836,6862,61771]},"impl":true},
    {"code":3001706,"left":1141607,"right":3001707,"id":"f69224","name":"日本ライン今渡","name_kana":"にほんらいんいまわたり","lat":35.432302,"lng":137.036818,"prefecture":21,"lines":[30017],"attr":"heat","postal_code":"509-0207","address":"可児市今渡字野市場４０６-２","next":[3001705,1150707,1141608,3001707,1150706],"voronoi":{"lat":35.432798,"lng":137.048621,"delta_lat":[0,11662,-12724,-19946,16748],"delta_lng":[0,-16257,-9765,15418,8561]},"impl":true},
    {"code":1141607,"left":3001705,"right":1141608,"id":"4a1b55","name":"坂祝","name_kana":"さかほぎ","lat":35.426359,"lng":136.976868,"prefecture":21,"lines":[11416],"attr":"cool","postal_code":"505-0075","address":"加茂郡坂祝町取組","next":[9952502,9952504,3001703,3001602,3001704,9952503,1141606,9952505,3001705],"voronoi":{"lat":35.421368,"lng":136.997496,"delta_lat":[0,-12357,-2064,23889,8389,8568,930,-6004,-14755],"delta_lng":[0,-7937,-23919,-21418,-4989,14009,6293,25328,13939]},"impl":true},
    {"code":3001705,"left":3001704,"id":"0efd2c","name":"可児川","name_kana":"かにがわ","lat":35.41812,"lng":137.01847,"prefecture":21,"lines":[30017],"attr":"cool","postal_code":"509-0206","address":"可児市土田字北割田１３５６-７","next":[3001706,3001704,1141608,1150706,9952502,1150705,1141607],"voronoi":{"lat":35.432304,"lng":137.006971,"delta_lat":[0,-567,-19946,-9355,-4150,23082,6596],"delta_lng":[0,15629,15418,1195,-2232,-39484,1306]},"impl":true},
    {"code":3001704,"id":"e94e5b","name":"西可児","name_kana":"にしかに","lat":35.404685,"lng":137.010616,"prefecture":21,"lines":[30017],"attr":"cool","postal_code":"509-0256","address":"可児市東帷子３３４-３","next":[3001705,3001703,1150705,1141607,1150704],"voronoi":{"lat":35.341873,"lng":137.022353,"delta_lat":[0,67138,12357,-23082,-37817],"delta_lng":[0,-32793,7937,39484,-7766]},"impl":true},
    {"code":1141608,"id":"a98761","name":"美濃太田","name_kana":"みのおおた","lat":35.445617,"lng":137.019467,"prefecture":21,"lines":[11416,11507,99525],"attr":"eco","postal_code":"505-0041","address":"美濃加茂市太田町立石","next":[1141609,1150707,3001705,3001706,9952502],"voronoi":{"lat":35.45297,"lng":137.032851,"delta_lat":[0,-8510,-12724,567,53079],"delta_lng":[0,-487,-9765,-15629,12377]},"impl":true},
    {"code":3001707,"left":1150705,"right":1150707,"id":"9f19da","name":"新可児","name_kana":"しんかに","lat":35.423282,"lng":137.055622,"prefecture":21,"lines":[30017],"attr":"heat","postal_code":"509-0203","address":"可児市下恵土字前田１２２５-１","next":[1150707,1150706,1150705,3001706,3001708],"voronoi":{"lat":35.412218,"lng":137.073093,"delta_lat":[0,16321,4260,9166,-28889],"delta_lng":[0,-26514,2043,18537,9054]},"impl":true},
    {"code":1150705,"left":1150706,"id":"d31dde","name":"下切","name_kana":"しもぎり","lat":35.393777,"lng":137.063734,"prefecture":21,"lines":[11507],"attr":"cool","postal_code":"509-0245","address":"可児市下切字青木","next":[3001707,3001708,3001704,1150706,3001705,1150704],"voronoi":{"lat":35.360469,"lng":137.029215,"delta_lat":[0,37817,4150,9782,858,-8827],"delta_lng":[0,7766,2232,33880,3120,14773]},"impl":true},
    {"code":1150706,"id":"0def7e","name":"可児","name_kana":"かに","lat":35.422832,"lng":137.055345,"prefecture":21,"lines":[11507],"attr":"eco","postal_code":"509-0203","address":"可児市下恵土","next":[3001707,1150705,3001705,3001706],"voronoi":{"lat":35.412218,"lng":137.073093,"delta_lat":[0,-9782,9355,16748],"delta_lng":[0,-33880,-1195,8561]},"impl":true},
    {"code":1150707,"id":"e773b4","name":"美濃川合","name_kana":"みのかわい","lat":35.444138,"lng":137.045309,"prefecture":21,"lines":[11507],"attr":"eco","postal_code":"505-0022","address":"美濃加茂市川合町","next":[3001707,3001706,1141608,3001708,1141609],"voronoi":{"lat":35.45297,"lng":137.032851,"delta_lat":[0,-8510,-11662,9166,5080],"delta_lng":[0,-487,16257,18537,1323]},"impl":true},
    {"code":1141114,"left":1141112,"right":3001711,"id":"3f7dcb","name":"土岐市","name_kana":"ときし","lat":35.359708,"lng":137.182082,"prefecture":21,"lines":[11411],"attr":"cool","postal_code":"509-5142","address":"土岐市泉町久尻","next":[3001220,3000523,1141113,1141112,1150702,1141115,3001711],"voronoi":{"lat":35.381408,"lng":137.137726,"delta_lat":[0,-1192,-103055,-17587,-18998,-166,195354],"delta_lng":[0,156,41587,12312,30154,11732,-26182]},"impl":true},
    {"code":1141112,"left":1141111,"right":1141113,"id":"5a6824","name":"古虎渓","name_kana":"ここけい","lat":35.302955,"lng":137.101011,"prefecture":21,"lines":[11411],"attr":"cool","postal_code":"507-0044","address":"多治見市諏訪町神田","next":[3001220,1150703,1141114,1150702,1141111,1141113],"voronoi":{"lat":35.325982,"lng":137.098908,"delta_lat":[0,-505,-1827,-60893,-3183,17587],"delta_lng":[0,-39476,-9731,75820,66259,-12312]},"impl":true},
    {"code":1141111,"left":3001220,"right":1150702,"id":"6f2036","name":"定光寺","name_kana":"じょうこうじ","lat":35.278015,"lng":137.080981,"prefecture":23,"lines":[11411],"attr":"eco","postal_code":"487-0004","address":"春日井市玉野町","next":[1141110,9951122,3001220,1150703,1141112],"voronoi":{"lat":35.323649,"lng":137.049702,"delta_lat":[0,744,-55900,-12813,7076],"delta_lng":[0,-6883,20541,39170,22992]},"impl":true},
    {"code":3001220,"left":3001219,"id":"c45106","name":"尾張瀬戸","name_kana":"おわりせと","lat":35.225094,"lng":137.09727,"prefecture":23,"lines":[30012],"attr":"eco","postal_code":"489-0811","address":"瀬戸市山脇町７","next":[1141112,9951120,1141114,1141111,9951122,9951119,3000523,3001219],"voronoi":{"lat":35.243712,"lng":137.090569,"delta_lat":[0,11969,7076,-3183,-18998,-9920,-19965,4159],"delta_lng":[0,11960,22992,66259,30154,-12478,-113676,-4973]},"impl":true},
    {"code":3001219,"id":"dedfa0","name":"瀬戸市役所前","name_kana":"せとしやくしょまえ","lat":35.224986,"lng":137.084177,"prefecture":23,"lines":[30012],"attr":"eco","postal_code":"489-0065","address":"瀬戸市西追分町２","next":[9951122,9951120,9951121,3001218,3001220],"voronoi":{"lat":35.216186,"lng":137.080217,"delta_lat":[0,4786,19463,3276,-28862],"delta_lng":[0,365,3179,6808,238]},"impl":true},
    {"code":1150702,"id":"39e13f","name":"小泉","name_kana":"こいずみ","lat":35.349055,"lng":137.100421,"prefecture":21,"lines":[11507],"attr":"heat","postal_code":"507-0073","address":"多治見市小泉町１丁目","next":[1141113,1141114,1141112,1150703,3001711],"voronoi":{"lat":35.384088,"lng":137.129751,"delta_lat":[0,-58611,505,54234,1192],"delta_lng":[0,-70318,39476,38973,-156]},"impl":true},
    {"code":1141113,"left":9952409,"right":9952408,"id":"be0527","name":"多治見","name_kana":"たじみ","lat":35.334774,"lng":137.120294,"prefecture":21,"lines":[11411,11507],"attr":"cool","postal_code":"507-0037","address":"多治見市音羽町２丁目","next":[1150702,1141114,1141112],"voronoi":{"lat":35.325982,"lng":137.098908,"delta_lat":[0,54234,-103055],"delta_lng":[0,38973,41587]},"impl":true},
    {"code":9952409,"left":9952410,"id":"981d05","name":"野志","name_kana":"のし","lat":35.321962,"lng":137.389516,"prefecture":21,"lines":[99524],"attr":"heat","postal_code":"509-7701","address":"恵那市明智町野志","next":[1141115,9952408,1141116,9952410,9952406,9952407],"voronoi":{"lat":35.305095,"lng":137.454115,"delta_lat":[0,19206,15136,10384,-17622,-18869],"delta_lng":[0,-140620,5187,10954,80548,35315]},"impl":true},
    {"code":9952410,"id":"f7a959","name":"明智(明知鉄道)","original_name":"明智","name_kana":"あけち","lat":35.306169,"lng":137.387359,"prefecture":21,"lines":[99524],"attr":"heat","postal_code":"509-7731","address":"岐阜県恵那市明智町","next":[1141322,9952409,1141312,3000523,1141325,1141316,3000522,1141115,9952406,1141313],"voronoi":{"lat":35.11453,"lng":137.459544,"delta_lat":[0,87342,6120,97104,19206,-94558,-27294,-109952,1074,8038],"delta_lng":[0,118710,5444,-129583,-140620,-43954,24015,103933,4118,27824]},"impl":true},
    {"code":9952408,"id":"846b65","name":"山岡","name_kana":"やまおか","lat":35.350132,"lng":137.395679,"prefecture":21,"lines":[99524],"attr":"heat","postal_code":"509-7602","address":"恵那市山岡町馬場山田","next":[1141116,9952409,9952407,1141117],"voronoi":{"lat":35.332199,"lng":137.410184,"delta_lat":[0,17622,33431,14229],"delta_lng":[0,-80548,22481,30098]},"impl":true},
    {"code":3001711,"left":3001708,"right":1141116,"id":"752575","name":"御嵩","name_kana":"みたけ","lat":35.429723,"lng":137.127527,"prefecture":21,"lines":[30017],"attr":"eco","postal_code":"505-0121","address":"可児郡御嵩町中字西之門２３０２-２","next":[1141116,1141612,1141613,1141115,1141114,3001710,1150702,1150703],"voronoi":{"lat":35.381408,"lng":137.137726,"delta_lat":[0,54356,27195,16203,11810,-4130,-94311,-8443],"delta_lng":[0,69759,13248,1699,-30840,-51787,-25395,15341]},"impl":true},
    {"code":3001708,"left":3001710,"right":3001709,"id":"8007d2","name":"明智(名古屋鉄道)","original_name":"明智","name_kana":"あけち","lat":35.433208,"lng":137.087295,"prefecture":21,"lines":[30017],"attr":"eco","postal_code":"509-0217","address":"岐阜県可児市平貝戸川田551","next":[1141610,1150705,3001709,1150704,1150707,1141609,3001707],"voronoi":{"lat":35.441965,"lng":137.067159,"delta_lat":[0,5080,13262,7102,-65414,2254,8827],"delta_lng":[0,1323,8026,17249,4813,-7584,-14773]},"impl":true},
    {"code":3001710,"left":1150703,"id":"9107cc","name":"御嵩口","name_kana":"みたけぐち","lat":35.431281,"lng":137.121741,"prefecture":21,"lines":[30017],"attr":"eco","postal_code":"505-0121","address":"可児郡御嵩町中字茶園原４７３","next":[1150703,1141612,1141611,1150704,3001709,3001711],"voronoi":{"lat":35.486776,"lng":137.137479,"delta_lat":[0,-6071,-83668,-1605,-2902,94311],"delta_lng":[0,-14691,-16349,1593,6377,25395]},"impl":true},
    {"code":1150703,"id":"471e79","name":"根本","name_kana":"ねもと","lat":35.361548,"lng":137.090008,"prefecture":21,"lines":[11507],"attr":"heat","postal_code":"507-0065","address":"多治見市根本町２丁目","next":[3001710,1141110,1141112,1150704,1141111,1150702,3001711],"voronoi":{"lat":35.325477,"lng":137.059432,"delta_lat":[0,-1827,744,4882,66157,-2902,-8443],"delta_lng":[0,-9731,-6883,-10263,75477,6377,15341]},"impl":true},
    {"code":3001709,"id":"9a21d8","name":"顔戸","name_kana":"ごうど","lat":35.434522,"lng":137.105154,"prefecture":21,"lines":[30017],"attr":"eco","postal_code":"505-0122","address":"可児郡御嵩町大字顔戸山之神３１８-３","next":[1141610,1141611,3001708,1150704,3001710],"voronoi":{"lat":35.397037,"lng":137.10644,"delta_lat":[0,4957,65414,9632,3665],"delta_lng":[0,-7870,-4813,12649,16383]},"impl":true},
    {"code":1141116,"left":1141115,"right":1141117,"id":"188bff","name":"釜戸","name_kana":"かまど","lat":35.411103,"lng":137.30501,"prefecture":21,"lines":[11411],"attr":"heat","postal_code":"509-6472","address":"瑞浪市釜戸町東大島","next":[1141115,9952408,3001711,9952409,1141613,1141117],"voronoi":{"lat":35.518906,"lng":137.278068,"delta_lat":[0,-39744,-16203,-123521,10384,33431],"delta_lng":[0,-55636,-1699,97949,10954,22481]},"impl":true},
    {"code":1141115,"id":"3fb1ce","name":"瑞浪","name_kana":"みずなみ","lat":35.369081,"lng":137.252017,"prefecture":21,"lines":[11411],"attr":"heat","postal_code":"509-6121","address":"瑞浪市寺河戸町","next":[9952409,1141116,3001711,1141114,3000523,9952410],"voronoi":{"lat":35.339437,"lng":137.318681,"delta_lat":[0,123521,-27195,-195354,-10666,94558],"delta_lng":[0,-97949,-13248,26182,35874,43954]},"impl":true},
    {"code":1141117,"id":"f96512","name":"武並","name_kana":"たけなみ","lat":35.437938,"lng":137.35417,"prefecture":21,"lines":[11411],"attr":"eco","postal_code":"509-7122","address":"恵那市武並町竹折","next":[9952407,1141116,9952411,1141118,9952408,1141613],"voronoi":{"lat":35.518906,"lng":137.278068,"delta_lat":[0,-135653,14229,3290,7767,179453],"delta_lng":[0,74049,30098,5140,5743,-57342]},"impl":true},
    {"code":1141616,"left":1141615,"right":1141626,"id":"a2ddc7","name":"焼石","name_kana":"やけいし","lat":35.725763,"lng":137.200404,"prefecture":21,"lines":[11416],"attr":"heat","postal_code":"509-2133","address":"下呂市和佐","next":[1141614,9952526,1141619,1141617,1141615,1141618,1141122],"voronoi":{"lat":35.799812,"lng":137.15085,"delta_lat":[0,9650,2125,-56915,-79660,-27749,38186],"delta_lng":[0,-47966,-24047,-3625,140556,148731,17500]},"impl":true},
    {"code":1141615,"left":1141610,"right":1141631,"id":"4b4a87","name":"飛騨金山","name_kana":"ひだかなやま","lat":35.662118,"lng":137.164333,"prefecture":21,"lines":[11416],"attr":"heat","postal_code":"509-1614","address":"下呂市金山町大船渡","next":[9952526,9952524,1141612,1141616,9952523,1141614],"voronoi":{"lat":35.610889,"lng":137.117204,"delta_lat":[0,21271,34241,79744,8527,-79660],"delta_lng":[0,-56234,1496,9612,3134,140556]},"impl":true},
    {"code":1141610,"left":9952504,"right":1141613,"id":"604e16","name":"中川辺","name_kana":"なかかわべ","lat":35.487143,"lng":137.065086,"prefecture":21,"lines":[11416],"attr":"heat","postal_code":"509-0304","address":"加茂郡川辺町中川辺","next":[3001709,3001708,1141609,1141611,9952515,9952504,9952503],"voronoi":{"lat":35.460306,"lng":137.076507,"delta_lat":[0,7102,9632,72638,-6232,-35685,-13180],"delta_lng":[0,17249,12649,-91591,-5276,4487,4317]},"impl":true},
    {"code":9952504,"left":1141609,"right":9952522,"id":"380036","name":"富加","name_kana":"とみか","lat":35.475144,"lng":136.969658,"prefecture":21,"lines":[99525],"attr":"cool","postal_code":"501-3303","address":"加茂郡富加町羽生字古熊野","next":[9952511,1141607,9952515,9952513,9952505,9952503,1141610,9952514],"voronoi":{"lat":35.543447,"lng":137.009538,"delta_lat":[0,-35685,-59039,-930,75507,8037,631,7388],"delta_lng":[0,4487,-54490,-6293,10513,7648,903,18465]},"impl":true},
    {"code":1141609,"left":9952503,"id":"1e3497","name":"古井","name_kana":"こび","lat":35.457295,"lng":137.047497,"prefecture":21,"lines":[11416],"attr":"heat","postal_code":"505-0021","address":"美濃加茂市森山町１丁目","next":[1141608,9952503,1141610,9952502,1150707,3001708],"voronoi":{"lat":35.494582,"lng":137.018343,"delta_lat":[0,-2273,-6926,-32412,-5926,13262],"delta_lng":[0,-132,1137,13504,35630,8026]},"impl":true},
    {"code":9952503,"id":"96e43b","name":"加茂野","name_kana":"かもの","lat":35.460927,"lng":136.985062,"prefecture":21,"lines":[99525],"attr":"cool","postal_code":"505-0053","address":"美濃加茂市加茂野町木野西河折","next":[1141609,1141607,9952504,9952502,1141610],"voronoi":{"lat":35.507762,"lng":137.014025,"delta_lat":[0,-59039,-6004,49590,2273],"delta_lng":[0,-54490,25328,33347,132]},"impl":true},
    {"code":9952522,"id":"9f2645","name":"美並苅安","name_kana":"みなみかりやす","lat":35.660686,"lng":136.955047,"prefecture":21,"lines":[99525],"attr":"heat","postal_code":"501-4106","address":"郡上市美並町白山字桑下","next":[9952524,9952523,9952521,9952525],"voronoi":{"lat":35.683103,"lng":136.925802,"delta_lat":[0,-40940,36788,6090],"delta_lng":[0,76018,-154361,71642]},"impl":true},
    {"code":1141613,"left":1141612,"right":1141614,"id":"911bd5","name":"白川口","name_kana":"しらかわぐち","lat":35.579345,"lng":137.184824,"prefecture":21,"lines":[11416],"attr":"heat","postal_code":"509-1106","address":"加茂郡白川町坂ノ東下金","next":[1141612,1141614,1141116,1141118,1141119,3001711,1141117],"voronoi":{"lat":35.609846,"lng":137.347939,"delta_lat":[0,1587,-6958,-113503,-11810,39744,69086],"delta_lng":[0,598,-222193,65248,30840,55636,57688]},"impl":true},
    {"code":1141612,"left":1141611,"id":"f6ff1e","name":"上麻生","name_kana":"かみあそう","lat":35.541293,"lng":137.11863,"prefecture":21,"lines":[11416],"attr":"heat","postal_code":"509-0401","address":"加茂郡七宗町上麻生","next":[1141611,3001711,1141613,3001710,9952523,1141615,9952519,1141614],"voronoi":{"lat":35.610889,"lng":137.117204,"delta_lat":[0,21271,-5964,-26098,-113321,65,4130,113503],"delta_lng":[0,-56234,-4897,-13361,94768,2325,51787,-65248]},"impl":true},
    {"code":1141611,"id":"68a2d2","name":"下麻生","name_kana":"しもあそう","lat":35.514973,"lng":137.087157,"prefecture":21,"lines":[11416],"attr":"heat","postal_code":"509-0302","address":"加茂郡川辺町上川辺","next":[1141612,3001709,3001710,9952519,1141610,9952515],"voronoi":{"lat":35.600098,"lng":137.042711,"delta_lat":[0,-113321,-6071,-3665,72638,44853],"delta_lng":[0,94768,-14691,-16383,-91591,23317]},"impl":true},
    {"code":1141614,"id":"beaed5","name":"下油井","name_kana":"しもゆい","lat":35.633214,"lng":137.183137,"prefecture":21,"lines":[11416],"attr":"heat","postal_code":"509-1100","address":"加茂郡白川町下油井白山","next":[1141119,1141616,1141613,1141612,1141122,1141615],"voronoi":{"lat":35.610889,"lng":137.117204,"delta_lat":[0,-6414,6958,24324,11506,27749],"delta_lng":[0,9140,222193,14012,1950,-148731]},"impl":true},
    {"code":1141631,"left":1141632,"right":1141634,"id":"eecc63","name":"飛騨細江","name_kana":"ひだほそえ","lat":36.260926,"lng":137.146029,"prefecture":21,"lines":[11416],"attr":"eco","postal_code":"509-4203","address":"飛騨市古川町大字袈裟丸","next":[1141625,9952538,1141630,1141632,1141633],"voronoi":{"lat":36.294639,"lng":137.146484,"delta_lat":[0,-163682,-62585,41700,186897],"delta_lng":[0,-195753,65504,70856,90295]},"impl":true},
    {"code":1141632,"left":9952524,"right":1141633,"id":"0d6e52","name":"角川","name_kana":"つのがわ","lat":36.30016,"lng":137.113223,"prefecture":21,"lines":[11416],"attr":"eco","postal_code":"509-4302","address":"飛騨市河合町小無雁","next":[1141713,9941616,9952538,1141631,1141633],"voronoi":{"lat":36.130957,"lng":136.95073,"delta_lat":[0,97956,8640,184591,-127505],"delta_lng":[0,-127951,2684,193580,127440]},"impl":true},
    {"code":9952524,"left":9952523,"id":"d1d580","name":"深戸","name_kana":"ふかど","lat":35.686445,"lng":136.962498,"prefecture":21,"lines":[99525],"attr":"heat","postal_code":"501-4105","address":"郡上市美並町三戸字下中島","next":[9952522,1141615,9952523,9952526,9952525],"voronoi":{"lat":35.685041,"lng":136.919101,"delta_lat":[0,-1938,-16702,79744,-6158],"delta_lng":[0,6701,136664,9612,-22555]},"impl":true},
    {"code":9952523,"id":"116c11","name":"赤池(岐阜)","original_name":"赤池","name_kana":"あかいけ","lat":35.671021,"lng":136.960613,"prefecture":21,"lines":[99525],"attr":"heat","postal_code":"501-4103","address":"郡上市美並町山田","next":[9952522,1141612,9952519,9952521,1141615,9952524],"voronoi":{"lat":35.683103,"lng":136.925802,"delta_lat":[0,-40940,-9492,-6475,5964,34241],"delta_lng":[0,76018,25930,28323,4897,1496]},"impl":true},
    {"code":1141633,"id":"8d927b","name":"坂上","name_kana":"さかかみ","lat":36.327902,"lng":137.140979,"prefecture":21,"lines":[11416],"attr":"eco","postal_code":"509-4423","address":"飛騨市宮川町林","next":[1141713,1141630,1141634,1141632,1141631],"voronoi":{"lat":36.294639,"lng":137.146484,"delta_lat":[0,127505,23858,-133641,-15392],"delta_lng":[0,-127440,19353,182339,-43350]},"impl":true},
    {"code":1141634,"left":1141629,"right":1141635,"id":"eead04","name":"打保","name_kana":"うつぼ","lat":36.383737,"lng":137.181902,"prefecture":21,"lines":[11416],"attr":"eco","postal_code":"509-4545","address":"飛騨市宮川町打保","next":[1141636,1141713,1141635,1141633,1141629,1141630,1141628],"voronoi":{"lat":36.315911,"lng":137.293122,"delta_lat":[0,-3733,182,133641,896,-89420,-27729],"delta_lng":[0,-70548,-1838,-182339,442,281135,43463]},"impl":true},
    {"code":1141629,"left":1141630,"id":"fd26d6","name":"飛騨古川","name_kana":"ひだふるかわ","lat":36.236727,"lng":137.189681,"prefecture":21,"lines":[11416],"attr":"eco","postal_code":"509-4225","address":"飛騨市古川町金森町","next":[1141630,1141628,1141634],"voronoi":{"lat":36.121344,"lng":137.102177,"delta_lat":[0,190834,3733],"delta_lng":[0,120397,70548]},"impl":true},
    {"code":1141630,"id":"dee634","name":"杉崎","name_kana":"すぎさき","lat":36.250003,"lng":137.168638,"prefecture":21,"lines":[11416],"attr":"eco","postal_code":"509-4215","address":"飛騨市古川町杉崎","next":[1141628,1141633,1141629,1141631,1141625,1141634],"voronoi":{"lat":36.312361,"lng":137.220735,"delta_lat":[0,-15392,-186897,4732,6541,190834],"delta_lng":[0,-43350,-90295,9688,5398,120397]},"impl":true},
    {"code":1141635,"id":"ebb714","name":"杉原","name_kana":"すぎはら","lat":36.415806,"lng":137.192102,"prefecture":21,"lines":[11416],"attr":"eco","postal_code":"509-4542","address":"飛騨市宮川町杉原","next":[1141636,1141634,1141713,1141637,1141640],"voronoi":{"lat":36.488748,"lng":137.160243,"delta_lat":[0,-131270,89420,20297,28390],"delta_lng":[0,159731,-281135,7422,92788]},"impl":true},
    {"code":1141626,"left":1141617,"right":1141627,"id":"daca0a","name":"高山","name_kana":"たかやま","lat":36.140574,"lng":137.251301,"prefecture":21,"lines":[11416],"attr":"eco","postal_code":"506-0053","address":"高山市昭和町１丁目","next":[1141627,1141625,1141628,9940714,1141624],"voronoi":{"lat":36.110067,"lng":137.311325,"delta_lat":[0,12987,29306,47306,-24871],"delta_lng":[0,-182623,58295,346522,2146]},"impl":true},
    {"code":1141617,"left":1141620,"right":1141624,"id":"2289fe","name":"下呂","name_kana":"げろ","lat":35.805345,"lng":137.239778,"prefecture":21,"lines":[11416],"attr":"heat","postal_code":"509-2206","address":"下呂市幸田","next":[1141622,1141126,1141125,1141123,1141131,1141122,1141616,1141618],"voronoi":{"lat":35.85236,"lng":137.464251,"delta_lat":[0,-27464,-47232,-1133,-43129,-47954,114363,66285],"delta_lng":[0,2320,-15766,-479,-30282,-38046,-231149,197990]},"impl":true},
    {"code":1141620,"left":1141618,"right":1141621,"id":"8527c2","name":"上呂","name_kana":"じょうろ","lat":35.910717,"lng":137.204562,"prefecture":21,"lines":[11416],"attr":"eco","postal_code":"509-2518","address":"下呂市萩原町上呂","next":[9952536,9952532,9952527,1141621,1141619,9952531,1141625,9952529,9952535],"voronoi":{"lat":36.00833,"lng":137.024303,"delta_lat":[0,40028,-34295,-115548,-43054,32626,30879,9645,310],"delta_lng":[0,211,141597,66000,-171868,-16780,-10837,-2310,-63]},"impl":true},
    {"code":1141618,"left":1141619,"id":"2a2ed4","name":"禅昌寺","name_kana":"ぜんしょうじ","lat":35.848937,"lng":137.225184,"prefecture":21,"lines":[11416],"attr":"eco","postal_code":"509-2514","address":"下呂市萩原町中呂","next":[1141617,1141616,1141622,1141619,1141621],"voronoi":{"lat":35.883755,"lng":137.268079,"delta_lat":[0,-74293,-9650,66285,12169],"delta_lng":[0,-165196,47966,197990,-38837]},"impl":true},
    {"code":1141619,"id":"629bd8","name":"飛騨萩原","name_kana":"ひだはぎわら","lat":35.874766,"lng":137.213568,"prefecture":21,"lines":[11416],"attr":"eco","postal_code":"509-2517","address":"下呂市萩原町萩原","next":[1141621,9952526,1141620,1141616,9952527,1141618],"voronoi":{"lat":35.809462,"lng":137.102883,"delta_lat":[0,2125,18167,25707,43054,-14760],"delta_lng":[0,-24047,-9069,-9525,171868,35969]},"impl":true},
    {"code":1141621,"id":"cd0b30","name":"飛騨宮田","name_kana":"ひだみやだ","lat":35.928443,"lng":137.235595,"prefecture":21,"lines":[11416],"attr":"eco","postal_code":"509-2511","address":"下呂市萩原町宮田","next":[1141619,1141620,1141622,1141625,1141618],"voronoi":{"lat":36.013824,"lng":137.16929,"delta_lat":[0,239,-115548,-14760,-5489],"delta_lng":[0,-3179,66000,35969,41923]},"impl":true},
    {"code":1141624,"left":1141623,"right":1141625,"id":"3cf635","name":"久々野","name_kana":"くぐの","lat":36.052273,"lng":137.276778,"prefecture":21,"lines":[11416],"attr":"eco","postal_code":"509-3205","address":"高山市久々野町久々野","next":[1141625,1141134,1141622,1141623,9940714,1141626],"voronoi":{"lat":36.09552,"lng":137.555668,"delta_lat":[0,-9428,-74252,3723,94504,64728],"delta_lng":[0,-2268,-339714,-19194,116833,224340]},"impl":true},
    {"code":1141623,"left":1141622,"id":"0a5991","name":"渚(岐阜)","original_name":"渚","name_kana":"なぎさ","lat":36.001416,"lng":137.287894,"prefecture":21,"lines":[11416],"attr":"eco","postal_code":"509-3213","address":"高山市久々野町渚","next":[1141134,1141622,1141131,1141624],"voronoi":{"lat":36.01184,"lng":137.213687,"delta_lat":[0,-153289,223956,3585],"delta_lng":[0,252084,87115,515]},"impl":true},
    {"code":1141622,"id":"fb3380","name":"飛騨小坂","name_kana":"ひだおさか","lat":35.950749,"lng":137.257084,"prefecture":21,"lines":[11416],"attr":"eco","postal_code":"509-3106","address":"下呂市小坂町大島","next":[1141623,1141617,1141624,1141621,1141625,1141131,1141618],"voronoi":{"lat":35.878265,"lng":137.310002,"delta_lat":[0,135558,1739,-3723,-153289,-6190,13736],"delta_lng":[0,-140713,25203,19194,252084,-1519,-115412]},"impl":true},
    {"code":1141625,"id":"6533be","name":"飛騨一ノ宮","name_kana":"ひだいちのみや","lat":36.08836,"lng":137.247588,"prefecture":21,"lines":[11416],"attr":"eco","postal_code":"509-3505","address":"高山市一之宮町","next":[1141624,1141631,9952538,1141628,1141626,9952536,1141630,1141622,1141621,1141620],"voronoi":{"lat":36.013824,"lng":137.16929,"delta_lat":[0,1739,94504,12987,-8250,-4732,-41700,-7525,-12489,-34295],"delta_lng":[0,25203,116833,-182623,-31924,-9688,-70856,2854,5425,141597]},"impl":true},
    {"code":1141627,"left":1141637,"right":9940911,"id":"c410dd","name":"上枝","name_kana":"ほずえ","lat":36.18095,"lng":137.245789,"prefecture":21,"lines":[11416],"attr":"eco","postal_code":"506-0041","address":"高山市下切町","next":[1141636,9940914,1141626,9940913,9940714,1141628],"voronoi":{"lat":36.331675,"lng":137.442309,"delta_lat":[0,-8053,-34045,-89912,-47306,177242],"delta_lng":[0,21161,68672,1377,-346522,178173]},"impl":true},
    {"code":1141637,"left":1141636,"right":1141638,"id":"1a2a30","name":"楡原","name_kana":"にれはら","lat":36.529323,"lng":137.22872,"prefecture":16,"lines":[11416],"attr":"heat","postal_code":"939-2184","address":"富山市楡原","next":[9940910,1141640,9941013,1141638,1141635,1141636],"voronoi":{"lat":36.488748,"lng":137.160243,"delta_lat":[0,6837,11680,61236,-17752,-38958],"delta_lng":[0,-21194,8025,116236,21326,19263]},"impl":true},
    {"code":1141636,"left":1141628,"id":"c6f0b0","name":"猪谷","name_kana":"いのたに","lat":36.471625,"lng":137.237975,"prefecture":16,"lines":[11416],"attr":"heat","postal_code":"939-2187","address":"富山市猪谷８８７","next":[1141634,9940913,1141627,9940911,1141628,1141635,9940910,1141637,9940912],"voronoi":{"lat":36.446271,"lng":137.363349,"delta_lat":[0,38721,26799,-23043,-131270,-27729,-147,2074,47396],"delta_lng":[0,-29105,-30346,-143656,159731,43463,1734,77139,-31037]},"impl":true},
    {"code":1141628,"id":"884501","name":"飛騨国府","name_kana":"ひだこくふ","lat":36.211001,"lng":137.215895,"prefecture":21,"lines":[11416],"attr":"eco","postal_code":"509-4119","address":"高山市国府町広瀬町","next":[1141630,1141629,1141636,1141625,1141626,1141627,1141634],"voronoi":{"lat":36.329602,"lng":137.36517,"delta_lat":[0,-177242,-29306,-8250,6541,194567,13837],"delta_lng":[0,-178173,-58295,-31924,5398,190945,70315]},"impl":true},
    {"code":1141638,"id":"4b9b53","name":"笹津","name_kana":"ささづ","lat":36.562129,"lng":137.211437,"prefecture":16,"lines":[11416],"attr":"heat","postal_code":"939-2223","address":"富山市笹津","next":[1141640,9941011,1141639,9941013,9941012,1141637,9941010],"voronoi":{"lat":36.585466,"lng":137.248343,"delta_lat":[0,-16312,-654,-61236,15968,81194,-9024],"delta_lng":[0,14597,370,-116236,6395,61278,21279]},"impl":true},
    {"code":9940911,"left":9940912,"right":9940913,"id":"03ee4c","name":"千垣","name_kana":"ちがき","lat":36.573752,"lng":137.373843,"prefecture":16,"lines":[99409],"attr":"cool","postal_code":"930-1408","address":"中新川郡立山町千垣","next":[9940910,9940913,1141636,9940908,9940912],"voronoi":{"lat":36.446271,"lng":137.363349,"delta_lat":[0,38721,129830,20392,-13355],"delta_lng":[0,-29105,28599,18688,713]},"impl":true},
    {"code":9940912,"id":"1423f2","name":"有峰口","name_kana":"ありみねぐち","lat":36.573066,"lng":137.380218,"prefecture":16,"lines":[99409],"attr":"heat","postal_code":"930-1456","address":"富山市小見","next":[9940913,9940911,1141636],"voronoi":{"lat":36.446271,"lng":137.363349,"delta_lat":[0,175588,-242787],"delta_lng":[0,18895,29028]},"impl":true},
    {"code":9940913,"id":"de8a5e","name":"本宮(富山)","original_name":"本宮","name_kana":"ほんぐう","lat":36.574919,"lng":137.395716,"prefecture":16,"lines":[99409],"attr":"heat","postal_code":"930-1455","address":"富山市本宮","next":[9940907,1141636,9940911,9940810,1141627,9940908,9940912,9940914],"voronoi":{"lat":36.331675,"lng":137.442309,"delta_lat":[0,47396,242787,13355,2052,5471,6378,-325492],"delta_lng":[0,-31037,-29028,-713,1298,4180,21680,54781]},"impl":true}
  ]
}