{
  "name":"segment6",
  "root":1190806,
  "east":130.806197,
  "west":-180.0,
  "south":33.563876,
  "north":34.638653,
  "station_size":155,
  "node_list":[
    {"code":1190806,"left":1191707,"right":1191107,"id":"e3c96a","name":"篠栗","name_kana":"ささぐり","lat":33.624045,"lng":130.524515,"prefecture":40,"lines":[11908],"attr":"eco","postal_code":"811-2405","address":"糟屋郡篠栗町大字篠栗","next":[1190807,1190224,1190232,1191709,1191708,1190221,1191710,1191704,1190805],"voronoi":{"lat":33.700908,"lng":130.538268,"delta_lat":[0,-12597,-6290,-6670,-65718,-5536,-8687,-1672,107777],"delta_lng":[0,-23730,-9432,-1246,8251,5704,16482,4798,5965]},"impl":true},
    {"code":1191707,"left":9990716,"right":1190226,"id":"c47945","name":"酒殿","name_kana":"さかど","lat":33.602652,"lng":130.486348,"prefecture":40,"lines":[11917],"attr":"heat","postal_code":"811-2303","address":"糟屋郡粕屋町大字酒殿","next":[1190809,1090104,1190808,1190807,1191708],"voronoi":{"lat":33.595617,"lng":130.490163,"delta_lat":[0,3312,4980,9284,-4569],"delta_lng":[0,-16400,2942,11921,8024]},"impl":true},
    {"code":9990716,"left":9990511,"right":100319,"id":"471492","name":"天神南","name_kana":"てんじんみなみ","lat":33.588197,"lng":130.401727,"prefecture":40,"lines":[99907],"attr":"heat","postal_code":"810-0004","address":"福岡市中央区渡辺通","next":[9990505,9990715,3600102,3600101,9990506],"voronoi":{"lat":33.589103,"lng":130.407383,"delta_lat":[0,-4027,17,5647,1381],"delta_lng":[0,-5465,-2477,2096,1631]},"impl":true},
    {"code":9990511,"left":9990709,"right":9990508,"id":"4f7f37","name":"藤崎(福岡)","original_name":"藤崎","name_kana":"ふじさき","lat":33.581347,"lng":130.348231,"prefecture":40,"lines":[99905],"attr":"cool","postal_code":"814-0006","address":"福岡市早良区百道２丁目","next":[9990510,9990512,9990709,1191601,9990703,9990708],"voronoi":{"lat":33.564939,"lng":130.345961,"delta_lat":[0,405,51790,-483,-43807,-3853],"delta_lng":[0,-1210,-1787,3489,9612,-3423]},"impl":true},
    {"code":9990709,"left":1190903,"right":9990711,"id":"50c998","name":"茶山(福岡)","original_name":"茶山","name_kana":"ちゃやま","lat":33.566065,"lng":130.36543,"prefecture":40,"lines":[99907],"attr":"cool","postal_code":"814-0111","address":"福岡市城南区茶山","next":[9990707,9990711,9990511,9990710,9990708,9990510,9990712],"voronoi":{"lat":33.561609,"lng":130.38141,"delta_lat":[0,2675,9804,-1243,-3853,-12762,-3215],"delta_lng":[0,-2620,-18923,-3803,-3423,22081,11198]},"impl":true},
    {"code":1190903,"left":1190904,"right":9990512,"id":"bbbf41","name":"今宿","name_kana":"いまじゅく","lat":33.579449,"lng":130.273531,"prefecture":40,"lines":[11909],"attr":"heat","postal_code":"819-0168","address":"福岡市西区今宿駅前１丁目","next":[9990701,1190904,1190902,1191601,1190905],"voronoi":{"lat":33.557925,"lng":130.292502,"delta_lat":[0,92323,34627,-143287,-17055],"delta_lng":[0,-6604,-29057,13294,5336]},"impl":true},
    {"code":1190904,"left":1190905,"id":"75565a","name":"九大学研都市","name_kana":"きゅうだいがっけんとし","lat":33.578178,"lng":130.259832,"prefecture":40,"lines":[11909],"attr":"heat","postal_code":"819-0375","address":"福岡市西区徳永","next":[1191602,1191601,1190903,1190921,1190906,1190905],"voronoi":{"lat":33.686408,"lng":130.193782,"delta_lat":[0,34734,100529,-136180,-615,-143287],"delta_lng":[0,-14847,-37674,115127,453,13294]},"impl":true},
    {"code":1190905,"id":"a83d04","name":"周船寺","name_kana":"すせんじ","lat":33.570762,"lng":130.245766,"prefecture":40,"lines":[11909],"attr":"heat","postal_code":"819-0373","address":"福岡市西区大字周船寺１丁目","next":[1190906,9990701,1190904,1190903],"voronoi":{"lat":33.541588,"lng":130.270135,"delta_lat":[0,144819,-204972,43098],"delta_lng":[0,-76353,72784,8905]},"impl":true},
    {"code":9990512,"id":"8b4419","name":"室見","name_kana":"むろみ","lat":33.581069,"lng":130.340176,"prefecture":40,"lines":[99905],"attr":"cool","postal_code":"814-0015","address":"福岡市早良区室見１丁目","next":[9990703,9990511,1191601,1190901,9990702],"voronoi":{"lat":33.565345,"lng":130.344751,"delta_lat":[0,51790,979,-49593,-2608],"delta_lng":[0,-1787,-3842,-8931,7006]},"impl":true},
    {"code":9990711,"left":9990712,"right":9990713,"id":"125de2","name":"六本松","name_kana":"ろっぽんまつ","lat":33.577678,"lng":130.377287,"prefecture":40,"lines":[99907],"attr":"cool","postal_code":"810-0044","address":"福岡市中央区六本松","next":[9990710,9990709,9990508,9990509,9990712],"voronoi":{"lat":33.584258,"lng":130.374423,"delta_lat":[0,-2083,-17891,-2675,21691],"delta_lng":[0,-3828,8196,2620,878]},"impl":true},
    {"code":9990712,"left":9990710,"id":"2feb43","name":"桜坂","name_kana":"さくらざか","lat":33.577292,"lng":130.386819,"prefecture":40,"lines":[99907],"attr":"heat","postal_code":"810-0024","address":"福岡市中央区桜坂","next":[9990706,3600103,9990713,9990707,9990507,9990711,9990508,9990709],"voronoi":{"lat":33.552853,"lng":130.386078,"delta_lat":[0,-4425,19524,14805,1987,-1445,-21691,-8594],"delta_lng":[0,5367,3677,-4936,-5618,-2279,-878,4510]},"impl":true},
    {"code":9990710,"id":"ef350e","name":"別府(福岡)","original_name":"別府","name_kana":"べふ","lat":33.57417,"lng":130.369629,"prefecture":40,"lines":[99907],"attr":"cool","postal_code":"814-0104","address":"福岡市城南区別府","next":[9990509,9990711,9990510,9990709],"voronoi":{"lat":33.574087,"lng":130.359867,"delta_lat":[0,8229,-142,-17891],"delta_lng":[0,7954,2773,8196]},"impl":true},
    {"code":9990713,"id":"25c229","name":"薬院大通","name_kana":"やくいんおおどおり","lat":33.580406,"lng":130.396158,"prefecture":40,"lines":[99907],"attr":"heat","postal_code":"810-0022","address":"福岡市中央区薬院","next":[3600102,9990712,3600103,3600101,9990507],"voronoi":{"lat":33.584674,"lng":130.39794,"delta_lat":[0,-8828,-7893,14805,3023],"delta_lng":[0,2478,-5297,-4936,5114]},"impl":true},
    {"code":9990508,"left":9990510,"right":9990507,"id":"89d80b","name":"大濠公園","name_kana":"おおほりこうえん","lat":33.589957,"lng":130.378784,"prefecture":40,"lines":[99905],"attr":"heat","postal_code":"810-0074","address":"福岡市中央区大手門１丁目","next":[9990509,9990507,1191601,9990711,9990605,9990506,9990712,9990602],"voronoi":{"lat":33.619567,"lng":130.386941,"delta_lat":[0,-34823,-1445,958,38384,3142,-3162,-139],"delta_lng":[0,-2374,-2279,-7866,1281,9000,2001,37]},"impl":true},
    {"code":9990510,"left":1190901,"right":9990509,"id":"914495","name":"西新","name_kana":"にしじん","lat":33.583846,"lng":130.359619,"prefecture":40,"lines":[99905],"attr":"heat","postal_code":"814-0002","address":"福岡市早良区西新３丁目","next":[9990511,1191601,9990710,9990709,9990509],"voronoi":{"lat":33.616682,"lng":130.347552,"delta_lat":[0,-30,-43807,1243,8229],"delta_lng":[0,-1099,9612,3803,7954]},"impl":true},
    {"code":1190901,"left":1190902,"id":"690512","name":"姪浜","name_kana":"めいのはま","lat":33.583764,"lng":130.32521,"prefecture":40,"lines":[11909,99905],"attr":"heat","postal_code":"819-0002","address":"福岡市西区姪の浜４丁目","next":[1190902,1191601,9990512,9990701,9990702],"voronoi":{"lat":33.618114,"lng":130.339121,"delta_lat":[0,13578,-61472,-1728,29],"delta_lng":[0,-27680,6635,11903,211]},"impl":true},
    {"code":1190902,"id":"ee6390","name":"下山門","name_kana":"しもやまと","lat":33.58193,"lng":130.308217,"prefecture":40,"lines":[11909],"attr":"heat","postal_code":"819-0052","address":"福岡市西区大字下山門４丁目","next":[1190901,1190903,9990701,1191601],"voronoi":{"lat":33.570219,"lng":130.318076,"delta_lat":[0,-12294,92323,-18557],"delta_lng":[0,-25574,-6604,25543]},"impl":true},
    {"code":9990509,"id":"e0a659","name":"唐人町","name_kana":"とうじんまち","lat":33.590235,"lng":130.370451,"prefecture":40,"lines":[99905],"attr":"heat","postal_code":"810-0063","address":"福岡市中央区唐人町１丁目","next":[9990710,9990508,1191601,9990711,9990510],"voronoi":{"lat":33.582174,"lng":130.370595,"delta_lat":[0,2083,38384,-5960,-34365],"delta_lng":[0,3828,1281,-28152,20270]},"impl":true},
    {"code":9990507,"left":3600102,"right":9990506,"id":"6a5cf4","name":"赤坂(福岡)","original_name":"赤坂","name_kana":"あかさか","lat":33.589124,"lng":130.391005,"prefecture":40,"lines":[99905],"attr":"eco","postal_code":"810-0042","address":"福岡市中央区赤坂１丁目","next":[9990508,3600101,9990712,9990506,9990713],"voronoi":{"lat":33.582758,"lng":130.390185,"delta_lat":[0,1987,34823,-30551,-3236],"delta_lng":[0,-5618,2374,8427,-69]},"impl":true},
    {"code":3600102,"left":3600101,"id":"90d629","name":"薬院","name_kana":"やくいん","lat":33.581957,"lng":130.401683,"prefecture":40,"lines":[36001,99907],"attr":"cool","postal_code":"810-0004","address":"福岡市中央区渡辺通２-６-１","next":[3600101,9990713,9990715,9990716,3600103],"voronoi":{"lat":33.575845,"lng":130.400419,"delta_lat":[0,8828,419,-17,-6230],"delta_lng":[0,-2478,1500,2477,3967]},"impl":true},
    {"code":3600101,"id":"1adb59","name":"西鉄福岡（天神）","name_kana":"ふくおか(てんじん)","lat":33.588937,"lng":130.399733,"prefecture":40,"lines":[36001],"attr":"cool","postal_code":"810-0001","address":"福岡市中央区天神二丁目11番2号","next":[9990506,3600102,9990507,9990716,9990713],"voronoi":{"lat":33.58578,"lng":130.395299,"delta_lat":[0,3236,1723,-5647,-419],"delta_lng":[0,69,6168,-2096,-1500]},"impl":true},
    {"code":9990506,"id":"492511","name":"天神","name_kana":"てんじん","lat":33.591346,"lng":130.39906,"prefecture":40,"lines":[99905],"attr":"eco","postal_code":"810-0001","address":"福岡市中央区天神２丁目","next":[3600101,9990505,9990602,9990508,9990716,9990507],"voronoi":{"lat":33.590739,"lng":130.401536,"delta_lat":[0,1381,17010,13352,-2915,-30551],"delta_lng":[0,1631,-7867,-8559,200,8427]},"impl":true},
    {"code":100319,"left":1190302,"right":9990501,"id":"dee3bc","name":"博多","name_kana":"はかた","lat":33.590002,"lng":130.420622,"prefecture":40,"lines":[1003,1010,11901,11902,11903,11908,99905],"attr":"heat","postal_code":"812-0012","address":"福岡市博多区博多駅中央街","next":[9990603,9990502,9990504,1190302,3600104,1190230,9990715,3600103],"voronoi":{"lat":33.580138,"lng":130.415351,"delta_lat":[0,5536,12870,32,-686,-18656,-1855,1390],"delta_lng":[0,-2116,8829,65,3855,-77,-3592,-5403]},"impl":true},
    {"code":1190302,"left":9990715,"right":1191710,"id":"08c015","name":"竹下","name_kana":"たけした","lat":33.568688,"lng":130.431625,"prefecture":40,"lines":[11903],"attr":"heat","postal_code":"812-0895","address":"福岡市博多区竹下４丁目","next":[9990501,1190303,3600104,100319,3600105,9990502,3600106],"voronoi":{"lat":33.559797,"lng":130.436851,"delta_lat":[0,7198,10384,1855,322,-4170,-11834],"delta_lng":[0,-13582,-954,3592,19861,7040,-10638]},"impl":true},
    {"code":9990715,"left":3600104,"right":9990502,"id":"885e18","name":"渡辺通","name_kana":"わたなべどおり","lat":33.583969,"lng":130.404843,"prefecture":40,"lines":[99907],"attr":"heat","postal_code":"810-0004","address":"福岡市中央区渡辺通","next":[3600103,9990505,9990716,9990504,3600102,100319],"voronoi":{"lat":33.585673,"lng":130.413234,"delta_lat":[0,3036,393,-4027,-6230,1292],"delta_lng":[0,-3155,-2697,-5465,3967,9466]},"impl":true},
    {"code":3600104,"left":3600103,"id":"4f8193","name":"高宮(福岡)","original_name":"高宮","name_kana":"たかみや","lat":33.567138,"lng":130.414743,"prefecture":40,"lines":[36001],"attr":"cool","postal_code":"815-0082","address":"福岡市南区大楠３-２０-１８","next":[9990706,1190302,3600103,100319,3600105],"voronoi":{"lat":33.577379,"lng":130.422315,"delta_lat":[0,1390,-32004,-16269,36499],"delta_lng":[0,-5403,-24479,6093,24743]},"impl":true},
    {"code":3600103,"id":"c04e29","name":"西鉄平尾","name_kana":"にしてつひらお","lat":33.573631,"lng":130.406254,"prefecture":40,"lines":[36001],"attr":"cool","postal_code":"810-0014","address":"福岡市中央区平尾２-２３５-６","next":[9990715,9990712,9990706,3600104,9990713,100319,3600102],"voronoi":{"lat":33.580138,"lng":130.415351,"delta_lat":[0,-1369,-32004,1664,19524,7893,3000],"delta_lng":[0,1561,-24479,-988,3677,5297,5466]},"impl":true},
    {"code":9990502,"id":"ffbc81","name":"東比恵","name_kana":"ひがしひえ","lat":33.589958,"lng":130.43128,"prefecture":40,"lines":[99905],"attr":"eco","postal_code":"812-0007","address":"福岡市博多区東比恵２丁目","next":[100319,1190230,9990501,1190302],"voronoi":{"lat":33.579233,"lng":130.425907,"delta_lat":[0,18656,4515,-22849],"delta_lng":[0,77,10202,9582]},"impl":true},
    {"code":1191710,"left":1191711,"right":1191709,"id":"3b5a70","name":"新原","name_kana":"しんばる","lat":33.579061,"lng":130.508835,"prefecture":40,"lines":[11917],"attr":"heat","postal_code":"811-2111","address":"福岡県糟屋郡須恵町大字新原249-1","next":[1090105,1191709,1190806,1190805,1191711],"voronoi":{"lat":33.593738,"lng":130.539095,"delta_lat":[0,1672,-15722,-5405,14882],"delta_lng":[0,-4798,-35097,12203,31799]},"impl":true},
    {"code":1191711,"left":1090105,"id":"d9ebe0","name":"宇美","name_kana":"うみ","lat":33.569251,"lng":130.513426,"prefecture":40,"lines":[11917,10901],"attr":"heat","postal_code":"811-2101","address":"糟屋郡宇美町大字宇美","next":[3600110,1190805,1090105,1090107,3600109,1191710],"voronoi":{"lat":33.574283,"lng":130.511402,"delta_lat":[0,-25579,-4168,-199,43477,1351],"delta_lng":[0,-13068,5529,384,40599,-1645]},"impl":true},
    {"code":1090105,"id":"e81c05","name":"下宇美","name_kana":"しもうみ","closed":true,"lat":33.572974,"lng":130.506139,"prefecture":40,"lines":[10901],"attr":"unknown","postal_code":"811-2122","address":"福岡県糟屋郡宇美町明神坂２丁目８","next":[1191710,1090104,3600109,1191711,1191709,3600107,3600108],"voronoi":{"lat":33.560639,"lng":130.484057,"delta_lat":[0,4201,14419,429,-5405,-25579,1877],"delta_lng":[0,-2487,11446,6183,12203,-13068,-3563]},"impl":true},
    {"code":1191709,"id":"225031","name":"須恵中央","name_kana":"すえちゅうおう","lat":33.587296,"lng":130.505146,"prefecture":40,"lines":[11917],"attr":"heat","postal_code":"811-2113","address":"福岡県糟屋郡須恵町大字須恵806","next":[1190806,1191710,1191708,1090105,1090104],"voronoi":{"lat":33.604098,"lng":130.517815,"delta_lat":[0,-8687,-15722,-429,7240],"delta_lng":[0,16482,-35097,-6183,1131]},"impl":true},
    {"code":9990501,"left":9990602,"right":1191708,"id":"4586eb","name":"福岡空港","name_kana":"ふくおかくうこう","lat":33.59718,"lng":130.448501,"prefecture":40,"lines":[99905],"attr":"eco","postal_code":"812-0003","address":"福岡市博多区大字下臼井","next":[1190810,1190302,1190230,1190303,1090103,9990502,1090104,1090102],"voronoi":{"lat":33.578904,"lng":130.463429,"delta_lat":[0,-3542,24,4170,22849,545,1364,-3519],"delta_lng":[0,-657,-9965,-7040,-9582,218,6301,10869]},"impl":true},
    {"code":9990602,"left":9990504,"right":9990603,"id":"2f5d1d","name":"呉服町(福岡)","original_name":"呉服町","name_kana":"ごふくまち","lat":33.59829,"lng":130.409892,"prefecture":40,"lines":[99906],"attr":"eco","postal_code":"812-0024","address":"福岡市博多区綱場町","next":[9990603,9990505,9990506,9990605,9990508,9990504],"voronoi":{"lat":33.594219,"lng":130.410499,"delta_lat":[0,14911,13352,139,-5279,-19066],"delta_lng":[0,-15199,-8559,-37,9502,17873]},"impl":true},
    {"code":9990504,"left":9990505,"id":"d9b136","name":"祇園(福岡)","original_name":"祇園","name_kana":"ぎおん","lat":33.594124,"lng":130.414614,"prefecture":40,"lines":[99905],"attr":"eco","postal_code":"812-0037","address":"福岡市博多区御供所町","next":[9990505,9990603,100319,9990715,9990602],"voronoi":{"lat":33.598543,"lng":130.422064,"delta_lat":[0,-12870,3036,5510,4057],"delta_lng":[0,-8829,-3155,420,3580]},"impl":true},
    {"code":9990505,"id":"f0f95a","name":"中洲川端","name_kana":"なかすかわばた","lat":33.594749,"lng":130.406418,"prefecture":40,"lines":[99905,99906],"attr":"eco","postal_code":"812-0026","address":"福岡市博多区上川端町","next":[9990504,9990715,9990716,9990602,9990506],"voronoi":{"lat":33.589103,"lng":130.407383,"delta_lat":[0,-393,5510,14911,-17010],"delta_lng":[0,2697,420,-15199,7867]},"impl":true},
    {"code":9990603,"id":"293e0c","name":"千代県庁口","name_kana":"ちよけんちょうぐち","lat":33.602456,"lng":130.414336,"prefecture":40,"lines":[99906],"attr":"eco","postal_code":"812-0044","address":"福岡市博多区千代４","next":[9990504,9990602,100319,1190230,9990604,9990605],"voronoi":{"lat":33.617342,"lng":130.396206,"delta_lat":[0,-19066,267,32,5546,9021],"delta_lng":[0,17873,7984,65,-2783,-12530]},"impl":true},
    {"code":1191708,"left":1090104,"right":1090103,"id":"c0b4ea","name":"須恵","name_kana":"すえ","lat":33.596803,"lng":130.498077,"prefecture":40,"lines":[11917],"attr":"heat","postal_code":"811-2112","address":"福岡県糟屋郡須恵町大字植木587-8","next":[1090104,1190806,1191709,1191707,1190807],"voronoi":{"lat":33.608624,"lng":130.496649,"delta_lat":[0,-13007,-9118,17598,5536],"delta_lng":[0,-6487,3985,23667,-5704]},"impl":true},
    {"code":1090104,"id":"53ba29","name":"志免","name_kana":"しめ","closed":true,"lat":33.590614,"lng":130.483917,"prefecture":40,"lines":[10901],"attr":"unknown","postal_code":"811-2244","address":"福岡県糟屋郡志免町志免中央２丁目７","next":[1191707,1090105,1191708,1190809,1190303,9990501,1090103,3600107,1191709],"voronoi":{"lat":33.57926,"lng":130.493016,"delta_lat":[0,-14419,7870,2651,3542,19349,677,-3312,-9118],"delta_lng":[0,-11446,-16037,-2761,657,9232,1101,16400,3985]},"impl":true},
    {"code":1090103,"id":"ec14f1","name":"上亀山","name_kana":"かみかめやま","closed":true,"lat":33.602196,"lng":130.459642,"prefecture":40,"lines":[10901],"attr":"unknown","postal_code":"811-2205","address":"福岡県糟屋郡志免町別府１丁目２１-１７","next":[1090102,9990501,1190809,1090104],"voronoi":{"lat":33.578904,"lng":130.463429,"delta_lat":[0,21891,12074,-14616],"delta_lng":[0,-9856,6741,12347]},"impl":true},
    {"code":1190226,"left":1191601,"right":3600404,"id":"d8fd50","name":"九産大前","name_kana":"きゅうさんだいまえ","lat":33.673743,"lng":130.441184,"prefecture":40,"lines":[11902],"attr":"heat","postal_code":"813-0001","address":"福岡市東区唐原","next":[1191702,1190232,1190227,1190233,3600405,1190225,3600407,3600406],"voronoi":{"lat":33.66683,"lng":130.444359,"delta_lat":[0,4581,11382,445,3842,-647,-11456,-8212],"delta_lng":[0,23094,23898,-1208,-18258,-25054,-10809,4620]},"impl":true},
    {"code":1191601,"left":3600401,"right":1191605,"id":"6fde6a","name":"西戸崎","name_kana":"さいとざき","lat":33.650139,"lng":130.35777,"prefecture":40,"lines":[11916],"attr":"heat","postal_code":"811-0321","address":"福岡市東区西戸崎１丁目","next":[1190904,9990510,1190901,9990605,9990508,9990509,3600401,9990512,9990511,9990606,1191602,1190903,1190902],"voronoi":{"lat":33.618114,"lng":130.339121,"delta_lat":[0,-979,-483,30,5960,3142,838,14544,6812,37513,-615,-34627,-18557],"delta_lng":[0,3842,3489,1099,28152,9000,465,6432,1730,-136942,453,29057,25543]},"impl":true},
    {"code":3600401,"left":9990605,"right":1190228,"id":"2c722a","name":"貝塚(福岡)","original_name":"貝塚","name_kana":"かいづか","lat":33.632906,"lng":130.425612,"prefecture":40,"lines":[36004,99906],"attr":"cool","postal_code":"812-0053","address":"福岡市東区箱崎７-１-２","next":[1191603,1191602,9990606,1191601,1190810,3600402,1190229],"voronoi":{"lat":33.625595,"lng":130.427836,"delta_lat":[0,15570,6812,1483,4039,-23905,-3321],"delta_lng":[0,-36236,1730,727,9229,38668,-3368]},"impl":true},
    {"code":9990605,"left":1190230,"right":9990606,"id":"dade97","name":"箱崎宮前","name_kana":"はこざきみやまえ","lat":33.615788,"lng":130.419613,"prefecture":40,"lines":[99906],"attr":"heat","postal_code":"812-0054","address":"福岡市東区馬出４","next":[9990606,1191601,9990604,9990508,9990602,1190230,1190229,9990603],"voronoi":{"lat":33.617342,"lng":130.396206,"delta_lat":[0,5279,3162,838,-8130,-5713,-366,730],"delta_lng":[0,-9502,-2001,465,37399,1874,-781,-16845]},"impl":true},
    {"code":1190230,"left":9990604,"id":"2becef","name":"吉塚","name_kana":"よしづか","lat":33.607142,"lng":130.423674,"prefecture":40,"lines":[11902,11908,10901],"attr":"heat","postal_code":"812-0046","address":"福岡市博多区吉塚本町","next":[9990501,1190810,9990502,1190229,100319,9990603,9990605,9990604],"voronoi":{"lat":33.604121,"lng":130.419345,"delta_lat":[0,-5546,-686,4515,545,7220,2609,-366],"delta_lng":[0,2783,3855,10202,218,-2050,-9912,-781]},"impl":true},
    {"code":9990604,"id":"3919b2","name":"馬出九大病院前","name_kana":"まいだしきゅうだいびょういんまえ","lat":33.6094,"lng":130.419336,"prefecture":40,"lines":[99906],"attr":"heat","postal_code":"812-0054","address":"福岡市東区馬出２","next":[9990605,1190230,9990603],"voronoi":{"lat":33.613143,"lng":130.406816,"delta_lat":[0,-730,-8291],"delta_lng":[0,16845,-4315]},"impl":true},
    {"code":9990606,"id":"e05c01","name":"箱崎九大前","name_kana":"はこざききゅうだいまえ","lat":33.622177,"lng":130.421002,"prefecture":40,"lines":[99906],"attr":"cool","postal_code":"812-0053","address":"福岡市東区箱崎３","next":[3600401,1190229,9990605,1191601],"voronoi":{"lat":33.625595,"lng":130.427836,"delta_lat":[0,-7104,8130,14544],"delta_lng":[0,-5269,-37399,6432]},"impl":true},
    {"code":1190228,"left":3600402,"right":3600403,"id":"659c37","name":"千早","name_kana":"ちはや","lat":33.649116,"lng":130.440486,"prefecture":40,"lines":[11902],"attr":"heat","postal_code":"813-0041","address":"福岡市東区水谷２丁目８３-１","next":[3600403,3600404,3600402,1191703,1191702],"voronoi":{"lat":33.634302,"lng":130.444518,"delta_lat":[0,7907,10198,-1969,-7134],"delta_lng":[0,-5736,2222,5556,249]},"impl":true},
    {"code":3600402,"left":1190229,"id":"4081e2","name":"名島","name_kana":"なじま","lat":33.642733,"lng":130.431687,"prefecture":40,"lines":[36004],"attr":"cool","postal_code":"813-0043","address":"福岡市東区名島４丁目７０番６号","next":[3600406,1191703,3600405,1191603,1190228,1190810,3600401,3600403],"voronoi":{"lat":33.634302,"lng":130.444518,"delta_lat":[0,-3377,-1331,23905,5062,-1587,-893,-13872],"delta_lng":[0,382,-2945,-38668,7340,15935,1565,10655]},"impl":true},
    {"code":1190229,"id":"d7da77","name":"箱崎","name_kana":"はこざき","lat":33.618063,"lng":130.426549,"prefecture":40,"lines":[11902],"attr":"heat","postal_code":"812-0053","address":"福岡市東区箱崎１丁目","next":[9990606,1190230,1190810,9990605,3600401],"voronoi":{"lat":33.610169,"lng":130.434354,"delta_lat":[0,2609,5713,7104,678],"delta_lng":[0,-9912,-1874,5269,10750]},"impl":true},
    {"code":3600403,"id":"a8b1f2","name":"西鉄千早","name_kana":"にしてつちはや","lat":33.649199,"lng":130.440105,"prefecture":40,"lines":[36004],"attr":"cool","postal_code":"813-0041","address":"福岡市東区水谷２丁目８３番２号","next":[3600405,1190228,3600404,3600402],"voronoi":{"lat":33.656081,"lng":130.428126,"delta_lat":[0,-738,-2936,-10198],"delta_lng":[0,5916,6961,-2222]},"impl":true},
    {"code":1191605,"left":1191604,"right":1190225,"id":"581d45","name":"和白","name_kana":"わじろ","lat":33.688888,"lng":130.429918,"prefecture":40,"lines":[11916,36004],"attr":"eco","postal_code":"811-0202","address":"福岡市東区和白３丁目","next":[3600407,3600409,1191604,1190225],"voronoi":{"lat":33.698236,"lng":130.431127,"delta_lat":[0,-6049,-12950,9349],"delta_lng":[0,-10788,1753,18055]},"impl":true},
    {"code":1191604,"left":1191603,"right":3600409,"id":"d01c93","name":"奈多","name_kana":"なた","lat":33.68646,"lng":130.411983,"prefecture":40,"lines":[11916],"attr":"eco","postal_code":"811-0204","address":"福岡市東区奈多","next":[3600409,1191603,3600406,1191605,3600407],"voronoi":{"lat":33.675117,"lng":130.420921,"delta_lat":[0,-9914,39476,-12491,-12950],"delta_lng":[0,-7315,-11782,18516,1753]},"impl":true},
    {"code":1191603,"left":1191602,"id":"77cb8b","name":"雁ノ巣","name_kana":"がんのす","lat":33.683872,"lng":130.403312,"prefecture":40,"lines":[11916],"attr":"heat","postal_code":"811-0204","address":"福岡市東区奈多","next":[3600401,3600409,1191604,3600402,3600406,1191602],"voronoi":{"lat":33.653499,"lng":130.403286,"delta_lat":[0,5062,6641,39476,70815,-126033],"delta_lng":[0,7340,2979,-11782,-67128,59362]},"impl":true},
    {"code":1191602,"id":"4d3e80","name":"海ノ中道","name_kana":"うみのなかみち","lat":33.664241,"lng":130.361633,"prefecture":40,"lines":[11916],"attr":"heat","postal_code":"811-0321","address":"福岡市東区西戸崎","next":[1190904,3600401,3600410,1190913,1190921,1190907,3600409,1190920,1191603,1191601,1190908,1190222],"voronoi":{"lat":34.870557,"lng":129.502983,"delta_lat":[0,-335956,-6266,-94806,-605936,-5923,-136180,-37513,1483,126033,179914,64494],"delta_lng":[0,168709,3615,61533,400307,4115,115127,136942,727,-59362,-111811,-42720]},"impl":true},
    {"code":3600409,"id":"04c949","name":"三苫","name_kana":"みとま","lat":33.702081,"lng":130.422521,"prefecture":40,"lines":[36004],"attr":"heat","postal_code":"811-0212","address":"福岡市東区美和台３-６-１","next":[1191604,1191603,3600410,1191605,1191602,1190225],"voronoi":{"lat":33.955407,"lng":130.222884,"delta_lat":[0,-179914,-70815,-12491,6049,6669],"delta_lng":[0,111811,67128,18516,10788,1210]},"impl":true},
    {"code":1190225,"left":3600407,"right":3600410,"id":"37787f","name":"福工大前","name_kana":"ふっこうだいまえ","lat":33.698813,"lng":130.440536,"prefecture":40,"lines":[11902],"attr":"cool","postal_code":"811-0213","address":"福岡市東区和白丘１丁目","next":[3600407,1190233,3600410,1190226,3600409,1191605],"voronoi":{"lat":33.686432,"lng":130.44683,"delta_lat":[0,647,20134,-2308,-6669,-9650],"delta_lng":[0,25054,-29980,-9567,-1210,9020]},"impl":true},
    {"code":3600407,"left":3600406,"id":"e7991a","name":"唐の原","name_kana":"とうのはる","lat":33.680059,"lng":130.43449,"prefecture":40,"lines":[36004],"attr":"eco","postal_code":"813-0001","address":"福岡市東区唐原２-２２-１０","next":[1191605,1190225,1191604,3600406,1190226],"voronoi":{"lat":33.674977,"lng":130.436022,"delta_lat":[0,140,4121,9349,-2154],"delta_lng":[0,-15101,1172,18055,6683]},"impl":true},
    {"code":3600406,"id":"b33619","name":"香椎花園前","name_kana":"かしいかえんまえ","lat":33.669924,"lng":130.434396,"prefecture":40,"lines":[36004],"attr":"eco","postal_code":"813-0003","address":"福岡市東区香住ケ丘６-１-１","next":[3600402,1191604,1191603,3600407,3600405,1190226],"voronoi":{"lat":33.674977,"lng":130.436022,"delta_lat":[0,140,-9914,-6641,-1587,9790],"delta_lng":[0,-15101,-7315,-2979,15935,14080]},"impl":true},
    {"code":3600410,"id":"08d700","name":"西鉄新宮","name_kana":"にしてつしんぐう","lat":33.714067,"lng":130.436856,"prefecture":40,"lines":[36004],"attr":"heat","postal_code":"811-0112","address":"糟屋郡新宮町大字下府字浜山９２１-１","next":[1190233,1191602,1190224,1190232,3600409,1190223,1190225,1190222],"voronoi":{"lat":34.019901,"lng":130.180165,"delta_lat":[0,-64494,-250502,2308,17866,21689,20893,71005],"delta_lng":[0,42720,209453,9567,3495,-7973,-12879,-63086]},"impl":true},
    {"code":3600404,"left":1191704,"right":1190224,"id":"c02014","name":"香椎宮前","name_kana":"かしいみやまえ","lat":33.65529,"lng":130.442674,"prefecture":40,"lines":[36004],"attr":"cool","postal_code":"813-0013","address":"福岡市東区香椎駅前１-１-１","next":[1190227,1190228,3600403,1191702,3600405],"voronoi":{"lat":33.655177,"lng":130.449272,"delta_lat":[0,-4738,1969,2936,2282],"delta_lng":[0,-2713,-5556,-6961,8286]},"impl":true},
    {"code":1191704,"left":1191703,"right":1190807,"id":"6344cf","name":"土井","name_kana":"どい","lat":33.634968,"lng":130.466068,"prefecture":40,"lines":[11917],"attr":"eco","postal_code":"813-0032","address":"福岡市東区土井３丁目","next":[1190232,1190807,1191702,1190810,1191703,1191705,1190806],"voronoi":{"lat":33.675351,"lng":130.503859,"delta_lat":[0,-39325,-14357,7592,36206,16349,205],"delta_lng":[0,-18638,-27171,-7853,34519,17840,2549]},"impl":true},
    {"code":1191703,"left":1090102,"right":1191702,"id":"ef31eb","name":"舞松原","name_kana":"まいまつばら","lat":33.645386,"lng":130.455141,"prefecture":40,"lines":[11917],"attr":"eco","postal_code":"813-0042","address":"福岡市東区舞松原６丁目","next":[3600402,1190810,1191704,1190228,1191702],"voronoi":{"lat":33.643304,"lng":130.446809,"delta_lat":[0,-9002,-3377,-1664,36206],"delta_lng":[0,-2291,382,5298,34519]},"impl":true},
    {"code":1090102,"left":1190810,"id":"2c592d","name":"御手洗","name_kana":"みたらい","closed":true,"lat":33.606696,"lng":130.451582,"prefecture":40,"lines":[10901],"attr":"unknown","postal_code":"811-2233","address":"福岡県糟屋郡志免町別府北２丁目９-１１志免鉄道公園 (旧御手洗駅)","next":[1190809,1090103,1190810,9990501],"voronoi":{"lat":33.604314,"lng":130.442704,"delta_lat":[0,15815,-7260,-12074],"delta_lng":[0,15716,1894,-6741]},"impl":true},
    {"code":1190810,"id":"df9280","name":"柚須","name_kana":"ゆす","lat":33.613206,"lng":130.445031,"prefecture":40,"lines":[11908],"attr":"heat","postal_code":"811-2305","address":"糟屋郡粕屋町柚須","next":[1190809,9990501,1191705,1190230,1191704,1191703,1190229,1090102,3600401,3600402],"voronoi":{"lat":33.629594,"lng":130.441955,"delta_lat":[0,-3321,-16104,-7220,1364,15815,124,1417,7592,1664],"delta_lng":[0,-3368,-4233,2050,6301,15716,7,-377,-7853,-5298]},"impl":true},
    {"code":1191702,"id":"0cad51","name":"香椎神宮","name_kana":"かしいじんぐう","lat":33.649544,"lng":130.45271,"prefecture":40,"lines":[11917],"attr":"cool","postal_code":"813-0011","address":"福岡市東区香椎５丁目","next":[1190226,1191704,1190232,1190227,3600404,1191703,1190228],"voronoi":{"lat":33.650438,"lng":130.446559,"delta_lat":[0,4738,16234,11382,-976,-16349,-22163],"delta_lng":[0,2713,18180,23898,11206,-17840,-37908]},"impl":true},
    {"code":1190807,"left":1190808,"right":1191705,"id":"579856","name":"門松","name_kana":"かどまつ","lat":33.620531,"lng":130.496529,"prefecture":40,"lines":[11908],"attr":"eco","postal_code":"811-2302","address":"糟屋郡粕屋町大隈","next":[1190806,1191704,1191707,1190808,1191705,1191708],"voronoi":{"lat":33.608624,"lng":130.496649,"delta_lat":[0,4569,9550,13283,39325,-65718],"delta_lng":[0,-8024,-3560,156,18638,8251]},"impl":true},
    {"code":1190808,"left":1190809,"id":"89df86","name":"長者原","name_kana":"ちょうじゃばる","lat":33.613567,"lng":130.477848,"prefecture":40,"lines":[11908,11917],"attr":"heat","postal_code":"811-2304","address":"糟屋郡粕屋町仲原","next":[1190809,1191705,1191707,1190807],"voronoi":{"lat":33.622743,"lng":130.485066,"delta_lat":[0,-6841,-11993,9284],"delta_lng":[0,-11523,3162,11921]},"impl":true},
    {"code":1190809,"id":"49f048","name":"原町","name_kana":"はるまち","lat":33.611748,"lng":130.470949,"prefecture":40,"lines":[11908],"attr":"heat","postal_code":"811-2307","address":"糟屋郡粕屋町大字原町","next":[1090102,1190810,1191707,1190808,1090104,1090103,1191705],"voronoi":{"lat":33.620252,"lng":130.458427,"delta_lat":[0,-124,-7260,-14616,677,4980,11993],"delta_lng":[0,-7,1894,12347,1101,2942,-3162]},"impl":true},
    {"code":1191705,"id":"81ece0","name":"伊賀","name_kana":"いが","lat":33.6208,"lng":130.473554,"prefecture":40,"lines":[11917],"attr":"eco","postal_code":"811-2312","address":"糟屋郡粕屋町大字戸原","next":[1190808,1190810,1191704,1190807,1190809],"voronoi":{"lat":33.622743,"lng":130.485066,"delta_lat":[0,13283,-14357,-1417,-4350],"delta_lng":[0,156,-27171,377,15115]},"impl":true},
    {"code":1190224,"left":1190233,"right":1190222,"id":"a2c02b","name":"古賀","name_kana":"こが","lat":33.732586,"lng":130.466898,"prefecture":40,"lines":[11902],"attr":"cool","postal_code":"811-3100","address":"古賀市後牟田","next":[1190806,1190223,3600410,1190232,1190221],"voronoi":{"lat":33.705175,"lng":130.534261,"delta_lat":[0,62487,-20893,-58457,12597],"delta_lng":[0,-109713,12879,77111,23730]},"impl":true},
    {"code":1190233,"left":1190227,"right":1190232,"id":"b46b69","name":"新宮中央","name_kana":"しんぐうちゅうおう","lat":33.711659,"lng":130.449163,"prefecture":40,"lines":[11902],"attr":"heat","postal_code":"811-0117","address":"福岡県糟屋郡新宮町上府1323-2","open_date":"2010-03-13","next":[3600410,1190226,1190225,1190232],"voronoi":{"lat":33.68708,"lng":130.471885,"delta_lat":[0,20134,17866,-41842],"delta_lng":[0,-29980,3495,44743]},"impl":true},
    {"code":1190227,"left":3600405,"id":"304596","name":"香椎","name_kana":"かしい","lat":33.659228,"lng":130.444063,"prefecture":40,"lines":[11902,11916,11917],"attr":"heat","postal_code":"813-0013","address":"福岡市東区香椎駅前１丁目","next":[3600404,3600405,1190226,1191702],"voronoi":{"lat":33.66683,"lng":130.444359,"delta_lat":[0,-9204,-2449,16234],"delta_lng":[0,-2030,6944,18180]},"impl":true},
    {"code":3600405,"id":"aab36b","name":"西鉄香椎","name_kana":"にしてつかしい","lat":33.659809,"lng":130.441429,"prefecture":40,"lines":[36004],"attr":"cool","postal_code":"813-0013","address":"福岡市東区香椎駅前２-１７-１","next":[3600403,1190227,3600402,1190226,3600406,3600404],"voronoi":{"lat":33.66683,"lng":130.444359,"delta_lat":[0,-65,-9790,-893,-738,2282],"delta_lng":[0,-3717,-14080,1565,5916,8286]},"impl":true},
    {"code":1190232,"id":"da031a","name":"ししぶ","name_kana":"ししぶ","lat":33.722223,"lng":130.459042,"prefecture":40,"lines":[11902],"attr":"heat","postal_code":"811-3107","address":"福岡県古賀市美明二丁目","next":[1191704,1190226,1190806,3600410,1191702,1190224,1190233],"voronoi":{"lat":33.682793,"lng":130.49135,"delta_lat":[0,-976,205,6290,58457,-21689,-41842],"delta_lng":[0,11206,2549,9432,-77111,7973,44743]},"impl":true},
    {"code":1190222,"left":1190223,"right":1190221,"id":"09b8e1","name":"福間","name_kana":"ふくま","lat":33.763316,"lng":130.486088,"prefecture":40,"lines":[11902],"attr":"cool","postal_code":"811-3200","address":"福津市中央３丁目","next":[1190920,1190220,1190221,1170223,1190223,3600410,1191602],"voronoi":{"lat":33.838667,"lng":130.361462,"delta_lat":[0,-104771,89513,918456,313051,-184358,-850656],"delta_lng":[0,152170,-38641,-669961,-407390,105343,677182]},"impl":true},
    {"code":1190223,"id":"447e58","name":"千鳥","name_kana":"ちどり","lat":33.749129,"lng":130.47632,"prefecture":40,"lines":[11902],"attr":"cool","postal_code":"811-3115","address":"古賀市久保","next":[1190224,3600410,1190221,1190222],"voronoi":{"lat":33.838667,"lng":130.361462,"delta_lat":[0,-71005,-62487,28721],"delta_lng":[0,63086,109713,-20629]},"impl":true},
    {"code":1190221,"id":"150966","name":"東福間","name_kana":"ひがしふくま","lat":33.774118,"lng":130.511111,"prefecture":40,"lines":[11902],"attr":"cool","postal_code":"811-3222","address":"福津市津丸","next":[1190219,1190218,1190223,1190222,1190806,1190220,1190805,1190224],"voronoi":{"lat":33.705175,"lng":130.534261,"delta_lat":[0,28721,89513,-82153,-17620,-10306,-11814,-607],"delta_lng":[0,-20629,-38641,94486,10300,4441,-39158,-6792]},"impl":true},
    {"code":1191107,"left":9990920,"right":9990918,"id":"1d953b","name":"新入","name_kana":"しんにゅう","lat":33.763498,"lng":130.714152,"prefecture":40,"lines":[11911],"attr":"cool","postal_code":"822-0000","address":"直方市新入","next":[1191106,9990921,9990919,1191109,1191108,9990918],"voronoi":{"lat":33.76261,"lng":130.72361,"delta_lat":[0,-8147,-9109,-2649,30252,-3350],"delta_lng":[0,-6706,-13288,-53495,66708,4645]},"impl":true},
    {"code":9990920,"left":1191114,"right":9990211,"id":"55345d","name":"感田","name_kana":"がんだ","lat":33.758799,"lng":130.733137,"prefecture":40,"lines":[99909],"attr":"cool","postal_code":"822-0001","address":"直方市大字感田字渕尻２９７１-２","next":[1191108,9990205,1191409,9990921,9990206,9990202,9990919],"voronoi":{"lat":33.762164,"lng":130.725056,"delta_lat":[0,-15986,-1656,-2629,8652,9392,18414],"delta_lng":[0,12391,1911,6408,33602,18191,551]},"impl":true},
    {"code":1191114,"left":1191202,"right":1191109,"id":"36c6d3","name":"飯塚","name_kana":"いいづか","lat":33.628487,"lng":130.689545,"prefecture":40,"lines":[11911],"attr":"heat","postal_code":"820-0017","address":"飯塚市菰田西１丁目","next":[1190802,1191115,1191113,1191502],"voronoi":{"lat":33.654862,"lng":130.630294,"delta_lat":[0,-16353,-28654,23009],"delta_lng":[0,10603,56805,5907]},"impl":true},
    {"code":1191202,"left":1190804,"right":1191503,"id":"d8b4c7","name":"上穂波","name_kana":"かみほなみ","lat":33.566909,"lng":130.645151,"prefecture":40,"lines":[11912],"attr":"heat","postal_code":"820-0704","address":"飯塚市阿恵","next":[1190802,1191203,1190803,1190801],"voronoi":{"lat":33.560813,"lng":130.614024,"delta_lat":[0,4723,18242,-43218],"delta_lng":[0,3694,28174,43697]},"impl":true},
    {"code":1190804,"left":1190802,"right":1190805,"id":"85fe84","name":"城戸南蔵院前","name_kana":"きどなんぞういんまえ","lat":33.61826,"lng":130.572076,"prefecture":40,"lines":[11908],"attr":"cool","postal_code":"811-2405","address":"糟屋郡篠栗町大字篠栗","next":[1191112,1190218,1191111,1190803,1191113,1191110,1090107,1190805],"voronoi":{"lat":33.710368,"lng":130.611151,"delta_lat":[0,-2914,-21967,-3202,-22364,-87619,11273,128931],"delta_lng":[0,1664,8560,945,4759,-55937,-16305,33974]},"impl":true},
    {"code":1190802,"left":1190803,"id":"1caa1c","name":"筑前大分","name_kana":"ちくぜんだいぶ","lat":33.590006,"lng":130.630196,"prefecture":40,"lines":[11908],"attr":"cool","postal_code":"820-0712","address":"飯塚市大分","next":[1190803,1191202,1191115,1191114,1190801,1191113],"voronoi":{"lat":33.638509,"lng":130.640897,"delta_lat":[0,-28702,-26029,-18242,89397,-71],"delta_lng":[0,9233,-4238,-28174,12516,60]},"impl":true},
    {"code":1190803,"id":"24d09d","name":"九郎原","name_kana":"くろうばる","lat":33.592492,"lng":130.612439,"prefecture":40,"lines":[11908],"attr":"cool","postal_code":"820-0713","address":"飯塚市内住","next":[1190802,1191113,1190804,1191203,1090107,1191202],"voronoi":{"lat":33.654934,"lng":130.630233,"delta_lat":[0,4987,-87619,-26571,15083,4723],"delta_lng":[0,-3154,-55937,11802,31079,3694]},"impl":true},
    {"code":1190805,"id":"44be87","name":"筑前山手","name_kana":"ちくぜんやまて","lat":33.622251,"lng":130.55693,"prefecture":40,"lines":[11908],"attr":"eco","postal_code":"811-2405","address":"糟屋郡篠栗町大字篠栗","next":[1090107,1191711,1190218,1190221,1190804,1191710,1190806],"voronoi":{"lat":33.593738,"lng":130.539095,"delta_lat":[0,-4573,-1351,-4240,128931,824,-11814],"delta_lng":[0,4107,1645,9991,33974,-4594,-39158]},"impl":true},
    {"code":1191503,"left":1191115,"right":1191502,"id":"9312c3","name":"下鴨生","name_kana":"しもかもお","lat":33.614811,"lng":130.728209,"prefecture":40,"lines":[11915],"attr":"cool","postal_code":"820-0206","address":"嘉麻市鴨生","next":[1191115,1191502,1190801,1191504,1191203,1191419],"voronoi":{"lat":33.636339,"lng":130.73023,"delta_lat":[0,-45542,-25988,-48920,-18539,2223],"delta_lng":[0,-23564,4889,22500,15369,1309]},"impl":true},
    {"code":1191115,"left":1190801,"id":"734f24","name":"天道","name_kana":"てんとう","lat":33.605342,"lng":130.67787,"prefecture":40,"lines":[11911],"attr":"heat","postal_code":"820-0075","address":"飯塚市天道","next":[1190801,1191503,1190802,1191502,1191114],"voronoi":{"lat":33.638509,"lng":130.640897,"delta_lat":[0,-28702,-44998,25988,19058],"delta_lng":[0,9233,61425,-4889,-8964]},"impl":true},
    {"code":1190801,"id":"8835ce","name":"桂川(福岡)","original_name":"桂川","name_kana":"けいせん","lat":33.584705,"lng":130.662752,"prefecture":40,"lines":[11908,11911,11912],"attr":"heat","postal_code":"820-0608","address":"嘉穂郡桂川町大字豆田","next":[1191115,1191503,1191202,1190802,1191203],"voronoi":{"lat":33.54056,"lng":130.689589,"delta_lat":[0,43218,26029,-44998,-48920],"delta_lng":[0,-43697,4238,61425,22500]},"impl":true},
    {"code":1191502,"id":"9525b2","name":"上三緒","name_kana":"かみみお","lat":33.622254,"lng":130.713824,"prefecture":40,"lines":[11915],"attr":"eco","postal_code":"820-0013","address":"飯塚市大字上三緒","next":[1191113,1191503,1191115,1191504,1191112,1191114],"voronoi":{"lat":33.642414,"lng":130.714361,"delta_lat":[0,8383,-14458,-45542,19058,23009],"delta_lng":[0,19332,-3463,-23564,-8964,5907]},"impl":true},
    {"code":1191109,"left":1191111,"right":1191108,"id":"84072f","name":"勝野","name_kana":"かつの","lat":33.728338,"lng":130.715893,"prefecture":40,"lines":[11911],"attr":"heat","postal_code":"820-1102","address":"鞍手郡小竹町赤地字兵丹","next":[1191108,1191110,1191106,1190218,9990202,9990203,1191107],"voronoi":{"lat":33.742833,"lng":130.709673,"delta_lat":[0,-9665,-21334,16233,12223,2414,2649],"delta_lng":[0,11146,-2395,-90913,7771,14839,53495]},"impl":true},
    {"code":1191111,"left":1191112,"right":1191110,"id":"815623","name":"鯰田","name_kana":"なまずた","lat":33.669341,"lng":130.703163,"prefecture":40,"lines":[11911],"attr":"heat","postal_code":"820-0001","address":"飯塚市鯰田本町","next":[1191110,9990303,1191504,1190804,1191505,9990209,9990208,1191112],"voronoi":{"lat":33.685486,"lng":130.621376,"delta_lat":[0,21967,-32157,-1740,-12720,-414,-6101,-1620],"delta_lng":[0,-8560,124977,604,3365,-4,-3717,-2431]},"impl":true},
    {"code":1191112,"left":1191113,"id":"626f81","name":"浦田(福岡)","original_name":"浦田","name_kana":"うらた","lat":33.655801,"lng":130.699277,"prefecture":40,"lines":[11911],"attr":"heat","postal_code":"820-0001","address":"飯塚市鯰田","next":[1190804,1191113,1191504,1191111,1191502],"voronoi":{"lat":33.652701,"lng":130.735609,"delta_lat":[0,32785,-3202,-39870,8383],"delta_lng":[0,-114234,945,92040,19332]},"impl":true},
    {"code":1191113,"id":"c18c6d","name":"新飯塚","name_kana":"しんいいづか","lat":33.644261,"lng":130.694278,"prefecture":40,"lines":[11911,11915],"attr":"heat","postal_code":"820-0003","address":"飯塚市大字立岩","next":[1190803,1191502,1191112,1190804,1191114,1190802],"voronoi":{"lat":33.632864,"lng":130.703608,"delta_lat":[0,9550,39870,-22364,-4987,-71],"delta_lng":[0,10752,-92040,4759,3154,60]},"impl":true},
    {"code":1191110,"id":"9db4a9","name":"小竹","name_kana":"こたけ","lat":33.697227,"lng":130.710338,"prefecture":40,"lines":[11911],"attr":"heat","postal_code":"820-1103","address":"鞍手郡小竹町大字勝野","next":[1191111,9990205,9990204,1191109,9990207,1190804,9990208,1190218,9990206,9990203],"voronoi":{"lat":33.711835,"lng":130.718423,"delta_lat":[0,16233,-17700,-2914,-32157,9804,340,10315,878,13256],"delta_lng":[0,-90913,-16359,1664,124977,869,-18,-2284,-642,-13168]},"impl":true},
    {"code":1191108,"left":9990202,"right":9990921,"id":"4ede9b","name":"直方","name_kana":"のおがた","lat":33.748639,"lng":130.724339,"prefecture":40,"lines":[11911,99902],"attr":"cool","postal_code":"822-0034","address":"直方市大字山部","next":[1191109,9990920,9990202,9990921,1191107],"voronoi":{"lat":33.745353,"lng":130.703616,"delta_lat":[0,-2520,1689,1656,8284],"delta_lng":[0,6057,29685,-1911,-20543]},"impl":true},
    {"code":9990202,"left":9990203,"id":"0ed469","name":"南直方御殿口","name_kana":"みなみのおがたごてんぐち","lat":33.738729,"lng":130.724903,"prefecture":40,"lines":[99902],"attr":"eco","postal_code":"822-0016","address":"直方市大字直方１８３-２","next":[9990203,9990205,1191108,1191109,9990204,9990920],"voronoi":{"lat":33.744523,"lng":130.739358,"delta_lat":[0,-1689,-9665,-407,4522,4610],"delta_lng":[0,-29685,11146,13121,7275,4551]},"impl":true},
    {"code":9990203,"id":"78a2e7","name":"あかぢ","name_kana":"あかぢ","lat":33.727366,"lng":130.72455,"prefecture":40,"lines":[99902],"attr":"eco","postal_code":"820-1102","address":"鞍手郡小竹町大字赤地","next":[9990204,9990202,1191109,1191110],"voronoi":{"lat":33.732761,"lng":130.733939,"delta_lat":[0,407,-21334,-1945],"delta_lng":[0,-13121,-2395,4126]},"impl":true},
    {"code":9990921,"id":"8d847d","name":"筑豊直方","name_kana":"ちくほうのおがた","lat":33.753499,"lng":130.726299,"prefecture":40,"lines":[99909],"attr":"cool","postal_code":"822-0022","address":"直方市知古１-１-５","next":[9990919,1191107,9990920,1191108],"voronoi":{"lat":33.754463,"lng":130.716904,"delta_lat":[0,8147,-445,-15986],"delta_lng":[0,6706,1446,12391]},"impl":true},
    {"code":9990211,"left":9990305,"right":9990208,"id":"a1c326","name":"上金田","name_kana":"かみかなだ","lat":33.672435,"lng":130.789172,"prefecture":40,"lines":[99902],"attr":"heat","postal_code":"822-1201","address":"田川郡福智町金田","next":[9990210,9990302,9990212,9990303,9990304,1191410],"voronoi":{"lat":33.663812,"lng":130.790502,"delta_lat":[0,617,6296,9502,30411,-12658],"delta_lng":[0,-2894,-2873,229,24868,6936]},"impl":true},
    {"code":9990305,"left":9990304,"right":9990213,"id":"0676f9","name":"大藪","name_kana":"おおやぶ","lat":33.64712,"lng":130.797642,"prefecture":40,"lines":[99903],"attr":"eco","postal_code":"826-0042","address":"田川市大字川宮","next":[9990304,9990213,1191413,1191414,1191505,9990214],"voronoi":{"lat":33.639867,"lng":130.806471,"delta_lat":[0,-3490,3157,16261,-2003,-12809],"delta_lng":[0,-22676,-1763,12825,5275,6621]},"impl":true},
    {"code":9990304,"left":1191505,"right":9990303,"id":"bca796","name":"糸田","name_kana":"いとだ","lat":33.656481,"lng":130.785773,"prefecture":40,"lines":[99903],"attr":"eco","postal_code":"822-1300","address":"田川郡糸田町大字糸田","next":[9990305,1191505,9990212,9990213,9990303,9990211],"voronoi":{"lat":33.664429,"lng":130.787608,"delta_lat":[0,-11049,-13847,16261,1535,6483],"delta_lng":[0,-25353,19777,12825,-359,-3996]},"impl":true},
    {"code":1191505,"left":1191504,"id":"f06e8f","name":"船尾(福岡)","original_name":"船尾","name_kana":"ふなお","lat":33.630221,"lng":130.767387,"prefecture":40,"lines":[11915],"attr":"heat","postal_code":"826-0041","address":"田川市大字弓削田","next":[9990304,1191111,9990305,1191414,1191415,1191504,9990303],"voronoi":{"lat":33.639533,"lng":130.782033,"delta_lat":[0,-3157,-20763,-29405,68113,6101,-7042],"delta_lng":[0,1763,47,-13123,-32679,3717,20498]},"impl":true},
    {"code":1191504,"id":"1c1e7c","name":"筑前庄内","name_kana":"ちくぜんしょうない","lat":33.61635,"lng":130.738475,"prefecture":40,"lines":[11915],"attr":"cool","postal_code":"820-0106","address":"飯塚市赤坂","next":[1191111,1191415,1191112,1191503,1191419,1191502,1191505,1191416],"voronoi":{"lat":33.51023,"lng":130.75766,"delta_lat":[0,-10657,136766,14458,1904,1620,-68113,-25460],"delta_lng":[0,-6927,-20503,3463,1917,2431,32679,-1223]},"impl":true},
    {"code":9990303,"id":"3468b3","name":"松山(福岡)","original_name":"松山","name_kana":"まつやま","lat":33.668496,"lng":130.780537,"prefecture":40,"lines":[99903],"attr":"cool","postal_code":"822-1300","address":"田川郡糸田町糸田","next":[1191111,9990302,9990209,9990304,9990211,1191505],"voronoi":{"lat":33.660423,"lng":130.741757,"delta_lat":[0,414,8984,905,-6296,-11049],"delta_lng":[0,4,17925,25049,2873,-25353]},"impl":true},
    {"code":9990213,"left":1191415,"right":9990212,"id":"ef77ff","name":"田川市立病院","name_kana":"たがわしりつびょういん","lat":33.660436,"lng":130.802697,"prefecture":40,"lines":[99902],"attr":"cool","postal_code":"825-0005","address":"田川市大字糒１７２２-３","next":[1191412,9990305,9990304,9990214,9990212],"voronoi":{"lat":33.657329,"lng":130.794499,"delta_lat":[0,-1535,-2003,10123,15961],"delta_lng":[0,359,5275,19854,2106]},"impl":true},
    {"code":1191415,"left":1191414,"id":"1a0e93","name":"池尻","name_kana":"いけじり","lat":33.613121,"lng":130.805704,"prefecture":40,"lines":[11914],"attr":"eco","postal_code":"826-0002","address":"田川郡川崎町大字池尻","next":[1191413,1191504,1191414,1191416,1191505],"voronoi":{"lat":33.625834,"lng":130.815919,"delta_lat":[0,-5526,-59560,25460,29405],"delta_lng":[0,13336,-59758,1223,13123]},"impl":true},
    {"code":1191414,"id":"525435","name":"田川後藤寺","name_kana":"たがわごとうじ","lat":33.630294,"lng":130.800232,"prefecture":40,"lines":[11914,11915,99903],"attr":"eco","postal_code":"826-0043","address":"田川市奈良","next":[1191415,1191413,9990305,1191505],"voronoi":{"lat":33.625834,"lng":130.815919,"delta_lat":[0,14032,-3490,-20763],"delta_lng":[0,-9447,-22676,47]},"impl":true},
    {"code":9990212,"id":"9e2446","name":"糒","name_kana":"ほしい","lat":33.664744,"lng":130.799177,"prefecture":40,"lines":[99902],"attr":"heat","postal_code":"825-0005","address":"田川市大字糒","next":[9990304,9990211,1191410,9990213,1191412,1191411],"voronoi":{"lat":33.690866,"lng":130.822403,"delta_lat":[0,7115,-34168,-6483,22546,2279],"delta_lng":[0,-5634,-26266,3996,27594,540]},"impl":true},
    {"code":9990208,"left":9990205,"right":9990210,"id":"ccc924","name":"赤池(福岡)","original_name":"赤池","name_kana":"あかいけ","lat":33.69206,"lng":130.768675,"prefecture":40,"lines":[99902],"attr":"eco","postal_code":"822-1101","address":"田川郡福智町赤池","next":[9990207,1191111,9990209,1191110,9990210],"voronoi":{"lat":33.696671,"lng":130.783522,"delta_lat":[0,-23114,1740,9804,22153],"delta_lng":[0,-45125,-604,869,57392]},"impl":true},
    {"code":9990205,"left":9990207,"right":9990204,"id":"281a32","name":"中泉","name_kana":"なかいずみ","lat":33.720992,"lng":130.742871,"prefecture":40,"lines":[99902],"attr":"eco","postal_code":"822-0011","address":"直方市大字中泉","next":[1191110,9990204,9990202,9990920,9990206],"voronoi":{"lat":33.741894,"lng":130.745766,"delta_lat":[0,-4610,-40650,-878,54790],"delta_lng":[0,-4551,-5497,642,43008]},"impl":true},
    {"code":9990207,"left":9990206,"id":"521635","name":"ふれあい生力","name_kana":"ふれあいしょうりき","lat":33.700112,"lng":130.765567,"prefecture":40,"lines":[99902],"attr":"eco","postal_code":"822-1101","address":"田川郡福智町赤池","next":[1191410,1191110,9990206,9990210,9990208],"voronoi":{"lat":33.685101,"lng":130.738661,"delta_lat":[0,340,53118,-23505,-7800],"delta_lng":[0,-18,67788,1980,-12358]},"impl":true},
    {"code":9990206,"id":"64decc","name":"市場(福岡)","original_name":"市場","name_kana":"いちば","lat":33.708074,"lng":130.759328,"prefecture":40,"lines":[99902],"attr":"eco","postal_code":"822-1103","address":"田川郡福智町市場","next":[9990207,1191410,9990205,9990920,1191409,1191110],"voronoi":{"lat":33.738559,"lng":130.806431,"delta_lat":[0,1956,19423,-9392,-54790,-10315],"delta_lng":[0,12,-8885,-18191,-43008,2284]},"impl":true},
    {"code":9990204,"id":"48351d","name":"藤棚","name_kana":"ふじたな","lat":33.722017,"lng":130.735291,"prefecture":40,"lines":[99902],"attr":"eco","postal_code":"822-0007","address":"直方市大字下境","next":[1191110,9990203,9990205,9990202],"voronoi":{"lat":33.732761,"lng":130.733939,"delta_lat":[0,-22872,-13256,40650],"delta_lng":[0,-11390,13168,5497]},"impl":true},
    {"code":9990210,"left":9990302,"right":9990209,"id":"943449","name":"金田","name_kana":"かなだ","lat":33.682805,"lng":130.776491,"prefecture":40,"lines":[99902,99903],"attr":"heat","postal_code":"822-1201","address":"田川郡福智町金田","next":[9990211,9990207,1191410,9990302,9990209,9990208],"voronoi":{"lat":33.696671,"lng":130.783522,"delta_lat":[0,-25038,8595,30411,4415,-7800],"delta_lng":[0,-20970,22413,24868,-1421,-12358]},"impl":true},
    {"code":9990302,"id":"ae54d1","name":"豊前大熊","name_kana":"ぶぜんおおくま","lat":33.672646,"lng":130.780387,"prefecture":40,"lines":[99903],"attr":"cool","postal_code":"822-1300","address":"田川郡糸田町大字糸田","next":[9990209,9990211,9990303,9990210],"voronoi":{"lat":33.670725,"lng":130.784736,"delta_lat":[0,-905,1812,8595],"delta_lng":[0,-25049,2865,22413]},"impl":true},
    {"code":9990209,"id":"020b62","name":"人見","name_kana":"ひとみ","lat":33.687316,"lng":130.771105,"prefecture":40,"lines":[99902],"attr":"heat","postal_code":"822-1201","address":"田川郡福智町金田","next":[9990302,9990303,1191111,9990208,9990210],"voronoi":{"lat":33.673556,"lng":130.738397,"delta_lat":[0,-12720,8984,1812,25038],"delta_lng":[0,3365,17925,2865,20970]},"impl":true},
    {"code":9990918,"left":9990913,"right":9990903,"id":"670ec3","name":"木屋瀬","name_kana":"こやのせ","lat":33.778483,"lng":130.724957,"prefecture":40,"lines":[99909],"attr":"cool","postal_code":"807-1261","address":"北九州市八幡西区木屋瀬５-２１０-１","next":[9990917,1191106,9990919,1191107],"voronoi":{"lat":33.772956,"lng":130.716829,"delta_lat":[0,7232,2481,-13063],"delta_lng":[0,-557,26651,-21449]},"impl":true},
    {"code":9990913,"left":1191106,"right":1191102,"id":"911c4b","name":"筑豊中間","name_kana":"ちくほうなかま","lat":33.816647,"lng":130.716562,"prefecture":40,"lines":[99909],"attr":"heat","postal_code":"809-0034","address":"中間市大字中間字小松ケ浦３３７２-３","next":[9990912,9990915,9990914,1191103,1191104],"voronoi":{"lat":33.823756,"lng":130.715094,"delta_lat":[0,-14559,-710,7244,4656],"delta_lng":[0,10325,-4797,-11423,566]},"impl":true},
    {"code":1191106,"left":1190218,"right":9990915,"id":"ed2f8b","name":"筑前植木","name_kana":"ちくぜんうえき","lat":33.777174,"lng":130.70795,"prefecture":40,"lines":[11911],"attr":"cool","postal_code":"822-0031","address":"直方市植木字平牟田","next":[1191107,1190218,1191109,9990916,9990918,9990915,1191105,9990917],"voronoi":{"lat":33.786418,"lng":130.713902,"delta_lat":[0,2722,939,-28792,-20997,2414,30252,7232],"delta_lng":[0,-1985,-1881,-69216,-5538,14839,66708,-557]},"impl":true},
    {"code":1190218,"left":1191105,"right":1190219,"id":"5a4dbb","name":"教育大前","name_kana":"きょういくだいまえ","lat":33.808215,"lng":130.590256,"prefecture":40,"lines":[11902],"attr":"cool","postal_code":"811-4145","address":"宗像市陵厳寺","next":[1190804,1191106,1190221,1191105,1190805,1191109,1190219,1191110,1190217],"voronoi":{"lat":33.851634,"lng":130.579912,"delta_lat":[0,-127999,-10306,-824,-2138,17700,12223,20997,25444],"delta_lng":[0,-136,4441,4594,22340,16359,7771,5538,2451]},"impl":true},
    {"code":1191105,"left":1190220,"id":"80c26b","name":"鞍手","name_kana":"くらて","lat":33.797699,"lng":130.699412,"prefecture":40,"lines":[11911],"attr":"eco","postal_code":"807-1311","address":"鞍手郡鞍手町小牧","next":[9990914,1191104,9990915,1190218,1190216,1191106,1190217],"voronoi":{"lat":33.812547,"lng":130.668226,"delta_lat":[0,-4539,-8952,-8976,-28792,25444,17882],"delta_lng":[0,32862,8126,822,-69216,2451,9967]},"impl":true},
    {"code":1190220,"id":"310ce2","name":"東郷","name_kana":"とうごう","lat":33.794488,"lng":130.528822,"prefecture":40,"lines":[11902],"attr":"cool","postal_code":"811-3431","address":"宗像市田熊","next":[1190222,1190217,1190219,1190221,1170223,1170224],"voronoi":{"lat":34.512069,"lng":130.118216,"delta_lat":[0,229796,-918456,-82153,294718,330262],"delta_lng":[0,-313187,669961,94486,-99669,-160352]},"impl":true},
    {"code":1190219,"id":"e5e381","name":"赤間","name_kana":"あかま","lat":33.808237,"lng":130.569477,"prefecture":40,"lines":[11902],"attr":"cool","postal_code":"811-4183","address":"宗像市大字土穴","next":[1190217,1190221,1190218,1190220],"voronoi":{"lat":34.035973,"lng":130.469807,"delta_lat":[0,-184339,-127999,17620],"delta_lng":[0,110105,-136,-10300]},"impl":true},
    {"code":9990915,"left":9990916,"right":9990914,"id":"ffac77","name":"筑豊香月","name_kana":"ちくほうかつき","lat":33.799502,"lng":130.719099,"prefecture":40,"lines":[99909],"attr":"heat","postal_code":"807-1152","address":"北九州市八幡西区高江２-２４９１-２","next":[9990916,1191105,9990912,9990914,9990911,1191106,9990913],"voronoi":{"lat":33.808487,"lng":130.720622,"delta_lat":[0,-9432,-8976,-939,15819,3642,596],"delta_lng":[0,-11408,822,1881,29872,-10859,-5511]},"impl":true},
    {"code":9990916,"left":9990917,"id":"e8c514","name":"楠橋","name_kana":"くすばし","lat":33.789259,"lng":130.724523,"prefecture":40,"lines":[99909],"attr":"heat","postal_code":"807-1146","address":"北九州市八幡西区楠橋下方３-１９８５-３","next":[9990915,1191106,9990919,9990917,9990911,9990909,9990910],"voronoi":{"lat":33.797597,"lng":130.787535,"delta_lat":[0,-11371,193,2722,15819,-1077,-4961],"delta_lng":[0,-36450,-37183,-1985,29872,14795,25688]},"impl":true},
    {"code":9990917,"id":"c7fa11","name":"新木屋瀬","name_kana":"しんこやのせ","lat":33.783468,"lng":130.724493,"prefecture":40,"lines":[99909],"attr":"heat","postal_code":"807-1261","address":"北九州市八幡西区木屋瀬１-４６６-３","next":[9990918,9990919,9990916,1191106],"voronoi":{"lat":33.782669,"lng":130.742922,"delta_lat":[0,3556,193,-6230],"delta_lng":[0,8162,-37183,2370]},"impl":true},
    {"code":9990914,"id":"ebbef6","name":"希望が丘高校前","name_kana":"きぼうがおかこうこうまえ","lat":33.808681,"lng":130.71151,"prefecture":40,"lines":[99909],"attr":"heat","postal_code":"809-0033","address":"福岡県中間市土手ノ内二丁目","next":[1191105,9990915,9990913,1191104],"voronoi":{"lat":33.808008,"lng":130.701088,"delta_lat":[0,-8952,9432,7244],"delta_lng":[0,8126,11408,-11423]},"impl":true},
    {"code":1191102,"left":1190216,"right":1190214,"id":"0e0d98","name":"東水巻","name_kana":"ひがしみずまき","lat":33.840852,"lng":130.70826,"prefecture":40,"lines":[11911],"attr":"eco","postal_code":"807-0042","address":"遠賀郡水巻町吉田","next":[9990910,9990909,9990907,1191104,1190214,1190215,9990908,1191103],"voronoi":{"lat":33.840022,"lng":130.722605,"delta_lat":[0,3747,1903,3948,3432,-19502,-423,2319],"delta_lng":[0,822,126,-555,-16120,-16354,1586,28312]},"impl":true},
    {"code":1190216,"left":1191104,"right":1190215,"id":"1a2171","name":"遠賀川","name_kana":"おんががわ","lat":33.846684,"lng":130.673485,"prefecture":40,"lines":[11902],"attr":"cool","postal_code":"811-4303","address":"遠賀郡遠賀町今古賀","next":[1191104,1190215,1190217,1191105,1191005],"voronoi":{"lat":33.977268,"lng":130.631196,"delta_lat":[0,-172655,7933,20525,83084],"delta_lng":[0,22041,14988,20180,-22022]},"impl":true},
    {"code":1191104,"left":1190217,"id":"3f6588","name":"筑前垣生","name_kana":"ちくぜんはぶ","lat":33.818385,"lng":130.702269,"prefecture":40,"lines":[11911],"attr":"eco","postal_code":"809-0001","address":"中間市大字垣生","next":[1191105,1190216,1191102,1190215,9990914,1191103,9990913],"voronoi":{"lat":33.833126,"lng":130.69211,"delta_lat":[0,423,-478,-20525,-4539,7724,4656],"delta_lng":[0,-1586,-2118,-20180,32862,8111,566]},"impl":true},
    {"code":1190217,"id":"e15832","name":"海老津","name_kana":"えびつ","lat":33.840248,"lng":130.62307,"prefecture":40,"lines":[11902],"attr":"cool","postal_code":"811-4231","address":"遠賀郡岡垣町大字海老津","next":[1190219,1191005,1170226,1190216,1170224,1190220,1170232,1191105,1190218],"voronoi":{"lat":33.804613,"lng":130.653237,"delta_lat":[0,172655,209841,25494,106597,47035,-330262,-184339,-64903],"delta_lng":[0,-22041,-73333,-24026,-150326,-74056,160352,110105,63358]},"impl":true},
    {"code":1190215,"id":"c7c7cf","name":"水巻","name_kana":"みずまき","lat":33.852287,"lng":130.694624,"prefecture":40,"lines":[11902],"attr":"cool","postal_code":"807-0021","address":"遠賀郡水巻町大字頃末","next":[1190216,1190214,1191104,1191102,1191005],"voronoi":{"lat":33.916155,"lng":130.666383,"delta_lat":[0,-83084,478,19502,53979],"delta_lng":[0,22022,2118,16354,-33121]},"impl":true},
    {"code":1190214,"left":9990912,"right":1191005,"id":"dddb7e","name":"折尾","name_kana":"おりお","lat":33.863629,"lng":130.713109,"prefecture":40,"lines":[11902,11910,11911],"attr":"cool","postal_code":"807-0861","address":"北九州市八幡西区堀川町","next":[9990907,1191005,1190215,1191102,9990906],"voronoi":{"lat":33.90703,"lng":130.673757,"delta_lat":[0,-53979,-3432,2663,8700],"delta_lng":[0,33121,16120,1849,3029]},"impl":true},
    {"code":9990912,"left":1191103,"id":"ce0378","name":"東中間","name_kana":"ひがしなかま","lat":33.820019,"lng":130.721317,"prefecture":40,"lines":[99909],"attr":"heat","postal_code":"809-0034","address":"中間市大字中間字外扇２６０９-１","next":[9990911,9990915,9990913,1191103],"voronoi":{"lat":33.808601,"lng":130.730929,"delta_lat":[0,596,14559,6555],"delta_lng":[0,-5511,-10325,4427]},"impl":true},
    {"code":1191103,"id":"2d292f","name":"中間","name_kana":"なかま","lat":33.828132,"lng":130.709302,"prefecture":40,"lines":[11911],"attr":"eco","postal_code":"809-0034","address":"中間市大字中間","next":[9990911,9990913,1191104,9990910,1191102,9990912],"voronoi":{"lat":33.833734,"lng":130.720515,"delta_lat":[0,1712,-2319,-12739,3369,6555],"delta_lng":[0,-94,-28312,17655,5329,4427]},"impl":true},
    {"code":1191005,"id":"79295c","name":"本城","name_kana":"ほんじょう","lat":33.875135,"lng":130.722899,"prefecture":40,"lines":[11910],"attr":"eco","postal_code":"807-0802","address":"北九州市八幡西区力丸町２５番１４号","next":[1170232,1190217,1190214,9990906,1190213,1190216,1190215,1191004],"voronoi":{"lat":33.862407,"lng":130.729539,"delta_lat":[0,-1425,46048,9125,61113,209841,-5676,-299961],"delta_lng":[0,-1664,-54119,-7373,-35187,-73333,7244,171084]},"impl":true},
    {"code":9990903,"left":9990908,"right":9990901,"id":"e9b9b5","name":"熊西","name_kana":"くまにし","lat":33.866101,"lng":130.757902,"prefecture":40,"lines":[99909],"attr":"eco","postal_code":"806-0031","address":"北九州市八幡西区熊西１-２８-１","next":[9990902,1191003,1190213,9990904,1191004],"voronoi":{"lat":33.878385,"lng":130.758939,"delta_lat":[0,-27130,17710,8343,1867],"delta_lng":[0,1605,-10013,1171,4640]},"impl":true},
    {"code":9990908,"left":9990910,"right":9990905,"id":"d93317","name":"永犬丸","name_kana":"えいのまる","lat":33.838865,"lng":130.738071,"prefecture":40,"lines":[99909],"attr":"heat","postal_code":"807-0846","address":"北九州市八幡西区里中２-１-１","next":[1190211,9990907,9990909,9990901,1191102],"voronoi":{"lat":33.834741,"lng":130.769799,"delta_lat":[0,-14370,-10508,33905,1903],"delta_lng":[0,14468,5526,-66366,126]},"impl":true},
    {"code":9990910,"left":9990919,"right":9990909,"id":"10b404","name":"西山(福岡)","original_name":"西山","name_kana":"にしやま","lat":33.829393,"lng":130.732274,"prefecture":40,"lines":[99909],"attr":"heat","postal_code":"807-0844","address":"北九州市八幡西区春日台５-７９２-２","next":[1191102,9990909,9990911,9990916,1191103],"voronoi":{"lat":33.835446,"lng":130.720421,"delta_lat":[0,4576,-41100,4961,29851],"delta_lng":[0,2183,59667,-25688,-36068]},"impl":true},
    {"code":9990919,"left":9990911,"id":"b8b2d2","name":"遠賀野","name_kana":"おんがの","lat":33.768628,"lng":130.730959,"prefecture":40,"lines":[99909],"attr":"cool","postal_code":"822-0001","address":"直方市大字感田字若柳２２１１-２","next":[1191408,9990921,9990917,9990916,9990909,9990918,1191107,1191409,9990920],"voronoi":{"lat":33.762164,"lng":130.725056,"delta_lat":[0,445,6997,13063,3556,11371,-645,-17856,-744],"delta_lng":[0,-1446,-2136,21449,8162,36450,8493,2159,-77]},"impl":true},
    {"code":9990911,"id":"fb1898","name":"通谷","name_kana":"とおりたに","lat":33.822994,"lng":130.726978,"prefecture":40,"lines":[99909],"attr":"heat","postal_code":"809-0015","address":"中間市太賀１-２-１","next":[9990912,1191103,9990910,9990916,9990915],"voronoi":{"lat":33.803883,"lng":130.756583,"delta_lat":[0,29851,-3422,-21710,-3642],"delta_lng":[0,-36068,-995,11409,10859]},"impl":true},
    {"code":9990909,"id":"b5c727","name":"三ヶ森","name_kana":"さんがもり","lat":33.834776,"lng":130.735982,"prefecture":40,"lines":[99909],"attr":"heat","postal_code":"807-0843","address":"福岡県北九州市八幡西区三ヶ森一丁目","next":[1191102,1190211,9990910,1191408,9990919,9990916,9990908],"voronoi":{"lat":33.79821,"lng":130.796509,"delta_lat":[0,-1258,645,1325,41100,3747,-33905],"delta_lng":[0,-482,-8493,-5263,-59667,822,66366]},"impl":true},
    {"code":9990905,"left":9990906,"right":9990904,"id":"6539ea","name":"穴生","name_kana":"あのお","lat":33.857352,"lng":130.744942,"prefecture":40,"lines":[99909],"attr":"eco","postal_code":"806-0049","address":"北九州市八幡西区穴生１-８１","next":[9990906,9990907,1190213,9990904],"voronoi":{"lat":33.862812,"lng":130.743869,"delta_lat":[0,-1294,-13634,-5403],"delta_lng":[0,-6164,12278,12191]},"impl":true},
    {"code":9990906,"left":9990907,"id":"2956fb","name":"森下(福岡)","original_name":"森下","name_kana":"もりした","lat":33.853885,"lng":130.741092,"prefecture":40,"lines":[99909],"attr":"eco","postal_code":"806-0046","address":"北九州市八幡西区森下町１３","next":[9990905,1191005,1190213,9990907,1190214],"voronoi":{"lat":33.862407,"lng":130.729539,"delta_lat":[0,-890,-13634,4399,8700],"delta_lng":[0,8165,12278,-25136,3029]},"impl":true},
    {"code":9990907,"id":"620e1a","name":"今池(福岡)","original_name":"今池","name_kana":"いまいけ","lat":33.845258,"lng":130.739582,"prefecture":40,"lines":[99909],"attr":"eco","postal_code":"807-0846","address":"北九州市八幡西区里中２-１４６８-１３","next":[9990904,9990905,1190214,1191102,9990901,9990906,9990908],"voronoi":{"lat":33.845671,"lng":130.723553,"delta_lat":[0,3948,2663,-4399,-5403,-1539,-6200],"delta_lng":[0,-555,1849,25136,12191,2549,5076]},"impl":true},
    {"code":9990904,"id":"2b3079","name":"萩原(福岡)","original_name":"萩原","name_kana":"はぎわら","lat":33.861173,"lng":130.749186,"prefecture":40,"lines":[99909],"attr":"eco","postal_code":"806-0059","address":"北九州市八幡西区萩原１-１０-５","next":[9990907,9990902,1190213,9990903,9990901,9990905],"voronoi":{"lat":33.840942,"lng":130.764723,"delta_lat":[0,1580,8734,17710,-6154,-20331],"delta_lng":[0,-511,-3667,-10013,-6663,18305]},"impl":true},
    {"code":9990901,"left":1191003,"right":1190211,"id":"2f8a66","name":"黒崎駅前","name_kana":"くろさきえきまえ","lat":33.86644,"lng":130.765459,"prefecture":40,"lines":[99909],"attr":"eco","postal_code":"806-0021","address":"北九州市八幡西区黒崎３-５７-３","next":[1190211,1190212,9990902,9990907,9990904,9990908],"voronoi":{"lat":33.834741,"lng":130.769799,"delta_lat":[0,6200,1580,29337,-40977,-10510],"delta_lng":[0,-5076,-511,-951,20132,874]},"impl":true},
    {"code":1191003,"left":9990902,"right":1191004,"id":"9077f3","name":"奥洞海","name_kana":"おくどうかい","lat":33.889165,"lng":130.76492,"prefecture":40,"lines":[11910],"attr":"heat","postal_code":"808-0075","address":"北九州市若松区赤岩町９-１","next":[9990903,1191002,1190212,1191004,9990902],"voronoi":{"lat":33.878619,"lng":130.776572,"delta_lat":[0,71421,-70865,-790,-568],"delta_lng":[0,-17988,-2241,2597,3701]},"impl":true},
    {"code":9990902,"left":1190213,"id":"91e2c0","name":"西黒崎","name_kana":"にしくろさき","lat":33.866309,"lng":130.761418,"prefecture":40,"lines":[99909],"attr":"eco","postal_code":"806-0021","address":"北九州市八幡西区黒崎３-１４６","next":[9990903,1190212,9990901,9990904,1191003],"voronoi":{"lat":33.878385,"lng":130.758939,"delta_lat":[0,-27130,-8734,29337,5959],"delta_lng":[0,1605,3667,-951,-620]},"impl":true},
    {"code":1190213,"id":"f7336e","name":"陣原","name_kana":"じんのはる","lat":33.868242,"lng":130.742656,"prefecture":40,"lines":[11902],"attr":"cool","postal_code":"807-0821","address":"北九州市八幡西区陣原１丁目２番１号","next":[1191004,9990903,9990906,1191005,9990904,9990905],"voronoi":{"lat":33.861518,"lng":130.737705,"delta_lat":[0,890,19065,-4164,-8343,-6154],"delta_lng":[0,-8165,6652,15511,-1171,-6663]},"impl":true},
    {"code":1191004,"id":"4019cd","name":"二島","name_kana":"ふたじま","lat":33.889687,"lng":130.748413,"prefecture":40,"lines":[11910],"attr":"cool","postal_code":"808-0103","address":"北九州市若松区大字二島","next":[1191002,1170232,1190213,1191001,1191003,1170233,9990903,1191005],"voronoi":{"lat":34.181433,"lng":130.565108,"delta_lat":[0,-115610,-17865,-6307,-91611,-70865,-1867,4164],"delta_lng":[0,161250,20726,1252,10248,-2241,-4640,-15511]},"impl":true},
    {"code":1190211,"left":1190212,"right":1191002,"id":"2f408f","name":"八幡(福岡)","original_name":"八幡","name_kana":"やはた","lat":33.868913,"lng":130.795209,"prefecture":40,"lines":[11902],"attr":"cool","postal_code":"805-0061","address":"北九州市八幡東区西本町３丁目","next":[9990901,1190212,9990909,1191002,9990908,1190210,1191408,9990811],"voronoi":{"lat":33.885972,"lng":130.797329,"delta_lat":[0,-9411,-45680,-10510,-10508,-11654,2929,17914],"delta_lng":[0,-17253,3317,874,5526,6717,3474,11554]},"impl":true},
    {"code":1190212,"id":"1329b5","name":"黒崎","name_kana":"くろさき","lat":33.866807,"lng":130.766206,"prefecture":40,"lines":[11902],"attr":"cool","postal_code":"806-0021","address":"北九州市八幡西区黒崎３丁目","next":[1190211,9990902,9990901,1191003,1191002],"voronoi":{"lat":33.830881,"lng":130.783393,"delta_lat":[0,40977,5959,802,-2058],"delta_lng":[0,-20132,-620,13931,3504]},"impl":true},
    {"code":1191002,"id":"99a16b","name":"藤ノ木","name_kana":"ふじのき","lat":33.893426,"lng":130.781838,"prefecture":40,"lines":[11910],"attr":"heat","postal_code":"808-0073","address":"北九州市若松区赤島町","next":[1191004,1191001,1190209,1190211,1191003,1190210,1190212],"voronoi":{"lat":33.885972,"lng":130.797329,"delta_lat":[0,129,230,155320,-91611,-71421,-2058],"delta_lng":[0,118,102,-49213,10248,17988,3504]},"impl":true}
  ]
}