{
  "name":"segment38",
  "root":1140126,
  "east":139.201816,
  "west":137.400288,
  "south":36.254923,
  "north":36.642513,
  "station_size":155,
  "node_list":[
    {"code":1140126,"left":1140916,"right":1134106,"id":"13638a","name":"中佐都","name_kana":"なかさと","lat":36.280856,"lng":138.453549,"prefecture":20,"lines":[11401],"attr":"cool","postal_code":"385-0021","address":"佐久市大字長土呂","next":[1140127,1140122,100904,9940307,1140130,1140123],"voronoi":{"lat":36.249973,"lng":138.445002,"delta_lat":[0,-61646,67805,12620,20704,-32441],"delta_lng":[0,-121085,46504,21343,69917,-8778]},"impl":true},
    {"code":1140916,"left":9940312,"right":9940317,"id":"a3581d","name":"信濃松川","name_kana":"しなのまつかわ","lat":36.424456,"lng":137.858631,"prefecture":20,"lines":[11409],"attr":"eco","postal_code":"399-8501","address":"北安曇郡松川村赤芝","next":[9940914,1141209,1140915,1140918,1140917],"voronoi":{"lat":36.432787,"lng":137.936986,"delta_lat":[0,-77763,24394,39308,30525],"delta_lng":[0,-342223,9371,147012,185190]},"impl":true},
    {"code":9940312,"left":9940414,"right":9940408,"id":"aed65d","name":"西上田","name_kana":"にしうえだ","lat":36.417318,"lng":138.20855,"prefecture":20,"lines":[99403],"attr":"eco","postal_code":"386-0043","address":"上田市下塩尻屋敷３４１番地","next":[9940406,9940414,9940313,9940405,9940314,9940404,9940413,9940403,100905],"voronoi":{"lat":36.471255,"lng":138.246753,"delta_lat":[0,-69550,-2804,-5029,4769,8641,5962,4091,67108],"delta_lng":[0,-79531,5046,11304,20470,17987,8307,3875,34155]},"impl":true},
    {"code":9940414,"left":1140908,"right":1141208,"id":"6bd0e1","name":"八木沢","name_kana":"やぎさわ","lat":36.358365,"lng":138.175786,"prefecture":20,"lines":[99404],"attr":"eco","postal_code":"386-1327","address":"上田市大字八木沢字表田中４３９-２","next":[9940312,9940415,9940413,9940313],"voronoi":{"lat":36.398902,"lng":138.172267,"delta_lat":[0,-98082,103410,-2524],"delta_lng":[0,17365,-39120,16709]},"impl":true},
    {"code":1140908,"left":1140910,"right":9940415,"id":"c3a516","name":"南豊科","name_kana":"みなみとよしな","lat":36.291124,"lng":137.903457,"prefecture":20,"lines":[11409],"attr":"heat","postal_code":"399-8205","address":"安曇野市豊科","next":[1140909,1141206,1140907],"voronoi":{"lat":36.28255,"lng":137.85737,"delta_lat":[0,18435,-18840],"delta_lng":[0,63583,5245]},"impl":true},
    {"code":1140910,"left":1140907,"right":1140911,"id":"8de090","name":"柏矢町","name_kana":"はくやちょう","lat":36.322529,"lng":137.888349,"prefecture":20,"lines":[11409],"attr":"eco","postal_code":"399-8304","address":"安曇野市穂高柏原","next":[9940714,1140907,9940713,1140909,1141207,1140911],"voronoi":{"lat":36.291445,"lng":137.784725,"delta_lat":[0,-9908,-6348,5764,43962,14854],"delta_lng":[0,19733,16811,18861,79086,-11214]},"impl":true},
    {"code":1140907,"left":1140909,"id":"9da10f","name":"中萱","name_kana":"なかがや","lat":36.273434,"lng":137.903353,"prefecture":20,"lines":[11409],"attr":"heat","postal_code":"399-8101","address":"安曇野市三郷明盛","next":[1140910,1140906,1140909,1140905,1141206,9940712,1140908,9940713],"voronoi":{"lat":36.275188,"lng":137.821269,"delta_lat":[0,5764,1597,-405,-7183,-7547,-4537,9167],"delta_lng":[0,18861,17240,68828,5367,-11969,-80161,-14271]},"impl":true},
    {"code":1140909,"id":"0652cc","name":"豊科","name_kana":"とよしな","lat":36.299957,"lng":137.900896,"prefecture":20,"lines":[11409],"attr":"eco","postal_code":"399-8205","address":"安曇野市豊科","next":[1140907,1141206,1140910,1140908,1141207],"voronoi":{"lat":36.324914,"lng":137.919217,"delta_lat":[0,-43962,1597,18435,23507],"delta_lng":[0,-79086,17240,63583,-952]},"impl":true},
    {"code":1140911,"id":"62e3e1","name":"穂高","name_kana":"ほたか","lat":36.33906,"lng":137.881869,"prefecture":20,"lines":[11409],"attr":"eco","postal_code":"399-8303","address":"安曇野市穂高","next":[1140913,1141207,1140912,9940714,1140910],"voronoi":{"lat":36.291445,"lng":137.784725,"delta_lat":[0,22548,24439,15188,-13851],"delta_lng":[0,-55935,87593,87332,4287]},"impl":true},
    {"code":9940415,"left":1141206,"right":1141207,"id":"08f02e","name":"別所温泉","name_kana":"べっしょおんせん","lat":36.353121,"lng":138.161924,"prefecture":20,"lines":[99404],"attr":"eco","postal_code":"386-1431","address":"上田市大字別所温泉１８５３-３","next":[9940411,1131145,9940414,1131146,1141211,1140901,1140902,9940413,1141208,1141204,9940313,9940412],"voronoi":{"lat":36.188421,"lng":138.216038,"delta_lat":[0,1472,24832,36468,36707,7263,84080,31772,-6785,-103410,-20393,-19440],"delta_lng":[0,-9889,-90711,-27040,-22813,-4198,26555,39991,22580,39120,6325,4647]},"impl":true},
    {"code":1141206,"left":1140906,"id":"02fdea","name":"田沢","name_kana":"たざわ","lat":36.301583,"lng":137.941029,"prefecture":20,"lines":[11412],"attr":"eco","postal_code":"399-8203","address":"安曇野市豊科田沢","next":[1140905,1140903,1141208,1140904,1140909,1140907,1140908,1141207,1140902],"voronoi":{"lat":36.33975,"lng":137.992232,"delta_lat":[0,-15259,-23507,-18840,-7183,-321,-777,2599,22839],"delta_lng":[0,-72230,952,5245,5367,718,4538,37451,73954]},"impl":true},
    {"code":1140906,"id":"2b2820","name":"一日市場","name_kana":"ひといちば","lat":36.2596,"lng":137.904136,"prefecture":20,"lines":[11409],"attr":"heat","postal_code":"399-8101","address":"安曇野市三郷明盛","next":[1140905,9940710,1140907,9940711,9940708,9940709,9940712],"voronoi":{"lat":36.244539,"lng":137.868662,"delta_lat":[0,-1052,-5799,193,29534,-4537,-2743],"delta_lng":[0,2374,21393,7102,20066,-80161,3405]},"impl":true},
    {"code":1141207,"id":"b8549c","name":"明科","name_kana":"あかしな","lat":36.353948,"lng":137.929967,"prefecture":20,"lines":[11412],"attr":"cool","postal_code":"399-7102","address":"安曇野市明科中川手","next":[1140912,1141209,1140914,1141208,1140910,1140911,1141206,1140913,1140915,1140909],"voronoi":{"lat":36.324914,"lng":137.919217,"delta_lat":[0,14854,13851,26803,15813,26525,9583,-9169,-83424,-15259],"delta_lng":[0,-11214,-4287,3109,4931,17820,7481,8199,46976,-72230]},"impl":true},
    {"code":1141208,"left":1140914,"right":9940411,"id":"e820df","name":"西条(長野)","original_name":"西条","name_kana":"にしじょう","lat":36.400353,"lng":138.012377,"prefecture":20,"lines":[11412],"attr":"cool","postal_code":"399-7501","address":"東筑摩郡筑北村西条","next":[1141206,1140902,1141209,1141207,1141210,9940415,1141211],"voronoi":{"lat":36.403911,"lng":138.066958,"delta_lat":[0,6897,12366,-83424,-40449,-4139,84080],"delta_lng":[0,-10713,-110989,46976,55995,13160,26555]},"impl":true},
    {"code":1140914,"left":1140912,"right":1140915,"id":"69ea49","name":"細野","name_kana":"ほその","lat":36.397107,"lng":137.865722,"prefecture":20,"lines":[11409],"attr":"eco","postal_code":"399-8501","address":"北安曇郡松川村細野","next":[1140915,9940714,1141207,1140913],"voronoi":{"lat":36.329858,"lng":137.672216,"delta_lat":[0,4080,88822,-26525],"delta_lng":[0,-19214,276573,-17820]},"impl":true},
    {"code":1140912,"left":1140913,"id":"654858","name":"有明(長野)","original_name":"有明","name_kana":"ありあけ","lat":36.359949,"lng":137.878236,"prefecture":20,"lines":[11409],"attr":"eco","postal_code":"399-8302","address":"安曇野市穂高北穂高","next":[1141207,1140911,1140913],"voronoi":{"lat":36.338431,"lng":137.816384,"delta_lat":[0,15188,26803],"delta_lng":[0,87332,3109]},"impl":true},
    {"code":1140913,"id":"69cc08","name":"安曇追分","name_kana":"あずみおいわけ","lat":36.371795,"lng":137.872736,"prefecture":20,"lines":[11409],"attr":"eco","postal_code":"399-8302","address":"安曇野市穂高北穂高","next":[1140911,9940714,1140914,1141207,1140912],"voronoi":{"lat":36.396235,"lng":137.911756,"delta_lat":[0,-66377,-15866,24439,41991],"delta_lng":[0,-239539,56574,87593,90441]},"impl":true},
    {"code":1140915,"id":"373994","name":"北細野","name_kana":"きたほその","lat":36.406439,"lng":137.862725,"prefecture":20,"lines":[11409],"attr":"eco","postal_code":"399-8501","address":"北安曇郡松川村細野","next":[1141209,9940714,1140914,9940914,1141207,1140916],"voronoi":{"lat":36.432344,"lng":137.937056,"delta_lat":[0,-9583,-88822,11777,9308,77763],"delta_lng":[0,-7481,-276573,-62182,3942,342223]},"impl":true},
    {"code":9940411,"left":9940412,"right":9940410,"id":"83794b","name":"塩田町","name_kana":"しおだまち","lat":36.360888,"lng":138.198445,"prefecture":20,"lines":[99404],"attr":"eco","postal_code":"386-1325","address":"上田市大字中野字兼田４０-２","next":[9940415,9940410,1131145,9940409,9940412],"voronoi":{"lat":36.188421,"lng":138.216038,"delta_lat":[0,-3682,151708,43257,-118717],"delta_lng":[0,14090,-19071,-16000,5548]},"impl":true},
    {"code":9940412,"left":9940413,"id":"4e3549","name":"中野(長野)","original_name":"中野","name_kana":"なかの","lat":36.360654,"lng":138.193438,"prefecture":20,"lines":[99404],"attr":"eco","postal_code":"386-1325","address":"上田市大字中野字池下４９６-４","next":[9940410,9940406,9940411,9940413,9940415],"voronoi":{"lat":36.280427,"lng":138.195958,"delta_lat":[0,111394,-9209,-2908,-118717],"delta_lng":[0,-10898,9338,659,5548]},"impl":true},
    {"code":9940413,"id":"2484d7","name":"舞田","name_kana":"まいた","lat":36.359621,"lng":138.18288,"prefecture":20,"lines":[99404],"attr":"eco","postal_code":"386-1326","address":"上田市大字舞田字柳堂４４-６","next":[9940414,9940406,9940415,9940412,9940312],"voronoi":{"lat":36.398902,"lng":138.172267,"delta_lat":[0,-98082,-20393,111394,2052],"delta_lng":[0,17365,6325,-10898,-1488]},"impl":true},
    {"code":9940410,"id":"0ef39c","name":"中塩田","name_kana":"なかしおだ","lat":36.363212,"lng":138.204728,"prefecture":20,"lines":[99404],"attr":"eco","postal_code":"386-1324","address":"上田市大字五加字富在家１２２５-６","next":[9940409,9940408,9940411,9940407,9940412,9940406],"voronoi":{"lat":36.378652,"lng":138.201132,"delta_lat":[0,-12722,-29484,43257,2908,-3424],"delta_lng":[0,9837,87,-16000,-659,6094]},"impl":true},
    {"code":9940408,"left":1140131,"right":9940403,"id":"76ecdb","name":"大学前(長野)","original_name":"大学前","name_kana":"だいがくまえ","lat":36.371287,"lng":138.215171,"prefecture":20,"lines":[99404],"attr":"eco","postal_code":"386-1211","address":"上田市大字下之郷字上迎２８４-５","next":[9940410,9940407,9940409],"voronoi":{"lat":36.378652,"lng":138.201132,"delta_lat":[0,-12722,4845],"delta_lng":[0,9837,18941]},"impl":true},
    {"code":1140131,"left":9940409,"right":1140129,"id":"7856b9","name":"小諸","name_kana":"こもろ","lat":36.326337,"lng":138.422021,"prefecture":20,"lines":[11401,99403],"attr":"cool","postal_code":"384-0025","address":"小諸市相生町","next":[1133519,9940304,9940305,9940307,1140130],"voronoi":{"lat":36.262455,"lng":138.372774,"delta_lat":[0,186599,-27468,-49293,-13920],"delta_lng":[0,51850,48122,-4305,-7736]},"impl":true},
    {"code":9940409,"left":9940307,"right":9940309,"id":"6555ff","name":"下之郷","name_kana":"しものごう","lat":36.363249,"lng":138.217227,"prefecture":20,"lines":[99404],"attr":"eco","postal_code":"386-1211","address":"上田市大字下之郷５１７-３","next":[9940410,9940402,9940310,9940403,9940407,9940308,9940411,9940408,1131145,9940309],"voronoi":{"lat":36.311656,"lng":138.261498,"delta_lat":[0,50792,5171,3276,-120,-4845,-29484,-151708,-9177,84625],"delta_lng":[0,-13877,-5925,-5080,-6705,-18941,87,19071,28790,6650]},"impl":true},
    {"code":9940307,"left":9940308,"id":"03d0ea","name":"滋野","name_kana":"しげの","lat":36.342586,"lng":138.363543,"prefecture":20,"lines":[99403],"attr":"heat","postal_code":"389-0512","address":"東御市滋野乙９７７番地","next":[1140122,1133519,1140130,9940308,1140126,1140114,1140131],"voronoi":{"lat":36.480355,"lng":138.392245,"delta_lat":[0,-317719,19859,5832,67805,6322,186599],"delta_lng":[0,-110288,36525,5435,46504,2352,51850]},"impl":true},
    {"code":9940308,"id":"cc31a2","name":"田中","name_kana":"たなか","lat":36.354433,"lng":138.329414,"prefecture":20,"lines":[99403],"attr":"heat","postal_code":"389-0516","address":"東御市田中２７９番地","next":[1133519,9940309,9940409,1140114,9940307,1131145],"voronoi":{"lat":36.175562,"lng":138.258918,"delta_lat":[0,84625,238756,-18587,-317719,-1487],"delta_lng":[0,6650,111844,14834,-110288,-2223]},"impl":true},
    {"code":9940309,"id":"769aa9","name":"大屋","name_kana":"おおや","lat":36.369566,"lng":138.297109,"prefecture":20,"lines":[99403],"attr":"heat","postal_code":"386-0152","address":"上田市大字大屋４５４番地","next":[9940308,1133519,100905,9940409,9940610,9940310],"voronoi":{"lat":36.311656,"lng":138.261498,"delta_lat":[0,-51470,238756,8959,-5741,-35283],"delta_lng":[0,4070,111844,-5570,-31354,-19934]},"impl":true},
    {"code":1140129,"left":1140127,"right":1140130,"id":"b15d02","name":"乙女","name_kana":"おとめ","lat":36.311371,"lng":138.440527,"prefecture":20,"lines":[11401],"attr":"cool","postal_code":"384-0003","address":"小諸市東山","next":[1140127,1140128,1140130,9940305],"voronoi":{"lat":36.288438,"lng":138.418852,"delta_lat":[0,7513,15040,28149],"delta_lng":[0,14891,13690,5809]},"impl":true},
    {"code":1140127,"left":1140128,"id":"aa3223","name":"美里","name_kana":"みさと","lat":36.292243,"lng":138.450177,"prefecture":20,"lines":[11401],"attr":"cool","postal_code":"384-0083","address":"小諸市大字市字土橋","next":[9940305,1140129,1140126,1140128,1140130,100904],"voronoi":{"lat":36.289457,"lng":138.461681,"delta_lat":[0,-20704,19685,7513,3348,-2725],"delta_lng":[0,-69917,27088,14891,23220,11896]},"impl":true},
    {"code":1140128,"id":"3c431b","name":"三岡","name_kana":"みつおか","lat":36.30415,"lng":138.44846,"prefecture":20,"lines":[11401],"attr":"cool","postal_code":"384-0085","address":"小諸市森山","next":[9940305,1140127,1140129],"voronoi":{"lat":36.299299,"lng":138.456964,"delta_lat":[0,-3348,15040],"delta_lng":[0,-23220,13690]},"impl":true},
    {"code":1140130,"id":"1ab496","name":"東小諸","name_kana":"ひがしこもろ","lat":36.317057,"lng":138.432144,"prefecture":20,"lines":[11401],"attr":"cool","postal_code":"384-0001","address":"小諸市小原","next":[9940307,1140127,1140129,1140131,1140126,9940305],"voronoi":{"lat":36.33914,"lng":138.453242,"delta_lat":[0,-50702,-19685,-12620,6322,95918],"delta_lng":[0,-34390,-27088,-21343,2352,87931]},"impl":true},
    {"code":9940403,"left":9940405,"right":9940402,"id":"eefb87","name":"三好町","name_kana":"みよしちょう","lat":36.391712,"lng":138.235585,"prefecture":20,"lines":[99404],"attr":"cool","postal_code":"386-0034","address":"上田市大字中之条字中満丁２４０-５","next":[9940404,9940409,9940402,100905,9940407,9940312],"voronoi":{"lat":36.413245,"lng":138.230336,"delta_lat":[0,-36316,-6033,-3276,40512,9204],"delta_lng":[0,1786,4494,5080,-4218,-3267]},"impl":true},
    {"code":9940405,"left":9940407,"right":9940404,"id":"55559b","name":"上田原","name_kana":"うえだはら","lat":36.390488,"lng":138.221439,"prefecture":20,"lines":[99404],"attr":"heat","postal_code":"386-1102","address":"上田市大字上田原字屋鋪田６９７-５","next":[9940406,9940312,9940404],"voronoi":{"lat":36.407282,"lng":138.222028,"delta_lat":[0,-8641,-16619],"delta_lng":[0,-17987,21537]},"impl":true},
    {"code":9940407,"left":9940406,"id":"7b763f","name":"神畑","name_kana":"かばたけ","lat":36.377841,"lng":138.216965,"prefecture":20,"lines":[99404],"attr":"eco","postal_code":"386-1103","address":"上田市大字神畑字孤池９４-５","next":[9940406,9940410,9940409,9940408,9940404,9940403],"voronoi":{"lat":36.370775,"lng":138.22991,"delta_lat":[0,7877,535,2612,-4871,-6033],"delta_lng":[0,-28778,-641,25239,6391,4494]},"impl":true},
    {"code":9940406,"id":"3fef12","name":"寺下","name_kana":"てらした","lat":36.38388,"lng":138.21634,"prefecture":20,"lines":[99404],"attr":"heat","postal_code":"386-1103","address":"上田市大字神畑字寺下６１６-１","next":[9940312,9940407,9940405,9940404,9940413,9940410,9940412],"voronoi":{"lat":36.39182,"lng":138.185059,"delta_lat":[0,2052,4769,-16619,-223,-2612,3424],"delta_lng":[0,-1488,20470,21537,152,-25239,-6094]},"impl":true},
    {"code":9940404,"id":"22dcd7","name":"赤坂上","name_kana":"あかさかうえ","lat":36.391301,"lng":138.227224,"prefecture":20,"lines":[99404],"attr":"heat","postal_code":"386-1102","address":"上田市大字上田原字一ノ口８７５-７","next":[9940403,9940406,9940407,9940312,9940405],"voronoi":{"lat":36.407282,"lng":138.222028,"delta_lat":[0,5962,-36316,4871,223],"delta_lng":[0,8307,1786,-6391,-152]},"impl":true},
    {"code":9940402,"left":9940310,"right":100905,"id":"a68492","name":"城下(長野)","original_name":"城下","name_kana":"しろした","lat":36.392454,"lng":138.242712,"prefecture":20,"lines":[99404],"attr":"cool","postal_code":"386-0032","address":"上田市大字諏訪形字中田９８２","next":[9940409,9940403,100905,9940310],"voronoi":{"lat":36.408131,"lng":138.237478,"delta_lat":[0,-40512,-5171,17129],"delta_lng":[0,4218,5925,7741]},"impl":true},
    {"code":9940310,"id":"c37250","name":"信濃国分寺","name_kana":"しなのこくぶんじ","lat":36.378592,"lng":138.273385,"prefecture":20,"lines":[99403],"attr":"eco","postal_code":"386-0016","address":"上田市大字国分字浦沖１２４６番地の５","next":[9940409,9940402,100905,9940309],"voronoi":{"lat":36.379578,"lng":138.255362,"delta_lat":[0,-17129,-50792,155221],"delta_lng":[0,-7741,13877,59056]},"impl":true},
    {"code":100905,"id":"f3b943","name":"上田","name_kana":"うえだ","lat":36.396579,"lng":138.249298,"prefecture":20,"lines":[1009,99403,99404],"attr":"eco","postal_code":"386-0025","address":"上田市天神１丁目１８８７番地","next":[9940606,9940403,9940402,9940310,9940610,9940314,9940309,9940312],"voronoi":{"lat":36.498967,"lng":138.282331,"delta_lat":[0,3959,-766,-35283,-87300,28554,9204,67108],"delta_lng":[0,13086,45070,-19934,-65192,-17884,-3267,34155]},"impl":true},
    {"code":9940317,"left":9940316,"right":9940607,"id":"285cb8","name":"屋代高校前","name_kana":"やしろこうこうまえ","lat":36.547853,"lng":138.132489,"prefecture":20,"lines":[99403],"attr":"eco","postal_code":"387-0007","address":"千曲市大字屋代字新田１４１１の３番地","next":[1140301,1141213,9940603,9940602],"voronoi":{"lat":36.546027,"lng":138.11945,"delta_lat":[0,18758,-3098,-17204],"delta_lng":[0,3671,16304,1116]},"impl":true},
    {"code":9940316,"left":1140920,"right":1140925,"id":"ee8671","name":"屋代","name_kana":"やしろ","lat":36.532062,"lng":138.128191,"prefecture":20,"lines":[99403,99406],"attr":"eco","postal_code":"387-0013","address":"千曲市大字小島３１３９番地","next":[9940319,9940602,9940603,1141213,1141212],"voronoi":{"lat":36.528394,"lng":138.148332,"delta_lat":[0,2785,10737,-14811,-17061],"delta_lng":[0,-2353,-28294,-15136,14419]},"impl":true},
    {"code":1140920,"left":1140919,"right":1141211,"id":"757cec","name":"信濃大町","name_kana":"しなのおおまち","lat":36.50031,"lng":137.861674,"prefecture":20,"lines":[11409],"attr":"cool","postal_code":"398-0002","address":"大町市大字大町","next":[1140921,1140917,1140919,1141209,1141210],"voronoi":{"lat":36.527564,"lng":137.966774,"delta_lat":[0,-63959,4406,37390,27124],"delta_lng":[0,-28911,-33581,-60695,124394]},"impl":true},
    {"code":1140919,"left":1140917,"right":1140921,"id":"2896a2","name":"南大町","name_kana":"みなみおおまち","lat":36.491536,"lng":137.856269,"prefecture":20,"lines":[11409],"attr":"cool","postal_code":"398-0002","address":"大町市大町字大新田","next":[1140917,1140922,1140921,1140920,1140918],"voronoi":{"lat":36.46801,"lng":137.904283,"delta_lat":[0,37390,1395,-5995,-31960],"delta_lng":[0,-60695,-22087,-26232,84563]},"impl":true},
    {"code":1140917,"left":1140918,"id":"5b5190","name":"安曇沓掛","name_kana":"あずみくつかけ","lat":36.447795,"lng":137.854784,"prefecture":20,"lines":[11409],"attr":"eco","postal_code":"398-0004","address":"大町市大字常盤区須沼","next":[1140919,1140920,1141209,1140918,1140916],"voronoi":{"lat":36.418726,"lng":137.751145,"delta_lat":[0,50115,-830,-4406,-14354],"delta_lng":[0,128686,24451,33581,-1528]},"impl":true},
    {"code":1140918,"id":"e3e258","name":"信濃常盤","name_kana":"しなのときわ","lat":36.467403,"lng":137.847148,"prefecture":20,"lines":[11409],"attr":"eco","postal_code":"398-0004","address":"大町市大字常盤区下一本木","next":[1140922,1140916,1140919,1140917,9941204,9940914],"voronoi":{"lat":36.498781,"lng":137.651589,"delta_lat":[0,2019,-31960,-50115,-39308,105261],"delta_lng":[0,143679,84563,-128686,-147012,30340]},"impl":true},
    {"code":1140921,"id":"c2dfcb","name":"北大町","name_kana":"きたおおまち","lat":36.517558,"lng":137.857913,"prefecture":20,"lines":[11409],"attr":"cool","postal_code":"398-0002","address":"大町市大字大町字荒沢","next":[1140923,1140919,1140922,1141213,1140920,1140926,1141210],"voronoi":{"lat":36.532525,"lng":137.967981,"delta_lat":[0,-27124,1395,48137,8727,2023,-439],"delta_lng":[0,-124394,-22087,74255,20766,62177,61]},"impl":true},
    {"code":1141211,"left":1141210,"right":1141212,"id":"962da0","name":"冠着","name_kana":"かむりき","lat":36.457215,"lng":138.079223,"prefecture":20,"lines":[11412],"attr":"cool","postal_code":"399-7711","address":"東筑摩郡筑北村坂井大野田","next":[9940315,9940314,9940415,9940313,1141212,1141210,1141208],"voronoi":{"lat":36.403911,"lng":138.066958,"delta_lat":[0,83826,-17887,-25495,-10276,-23065,-31772],"delta_lng":[0,-5689,57374,12333,476,-3519,-39991]},"impl":true},
    {"code":1141210,"left":1141209,"id":"3ce908","name":"聖高原","name_kana":"ひじりこうげん","lat":36.455069,"lng":138.047603,"prefecture":20,"lines":[11412],"attr":"cool","postal_code":"399-7700","address":"東筑摩郡麻績村漆田","next":[1141212,1141213,1141209,1141208,1141211,1140921,1140920],"voronoi":{"lat":36.565244,"lng":137.97876,"delta_lat":[0,-3419,-74087,-83826,6897,116755,4961],"delta_lng":[0,5518,76991,5689,-10713,-89470,1207]},"impl":true},
    {"code":1141209,"id":"10e921","name":"坂北","name_kana":"さかきた","lat":36.430663,"lng":138.015754,"prefecture":20,"lines":[11412],"attr":"cool","postal_code":"399-7601","address":"東筑摩郡筑北村坂北","next":[1141208,1140915,1141207,1141210,1140916,1140917,1140920],"voronoi":{"lat":36.463604,"lng":137.937863,"delta_lat":[0,-14354,-16464,-443,-9169,-12366,116755],"delta_lng":[0,-1528,650,71,8199,110989,-89470]},"impl":true},
    {"code":1141212,"id":"9cd0f3","name":"姨捨","name_kana":"おばすて","lat":36.502649,"lng":138.093388,"prefecture":20,"lines":[11412],"attr":"cool","postal_code":"387-0023","address":"千曲市大字八幡","next":[1141210,9940319,1141211,1141213,9940315,9940316],"voronoi":{"lat":36.527105,"lng":138.10255,"delta_lat":[0,34719,-74087,-17887,12335,27859],"delta_lng":[0,-118272,76991,57374,2014,-3688]},"impl":true},
    {"code":1140925,"left":9940914,"right":1141213,"id":"1f4f70","name":"簗場","name_kana":"やなば","lat":36.594666,"lng":137.844724,"prefecture":20,"lines":[11409],"attr":"cool","postal_code":"398-0001","address":"大町市大字平","next":[1140924,1140926,9941204,1140927],"voronoi":{"lat":36.607466,"lng":137.730533,"delta_lat":[0,-15207,-15284,38205],"delta_lng":[0,-8321,152916,-41427]},"impl":true},
    {"code":9940914,"left":1140923,"right":1140927,"id":"3e6079","name":"立山","name_kana":"たてやま","lat":36.583253,"lng":137.445234,"prefecture":16,"lines":[99409],"attr":"heat","postal_code":"930-1406","address":"中新川郡立山町芦峅寺ブナ坂","next":[1140916,9940714,1141627,9941203,9940810,1140915,9940838,9941204,9940820,9940913,1140918],"voronoi":{"lat":36.69174,"lng":137.52413,"delta_lat":[0,3436,15632,-443,-61250,-325492,-34045,56138,9308,24394,105261],"delta_lng":[0,-2520,-26271,-1929,-84721,54781,68672,58678,3942,9371,30340]},"impl":true},
    {"code":1140923,"left":1140924,"id":"4f3920","name":"稲尾","name_kana":"いなお","lat":36.554058,"lng":137.842575,"prefecture":20,"lines":[11409],"attr":"cool","postal_code":"398-0001","address":"大町市大字平字道下","next":[1140922,9941204,1140921,1140924,1140926],"voronoi":{"lat":36.564455,"lng":137.913214,"delta_lat":[0,-14319,-41457,46254,8727],"delta_lng":[0,-221068,-32076,235686,20766]},"impl":true},
    {"code":1140924,"id":"ce7fa2","name":"海ノ口","name_kana":"うみのくち","lat":36.565652,"lng":137.841824,"prefecture":20,"lines":[11409],"attr":"cool","postal_code":"398-0001","address":"大町市大字平字下海道","next":[1140925,1140926,1140923,9941204],"voronoi":{"lat":36.576975,"lng":137.875129,"delta_lat":[0,-12521,-14319,42124],"delta_lng":[0,38085,-221068,30067]},"impl":true},
    {"code":1140927,"id":"aac8b3","name":"南神城","name_kana":"みなみかみしろ","lat":36.637105,"lng":137.841551,"prefecture":20,"lines":[11409],"attr":"cool","postal_code":"399-9211","address":"北安曇郡白馬村大字神城","next":[1140926,1140925,9941204,1140928],"voronoi":{"lat":36.669861,"lng":137.750822,"delta_lat":[0,-62394,7714,22556],"delta_lng":[0,-20288,103168,52267]},"impl":true},
    {"code":1141213,"left":9940602,"right":1140926,"id":"2140e5","name":"稲荷山","name_kana":"いなりやま","lat":36.552633,"lng":138.108061,"prefecture":20,"lines":[11412],"attr":"cool","postal_code":"388-8014","address":"長野市篠ノ井塩崎","next":[9940317,1141210,1140301,9940316,1140926,1141212,1140932,1140921,9940602,1140303,1140302,1140931],"voronoi":{"lat":36.637512,"lng":137.993806,"delta_lat":[0,-71830,-439,-3419,-34719,14811,4110,18758,42499,22377,34901,-1286],"delta_lng":[0,-15108,61,5518,118272,15136,1764,3671,-34679,-25865,-50391,-1082]},"impl":true},
    {"code":9940602,"left":1140922,"id":"646f1c","name":"東屋代","name_kana":"ひがしやしろ","closed":true,"lat":36.542321,"lng":138.132084,"prefecture":20,"lines":[99406],"attr":"unknown","postal_code":"387-0007","address":"千曲市屋代郷津７７８-４","closed_date":"2012-04-01","next":[9940316,9940317,1141213,9940603],"voronoi":{"lat":36.544483,"lng":138.140541,"delta_lat":[0,1544,-4110,-10737],"delta_lng":[0,-21091,-1764,28294]},"impl":true},
    {"code":1140922,"id":"4edc91","name":"信濃木崎","name_kana":"しなのきざき","lat":36.535643,"lng":137.846189,"prefecture":20,"lines":[11409],"attr":"cool","postal_code":"398-0001","address":"大町市大字平字木崎","next":[1140918,1140923,1140919,1140921,9941204],"voronoi":{"lat":36.498781,"lng":137.651589,"delta_lat":[0,2019,5995,48137,-46254],"delta_lng":[0,143679,26232,74255,-235686]},"impl":true},
    {"code":1140926,"id":"793a33","name":"ヤナバスキー場前","name_kana":"やなばすきーじょうまえ","closed":true,"lat":36.605851,"lng":137.855039,"prefecture":20,"lines":[11409],"attr":"unknown","postal_code":"398-0001","address":"大町市大字平","open_date":"1985-12-24","closed_date":"2019-03-16","next":[1140931,1140924,1140925,1141213,1140927,1140928,1140923,1140929,1140921,1140930],"voronoi":{"lat":36.637512,"lng":137.993806,"delta_lat":[0,-71830,-2023,795,12521,38205,22556,5819,541,-5887],"delta_lng":[0,-15108,-62177,-3308,-38085,-41427,52267,36099,7022,60386]},"impl":true},
    {"code":9940607,"left":9940604,"right":9940609,"id":"dbc56f","name":"金井山","name_kana":"かないやま","closed":true,"lat":36.591282,"lng":138.201443,"prefecture":20,"lines":[99406],"attr":"unknown","postal_code":"381-1214","address":"長野市松代町柴新引４６２-２","closed_date":"2012-04-01","next":[1140302,1140303,9940606,9940608,9940605,1140304,9940604,100906],"voronoi":{"lat":36.575701,"lng":138.221523,"delta_lat":[0,4832,4179,2862,9942,9633,7904,3969],"delta_lng":[0,-36542,-9782,-2274,789,4342,7771,16728]},"impl":true},
    {"code":9940604,"left":9940603,"right":9940605,"id":"97acac","name":"岩野","name_kana":"いわの","closed":true,"lat":36.560628,"lng":138.162877,"prefecture":20,"lines":[99406],"attr":"unknown","postal_code":"381-1234","address":"長野市松代町岩野山裏１８-２","closed_date":"2012-04-01","next":[9940605,9940603,9940607,1140302,1140301],"voronoi":{"lat":36.587574,"lng":138.172924,"delta_lat":[0,-2862,-56350,36246,15460],"delta_lng":[0,2274,1273,-28833,10256]},"impl":true},
    {"code":9940603,"left":9940315,"right":1140301,"id":"7e11cc","name":"雨宮","name_kana":"あめのみや","closed":true,"lat":36.548865,"lng":138.14809,"prefecture":20,"lines":[99406],"attr":"unknown","postal_code":"387-0001","address":"千曲市雨宮７６３-２","closed_date":"2012-04-01","next":[9940605,9940316,9940319,9940317,9940604,9940602,1140301],"voronoi":{"lat":36.528362,"lng":138.176472,"delta_lat":[0,-4744,4776,2785,13303,17204,2922],"delta_lng":[0,1446,-29585,-2353,-5439,-1116,8214]},"impl":true},
    {"code":9940315,"left":9940319,"id":"476c72","name":"戸倉","name_kana":"とぐら","lat":36.492913,"lng":138.153017,"prefecture":20,"lines":[99403],"attr":"eco","postal_code":"389-0804","address":"千曲市大字戸倉１４４５番地","next":[1141211,9940314,9940319,9940605,1141212],"voronoi":{"lat":36.46985,"lng":138.118642,"delta_lat":[0,-25495,65895,12746,-40811],"delta_lng":[0,12333,72100,-24467,-57952]},"impl":true},
    {"code":9940319,"id":"75ef20","name":"千曲","name_kana":"ちくま","lat":36.509039,"lng":138.141661,"prefecture":20,"lines":[99403],"attr":"eco","postal_code":"387-0016","address":"長野県千曲市大字寂蒔200","next":[9940316,1141212,9940603,9940605,9940315],"voronoi":{"lat":36.482186,"lng":138.120656,"delta_lat":[0,27859,18350,-4776,-622],"delta_lng":[0,-3688,31364,29585,691]},"impl":true},
    {"code":1140301,"id":"6bd549","name":"篠ノ井","name_kana":"しののい","lat":36.5771,"lng":138.138046,"prefecture":20,"lines":[11403,11412,99403],"attr":"cool","postal_code":"388-8007","address":"長野市篠ノ井布施高田","next":[9940317,1141213,1140302,9940603,9940604],"voronoi":{"lat":36.607284,"lng":138.088442,"delta_lat":[0,-42499,-3098,2922,15460],"delta_lng":[0,34679,16304,8214,10256]},"impl":true},
    {"code":9940605,"left":9940313,"right":9940606,"id":"9dda29","name":"象山口","name_kana":"ぞうざんぐち","closed":true,"lat":36.561209,"lng":138.188596,"prefecture":20,"lines":[99406],"attr":"unknown","postal_code":"381-1233","address":"長野市松代町清野河原新田２０４１","closed_date":"2012-04-01","next":[9940603,9940606,9940604,9940314,9940319,9940607,9940315],"voronoi":{"lat":36.508996,"lng":138.220173,"delta_lat":[0,71537,4179,-56350,-4744,-622,-12746],"delta_lng":[0,-35192,-9782,1273,1446,691,24467]},"impl":true},
    {"code":9940313,"left":9940314,"id":"501cfb","name":"テクノさかき","name_kana":"てくのさかき","lat":36.440584,"lng":138.188204,"prefecture":20,"lines":[99403],"attr":"eco","postal_code":"389-0603","address":"埴科郡坂城町大字南条字社宮神４９１０-５番地","next":[9940314,9940312,1141211,9940415,9940414],"voronoi":{"lat":36.404229,"lng":138.150513,"delta_lat":[0,6785,23065,37176,-69550],"delta_lng":[0,-22580,3519,115301,-79531]},"impl":true},
    {"code":9940314,"id":"92b766","name":"坂城","name_kana":"さかき","lat":36.46195,"lng":138.181315,"prefecture":20,"lines":[99403],"attr":"eco","postal_code":"389-0601","address":"埴科郡坂城町坂城","next":[1141211,9940313,9940605,9940315,9940312,100905,9940606],"voronoi":{"lat":36.508996,"lng":138.220173,"delta_lat":[0,1254,-65895,-10276,37176,13188,14524],"delta_lng":[0,-17097,-72100,476,115301,21613,13966]},"impl":true},
    {"code":9940606,"id":"41c258","name":"松代","name_kana":"まつしろ","closed":true,"lat":36.565876,"lng":138.198083,"prefecture":20,"lines":[99406],"attr":"unknown","postal_code":"381-0000","address":"長野市松代町殿町７０","closed_date":"2012-04-01","next":[9940605,9940609,100905,9940607,9940608,9940314,9940610],"voronoi":{"lat":36.527508,"lng":138.275296,"delta_lat":[0,31503,16690,4832,-71537,-10029,3959],"delta_lng":[0,-30866,-22907,-36542,35192,62159,13086]},"impl":true},
    {"code":9940609,"left":1140303,"right":9940611,"id":"1bdda2","name":"信濃川田","name_kana":"しなのかわだ","closed":true,"lat":36.605488,"lng":138.238512,"prefecture":20,"lines":[99406],"attr":"unknown","postal_code":"381-0103","address":"長野市若穂川田町下３１８０-２","closed_date":"2012-04-01","next":[9940608,9940611,9940606,1140306,9940610],"voronoi":{"lat":36.62589,"lng":138.239213,"delta_lat":[0,9405,-2239,-74044,-31503],"delta_lng":[0,-8731,-8356,22304,30866]},"impl":true},
    {"code":1140303,"left":9940608,"right":1140304,"id":"02d89f","name":"川中島","name_kana":"かわなかじま","lat":36.614167,"lng":138.150679,"prefecture":20,"lines":[11403],"attr":"cool","postal_code":"381-2233","address":"長野市川中島町上氷鉋","next":[1140934,9940607,1140933,1140304,1140932,1141213,1140302],"voronoi":{"lat":36.62966,"lng":138.062577,"delta_lat":[0,34901,6611,17853,15866,-97742,-9633],"delta_lng":[0,-50391,3136,10655,10506,141573,-4342]},"impl":true},
    {"code":9940608,"left":1140302,"id":"eaf747","name":"大室","name_kana":"おおむろ","closed":true,"lat":36.601024,"lng":138.223692,"prefecture":20,"lines":[99406],"attr":"unknown","postal_code":"381-1211","address":"長野市松代町大室村北７２５-１","closed_date":"2012-04-01","next":[9940609,100906,9940607,9940606,1140306],"voronoi":{"lat":36.559011,"lng":138.244429,"delta_lat":[0,16690,43321,13989,44],"delta_lng":[0,-22907,-18968,17099,2472]},"impl":true},
    {"code":1140302,"id":"8da665","name":"今井","name_kana":"いまい","lat":36.595732,"lng":138.145347,"prefecture":20,"lines":[11403],"attr":"cool","postal_code":"381-2226","address":"長野市川中島町今井２９６番地","next":[9940607,1141213,1140301,9940604,1140303],"voronoi":{"lat":36.62966,"lng":138.062577,"delta_lat":[0,-22377,-27215,7506,9942],"delta_lng":[0,25865,69453,15030,789]},"impl":true},
    {"code":1140304,"id":"1248e7","name":"安茂里","name_kana":"あもり","lat":36.630262,"lng":138.161791,"prefecture":20,"lines":[11403],"attr":"cool","postal_code":"380-0941","address":"長野市安茂里","next":[9940503,100906,1140303,1140934,9940607,1140311,9940504],"voronoi":{"lat":36.654935,"lng":138.166776,"delta_lat":[0,-39882,-7904,97742,38116,-7606,-69512],"delta_lng":[0,19050,-7771,-141573,21709,38018,62257]},"impl":true},
    {"code":9940611,"left":9940610,"right":9940612,"id":"0aefa0","name":"綿内","name_kana":"わたうち","closed":true,"lat":36.625075,"lng":138.25961,"prefecture":20,"lines":[99406],"attr":"unknown","postal_code":"381-0101","address":"長野市若穂綿内高野６４７２-２","closed_date":"2012-04-01","next":[9940510,1140306,9940612,9940609,9940610,9940509],"voronoi":{"lat":36.644367,"lng":138.262233,"delta_lat":[0,-41362,22885,9405,2064,6768],"delta_lng":[0,26014,-49035,-8731,2230,22382]},"impl":true},
    {"code":9940610,"id":"84abb8","name":"若穂","name_kana":"わかほ","closed":true,"lat":36.610779,"lng":138.252938,"prefecture":20,"lines":[99406],"attr":"unknown","postal_code":"381-0101","address":"長野市若穂綿内田中７４８５","closed_date":"2012-04-01","next":[1133519,9940609,9940611,9940612,100905,9940606,9940309],"voronoi":{"lat":36.5159,"lng":138.374654,"delta_lat":[0,87105,22885,-98381,-24582,-766,5741],"delta_lng":[0,-86407,-49035,36083,20122,45070,31354]},"impl":true},
    {"code":9940612,"id":"212fd5","name":"井上","name_kana":"いのうえ","closed":true,"lat":36.638376,"lng":138.280758,"prefecture":20,"lines":[99406],"attr":"unknown","postal_code":"382-0045","address":"須坂市井上双六１７４０-４","closed_date":"2012-04-01","next":[9940512,1133519,9940510,9940611,9940513,9940610,9940511],"voronoi":{"lat":36.64032,"lng":138.29823,"delta_lat":[0,-107800,-16620,87105,41362,3675,867],"delta_lng":[0,84772,-8348,-86407,-26014,4104,15092]},"impl":true},
    {"code":1134106,"left":1133703,"right":1134206,"id":"9d362f","name":"前橋大島","name_kana":"まえばしおおしま","lat":36.370585,"lng":139.109557,"prefecture":10,"lines":[11341],"attr":"eco","postal_code":"379-2154","address":"前橋市天川大島町１３２４-３","next":[9932805,1134105,1134107,9932803,9932802,1131815,9932804,9932806,1131814],"voronoi":{"lat":36.329309,"lng":139.08665,"delta_lat":[0,7956,36244,1098,1978,4958,1769,-5174,-54287],"delta_lng":[0,-9317,12647,797,2249,8309,14115,17735,-29822]},"impl":true},
    {"code":1133703,"left":9940305,"right":1131815,"id":"9397db","name":"群馬八幡","name_kana":"ぐんまわやた","lat":36.337641,"lng":138.957433,"prefecture":10,"lines":[11337],"attr":"eco","postal_code":"370-0884","address":"高崎市八幡町","next":[9932702,1134103,1134206,1133702,1133704,9932709,9932710,100902,9932711,1134205],"voronoi":{"lat":36.419328,"lng":138.95031,"delta_lat":[0,13666,-530,-134604,-99,-1272,1317,16378,74610,5678],"delta_lng":[0,-27880,-122,18704,287,18358,12719,7511,-1966,-1709]},"impl":true},
    {"code":9940305,"left":9932714,"right":1133708,"id":"15e2c5","name":"平原","name_kana":"ひらはら","lat":36.308606,"lng":138.453926,"prefecture":20,"lines":[99403],"attr":"heat","postal_code":"384-0092","address":"小諸市大字平原６０３番地","next":[1140127,1140128,9940304,1140124,100904,1140131,1140129,1140130],"voronoi":{"lat":36.33914,"lng":138.453242,"delta_lat":[0,-28149,-11692,-2725,3321,2052,70346,-13920],"delta_lng":[0,-5809,9530,11896,9759,3793,-13971,-7736]},"impl":true},
    {"code":9932714,"left":100904,"right":9932713,"id":"b265e9","name":"西富岡","name_kana":"にしとみおか","lat":36.260182,"lng":138.882786,"prefecture":10,"lines":[99327],"attr":"eco","postal_code":"370-2343","address":"富岡市七日市６７１-８","next":[9932715,9932713,9932716,1133705],"voronoi":{"lat":36.285866,"lng":138.873802,"delta_lat":[0,-59226,-10556,80537],"delta_lng":[0,10883,3990,-2470]},"impl":true},
    {"code":100904,"left":9932715,"right":1133705,"id":"05d5c9","name":"佐久平","name_kana":"さくだいら","lat":36.277929,"lng":138.464367,"prefecture":20,"lines":[1009,11401],"attr":"cool","postal_code":"385-0021","address":"佐久市大字長土呂１４８８番地","next":[1140126,9940305,1140127,1140124,1140123],"voronoi":{"lat":36.257015,"lng":138.452903,"delta_lat":[0,32441,7117,3321,-37879],"delta_lng":[0,8778,7178,9759,-16358]},"impl":true},
    {"code":9932715,"left":1140124,"id":"97f066","name":"上州七日市","name_kana":"じょうしゅうなのかいち","lat":36.258666,"lng":138.874536,"prefecture":10,"lines":[99327],"attr":"eco","postal_code":"370-2343","address":"富岡市七日市１６２５-１","next":[9932716,1133705,9932714],"voronoi":{"lat":36.285866,"lng":138.873802,"delta_lat":[0,-9618,-49608],"delta_lng":[0,-15356,26239]},"impl":true},
    {"code":1140124,"id":"83310d","name":"岩村田","name_kana":"いわむらだ","lat":36.27446,"lng":138.4724,"prefecture":20,"lines":[11401],"attr":"cool","postal_code":"385-0022","address":"佐久市岩村田","next":[9940304,1140123,9940305,100904],"voronoi":{"lat":36.301947,"lng":138.482411,"delta_lat":[0,-27603,-12328,37879],"delta_lng":[0,36374,-56525,16358]},"impl":true},
    {"code":1133705,"id":"f86c31","name":"磯部(群馬)","original_name":"磯部","name_kana":"いそべ","lat":36.298397,"lng":138.84965,"prefecture":10,"lines":[11337],"attr":"heat","postal_code":"379-0127","address":"安中市磯部","next":[1133704,9932715,9932718,9932714,100902,9932713,9932716,9932717,1133706],"voronoi":{"lat":36.330494,"lng":138.87406,"delta_lat":[0,-30148,-3725,-10755,-9618,-5224,1849,3623,53822],"delta_lng":[0,15494,-3349,-12403,-15356,-16596,-17737,-6083,11142]},"impl":true},
    {"code":9932713,"left":9932710,"right":9932712,"id":"c30859","name":"上州富岡","name_kana":"じょうしゅうとみおか","lat":36.26046,"lng":138.891851,"prefecture":10,"lines":[99327],"attr":"eco","postal_code":"370-2316","address":"富岡市富岡１５９９-３","next":[1133704,9932716,9932714,9932712,1133705],"voronoi":{"lat":36.298454,"lng":138.895535,"delta_lat":[0,-124923,42552,80537,3725],"delta_lng":[0,4426,-11285,-2470,3349]},"impl":true},
    {"code":9932710,"left":9932711,"id":"1a4d5e","name":"上州新屋","name_kana":"じょうしゅうにいや","lat":36.256036,"lng":138.951776,"prefecture":10,"lines":[99327],"attr":"eco","postal_code":"370-2216","address":"甘楽郡甘楽町金井３４３-４","next":[9932711,1133703,9932709,9930635,9930625],"voronoi":{"lat":36.106614,"lng":138.949401,"delta_lat":[0,-1029,192175,-1272,-184899],"delta_lng":[0,-11301,3200,18358,-3701]},"impl":true},
    {"code":9932711,"id":"3d7b67","name":"上州福島","name_kana":"じょうしゅうふくしま","lat":36.256408,"lng":138.92944,"prefecture":10,"lines":[99327],"attr":"eco","postal_code":"370-2212","address":"甘楽郡甘楽町福島６６４-５","next":[9932717,9930635,9932716,9932710,1133704,9932712,1133703],"voronoi":{"lat":36.29786,"lng":138.941012,"delta_lat":[0,-3944,-126121,-12228,-54562,4581,192175],"delta_lng":[0,-19693,-20186,627,8782,27557,3200]},"impl":true},
    {"code":9932712,"id":"abf340","name":"東富岡","name_kana":"ひがしとみおか","lat":36.260816,"lng":138.901898,"prefecture":10,"lines":[99327],"attr":"eco","postal_code":"370-2316","address":"富岡市富岡１９５５-２","next":[9932716,1133704,9932713,9932711],"voronoi":{"lat":36.298454,"lng":138.895535,"delta_lat":[0,-124923,-5737,126121],"delta_lng":[0,4426,1173,20186]},"impl":true},
    {"code":1133708,"left":100903,"right":1133704,"id":"d60a13","name":"横川(群馬)","original_name":"横川","name_kana":"よこかわ","lat":36.336009,"lng":138.737926,"prefecture":10,"lines":[11337],"attr":"cool","postal_code":"379-0301","address":"安中市松井田町横川","next":[1133707,100902,1133512,9932719,1133509,1133510,9932720,100903],"voronoi":{"lat":36.241256,"lng":138.679941,"delta_lat":[0,18494,5694,117648,58620,1351,4807,-7154],"delta_lng":[0,47616,9956,48127,-13878,-4549,-22474,-51453]},"impl":true},
    {"code":100903,"left":9940303,"right":9940302,"id":"796e41","name":"軽井沢","name_kana":"かるいざわ","lat":36.342889,"lng":138.635096,"prefecture":20,"lines":[1009,99403],"attr":"cool","postal_code":"389-0102","address":"北佐久郡軽井沢町大字軽井沢１１７８番地","next":[9940302,9940303,1140119,9932720,1133512,1133513,1133708],"voronoi":{"lat":36.241256,"lng":138.679941,"delta_lat":[0,-46906,32635,32297,186620,-4743,-443],"delta_lng":[0,-40971,-31349,-3103,20851,66630,1287]},"impl":true},
    {"code":9940303,"left":9940304,"id":"9f5408","name":"信濃追分","name_kana":"しなのおいわけ","lat":36.335538,"lng":138.558582,"prefecture":20,"lines":[99403],"attr":"cool","postal_code":"389-0115","address":"北佐久郡軽井沢町追分１０９２番地","next":[100903,9940304,1140120,1140119,1133519,9940302],"voronoi":{"lat":36.226985,"lng":138.607621,"delta_lat":[0,4899,27149,158927,7154,-165832],"delta_lng":[0,-9482,-44198,-50210,43032,57755]},"impl":true},
    {"code":9940304,"id":"af7cc8","name":"御代田","name_kana":"みよた","lat":36.318986,"lng":138.50619,"prefecture":20,"lines":[99403],"attr":"cool","postal_code":"389-0206","address":"北佐久郡御代田町大字御代田２４２２番地","next":[1140124,1140120,9940305,1140131,9940303,1133519,1140123],"voronoi":{"lat":36.259034,"lng":138.553941,"delta_lat":[0,158927,3625,-49293,-70346,-27603,-14702],"delta_lng":[0,-50210,-30986,-4305,13971,36374,31895]},"impl":true},
    {"code":9940302,"id":"4a710a","name":"中軽井沢","name_kana":"なかかるいざわ","lat":36.347576,"lng":138.593147,"prefecture":20,"lines":[99403],"attr":"cool","postal_code":"389-0111","address":"北佐久郡軽井沢町長倉３０９１番地","next":[100903,1133518,1133519,1133513,1133517,1133516,9940303],"voronoi":{"lat":36.445903,"lng":138.625369,"delta_lat":[0,1757,222,-774,-536,-21457,-165832],"delta_lng":[0,-6190,-3651,-10859,-2367,-55539,57755]},"impl":true},
    {"code":1133704,"left":1133706,"right":100902,"id":"b857ae","name":"安中","name_kana":"あんなか","lat":36.331657,"lng":138.914368,"prefecture":10,"lines":[11337],"attr":"eco","postal_code":"379-0115","address":"安中市中宿","next":[1133705,9932713,1133703,9932712,9932711,100902],"voronoi":{"lat":36.330494,"lng":138.87406,"delta_lat":[0,-30148,-1891,-4539,3944,134604],"delta_lng":[0,15494,5980,25785,19693,-18704]},"impl":true},
    {"code":1133706,"left":1133707,"id":"c14674","name":"松井田","name_kana":"まついだ","lat":36.309151,"lng":138.797705,"prefecture":10,"lines":[11337],"attr":"heat","postal_code":"379-0225","address":"安中市松井田町八城","next":[100902,9932718,1133707,9932719,1133705],"voronoi":{"lat":36.276495,"lng":138.81803,"delta_lat":[0,-7026,-234,76700,-15618],"delta_lng":[0,-30871,-22166,48093,16086]},"impl":true},
    {"code":1133707,"id":"f13f2c","name":"西松井田","name_kana":"にしまついだ","lat":36.316067,"lng":138.786675,"prefecture":10,"lines":[11337],"attr":"cool","postal_code":"379-0221","address":"安中市松井田町新堀","next":[1133708,9932719,1133706,100902],"voronoi":{"lat":36.269235,"lng":138.764994,"delta_lat":[0,-3791,117648,-37157],"delta_lng":[0,-27480,48127,27446]},"impl":true},
    {"code":100902,"id":"b49f96","name":"安中榛名","name_kana":"あんなかはるな","lat":36.362398,"lng":138.849399,"prefecture":10,"lines":[1009],"attr":"heat","postal_code":"379-0102","address":"群馬県安中市東上秋間","next":[1133505,1133708,1133706,1134206,1133501,1133502,1133703,1133504,1133503,1133509,1133704,1133705,1133707],"voronoi":{"lat":36.383092,"lng":138.78564,"delta_lat":[0,58620,22857,-8197,-6923,-4642,-279,-3623,-7912,-530,-101970,-176,15618],"delta_lng":[0,-13878,88144,28737,18079,7690,368,2928,4722,-122,-48248,-44888,-16086]},"impl":true},
    {"code":1131815,"left":9932704,"right":9932721,"id":"c3ad8b","name":"倉賀野","name_kana":"くらがの","lat":36.300216,"lng":139.049474,"prefecture":10,"lines":[11318,11323],"attr":"eco","postal_code":"370-1201","address":"高崎市倉賀野町","next":[9932704,9932705,1131814,9932721,1134106,1134102,1134105,1134104,1134103,100506],"voronoi":{"lat":36.318062,"lng":139.034969,"delta_lat":[0,-18489,-9383,-9095,48214,7956,2919,-203,-4656,-6448],"delta_lng":[0,-1282,7537,18093,27333,-9317,-10394,-6256,-10163,-9135]},"impl":true},
    {"code":9932704,"left":9932707,"right":9932705,"id":"e07d93","name":"高崎商科大学前","name_kana":"たかさきしょうかだいがくまえ","lat":36.284295,"lng":139.029654,"prefecture":10,"lines":[99327],"attr":"heat","postal_code":"370-1214","address":"高崎市根小屋町８８６-２","next":[9932703,1131815,9932721,9932707,9932705,9932706],"voronoi":{"lat":36.2751,"lng":139.01697,"delta_lat":[0,427,22364,1681,-9383,-12550],"delta_lng":[0,-480,14557,2640,7537,-9970]},"impl":true},
    {"code":9932707,"left":9932708,"right":9932703,"id":"ffded2","name":"馬庭","name_kana":"まにわ","lat":36.261428,"lng":139.009321,"prefecture":10,"lines":[99327],"attr":"eco","postal_code":"370-2104","address":"群馬県高崎市吉井町馬庭191-1","next":[9932706,9932704,9932708,1131813,9932703,1131812],"voronoi":{"lat":36.160694,"lng":139.018097,"delta_lat":[0,123152,-8319,-427,-57199,-14995],"delta_lng":[0,-26665,25058,480,23693,-2246]},"impl":true},
    {"code":9932708,"left":9932709,"id":"3bcbf2","name":"吉井(群馬)","original_name":"吉井","name_kana":"よしい","lat":36.256036,"lng":138.984418,"prefecture":10,"lines":[99327],"attr":"eco","postal_code":"370-2132","address":"多野郡吉井町吉井２１９","next":[9932707,9932703,9930621,9930625,9932709,1131812,9932702],"voronoi":{"lat":36.283847,"lng":138.991432,"delta_lat":[0,-123152,-3888,-22686,-8026,169931,-4527],"delta_lng":[0,26665,-1298,-25920,-13727,-2599,9157]},"impl":true},
    {"code":9932709,"id":"c3fe27","name":"西吉井","name_kana":"にしよしい","lat":36.255753,"lng":138.965914,"prefecture":10,"lines":[99327],"attr":"eco","postal_code":"370-2127","address":"多野郡吉井町長根１３６７-３４","next":[9930625,1133703,9932710,9932708,9932702],"voronoi":{"lat":36.297805,"lng":138.972376,"delta_lat":[0,-1317,-184899,14505,169931],"delta_lng":[0,-12719,-3701,21195,-2599]},"impl":true},
    {"code":9932703,"id":"0da76a","name":"根小屋","name_kana":"ねごや","lat":36.291114,"lng":139.019177,"prefecture":10,"lines":[99327],"attr":"heat","postal_code":"370-1214","address":"高崎市根小屋町２０４０-３","next":[9932704,9932721,9932702,9932708,9932707],"voronoi":{"lat":36.297892,"lng":139.031046,"delta_lat":[0,-3540,-2853,-7652,-8319],"delta_lng":[0,-38457,-8880,7722,25058]},"impl":true},
    {"code":9932705,"left":1132322,"right":1131814,"id":"713363","name":"山名","name_kana":"やまな","lat":36.277587,"lng":139.038098,"prefecture":10,"lines":[99327],"attr":"heat","postal_code":"370-1213","address":"高崎市山名町１５１５-３","next":[1131814,1131815,9932704,1131813,9932706],"voronoi":{"lat":36.27764,"lng":139.031253,"delta_lat":[0,12550,-9095,-16383,-9045],"delta_lng":[0,9970,18093,1874,-5444]},"impl":true},
    {"code":1132322,"left":9932706,"id":"a13d9b","name":"新町(群馬)","original_name":"新町","name_kana":"しんまち","lat":36.272984,"lng":139.105457,"prefecture":10,"lines":[11323],"attr":"eco","postal_code":"370-1301","address":"高崎市新町","next":[1131813,1131814,1132321,1134107,1131812],"voronoi":{"lat":36.303967,"lng":139.145362,"delta_lat":[0,15221,-52227,-22599,-369],"delta_lng":[0,-36308,-20074,23183,6592]},"impl":true},
    {"code":9932706,"id":"59abc0","name":"西山名","name_kana":"にしやまな","lat":36.270841,"lng":139.032046,"prefecture":10,"lines":[99327],"attr":"eco","postal_code":"370-1213","address":"高崎市山名町１２６１-２","next":[9932707,9932704,9932705,1131813],"voronoi":{"lat":36.27764,"lng":139.031253,"delta_lat":[0,-2539,-57199,37765],"delta_lng":[0,-14284,23693,15084]},"impl":true},
    {"code":1131814,"id":"064db3","name":"北藤岡","name_kana":"きたふじおか","lat":36.282469,"lng":139.080779,"prefecture":10,"lines":[11318],"attr":"eco","postal_code":"375-0002","address":"藤岡市立石","next":[9932705,1132322,1131815,1134107,1131813,1134106],"voronoi":{"lat":36.329309,"lng":139.08665,"delta_lat":[0,-48214,-16383,2250,52227,4662],"delta_lng":[0,-27333,1874,27790,20074,-5692]},"impl":true},
    {"code":9932721,"left":1133702,"right":1134107,"id":"0646ba","name":"佐野のわたし","name_kana":"さののわたし","lat":36.302389,"lng":139.018139,"prefecture":10,"lines":[99327],"attr":"heat","postal_code":"370-0857","address":"群馬県高崎市上佐野町字舟橋167-3","open_date":"2014-12-22","next":[9932703,9932704,100506,9932702,1131815],"voronoi":{"lat":36.317275,"lng":139.032269,"delta_lat":[0,-22923,3540,1681,18489],"delta_lng":[0,-39679,38457,2640,1282]},"impl":true},
    {"code":1133702,"left":100506,"right":1134102,"id":"7306ec","name":"北高崎","name_kana":"きたたかさき","lat":36.338791,"lng":139.001076,"prefecture":10,"lines":[11337],"attr":"eco","postal_code":"370-0803","address":"高崎市大橋町","next":[1134102,1133703,100506,9932702,1134103],"voronoi":{"lat":36.334575,"lng":139.012673,"delta_lat":[0,-17121,-3270,74610,-25966],"delta_lng":[0,-25127,-7658,-1966,21861]},"impl":true},
    {"code":100506,"left":9932702,"id":"4505b7","name":"高崎","name_kana":"たかさき","lat":36.322239,"lng":139.012354,"prefecture":10,"lines":[1005,1009,11318,11323,11337,11341,11342,99327],"attr":"eco","postal_code":"370-0849","address":"高崎市八島町","next":[1134102,9932721,9932702,1133702,1131815],"voronoi":{"lat":36.318062,"lng":139.034969,"delta_lat":[0,-787,179,17121,-5698],"delta_lng":[0,-2700,-44723,25127,28712]},"impl":true},
    {"code":9932702,"id":"c943d9","name":"南高崎","name_kana":"みなみたかさき","lat":36.31247,"lng":139.012315,"prefecture":10,"lines":[99327],"attr":"heat","postal_code":"370-0846","address":"高崎市下和田町３-７-６","next":[1133703,9932703,9932721,100506,1133702,9932709,9932708],"voronoi":{"lat":36.296025,"lng":138.974552,"delta_lat":[0,1780,16378,3270,-179,-22923,-2853],"delta_lng":[0,-2176,7511,7658,44723,-39679,-8880]},"impl":true},
    {"code":1134102,"id":"01b56a","name":"高崎問屋町","name_kana":"たかさきとんやまち","lat":36.346097,"lng":139.017089,"prefecture":10,"lines":[11341,11342],"attr":"eco","postal_code":"370-0042","address":"高崎市貝沢町７１５番地","next":[100506,1133702,1131815,1134103],"voronoi":{"lat":36.362828,"lng":138.999782,"delta_lat":[0,-28253,-5698,6448],"delta_lng":[0,12890,28712,9135]},"impl":true},
    {"code":1134107,"left":1134108,"right":1134103,"id":"110091","name":"駒形","name_kana":"こまがた","lat":36.354145,"lng":139.139483,"prefecture":10,"lines":[11341],"attr":"heat","postal_code":"379-2121","address":"前橋市小屋原町","next":[9932806,1132321,9932810,9932807,1134106,1131814,1132322,9932809,9932811,9932808,1134108],"voronoi":{"lat":36.304255,"lng":139.148348,"delta_lat":[0,-287,15221,4662,54287,2341,865,1052,-5581,-1086,-6302],"delta_lng":[0,-2986,-36308,-5692,29822,4550,4508,9165,19467,1968,8315]},"impl":true},
    {"code":1134108,"id":"a4c7f3","name":"伊勢崎","name_kana":"いせさき","lat":36.326849,"lng":139.193704,"prefecture":10,"lines":[11341,21002],"attr":"heat","postal_code":"372-0055","address":"伊勢崎市曲輪町３丁目","next":[9932811,1132321,1134109,9932812,2100254,1134107],"voronoi":{"lat":36.370424,"lng":139.19067,"delta_lat":[0,-313,-28260,-48469,10873,65172],"delta_lng":[0,9483,18645,-52562,-17888,32809]},"impl":true},
    {"code":1134103,"id":"3e0a15","name":"井野(群馬)","original_name":"井野","name_kana":"いの","lat":36.357457,"lng":139.023247,"prefecture":10,"lines":[11341,11342],"attr":"eco","postal_code":"370-0004","address":"高崎市井野町","next":[1133703,1134205,1133702,1134102,1131815,1134104],"voronoi":{"lat":36.38818,"lng":139.016958,"delta_lat":[0,6292,-5678,-25966,-27503,4656],"delta_lng":[0,-40745,1709,21861,50737,10163]},"impl":true},
    {"code":1134206,"left":1133504,"right":9932808,"id":"688a27","name":"八木原","name_kana":"やぎはら","lat":36.463738,"lng":139.019239,"prefecture":10,"lines":[11342],"attr":"heat","postal_code":"377-0003","address":"渋川市八木原","next":[9932804,100902,1133703,1134205,1133501,9932808,9932803,1134208,9932807],"voronoi":{"lat":36.485869,"lng":139.101271,"delta_lat":[0,8499,-53463,-7912,-13666,34871,10130,607,16784],"delta_lng":[0,-42847,-140716,4722,27880,129374,10136,553,8843]},"impl":true},
    {"code":1133504,"left":1133513,"right":1133510,"id":"eec8a5","name":"小野上","name_kana":"おのがみ","lat":36.552524,"lng":138.922202,"prefecture":10,"lines":[11335],"attr":"eco","postal_code":"377-0311","address":"渋川市村上","next":[1133505,100507,1133503,100902,1134212,1133506],"voronoi":{"lat":36.622749,"lng":138.95019,"delta_lat":[0,-7718,-165581,6923,170098,3016],"delta_lng":[0,12589,-56057,-18079,43065,1371]},"impl":true},
    {"code":1133513,"left":1133517,"right":1133503,"id":"65f1fe","name":"長野原草津口","name_kana":"ながのはらくさつぐち","lat":36.5465,"lng":138.64959,"prefecture":10,"lines":[11335],"attr":"heat","postal_code":"377-1304","address":"吾妻郡長野原町大字長野原","next":[1133516,1133515,1133514,9940302,1133512,100903],"voronoi":{"lat":36.445903,"lng":138.625369,"delta_lat":[0,1757,58935,65617,17246,-148298],"delta_lng":[0,-6190,4898,22208,27509,18205]},"impl":true},
    {"code":1133517,"left":1133518,"right":1133516,"id":"79b9d9","name":"袋倉","name_kana":"ふくろぐら","lat":36.543997,"lng":138.579141,"prefecture":10,"lines":[11335],"attr":"cool","postal_code":"377-1522","address":"吾妻郡嬬恋村大字袋倉","next":[1133516,1133518,9940524,1133514,9940302],"voronoi":{"lat":36.447107,"lng":138.604669,"delta_lat":[0,209649,1252,-73103,-137024],"delta_lng":[0,-90899,1506,68196,32056]},"impl":true},
    {"code":1133518,"left":1133519,"id":"a0b743","name":"万座・鹿沢口","name_kana":"まんざ・かざわぐち","lat":36.531967,"lng":138.551395,"prefecture":10,"lines":[11335],"attr":"cool","postal_code":"377-1403","address":"吾妻郡嬬恋村大字鎌原","next":[1133519,1133517,9940302,9940524],"voronoi":{"lat":36.62158,"lng":138.459738,"delta_lat":[0,-175009,536,209649],"delta_lng":[0,142564,2367,-90899]},"impl":true},
    {"code":1133519,"id":"fa515a","name":"大前","name_kana":"おおまえ","lat":36.513696,"lng":138.528966,"prefecture":10,"lines":[11335],"attr":"cool","postal_code":"377-1512","address":"吾妻郡嬬恋村大字大前","next":[1140131,9940517,9940610,1133518,9940307,9940612,9940308,9940302,9940304,9940524,9940303,9940309,9940513],"voronoi":{"lat":36.532519,"lng":138.383003,"delta_lat":[0,-16620,-7998,-8959,-18587,-31302,-27468,-3625,7154,21457,175009,-12493,-6354],"delta_lng":[0,-8348,-2813,5570,14834,32378,48122,30986,43032,55539,-142564,-24962,-7049]},"impl":true},
    {"code":1133516,"id":"83d893","name":"羽根尾","name_kana":"はねお","lat":36.550164,"lng":138.605502,"prefecture":10,"lines":[11335],"attr":"cool","postal_code":"377-1307","address":"吾妻郡長野原町大字羽根尾","next":[1133517,1133514,1133513,1133515,9940302],"voronoi":{"lat":36.506595,"lng":138.624077,"delta_lat":[0,62195,16116,-137024,-222],"delta_lng":[0,-10010,-30595,32056,3651]},"impl":true},
    {"code":1133503,"left":1133501,"right":1133509,"id":"7cd4d1","name":"祖母島","name_kana":"うばしま","lat":36.540729,"lng":138.957042,"prefecture":10,"lines":[11335],"attr":"eco","postal_code":"377-0024","address":"渋川市祖母島","next":[1134211,1133504,1134210,100902,1134209,1133502,1134212],"voronoi":{"lat":36.604425,"lng":138.979827,"delta_lat":[0,-16728,-7344,-135546,4642,165581,-1724],"delta_lng":[0,11372,1741,-78527,-7690,56057,5559]},"impl":true},
    {"code":1133501,"left":1133502,"id":"a9cdd0","name":"渋川","name_kana":"しぶかわ","lat":36.491251,"lng":139.008786,"prefecture":10,"lines":[11335,11342],"attr":"eco","postal_code":"377-0008","address":"渋川市渋川","next":[1134208,100902,1133502,1134206],"voronoi":{"lat":36.440906,"lng":138.917709,"delta_lat":[0,3623,77816,-27976],"delta_lng":[0,-2928,91967,51677]},"impl":true},
    {"code":1133502,"id":"4ae51e","name":"金島(群馬)","original_name":"金島","name_kana":"かなしま","lat":36.529502,"lng":138.976421,"prefecture":10,"lines":[11335],"attr":"eco","postal_code":"377-0025","address":"渋川市川島","next":[1134209,1133501,100902,1134208,1133503],"voronoi":{"lat":36.563588,"lng":139.000911,"delta_lat":[0,-41243,-77816,279,135546],"delta_lng":[0,5837,-91967,-368,78527]},"impl":true},
    {"code":1133509,"id":"08dc14","name":"郷原","name_kana":"ごうばら","lat":36.54876,"lng":138.801073,"prefecture":10,"lines":[11335],"attr":"eco","postal_code":"377-0811","address":"吾妻郡東吾妻町郷原","next":[1133708,1133505,1133508,100902,1133506,1133510],"voronoi":{"lat":36.443063,"lng":138.767213,"delta_lat":[0,-1351,22857,38906,16901,54178],"delta_lng":[0,4549,88144,-3054,-4565,-53981]},"impl":true},
    {"code":1133510,"left":1133511,"right":1133508,"id":"c818f2","name":"矢倉(群馬)","original_name":"矢倉","name_kana":"やぐら","lat":36.552731,"lng":138.78428,"prefecture":10,"lines":[11335],"attr":"heat","postal_code":"377-0816","address":"吾妻郡東吾妻町矢倉","next":[1133508,1133512,1133511,1133708,1133509],"voronoi":{"lat":36.443063,"lng":138.767213,"delta_lat":[0,4807,47924,99818,-21058],"delta_lng":[0,-22474,562,42975,10030]},"impl":true},
    {"code":1133511,"left":1133512,"right":1133514,"id":"3d86a3","name":"岩島","name_kana":"いわしま","lat":36.563239,"lng":138.759873,"prefecture":10,"lines":[11335],"attr":"heat","postal_code":"377-0815","address":"吾妻郡東吾妻町岩下","next":[1133514,1134217,1133507,1133510,1133508,1133512],"voronoi":{"lat":36.683289,"lng":138.71079,"delta_lat":[0,64866,-14479,-32919,-105144,-99818],"delta_lng":[0,11099,44480,8064,13844,-42975]},"impl":true},
    {"code":1133512,"left":1133515,"id":"c64820","name":"川原湯温泉","name_kana":"かわらゆおんせん","lat":36.55363,"lng":138.70767,"prefecture":10,"lines":[11335],"attr":"heat","postal_code":"377-1302","address":"吾妻郡長野原町大字川原湯","next":[1133708,1133514,100903,1133513,1133510,1133511],"voronoi":{"lat":36.683289,"lng":138.71079,"delta_lat":[0,-93831,-148298,-443,7154,47924],"delta_lng":[0,-36995,18205,1287,51453,562]},"impl":true},
    {"code":1133515,"id":"a079e9","name":"群馬大津","name_kana":"ぐんまおおつ","lat":36.553792,"lng":138.628045,"prefecture":10,"lines":[11335],"attr":"heat","postal_code":"377-1308","address":"吾妻郡長野原町大字大津","next":[1133514,1133513,1133516],"voronoi":{"lat":36.56879,"lng":138.614068,"delta_lat":[0,3422,-65617],"delta_lng":[0,32218,-22208]},"impl":true},
    {"code":1133514,"id":"ac8579","name":"太子","name_kana":"おおし","closed":true,"lat":36.586389,"lng":138.624583,"prefecture":10,"lines":[11335],"postal_code":"377-1703","address":"群馬県吾妻郡中之条町大字太子２３５−１","open_date":"1952-10-01","closed_date":"1971-05-01","next":[1133516,1133515,1140720,9940524,1133511,100508,1133512,1133513,1133517,1140721,1134217],"voronoi":{"lat":36.777146,"lng":138.686529,"delta_lat":[0,17027,-2589,-3959,-129616,-73103,-16116,3422,17246,93831,64866],"delta_lng":[0,-32221,-22089,-20974,-95969,68196,30595,32218,27509,36995,11099]},"impl":false},
    {"code":1133508,"left":1133505,"right":1133507,"id":"1f57cc","name":"群馬原町","name_kana":"ぐんまはらまち","lat":36.571694,"lng":138.824091,"prefecture":10,"lines":[11335],"attr":"eco","postal_code":"377-0801","address":"吾妻郡東吾妻町原町","next":[1133510,1133506,1133509,1133507,1133511],"voronoi":{"lat":36.574555,"lng":138.798307,"delta_lat":[0,-54178,28639,151741,-105144],"delta_lng":[0,53981,497,-78352,13844]},"impl":true},
    {"code":1133505,"left":1133506,"id":"9e73d8","name":"小野上温泉","name_kana":"おのがみおんせん","lat":36.556909,"lng":138.904882,"prefecture":10,"lines":[11335],"attr":"eco","postal_code":"377-0311","address":"渋川市村上字塩川","next":[100902,1133504,1133509,1133506],"voronoi":{"lat":36.503476,"lng":138.856852,"delta_lat":[0,-38906,-8197,170098],"delta_lng":[0,3054,28737,43065]},"impl":true},
    {"code":1133506,"id":"dcd64c","name":"市城","name_kana":"いちしろ","lat":36.570685,"lng":138.882247,"prefecture":10,"lines":[11335],"attr":"eco","postal_code":"377-0421","address":"吾妻郡中之条町大字市城","next":[1133508,1133505,1133504,1133507,1133509,100507],"voronoi":{"lat":36.62647,"lng":138.931708,"delta_lat":[0,-122995,16901,28639,104434,-23963],"delta_lng":[0,-74856,-4565,497,49506,30789]},"impl":true},
    {"code":1133507,"id":"205c7d","name":"中之条","name_kana":"なかのじょう","lat":36.585541,"lng":138.850908,"prefecture":10,"lines":[11335],"attr":"eco","postal_code":"377-0423","address":"吾妻郡中之条町伊勢町","next":[100507,1133511,1134214,1133508,1133506,1134217],"voronoi":{"lat":36.722552,"lng":138.843569,"delta_lat":[0,-69102,-104434,151741,32919,-2281],"delta_lng":[0,58722,-49506,-78352,-8064,62719]},"impl":true},
    {"code":9932808,"left":9932803,"right":9932809,"id":"812c5e","name":"江木","name_kana":"えぎ","lat":36.407209,"lng":139.133391,"prefecture":10,"lines":[99328],"attr":"eco","postal_code":"371-0002","address":"前橋市江木町１２２３-３","next":[1134208,1134206,9932807,1134107,9932809],"voronoi":{"lat":36.381344,"lng":139.142243,"delta_lat":[0,100376,4150,16400,-119874],"delta_lng":[0,-43026,2055,21499,28637]},"impl":true},
    {"code":9932803,"left":9932801,"right":9932806,"id":"0df6a9","name":"三俣","name_kana":"みつまた","lat":36.393748,"lng":139.089192,"prefecture":10,"lines":[99328],"attr":"heat","postal_code":"371-0018","address":"前橋市三俣町１-３２-５","next":[9932801,9932802,9932804,1134106,1134206,1134205],"voronoi":{"lat":36.437067,"lng":139.073121,"delta_lat":[0,-17946,-44515,1978,87744,-10130],"delta_lng":[0,3662,13993,2249,-3205,-10136]},"impl":true},
    {"code":9932801,"left":1134105,"right":9932802,"id":"54f424","name":"中央前橋","name_kana":"ちゅうおうまえばし","lat":36.390915,"lng":139.07531,"prefecture":10,"lines":[99328],"attr":"heat","postal_code":"371-0016","address":"前橋市城東町４-１-１","next":[1134105,9932803,9932802,1134205,1134104],"voronoi":{"lat":36.385701,"lng":139.078491,"delta_lat":[0,33421,17946,-34204,-10387],"delta_lng":[0,-1707,-3662,-19574,4383]},"impl":true},
    {"code":1134105,"left":1134104,"id":"368361","name":"前橋","name_kana":"まえばし","lat":36.383399,"lng":139.072833,"prefecture":10,"lines":[11341],"attr":"eco","postal_code":"371-0024","address":"前橋市表町２丁目","next":[9932801,1134106,1131815,1134104,9932802],"voronoi":{"lat":36.337264,"lng":139.077333,"delta_lat":[0,2919,52293,-6776,-12192],"delta_lng":[0,-10394,-9008,20560,11489]},"impl":true},
    {"code":1134104,"id":"e924d6","name":"新前橋","name_kana":"しんまえばし","lat":36.378936,"lng":139.046924,"prefecture":10,"lines":[11341,11342],"attr":"eco","postal_code":"371-0844","address":"前橋市古市町","next":[1134205,1134105,1131815,9932801,1134103],"voronoi":{"lat":36.38818,"lng":139.016958,"delta_lat":[0,14684,-10387,-52293,-203],"delta_lng":[0,36590,4383,9008,-6256]},"impl":true},
    {"code":9932802,"id":"f028a7","name":"城東","name_kana":"じょうとう","lat":36.391212,"lng":139.081124,"prefecture":10,"lines":[99328],"attr":"heat","postal_code":"371-0016","address":"前橋市城東町４-２３-１","next":[9932803,1134106,9932801,1134105],"voronoi":{"lat":36.385701,"lng":139.078491,"delta_lat":[0,33421,-44515,-1098],"delta_lng":[0,-1707,13993,-797]},"impl":true},
    {"code":9932806,"left":9932805,"right":9932807,"id":"13f219","name":"赤坂(群馬)","original_name":"赤坂","name_kana":"あかさか","lat":36.39721,"lng":139.117324,"prefecture":10,"lines":[99328],"attr":"heat","postal_code":"371-0007","address":"前橋市上泉町３４４４-３","next":[1134107,9932805,9932807,1134106],"voronoi":{"lat":36.380479,"lng":139.137734,"delta_lat":[0,53679,-50846,-5174],"delta_lng":[0,-36602,14317,17735]},"impl":true},
    {"code":9932805,"left":9932804,"id":"5a19b3","name":"上泉","name_kana":"かみいずみ","lat":36.39419,"lng":139.106598,"prefecture":10,"lines":[99328],"attr":"heat","postal_code":"371-0007","address":"前橋市上泉町２８１","next":[1134106,9932806,9932807,9932804],"voronoi":{"lat":36.383312,"lng":139.115449,"delta_lat":[0,50846,1665,-54280],"delta_lng":[0,-14317,-824,1026]},"impl":true},
    {"code":9932804,"id":"a624e5","name":"片貝","name_kana":"かたかい","lat":36.393982,"lng":139.095597,"prefecture":10,"lines":[99328],"attr":"heat","postal_code":"371-0013","address":"前橋市西片貝町１-２８０-５","next":[1134206,9932807,9932803,1134106,9932805],"voronoi":{"lat":36.376585,"lng":139.093026,"delta_lat":[0,87744,607,-29113,-54280],"delta_lng":[0,-3205,553,9935,1026]},"impl":true},
    {"code":9932807,"id":"e53d31","name":"心臓血管センター","name_kana":"しんぞうけっかんせんたー","lat":36.40559,"lng":139.129614,"prefecture":10,"lines":[99328],"attr":"heat","postal_code":"371-0004","address":"前橋市亀泉町６-２","next":[9932804,1134107,9932806,9932808,9932805,1134206],"voronoi":{"lat":36.464935,"lng":139.090374,"delta_lat":[0,-29113,-1665,-53679,865,100376],"delta_lng":[0,9935,824,36602,4508,-43026]},"impl":true},
    {"code":9932809,"left":1134209,"right":9932812,"id":"6709f8","name":"大胡","name_kana":"おおご","lat":36.412673,"lng":139.156263,"prefecture":10,"lines":[99328],"attr":"eco","postal_code":"371-0232","address":"前橋市茂木町４１-２","next":[9932810,1134209,1134107,1134208,9932808],"voronoi":{"lat":36.502269,"lng":139.12277,"delta_lat":[0,10787,10072,-146314,5581],"delta_lng":[0,11016,13173,23915,-19467]},"impl":true},
    {"code":1134209,"left":1134208,"right":1134210,"id":"79fd94","name":"津久田","name_kana":"つくだ","lat":36.561063,"lng":139.042806,"prefecture":10,"lines":[11342],"attr":"heat","postal_code":"379-1103","address":"渋川市赤城町津久田","next":[1133502,1134210,9932809,9931207,1134208,1133503,9932810],"voronoi":{"lat":36.567762,"lng":139.168181,"delta_lat":[0,19936,-7344,-16766,-50531,10072,6415],"delta_lng":[0,-176982,1741,7971,132876,13173,7157]},"impl":true},
    {"code":1134208,"left":1134205,"id":"e1b482","name":"敷島","name_kana":"しきしま","lat":36.537636,"lng":139.033897,"prefecture":10,"lines":[11342],"attr":"heat","postal_code":"379-1104","address":"渋川市赤城町敷島","next":[1133501,9932808,1133502,1134206,1134209,9932809],"voronoi":{"lat":36.563588,"lng":139.000911,"delta_lat":[0,-41243,-27976,-8499,16400,10787],"delta_lng":[0,5837,51677,42847,21499,11016]},"impl":true},
    {"code":1134205,"id":"0d6ddb","name":"群馬総社","name_kana":"ぐんまそうじゃ","lat":36.415574,"lng":139.032221,"prefecture":10,"lines":[11342],"attr":"heat","postal_code":"371-0851","address":"前橋市総社町植野","next":[1134104,1134103,1134206,9932801,9932803,1133703],"voronoi":{"lat":36.38818,"lng":139.016958,"delta_lat":[0,14684,34204,17131,-34871,-24856],"delta_lng":[0,36590,19574,6563,-129374,25902]},"impl":true},
    {"code":1134210,"id":"dfabe9","name":"岩本","name_kana":"いわもと","lat":36.602184,"lng":139.047438,"prefecture":10,"lines":[11342],"attr":"heat","postal_code":"378-0021","address":"沼田市岩本町","next":[9931208,1134211,1134209,1133503,9931207,9931209],"voronoi":{"lat":36.604425,"lng":138.979827,"delta_lat":[0,-16728,-19936,14088,58488,31485],"delta_lng":[0,11372,176982,8032,26003,9845]},"impl":true},
    {"code":9932812,"left":9932811,"right":9932810,"id":"ad4f28","name":"新屋(群馬)","original_name":"新屋","name_kana":"あらや","lat":36.413704,"lng":139.19657,"prefecture":10,"lines":[99328],"attr":"eco","postal_code":"371-0206","address":"前橋市粕川町新屋２３３-２","next":[1134109,1134108,9932811,9932813],"voronoi":{"lat":36.476604,"lng":139.190466,"delta_lat":[0,-106181,-313,9506],"delta_lng":[0,204,9483,11326]},"impl":true},
    {"code":9932811,"id":"7ed930","name":"北原","name_kana":"きたはら","lat":36.413681,"lng":139.184604,"prefecture":10,"lines":[99328],"attr":"eco","postal_code":"371-0216","address":"前橋市粕川町込皆戸３８-３","next":[9931206,1134108,9932813,9932812,1134107,9932810],"voronoi":{"lat":36.482574,"lng":139.189755,"delta_lat":[0,-5969,-106181,-997,6302,106948],"delta_lng":[0,711,204,-9513,-8315,16833]},"impl":true},
    {"code":9932810,"id":"d47864","name":"樋越","name_kana":"ひごし","lat":36.415459,"lng":139.173308,"prefecture":10,"lines":[99328],"attr":"eco","postal_code":"371-0221","address":"前橋市樋越町１９１-４","next":[9931207,9932809,1134107,1134209,9932811,9931206],"voronoi":{"lat":36.375729,"lng":139.172842,"delta_lat":[0,1086,146314,6415,-43763,-3104],"delta_lng":[0,-1968,-23915,7157,33551,2008]},"impl":true}
  ]
}