{
  "name":"segment22",
  "root":1161639,
  "east":134.825246,
  "west":-180.0,
  "south":35.195467,
  "north":90.0,
  "station_size":155,
  "node_list":[
    {"code":1161639,"left":1161642,"right":1170402,"id":"22c99d","name":"淀江","name_kana":"よどえ","lat":35.457017,"lng":133.429788,"prefecture":31,"lines":[11616],"attr":"heat","postal_code":"689-3402","address":"米子市淀江町淀江","next":[1170329,1161638,1170505,1170506,1170330,1161640],"voronoi":{"lat":35.40497,"lng":133.478652,"delta_lat":[0,1621,137304,-3809,-35527,-82382],"delta_lng":[0,31668,-142903,8,3615,48583]},"impl":true},
    {"code":1161642,"left":9970207,"right":1170103,"id":"0bd38f","name":"米子","name_kana":"よなご","lat":35.42327,"lng":133.33657,"prefecture":31,"lines":[11616,11701,11703,11705],"attr":"heat","postal_code":"683-0036","address":"米子市弥生町","next":[1170504,1170503,1170330,1170502,1170505,1170324,1170102,1161641],"voronoi":{"lat":35.308258,"lng":133.325187,"delta_lat":[0,-788,108071,9750,3701,-43,-4079,-38111],"delta_lng":[0,-34486,6607,16533,11688,8501,11252,18601]},"impl":true},
    {"code":9970207,"left":9970201,"right":1170604,"id":"604cac","name":"美談","name_kana":"みだみ","lat":35.412572,"lng":132.798006,"prefecture":32,"lines":[99702],"attr":"eco","postal_code":"691-0013","address":"出雲市美談町５１４-６","next":[9970208,9970302,9970206,1170112],"voronoi":{"lat":35.397569,"lng":132.801004,"delta_lat":[0,80053,7155,-82158],"delta_lng":[0,-61082,-3052,79340]},"impl":true},
    {"code":9970201,"left":1170117,"right":9970202,"id":"d091f4","name":"電鉄出雲市","name_kana":"でんてついずもし","lat":35.36113,"lng":132.75777,"prefecture":32,"lines":[99702],"attr":"eco","postal_code":"693-0001","address":"出雲市今市町１２５９-３８","next":[9970202,1170113,9970302],"voronoi":{"lat":35.325964,"lng":132.769314,"delta_lat":[0,49839,2512],"delta_lng":[0,-17356,6694]},"impl":true},
    {"code":1170117,"left":1170119,"right":1170114,"id":"a4022e","name":"小田(島根)","original_name":"小田","name_kana":"おだ","lat":35.28474,"lng":132.630215,"prefecture":32,"lines":[11701],"attr":"eco","postal_code":"699-0902","address":"出雲市多伎町多岐","next":[9970305,1170716,1170718,1170116,1170118],"voronoi":{"lat":35.376819,"lng":132.587263,"delta_lat":[0,-19208,-184382,-1549,2768],"delta_lng":[0,36362,105941,-78641,-15756]},"impl":true},
    {"code":1170119,"left":1170120,"right":1170118,"id":"b0741c","name":"波根","name_kana":"はね","lat":35.240137,"lng":132.526076,"prefecture":32,"lines":[11701],"attr":"eco","postal_code":"699-2211","address":"大田市波根町中浜","next":[1170716,1170120,9970305,1170121,1170118],"voronoi":{"lat":35.519139,"lng":132.414822,"delta_lat":[0,193679,-507202,-37373,5778],"delta_lng":[0,-183666,303420,54904,14495]},"impl":true},
    {"code":1170120,"left":1170121,"id":"056dc6","name":"久手","name_kana":"くて","lat":35.22943,"lng":132.508178,"prefecture":32,"lines":[11701],"attr":"eco","postal_code":"694-0051","address":"大田市久手町波根西","next":[1170122,9970305,1170119,1170123,1170121],"voronoi":{"lat":35.712818,"lng":132.231156,"delta_lat":[0,81333,-534263,-37225,-17047],"delta_lng":[0,-74287,291112,31478,55117]},"impl":true},
    {"code":1170121,"id":"e6f0b2","name":"大田市","name_kana":"おおだし","lat":35.200864,"lng":132.499343,"prefecture":32,"lines":[11701],"attr":"eco","postal_code":"694-0064","address":"大田市大田町大田","next":[1170714,1170716,1170120,1170119,1170122],"voronoi":{"lat":35.114804,"lng":132.51615,"delta_lat":[0,53439,37373,17047,-114912],"delta_lng":[0,73330,-54904,-55117,19796]},"impl":true},
    {"code":1170118,"id":"6ffc82","name":"田儀","name_kana":"たぎ","lat":35.275256,"lng":132.590152,"prefecture":32,"lines":[11701],"attr":"eco","postal_code":"699-0904","address":"出雲市多伎町口田儀","next":[1170716,9970305,1170119,1170117],"voronoi":{"lat":35.376819,"lng":132.587263,"delta_lat":[0,142320,-345118,427],"delta_lng":[0,-172442,189153,31195]},"impl":true},
    {"code":1170114,"left":1170115,"right":1170113,"id":"1c6da8","name":"西出雲","name_kana":"にしいずも","lat":35.334871,"lng":132.721897,"prefecture":32,"lines":[11701],"attr":"eco","postal_code":"693-0033","address":"出雲市知井宮町","next":[9970303,1170115,9970202,1170113,9970304,1170607],"voronoi":{"lat":35.187286,"lng":132.783429,"delta_lat":[0,170559,4709,-807,-62207,-38960],"delta_lng":[0,-85209,18823,11749,46398,24608]},"impl":true},
    {"code":1170115,"left":1170116,"id":"50fdfc","name":"出雲神西","name_kana":"いずもじんざい","lat":35.325116,"lng":132.702371,"prefecture":32,"lines":[11701],"attr":"eco","postal_code":"699-0823","address":"出雲市東神西町羽根板","next":[1170114,1170718,9970305,1170607,9970304,1170116],"voronoi":{"lat":35.354808,"lng":132.674877,"delta_lat":[0,3646,-609,-170559,-23960,1670],"delta_lng":[0,16737,6606,85209,-3656,-6593]},"impl":true},
    {"code":1170116,"id":"f3c692","name":"江南(島根)","original_name":"江南","name_kana":"こうなん","lat":35.31522,"lng":132.683263,"prefecture":32,"lines":[11701],"attr":"eco","postal_code":"699-0813","address":"出雲市湖陵町三部","next":[9970305,1170718,1170117,1170115],"voronoi":{"lat":35.173229,"lng":132.729567,"delta_lat":[0,184382,-2804,-189812],"delta_lng":[0,-105941,51252,98303]},"impl":true},
    {"code":1170113,"id":"ff0dfa","name":"出雲市","name_kana":"いずもし","lat":35.360694,"lng":132.756518,"prefecture":32,"lines":[11701],"attr":"eco","postal_code":"693-0001","address":"出雲市今市町","next":[9970302,1170114,9970303,9970202,9970201],"voronoi":{"lat":35.29954,"lng":132.775191,"delta_lat":[0,62207,9278,4778,-49839],"delta_lng":[0,-46398,8598,14568,17356]},"impl":true},
    {"code":9970202,"left":9970302,"right":9970205,"id":"dda19f","name":"出雲科学館パークタウン前","name_kana":"いずもかがくかんぱーくたうんまえ","lat":35.362844,"lng":132.766186,"prefecture":32,"lines":[99702],"attr":"eco","postal_code":"693-0001","address":"出雲市今市町１９０５-４","next":[1170607,1170114,9970302,9970201,1170113,9970203,9970204],"voronoi":{"lat":35.378469,"lng":132.758873,"delta_lat":[0,-154,-52351,-26424,-38960,40931,76351],"delta_lng":[0,-221,10662,5876,24608,20560,-59323]},"impl":true},
    {"code":9970302,"left":9970303,"right":9970305,"id":"38aad3","name":"高浜(島根)","original_name":"高浜","name_kana":"たかはま","lat":35.390677,"lng":132.746684,"prefecture":32,"lines":[99703],"attr":"heat","postal_code":"693-0064","address":"出雲市里方町７９３-３","next":[1170113,9970202,9970204,9970208,9970205,9970206,9970207,9970303,9970201],"voronoi":{"lat":35.378469,"lng":132.758873,"delta_lat":[0,19313,32407,47434,7155,15535,-129288,4778,2512],"delta_lng":[0,1944,-4852,-16043,-3052,-7865,8385,14568,6694]},"impl":true},
    {"code":9970303,"left":9970304,"id":"1a4cc9","name":"遙堪","name_kana":"ようかん","lat":35.389312,"lng":132.725637,"prefecture":32,"lines":[99703],"attr":"heat","postal_code":"693-0057","address":"島根県出雲市常松町","next":[1170114,9970305,1170113,9970208,9970304,9970302],"voronoi":{"lat":35.500313,"lng":132.729006,"delta_lat":[0,22556,-33920,-126395,-807,9278],"delta_lng":[0,-8840,-3501,379,11749,8598]},"impl":true},
    {"code":9970304,"id":"fe044a","name":"浜山公園北口","name_kana":"はまやまこうえんきたぐち","lat":35.38926,"lng":132.70829,"prefecture":32,"lines":[99703],"attr":"eco","postal_code":"699-0732","address":"出雲市大社町入南","next":[1170115,9970303,9970305,1170114],"voronoi":{"lat":35.488949,"lng":132.716665,"delta_lat":[0,-130495,-609,4709],"delta_lng":[0,-25050,6606,18823]},"impl":true},
    {"code":9970305,"id":"1921d4","name":"出雲大社前","name_kana":"いずもたいしゃまえ","lat":35.393245,"lng":132.687531,"prefecture":32,"lines":[99703],"attr":"eco","postal_code":"699-0711","address":"出雲市大社町杵築南","next":[1170117,1170222,9970303,9970213,9970210,1170115,1170120,1170118,1170119,9970208,1170116,1011011,9970209,1170123,1170223,9970304],"voronoi":{"lat":35.522869,"lng":132.720166,"delta_lat":[0,72611,167517,319736,10526176,10261298,-11843798,-5026241,-4206016,-81333,-193679,-142320,-19208,-2804,3646,130495],"delta_lng":[0,-16980,-48066,-108851,-3846361,-10103733,7110115,3031550,3419029,74287,183666,172442,36362,51252,16737,25050]},"impl":true},
    {"code":9970205,"left":9970203,"right":9970206,"id":"edd354","name":"川跡","name_kana":"かわと","lat":35.395127,"lng":132.776411,"prefecture":32,"lines":[99702,99703],"attr":"eco","postal_code":"693-0014","address":"出雲市武志町１０２７-１","next":[9970204,9970302,1170112,9970206],"voronoi":{"lat":35.430189,"lng":132.755966,"delta_lat":[0,-32407,-13065,3635],"delta_lng":[0,4852,29453,1327]},"impl":true},
    {"code":9970203,"left":9970204,"id":"838205","name":"大津町","name_kana":"おおつまち","lat":35.36916,"lng":132.774315,"prefecture":32,"lines":[99702],"attr":"eco","postal_code":"693-0011","address":"出雲市大津町１３９８-６","next":[9970204,9970202,1170112,1170607],"voronoi":{"lat":35.30151,"lng":132.820359,"delta_lat":[0,76351,1614,-74572],"delta_lng":[0,-59323,28586,32719]},"impl":true},
    {"code":9970204,"id":"d09203","name":"武志","name_kana":"たけし","lat":35.388003,"lng":132.773251,"prefecture":32,"lines":[99702],"attr":"eco","postal_code":"693-0014","address":"出雲市武志町４２-２","next":[9970302,9970205,1170112,9970203,9970202],"voronoi":{"lat":35.378469,"lng":132.758873,"delta_lat":[0,19313,-13065,-5241,-1614],"delta_lng":[0,1944,29453,-649,-28586]},"impl":true},
    {"code":9970206,"id":"50c616","name":"大寺","name_kana":"おおてら","lat":35.404423,"lng":132.787326,"prefecture":32,"lines":[99702],"attr":"eco","postal_code":"693-0074","address":"出雲市東林木町３０２-５","next":[9970302,1170112,9970205,9970207],"voronoi":{"lat":35.477622,"lng":132.739923,"delta_lat":[0,-47434,-41837,9218],"delta_lng":[0,16043,35632,9407]},"impl":true},
    {"code":1170604,"left":1170609,"right":1170603,"id":"eb194b","name":"幡屋","name_kana":"はたや","lat":35.334879,"lng":132.939339,"prefecture":32,"lines":[11706],"attr":"cool","postal_code":"699-1232","address":"雲南市大東町仁和寺","next":[1170605,1170602,1170603,1170109,1170606],"voronoi":{"lat":35.37421,"lng":132.970425,"delta_lat":[0,652,-16316,-31826,-8862],"delta_lng":[0,-4524,-34856,-10188,21801]},"impl":true},
    {"code":1170609,"left":1170606,"right":1170325,"id":"53ea9f","name":"下久野","name_kana":"しもくの","lat":35.264811,"lng":132.991949,"prefecture":32,"lines":[11706],"attr":"eco","postal_code":"699-1212","address":"雲南市大東町下久野","next":[1170108,1170104,1170107,1170608,1170605,1170612,1170610],"voronoi":{"lat":35.23544,"lng":132.954847,"delta_lat":[0,54328,51394,-1552,-3232,-19225,-59182],"delta_lng":[0,10432,92501,12972,10324,19941,-57009]},"impl":true},
    {"code":1170606,"left":1170608,"right":1170605,"id":"62abea","name":"南大東","name_kana":"みなみだいとう","lat":35.307981,"lng":132.928405,"prefecture":32,"lines":[11706],"attr":"cool","postal_code":"699-1214","address":"雲南市大東町上佐世","next":[1170607,1170603,1170605,1170608,1170604],"voronoi":{"lat":35.326721,"lng":132.920856,"delta_lat":[0,-7311,-28063,3284,23228],"delta_lng":[0,-14786,14097,36235,-13745]},"impl":true},
    {"code":1170608,"left":1170607,"id":"84eef5","name":"日登","name_kana":"ひのぼり","lat":35.276464,"lng":132.931261,"prefecture":32,"lines":[11706],"attr":"cool","postal_code":"699-1322","address":"雲南市木次町寺領","next":[1170605,1170607,1170609,1170718,1170606,1170611,1170610],"voronoi":{"lat":35.189242,"lng":132.922434,"delta_lat":[0,-88825,22407,168522,3284,-4863,-54328],"delta_lng":[0,-90261,-16513,104508,36235,8876,-10432]},"impl":true},
    {"code":1170607,"id":"6bbb19","name":"木次","name_kana":"きすき","lat":35.294669,"lng":132.901905,"prefecture":32,"lines":[11706],"attr":"cool","postal_code":"699-1311","address":"雲南市木次町里方","next":[9970202,1170603,1170606,1170112,1170115,1170608,9970203,1170114,1170718],"voronoi":{"lat":35.163326,"lng":132.779773,"delta_lat":[0,23960,73294,40931,3393,25016,-10510,-28063,-168522],"delta_lng":[0,3656,16369,20560,1982,23626,60104,14097,-104508]},"impl":true},
    {"code":1170605,"id":"b323b6","name":"出雲大東","name_kana":"いずもだいとう","lat":35.325597,"lng":132.958176,"prefecture":32,"lines":[11706],"attr":"cool","postal_code":"699-1221","address":"雲南市大東町飯田","next":[1170604,1170608,1170108,1170606,1170609,1170109],"voronoi":{"lat":35.341162,"lng":133.057779,"delta_lat":[0,-51394,4863,23228,56352,1347],"delta_lng":[0,-92501,-8876,-13745,27767,19849]},"impl":true},
    {"code":1170325,"left":1170612,"right":1170610,"id":"eeab99","name":"黒坂","name_kana":"くろさか","lat":35.206893,"lng":133.383674,"prefecture":31,"lines":[11703],"attr":"eco","postal_code":"689-5131","address":"日野郡日野町黒坂","next":[1170330,1170326,1170324,1170322,1170329,1170321],"voronoi":{"lat":35.137178,"lng":133.433169,"delta_lat":[0,19542,149953,-39,-15875,-157884],"delta_lng":[0,-56856,-46593,276,43404,93575]},"impl":true},
    {"code":1170612,"left":1170611,"id":"5238ab","name":"亀嵩","name_kana":"かめだけ","lat":35.206204,"lng":133.05279,"prefecture":32,"lines":[11706],"attr":"eco","postal_code":"699-1702","address":"仁多郡奥出雲町郡村","next":[1170613,1170104,1170610,1170609,1170611,1170614],"voronoi":{"lat":35.296424,"lng":133.148651,"delta_lat":[0,20728,-59182,-40019,-59692,8908],"delta_lng":[0,-47634,-57009,-16381,13235,13817]},"impl":true},
    {"code":1170611,"id":"0c405e","name":"出雲三成","name_kana":"いずもみなり","lat":35.196669,"lng":133.009786,"prefecture":32,"lines":[11706],"attr":"eco","postal_code":"699-1511","address":"仁多郡奥出雲町三成","next":[1170725,1170718,1170614,1171419,1170616,1170608,1170612,1170610,1170734,1170617],"voronoi":{"lat":35.066188,"lng":132.986157,"delta_lat":[0,92071,59692,-28709,-88825,-64482,-1311,-4129,-2335,31155],"delta_lng":[0,54705,-13235,-105193,-90261,23856,1371,9431,69254,43282]},"impl":true},
    {"code":1170610,"id":"cc3559","name":"出雲八代","name_kana":"いずもやしろ","lat":35.22722,"lng":133.001448,"prefecture":32,"lines":[11706],"attr":"eco","postal_code":"699-1432","address":"仁多郡奥出雲町馬馳","next":[1170612,1170609,1170608,1170611],"voronoi":{"lat":35.25797,"lng":133.044007,"delta_lat":[0,-22531,-46197,28709],"delta_lng":[0,-89161,-32413,105193]},"impl":true},
    {"code":1170603,"left":1170110,"right":1170330,"id":"ca7e88","name":"加茂中","name_kana":"かもなか","lat":35.344096,"lng":132.910548,"prefecture":32,"lines":[11706],"attr":"cool","postal_code":"699-1106","address":"雲南市加茂町加茂中","next":[1170607,1170112,1170111,1170606,1170602,1170604],"voronoi":{"lat":35.367683,"lng":132.887982,"delta_lat":[0,-35120,-2644,-10510,7311,31826],"delta_lng":[0,-40998,-1018,60104,14786,10188]},"impl":true},
    {"code":1170110,"left":1170111,"right":9970208,"id":"4660be","name":"宍道","name_kana":"しんじ","lat":35.406925,"lng":132.909224,"prefecture":32,"lines":[11701,11706],"attr":"eco","postal_code":"699-0401","address":"松江市宍道町宍道","next":[9970215,1170111,1170109,9970212,1170602,9970211,9970214],"voronoi":{"lat":35.435097,"lng":132.923565,"delta_lat":[0,-34563,-13907,38099,1023,5864,4449],"delta_lng":[0,11222,-41683,-12354,990,7027,28930]},"impl":true},
    {"code":1170111,"left":1170112,"id":"2c595f","name":"荘原","name_kana":"しょうばら","lat":35.393603,"lng":132.868139,"prefecture":32,"lines":[11701],"attr":"eco","postal_code":"699-0501","address":"島根県出雲市斐川町学頭1606","next":[9970210,9970211,9970209,1170603,1170110,1170602,1170112],"voronoi":{"lat":35.401343,"lng":132.835799,"delta_lat":[0,18323,3733,1327,-38099,-18944,-35120],"delta_lng":[0,15955,16164,12832,12354,-5121,-40998]},"impl":true},
    {"code":1170112,"id":"adcf28","name":"直江","name_kana":"なおえ","lat":35.383754,"lng":132.807578,"prefecture":32,"lines":[11701],"attr":"eco","postal_code":"699-0624","address":"島根県出雲市斐川町上直江1100","next":[1170603,9970209,1170607,9970204,9970205,9970206,9970208,9970203,9970207,1170111],"voronoi":{"lat":35.401343,"lng":132.835799,"delta_lat":[0,1547,-271,-5050,-9218,-3635,-5241,-74572,25016,2644],"delta_lng":[0,-4665,-14923,-15206,-9407,-1327,-649,32719,23626,1018]},"impl":true},
    {"code":9970208,"id":"283065","name":"旅伏","name_kana":"たぶし","lat":35.42116,"lng":132.806899,"prefecture":32,"lines":[99702],"attr":"eco","postal_code":"691-0012","address":"出雲市西代町５８５-６","next":[9970207,9970302,9970209,9970303,9970305,1170112],"voronoi":{"lat":35.595479,"lng":132.703185,"delta_lat":[0,-72611,-22556,-15535,-82158,271],"delta_lng":[0,16980,8840,7865,79340,14923]},"impl":true},
    {"code":1170330,"left":1170602,"right":1170109,"id":"df80fe","name":"岸本","name_kana":"きしもと","lat":35.387333,"lng":133.409475,"prefecture":31,"lines":[11703],"attr":"cool","postal_code":"689-4135","address":"西伯郡伯耆町押口","next":[1161641,1170325,1161642,1170324,1161639,1161640,1170329],"voronoi":{"lat":35.306633,"lng":133.329995,"delta_lat":[0,39,1585,78501,4557,30862,-17207],"delta_lng":[0,-276,-4533,38696,3437,52304,59029]},"impl":true},
    {"code":1170602,"id":"50f37f","name":"南宍道","name_kana":"みなみしんじ","lat":35.380075,"lng":132.918182,"prefecture":32,"lines":[11706],"attr":"cool","postal_code":"699-0402","address":"松江市宍道町白石","next":[1170604,1170603,1170110,1170111,1170109],"voronoi":{"lat":35.400534,"lng":132.934786,"delta_lat":[0,-13907,-18944,-9137,16316],"delta_lng":[0,-41683,-5121,43062,34856]},"impl":true},
    {"code":1170109,"id":"ef25ca","name":"来待","name_kana":"きまち","lat":35.420722,"lng":132.951719,"prefecture":32,"lines":[11701],"attr":"eco","postal_code":"699-0404","address":"松江市宍道町東来待","next":[1170108,9970218,1170110,1170605,9970215,1170604,9970216,9970219,1170602,9970217],"voronoi":{"lat":35.447576,"lng":132.970041,"delta_lat":[0,-3305,-68714,-1347,652,25672,34563,9238,2859,1718],"delta_lng":[0,8607,11626,-19849,-4524,-31114,-11222,12892,6850,11641]},"impl":true},
    {"code":1170103,"left":1170106,"right":1170508,"id":"098003","name":"荒島","name_kana":"あらしま","lat":35.431817,"lng":133.207432,"prefecture":32,"lines":[11701],"attr":"eco","postal_code":"692-0007","address":"安来市荒島町小山廻","next":[1170102,1170323,1170510,1170513,1170104,1170511,1170512,1170509,1170324,1170105,1170613],"voronoi":{"lat":35.280972,"lng":133.218178,"delta_lat":[0,2474,173765,16064,6956,3952,3905,3011,-10980,-192540,-10169],"delta_lng":[0,4380,12810,-18923,-12278,-7785,-10068,-9271,-1904,12445,22490]},"impl":true},
    {"code":1170106,"left":9970214,"right":9970218,"id":"2a5fa4","name":"松江","name_kana":"まつえ","lat":35.463947,"lng":133.063871,"prefecture":32,"lines":[11701],"attr":"eco","postal_code":"690-0003","address":"松江市朝日町","next":[1170107,1170105,9970222,1170516],"voronoi":{"lat":35.620451,"lng":133.084154,"delta_lat":[0,-163055,-29687,118176],"delta_lng":[0,-30751,35057,33732]},"impl":true},
    {"code":9970214,"left":9970211,"right":1170105,"id":"0ab524","name":"伊野灘","name_kana":"いのなだ","lat":35.461308,"lng":132.900862,"prefecture":32,"lines":[99702],"attr":"heat","postal_code":"691-0074","address":"出雲市小境町３７９-３","next":[9970213,9970212,9970215,1170110],"voronoi":{"lat":35.431614,"lng":132.888767,"delta_lat":[0,7802,63217,-66570],"delta_lng":[0,-1228,11552,18606]},"impl":true},
    {"code":9970211,"left":9970210,"right":9970212,"id":"140316","name":"湖遊館新駅","name_kana":"こゆうかんしんえき","lat":35.452611,"lng":132.862037,"prefecture":32,"lines":[99702],"attr":"eco","postal_code":"691-0076","address":"出雲市園町５５-１","next":[1170111,9970212,9970210,1170110],"voronoi":{"lat":35.484822,"lng":132.847385,"delta_lat":[0,-61423,1327,1023],"delta_lng":[0,20533,12832,990]},"impl":true},
    {"code":9970210,"left":9970209,"id":"2d7064","name":"布崎","name_kana":"ぬのざき","lat":35.450275,"lng":132.855049,"prefecture":32,"lines":[99702],"attr":"eco","postal_code":"691-0076","address":"出雲市園町１２９５-５","next":[1170111,9970212,9970305,9970211,9970209,9970213],"voronoi":{"lat":36.082732,"lng":132.546268,"delta_lat":[0,-319736,-343330,3733,61423,111578],"delta_lng":[0,108851,196634,16164,-20533,-50157]},"impl":true},
    {"code":9970209,"id":"504bb4","name":"雲州平田","name_kana":"うんしゅうひらた","lat":35.432312,"lng":132.823685,"prefecture":32,"lines":[99702],"attr":"eco","postal_code":"691-0001","address":"出雲市平田町２２２６","next":[1170111,1170112,9970208,9970210,9970305],"voronoi":{"lat":35.402891,"lng":132.831134,"delta_lat":[0,-1547,18323,343330,-167517],"delta_lng":[0,4665,15955,-196634,48066]},"impl":true},
    {"code":9970212,"id":"fb2038","name":"園","name_kana":"その","lat":35.456158,"lng":132.868136,"prefecture":32,"lines":[99702],"attr":"heat","postal_code":"691-0076","address":"出雲市園町１６８-５","next":[9970210,9970211,9970214,1170110,9970213],"voronoi":{"lat":35.5964,"lng":132.797227,"delta_lat":[0,-111578,-59073,5864,7802],"delta_lng":[0,50157,34355,7027,-1228]},"impl":true},
    {"code":1170105,"left":1170104,"right":1170107,"id":"20252e","name":"東松江(島根)","original_name":"東松江","name_kana":"ひがしまつえ","lat":35.445507,"lng":133.128472,"prefecture":32,"lines":[11701],"attr":"eco","postal_code":"690-0025","address":"松江市八幡町灘大土手外","next":[1170104,1170106,1170515,1170514,1170107,1170516,1170103,1170513],"voronoi":{"lat":35.492902,"lng":133.175779,"delta_lat":[0,7539,6333,39110,-118176,-51622,104033,10980],"delta_lng":[0,-6313,-6005,-41270,-33732,-313,86993,1904]},"impl":true},
    {"code":1170104,"left":1170108,"id":"10f466","name":"揖屋","name_kana":"いや","lat":35.428062,"lng":133.149334,"prefecture":32,"lines":[11701],"attr":"eco","postal_code":"699-0101","address":"島根県松江市東出雲町揖屋804","next":[1170609,1170612,1170105,1170613,1170107,1170103],"voronoi":{"lat":35.480119,"lng":133.17514,"delta_lat":[0,-104033,-39709,-19225,-20728,-8845],"delta_lng":[0,-86993,-7071,19941,47634,38934]},"impl":true},
    {"code":1170108,"id":"71d5c6","name":"玉造温泉","name_kana":"たまつくりおんせん","lat":35.430891,"lng":133.011825,"prefecture":32,"lines":[11701],"attr":"eco","postal_code":"699-0202","address":"松江市玉湯町湯町","next":[9970220,1170609,1170109,9970222,1170605,9970219,9970221,1170107],"voronoi":{"lat":35.341162,"lng":133.057779,"delta_lat":[0,34396,68714,3884,2790,5543,-2719,-114160],"delta_lng":[0,-67506,-11626,5076,5840,31504,2895,46789]},"impl":true},
    {"code":1170107,"id":"50a652","name":"乃木","name_kana":"のぎ","lat":35.44599,"lng":133.048665,"prefecture":32,"lines":[11701],"attr":"eco","postal_code":"690-0044","address":"松江市浜乃木２","next":[1170106,1170609,1170104,9970222,1170105,1170108],"voronoi":{"lat":35.453769,"lng":133.023963,"delta_lat":[0,3626,-29687,-51622,-39709,3232],"delta_lng":[0,29440,35057,-313,-7071,-10324]},"impl":true},
    {"code":9970218,"left":9970216,"right":9970219,"id":"15e878","name":"秋鹿町","name_kana":"あいかまち","lat":35.477231,"lng":132.95672,"prefecture":32,"lines":[99702],"attr":"cool","postal_code":"690-0261","address":"松江市秋鹿町３３４２-２","next":[9970217,1170109,9970219,1170516],"voronoi":{"lat":37.31346,"lng":132.630616,"delta_lat":[0,-1864547,-1336,1236714],"delta_lng":[0,324332,15093,-179152]},"impl":true},
    {"code":9970216,"left":9970215,"right":9970217,"id":"db7590","name":"高ノ宮","name_kana":"たかのみや","lat":35.471792,"lng":132.930401,"prefecture":32,"lines":[99702],"attr":"heat","postal_code":"690-0263","address":"松江市大垣町１１４５-５","next":[9970217,9970215,1170109,9970213],"voronoi":{"lat":35.83007,"lng":132.851951,"delta_lat":[0,-382875,-2859,81016],"delta_lng":[0,91355,-6850,-38479]},"impl":true},
    {"code":9970215,"left":9970213,"id":"09e736","name":"津ノ森","name_kana":"つのもり","lat":35.466378,"lng":132.919002,"prefecture":32,"lines":[99702],"attr":"heat","postal_code":"690-0264","address":"松江市大野町１１７-３","next":[1170110,9970216,1170109,9970213,9970214],"voronoi":{"lat":35.435097,"lng":132.923565,"delta_lat":[0,9238,81016,-22719,-66570],"delta_lng":[0,12892,-38479,1113,18606]},"impl":true},
    {"code":9970213,"id":"8d5e71","name":"一畑口","name_kana":"いちばたぐち","lat":35.464605,"lng":132.882819,"prefecture":32,"lines":[99702],"attr":"heat","postal_code":"691-0074","address":"出雲市小境町３７５-２","next":[9970305,9970214,1170516,1011011,9970217,9970212,9970215,9970216,9970210],"voronoi":{"lat":35.439416,"lng":132.887539,"delta_lat":[0,63217,22719,304718,1868629,6654483,2255727,-10526176,-486332],"delta_lng":[0,11552,-1113,-46026,-318020,-1573795,-2260229,3846361,250959]},"impl":true},
    {"code":9970217,"id":"b1428c","name":"松江フォーゲルパーク","name_kana":"まつえふぉーげるぱーく","lat":35.474969,"lng":132.943716,"prefecture":32,"lines":[99702],"attr":"heat","postal_code":"690-0263","address":"松江市大垣町２８-３","next":[9970216,9970218,9970213,1170516,1170109],"voronoi":{"lat":37.31346,"lng":132.630616,"delta_lat":[0,385239,-1868629,-382875,1718],"delta_lng":[0,-96684,318020,91355,11641]},"impl":true},
    {"code":9970219,"left":9970222,"right":9970220,"id":"565112","name":"長江","name_kana":"ながえ","lat":35.479792,"lng":132.974399,"prefecture":32,"lines":[99702],"attr":"cool","postal_code":"690-0133","address":"松江市東長江町１６２０-３","next":[9970218,1170516,1170108,9970220,1170109],"voronoi":{"lat":35.448156,"lng":132.983723,"delta_lat":[0,718235,517900,-1236714,-3305],"delta_lng":[0,-56855,-135980,179152,8607]},"impl":true},
    {"code":9970222,"left":9970221,"id":"014784","name":"松江しんじ湖温泉","name_kana":"まつえしんじこおんせん","lat":35.46731,"lng":133.046039,"prefecture":32,"lines":[99702],"attr":"cool","postal_code":"690-0874","address":"松江市中原町３１","next":[1170516,9970221,1170108,1170106,1170107],"voronoi":{"lat":35.453769,"lng":133.023963,"delta_lat":[0,2719,199516,-35554,-163055],"delta_lng":[0,-2895,47456,15630,-30751]},"impl":true},
    {"code":9970221,"id":"0f0dd7","name":"松江イングリッシュガーデン前","name_kana":"まつえいんぐりっしゅがーでんまえ","lat":35.477394,"lng":133.003643,"prefecture":32,"lines":[99702],"attr":"cool","postal_code":"690-0122","address":"松江市西浜佐陀町２６４-６","next":[9970222,1170516,1170108,9970220],"voronoi":{"lat":35.450945,"lng":132.989563,"delta_lat":[0,5543,199516,63410],"delta_lng":[0,31504,47456,-19565]},"impl":true},
    {"code":9970220,"id":"97e95a","name":"朝日ヶ丘","name_kana":"あさひがおか","lat":35.480865,"lng":132.987954,"prefecture":32,"lines":[99702],"attr":"cool","postal_code":"690-0151","address":"島根県松江市古曽志町","next":[1170108,1170516,9970219,9970221],"voronoi":{"lat":36.16639,"lng":132.926869,"delta_lat":[0,-718235,2790,268469],"delta_lng":[0,56855,5840,59395]},"impl":true},
    {"code":1170508,"left":1170504,"right":1170512,"id":"2da13b","name":"和田浜","name_kana":"わだはま","lat":35.480541,"lng":133.265496,"prefecture":31,"lines":[11705],"attr":"eco","postal_code":"683-0102","address":"米子市和田町","next":[1170509,1170102,1170510,1170507],"voronoi":{"lat":35.453934,"lng":133.265212,"delta_lat":[0,3359,64610,21284],"delta_lng":[0,-28389,56228,25578]},"impl":true},
    {"code":1170504,"left":1170506,"right":1170502,"id":"5b005a","name":"後藤","name_kana":"ごとう","lat":35.440026,"lng":133.331264,"prefecture":31,"lines":[11705],"attr":"eco","postal_code":"683-0804","address":"米子市米原","next":[1161640,1170503,1161642,1161641,1170505],"voronoi":{"lat":35.42529,"lng":133.31384,"delta_lat":[0,3701,23449,44680,3031],"delta_lng":[0,11688,23716,20075,566]},"impl":true},
    {"code":1170506,"left":1170505,"right":1170507,"id":"a16443","name":"河崎口","name_kana":"かわさきぐち","lat":35.45676,"lng":133.305407,"prefecture":31,"lines":[11705],"attr":"eco","postal_code":"683-0852","address":"米子市河崎","next":[1170505,1170507,1170102,1161638,1161639],"voronoi":{"lat":35.543895,"lng":133.367418,"delta_lat":[0,27986,-132091,-19025,119321],"delta_lng":[0,-5231,-78230,11863,71606]},"impl":true},
    {"code":1170505,"left":1170102,"id":"1cd420","name":"三本松口","name_kana":"さんぼんまつぐち","lat":35.446159,"lng":133.323072,"prefecture":31,"lines":[11705],"attr":"eco","postal_code":"683-0853","address":"米子市両三柳","next":[1170506,1161642,1170504,1161640,1161639,1170102],"voronoi":{"lat":35.420766,"lng":133.29582,"delta_lat":[0,119321,-35527,-4408,-74861,-9750],"delta_lng":[0,71606,3615,-1155,-56045,-16533]},"impl":true},
    {"code":1170102,"id":"6bcd8d","name":"安来","name_kana":"やすぎ","lat":35.427995,"lng":133.259279,"prefecture":32,"lines":[11701],"attr":"eco","postal_code":"692-0011","address":"安来市安来町","next":[1170103,1170506,1170508,1170509,1170507,1170324,1170505,1161642],"voronoi":{"lat":35.30747,"lng":133.290701,"delta_lat":[0,-24023,173765,81,-3359,-14143,-19025,-5225],"delta_lng":[0,-68142,12810,1455,28389,18744,11863,1488]},"impl":true},
    {"code":1170507,"id":"6a0f3d","name":"弓ヶ浜","name_kana":"ゆみがはま","lat":35.466757,"lng":133.288527,"prefecture":31,"lines":[11705],"attr":"eco","postal_code":"683-0851","address":"鳥取県米子市夜見町字樋口三1351","next":[1170512,1170506,1161638,1170102,1170510,1170511,1170508],"voronoi":{"lat":35.547751,"lng":133.322574,"delta_lat":[0,19341,20347,-15558,-132091,14143,89253],"delta_lng":[0,17583,20337,1692,-78230,-18744,53417]},"impl":true},
    {"code":1170502,"left":1161640,"right":1170503,"id":"3f213e","name":"博労町","name_kana":"ばくろうまち","lat":35.43168,"lng":133.339619,"prefecture":31,"lines":[11705],"attr":"heat","postal_code":"683-0052","address":"米子市博労町","next":[1161641,1161642,1170503],"voronoi":{"lat":35.428949,"lng":133.334029,"delta_lat":[0,-4079,16908],"delta_lng":[0,11252,1276]},"impl":true},
    {"code":1161640,"left":1161641,"id":"42f652","name":"伯耆大山","name_kana":"ほうきだいせん","lat":35.430142,"lng":133.384216,"prefecture":31,"lines":[11616,11703],"attr":"heat","postal_code":"689-3543","address":"米子市蚊屋","next":[1170504,1170505,1170330,1161641,1161639],"voronoi":{"lat":35.391316,"lng":133.367319,"delta_lat":[0,105805,3031,4408,-82382],"delta_lng":[0,2000,566,1155,48583]},"impl":true},
    {"code":1161641,"id":"a14353","name":"東山公園(鳥取)","original_name":"東山公園","name_kana":"ひがしやまこうえん","lat":35.430753,"lng":133.351902,"prefecture":31,"lines":[11616,11703],"attr":"heat","postal_code":"683-0006","address":"米子市車尾","next":[1170330,1170502,1170503,1170504,1161640,1161642],"voronoi":{"lat":35.391316,"lng":133.367319,"delta_lat":[0,105805,-44680,-10663,-16908,-38111],"delta_lng":[0,2000,-20075,-2687,-1276,18601]},"impl":true},
    {"code":1170503,"id":"682d04","name":"富士見町(鳥取)","original_name":"富士見町","name_kana":"ふじみちょう","lat":35.434602,"lng":133.336627,"prefecture":31,"lines":[11705],"attr":"heat","postal_code":"683-0055","address":"米子市冨士見町","next":[1170504,1161641,1161642,1170502],"voronoi":{"lat":35.428949,"lng":133.334029,"delta_lat":[0,43,23449,-10663],"delta_lng":[0,-8501,23716,-2687]},"impl":true},
    {"code":1170512,"left":1170515,"right":1170510,"id":"9e7c30","name":"高松町","name_kana":"たかまつちょう","lat":35.515408,"lng":133.23985,"prefecture":31,"lines":[11705],"attr":"cool","postal_code":"684-0045","address":"境港市高松町五輪松","next":[1170513,1170507,1170511,1170103,1161638],"voronoi":{"lat":35.58744,"lng":133.360494,"delta_lat":[0,-20347,-82909,3905,101740],"delta_lng":[0,-20337,-143775,-10068,174514]},"impl":true},
    {"code":1170515,"left":1170513,"right":1170516,"id":"01c798","name":"馬場崎町","name_kana":"ばばさきちょう","lat":35.538461,"lng":133.2265,"prefecture":31,"lines":[11705],"attr":"cool","postal_code":"684-0021","address":"境港市馬場崎町","next":[1170105,1170516,1161638,1170514],"voronoi":{"lat":35.623383,"lng":133.36751,"delta_lat":[0,-116608,-6333,113809],"delta_lng":[0,-204048,6005,195924]},"impl":true},
    {"code":1170513,"left":1170514,"id":"4054eb","name":"余子","name_kana":"あまりこ","lat":35.521216,"lng":133.236464,"prefecture":31,"lines":[11705],"attr":"cool","postal_code":"684-0043","address":"境港市竹内町","next":[1170512,1170514,1170103,1170105,1161638],"voronoi":{"lat":35.492902,"lng":133.175779,"delta_lat":[0,-1803,-3011,101740,10571],"delta_lng":[0,1264,9271,174514,1736]},"impl":true},
    {"code":1170514,"id":"882828","name":"上道(鳥取)","original_name":"上道","name_kana":"あがりみち","lat":35.531148,"lng":133.230748,"prefecture":31,"lines":[11705],"attr":"cool","postal_code":"684-0041","address":"境港市中野町","next":[1161638,1170513,1170105,1170515],"voronoi":{"lat":35.500441,"lng":133.169467,"delta_lat":[0,-7539,107497,13851],"delta_lng":[0,6313,186785,2826]},"impl":true},
    {"code":1170516,"id":"ffad78","name":"境港","name_kana":"さかいみなと","lat":35.545002,"lng":133.222762,"prefecture":31,"lines":[11705],"attr":"cool","postal_code":"684-0004","address":"境港市大正町１","next":[1161636,9970222,1161638,1161637,9970213,9941807,9970221,1161634,9970220,1170106,9970219,1161613,1170515,1161610,9970218,1011011,1170105,9970217,1161635],"voronoi":{"lat":38.875631,"lng":133.625944,"delta_lat":[0,565700,200654,3920504,790692,-6654483,-385239,-629169,-517900,-446976,-63410,-35554,-74566,-39110,116608,29903,95556,551522,351452],"delta_lng":[0,-34798,-15590,-1792114,-823305,1573795,96684,160273,135980,122090,19565,15630,38038,41270,204048,7664,13400,64522,26784]},"impl":true},
    {"code":1170510,"left":1170509,"right":1170511,"id":"0d31b6","name":"米子空港","name_kana":"よなごくうこう","lat":35.502321,"lng":133.247372,"prefecture":31,"lines":[11705],"attr":"cool","postal_code":"684-0055","address":"境港市佐斐神町","next":[1170509,1170511,1170507,1170508,1170103],"voronoi":{"lat":35.521902,"lng":133.293052,"delta_lat":[0,21284,4565,-67520,-6956],"delta_lng":[0,25578,3945,-118407,12278]},"impl":true},
    {"code":1170509,"id":"c1e7ed","name":"大篠津町","name_kana":"おおしのづちょう","lat":35.4889,"lng":133.255891,"prefecture":31,"lines":[11705],"attr":"cool","postal_code":"683-0101","address":"米子市大篠津町中沢","next":[1170508,1170510,1170102,1170103],"voronoi":{"lat":35.457293,"lng":133.236824,"delta_lat":[0,64610,-48627,-16064],"delta_lng":[0,56228,-76606,18923]},"impl":true},
    {"code":1170511,"id":"1875c7","name":"中浜","name_kana":"なかはま","lat":35.506165,"lng":133.24518,"prefecture":31,"lines":[11705],"attr":"cool","postal_code":"684-0053","address":"境港市小篠津町","next":[1170510,1170512,1170103,1170507],"voronoi":{"lat":35.484184,"lng":133.196382,"delta_lat":[0,-3952,67520,19341],"delta_lng":[0,7785,118407,17583]},"impl":true},
    {"code":1170402,"left":1170405,"right":1161618,"id":"cb1e4a","name":"津ノ井","name_kana":"つのい","lat":35.461129,"lng":134.248594,"prefecture":31,"lines":[11704],"attr":"eco","postal_code":"689-1102","address":"鳥取市大字津ノ井","next":[1170403,1170405,1161619,1161618,1170404],"voronoi":{"lat":35.473095,"lng":134.333914,"delta_lat":[0,28401,-54831,-11043,378],"delta_lng":[0,-62016,-79311,27550,8266]},"impl":true},
    {"code":1170405,"left":1070109,"right":9970107,"id":"4e25b3","name":"河原","name_kana":"かわはら","lat":35.397522,"lng":134.223098,"prefecture":31,"lines":[11704],"attr":"eco","postal_code":"680-0457","address":"八頭郡八頭町国中","next":[1170404,1170402,9970102,9970103,1161620,1161619,1170407,1170406,1161622,1161621,1161623],"voronoi":{"lat":35.434746,"lng":134.141805,"delta_lat":[0,3512,8825,-417,-11043,-12317,-25974,-15246,18451,13000,10323],"delta_lng":[0,8675,27751,14357,27550,6802,9284,-1365,-83798,-33530,8520]},"impl":true},
    {"code":1070109,"left":1170413,"right":1070104,"id":"9dfb9c","name":"山守","name_kana":"やまもり","closed":true,"lat":35.360684,"lng":133.709263,"prefecture":31,"lines":[10701],"attr":"unknown","postal_code":"682-0422","address":"鳥取県倉吉市関金町堀","next":[1161635,1170328,1163419,1163418,1070107,1161631,1161633,1161632,1161634,1070108],"voronoi":{"lat":35.225421,"lng":133.763001,"delta_lat":[0,-5672,4563,159303,11988,314,21432,9286,2578,-177230],"delta_lng":[0,-44226,-87977,-55112,13260,422,43517,37213,22677,64434]},"impl":true},
    {"code":1170413,"left":1170328,"right":1170408,"id":"ad40f0","name":"美作河井","name_kana":"みまさかかわい","lat":35.205467,"lng":134.107048,"prefecture":33,"lines":[11704],"attr":"cool","postal_code":"709-3913","address":"津山市加茂町山下","next":[1170409,1170416,1161624,1170414,1170412],"voronoi":{"lat":35.167532,"lng":134.105723,"delta_lat":[0,180741,2445,-94125,-115491],"delta_lng":[0,-76624,13206,112414,9316]},"impl":true},
    {"code":1170328,"left":1170327,"right":1170329,"id":"7e1296","name":"江尾","name_kana":"えび","lat":35.283043,"lng":133.484837,"prefecture":31,"lines":[11703],"attr":"cool","postal_code":"689-4401","address":"日野郡江府町大字江尾","next":[1070109,1163422,1161635,1170327,1170329,1163419],"voronoi":{"lat":35.21902,"lng":133.625692,"delta_lat":[0,-7721,86513,91990,-6186,-159303],"delta_lng":[0,-19672,-169383,121149,17901,55112]},"impl":true},
    {"code":1170327,"left":1170326,"id":"d639c1","name":"武庫","name_kana":"むこ","lat":35.267419,"lng":133.476857,"prefecture":31,"lines":[11703],"attr":"cool","postal_code":"689-4411","address":"日野郡江府町武庫","next":[1170326,1170328,1163422,1170329],"voronoi":{"lat":35.294287,"lng":133.429775,"delta_lat":[0,-122591,39603,86513],"delta_lng":[0,91310,84934,-169383]},"impl":true},
    {"code":1170326,"id":"a009d8","name":"根雨","name_kana":"ねう","lat":35.241483,"lng":133.442036,"prefecture":31,"lines":[11703],"attr":"eco","postal_code":"689-4503","address":"日野郡日野町根雨","next":[1170327,1170325,1170321,1163422,1170329],"voronoi":{"lat":35.171696,"lng":133.521086,"delta_lat":[0,-39502,681,157884,3528],"delta_lng":[0,-52650,-1461,-93575,56376]},"impl":true},
    {"code":1170329,"id":"742d59","name":"伯耆溝口","name_kana":"ほうきみぞぐち","lat":35.348207,"lng":133.435357,"prefecture":31,"lines":[11703],"attr":"cool","postal_code":"689-4201","address":"西伯郡伯耆町溝口","next":[1161637,1161635,1161639,1170328,1161638,1170325,1170326,1170330,1170327],"voronoi":{"lat":35.294287,"lng":133.429775,"delta_lat":[0,-3528,15875,98337,1621,-3551,-4949,-8290,-91990],"delta_lng":[0,-56376,-43404,148657,31668,22747,13916,10802,-121149]},"impl":true},
    {"code":1170408,"left":1170412,"right":1170407,"id":"c4bd1a","name":"用瀬","name_kana":"もちがせ","lat":35.343492,"lng":134.205085,"prefecture":31,"lines":[11704],"attr":"cool","postal_code":"689-1201","address":"鳥取市用瀬町用瀬","next":[1170407,9964413,1170409,1170410,1170406,9970105],"voronoi":{"lat":35.316471,"lng":134.262153,"delta_lat":[0,-2504,50869,-20284,-5100,-22026],"delta_lng":[0,-9585,-187370,178260,11935,7893]},"impl":true},
    {"code":1170412,"left":1170409,"id":"9658d5","name":"那岐","name_kana":"なぎ","lat":35.213769,"lng":134.209968,"prefecture":31,"lines":[11704],"attr":"heat","postal_code":"689-1451","address":"八頭郡智頭町大字大背","next":[1170409,9964412,1163405,1163404,1170416,9964410,1170413,1170411,9964409,1170410],"voronoi":{"lat":35.19131,"lng":134.256925,"delta_lat":[0,-26699,-6521,-43913,-102,5193,21834,115491,619,-8311],"delta_lng":[0,6384,-2739,-33589,-2093,-48896,-11958,-9316,4592,27250]},"impl":true},
    {"code":1170409,"id":"9d2de9","name":"因幡社","name_kana":"いなばやしろ","lat":35.312507,"lng":134.196673,"prefecture":31,"lines":[11704],"attr":"cool","postal_code":"689-1225","address":"鳥取市用瀬町宮原","next":[1170413,1170412,1170410,1170408,1161624,1170407],"voronoi":{"lat":35.36551,"lng":134.062275,"delta_lat":[0,-14792,-94125,619,56754,50869],"delta_lng":[0,-19970,112414,4592,93257,-187370]},"impl":true},
    {"code":1170407,"id":"f865f6","name":"鷹狩","name_kana":"たかがり","lat":35.354205,"lng":134.206304,"prefecture":31,"lines":[11704],"attr":"eco","postal_code":"689-1213","address":"鳥取市用瀬町鷹狩","next":[1161623,1161624,1170408,1170405,1170406,1170409],"voronoi":{"lat":35.36551,"lng":134.062275,"delta_lat":[0,22502,25524,-13000,-55985,20284],"delta_lng":[0,22468,32788,33530,92397,-178260]},"impl":true},
    {"code":1070104,"left":1070106,"right":1070102,"id":"14521c","name":"西倉吉","name_kana":"にしくらよし","closed":true,"lat":35.427214,"lng":133.804767,"prefecture":31,"lines":[10701],"attr":"unknown","postal_code":"682-0851","address":"鳥取県倉吉市西倉吉町１００−４","next":[1161629,1070105,1070106,1161630,1070103],"voronoi":{"lat":35.429018,"lng":133.769501,"delta_lat":[0,9480,18418,-2261,-42096],"delta_lng":[0,-15226,23030,28488,15537]},"impl":true},
    {"code":1070106,"left":1070107,"right":1070105,"id":"adfa73","name":"上小鴨","name_kana":"かみおがも","closed":true,"lat":35.398166,"lng":133.786679,"prefecture":31,"lines":[10701],"attr":"unknown","postal_code":"682-0934","address":"鳥取県倉吉市上古川２６０","next":[1070105,1163414,1070104,1161630,1170415,1070107],"voronoi":{"lat":35.430267,"lng":133.730821,"delta_lat":[0,8231,-9480,-155105,-27192,-286],"delta_lng":[0,23455,15226,146680,-22553,-1062]},"impl":true},
    {"code":1070107,"left":1070108,"id":"96bcab","name":"関金","name_kana":"せきがね","closed":true,"lat":35.370777,"lng":133.75555,"prefecture":31,"lines":[10701],"attr":"unknown","postal_code":"682-0402","address":"鳥取県倉吉市関金町大鳥居","next":[1163418,1163415,1070109,1163414,1070108,1161630,1070106],"voronoi":{"lat":35.430267,"lng":133.730821,"delta_lat":[0,-2,-178282,-26562,-2328,2436,20906],"delta_lng":[0,-188,26577,5792,64772,11777,53016]},"impl":true},
    {"code":1070108,"id":"491ba8","name":"泰久寺","name_kana":"たいきゅうじ","closed":true,"lat":35.366096,"lng":133.724149,"prefecture":31,"lines":[10701],"attr":"unknown","postal_code":"682-0404","address":"鳥取県倉吉市関金町泰久寺３４４−１","next":[1161630,1070107,1070109,1161631],"voronoi":{"lat":35.430266,"lng":133.730633,"delta_lat":[0,-178282,177230,4985],"delta_lng":[0,26577,-64434,21701]},"impl":true},
    {"code":1070105,"id":"ecd2da","name":"小鴨","name_kana":"おがも","closed":true,"lat":35.410146,"lng":133.799347,"prefecture":31,"lines":[10701],"attr":"unknown","postal_code":"682-0931","address":"鳥取県倉吉市小鴨５５３","next":[1070104,1070106,1070103,1070102,1170415,1170414],"voronoi":{"lat":35.279006,"lng":133.920841,"delta_lat":[0,-5092,155105,-16459,-28387,-104104],"delta_lng":[0,-4659,-146680,51829,27549,72791]},"impl":true},
    {"code":1070102,"left":1170406,"right":1161628,"id":"13d086","name":"上灘","name_kana":"うわなだ","closed":true,"lat":35.439611,"lng":133.841487,"prefecture":31,"lines":[10701],"attr":"unknown","postal_code":"682-0803","address":"鳥取県倉吉市見日町４０６","next":[1161628,1170414,1161627,1070105,1070103],"voronoi":{"lat":35.457301,"lng":133.826836,"delta_lat":[0,-31716,-123396,-22121,104104],"delta_lng":[0,58663,59286,-23114,-72791]},"impl":true},
    {"code":1170406,"left":1070103,"id":"1babd4","name":"国英","name_kana":"くにふさ","lat":35.373016,"lng":134.217702,"prefecture":31,"lines":[11704],"attr":"eco","postal_code":"680-1216","address":"鳥取市河原町釜口","next":[9970105,9970104,1170407,9970103,1170405,1170408],"voronoi":{"lat":35.344552,"lng":134.243457,"delta_lat":[0,55985,-18451,-21804,-17159,-3671],"delta_lng":[0,-92397,83798,15360,5099,75]},"impl":true},
    {"code":1070103,"id":"f3554c","name":"打吹","name_kana":"うつぶき","closed":true,"lat":35.434461,"lng":133.824402,"prefecture":31,"lines":[10701],"attr":"unknown","postal_code":"682-0887","address":"鳥取県倉吉市明治町２丁目３７","next":[1161628,1070105,1070104,1161629,1070102],"voronoi":{"lat":35.41256,"lng":133.821331,"delta_lat":[0,42096,5931,-3285,-73129],"delta_lng":[0,-15537,18406,2636,22044]},"impl":true},
    {"code":1161628,"id":"faefc8","name":"倉吉","name_kana":"くらよし","lat":35.45473,"lng":133.849661,"prefecture":31,"lines":[11616,10701],"attr":"eco","postal_code":"682-0022","address":"倉吉市上井町","next":[1161627,1070103,1070102,1161629],"voronoi":{"lat":35.425585,"lng":133.885499,"delta_lat":[0,31716,3285,55442],"delta_lng":[0,-58663,-2636,37166]},"impl":true},
    {"code":9970107,"left":9970106,"right":9970104,"id":"72a1aa","name":"徳丸","name_kana":"とくまる","lat":35.364323,"lng":134.335719,"prefecture":31,"lines":[99701],"attr":"eco","postal_code":"680-0607","address":"八頭郡八頭町徳丸賀輪１２２２番３","next":[9964413,1170403,9970105,9970106,1161618,9970108],"voronoi":{"lat":35.467403,"lng":134.358144,"delta_lat":[0,-34980,-17966,-115548,-2930,173166],"delta_lng":[0,-29847,-4162,4514,5623,30381]},"impl":true},
    {"code":9970106,"left":9964413,"right":9970109,"id":"28d49a","name":"八東","name_kana":"はっとう","lat":35.363572,"lng":134.316496,"prefecture":31,"lines":[99701],"attr":"eco","postal_code":"680-0531","address":"八頭郡八頭町才代","next":[9964413,9970105,9970107],"voronoi":{"lat":35.414457,"lng":134.324134,"delta_lat":[0,-98856,-16692],"delta_lng":[0,-43640,48154]},"impl":true},
    {"code":9964413,"left":9964412,"right":1170410,"id":"83d6ce","name":"恋山形","name_kana":"こいやまがた","lat":35.255641,"lng":134.279083,"prefecture":31,"lines":[99644],"attr":"heat","postal_code":"689-1421","address":"八頭郡智頭町大字大内字","next":[9970107,1170411,9970106,9970109,9964412,1170410,1170408,9970105,9970108],"voronoi":{"lat":35.274827,"lng":134.357946,"delta_lat":[0,-41797,15946,67495,955,-1824,-16692,-2930,-12712],"delta_lng":[0,-100809,-6783,11799,1133,17209,48154,5623,17329]},"impl":true},
    {"code":9964412,"left":1170411,"id":"0f971b","name":"山郷","name_kana":"やまさと","lat":35.232581,"lng":134.288644,"prefecture":31,"lines":[99644],"attr":"heat","postal_code":"689-1426","address":"八頭郡智頭町大字西谷","next":[1170412,9964413,9964411,9970109,9964410,1170411],"voronoi":{"lat":35.19131,"lng":134.256925,"delta_lat":[0,-26699,12724,90884,6607,-41797],"delta_lng":[0,6384,19350,82076,-6790,-100809]},"impl":true},
    {"code":1170411,"id":"4c359b","name":"土師","name_kana":"はじ","lat":35.232901,"lng":134.225627,"prefecture":31,"lines":[11704],"attr":"heat","postal_code":"689-1434","address":"八頭郡智頭町大字三吉","next":[9964413,1170412,1170410,9964412],"voronoi":{"lat":35.19131,"lng":134.256925,"delta_lat":[0,57591,74,-15946],"delta_lng":[0,-70365,63793,6783]},"impl":true},
    {"code":1170410,"id":"5d1b64","name":"智頭","name_kana":"ちず","lat":35.264992,"lng":134.22559,"prefecture":31,"lines":[11704,99644],"attr":"cool","postal_code":"689-1402","address":"八頭郡智頭町大字智頭","next":[1170409,9964413,1170408,1170411,1170412],"voronoi":{"lat":35.257212,"lng":134.159311,"delta_lat":[0,56754,2504,-67495,-74],"delta_lng":[0,93257,9585,-11799,-63793]},"impl":true},
    {"code":9970109,"left":1163516,"right":9970108,"id":"9c105a","name":"若桜","name_kana":"わかさ","lat":35.345253,"lng":134.398289,"prefecture":31,"lines":[99701],"attr":"cool","postal_code":"680-0701","address":"八頭郡若桜町大字若桜","next":[1161522,1163515,9964413,1161614,1161521,1161611,9964412,1161616,1161612,9970108,9964411,1163513],"voronoi":{"lat":35.195605,"lng":134.550012,"delta_lat":[0,72614,6607,8441,191530,1892,451,-9231,-32050,-14084,-110704,-61119],"delta_lng":[0,-185276,-6790,-6345,70406,6911,25910,46839,75975,4635,19948,-16755]},"impl":true},
    {"code":1163516,"left":1163515,"id":"545a48","name":"青倉","name_kana":"あおくら","lat":35.26719,"lng":134.811789,"prefecture":28,"lines":[11635],"attr":"cool","postal_code":"679-3401","address":"朝来市物部","next":[1161518,1161520,1163006,1161521,1163517,1163514,1163515],"voronoi":{"lat":35.317291,"lng":134.683087,"delta_lat":[0,1885,51,-99296,-28115,-4152,2242],"delta_lng":[0,9124,83231,131379,22692,-1886,-10346]},"impl":true},
    {"code":1163515,"id":"f8c8f4","name":"新井(兵庫)","original_name":"新井","name_kana":"にい","lat":35.236471,"lng":134.79508,"prefecture":28,"lines":[11635],"attr":"heat","postal_code":"679-3431","address":"朝来市新井","next":[9970109,1163514,1161521,1163513,1163516],"voronoi":{"lat":35.207748,"lng":134.692777,"delta_lat":[0,42204,61119,6219,-127385],"delta_lng":[0,-107307,16755,80863,234194]},"impl":true},
    {"code":9970108,"id":"e11878","name":"丹比","name_kana":"たんぴ","lat":35.360734,"lng":134.356175,"prefecture":31,"lines":[99701],"attr":"cool","postal_code":"680-0604","address":"八頭郡八頭町南","next":[1161616,1161618,9970109,9964413,9970107],"voronoi":{"lat":35.46931,"lng":134.365096,"delta_lat":[0,5487,-191530,12712,173166],"delta_lng":[0,56911,-70406,-17329,30381]},"impl":true},
    {"code":9970104,"left":1170404,"right":9970105,"id":"0e78e1","name":"隼","name_kana":"はやぶさ","lat":35.388707,"lng":134.270503,"prefecture":31,"lines":[99701],"attr":"heat","postal_code":"680-0404","address":"八頭郡八頭町見槻中","next":[9970105,1170406,1170404,1170403,9970103],"voronoi":{"lat":35.360282,"lng":134.250218,"delta_lat":[0,-17159,76675,-8829,-8180],"delta_lng":[0,5099,51340,-33510,-10015]},"impl":true},
    {"code":1170404,"left":9970103,"right":1170403,"id":"a044d7","name":"郡家","name_kana":"こおげ","lat":35.412824,"lng":134.250807,"prefecture":31,"lines":[11704,99701],"attr":"eco","postal_code":"680-0461","address":"八頭郡八頭町郡家","next":[1170405,9970103,9970104,1170403,9970102,1170402],"voronoi":{"lat":35.435622,"lng":134.220137,"delta_lat":[0,-12317,-20027,-490,8180,25032],"delta_lng":[0,6802,30899,5294,10015,-44744]},"impl":true},
    {"code":9970103,"left":9970102,"id":"d83a1a","name":"因幡船岡","name_kana":"いなばふなおか","lat":35.395187,"lng":134.249174,"prefecture":31,"lines":[99701],"attr":"heat","postal_code":"680-0471","address":"八頭郡八頭町船岡","next":[9970102,1170404,1170405,1170406,9970104],"voronoi":{"lat":35.360282,"lng":134.250218,"delta_lat":[0,21804,15246,5947,-490],"delta_lng":[0,-15360,1365,21615,5294]},"impl":true},
    {"code":9970102,"id":"264666","name":"八頭高校前","name_kana":"やずこうこうまえ","lat":35.405799,"lng":134.246254,"prefecture":31,"lines":[99701],"attr":"heat","postal_code":"680-0451","address":"八頭郡八頭町久能寺","next":[9970103,1170405,1170404],"voronoi":{"lat":35.423305,"lng":134.226939,"delta_lat":[0,-25974,5947],"delta_lng":[0,9284,21615]},"impl":true},
    {"code":1170403,"id":"58ae4d","name":"東郡家","name_kana":"ひがしこおげ","lat":35.429036,"lng":134.259877,"prefecture":31,"lines":[11704],"attr":"eco","postal_code":"680-0423","address":"八頭郡八頭町堀越","next":[9970107,1170402,9970105,1161618,9970104,1170404],"voronoi":{"lat":35.419798,"lng":134.306658,"delta_lat":[0,12626,34980,5692,-37095,-25032],"delta_lng":[0,21639,29847,-24229,-105511,44744]},"impl":true},
    {"code":9970105,"left":1161520,"right":1161521,"id":"f5dc0d","name":"安部","name_kana":"あべ","lat":35.374526,"lng":134.291682,"prefecture":31,"lines":[99701],"attr":"heat","postal_code":"680-0526","address":"八頭郡八頭町日下部徳尾","next":[9970104,9970107,1170406,9970106,1170403,9964413,1170408],"voronoi":{"lat":35.339451,"lng":134.255392,"delta_lat":[0,3671,76675,12626,-17966,-98856,1824],"delta_lng":[0,-75,51340,21639,-4162,-43640,-17209]},"impl":true},
    {"code":1161520,"id":"eee9b5","name":"養父","name_kana":"やぶ","lat":35.371306,"lng":134.811726,"prefecture":28,"lines":[11615],"attr":"eco","postal_code":"667-0126","address":"養父市堀畑","next":[1163516,1161523,1161521,1161517,1163517,1161519],"voronoi":{"lat":35.441899,"lng":134.892692,"delta_lat":[0,-2868,-119855,51,12113,103943],"delta_lng":[0,-30593,-169887,83231,37239,78385]},"impl":true},
    {"code":1161521,"id":"6e5000","name":"八鹿","name_kana":"ようか","lat":35.414287,"lng":134.781403,"prefecture":28,"lines":[11615],"attr":"cool","postal_code":"667-0021","address":"養父市八鹿町八鹿","next":[1161523,9970109,1163515,1161520,1161522,1163516],"voronoi":{"lat":35.317291,"lng":134.683087,"delta_lat":[0,-6219,110704,25117,-7862,-119855],"delta_lng":[0,-80863,-19948,245218,34604,-169887]},"impl":true},
    {"code":1161618,"left":1161624,"right":1161612,"id":"d32279","name":"福部","name_kana":"ふくべ","lat":35.545512,"lng":134.287239,"prefecture":31,"lines":[11616],"attr":"eco","postal_code":"689-0111","address":"鳥取市福部町栗谷","next":[1161620,9970108,1170403,1161617,1161619,9970107,1161616,1170402,1161621],"voronoi":{"lat":35.551728,"lng":134.229676,"delta_lat":[0,-50231,-28401,-5692,1742,165,49719,130743,-47352],"delta_lng":[0,42223,62016,24229,6509,443,-29478,-133549,11519]},"impl":true},
    {"code":1161624,"left":1161630,"right":1161625,"id":"a13369","name":"浜村","name_kana":"はまむら","lat":35.509522,"lng":134.050749,"prefecture":31,"lines":[11616],"attr":"eco","postal_code":"689-0332","address":"鳥取市気高町勝見","next":[1170407,1170413,1161623,1161627,1170414,1161625,1170409],"voronoi":{"lat":35.388013,"lng":134.084743,"delta_lat":[0,282862,-292653,-31109,1161,2445,14792],"delta_lng":[0,-42201,-35704,8539,13722,13206,19970]},"impl":true},
    {"code":1161630,"left":1161632,"right":1161619,"id":"735849","name":"由良","name_kana":"ゆら","lat":35.490236,"lng":133.754367,"prefecture":31,"lines":[11616],"attr":"eco","postal_code":"689-2221","address":"東伯郡北栄町由良宿","next":[1161631,1161629,1070106,1070108,1161626,1070104,1070107],"voronoi":{"lat":35.430266,"lng":133.730633,"delta_lat":[0,3933,532066,-225435,-283913,-18418,-8231],"delta_lng":[0,-16156,82634,23351,-43156,-23030,-23455]},"impl":true},
    {"code":1161632,"left":1161631,"right":1161637,"id":"c6496c","name":"八橋","name_kana":"やばせ","lat":35.503256,"lng":133.673683,"prefecture":31,"lines":[11616],"attr":"cool","postal_code":"689-2301","address":"東伯郡琴浦町八橋","next":[1070109,1161633,1161631],"voronoi":{"lat":35.417349,"lng":133.632886,"delta_lat":[0,9286,643638],"delta_lng":[0,37213,115880]},"impl":true},
    {"code":1161631,"left":1161638,"id":"052640","name":"浦安(鳥取)","original_name":"浦安","name_kana":"うらやす","lat":35.499695,"lng":133.693462,"prefecture":31,"lines":[11616],"attr":"cool","postal_code":"689-2303","address":"東伯郡琴浦町徳万","next":[1161630,1161633,1070109,1161632,1070108,1161626],"voronoi":{"lat":36.098151,"lng":133.792006,"delta_lat":[0,-27877,-643638,2578,4985,532066],"delta_lng":[0,-6027,-115880,22677,21701,82634]},"impl":true},
    {"code":1161638,"id":"36557d","name":"大山口","name_kana":"だいせんぐち","lat":35.485045,"lng":133.456718,"prefecture":31,"lines":[11616],"attr":"heat","postal_code":"689-3309","address":"西伯郡大山町国信","next":[1170514,1170516,1170506,1161637,1170507,1170329,1161639,1170515,1170512,1170513],"voronoi":{"lat":35.61425,"lng":133.365391,"delta_lat":[0,9132,29903,-250245,3551,137304,27986,15558,2389,10571],"delta_lng":[0,2119,7664,157894,-22747,-142903,-5231,-1692,334,1736]},"impl":true},
    {"code":1161637,"id":"ef0d35","name":"名和(鳥取)","original_name":"名和","name_kana":"なわ","lat":35.507256,"lng":133.49192,"prefecture":31,"lines":[11616],"attr":"cool","postal_code":"689-3211","address":"西伯郡大山町御来屋","next":[1161635,1170516,1170329,1161638,1161636],"voronoi":{"lat":35.398091,"lng":133.546983,"delta_lat":[0,4949,250245,95556,-346676],"delta_lng":[0,-13916,-157894,13400,157776]},"impl":true},
    {"code":1161619,"left":1161627,"right":1161626,"id":"43430c","name":"鳥取","name_kana":"とっとり","lat":35.493953,"lng":134.225901,"prefecture":31,"lines":[11616,11704],"attr":"eco","postal_code":"680-0835","address":"鳥取市東品治町","next":[1161620,1170405,1161618,1170402],"voronoi":{"lat":35.446665,"lng":134.192587,"delta_lat":[0,417,104645,-50231],"delta_lng":[0,-14357,51445,42223]},"impl":true},
    {"code":1161627,"left":1161629,"id":"fd0d54","name":"松崎(鳥取)","original_name":"松崎","name_kana":"まつざき","lat":35.46871,"lng":133.902053,"prefecture":31,"lines":[11616],"attr":"eco","postal_code":"689-0712","address":"東伯郡湯梨浜町中興寺","next":[1161628,1161624,1070102,1161626,1161625,1170414,1161629],"voronoi":{"lat":35.516028,"lng":133.861366,"delta_lat":[0,-90443,-123396,44923,31109,63417,94272],"delta_lng":[0,24133,59286,70592,-8539,-32150,-110497]},"impl":true},
    {"code":1161629,"id":"aa9a84","name":"下北条","name_kana":"しもほうじょう","lat":35.481915,"lng":133.809109,"prefecture":31,"lines":[11616],"attr":"eco","postal_code":"689-2114","address":"東伯郡北栄町北尾","next":[1070104,1161630,1161628,1161626,1070103,1161627],"voronoi":{"lat":35.740829,"lng":133.820462,"delta_lat":[0,-283913,-2261,5931,55442,19882],"delta_lng":[0,-43156,28488,18406,37166,2825]},"impl":true},
    {"code":1161626,"id":"6a2aba","name":"泊(鳥取)","original_name":"泊","name_kana":"とまり","lat":35.509103,"lng":133.936515,"prefecture":31,"lines":[11616],"attr":"eco","postal_code":"689-0605","address":"東伯郡湯梨浜町園","next":[1161633,1161625,1161630,1161627,1161629,1161634,1161631],"voronoi":{"lat":36.098151,"lng":133.792006,"delta_lat":[0,388653,342022,-1387187,94272,204919,225435],"delta_lng":[0,4291,11625,166766,-110497,-43729,-23351]},"impl":true},
    {"code":1161625,"left":1161635,"right":1161621,"id":"606cb3","name":"青谷","name_kana":"あおや","lat":35.516228,"lng":133.995782,"prefecture":31,"lines":[11616],"attr":"eco","postal_code":"689-0501","address":"鳥取市青谷町青谷","next":[1161634,1161622,1161626,1161615,1161623,1161627,1161624],"voronoi":{"lat":35.378222,"lng":134.006838,"delta_lat":[0,63417,1387187,345141,-945579,-369625,-187888],"delta_lng":[0,-32150,-166766,3957,214802,20394,-4533]},"impl":true},
    {"code":1161635,"left":1161633,"right":1161634,"id":"72489f","name":"下市","name_kana":"しもいち","lat":35.518821,"lng":133.566302,"prefecture":31,"lines":[11616],"attr":"cool","postal_code":"689-3124","address":"西伯郡大山町上市","next":[1161637,1070109,1161636,1170329,1170328,1161634,1170516],"voronoi":{"lat":36.300363,"lng":133.453095,"delta_lat":[0,-898198,-4074,-8290,-6186,11988,1256212],"delta_lng":[0,93254,634,10802,17901,13260,-109067]},"impl":true},
    {"code":1161633,"left":1161636,"id":"ed8e87","name":"赤碕","name_kana":"あかさき","lat":35.512437,"lng":133.634527,"prefecture":31,"lines":[11616],"attr":"cool","postal_code":"689-2501","address":"東伯郡琴浦町赤碕","next":[1161626,1161631,1161634,1070109,1161632],"voronoi":{"lat":36.098151,"lng":133.792006,"delta_lat":[0,388653,-1090886,21432,652924],"delta_lng":[0,4291,-206928,43517,153093]},"impl":true},
    {"code":1161636,"id":"f2fc2e","name":"御来屋","name_kana":"みくりや","lat":35.512234,"lng":133.502858,"prefecture":31,"lines":[11616],"attr":"cool","postal_code":"689-3205","address":"西伯郡大山町西坪","next":[1170516,1161635,1161637],"voronoi":{"lat":35.748842,"lng":133.388574,"delta_lat":[0,551522,-898198],"delta_lng":[0,64522,93254]},"impl":true},
    {"code":1161634,"id":"179905","name":"中山口","name_kana":"なかやまぐち","lat":35.52088,"lng":133.590017,"prefecture":31,"lines":[11616],"attr":"cool","postal_code":"689-3114","address":"西伯郡大山町田中","next":[1161625,1161613,1161633,1170516,1161635,1161615,1161626,1070109],"voronoi":{"lat":36.486803,"lng":133.796297,"delta_lat":[0,342022,345141,855618,846047,-2223816,-1256212,314],"delta_lng":[0,11625,3957,-87080,-98855,-146064,109067,422]},"impl":true},
    {"code":1161621,"left":1161620,"right":1161622,"id":"9f7370","name":"鳥取大学前","name_kana":"とっとりだいがくまえ","lat":35.51804,"lng":134.174305,"prefecture":31,"lines":[11616],"attr":"eco","postal_code":"680-0945","address":"鳥取市湖山町南五丁目１９９-２２","next":[1161620,1161617,1161622,1170405,1161618],"voronoi":{"lat":35.649773,"lng":134.202068,"delta_lat":[0,52736,-267763,3512,164163],"delta_lng":[0,-19231,-41033,8675,63108]},"impl":true},
    {"code":1161620,"left":1161623,"id":"9e76f6","name":"湖山","name_kana":"こやま","lat":35.513455,"lng":134.186232,"prefecture":31,"lines":[11616],"attr":"eco","postal_code":"680-0942","address":"鳥取市湖山町東１","next":[1161619,1161618,1170405,1161621],"voronoi":{"lat":35.438258,"lng":134.15048,"delta_lat":[0,8825,104645,50693],"delta_lng":[0,27751,51445,-16088]},"impl":true},
    {"code":1161623,"id":"25f987","name":"宝木","name_kana":"ほうぎ","lat":35.514153,"lng":134.081789,"prefecture":31,"lines":[11616],"attr":"eco","postal_code":"689-0216","address":"鳥取市気高町宝木","next":[1170407,1161622,1161624,1161625,1170405],"voronoi":{"lat":35.858762,"lng":134.047074,"delta_lat":[0,-187888,-282862,25524,10323],"delta_lng":[0,-4533,42201,32788,8520]},"impl":true},
    {"code":1161622,"id":"7d8a79","name":"末恒","name_kana":"すえつね","lat":35.52395,"lng":134.135739,"prefecture":31,"lines":[11616],"attr":"eco","postal_code":"689-0201","address":"鳥取市伏野","next":[1161615,1161625,1161623,1161621,1161617,1170405],"voronoi":{"lat":35.42386,"lng":134.12605,"delta_lat":[0,434903,369625,-299135,-226744,-267763],"delta_lng":[0,-78976,-20394,99746,56411,-41033]},"impl":true},
    {"code":1161612,"left":1161613,"right":1161607,"id":"b6eacc","name":"浜坂","name_kana":"はまさか","lat":35.620618,"lng":134.452558,"prefecture":28,"lines":[11616],"attr":"eco","postal_code":"669-6702","address":"美方郡新温泉町浜坂","next":[1161611,1161613,1161614,1161610,9970109],"voronoi":{"lat":35.477141,"lng":134.454827,"delta_lat":[0,16670,438279,-168237,-295943],"delta_lng":[0,-3865,-26145,45203,31646]},"impl":true},
    {"code":1161613,"left":1161615,"right":1161524,"id":"63a9a5","name":"諸寄","name_kana":"もろよせ","lat":35.619529,"lng":134.434303,"prefecture":28,"lines":[11616],"attr":"eco","postal_code":"669-6753","address":"美方郡新温泉町諸寄","next":[1161612,1161615,1161634,1170516,1161614,1161610],"voronoi":{"lat":35.493811,"lng":134.450963,"delta_lat":[0,661243,1874531,846047,565700,-3509242],"delta_lng":[0,-204516,-521648,-98855,-34798,833672]},"impl":true},
    {"code":1161615,"left":1161616,"right":1161614,"id":"188e29","name":"東浜","name_kana":"ひがしはま","lat":35.599471,"lng":134.362225,"prefecture":31,"lines":[11616],"attr":"eco","postal_code":"681-0011","address":"岩美郡岩美町陸上","next":[1161617,1161622,1161613,1161625,1161634,1161614,1161616],"voronoi":{"lat":36.155054,"lng":134.246446,"delta_lat":[0,1874531,-855618,-945579,-299135,-296378,-92414],"delta_lng":[0,-521648,87080,214802,99746,178755,87760]},"impl":true},
    {"code":1161616,"left":1161617,"id":"d4e98a","name":"岩美","name_kana":"いわみ","lat":35.574182,"lng":134.335595,"prefecture":31,"lines":[11616],"attr":"eco","postal_code":"681-0003","address":"岩美郡岩美町浦富","next":[9970108,9970109,1161614,1161617,1161618,1161615],"voronoi":{"lat":35.632874,"lng":134.305181,"delta_lat":[0,-113845,-49719,5487,1892,63771],"delta_lng":[0,30436,29478,56911,6911,-35976]},"impl":true},
    {"code":1161617,"id":"a6ef94","name":"大岩","name_kana":"おおいわ","lat":35.566835,"lng":134.308114,"prefecture":31,"lines":[11616],"attr":"eco","postal_code":"681-0073","address":"岩美郡岩美町大谷","next":[1161615,1161618,1161621,1161616,1161622],"voronoi":{"lat":35.929252,"lng":134.126426,"delta_lat":[0,-296378,-113845,130743,52736],"delta_lng":[0,178755,30436,-133549,-19231]},"impl":true},
    {"code":1161614,"id":"3a5b34","name":"居組","name_kana":"いぐみ","lat":35.606982,"lng":134.393736,"prefecture":28,"lines":[11616],"attr":"eco","postal_code":"669-6751","address":"美方郡新温泉町居組","next":[9970109,1161612,1161616,1161613,1161615],"voronoi":{"lat":35.47669,"lng":134.428917,"delta_lat":[0,451,16670,661243,-614593],"delta_lng":[0,25910,-3865,-204516,146495]},"impl":true},
    {"code":1161524,"left":1161523,"right":1161602,"id":"0e175d","name":"豊岡(兵庫)","original_name":"豊岡","name_kana":"とよおか","lat":35.543825,"lng":134.813694,"prefecture":28,"lines":[11615,11616,99609,99654],"attr":"heat","postal_code":"668-0031","address":"豊岡市大手町","next":[1161523,9960918,1161602],"voronoi":{"lat":35.541899,"lng":134.730694,"delta_lat":[0,-31472,58817],"delta_lng":[0,109551,-24373]},"impl":true},
    {"code":1161523,"left":1161522,"id":"d67660","name":"国府(兵庫)","original_name":"国府","name_kana":"こくふ","lat":35.496213,"lng":134.800016,"prefecture":28,"lines":[11615],"attr":"heat","postal_code":"669-5331","address":"豊岡市日高町上石","next":[1161602,1161521,1161524,1161522,1161520,1161517,9960918],"voronoi":{"lat":35.441899,"lng":134.892692,"delta_lat":[0,-2868,7862,94946,60,-31472,-47894],"delta_lng":[0,-30593,-34604,-104610,7810,109551,76635]},"impl":true},
    {"code":1161522,"id":"16e225","name":"江原","name_kana":"えばら","lat":35.469477,"lng":134.77575,"prefecture":28,"lines":[11615],"attr":"cool","postal_code":"669-5311","address":"豊岡市日高町日置","next":[9970109,1161611,1161523,1161602,1161608,1161521,1161607],"voronoi":{"lat":35.529321,"lng":134.674501,"delta_lat":[0,-82962,-10500,-14084,25117,94946,4303],"delta_lng":[0,-90436,-6424,4635,245218,-104610,-21772]},"impl":true},
    {"code":1161602,"id":"dad59d","name":"玄武洞","name_kana":"げんぶどう","lat":35.588645,"lng":134.799305,"prefecture":28,"lines":[11616],"attr":"heat","postal_code":"669-6116","address":"豊岡市城崎町上山","next":[1161523,1161603,1161604,1161607,1161522,1161606,9960918,1161524],"voronoi":{"lat":35.592921,"lng":134.839381,"delta_lat":[0,25322,-41274,-23575,-7253,-4303,60,27345],"delta_lng":[0,-62927,-58843,-13402,-3096,21772,7810,85178]},"impl":true},
    {"code":1161607,"left":1161610,"right":1161604,"id":"abab24","name":"柴山","name_kana":"しばやま","lat":35.646454,"lng":134.663886,"prefecture":28,"lines":[11616],"attr":"cool","postal_code":"669-6431","address":"美方郡香美町香住区浦上","next":[1161602,1161606,1161608,1161609,1161522],"voronoi":{"lat":35.553395,"lng":134.704209,"delta_lat":[0,248639,-87326,-185386,16820],"delta_lng":[0,-75667,-5153,51113,26611]},"impl":true},
    {"code":1161610,"left":1161608,"right":1161609,"id":"8f183f","name":"餘部","name_kana":"あまるべ","lat":35.648658,"lng":134.556918,"prefecture":28,"lines":[11616],"attr":"eco","postal_code":"669-6671","address":"美方郡香美町香住区余部","next":[9941807,1161612,1170516,1161609,1161613,1161611,1161608],"voronoi":{"lat":35.566761,"lng":134.575229,"delta_lat":[0,197091,168237,3509242,200654,-644245,-3418188],"delta_lng":[0,-105209,-45203,-833672,-15590,433405,568823]},"impl":true},
    {"code":1161608,"left":1161611,"id":"15e65f","name":"香住","name_kana":"かすみ","lat":35.635344,"lng":134.62359,"prefecture":28,"lines":[11616],"attr":"cool","postal_code":"669-6546","address":"美方郡香美町香住区七日市","next":[1161609,1161522,1161610,1161607,1161611],"voronoi":{"lat":35.566761,"lng":134.575229,"delta_lat":[0,12791,135155,-185386,-82962],"delta_lng":[0,2554,45605,51113,-90436]},"impl":true},
    {"code":1161611,"id":"1e639f","name":"久谷","name_kana":"くたに","lat":35.627549,"lng":134.517374,"prefecture":28,"lines":[11616],"attr":"eco","postal_code":"669-6721","address":"美方郡新温泉町久谷","next":[1161612,1161522,9970109,1161610,1161608],"voronoi":{"lat":35.566761,"lng":134.575229,"delta_lat":[0,197091,-295943,-32050,10500],"delta_lng":[0,-105209,31646,75975,6424]},"impl":true},
    {"code":1161609,"id":"ccfd0f","name":"鎧","name_kana":"よろい","lat":35.651691,"lng":134.575144,"prefecture":28,"lines":[11616],"attr":"eco","postal_code":"669-6672","address":"美方郡香美町香住区鎧","next":[1161608,1161606,9941807,1161610,9942021,1161607],"voronoi":{"lat":38.022572,"lng":134.599479,"delta_lat":[0,221375,753793,-3418188,135155,87326],"delta_lng":[0,-80432,-510087,568823,45605,5153]},"impl":true},
    {"code":1161604,"left":1161603,"right":1161606,"id":"deeb7e","name":"竹野","name_kana":"たけの","lat":35.649807,"lng":134.756405,"prefecture":28,"lines":[11616],"attr":"heat","postal_code":"669-6215","address":"豊岡市竹野町草飼","next":[9960913,1161606,1161603,1161602,9960914,9960915],"voronoi":{"lat":35.803896,"lng":134.86123,"delta_lat":[0,-185652,-41274,1590165,-1092009,-245719],"delta_lng":[0,-84776,-58843,75126,71132,289]},"impl":true},
    {"code":1161603,"id":"5a7ecf","name":"城崎温泉","name_kana":"きのさきおんせん","lat":35.623764,"lng":134.813437,"prefecture":28,"lines":[11616],"attr":"heat","postal_code":"669-6103","address":"豊岡市城崎町今津稗田","next":[9960917,1161602,1161604,9960915,9960918],"voronoi":{"lat":35.668115,"lng":134.868673,"delta_lat":[0,135781,-185652,-25322,3216],"delta_lng":[0,-7443,-84776,62927,10394]},"impl":true},
    {"code":1161606,"id":"3695dd","name":"佐津","name_kana":"さつ","lat":35.65314,"lng":134.685856,"prefecture":28,"lines":[11616],"attr":"cool","postal_code":"669-6401","address":"美方郡香美町香住区無南垣","next":[1161604,1161609,9960913,9942021,1161602,1161607],"voronoi":{"lat":35.57697,"lng":134.717611,"delta_lat":[0,1590165,403105,452333,-2220539,-248639],"delta_lng":[0,75126,-16851,-176406,29062,75667]},"impl":true}
  ]
}