{
  "name":"segment51",
  "root":1123108,
  "east":140.998611,
  "west":139.69799,
  "south":36.642513,
  "north":37.538664,
  "station_size":155,
  "node_list":[
    {"code":1123108,"left":9934108,"right":1133837,"id":"2ea063","name":"久田野","name_kana":"くたの","lat":37.137048,"lng":140.259458,"prefecture":7,"lines":[11231],"attr":"heat","postal_code":"961-0011","address":"白河市大字久田野字田中","next":[1123109,1123107,1123110,1123105,1133834],"voronoi":{"lat":37.025861,"lng":140.27282,"delta_lat":[0,46725,174281,-16430,-151387],"delta_lng":[0,-26439,-28043,16361,81502]},"impl":true},
    {"code":9934108,"left":1131931,"right":9921609,"id":"0ae9c4","name":"男鹿高原","name_kana":"おじかこうげん","lat":37.04784,"lng":139.723845,"prefecture":9,"lines":[99341],"attr":"heat","postal_code":"321-2801","address":"日光市横川字越路","next":[9934106,9934107,9921619,9921621,100406,9921614,9921620],"voronoi":{"lat":37.089402,"lng":139.760695,"delta_lat":[0,-47406,-14715,20740,9050,28812,5571],"delta_lng":[0,-106991,32929,208327,3533,-48214,-65322]},"impl":true},
    {"code":1131931,"left":1131929,"right":9935406,"id":"461bb5","name":"西那須野","name_kana":"にしなすの","lat":36.883726,"lng":139.986383,"prefecture":9,"lines":[11319,99354],"attr":"eco","postal_code":"329-2727","address":"那須塩原市永田町","next":[9935403,100406,9935402,1131930,9934107],"voronoi":{"lat":36.946996,"lng":139.855718,"delta_lat":[0,-97704,7539,60607,78134],"delta_lng":[0,136514,2422,-4607,-109829]},"impl":true},
    {"code":1131929,"left":2100322,"right":9934102,"id":"364eb6","name":"矢板","name_kana":"やいた","lat":36.80655,"lng":139.932912,"prefecture":9,"lines":[11319],"attr":"eco","postal_code":"329-2161","address":"矢板市扇町","next":[1131930,2100903,1131928,2100908],"voronoi":{"lat":36.793608,"lng":139.992512,"delta_lat":[0,-39985,31942,105263],"delta_lng":[0,-163015,-6663,24193]},"impl":true},
    {"code":2100322,"left":2100904,"right":1131927,"id":"3b99f0","name":"下小代","name_kana":"しもごしろ","lat":36.651303,"lng":139.713849,"prefecture":9,"lines":[21003],"attr":"cool","postal_code":"321-1107","address":"日光市小代","next":[1134005,1134007,2100321,2100323,1134004,1134006],"voronoi":{"lat":36.664999,"lng":139.730442,"delta_lat":[0,-3606,-26185,17734,2914,3004],"delta_lng":[0,6840,-25541,-92377,3053,7832]},"impl":true},
    {"code":2100904,"left":2100903,"right":2100905,"id":"15876f","name":"新高徳","name_kana":"しんたかとく","lat":36.779816,"lng":139.710623,"prefecture":9,"lines":[21009],"attr":"heat","postal_code":"321-2523","address":"日光市高徳","next":[2100905,2100909,1134007,2100325,2100908,2100906,2100902,2100903],"voronoi":{"lat":36.765098,"lng":139.678203,"delta_lat":[0,2549,4918,9409,13252,998,-9332,-311],"delta_lng":[0,-6482,-8617,-3447,71501,18493,67375,1012]},"impl":true},
    {"code":2100903,"left":2100323,"id":"bf1fb2","name":"大桑(栃木)","original_name":"大桑","name_kana":"おおくわ","lat":36.76079,"lng":139.713546,"prefecture":9,"lines":[21009],"attr":"cool","postal_code":"321-2411","address":"日光市大桑町","next":[2100902,2100324,1131928,1131929,2100904,1134005,2100908],"voronoi":{"lat":36.786581,"lng":139.818038,"delta_lat":[0,-21483,-32842,-6312,24609,3071,31942],"delta_lng":[0,-139835,43349,10629,97233,82,-6663]},"impl":true},
    {"code":2100323,"id":"d36d78","name":"明神","name_kana":"みょうじん","lat":36.676566,"lng":139.712301,"prefecture":9,"lines":[21003],"attr":"eco","postal_code":"321-1101","address":"日光市明神","next":[1134006,2100322,1134005,2100324],"voronoi":{"lat":36.664999,"lng":139.730442,"delta_lat":[0,-6139,44856,800],"delta_lng":[0,-100193,78776,1998]},"impl":true},
    {"code":2100905,"id":"0c467e","name":"小佐越","name_kana":"こさごえ","lat":36.802252,"lng":139.706465,"prefecture":9,"lines":[21009],"attr":"heat","postal_code":"321-2522","address":"日光市鬼怒川温泉大原","next":[2100904,2100326,2100909,9934103,1134007],"voronoi":{"lat":36.795225,"lng":139.731158,"delta_lat":[0,45313,-112,-31537,-26916],"delta_lng":[0,-105253,-3404,19646,17510]},"impl":true},
    {"code":1131927,"left":1131926,"right":1131928,"id":"137f8a","name":"蒲須坂","name_kana":"かますさか","lat":36.720727,"lng":139.950461,"prefecture":9,"lines":[11319],"attr":"cool","postal_code":"329-1332","address":"さくら市蒲須坂","next":[1131926,1134005,1131928,2100812,1133403,1133404],"voronoi":{"lat":36.722109,"lng":139.838499,"delta_lat":[0,-52228,-796,49188,2920,28200],"delta_lng":[0,8214,1834,164951,2342,15113]},"impl":true},
    {"code":1131926,"left":1134005,"id":"92cedc","name":"氏家","name_kana":"うじいえ","lat":36.681696,"lng":139.9621,"prefecture":9,"lines":[11319],"attr":"cool","postal_code":"329-1311","address":"さくら市氏家","next":[1131927,1131925,2100812,1133403,1133402,1131924],"voronoi":{"lat":36.658947,"lng":139.863732,"delta_lat":[0,10138,49188,-23842,-33934,-16520],"delta_lng":[0,-15185,164951,-8631,-23153,-47500]},"impl":true},
    {"code":1134005,"id":"1fd9e0","name":"下野大沢","name_kana":"しもつけおおさわ","lat":36.686427,"lng":139.732367,"prefecture":9,"lines":[11340],"attr":"cool","postal_code":"321-1274","address":"日光市土沢","next":[2100322,1134004,2100324,1131927,1131928,2100323,2100903,2100812],"voronoi":{"lat":36.722109,"lng":139.838499,"delta_lat":[0,28443,-24609,-21428,-39517,-3606,-8903,17392],"delta_lng":[0,-9085,-97233,-21159,19419,6840,94507,14925]},"impl":true},
    {"code":1131928,"id":"b7442d","name":"片岡","name_kana":"かたおか","lat":36.754557,"lng":139.945665,"prefecture":9,"lines":[11319],"attr":"cool","postal_code":"329-1571","address":"矢板市片岡","next":[2100903,1131927,1131930,1134005,9935404,1131929,1133404,9935406],"voronoi":{"lat":36.749393,"lng":140.030953,"delta_lat":[0,-27284,28443,3071,39985,-3568,-20150,-126],"delta_lng":[0,-192454,-9085,82,163015,26318,28940,109]},"impl":true},
    {"code":9934102,"left":9934103,"right":2100908,"id":"cb6bc3","name":"龍王峡","name_kana":"りゅうおうきょう","lat":36.860909,"lng":139.718542,"prefecture":9,"lines":[99341],"attr":"cool","postal_code":"321-2521","address":"日光市藤原字イの原","next":[2100908,9934103,2100906,2100907,9934104],"voronoi":{"lat":36.893235,"lng":139.743675,"delta_lat":[0,-48852,-977,7970,43978],"delta_lng":[0,-76507,18814,36663,25630]},"impl":true},
    {"code":9934103,"left":2100906,"right":9934104,"id":"635a68","name":"川治温泉","name_kana":"かわじおんせん","lat":36.884036,"lng":139.703775,"prefecture":9,"lines":[99341],"attr":"cool","postal_code":"321-2521","address":"日光市藤原字小網","next":[9934105,2100326,2100906,9934104,9934102,2100905,2100909],"voronoi":{"lat":36.840539,"lng":139.625906,"delta_lat":[0,-112,26542,15539,10728,-48852,-1436],"delta_lng":[0,-3404,-42898,45459,118613,-76507,-6904]},"impl":true},
    {"code":2100906,"left":2100909,"id":"e93e30","name":"鬼怒川温泉","name_kana":"きぬがわおんせん","lat":36.822622,"lng":139.716552,"prefecture":9,"lines":[21009],"attr":"heat","postal_code":"321-2522","address":"日光市鬼怒川温泉大原字三ツ石","next":[9934103,2100908,2100904,2100909,2100907,9934102],"voronoi":{"lat":36.817544,"lng":139.761211,"delta_lat":[0,-30653,9332,46724,1436,-977],"delta_lng":[0,55815,-67375,-89387,6904,18814]},"impl":true},
    {"code":2100909,"id":"d5df0d","name":"東武ワールドスクウェア","name_kana":"とうぶわーるどすくうえあ","lat":36.808333,"lng":139.709083,"prefecture":9,"lines":[21009],"attr":"heat","postal_code":"321-2522","address":"栃木県日光市鬼怒川温泉大原334-10","open_date":"2017-07-22","next":[2100904,2100905,2100906,9934103],"voronoi":{"lat":36.840539,"lng":139.625906,"delta_lat":[0,-45313,998,46724],"delta_lng":[0,105253,18493,-89387]},"impl":true},
    {"code":9934104,"id":"b32a64","name":"川治湯元","name_kana":"かわじゆもと","lat":36.895126,"lng":139.702772,"prefecture":9,"lines":[99341],"attr":"cool","postal_code":"321-2611","address":"日光市川治温泉川治字コケイト","next":[9934105,9934103,2100908,9934107,9934102],"voronoi":{"lat":36.893235,"lng":139.743675,"delta_lat":[0,-10728,61124,-7434,-40843],"delta_lng":[0,-118613,144507,36364,-57658]},"impl":true},
    {"code":2100908,"left":1131930,"right":9934107,"id":"d81e99","name":"新藤原","name_kana":"しんふじわら","lat":36.852505,"lng":139.732963,"prefecture":9,"lines":[21009,99341],"attr":"heat","postal_code":"321-2521","address":"日光市藤原３１９-４","next":[1131930,9934107,2100906,9934102,2100904,9934104,2100903,2100907,1131929],"voronoi":{"lat":36.937734,"lng":139.848859,"delta_lat":[0,-1536,-40843,-43978,-33832,-30653,-311,-1015,105263],"delta_lng":[0,-42926,-57658,-25630,38566,55815,1012,4795,24193]},"impl":true},
    {"code":1131930,"left":2100907,"id":"e3c449","name":"野崎(栃木)","original_name":"野崎","name_kana":"のざき","lat":36.843722,"lng":139.957752,"prefecture":9,"lines":[11319],"attr":"eco","postal_code":"324-0035","address":"大田原市薄葉","next":[9935404,9934107,2100908,1131929,1131928,9935403,1131931],"voronoi":{"lat":36.821217,"lng":140.006512,"delta_lat":[0,-31176,3568,97220,46905,9263,-97704],"delta_lng":[0,12317,-26318,-145485,1833,6858,136514]},"impl":true},
    {"code":2100907,"id":"aa7b86","name":"鬼怒川公園","name_kana":"きぬがわこうえん","lat":36.841,"lng":139.72287,"prefecture":9,"lines":[21009],"attr":"heat","postal_code":"321-2613","address":"日光市藤原","next":[2100906,2100908,9934102],"voronoi":{"lat":36.843406,"lng":139.685983,"delta_lat":[0,-25862,33832],"delta_lng":[0,75229,-38566]},"impl":true},
    {"code":9934107,"id":"469371","name":"上三依塩原温泉口","name_kana":"かみみよりしおばらおんせんぐち","lat":37.014461,"lng":139.727168,"prefecture":9,"lines":[99341],"attr":"heat","postal_code":"321-2802","address":"日光市上三依字田代山８０４","next":[9934106,1131930,9934108,2100908,9934105,100406,9934104,1131931],"voronoi":{"lat":37.04802,"lng":139.894959,"delta_lat":[0,-20740,-79060,-4589,-7434,1536,9263,48576],"delta_lng":[0,-208327,72919,10018,36364,42926,6858,24500]},"impl":true},
    {"code":9935406,"left":1133405,"right":9935405,"id":"3c0247","name":"金丸原","closed":true,"lat":36.868502,"lng":140.078368,"prefecture":9,"lines":[99354],"postal_code":"324-0011","address":"栃木県大田原市北金丸１５６３−４","open_date":"1918-04-17","closed_date":"1968-12-16","next":[9935404,1123101,9935408,1133404,9935405,1131928,9935407,100406],"voronoi":{"lat":36.922377,"lng":140.086415,"delta_lat":[0,-141597,-14979,3964,126,44895,103725,1081],"delta_lng":[0,-5886,-2674,-29977,-109,2147,19728,1190]},"impl":false},
    {"code":1133405,"left":1133404,"right":1133408,"id":"e352d7","name":"大金","name_kana":"おおがね","lat":36.656275,"lng":140.095656,"prefecture":9,"lines":[11334],"attr":"cool","postal_code":"321-0522","address":"那須烏山市大金","next":[1133404,9935408,1133407,9933014,1133406,1133408,1133403],"voronoi":{"lat":36.759952,"lng":140.09655,"delta_lat":[0,-3262,-4245,-79816,-79476,-1087,18803],"delta_lng":[0,38934,-416,-14494,-50110,-8825,283]},"impl":true},
    {"code":1133404,"left":1133403,"right":9935407,"id":"9ea45f","name":"鴻野山","name_kana":"こうのやま","lat":36.666495,"lng":140.051656,"prefecture":9,"lines":[11334],"attr":"heat","postal_code":"321-0534","address":"那須烏山市鴻野山","next":[1133405,9935406,1133403,1131928,9935408,1131927],"voronoi":{"lat":36.721194,"lng":140.015841,"delta_lat":[0,-110324,149083,5848,3964,-20371],"delta_lng":[0,46082,34628,-18695,-29977,-16925]},"impl":true},
    {"code":1133403,"left":1133402,"id":"a1a882","name":"仁井田(栃木)","original_name":"仁井田","name_kana":"にいた","lat":36.657271,"lng":140.029573,"prefecture":9,"lines":[11334],"attr":"heat","postal_code":"329-1204","address":"塩谷郡高根沢町文挾","next":[9933014,1131926,1133404,1131927,1133405,1133402],"voronoi":{"lat":36.592066,"lng":140.061639,"delta_lat":[0,18803,110324,-2920,-23842,-113915],"delta_lng":[0,283,-46082,-2342,-8631,39694]},"impl":true},
    {"code":1133402,"id":"2348cd","name":"下野花岡","name_kana":"しもつけはなおか","lat":36.649965,"lng":140.008606,"prefecture":9,"lines":[11334],"attr":"heat","postal_code":"329-1207","address":"塩谷郡高根沢町花岡","next":[9933013,1131926,1131925,9933014,1133403],"voronoi":{"lat":36.694432,"lng":140.004868,"delta_lat":[0,-33934,-85827,4696,1150],"delta_lng":[0,-23153,53827,7754,1266]},"impl":true},
    {"code":9935407,"id":"c73060","name":"白旗城址前","closed":true,"lat":36.86802,"lng":140.089964,"prefecture":9,"lines":[99354],"postal_code":"324-0011","address":"栃木県大田原市北金丸","open_date":"1936-05-14","closed_date":"1968-12-16","next":[1123101,9935408,9935406],"voronoi":{"lat":36.931549,"lng":140.117885,"delta_lat":[0,-150769,141597],"delta_lng":[0,-37356,5886]},"impl":false},
    {"code":1133408,"left":1133407,"right":9935408,"id":"45e4a9","name":"烏山","name_kana":"からすやま","lat":36.650455,"lng":140.15507,"prefecture":9,"lines":[11334],"attr":"eco","postal_code":"321-0627","address":"那須烏山市南２丁目","next":[1133823,1133407,9935316,9933015,9935408,1133825,9933017,1133821,1133405],"voronoi":{"lat":36.772497,"lng":140.214934,"delta_lat":[0,-81406,-15927,-34100,-31568,-18897,1310,160536,4245],"delta_lng":[0,49979,4899,2723,-18654,-85896,-14915,-18001,416]},"impl":true},
    {"code":1133407,"left":1133406,"id":"17bb86","name":"滝(栃木)","original_name":"滝","name_kana":"たき","lat":36.648558,"lng":140.138152,"prefecture":9,"lines":[11334],"attr":"eco","postal_code":"321-0633","address":"那須烏山市滝","next":[1133408,1133405,1133406,9933015],"voronoi":{"lat":36.591216,"lng":140.141173,"delta_lat":[0,81414,79816,-160536],"delta_lng":[0,-20599,14494,18001]},"impl":true},
    {"code":1133406,"id":"934c1e","name":"小塙","name_kana":"こばな","lat":36.643095,"lng":140.11656,"prefecture":9,"lines":[11334],"attr":"cool","postal_code":"321-0513","address":"那須烏山市小塙","next":[9933015,9933014,1133407,1133405],"voronoi":{"lat":36.593153,"lng":140.070465,"delta_lat":[0,-3828,1890,81414],"delta_lng":[0,63410,7299,-20599]},"impl":true},
    {"code":9935408,"id":"52b914","name":"黒羽","name_kana":"くろばね","closed":true,"lat":36.862333,"lng":140.112917,"prefecture":9,"lines":[99354],"postal_code":"324-0241","address":"栃木県黒羽向町大田原市","open_date":"1918-04-17","closed_date":"1968-12-16","next":[1133832,1123104,9935407,1133405,9935406,1123102,1133408,1123103,1133826,1133825,1123101,1133404,1133827],"voronoi":{"lat":36.908462,"lng":140.256427,"delta_lat":[0,-52441,-83524,-15807,3262,5848,14979,150769,2106,7133,-2878,-5196,-9019],"delta_lng":[0,-9312,-32182,-79449,-38934,-18695,2674,37356,4307,37446,69273,23755,4438]},"impl":false},
    {"code":9935405,"left":9935402,"right":1123102,"id":"7c4fa5","name":"中田原","closed":true,"lat":36.875196,"lng":140.043172,"prefecture":9,"lines":[99354],"postal_code":"324-0062","address":"栃木県大田原市中田原１５２５−７","open_date":"1933-08-17","closed_date":"1968-12-16","next":[9935403,9935406,9935404,100406],"voronoi":{"lat":36.902298,"lng":140.028705,"delta_lat":[0,-6105,-81407,103725],"delta_lng":[0,308,20903,19728]},"impl":false},
    {"code":9935402,"left":9935404,"right":100406,"id":"a7f561","name":"乃木神社前","name_kana":"のぎじんじゃまえ","closed":true,"lat":36.884667,"lng":139.998764,"prefecture":9,"lines":[99354],"postal_code":"329-2704","address":"栃木県那須塩原市新南６９３−５","open_date":"1935-08-21","closed_date":"1968-12-16","next":[9935403,100406,1131931],"voronoi":{"lat":36.902735,"lng":140.021753,"delta_lat":[0,14703,-60607],"delta_lng":[0,-31707,4607]},"impl":false},
    {"code":9935404,"left":9935403,"id":"8b2c00","name":"大田原","name_kana":"おおたわら","closed":true,"lat":36.870972,"lng":140.026722,"prefecture":9,"lines":[99354],"postal_code":"324-0051","address":"栃木県大田原市山の手２丁目１５","open_date":"1918-04-17","closed_date":"1968-12-16","next":[1131930,9935406,9935405,9935403,1131928],"voronoi":{"lat":36.814785,"lng":140.049917,"delta_lat":[0,81407,-74976,-31176,-20150],"delta_lng":[0,-20903,-22501,12317,28940]},"impl":false},
    {"code":9935403,"id":"db33c4","name":"大高前","name_kana":"だいこうまえ","closed":true,"lat":36.873878,"lng":140.017039,"prefecture":9,"lines":[99354],"postal_code":"324-0058","address":"栃木県大田原市紫塚１丁目１","open_date":"1933-08-17","closed_date":"1968-12-16","next":[1131931,9935402,9935405,1131930,9935404,100406],"voronoi":{"lat":36.896192,"lng":140.029013,"delta_lat":[0,-74976,28076,7539,45904,-438],"delta_lng":[0,-22501,-14281,2422,27100,6952]},"impl":false},
    {"code":100406,"id":"be4860","name":"那須塩原","name_kana":"なすしおばら","lat":36.931956,"lng":140.020694,"prefecture":9,"lines":[1004,11319],"attr":"eco","postal_code":"329-3153","address":"那須塩原市大原間","next":[9921613,1131931,9934107,9921614,9934108,9935402,9935403,9935405,1123101,9935406],"voronoi":{"lat":36.918511,"lng":140.069645,"delta_lat":[0,-16213,438,14703,78134,52448,9050,9426,6475,-153380],"delta_lng":[0,-40939,-6952,-31707,-109829,14742,3533,13568,10588,148186]},"impl":true},
    {"code":1123102,"left":1123101,"right":1123103,"id":"806a79","name":"高久","name_kana":"たかく","lat":36.996572,"lng":140.087346,"prefecture":9,"lines":[11231],"attr":"heat","postal_code":"325-0001","address":"那須郡那須町大字高久甲西久保７２０-４","next":[9921610,9921612,9921613,9935408,1123101,1123103,9921609],"voronoi":{"lat":36.940788,"lng":140.159638,"delta_lat":[0,-7133,169149,17195,1177,13586,3616],"delta_lng":[0,-37446,-164799,15960,1271,18561,5415]},"impl":true},
    {"code":1123101,"id":"32ec29","name":"黒磯","name_kana":"くろいそ","lat":36.970128,"lng":140.060204,"prefecture":9,"lines":[11231,11319],"attr":"heat","postal_code":"325-0056","address":"那須塩原市本町","next":[9935407,9935406,9921613,1123102,100406,9935408],"voronoi":{"lat":37.102804,"lng":139.957393,"delta_lat":[0,-29832,-153380,2785,9172,2106],"delta_lng":[0,-34745,148186,15581,31470,4307]},"impl":true},
    {"code":1123103,"id":"600b5d","name":"黒田原","name_kana":"くろだはら","lat":37.022848,"lng":140.119586,"prefecture":9,"lines":[11231],"attr":"heat","postal_code":"329-3222","address":"那須郡那須町大字寺子丙","next":[1123104,9935408,1123102,9921609,100407],"voronoi":{"lat":36.93791,"lng":140.228911,"delta_lat":[0,2878,197590,23480,-276],"delta_lng":[0,-69273,-161038,27132,399]},"impl":true},
    {"code":9921609,"left":9921612,"right":9921602,"id":"e13f8e","name":"塔のへつり","name_kana":"とうのへつり","lat":37.274695,"lng":139.901636,"prefecture":7,"lines":[99216],"attr":"eco","postal_code":"969-5204","address":"南会津郡下郷町大字弥五島字下夕田林","open_date":"1988-04-27","next":[100407,9921610,9921607,1123103,1123102,9921608],"voronoi":{"lat":37.286299,"lng":139.884436,"delta_lat":[0,-151538,3616,23480,95577,40059],"delta_lng":[0,108749,5415,27132,50356,-140831]},"impl":true},
    {"code":9921612,"left":9921617,"right":1122705,"id":"c27e9b","name":"ふるさと公園","name_kana":"ふるさとこうえん","lat":37.243051,"lng":139.858958,"prefecture":7,"lines":[99216],"attr":"cool","postal_code":"969-5344","address":"南会津郡下郷町大字沢田字下沢田甲９４３番地","open_date":"2002-08-29","next":[1123102,9921614,9921613,9921611,9921610],"voronoi":{"lat":37.236044,"lng":139.88842,"delta_lat":[0,42529,-1005,-157569,1177],"delta_lng":[0,-86174,796,170312,1271]},"impl":true},
    {"code":9921617,"left":9921619,"right":9921614,"id":"771616","name":"中荒井","name_kana":"なかあらい","lat":37.180289,"lng":139.75096,"prefecture":7,"lines":[99216,11235],"attr":"heat","postal_code":"967-0005","address":"南会津郡南会津町中荒井字長畔","open_date":"1947-12-12","next":[1122718,9921615,1122723,9921619,1122717,9921616,9921618],"voronoi":{"lat":37.264072,"lng":139.590469,"delta_lat":[0,28697,6260,8640,-153778,-32472,18050],"delta_lng":[0,22260,11523,24197,151490,19057,-34004]},"impl":true},
    {"code":9921619,"left":9921620,"right":9921618,"id":"941632","name":"会津山村道場","name_kana":"あいづさんそんどうじょう","lat":37.144787,"lng":139.732114,"prefecture":7,"lines":[99216],"attr":"heat","postal_code":"967-0014","address":"南会津郡南会津町糸沢字今泉平４３-１","open_date":"2001-07-18","next":[9921615,9921614,9934108,9921617,9921620,9921618],"voronoi":{"lat":37.121419,"lng":139.818997,"delta_lat":[0,-22830,-12707,5571,64664,-16648],"delta_lng":[0,21525,9757,-65322,-90471,90507]},"impl":true},
    {"code":9921620,"left":9921621,"id":"ff8893","name":"七ヶ岳登山口","name_kana":"ななつがたけとざんぐち","lat":37.124184,"lng":139.717388,"prefecture":7,"lines":[99216,11235],"attr":"heat","postal_code":"967-0014","address":"福島県南会津郡南会津町糸沢字下宮之原2449-2","open_date":"1953-11-08","next":[9921618,1122723,9921621,9921619,9934108],"voronoi":{"lat":37.089402,"lng":139.760695,"delta_lat":[0,91754,50155,-75193,-64664],"delta_lng":[0,-256161,55518,134434,90471]},"impl":true},
    {"code":9921621,"id":"593b96","name":"会津高原尾瀬口","name_kana":"あいづこうげんおぜぐち","lat":37.090026,"lng":139.705153,"prefecture":7,"lines":[99216,99341,11235],"attr":"heat","postal_code":"967-0015","address":"南会津郡南会津町滝原字羽根子","open_date":"1953-11-08","next":[9934106,1122729,9934108,1122724,1122723,9921620,1122728],"voronoi":{"lat":37.085202,"lng":139.420026,"delta_lat":[0,-22026,-21181,47406,91754,-7648,-34276],"delta_lng":[0,-11152,244829,106991,-256161,-10013,-38479]},"impl":true},
    {"code":9921618,"id":"72a78c","name":"会津荒海","name_kana":"あいづあらかい","lat":37.153317,"lng":139.733683,"prefecture":7,"lines":[99216,11235],"attr":"heat","postal_code":"967-0013","address":"南会津郡南会津町関本字百一","open_date":"1947-12-12","next":[1122723,9921620,9921617,9921619],"voronoi":{"lat":37.156118,"lng":139.694486,"delta_lat":[0,75193,32762,-124603],"delta_lng":[0,-134434,30418,194523]},"impl":true},
    {"code":9921614,"left":9921615,"right":9921613,"id":"b1fd32","name":"会津長野","name_kana":"あいづながの","lat":37.21525,"lng":139.823887,"prefecture":7,"lines":[99216,11235],"attr":"cool","postal_code":"967-0001","address":"南会津郡南会津町長野字下谷地","open_date":"1934-12-27","next":[9921613,9921619,9921612,9921615,9921611,100406,9934108],"voronoi":{"lat":37.085882,"lng":139.850278,"delta_lat":[0,12707,188689,-8706,-1005,-211071,-9426],"delta_lng":[0,-9757,-46742,8466,796,109019,-13568]},"impl":true},
    {"code":9921615,"left":9921616,"id":"a8f85f","name":"田島高校前","name_kana":"たじまこうこうまえ","lat":37.209525,"lng":139.800776,"prefecture":7,"lines":[99216,11235],"attr":"cool","postal_code":"967-0004","address":"南会津郡南会津町田島字田部原","open_date":"1951-12-01","next":[9921619,9921614,9921617,9921616,9921611],"voronoi":{"lat":37.340703,"lng":139.755776,"delta_lat":[0,-186812,-32472,-22830,188689],"delta_lng":[0,44164,19057,21525,-46742]},"impl":true},
    {"code":9921616,"id":"91e468","name":"会津田島","name_kana":"あいづたじま","lat":37.203261,"lng":139.774279,"prefecture":7,"lines":[99216,11235],"attr":"heat","postal_code":"967-0004","address":"南会津郡南会津町田島字西番場甲","open_date":"1934-12-27","next":[1122714,1122717,9921617,9921615,9921611,1122705],"voronoi":{"lat":37.340703,"lng":139.755776,"delta_lat":[0,-186812,153778,40495,3793,-324],"delta_lng":[0,44164,-151490,85308,14468,1292]},"impl":true},
    {"code":9921613,"id":"a7cac0","name":"養鱒公園","name_kana":"ようそんこうえん","lat":37.224499,"lng":139.841794,"prefecture":7,"lines":[99216,11235],"attr":"cool","postal_code":"969-5343","address":"南会津郡下郷町大字落合字下ノ原","open_date":"1947-09-20","next":[9921614,1123102,9921612,100406,1123101],"voronoi":{"lat":37.119998,"lng":139.973354,"delta_lat":[0,157569,-211071,6475,29832],"delta_lng":[0,-170312,109019,10588,34745]},"impl":true},
    {"code":1122705,"left":1122707,"right":9921608,"id":"c92dfa","name":"会津高田","name_kana":"あいづたかだ","lat":37.470839,"lng":139.841266,"prefecture":7,"lines":[11227],"attr":"heat","postal_code":"969-6268","address":"大沼郡会津美里町柳台","next":[9921604,1122714,9921611,9921606,1122704,9921608,1122706,9921616],"voronoi":{"lat":37.352945,"lng":139.761461,"delta_lat":[0,21127,3832,38221,85357,-43393,-106131,-324],"delta_lng":[0,65371,5973,27068,12132,-106389,-17390,1292]},"impl":true},
    {"code":1122707,"left":1122706,"right":1122708,"id":"442e9b","name":"新鶴","name_kana":"にいつる","lat":37.517161,"lng":139.828499,"prefecture":7,"lines":[11227],"attr":"heat","postal_code":"969-6411","address":"大沼郡会津美里町立石田","next":[1122711,1122602,1122702,1122706,1122708],"voronoi":{"lat":37.52265,"lng":139.876103,"delta_lat":[0,-12819,-642,16614,850],"delta_lng":[0,-2260,-94297,8366,86384]},"impl":true},
    {"code":1122706,"left":1122713,"id":"3692b3","name":"根岸(福島)","original_name":"根岸","name_kana":"ねぎし","lat":37.501885,"lng":139.828603,"prefecture":7,"lines":[11227],"attr":"heat","postal_code":"969-6405","address":"大沼郡会津美里町米田根岸","next":[1122713,1122711,1122714,1122704,1122707,1122705,1122703,1122702],"voronoi":{"lat":37.507102,"lng":139.873822,"delta_lat":[0,-3730,-1890,-43393,14353,19431,17317,642],"delta_lng":[0,-691,-1126,-106389,-832,2370,12392,94297]},"impl":true},
    {"code":1122713,"id":"4c84ff","name":"郷戸","name_kana":"ごうど","lat":37.51636,"lng":139.709911,"prefecture":7,"lines":[11227],"attr":"heat","postal_code":"969-7205","address":"河沼郡柳津町大字郷戸字百刈","next":[1122714,1122706,1122611,1122715,1122712,1122711],"voronoi":{"lat":37.500287,"lng":139.760531,"delta_lat":[0,52508,-10832,-26651,-42870,19431],"delta_lng":[0,-84218,-12366,21559,79278,2370]},"impl":true},
    {"code":1122708,"id":"24e90e","name":"若宮","name_kana":"わかみや","lat":37.535243,"lng":139.828321,"prefecture":7,"lines":[11227],"attr":"heat","postal_code":"969-6500","address":"河沼郡会津坂下町字若宮","next":[1122603,1122711,1122710,1122709,1122707,1122602],"voronoi":{"lat":37.525803,"lng":139.787912,"delta_lat":[0,3932,6410,21455,-13108,-17839],"delta_lng":[0,991,5078,67564,8584,4167]},"impl":true},
    {"code":9921608,"left":9921610,"right":1122704,"id":"31ff0a","name":"湯野上温泉","name_kana":"ゆのかみおんせん","lat":37.304056,"lng":139.895169,"prefecture":7,"lines":[99216,11235],"attr":"eco","postal_code":"969-5206","address":"南会津郡下郷町大字湯野上字大島","open_date":"1932-12-22","next":[9921611,9921607,9921610,9921606,1122705,9921609],"voronoi":{"lat":37.349849,"lng":139.867264,"delta_lat":[0,24222,-21127,-63923,-2722,11194],"delta_lng":[0,-40433,-65371,103374,19602,50821]},"impl":true},
    {"code":9921610,"left":9921611,"id":"d7405f","name":"弥五島","name_kana":"やごしま","lat":37.26629,"lng":139.889924,"prefecture":7,"lines":[99216,11235],"attr":"eco","postal_code":"969-5204","address":"南会津郡下郷町大字弥五島字寺下","open_date":"1934-12-27","next":[1123102,9921609,9921608,9921611,9921612],"voronoi":{"lat":37.134762,"lng":139.993186,"delta_lat":[0,151538,2722,-52978,-114868],"delta_lng":[0,-108749,-19602,23585,86205]},"impl":true},
    {"code":9921611,"id":"3a515e","name":"会津下郷","name_kana":"あいづしもごう","lat":37.255166,"lng":139.864937,"prefecture":7,"lines":[99216,11235],"attr":"eco","postal_code":"969-5311","address":"南会津郡下郷町大字豊成字下モ","open_date":"1934-12-27","next":[9921608,1122705,9921614,9921610,9921616,9921612,9921615],"voronoi":{"lat":37.340703,"lng":139.755776,"delta_lat":[0,10930,1311,-63923,-52978,42529,8706],"delta_lng":[0,-6258,11943,103374,23585,-86174,-8466]},"impl":true},
    {"code":1122704,"id":"b503f4","name":"会津本郷","name_kana":"あいづほんごう","lat":37.463488,"lng":139.892987,"prefecture":7,"lines":[11227],"attr":"heat","postal_code":"969-6183","address":"会津若松市北会津町上米塚","next":[1122703,9921603,9921604,1122706,1122705,9921602],"voronoi":{"lat":37.451292,"lng":139.901611,"delta_lat":[0,-27961,-7207,85357,1890,-31009],"delta_lng":[0,-28081,-13657,12132,1126,33002]},"impl":true},
    {"code":9921602,"left":9921605,"right":1122508,"id":"595b01","name":"南若松","name_kana":"みなみわかまつ","lat":37.458876,"lng":139.914479,"prefecture":7,"lines":[99216],"attr":"eco","postal_code":"965-0844","address":"会津若松市門田町一ノ堰字下住４５９","open_date":"1995-08-10","next":[1122515,9921603,1122703,1122704,9921605],"voronoi":{"lat":37.447221,"lng":139.994842,"delta_lat":[0,4071,21070,576,-19174],"delta_lng":[0,-93231,4522,50945,61079]},"impl":true},
    {"code":9921605,"left":9921604,"right":100407,"id":"55554e","name":"芦ノ牧温泉","name_kana":"あしのまきおんせん","lat":37.395456,"lng":139.932277,"prefecture":7,"lines":[99216,11235],"attr":"eco","postal_code":"969-5122","address":"会津若松市大戸町上三寄乙","open_date":"1927-11-01","next":[9921606,1122511,9921604,1122507,9921603,1122515,1122506,9921602],"voronoi":{"lat":37.447221,"lng":139.994842,"delta_lat":[0,-9153,-57703,-48175,54412,45272,21914,-24],"delta_lng":[0,-23323,-84012,204133,-21739,-22103,-28315,-1326]},"impl":true},
    {"code":9921604,"left":9921606,"right":9921603,"id":"3fbe83","name":"あまや","name_kana":"あまや","lat":37.416736,"lng":139.917661,"prefecture":7,"lines":[99216],"attr":"eco","postal_code":"965-0000","address":"会津若松市大戸町大字雨屋字上雨屋３６７-１","open_date":"1999-08-07","next":[1122705,9921603,9921605,1122704,9921606],"voronoi":{"lat":37.377904,"lng":139.832804,"delta_lat":[0,38221,7207,14737,-57703],"delta_lng":[0,27068,13657,97989,-84012]},"impl":true},
    {"code":9921606,"left":9921607,"id":"4c4ecc","name":"大川ダム公園","name_kana":"おおかわだむこうえん","lat":37.34685,"lng":139.920806,"prefecture":7,"lines":[99216,11235],"attr":"eco","postal_code":"969-5133","address":"会津若松市大戸町大字大川ロクロ石乙","open_date":"1968-10-17","next":[9921607,9921605,1122705,9921604,9921608,1122506],"voronoi":{"lat":37.33219,"lng":140.091639,"delta_lat":[0,48175,-2462,-3832,-24222,-41484],"delta_lng":[0,-204133,-54702,-5973,40433,238214]},"impl":true},
    {"code":9921607,"id":"d87d92","name":"芦ノ牧温泉南","name_kana":"あしのまきおんせんみなみ","lat":37.334573,"lng":139.918668,"prefecture":7,"lines":[99216,11235],"attr":"eco","postal_code":"969-5133","address":"会津若松市大戸町大字大川字大平甲","open_date":"1932-12-22","next":[100407,9921606,9921609,9921608,1122506],"voronoi":{"lat":37.308365,"lng":140.105478,"delta_lat":[0,41484,-52356,-40059,43530],"delta_lng":[0,-238214,67993,140831,34022]},"impl":true},
    {"code":9921603,"id":"b79d07","name":"門田","name_kana":"もんでん","lat":37.442616,"lng":139.913769,"prefecture":7,"lines":[99216,11235],"attr":"eco","postal_code":"965-0828","address":"会津若松市門田町大字面川字中島","open_date":"1927-11-01","next":[9921604,1122704,9921605,9921602],"voronoi":{"lat":37.451292,"lng":139.901611,"delta_lat":[0,-27961,14737,9153],"delta_lng":[0,-28081,97989,23323]},"impl":true},
    {"code":100407,"left":1123105,"right":1123107,"id":"050b6e","name":"新白河","name_kana":"しんしらかわ","lat":37.12331,"lng":140.188969,"prefecture":7,"lines":[1004,11231],"attr":"heat","postal_code":"961-8061","address":"西白河郡西郷村小田倉","next":[1123104,1123107,9921609,9921607,1122506,1123103,1123105],"voronoi":{"lat":37.304138,"lng":140.155593,"delta_lat":[0,-3173,-43530,-95577,-276,-39845,-15988],"delta_lng":[0,-45482,-34022,-50356,399,80267,100303]},"impl":true},
    {"code":1123105,"left":1123104,"id":"c59604","name":"白坂","name_kana":"しらさか","lat":37.09457,"lng":140.184388,"prefecture":7,"lines":[11231],"attr":"heat","postal_code":"961-0835","address":"白河市白坂","next":[1133834,1123104,1123107,100407,1123108],"voronoi":{"lat":37.072586,"lng":140.246381,"delta_lat":[0,33163,15988,-118403,22527],"delta_lng":[0,-39679,-100303,159727,6694]},"impl":true},
    {"code":1123104,"id":"bf8a30","name":"豊原","name_kana":"とよはら","lat":37.055014,"lng":140.155066,"prefecture":9,"lines":[11231],"attr":"heat","postal_code":"329-3213","address":"那須郡那須町大字豊原","next":[100407,9935408,1133832,1123103,1123105,1133834],"voronoi":{"lat":36.984449,"lng":140.264488,"delta_lat":[0,-51735,5196,223672,-39845,-118403],"delta_lng":[0,-11822,-23755,-202780,80267,159727]},"impl":true},
    {"code":1123107,"id":"d55e1d","name":"白河","name_kana":"しらかわ","lat":37.129692,"lng":140.213742,"prefecture":7,"lines":[11231],"attr":"heat","postal_code":"961-0074","address":"白河市字郭内","next":[100407,1122506,1123110,1123108,1123111,1123105],"voronoi":{"lat":37.246867,"lng":140.218338,"delta_lat":[0,41979,17910,-2618,-198389,-33163],"delta_lng":[0,-27777,-16292,-18676,51109,39679]},"impl":true},
    {"code":1122508,"left":1122515,"right":1122505,"id":"768d4a","name":"関都","name_kana":"せきと","lat":37.515577,"lng":140.143619,"prefecture":7,"lines":[11225],"attr":"cool","postal_code":"969-2273","address":"耶麻郡猪苗代町大字関都字南切立","next":[1122510,1122507,1122505,1122506,1122509],"voronoi":{"lat":37.525542,"lng":140.186751,"delta_lat":[0,-10496,-19956,21073,26618],"delta_lng":[0,-14611,-75948,15980,79113]},"impl":true},
    {"code":1122515,"left":1122702,"right":1122509,"id":"97ca27","name":"会津若松","name_kana":"あいづわかまつ","lat":37.508824,"lng":139.930159,"prefecture":7,"lines":[11225,11226,11227],"attr":"heat","postal_code":"965-0041","address":"会津若松市駅前町","next":[1122602,9921602,1122512,9921605,1122511,1122703,1122702,1122514],"voronoi":{"lat":37.461241,"lng":140.016835,"delta_lat":[0,-7452,-24,19174,14365,39872,3016,-3940],"delta_lng":[0,2647,-1326,-61079,-20478,-27104,7503,50009]},"impl":true},
    {"code":1122702,"left":1122703,"id":"0b3dd3","name":"七日町","name_kana":"なぬかまち","lat":37.50121,"lng":139.918958,"prefecture":7,"lines":[11227],"attr":"heat","postal_code":"965-0044","address":"会津若松市七日町","next":[1122602,1122707,1122515,1122703,1122706],"voronoi":{"lat":37.52265,"lng":139.876103,"delta_lat":[0,4525,-39872,19798,2730],"delta_lng":[0,33393,27104,-62778,21]},"impl":true},
    {"code":1122703,"id":"bfbd91","name":"西若松","name_kana":"にしわかまつ","lat":37.486034,"lng":139.914172,"prefecture":7,"lines":[11227,99216,11235],"attr":"heat","postal_code":"965-0853","address":"会津若松市材木町１","next":[1122704,9921602,1122515,1122706,1122702],"voronoi":{"lat":37.507102,"lng":139.873822,"delta_lat":[0,-3730,-31009,576,14365],"delta_lng":[0,-691,33002,50945,-20478]},"impl":true},
    {"code":1122509,"id":"dec96b","name":"川桁","name_kana":"かわげた","lat":37.535639,"lng":140.136869,"prefecture":7,"lines":[11225],"attr":"cool","postal_code":"969-2663","address":"耶麻郡猪苗代町大字川桁字新町","next":[1122510,1122505,1122508,1121606],"voronoi":{"lat":37.542781,"lng":140.191284,"delta_lat":[0,-26618,165541,-28802],"delta_lng":[0,-79113,52227,80245]},"impl":true},
    {"code":1122505,"left":1122506,"right":1122507,"id":"157e62","name":"中山宿","name_kana":"なかやまじゅく","lat":37.495648,"lng":140.219401,"prefecture":7,"lines":[11225],"attr":"heat","postal_code":"963-1308","address":"郡山市熱海町中山字早稲田","next":[1122504,1123118,1122508,1121606,1122509,1122506,1121605],"voronoi":{"lat":37.65257,"lng":140.250932,"delta_lat":[0,331,-110121,-17239,-160748,257801,26217],"delta_lng":[0,-6288,-53359,-4534,22445,74905,-9131]},"impl":true},
    {"code":1122506,"id":"e66e5b","name":"上戸","name_kana":"じょうこ","lat":37.487848,"lng":140.163538,"prefecture":7,"lines":[11225],"attr":"heat","postal_code":"969-2275","address":"耶麻郡猪苗代町大字山潟字江愛山","next":[1123111,1123107,1122508,9921605,1122505,1122504,9921607,100407,9921606,1122507],"voronoi":{"lat":37.386602,"lng":140.069901,"delta_lat":[0,-54412,-23825,-7401,3173,2618,25319,32719,160748,-10496],"delta_lng":[0,21739,13839,4632,45482,18676,32758,2169,-22445,-14611]},"impl":true},
    {"code":1122507,"id":"d73942","name":"猪苗代湖畔","name_kana":"いなわしろこはん","lat":37.500563,"lng":140.147564,"prefecture":7,"lines":[11225],"attr":"heat","postal_code":"969-2274","address":"耶麻郡猪苗代町大字壺楊字南浜","next":[1122508,9921605,1122511,1122510,1122506],"voronoi":{"lat":37.386602,"lng":140.069901,"delta_lat":[0,45272,35438,27777,19956],"delta_lng":[0,-22103,19817,28577,75948]},"impl":true},
    {"code":1133837,"left":1122927,"right":1133843,"id":"8079e8","name":"磐城石川","name_kana":"いわきいしかわ","lat":37.140635,"lng":140.443969,"prefecture":7,"lines":[11338],"attr":"heat","postal_code":"963-7857","address":"石川郡石川町当町","next":[1122807,1122806,1133838,1122805,1122931,1133835,1133836],"voronoi":{"lat":37.140475,"lng":140.406218,"delta_lat":[0,82328,-52752,-101607,-29262,-18895,65655],"delta_lng":[0,123815,37028,52282,6204,-11792,-134784]},"impl":true},
    {"code":1122927,"left":1133827,"right":9923402,"id":"c469cb","name":"南中郷","name_kana":"みなみなかごう","lat":36.753501,"lng":140.729028,"prefecture":8,"lines":[11229],"attr":"heat","postal_code":"319-1555","address":"北茨城市中郷町小野矢指","next":[1122925,1122928,1122926,1133828],"voronoi":{"lat":36.786092,"lng":140.566321,"delta_lat":[0,-5081,-143863,204892],"delta_lng":[0,9749,451030,-439410]},"impl":true},
    {"code":1133827,"left":1133822,"right":1133835,"id":"673006","name":"矢祭山","name_kana":"やまつりやま","lat":36.84978,"lng":140.395278,"prefecture":7,"lines":[11338],"attr":"cool","postal_code":"963-5322","address":"東白川郡矢祭町大字内川","next":[1133830,1133831,1133824,1133826,1133832,1133828,1133829,9935408],"voronoi":{"lat":36.923891,"lng":140.275883,"delta_lat":[0,-469,-31868,-15112,-86223,598,117646,15232],"delta_lng":[0,3049,87027,31341,62997,-3619,-200250,677]},"impl":true},
    {"code":1133822,"left":1133825,"right":1122925,"id":"4aa5ab","name":"西金","name_kana":"さいがね","lat":36.69548,"lng":140.386468,"prefecture":8,"lines":[11338],"attr":"cool","postal_code":"319-3362","address":"久慈郡大子町大字西金","next":[1122924,1122925,1133820,1133823,1133819,1133824,1133821],"voronoi":{"lat":36.684969,"lng":140.513442,"delta_lat":[0,4636,9409,44466,-8877,-54158,4404],"delta_lng":[0,22239,1921,3574,-76374,-163466,211070]},"impl":true},
    {"code":1133825,"left":1133824,"right":1133826,"id":"1cacb9","name":"常陸大子","name_kana":"ひたちだいご","lat":36.770657,"lng":140.350855,"prefecture":8,"lines":[11338],"attr":"cool","postal_code":"319-3526","address":"久慈郡大子町大字大子","next":[1133823,1133826,1133824,1133408,9935408],"voronoi":{"lat":36.772497,"lng":140.214934,"delta_lat":[0,-81406,46640,47521,70769],"delta_lng":[0,49979,86460,26366,-130623]},"impl":true},
    {"code":1133824,"left":1133823,"id":"cf23b1","name":"袋田","name_kana":"ふくろだ","lat":36.754718,"lng":140.379583,"prefecture":8,"lines":[11338],"attr":"cool","postal_code":"319-3523","address":"久慈郡大子町袋田","next":[1133826,1133827,1122925,1133825,1133823,1133822,1133828],"voronoi":{"lat":36.74348,"lng":140.541176,"delta_lat":[0,-8877,3128,47521,5564,-598,-32114],"delta_lng":[0,-76374,-113429,26366,78939,3619,84853]},"impl":true},
    {"code":1133823,"id":"9587a5","name":"上小川","name_kana":"かみおがわ","lat":36.719216,"lng":140.378604,"prefecture":8,"lines":[11338],"attr":"cool","postal_code":"319-3361","address":"久慈郡大子町大字頃藤","next":[1133408,1133821,1133825,1133822,1133824],"voronoi":{"lat":36.737731,"lng":140.351373,"delta_lat":[0,-46640,-15927,5281,54158],"delta_lng":[0,-86460,4899,31524,163466]},"impl":true},
    {"code":1133826,"id":"7e195e","name":"下野宮","name_kana":"しものみや","lat":36.815744,"lng":140.375282,"prefecture":8,"lines":[11338],"attr":"cool","postal_code":"319-3555","address":"久慈郡大子町大字下野宮","next":[1133824,1133825,1133827,9935408],"voronoi":{"lat":36.856021,"lng":140.247115,"delta_lat":[0,-70769,5564,117646],"delta_lng":[0,130623,78939,-200250]},"impl":true},
    {"code":1122925,"left":1133820,"right":1122926,"id":"ea3e19","name":"十王","name_kana":"じゅうおう","lat":36.671385,"lng":140.68623,"prefecture":8,"lines":[11229],"attr":"heat","postal_code":"319-1304","address":"日立市十王町友部","next":[1133822,1133828,1133824,1122927,1122926,1122924],"voronoi":{"lat":36.699015,"lng":140.537602,"delta_lat":[0,44466,14624,27987,-5081,-170829],"delta_lng":[0,3574,3974,21171,9749,243758]},"impl":true},
    {"code":1133820,"left":1133821,"id":"e138de","name":"中舟生","name_kana":"なかふにゅう","lat":36.645683,"lng":140.392242,"prefecture":8,"lines":[11338],"attr":"heat","postal_code":"319-3107","address":"常陸大宮市舟生堂下","next":[1133817,1133822,1133821,1133819,1133818],"voronoi":{"lat":36.684969,"lng":140.513442,"delta_lat":[0,-120,-48728,-6519,-3048],"delta_lng":[0,-1036,-217385,24242,57369]},"impl":true},
    {"code":1133821,"id":"7c58cb","name":"下小川","name_kana":"しもおがわ","lat":36.668975,"lng":140.387021,"prefecture":8,"lines":[11338],"attr":"heat","postal_code":"319-3102","address":"常陸大宮市盛金","next":[1133823,1133817,1133820,9935316,1133408,1133822],"voronoi":{"lat":36.636121,"lng":140.29502,"delta_lat":[0,2181,2762,34100,5281,4404],"delta_lng":[0,-15453,-7033,-2723,31524,211070]},"impl":true},
    {"code":1122926,"id":"f6eaa1","name":"高萩","name_kana":"たかはぎ","lat":36.714873,"lng":140.716707,"prefecture":8,"lines":[11229],"attr":"heat","postal_code":"318-0034","address":"高萩市大字高萩","next":[1122923,1122924,1122928,9923407,1122927,1122925],"voronoi":{"lat":36.520375,"lng":140.989573,"delta_lat":[0,-172186,279083,9876,143863,-170829],"delta_lng":[0,390907,-328137,-25244,-451030,243758]},"impl":true},
    {"code":1133835,"left":1133833,"right":1133830,"id":"ed6a92","name":"磐城浅川","name_kana":"いわきあさかわ","lat":37.079787,"lng":140.414329,"prefecture":7,"lines":[11338],"attr":"cool","postal_code":"963-6204","address":"石川郡浅川町大字浅川","next":[1122931,1133834,1133831,1133836,1133837,1123109,1133833],"voronoi":{"lat":37.015469,"lng":140.61175,"delta_lat":[0,4818,65655,12964,-2511,-49364,-29362],"delta_lng":[0,2006,-134784,-136033,-1710,73718,79837]},"impl":true},
    {"code":1133833,"left":1133831,"right":1133834,"id":"7278e8","name":"中豊","name_kana":"なかとよ","lat":37.022479,"lng":140.393253,"prefecture":7,"lines":[11338],"attr":"cool","postal_code":"963-5663","address":"東白川郡棚倉町大字流","next":[1133834,1133831,1133835,1133832],"voronoi":{"lat":37.010868,"lng":140.363148,"delta_lat":[0,36163,-29362,-4437],"delta_lng":[0,51798,79837,-15073]},"impl":true},
    {"code":1133831,"left":1133832,"id":"aa6cbe","name":"磐城塙","name_kana":"いわきはなわ","lat":36.95862,"lng":140.41205,"prefecture":7,"lines":[11338],"attr":"cool","postal_code":"963-5400","address":"東白川郡塙町宮田","next":[1133827,1133835,1133830,1133832,1133833,1122930,1122931],"voronoi":{"lat":37.017669,"lng":140.494784,"delta_lat":[0,-4437,-89341,-469,19630,9597,62820],"delta_lng":[0,-15073,-203828,3049,324698,1915,6205]},"impl":true},
    {"code":1133832,"id":"d778a3","name":"近津","name_kana":"ちかつ","lat":37.000487,"lng":140.393699,"prefecture":7,"lines":[11338],"attr":"cool","postal_code":"963-5671","address":"東白川郡棚倉町大字寺山","next":[9935408,1133834,1123104,1133831,1133827,1133833],"voronoi":{"lat":37.010868,"lng":140.363148,"delta_lat":[0,-26419,-51735,-9019,196,89341],"delta_lng":[0,-98660,-11822,4438,18778,203828]},"impl":true},
    {"code":1133834,"id":"28a04b","name":"磐城棚倉","name_kana":"いわきたなくら","lat":37.035127,"lng":140.384423,"prefecture":7,"lines":[11338],"attr":"cool","postal_code":"963-6131","address":"東白川郡棚倉町大字棚倉","next":[1123105,1133835,1133832,1123109,1133833,1123108,1123104],"voronoi":{"lat":37.025861,"lng":140.27282,"delta_lat":[0,53189,17345,-49364,-36163,-26419,18885],"delta_lng":[0,43381,25028,73718,-51798,-98660,1637]},"impl":true},
    {"code":1133830,"left":1133828,"right":1133836,"id":"3d6303","name":"磐城石井","name_kana":"いわきいしい","lat":36.904516,"lng":140.415321,"prefecture":7,"lines":[11338],"attr":"cool","postal_code":"963-5201","address":"東白川郡矢祭町大字中石井","next":[1133827,1122930,1133831,1133829,1133828],"voronoi":{"lat":36.943052,"lng":140.603629,"delta_lat":[0,-19630,-31868,36127,2554],"delta_lng":[0,-324698,87027,226014,10944]},"impl":true},
    {"code":1133828,"left":1133829,"id":"352ae1","name":"東館","name_kana":"ひがしだて","lat":36.870264,"lng":140.423314,"prefecture":7,"lines":[11338],"attr":"cool","postal_code":"963-5118","address":"東白川郡矢祭町大字東舘","next":[1122930,1122925,1133829,1122928,1122927,1133830,1133824,1133827],"voronoi":{"lat":36.876441,"lng":140.3973,"delta_lat":[0,51239,2554,-22894,-65301,-55948,-27987,32114],"delta_lng":[0,194673,10944,859,-16086,-21369,-21171,-84853]},"impl":true},
    {"code":1133829,"id":"989ef2","name":"南石井","name_kana":"みなみいしい","lat":36.894625,"lng":140.416902,"prefecture":7,"lines":[11338],"attr":"cool","postal_code":"963-5202","address":"東白川郡矢祭町下石井","next":[1133828,1133830,1133827],"voronoi":{"lat":36.92768,"lng":140.591972,"delta_lat":[0,-36127,-15112],"delta_lng":[0,-226014,31341]},"impl":true},
    {"code":1133836,"id":"b9d178","name":"里白石","name_kana":"さとしらいし","lat":37.104195,"lng":140.416655,"prefecture":7,"lines":[11338],"attr":"cool","postal_code":"963-6202","address":"石川郡浅川町里白石宿裏","next":[1133839,1123109,1133835,1133838,1133837],"voronoi":{"lat":37.098905,"lng":140.342939,"delta_lat":[0,43647,366,-2444,-54533],"delta_lng":[0,20095,2962,40223,72753]},"impl":true},
    {"code":9923402,"left":9923403,"right":1122802,"id":"71aa25","name":"滝尻","closed":true,"lat":36.95465,"lng":140.876115,"prefecture":7,"lines":[99234],"postal_code":"971-8182","address":"福島県いわき市泉町滝尻東越地３０","closed_date":"1972-10-01","next":[9923404,9923405,1122933,9923403,1122932],"voronoi":{"lat":36.939116,"lng":140.864427,"delta_lat":[0,21839,187,38447,-17146],"delta_lng":[0,23635,128,12280,-34167]},"impl":false},
    {"code":9923403,"left":1122930,"right":9923404,"id":"2d2eb8","name":"東邦亜鉛前","closed":true,"lat":36.949543,"lng":140.880834,"prefecture":7,"lines":[99234],"postal_code":"971-8101","address":"福島県いわき市小名浜大道下２５−２３","closed_date":"1972-10-01","next":[9923404,9923402,1122932,1122931,1122930],"voronoi":{"lat":36.960955,"lng":140.888062,"delta_lat":[0,-21839,-47692,-6603,-5263],"delta_lng":[0,-23635,-10819,2262,3663]},"impl":false},
    {"code":1122930,"left":1122929,"right":1122931,"id":"b77dcb","name":"勿来","name_kana":"なこそ","lat":36.883883,"lng":140.786506,"prefecture":7,"lines":[11229],"attr":"eco","postal_code":"979-0146","address":"いわき市勿来町関田寺下","next":[1122929,1133830,1133828,9923404,1122928,1133831,9923403,1122931],"voronoi":{"lat":36.952648,"lng":140.605544,"delta_lat":[0,-9597,-12817,-22894,-4600,-60483,37301,5263],"delta_lng":[0,-1915,-713,859,10678,268801,-23722,-3663]},"impl":true},
    {"code":1122929,"left":1122928,"id":"fe8574","name":"大津港","name_kana":"おおつこう","lat":36.846085,"lng":140.778001,"prefecture":8,"lines":[11229],"attr":"heat","postal_code":"319-1704","address":"北茨城市大津町北町","next":[1122930,9923407,9923404,1122928],"voronoi":{"lat":36.902741,"lng":140.614454,"delta_lat":[0,-60483,-3462,-157396],"delta_lng":[0,268801,3235,115590]},"impl":true},
    {"code":1122928,"id":"ff59f8","name":"磯原","name_kana":"いそはら","lat":36.790684,"lng":140.746366,"prefecture":8,"lines":[11229],"attr":"heat","postal_code":"319-1541","address":"北茨城市磯原町磯原","next":[9923407,1122926,1122927,1133828,1122930,1122929],"voronoi":{"lat":36.627272,"lng":141.052343,"delta_lat":[0,9876,204892,65301,-4600,-221341],"delta_lng":[0,-25244,-439410,16086,10678,387626]},"impl":true},
    {"code":1122931,"id":"72edbb","name":"植田(福島)","original_name":"植田","name_kana":"うえだ","lat":36.920649,"lng":140.796468,"prefecture":7,"lines":[11229],"attr":"eco","postal_code":"974-8261","address":"いわき市植田町金畑","next":[1133835,1122933,1122805,9923403,1133837,1122932,1133831,1122930],"voronoi":{"lat":36.952648,"lng":140.605544,"delta_lat":[0,62820,4818,18895,9735,-71814,-85678,-6603],"delta_lng":[0,6205,2006,11792,60131,115989,51940,2262]},"impl":true},
    {"code":9923404,"left":9923407,"right":9923405,"id":"27ca02","name":"宮下","name_kana":"みやした","closed":true,"lat":36.947528,"lng":140.886583,"prefecture":7,"lines":[99234],"postal_code":"971-8101","address":"福島県いわき市小名浜宮下１２７","closed_date":"2015-01-13","next":[9923402,9923407,9923403,1122930,1122929,9923405,9923406],"voronoi":{"lat":36.905892,"lng":140.894501,"delta_lat":[0,-67096,3462,37301,81397,187,-38953],"delta_lng":[0,-8012,-3235,-23722,28529,128,6719]},"impl":false},
    {"code":9923407,"left":9923406,"id":"8fb6ba","name":"栄町(福島)","original_name":"栄町","closed":true,"lat":36.944493,"lng":140.912,"prefecture":7,"lines":[99234],"postal_code":"971-8101","address":"福島県いわき市小名浜栄町４−４","closed_date":"1968-07-01","next":[1122928,9923404,9933506,9933505,1122926,1123003,1122929,1122801,9931502,1122923,9933507,9923406,1123002],"voronoi":{"lat":37.007318,"lng":140.93645,"delta_lat":[0,-1292,-100134,-67096,-157396,-54128,-279083,-24278,-12585,-36,-1649,-48569,712279],"delta_lng":[0,-7450,-34498,-8012,115590,50264,328137,34371,24252,783,38831,1214035,-1631615]},"impl":false},
    {"code":9923406,"id":"e7fc8c","name":"小名浜","name_kana":"おなはま","lat":36.94708,"lng":140.904491,"prefecture":7,"lines":[99234],"postal_code":"971-8101","address":"福島県いわき市小名浜辰巳町３１−２明電社四郎電気","next":[9923405,1122801,9923404,9923407],"voronoi":{"lat":36.905892,"lng":140.894501,"delta_lat":[0,16298,81645,2191],"delta_lng":[0,407,14155,19936]},"impl":false},
    {"code":9923405,"id":"c2677b","name":"水素前","name_kana":"すいそまえ","closed":true,"lat":36.948853,"lng":140.894264,"prefecture":7,"lines":[99234],"postal_code":"971-8101","address":"福島県いわき市小名浜渚廻２−６","closed_date":"1972-10-01","next":[9923402,1122933,9923406,9923404,1122801],"voronoi":{"lat":36.92219,"lng":140.894909,"delta_lat":[0,38953,38447,4188,57],"delta_lng":[0,-6719,12280,5481,3113]},"impl":false},
    {"code":1122802,"left":1122934,"right":1123002,"id":"58a2fd","name":"赤井","name_kana":"あかい","lat":37.080631,"lng":140.866294,"prefecture":7,"lines":[11228],"attr":"heat","postal_code":"979-3131","address":"いわき市平赤井","next":[1123002,1122805,1122801,1122934,1122803,1122804],"voronoi":{"lat":37.0923,"lng":140.75356,"delta_lat":[0,-5514,-30390,47517,3327,-12315],"delta_lng":[0,-5942,120427,40953,278,-149267]},"impl":true},
    {"code":1122934,"left":1122932,"right":1122803,"id":"e7c171","name":"内郷","name_kana":"うちごう","lat":37.035895,"lng":140.855005,"prefecture":7,"lines":[11229],"attr":"heat","postal_code":"973-8403","address":"いわき市内郷綴町榎下","next":[1122801,1122802,1122805,1122933],"voronoi":{"lat":37.050371,"lng":140.688582,"delta_lat":[0,36415,-30390,-42220],"delta_lng":[0,59037,120427,25315]},"impl":true},
    {"code":1122932,"left":1122933,"id":"28f062","name":"泉(JR)","original_name":"泉","name_kana":"いずみ","lat":36.955602,"lng":140.854125,"prefecture":7,"lines":[11229,99234],"attr":"eco","postal_code":"971-8182","address":"福島県いわき市泉町滝尻上谷地30","next":[9923403,1122933,9923402,1122931],"voronoi":{"lat":36.939116,"lng":140.864427,"delta_lat":[0,43327,-5341,-85678],"delta_lng":[0,1876,-64635,51940]},"impl":true},
    {"code":1122933,"id":"51da2a","name":"湯本","name_kana":"ゆもと","lat":37.006922,"lng":140.849884,"prefecture":7,"lines":[11229],"attr":"heat","postal_code":"972-8321","address":"いわき市常磐湯本町天王崎","next":[1122931,1122805,9923402,1122934,9923405,1122932,1122801],"voronoi":{"lat":37.014177,"lng":140.893361,"delta_lat":[0,36195,-1455,-71814,5341,17146,4188],"delta_lng":[0,-204779,-2903,115989,64635,34167,5481]},"impl":true},
    {"code":1122803,"id":"3af310","name":"小川郷","name_kana":"おがわごう","lat":37.126446,"lng":140.862514,"prefecture":7,"lines":[11228],"attr":"heat","postal_code":"979-3122","address":"いわき市小川町高萩","next":[1122804,1123005,1123003,1123004,1123006,1122802,1123002],"voronoi":{"lat":37.107241,"lng":140.909276,"delta_lat":[0,-12315,104373,-515,-41883,-12158,-11174],"delta_lng":[0,-149267,151708,322,14389,1462,-2275]},"impl":true},
    {"code":1123002,"left":1122801,"right":1123003,"id":"56255d","name":"草野(福島)","original_name":"草野","name_kana":"くさの","lat":37.073863,"lng":140.947243,"prefecture":7,"lines":[11230],"attr":"cool","postal_code":"970-0112","address":"いわき市平泉崎","next":[1123003,1122802,1122801,1122803,9923407],"voronoi":{"lat":37.007318,"lng":140.93645,"delta_lat":[0,96596,3327,26328,-160218],"delta_lng":[0,-27451,278,16339,135522]},"impl":true},
    {"code":1122801,"id":"5984ad","name":"いわき","name_kana":"いわき","lat":37.058241,"lng":140.892273,"prefecture":7,"lines":[11228,11229,11230],"attr":"heat","postal_code":"970-8026","address":"いわき市平字田町","next":[1122802,1122934,1123002,9923406,9923407,1122933,9923405],"voronoi":{"lat":37.003778,"lng":140.90595,"delta_lat":[0,10399,42220,47517,-96596,-1292,-2191],"delta_lng":[0,-12590,-25315,40953,27451,-7450,-19936]},"impl":true},
    {"code":1123003,"id":"cf9bbf","name":"四ツ倉","name_kana":"よつくら","lat":37.102338,"lng":140.980907,"prefecture":7,"lines":[11230],"attr":"cool","postal_code":"979-0201","address":"いわき市四倉町鬼越","next":[1123002,9933507,1122803,9923407,1123004],"voronoi":{"lat":37.144742,"lng":140.927891,"delta_lat":[0,-11174,-160218,-712279,-69421],"delta_lng":[0,-2275,135522,1631615,813317]},"impl":true},
    {"code":1133843,"left":1133844,"right":1122810,"id":"2bf383","name":"谷田川","name_kana":"やたがわ","lat":37.31372,"lng":140.431117,"prefecture":7,"lines":[11338],"attr":"eco","postal_code":"963-1246","address":"郡山市田村町谷田川","next":[1122815,1122813,1122811,1122809,1122812,1133844,1133842,1122810,1122807],"voronoi":{"lat":37.299643,"lng":140.534738,"delta_lat":[0,6099,58897,-2364,-11449,-2652,-6786,-10120,-7586],"delta_lng":[0,-127365,40782,61531,17909,2389,4158,3703,1328]},"impl":true},
    {"code":1133844,"left":1133840,"right":1122516,"id":"4602da","name":"磐城守山","name_kana":"いわきもりやま","lat":37.330776,"lng":140.406485,"prefecture":7,"lines":[11338],"attr":"eco","postal_code":"963-1154","address":"郡山市田村町岩作","next":[1122815,100408,1123113,1123112,1133843,1133842],"voronoi":{"lat":37.301746,"lng":140.401444,"delta_lat":[0,27277,36745,6016,-7145,-58897],"delta_lng":[0,-24089,25635,23686,21478,-40782]},"impl":true},
    {"code":1133840,"left":1123111,"right":1133841,"id":"203793","name":"泉郷","name_kana":"いずみごう","lat":37.214494,"lng":140.405289,"prefecture":7,"lines":[11338],"attr":"heat","postal_code":"963-6312","address":"石川郡玉川村大字小高","next":[1133838,1133841,1133842,1133839,1123110,1123111],"voronoi":{"lat":37.216208,"lng":140.365884,"delta_lat":[0,-13324,1384,25360,11736,1336],"delta_lng":[0,1587,69221,63509,-38110,-79790]},"impl":true},
    {"code":1123111,"left":1123110,"right":1123112,"id":"825cab","name":"鏡石","name_kana":"かがみいし","lat":37.250733,"lng":140.346812,"prefecture":7,"lines":[11231],"attr":"heat","postal_code":"969-0404","address":"岩瀬郡鏡石町大字笠石字中央","next":[1122506,1122504,1123113,1133841,1133840,1123112,1123107,1123110],"voronoi":{"lat":37.288845,"lng":140.19056,"delta_lat":[0,17910,25319,1965,-11053,-54867,-25420,-26492],"delta_lng":[0,-16292,32758,5936,53056,107987,8295,-16417]},"impl":true},
    {"code":1123110,"left":1123109,"id":"bf0442","name":"矢吹","name_kana":"やぶき","lat":37.205286,"lng":140.327983,"prefecture":7,"lines":[11231],"attr":"heat","postal_code":"969-0221","address":"西白河郡矢吹町中町","next":[1123109,1123107,1133839,1133840,1123108,1123111],"voronoi":{"lat":37.288845,"lng":140.19056,"delta_lat":[0,-41979,-16430,-77010,49457,13324],"delta_lng":[0,27777,16361,124825,7947,-1587]},"impl":true},
    {"code":1123109,"id":"7e1caa","name":"泉崎","name_kana":"いずみざき","lat":37.15835,"lng":140.299026,"prefecture":7,"lines":[11231],"attr":"heat","postal_code":"969-0101","address":"西白河郡泉崎村大字泉崎字館","next":[1123110,1123108,1133836,1133834,1133835,1133839],"voronoi":{"lat":37.098905,"lng":140.342939,"delta_lat":[0,-2511,-17345,151387,-77010,-10874],"delta_lng":[0,-1710,-25028,-81502,124825,3510]},"impl":true},
    {"code":1123112,"id":"e1376f","name":"須賀川","name_kana":"すかがわ","lat":37.300335,"lng":140.372014,"prefecture":7,"lines":[11231],"attr":"heat","postal_code":"962-0004","address":"須賀川市中山","next":[1133844,1133841,1133842,1123113,1123111],"voronoi":{"lat":37.322986,"lng":140.266018,"delta_lat":[0,6037,-27277,-2828,-30799],"delta_lng":[0,111337,24089,-233,-27206]},"impl":true},
    {"code":1133841,"left":1133838,"right":1133842,"id":"e77b0e","name":"川東(福島)","original_name":"川東","name_kana":"かわひがし","lat":37.270119,"lng":140.40622,"prefecture":7,"lines":[11338],"attr":"heat","postal_code":"962-0727","address":"須賀川市大字小作田","next":[1133840,1123111,1123112,1133842],"voronoi":{"lat":37.298918,"lng":140.401211,"delta_lat":[0,-30799,-25420,-1336],"delta_lng":[0,-27206,8295,79790]},"impl":true},
    {"code":1133838,"left":1133839,"id":"789927","name":"野木沢","name_kana":"のぎさわ","lat":37.175224,"lng":140.42097,"prefecture":7,"lines":[11338],"attr":"heat","postal_code":"963-7837","address":"石川郡石川町大字中野","next":[1133840,1133837,1133839,1133836,1122807,1133842],"voronoi":{"lat":37.222802,"lng":140.530034,"delta_lat":[0,-82328,2444,61349,25360,-2132],"delta_lng":[0,-123815,-40223,70696,63509,27643]},"impl":true},
    {"code":1133839,"id":"d55adb","name":"川辺沖","name_kana":"かわべおき","lat":37.192794,"lng":140.405723,"prefecture":7,"lines":[11338],"attr":"heat","postal_code":"963-6313","address":"石川郡玉川村大字川辺","next":[1133836,1133840,1123110,1133838,1123109],"voronoi":{"lat":37.142918,"lng":140.365995,"delta_lat":[0,61349,-1384,-49457,-10874],"delta_lng":[0,70696,-69221,-7947,3510]},"impl":true},
    {"code":1133842,"id":"9a15e7","name":"小塩江","name_kana":"おしおえ","lat":37.295533,"lng":140.430246,"prefecture":7,"lines":[11338],"attr":"heat","postal_code":"962-0711","address":"須賀川市大字塩田","next":[1122807,1133840,1123112,1133843,1133844,1133841,1133838],"voronoi":{"lat":37.299643,"lng":140.534738,"delta_lat":[0,6099,-3996,-2828,-57555,-11736,-2132],"delta_lng":[0,-127365,-5928,-233,60879,38110,27643]},"impl":true},
    {"code":1122516,"left":1122503,"right":1123116,"id":"0ba35a","name":"郡山富田","name_kana":"こおりやまとみた","lat":37.420361,"lng":140.3695,"prefecture":7,"lines":[11225],"attr":"heat","postal_code":"963-8041","address":"福島県郡山市富田町満水田","open_date":"2017-04-01","next":[1123113,1123115,1122502,100408],"voronoi":{"lat":37.443797,"lng":140.364515,"delta_lat":[0,-54546,-475,33633],"delta_lng":[0,-62054,54086,37546]},"impl":true},
    {"code":1122503,"left":1123113,"right":1122504,"id":"084d7d","name":"安子ヶ島","name_kana":"あこがしま","lat":37.472048,"lng":140.310133,"prefecture":7,"lines":[11225],"attr":"heat","postal_code":"963-1304","address":"福島県郡山市熱海町安子島字出シ8","next":[1122504,1122502,1123113,1123116,1123117,1123118],"voronoi":{"lat":37.517298,"lng":140.343436,"delta_lat":[0,-23099,-112916,-2925,195926,-11168],"delta_lng":[0,3222,-72137,-5722,43201,9845]},"impl":true},
    {"code":1123113,"left":1122502,"id":"0df19e","name":"安積永盛","name_kana":"あさかながもり","lat":37.356967,"lng":140.368943,"prefecture":7,"lines":[11231,11338],"attr":"heat","postal_code":"963-0108","address":"郡山市笹川３丁目","next":[1122516,100408,1122504,1122503,1123111,1133844,1122502,1123112],"voronoi":{"lat":37.322986,"lng":140.266018,"delta_lat":[0,11053,44318,2925,7968,-475,-23007,-36745],"delta_lng":[0,-53056,55837,5722,27940,54086,46443,-25635]},"impl":true},
    {"code":1122502,"id":"b4da4c","name":"喜久田","name_kana":"きくた","lat":37.451746,"lng":140.341912,"prefecture":7,"lines":[11225],"attr":"heat","postal_code":"963-0551","address":"郡山市喜久田町堀之内字椚内","next":[1122503,1123116,1123113,1123115,1122516],"voronoi":{"lat":37.389251,"lng":140.302461,"delta_lat":[0,-7968,112916,-29833,-20569],"delta_lng":[0,-27940,72137,20223,-2366]},"impl":true},
    {"code":1122504,"id":"d08f28","name":"磐梯熱海","name_kana":"ばんだいあたみ","lat":37.480743,"lng":140.2707,"prefecture":7,"lines":[11225],"attr":"heat","postal_code":"963-1309","address":"郡山市熱海町熱海４","next":[1122503,1123118,1123113,1122505,1123111,1122506],"voronoi":{"lat":37.332075,"lng":140.207027,"delta_lat":[0,1965,44318,195926,48311,-257801],"delta_lng":[0,5936,55837,43201,-27900,-74905]},"impl":true},
    {"code":1123116,"left":100408,"right":1123117,"id":"ddb5a0","name":"五百川","name_kana":"ごひゃくがわ","lat":37.482887,"lng":140.38785,"prefecture":7,"lines":[11231],"attr":"heat","postal_code":"969-1104","address":"本宮市荒井字新介","next":[1122502,1122815,1123117,1122503,1123115,1122814],"voronoi":{"lat":37.517298,"lng":140.343436,"delta_lat":[0,-23099,-29833,876,58,16290],"delta_lng":[0,3222,20223,66216,80,5888]},"impl":true},
    {"code":100408,"left":1123115,"id":"4c93d9","name":"郡山(福島)","original_name":"郡山","name_kana":"こおりやま","lat":37.398187,"lng":140.389363,"prefecture":7,"lines":[1004,11231,11225,11228,11338],"attr":"heat","postal_code":"963-8003","address":"郡山市燧田","next":[1123113,1122815,1133844,1122516,1123115],"voronoi":{"lat":37.422408,"lng":140.394094,"delta_lat":[0,-33633,-23007,6016,50879],"delta_lng":[0,-37546,46443,23686,-20624]},"impl":true},
    {"code":1123115,"id":"94b63a","name":"日和田","name_kana":"ひわだ","lat":37.446405,"lng":140.388333,"prefecture":7,"lines":[11231],"attr":"heat","postal_code":"963-0534","address":"郡山市日和田町字小堰","next":[1122516,1122502,1123116,1122815,100408],"voronoi":{"lat":37.465242,"lng":140.433097,"delta_lat":[0,-876,-20569,-21388,255],"delta_lng":[0,-66216,-2366,29578,11959]},"impl":true},
    {"code":1123117,"id":"0ed707","name":"本宮(福島)","original_name":"本宮","name_kana":"もとみや","lat":37.514177,"lng":140.399534,"prefecture":7,"lines":[11231],"attr":"heat","postal_code":"969-1136","address":"本宮市本宮字九縄","next":[1123116,1122814,1122503,1123118],"voronoi":{"lat":37.563116,"lng":140.321845,"delta_lat":[0,-45818,-35708,38810],"delta_lng":[0,21591,95629,31313]},"impl":true},
    {"code":1122810,"left":1122805,"right":1122811,"id":"5cf5d4","name":"大越","name_kana":"おおごえ","lat":37.386746,"lng":140.630693,"prefecture":7,"lines":[11228],"attr":"cool","postal_code":"963-4111","address":"田村市大越町上大越","next":[1122809,1122811,1123011,1123014,1133843,1123013],"voronoi":{"lat":37.483505,"lng":140.797169,"delta_lat":[0,40802,-182918,-10120,100994,30426],"delta_lng":[0,-16373,-246655,3703,267394,-1947]},"impl":true},
    {"code":1122805,"left":1122808,"right":1122804,"id":"73fcc4","name":"川前","name_kana":"かわまえ","lat":37.20559,"lng":140.750335,"prefecture":7,"lines":[11228],"attr":"heat","postal_code":"979-3201","address":"いわき市川前町大字川前字中の萱","next":[1122933,1122931,1122802,1123010,1122808,1122806,1122934,1133837,1122804],"voronoi":{"lat":37.356355,"lng":140.824314,"delta_lat":[0,-64285,-223626,-29262,9735,1455,36415,5514,243658],"delta_lng":[0,-83919,-121052,6204,60131,2903,59037,5942,84273]},"impl":true},
    {"code":1122808,"left":1122806,"right":1122809,"id":"22c542","name":"神俣","name_kana":"かんまた","lat":37.324186,"lng":140.659487,"prefecture":7,"lines":[11228],"attr":"heat","postal_code":"963-3602","address":"田村市滝根町神俣","next":[1122807,1123010,1122809,1122805,1123011,1122806],"voronoi":{"lat":37.356355,"lng":140.824314,"delta_lat":[0,1783,67573,-109625,-27005,2989],"delta_lng":[0,-223,-17728,-192270,56972,69330]},"impl":true},
    {"code":1122806,"left":1122807,"id":"518cf2","name":"夏井","name_kana":"なつい","lat":37.253108,"lng":140.662552,"prefecture":7,"lines":[11228],"attr":"heat","postal_code":"963-3312","address":"田村郡小野町大字夏井字町屋","next":[1122807,1133837,1122805,1122808],"voronoi":{"lat":37.068444,"lng":140.619344,"delta_lat":[0,101607,119030,2989],"delta_lng":[0,-52282,104004,69330]},"impl":true},
    {"code":1122807,"id":"205b19","name":"小野新町","name_kana":"おのにいまち","lat":37.275819,"lng":140.63656,"prefecture":7,"lines":[11228],"attr":"heat","postal_code":"963-3402","address":"田村郡小野町大字谷津作字平館","next":[1133837,1133842,1122808,1122806,1133838,1122809,1133843],"voronoi":{"lat":37.299643,"lng":140.534738,"delta_lat":[0,-72148,-4693,-52752,119030,27005,7597],"delta_lng":[0,-6894,2190,37028,104004,-56972,-74921]},"impl":true},
    {"code":1122809,"id":"81da08","name":"菅谷","name_kana":"すがや","lat":37.351024,"lng":140.644185,"prefecture":7,"lines":[11228],"attr":"cool","postal_code":"963-3601","address":"田村市滝根町菅谷","next":[1122810,1123011,1122808,1133843,1122807],"voronoi":{"lat":37.323682,"lng":140.539172,"delta_lat":[0,7586,100994,-6552,-109625],"delta_lng":[0,-1328,267394,1125,-192270]},"impl":true},
    {"code":1122804,"left":1123004,"right":1123010,"id":"193ff6","name":"江田(福島)","original_name":"江田","name_kana":"えだ","lat":37.179389,"lng":140.82609,"prefecture":7,"lines":[11228],"attr":"heat","postal_code":"979-3124","address":"いわき市小川町上小川字江田","next":[1122803,1123010,1122805,1123007,1123008,1123006,1122802],"voronoi":{"lat":37.199299,"lng":140.911718,"delta_lat":[0,43173,29311,35737,28439,-243658,2625],"delta_lng":[0,-8046,-13042,-20848,-31948,-84273,6449]},"impl":true},
    {"code":1123004,"left":1123005,"id":"127021","name":"久ノ浜","name_kana":"ひさのはま","lat":37.142465,"lng":140.995741,"prefecture":7,"lines":[11230],"attr":"cool","postal_code":"979-0333","address":"いわき市久之浜町久之浜字北荒蒔","next":[1123005,9933507,1122314,9920804,1123009,1122803,1123003,1123035],"voronoi":{"lat":36.819232,"lng":144.05822,"delta_lat":[0,-689790,-226642,288851,953092,12158,2135,-242295],"delta_lng":[0,2007292,533603,-3093046,-2578179,-1462,360314,2062939]},"impl":true},
    {"code":1123005,"id":"3d3c97","name":"末続","name_kana":"すえつぎ","lat":37.172156,"lng":140.995565,"prefecture":7,"lines":[11230],"attr":"cool","postal_code":"979-0331","address":"いわき市久之浜町大字末続","next":[1123004,1123006,1122803,1123035],"voronoi":{"lat":37.176885,"lng":141.181417,"delta_lat":[0,21898,-41883,2135],"delta_lng":[0,-269377,14389,360314]},"impl":true},
    {"code":1123010,"id":"486ec3","name":"夜ノ森","name_kana":"よのもり","lat":37.365761,"lng":140.991988,"prefecture":7,"lines":[11230],"attr":"cool","postal_code":"979-1151","address":"双葉郡富岡町大字本岡","next":[1122804,1122808,1122805,1123009,1123008,1123011],"voronoi":{"lat":37.358137,"lng":140.824092,"delta_lat":[0,-1783,-20396,-28439,14081,78309],"delta_lng":[0,223,13519,31948,108236,78855]},"impl":true},
    {"code":1122811,"left":1122814,"right":1123013,"id":"bfc388","name":"磐城常葉","name_kana":"いわきときわ","lat":37.420611,"lng":140.605579,"prefecture":7,"lines":[11228],"attr":"cool","postal_code":"963-4311","address":"田村市船引町今泉字田中","next":[1123014,1133843,1122810,1021103,1122812],"voronoi":{"lat":37.552171,"lng":140.772848,"delta_lat":[0,-27865,-182918,6786,198644],"delta_lng":[0,7949,-246655,-4158,142793]},"impl":true},
    {"code":1122814,"left":1122812,"right":1122813,"id":"7c156d","name":"三春","name_kana":"みはる","lat":37.449841,"lng":140.479275,"prefecture":7,"lines":[11228],"attr":"eco","postal_code":"963-7771","address":"田村郡三春町大字平沢字担橋","next":[1123119,1123117,1123118,1122815,1122813,1123116],"voronoi":{"lat":37.5204,"lng":140.470379,"delta_lat":[0,7477,2789,-166166,100800,16290],"delta_lng":[0,12930,8881,16529,-75541,5888]},"impl":true},
    {"code":1122812,"left":1122815,"id":"f8a23f","name":"船引","name_kana":"ふねひき","lat":37.44291,"lng":140.574558,"prefecture":7,"lines":[11228],"attr":"cool","postal_code":"963-4312","address":"田村市船引町船引","next":[1122813,1021103,1021102,1133843,1122811],"voronoi":{"lat":37.348174,"lng":140.529984,"delta_lat":[0,2652,201189,2142,-7339],"delta_lng":[0,-2389,41368,12915,90899]},"impl":true},
    {"code":1122815,"id":"6b002b","name":"舞木","name_kana":"もうぎ","lat":37.416716,"lng":140.435074,"prefecture":7,"lines":[11228],"attr":"eco","postal_code":"963-0661","address":"郡山市舞木町字平","next":[1133843,1123116,100408,1133844,1122814,1122813,1123115],"voronoi":{"lat":37.422664,"lng":140.406052,"delta_lat":[0,-50879,-7145,-2364,2224,100800,-58],"delta_lng":[0,20624,21478,61531,-967,-75541,-80]},"impl":true},
    {"code":1122813,"id":"e181d4","name":"要田","name_kana":"かなめた","lat":37.453969,"lng":140.520773,"prefecture":7,"lines":[11228],"attr":"eco","postal_code":"963-4323","address":"田村市船引町要田","next":[1133843,1122812,1123120,1122815,1122814,1021102,1123119],"voronoi":{"lat":37.530665,"lng":140.492189,"delta_lat":[0,-166166,-2224,-11449,201189,1449,-18882],"delta_lng":[0,16529,967,17909,41368,-16126,-54424]},"impl":true},
    {"code":1123013,"left":1123011,"right":1123014,"id":"ce455e","name":"浪江","name_kana":"なみえ","lat":37.492291,"lng":140.989521,"prefecture":7,"lines":[11230],"attr":"eco","postal_code":"979-1521","address":"双葉郡浪江町大字権現堂","next":[1123011,1123012,1123015,1122810,1123014],"voronoi":{"lat":37.483505,"lng":140.797169,"delta_lat":[0,-20816,-9524,63924,3934],"delta_lng":[0,6122,147411,151026,-40581]},"impl":true},
    {"code":1123011,"id":"6fba73","name":"大野","name_kana":"おおの","lat":37.409367,"lng":140.984163,"prefecture":7,"lines":[11230],"attr":"cool","postal_code":"979-1308","address":"双葉郡大熊町大字下野上","next":[1122809,1123013,1123009,1123012,1122810,1123010,1122808],"voronoi":{"lat":37.399909,"lng":141.056872,"delta_lat":[0,777,52478,9524,-30426,-6552,-67573],"delta_lng":[0,1510,-107680,-147411,1947,1125,17728]},"impl":true},
    {"code":1123014,"id":"0f5f1a","name":"桃内","name_kana":"ももうち","lat":37.52866,"lng":140.984352,"prefecture":7,"lines":[11230],"attr":"eco","postal_code":"979-2151","address":"南相馬市小高区耳谷","next":[1021103,1122811,1123016,1122810,1123017,1123013,1123015],"voronoi":{"lat":37.483505,"lng":140.797169,"delta_lat":[0,40802,27865,6645,15701,-408,-53087],"delta_lng":[0,-16373,-7949,2314,130028,4421,151537]},"impl":true}
  ]
}