{
  "name":"segment28",
  "root":9951401,
  "east":137.400288,
  "west":136.873051,
  "south":35.069244,
  "north":35.222478,
  "station_size":155,
  "node_list":[
    {"code":9951401,"left":9951411,"right":9951317,"id":"c56fc8","name":"ナゴヤドーム前矢田","name_kana":"なごやどーむまえやだ","lat":35.190691,"lng":136.945255,"prefecture":23,"lines":[99514,99523],"attr":"eco","postal_code":"461-0043","address":"名古屋市東区大幸１-１","next":[9951314,1141105,9951313,9951428,3001207],"voronoi":{"lat":35.196259,"lng":136.941729,"delta_lat":[0,-15523,-1630,160,10336],"delta_lng":[0,-1567,4274,2992,2163]},"impl":true},
    {"code":9951411,"left":3000133,"right":9951310,"id":"c4f435","name":"上前津","name_kana":"かみまえづ","lat":35.157477,"lng":136.906815,"prefecture":23,"lines":[99514,99516],"attr":"eco","postal_code":"460-0011","address":"名古屋市中区大須４-１１-１５","next":[9951412,9951410,9951608,1141103],"voronoi":{"lat":35.162109,"lng":136.903616,"delta_lat":[0,-6796,-3005,6792],"delta_lng":[0,-2553,10600,678]},"impl":true},
    {"code":3000133,"left":9951416,"right":9951418,"id":"f62256","name":"神宮前","name_kana":"じんぐうまえ","lat":35.125857,"lng":136.912485,"prefecture":23,"lines":[30001,30008],"attr":"heat","postal_code":"456-0032","address":"名古屋市熱田区三本松町","next":[9951415,9951416,1150230,3000132,9951712],"voronoi":{"lat":35.121758,"lng":136.915174,"delta_lat":[0,2656,2672,5996,-1453],"delta_lng":[0,-6463,982,12612,393]},"impl":true},
    {"code":9951416,"left":3001102,"right":1141102,"id":"a2d0cb","name":"伝馬町","name_kana":"てんまちょう","lat":35.120735,"lng":136.91038,"prefecture":23,"lines":[99514],"attr":"heat","postal_code":"456-0034","address":"名古屋市熱田区伝馬２-１-１","next":[9951504,9951503,3000132,3000133,9951415,3000805],"voronoi":{"lat":35.121758,"lng":136.915174,"delta_lat":[0,2656,-4864,-1850,-1343,1104],"delta_lng":[0,-6463,-9725,-332,428,15872]},"impl":true},
    {"code":3001102,"left":9951505,"right":3000806,"id":"16be1d","name":"東名古屋港","name_kana":"ひがしなごやこう","lat":35.089091,"lng":136.899255,"prefecture":23,"lines":[30011],"attr":"heat","postal_code":"455-0024","address":"名古屋市港区大江町９-９","next":[9951507,3000806,9951505,3000807,3000809,9951506,3000808],"voronoi":{"lat":35.076818,"lng":136.897389,"delta_lat":[0,-7469,25261,5517,1769,-4308,-9765],"delta_lng":[0,-12346,6415,3516,2002,7052,3014]},"impl":true},
    {"code":9951505,"left":9951506,"right":9951504,"id":"13fa75","name":"港区役所","name_kana":"みなとくやくしょ","lat":35.105736,"lng":136.88455,"prefecture":23,"lines":[99515],"attr":"heat","postal_code":"455-0014","address":"名古屋市港区港楽１-１４-２０","next":[9950908,3001102,9950907,9951504,3000806,9951506],"voronoi":{"lat":35.101896,"lng":136.896976,"delta_lat":[0,3648,7996,-5711,-2897,-4805],"delta_lng":[0,4,-21961,-2303,145,22113]},"impl":true},
    {"code":9951506,"left":9951507,"id":"819eb5","name":"築地口","name_kana":"つきじぐち","lat":35.099348,"lng":136.883162,"prefecture":23,"lines":[99515],"attr":"heat","postal_code":"455-0014","address":"名古屋市港区港楽３-４-１３","next":[9950908,9950909,3001102,9951507,9951505],"voronoi":{"lat":35.09461,"lng":136.891457,"delta_lat":[0,3967,884,5471,-4805],"delta_lng":[0,-19544,-351,1298,22113]},"impl":true},
    {"code":9951507,"id":"7f2cfa","name":"名古屋港","name_kana":"なごやこう","lat":35.09348,"lng":136.881971,"prefecture":23,"lines":[99515],"attr":"cool","postal_code":"455-0032","address":"名古屋市港区入船１-８-２３","next":[3001102,3000809,9950909,9950910,9951506],"voronoi":{"lat":35.098576,"lng":136.871914,"delta_lat":[0,-24159,-10117,5048,25261],"delta_lng":[0,2655,6625,3849,6415]},"impl":true},
    {"code":9951504,"id":"7b5e78","name":"東海通","name_kana":"とうかいどおり","lat":35.113388,"lng":136.887336,"prefecture":23,"lines":[99515],"attr":"eco","postal_code":"455-0002","address":"名古屋市港区東海通３-１７７","next":[3000805,9950907,9951416,3000806,9951503,9951505],"voronoi":{"lat":35.11354,"lng":136.875018,"delta_lat":[0,7023,-2862,-1343,-4654,-6160],"delta_lng":[0,325,23311,428,39,-2142]},"impl":true},
    {"code":3000806,"left":3000808,"right":3000805,"id":"6c8053","name":"道徳","name_kana":"どうとく","lat":35.105712,"lng":136.909409,"prefecture":23,"lines":[30008],"attr":"heat","postal_code":"457-0841","address":"名古屋市南区豊田１-１２-１０","next":[3001102,3000807,9951417,9951504,1150229,9951505,3000805],"voronoi":{"lat":35.111704,"lng":136.899121,"delta_lat":[0,-6160,-3648,-4308,3903,3713,2933],"delta_lng":[0,-2142,-4,7052,14513,2327,-2612]},"impl":true},
    {"code":3000808,"left":3000809,"id":"f07c44","name":"大同町","name_kana":"だいどうちょう","lat":35.080268,"lng":136.909314,"prefecture":23,"lines":[30008],"attr":"heat","postal_code":"457-0811","address":"名古屋市南区大同町３-１","next":[1150228,3000128,1150229,3000809,3001102,3000807],"voronoi":{"lat":35.087822,"lng":136.907041,"delta_lat":[0,-11005,-699,65,4159,3802],"delta_lng":[0,-9653,27875,23,-1055,-3319]},"impl":true},
    {"code":3000809,"id":"ff3698","name":"柴田","name_kana":"しばた","lat":35.072774,"lng":136.909126,"prefecture":23,"lines":[30008],"attr":"heat","postal_code":"457-0815","address":"名古屋市南区柴田町５-５","next":[3000810,9951507,9950910,1150228,3001102,3000808,3000811],"voronoi":{"lat":35.069924,"lng":136.924561,"delta_lat":[0,6194,699,-7469,-5048,-1409,-1172],"delta_lng":[0,703,-27875,-12346,-3849,-64,5760]},"impl":true},
    {"code":3000805,"id":"709c2b","name":"豊田本町","name_kana":"とよだほんまち","lat":35.113586,"lng":136.910877,"prefecture":23,"lines":[30008],"attr":"heat","postal_code":"457-0863","address":"名古屋市南区豊１-２６-１７","next":[9951504,3000132,9951417,3000806,9951416],"voronoi":{"lat":35.116358,"lng":136.899082,"delta_lat":[0,-4654,-3567,7886,1439],"delta_lng":[0,39,19134,-2231,-1070]},"impl":true},
    {"code":1141102,"left":1150232,"right":9951414,"id":"27a817","name":"金山(愛知)","original_name":"金山","name_kana":"かなやま","lat":35.142928,"lng":136.900517,"prefecture":23,"lines":[11411,11502,30001,30008,99514,99515],"attr":"heat","postal_code":"460-0022","address":"名古屋市中区金山１丁目","next":[9951502,1150230,9951414,1150232,9951412],"voronoi":{"lat":35.149525,"lng":136.897719,"delta_lat":[0,-9440,-2013,2076,1267],"delta_lng":[0,-4028,2783,13777,1637]},"impl":true},
    {"code":1150232,"left":9951502,"right":3000135,"id":"08c724","name":"尾頭橋","name_kana":"おとうばし","lat":35.146981,"lng":136.89102,"prefecture":23,"lines":[11502],"attr":"eco","postal_code":"454-0000","address":"名古屋市中川区尾頭橋４","next":[9951502,3102703,9950904,9951412,1141102,3000135,9951608],"voronoi":{"lat":35.152877,"lng":136.896473,"delta_lat":[0,-9194,-1385,-4569,2356,9440,3112],"delta_lng":[0,-19218,-624,1088,15971,4028,-782]},"impl":true},
    {"code":9951502,"left":9951503,"id":"eed540","name":"日比野(名古屋市交通局)","original_name":"日比野","name_kana":"ひびの","lat":35.132711,"lng":136.893125,"prefecture":23,"lines":[99515],"attr":"eco","postal_code":"456-0062","address":"名古屋市熱田区大宝一丁目3-18","next":[1150232,1141102,9950904,9951415,9951414,9951503],"voronoi":{"lat":35.136074,"lng":136.877336,"delta_lat":[0,1655,2356,-2013,-10834,-2440],"delta_lng":[0,383,15971,2783,2395,-851]},"impl":true},
    {"code":9951503,"id":"81f00f","name":"六番町","name_kana":"ろくばんちょう","lat":35.124623,"lng":136.888715,"prefecture":23,"lines":[99515],"attr":"eco","postal_code":"456-0051","address":"名古屋市熱田区四番１-１０-１２","next":[9950907,9950904,9950905,9951416,9950906,9951415,9951504,9951502],"voronoi":{"lat":35.136074,"lng":136.877336,"delta_lat":[0,-45,-8479,-6017,-970,-2862,1850,5247],"delta_lng":[0,-26,-2229,-115,377,23311,332,-969]},"impl":true},
    {"code":3000135,"id":"2e3c4e","name":"山王(愛知)","original_name":"山王","name_kana":"さんのう","lat":35.15233,"lng":136.888461,"prefecture":23,"lines":[30001,30008],"attr":"heat","postal_code":"454-0000","address":"名古屋市中川区東出町２丁目","next":[9950902,3102703,3102702,1150232,9951608],"voronoi":{"lat":35.143683,"lng":136.877256,"delta_lat":[0,8278,2927,5537,-7548],"delta_lng":[0,1789,3048,7843,6538]},"impl":true},
    {"code":9951414,"left":1150230,"right":9951412,"id":"b5166d","name":"西高蔵","name_kana":"にしたかくら","lat":35.134622,"lng":136.901769,"prefecture":23,"lines":[99514],"attr":"eco","postal_code":"456-0016","address":"名古屋市熱田区五本松町９-３４","next":[9951415,1150230,1141102,9951502],"voronoi":{"lat":35.132926,"lng":136.906452,"delta_lat":[0,7221,-2076,-10834],"delta_lng":[0,3799,-13777,2395]},"impl":true},
    {"code":1150230,"left":9951415,"id":"0cbebb","name":"熱田","name_kana":"あつた","lat":35.130028,"lng":136.910502,"prefecture":23,"lines":[11502],"attr":"cool","postal_code":"456-0024","address":"名古屋市熱田区森後町２丁目","next":[9951712,9951414,9951711,9951412,1141102,9951611,3000133,9951415],"voronoi":{"lat":35.132926,"lng":136.906452,"delta_lat":[0,7221,1267,889,-4328,-3873,-1020,-5996],"delta_lng":[0,3799,1637,3196,5506,1641,75,-12612]},"impl":true},
    {"code":9951415,"id":"59503b","name":"神宮西","name_kana":"じんぐうにし","lat":35.127956,"lng":136.906769,"prefecture":23,"lines":[99514],"attr":"heat","postal_code":"456-0031","address":"名古屋市熱田区神宮１-１-４","next":[9951414,3000133,9951502,9951503,9951416,1150230],"voronoi":{"lat":35.124414,"lng":136.908712,"delta_lat":[0,-4864,5247,2440,5689,-5840],"delta_lng":[0,-9725,-969,851,7583,3242]},"impl":true},
    {"code":9951412,"id":"1e2878","name":"東別院","name_kana":"ひがしべついん","lat":35.150453,"lng":136.904824,"prefecture":23,"lines":[99514],"attr":"eco","postal_code":"460-0015","address":"名古屋市中区大井町３-２４","next":[9951411,1150230,9951608,9951611,1150232,1141103,1141102],"voronoi":{"lat":35.149525,"lng":136.897719,"delta_lat":[0,3112,2677,-3005,-7441,-2564,-889],"delta_lng":[0,-782,4126,10600,3518,-97,-3196]},"impl":true},
    {"code":9951418,"left":3000129,"right":9951612,"id":"626ec1","name":"妙音通","name_kana":"みょうおんどおり","lat":35.117125,"lng":136.929545,"prefecture":23,"lines":[99514],"attr":"heat","postal_code":"467-0842","address":"名古屋市瑞穂区妙音通３-９","next":[9951419,9951713,3000132,3000131,9951417],"voronoi":{"lat":35.120808,"lng":136.925375,"delta_lat":[0,4532,-4508,-3808,-2573],"delta_lng":[0,1460,5946,328,-7345]},"impl":true},
    {"code":3000129,"left":3000131,"right":3000130,"id":"9e2cad","name":"本笠寺","name_kana":"もとかさでら","lat":35.099199,"lng":136.933409,"prefecture":23,"lines":[30001],"attr":"heat","postal_code":"457-0058","address":"名古屋市南区前浜通７丁目","next":[3000130,9951716,1150229,3000128],"voronoi":{"lat":35.092365,"lng":136.932627,"delta_lat":[0,11652,-2221,-6017],"delta_lng":[0,-6717,12950,3925]},"impl":true},
    {"code":3000131,"left":1150229,"right":9951417,"id":"99bd0a","name":"呼続","name_kana":"よびつぎ","lat":35.114722,"lng":136.930387,"prefecture":23,"lines":[30001],"attr":"heat","postal_code":"457-0014","address":"名古屋市南区呼続町１丁目","next":[9951419,9951417,9951715,3000130,9951418],"voronoi":{"lat":35.113335,"lng":136.934897,"delta_lat":[0,-3142,-3939,8197,2573],"delta_lng":[0,-2820,-8123,1810,7345]},"impl":true},
    {"code":1150229,"left":3000807,"id":"3c95b6","name":"笠寺","name_kana":"かさでら","lat":35.095113,"lng":136.926321,"prefecture":23,"lines":[11502],"attr":"cool","postal_code":"457-0077","address":"名古屋市南区立脇町２丁目","next":[3000130,3000807,3000808,3000806,9951417,3000129,3000128],"voronoi":{"lat":35.080343,"lng":136.924231,"delta_lat":[0,3802,17346,3713,581,-1767,-11652],"delta_lng":[0,-3319,-2372,2327,2701,2341,6717]},"impl":true},
    {"code":3000807,"id":"c2051e","name":"大江(愛知)","original_name":"大江","name_kana":"おおえ","lat":35.093258,"lng":136.912758,"prefecture":23,"lines":[30008,30011],"attr":"heat","postal_code":"457-0836","address":"名古屋市南区加福本通２-８-１","next":[3000806,3001102,1150229,3000808],"voronoi":{"lat":35.087822,"lng":136.907041,"delta_lat":[0,9765,3903,-17346],"delta_lng":[0,-3014,14513,2372]},"impl":true},
    {"code":9951417,"id":"1ff9ce","name":"堀田(名古屋市交通局)","original_name":"堀田","name_kana":"ほりた","lat":35.116644,"lng":136.921685,"prefecture":23,"lines":[99514],"attr":"heat","postal_code":"467-0856","address":"愛知県名古屋市瑞穂区新開町28-26","next":[3000806,3000130,3000131,1150229,3000132,3000805,9951418],"voronoi":{"lat":35.120808,"lng":136.925375,"delta_lat":[0,-4786,-7886,-2933,581,470,8197],"delta_lng":[0,-9350,2231,2612,2701,385,1810]},"impl":true},
    {"code":3000130,"left":9951716,"right":9951715,"id":"128df1","name":"桜(愛知)","original_name":"桜","name_kana":"さくら","lat":35.106062,"lng":136.934586,"prefecture":23,"lines":[30001],"attr":"heat","postal_code":"457-0014","address":"名古屋市南区呼続町６丁目","next":[1150229,9951417,3000129,3000131,9951715,9951716],"voronoi":{"lat":35.110193,"lng":136.932077,"delta_lat":[0,-3939,-470,-1767,-2221,3288],"delta_lng":[0,-8123,-385,2341,12950,120]},"impl":true},
    {"code":9951716,"left":3000128,"id":"84d115","name":"鶴里","name_kana":"つるさと","lat":35.105738,"lng":136.943433,"prefecture":23,"lines":[99517],"attr":"heat","postal_code":"457-0031","address":"名古屋市南区鯛取通３-１８-２","next":[9951420,9951419,9951715,3000129,3000128,3000130,9951717],"voronoi":{"lat":35.094463,"lng":136.946774,"delta_lat":[0,1317,6017,3288,8399,1219,-2006],"delta_lng":[0,-3990,-3925,120,4108,2141,6658]},"impl":true},
    {"code":3000128,"id":"54efaa","name":"本星崎","name_kana":"もとほしざき","lat":35.087392,"lng":136.937378,"prefecture":23,"lines":[30001],"attr":"heat","postal_code":"457-0812","address":"名古屋市南区星崎町東浦下","next":[3000808,9951717,1150228,9951716,3000129,3000127,1150229],"voronoi":{"lat":35.080343,"lng":136.924231,"delta_lat":[0,-4159,2436,12984,2859,1317,-3414],"delta_lng":[0,1055,15436,8415,-2363,-3990,-10158]},"impl":true},
    {"code":9951715,"id":"22ab32","name":"桜本町","name_kana":"さくらほんまち","lat":35.109001,"lng":136.936761,"prefecture":23,"lines":[99517],"attr":"heat","postal_code":"457-0005","address":"名古屋市南区桜台１-１０１","next":[9951419,9951716,3000131,3000130],"voronoi":{"lat":35.110193,"lng":136.932077,"delta_lat":[0,3142,148,-8399],"delta_lng":[0,2820,8191,-4108]},"impl":true},
    {"code":9951612,"left":9951611,"right":9951713,"id":"bd6428","name":"御器所","name_kana":"ごきそ","lat":35.149585,"lng":136.934146,"prefecture":23,"lines":[99516,99517],"attr":"heat","postal_code":"466-0015","address":"名古屋市昭和区御器所通３-７","next":[9951711,9951611,9951613,9951709],"voronoi":{"lat":35.154811,"lng":136.930082,"delta_lat":[0,-9858,-934,9242],"delta_lng":[0,-83,11123,559]},"impl":true},
    {"code":9951611,"left":9951711,"right":1141103,"id":"3fc758","name":"荒畑","name_kana":"あらはた","lat":35.149654,"lng":136.92593,"prefecture":23,"lines":[99516],"attr":"heat","postal_code":"466-0064","address":"名古屋市昭和区鶴舞４-１７-２２","next":[9951709,9951412,1150230,9951711,1141103,9951612],"voronoi":{"lat":35.144953,"lng":136.929999,"delta_lat":[0,-6978,4328,2564,13906,-3962],"delta_lng":[0,-9409,-5506,97,11071,3830]},"impl":true},
    {"code":9951711,"left":3000132,"id":"2274a7","name":"桜山","name_kana":"さくらやま","lat":35.139695,"lng":136.933316,"prefecture":23,"lines":[99517],"attr":"heat","postal_code":"467-0805","address":"名古屋市瑞穂区桜見町１-１-１４","next":[9951613,1150230,9951712,9951611,9951612,9951421],"voronoi":{"lat":35.137293,"lng":136.94486,"delta_lat":[0,-3190,3873,6978,-934,-6534],"delta_lng":[0,-22629,-1641,9409,11123,3822]},"impl":true},
    {"code":3000132,"id":"650183","name":"堀田(名古屋鉄道)","original_name":"堀田","name_kana":"ほりた","lat":35.120251,"lng":136.919839,"prefecture":23,"lines":[30001],"attr":"heat","postal_code":"467-0856","address":"愛知県名古屋市瑞穂区新開町28-26","next":[9951713,9951416,3000805,9951418,9951417,3000133,9951712],"voronoi":{"lat":35.125341,"lng":136.926835,"delta_lat":[0,-4532,-4786,1439,4297,9871,-4579],"delta_lng":[0,-1460,-9350,-1070,220,7524,3623]},"impl":true},
    {"code":1141103,"id":"55bebd","name":"鶴舞","name_kana":"つるまい","lat":35.156416,"lng":136.917436,"prefecture":23,"lines":[11411,99516],"attr":"heat","postal_code":"460-0012","address":"名古屋市中区千代田町５丁目","next":[9951311,9951411,1141104,9951709,9951611,9951410,9951412],"voronoi":{"lat":35.152309,"lng":136.911662,"delta_lat":[0,6792,4936,-1732,-780,-2751,-13906],"delta_lng":[0,678,4307,8429,811,364,-11071]},"impl":true},
    {"code":9951713,"left":9951419,"right":9951712,"id":"42bbc0","name":"瑞穂運動場西","name_kana":"みずほうんどうじょうにし","lat":35.124949,"lng":136.935477,"prefecture":23,"lines":[99517],"attr":"heat","postal_code":"467-0806","address":"名古屋市瑞穂区瑞穂通５-２４","next":[3000132,9951419,9951418,9951712,9951420],"voronoi":{"lat":35.12705,"lng":136.926321,"delta_lat":[0,-1710,-4508,1414,7329],"delta_lng":[0,513,5946,9056,989]},"impl":true},
    {"code":9951419,"id":"e8596b","name":"新瑞橋","name_kana":"あらたまばし","lat":35.117734,"lng":136.936603,"prefecture":23,"lines":[99514,99517],"attr":"heat","postal_code":"467-0806","address":"名古屋市瑞穂区瑞穂通８-２７","next":[9951716,9951715,9951713,3000131,9951418,9951420],"voronoi":{"lat":35.122246,"lng":136.941837,"delta_lat":[0,-1414,-3808,-3689,148,1219],"delta_lng":[0,-9056,328,1788,8191,2141]},"impl":true},
    {"code":9951712,"id":"c4f1f3","name":"瑞穂区役所","name_kana":"みずほくやくしょ","lat":35.131793,"lng":136.93443,"prefecture":23,"lines":[99517],"attr":"heat","postal_code":"467-0806","address":"名古屋市瑞穂区瑞穂通２-２７","next":[1150230,9951711,9951713,9951421,3000132,3000133,9951420],"voronoi":{"lat":35.137293,"lng":136.94486,"delta_lat":[0,-3190,-1020,-1453,-4579,2525,2860],"delta_lng":[0,-22629,75,393,3623,16504,1730]},"impl":true},
    {"code":9951310,"left":9951606,"right":3001202,"id":"38c388","name":"栄(愛知)","original_name":"栄","name_kana":"さかえ","lat":35.16999,"lng":136.908031,"prefecture":23,"lines":[99513,99514],"attr":"eco","postal_code":"460-0008","address":"名古屋市中区栄３-５-１２","next":[3001201,9951410,9951606,9951309,9951408],"voronoi":{"lat":35.167182,"lng":136.910416,"delta_lat":[0,-1150,5955,82,-162],"delta_lng":[0,-7443,-403,26,4892]},"impl":true},
    {"code":9951606,"left":3102701,"right":9951605,"id":"f6c73c","name":"丸の内(愛知)","original_name":"丸の内","name_kana":"まるのうち","lat":35.173458,"lng":136.896944,"prefecture":23,"lines":[99516,99517],"attr":"eco","postal_code":"460-0003","address":"名古屋市中区錦２-１","next":[9951408,9951309,9951310,9951407,9951703,9951605],"voronoi":{"lat":35.17614,"lng":136.902477,"delta_lat":[0,-4071,-82,-1048,6847,3402],"delta_lng":[0,119,-26,-9084,-1203,5345]},"impl":true},
    {"code":3102701,"left":9951701,"right":9951309,"id":"8a4a5b","name":"近鉄名古屋","name_kana":"きんてつなごや","lat":35.169191,"lng":136.883855,"prefecture":23,"lines":[31027],"attr":"cool","postal_code":"450-0002","address":"名古屋市中村区名駅１-２-２","next":[3000136,9950902,100213],"voronoi":{"lat":35.164927,"lng":136.88481,"delta_lat":[0,1263,5079],"delta_lng":[0,-4608,3442]},"impl":true},
    {"code":9951701,"left":9950902,"right":100213,"id":"75898e","name":"中村区役所","name_kana":"なかむらくやくしょ","lat":35.167611,"lng":136.873126,"prefecture":23,"lines":[99517],"attr":"eco","postal_code":"453-0811","address":"名古屋市中村区太閤通３-２７-３","next":[100213,9951305,3102702,9951306,9951307,3102703],"voronoi":{"lat":35.163472,"lng":136.864695,"delta_lat":[0,7488,2718,-1617,-5569,-4986],"delta_lng":[0,3138,4080,4416,2017,-4680]},"impl":true},
    {"code":9950902,"left":3102702,"id":"ee18a8","name":"ささしまライブ","name_kana":"ささしまらいぶ","lat":35.161745,"lng":136.881815,"prefecture":23,"lines":[99509],"attr":"cool","postal_code":"453-0872","address":"名古屋市中村区平池町４丁目５１番１","next":[3000136,9951608,3000135,3102702,3102701,100213],"voronoi":{"lat":35.164927,"lng":136.88481,"delta_lat":[0,-1675,-2827,-5537,11296,6],"delta_lng":[0,5301,-176,-7843,-2185,295]},"impl":true},
    {"code":3102702,"id":"8dbeac","name":"米野","name_kana":"こめの","lat":35.161354,"lng":136.879793,"prefecture":23,"lines":[31027],"attr":"cool","postal_code":"453-0872","address":"名古屋市中村区平池町４-４８-１","next":[100213,9950902,3000135,3102703,9951701],"voronoi":{"lat":35.166183,"lng":136.879908,"delta_lat":[0,-11296,-2927,9545,4986],"delta_lng":[0,2185,-3048,-5379,4680]},"impl":true},
    {"code":100213,"id":"91ffc2","name":"名古屋","name_kana":"なごや","lat":35.170694,"lng":136.881637,"prefecture":23,"lines":[1002,11411,11502,11508,99509,99513,99517],"attr":"eco","postal_code":"450-0002","address":"名古屋市中村区名駅１丁目４番","next":[3000136,9951701,3102702,9950902,9951703,9951307,3102701],"voronoi":{"lat":35.173783,"lng":136.885066,"delta_lat":[0,3993,-5715,-5569,-308,6,5079],"delta_lng":[0,-740,-7998,2017,1562,295,3442]},"impl":true},
    {"code":9951309,"left":9951608,"right":9951703,"id":"48857f","name":"伏見(愛知)","original_name":"伏見","name_kana":"ふしみ","lat":35.169273,"lng":136.897427,"prefecture":23,"lines":[99513,99516],"attr":"eco","postal_code":"460-0003","address":"名古屋市中区錦２-１６-２４","next":[9951606,9951410,9951608,9951310,9951703],"voronoi":{"lat":35.171987,"lng":136.90257,"delta_lat":[0,-5955,-612,-984,6503],"delta_lng":[0,403,-291,-11502,2306]},"impl":true},
    {"code":9951608,"left":3000136,"id":"aaf6c8","name":"大須観音","name_kana":"おおすかんのん","lat":35.160729,"lng":136.898158,"prefecture":23,"lines":[99516],"attr":"eco","postal_code":"460-0011","address":"名古屋市中区大須２-１０-３９","next":[3000136,9951410,9951703,9950902,9951411,9951309,9951412,3000135,1150232],"voronoi":{"lat":35.152877,"lng":136.896473,"delta_lat":[0,7548,2827,681,503,984,-3310,-6796,-2677],"delta_lng":[0,-6538,176,416,652,11502,934,-2553,-4126]},"impl":true},
    {"code":3000136,"id":"0818f6","name":"名鉄名古屋","name_kana":"めいてつなごや","lat":35.169252,"lng":136.884187,"prefecture":23,"lines":[30001,30008,30015],"attr":"heat","postal_code":"450-0002","address":"愛知県名古屋市中村区名駅1-2-1","open_date":"1941-08-12","next":[9951608,3102701,100213,9950902,9951703],"voronoi":{"lat":35.173783,"lng":136.885066,"delta_lat":[0,-2514,-6342,-1675,681],"delta_lng":[0,-1422,1166,5301,416]},"impl":true},
    {"code":9951703,"id":"efcb40","name":"国際センター(愛知)","original_name":"国際センター","name_kana":"こくさいせんたー","lat":35.172128,"lng":136.889375,"prefecture":23,"lines":[99517],"attr":"eco","postal_code":"450-0002","address":"名古屋市中村区名駅４-１３","next":[9951608,9951605,9951307,9951606,100213,3000136,9951309],"voronoi":{"lat":35.177785,"lng":136.892282,"delta_lat":[0,629,-639,-3993,-9850,503,6503],"delta_lng":[0,-7682,-274,740,5461,652,2306]},"impl":true},
    {"code":9951605,"left":9951602,"right":9951604,"id":"c58f8c","name":"浅間町","name_kana":"せんげんちょう","lat":35.18384,"lng":136.890335,"prefecture":23,"lines":[99516],"attr":"eco","postal_code":"451-0035","address":"名古屋市西区浅間１-２０６","next":[9951406,9951307,9951703,9951604,3000137,9951606,9951407],"voronoi":{"lat":35.181188,"lng":136.897628,"delta_lat":[0,-3402,629,6270,3854,-907,-2064],"delta_lng":[0,-5345,-7682,-2916,-34,15683,958]},"impl":true},
    {"code":9951602,"left":3001505,"right":9951003,"id":"3abb20","name":"庄内緑地公園","name_kana":"しょうないりょくちこうえん","lat":35.215186,"lng":136.886963,"prefecture":23,"lines":[99516],"attr":"eco","postal_code":"452-0818","address":"名古屋市西区山田町大字上小田井字東古川３１２９","next":[3001505,9951603,9951003,9951004],"voronoi":{"lat":35.225879,"lng":136.890754,"delta_lat":[0,-9882,-8730,7165],"delta_lng":[0,-8943,462,18805]},"impl":true},
    {"code":3001505,"left":9951307,"id":"bd61ab","name":"中小田井","name_kana":"なかおたい","lat":35.214647,"lng":136.876772,"prefecture":23,"lines":[30015],"attr":"cool","postal_code":"452-0822","address":"名古屋市西区中小田井","next":[9951603,3001506,3001504,9951002,9951602,9951003],"voronoi":{"lat":35.219071,"lng":136.876523,"delta_lat":[0,212,-7335,-7005,2324,8730],"delta_lng":[0,-11049,560,14582,1656,-462]},"impl":true},
    {"code":9951307,"id":"516849","name":"亀島","name_kana":"かめじま","lat":35.177526,"lng":136.876756,"prefecture":23,"lines":[99513],"attr":"eco","postal_code":"453-0013","address":"名古屋市中村区亀島１-２-２","next":[9951605,9951703,9951701,100213,9951306,3000137],"voronoi":{"lat":35.178415,"lng":136.8846,"delta_lat":[0,-639,-5715,1617,5012,5995],"delta_lng":[0,-274,-7998,-4416,-197,9969]},"impl":true},
    {"code":9951003,"id":"7ee05b","name":"小田井","name_kana":"おたい","lat":35.221043,"lng":136.880491,"prefecture":23,"lines":[99510],"attr":"cool","postal_code":"452-0815","address":"名古屋市西区八筋町","next":[9951004,3001505,3001506,9951602],"voronoi":{"lat":35.215997,"lng":136.88181,"delta_lat":[0,3074,15997,-9189],"delta_lng":[0,-5287,10990,3240]},"impl":true},
    {"code":9951604,"left":9951407,"right":9951603,"id":"82de1d","name":"浄心","name_kana":"じょうしん","lat":35.192205,"lng":136.890819,"prefecture":23,"lines":[99516],"attr":"eco","postal_code":"451-0031","address":"名古屋市西区城西４-３２０８","next":[3001504,9951406,9951603,9951605,3000138,3000137],"voronoi":{"lat":35.190936,"lng":136.880502,"delta_lat":[0,4535,3044,-315,-10568,907],"delta_lng":[0,-526,1459,17172,-1273,-15683]},"impl":true},
    {"code":9951407,"left":9951406,"id":"f80358","name":"市役所","name_kana":"しやくしょ","lat":35.18156,"lng":136.905379,"prefecture":23,"lines":[99514],"attr":"eco","postal_code":"460-0001","address":"名古屋市中区三の丸３-１-１","next":[3001202,9951606,9951408,9951406,9951605],"voronoi":{"lat":35.186001,"lng":136.90445,"delta_lat":[0,-7277,-2584,5048,4380],"delta_lng":[0,5262,-7235,-4849,664]},"impl":true},
    {"code":9951406,"id":"a7bb08","name":"名城公園","name_kana":"めいじょうこうえん","lat":35.190528,"lng":136.904748,"prefecture":23,"lines":[99514],"attr":"eco","postal_code":"462-0846","address":"名古屋市北区名城２-１-２６","next":[9951605,9951604,9951603,3001202,9951405,3001203,9951407],"voronoi":{"lat":35.188513,"lng":136.909159,"delta_lat":[0,3037,8225,-1575,-10568,-2064,433],"delta_lng":[0,1130,-10081,-1602,-1273,958,6158]},"impl":true},
    {"code":9951603,"id":"ca28af","name":"庄内通","name_kana":"しょうないどおり","lat":35.204476,"lng":136.891044,"prefecture":23,"lines":[99516],"attr":"eco","postal_code":"451-0016","address":"名古屋市西区庄内通３-１２","next":[3001505,9951604,9951406,9951405,9951602,9951004,3001504],"voronoi":{"lat":35.204942,"lng":136.880616,"delta_lat":[0,2324,7165,-1798,-12859,-1575,315],"delta_lng":[0,1656,18805,4033,-4902,-1602,-17172]},"impl":true},
    {"code":3001202,"left":9951311,"right":3001801,"id":"c0cc53","name":"東大手","name_kana":"ひがしおおて","lat":35.183727,"lng":136.908376,"prefecture":23,"lines":[30012],"attr":"cool","postal_code":"460-0001","address":"名古屋市中区三の丸４-１７","next":[9951408,9951407,3001203,9951406,9951706],"voronoi":{"lat":35.188513,"lng":136.909159,"delta_lat":[0,-2512,-7277,-45,1851],"delta_lng":[0,-4710,5262,2018,2458]},"impl":true},
    {"code":9951311,"left":9951408,"right":1141104,"id":"245e63","name":"新栄町(愛知)","original_name":"新栄町","name_kana":"しんさかえまち","lat":35.170729,"lng":136.920377,"prefecture":23,"lines":[99513],"attr":"eco","postal_code":"461-0004","address":"名古屋市東区葵１-１９-２３","next":[9951706,9951707,9951410,1141103,3001201,1141104],"voronoi":{"lat":35.162305,"lng":136.925077,"delta_lat":[0,1732,3163,514,11480,-8899],"delta_lng":[0,-8429,-1929,-7,8104,2697]},"impl":true},
    {"code":9951408,"left":9951410,"right":9951706,"id":"62e811","name":"久屋大通","name_kana":"ひさやおおどおり","lat":35.173784,"lng":136.908156,"prefecture":23,"lines":[99514,99517],"attr":"eco","postal_code":"460-0003","address":"名古屋市中区錦３-４８","next":[9951706,3001202,9951606,3001201,9951407,9951310],"voronoi":{"lat":35.172068,"lng":136.902595,"delta_lat":[0,4071,2584,-45,-5656,-1116],"delta_lng":[0,-119,7235,2018,210,-4452]},"impl":true},
    {"code":9951410,"left":3001201,"id":"fd5f1b","name":"矢場町","name_kana":"やばちょう","lat":35.163785,"lng":136.90899,"prefecture":23,"lines":[99514],"attr":"eco","postal_code":"460-0008","address":"名古屋市中区栄３-３１-１３","next":[9951608,9951310,9951311,3001201,9951411,9951309,1141103],"voronoi":{"lat":35.1672,"lng":136.914718,"delta_lat":[0,-18,-1150,-612,-3310,-3009,4936],"delta_lng":[0,-4303,-7443,-291,934,8725,4307]},"impl":true},
    {"code":3001201,"id":"0e0b4b","name":"栄町(愛知)","original_name":"栄町","name_kana":"さかえまち","lat":35.170567,"lng":136.908962,"prefecture":23,"lines":[30012],"attr":"cool","postal_code":"461-0005","address":"名古屋市東区東桜１-１２","next":[9951310,9951410,9951408,9951311,9951706],"voronoi":{"lat":35.173022,"lng":136.911939,"delta_lat":[0,-1116,-4725,18,514],"delta_lng":[0,-4452,2928,4303,-7]},"impl":true},
    {"code":9951706,"id":"ab5f47","name":"高岳","name_kana":"たかおか","lat":35.174062,"lng":136.915656,"prefecture":23,"lines":[99517],"attr":"eco","postal_code":"461-0005","address":"名古屋市東区東桜２-１-２","next":[9951311,9951408,3001203,3001204,9951707,3001202,3001201],"voronoi":{"lat":35.179193,"lng":136.922816,"delta_lat":[0,417,1387,-468,-1851,-5656,-5309],"delta_lng":[0,17,-5320,-3325,-2458,210,2772]},"impl":true},
    {"code":1141104,"left":9951313,"right":9951707,"id":"1be191","name":"千種","name_kana":"ちくさ","lat":35.170168,"lng":136.930665,"prefecture":23,"lines":[11411,99513],"attr":"heat","postal_code":"464-0075","address":"名古屋市千種区内山町３丁目","next":[9951707,9951709,1141103,9951311,9951313],"voronoi":{"lat":35.164801,"lng":136.933802,"delta_lat":[0,-3277,780,7990,2891],"delta_lng":[0,-7915,-811,436,8603]},"impl":true},
    {"code":9951313,"left":9951709,"id":"667c9f","name":"今池(愛知)","original_name":"今池","name_kana":"いまいけ","lat":35.169919,"lng":136.937331,"prefecture":23,"lines":[99513,99517],"attr":"heat","postal_code":"464-0850","address":"名古屋市千種区今池５-１","next":[1141105,9951707,9951401,9951314,9951709,1141104],"voronoi":{"lat":35.180716,"lng":136.937585,"delta_lat":[0,20,-1630,-15505,1200,8384],"delta_lng":[0,2577,4274,-3801,-6832,313]},"impl":true},
    {"code":9951709,"id":"6c3d6b","name":"吹上(愛知)","original_name":"吹上","name_kana":"ふきあげ","lat":35.158787,"lng":136.935376,"prefecture":23,"lines":[99517],"attr":"eco","postal_code":"464-0855","address":"名古屋市千種区千種通７-２４-２","next":[9951611,1141104,1141103,9951613,9951313,9951612,9951314],"voronoi":{"lat":35.163601,"lng":136.940635,"delta_lat":[0,1200,-3277,-2751,-3962,-1550,4644],"delta_lng":[0,-6832,-7915,364,3830,11599,3511]},"impl":true},
    {"code":9951707,"id":"3a0210","name":"車道","name_kana":"くるまみち","lat":35.173507,"lng":136.929543,"prefecture":23,"lines":[99517],"attr":"eco","postal_code":"461-0004","address":"名古屋市東区葵３-１２","next":[3001204,3001205,1141104,9951311,1141105,9951313,9951706],"voronoi":{"lat":35.180941,"lng":136.924705,"delta_lat":[0,-97,-127,-7531,-2891,8899,417],"delta_lng":[0,12578,301,-3469,-8603,-2697,17]},"impl":true},
    {"code":3001801,"left":9951404,"right":1141105,"id":"03377e","name":"上飯田","name_kana":"かみいいだ","lat":35.203845,"lng":136.929642,"prefecture":23,"lines":[30018,99518],"attr":"cool","postal_code":"462-0808","address":"名古屋市北区上飯田通２-４０","next":[9951403,1141106,3001802,1141105,3001207,9951005,9951004,9951405,9951404],"voronoi":{"lat":35.200025,"lng":136.937255,"delta_lat":[0,2003,623,8182,7027,203,-2817,-5518,-9911],"delta_lng":[0,3287,347,-1304,-20235,-1985,-2497,1889,8891]},"impl":true},
    {"code":9951404,"left":3001204,"right":9951405,"id":"6116d7","name":"志賀本通","name_kana":"しがほんどおり","lat":35.196281,"lng":136.92121,"prefecture":23,"lines":[99514],"attr":"eco","postal_code":"462-0853","address":"名古屋市北区志賀本通２-４７","next":[3001204,3001203,3001205,9951403,3001801,9951405],"voronoi":{"lat":35.193409,"lng":136.915422,"delta_lat":[0,-241,-2006,1027,7627,9911],"delta_lng":[0,298,8648,970,309,-8891]},"impl":true},
    {"code":3001204,"left":3001203,"id":"d739ac","name":"尼ヶ坂","name_kana":"あまがさか","lat":35.187957,"lng":136.91928,"prefecture":23,"lines":[30012],"attr":"cool","postal_code":"462-0837","address":"名古屋市北区大杉1丁目20-1","next":[9951707,9951404,9951706,3001203,3001205],"voronoi":{"lat":35.191163,"lng":136.924368,"delta_lat":[0,2006,-12171,-1387,1330],"delta_lng":[0,-8648,1792,5320,1873]},"impl":true},
    {"code":3001203,"id":"3f0e8e","name":"清水(愛知)","original_name":"清水","name_kana":"しみず","lat":35.187152,"lng":136.913814,"prefecture":23,"lines":[30012],"attr":"cool","postal_code":"462-0844","address":"名古屋市北区清水２-５-１","next":[9951404,9951706,3001202,9951406,9951405,3001204],"voronoi":{"lat":35.18053,"lng":136.914187,"delta_lat":[0,7983,3037,1860,-241,-12171],"delta_lng":[0,-5028,1130,5133,298,1792]},"impl":true},
    {"code":9951405,"id":"90313f","name":"黒川(愛知)","original_name":"黒川","name_kana":"くろかわ","lat":35.197183,"lng":136.910178,"prefecture":23,"lines":[99514],"attr":"eco","postal_code":"462-0046","address":"名古屋市北区城見通３-１３","next":[9951004,9951603,9951406,3001801,3001203,9951404],"voronoi":{"lat":35.193409,"lng":136.915422,"delta_lat":[0,-1860,8225,12859,2612,-5518],"delta_lng":[0,-5133,-10081,4902,9757,1889]},"impl":true},
    {"code":1141105,"left":3001205,"right":9951403,"id":"86e45d","name":"大曽根","name_kana":"おおぞね","lat":35.191508,"lng":136.937161,"prefecture":23,"lines":[11411,30012,99514,99523],"attr":"eco","postal_code":"461-0022","address":"名古屋市東区東大曽根町","next":[9951401,9951707,9951313,3001207,3001205,9951403,3001801],"voronoi":{"lat":35.200025,"lng":136.937255,"delta_lat":[0,-7954,-11227,-127,20,15523,5768],"delta_lng":[0,-4772,4801,301,2577,1567,-1187]},"impl":true},
    {"code":3001205,"id":"23d67c","name":"森下(愛知)","original_name":"森下","name_kana":"もりした","lat":35.188299,"lng":136.929657,"prefecture":23,"lines":[30012],"attr":"cool","postal_code":"461-0025","address":"名古屋市東区徳川２-２５","next":[9951707,9951404,1141105,9951403,3001204],"voronoi":{"lat":35.180844,"lng":136.937283,"delta_lat":[0,11227,119,-1027,-10222],"delta_lng":[0,-4801,-7144,-970,337]},"impl":true},
    {"code":9951403,"id":"995adb","name":"平安通","name_kana":"へいあんどおり","lat":35.195934,"lng":136.929784,"prefecture":23,"lines":[99514,99518],"attr":"eco","postal_code":"462-0816","address":"名古屋市北区平安通１-１３","next":[3001801,9951404,1141105,3001205],"voronoi":{"lat":35.192189,"lng":136.925338,"delta_lat":[0,7627,208,-7954],"delta_lng":[0,309,11607,-4772]},"impl":true},
    {"code":9951317,"left":3000608,"right":9951319,"id":"0c1a6a","name":"東山公園(愛知)","original_name":"東山公園","name_kana":"ひがしやまこうえん","lat":35.160454,"lng":136.972873,"prefecture":23,"lines":[99513],"attr":"heat","postal_code":"464-0807","address":"名古屋市千種区東山通５-１","next":[9951426,9951616,9951318,9951424,9951316],"voronoi":{"lat":35.170932,"lng":136.977471,"delta_lat":[0,-23490,-246,12637,8059],"delta_lng":[0,3738,-1483,-12436,2964]},"impl":true},
    {"code":3000608,"left":9951420,"right":3000604,"id":"aa272f","name":"日進(愛知)","original_name":"日進","name_kana":"にっしん","lat":35.118378,"lng":137.04878,"prefecture":23,"lines":[30006],"attr":"eco","postal_code":"470-0113","address":"日進市栄２-１７０８","next":[3000609,9951721,9951204,3000121,3000515,3000607,3000122,9951203],"voronoi":{"lat":35.144943,"lng":137.050893,"delta_lat":[0,-72667,-7366,1297,8243,16380,52650,1625],"delta_lng":[0,21314,-14411,-3563,-15677,-7728,4647,7953]},"impl":true},
    {"code":9951420,"left":9951719,"right":9951423,"id":"68e15b","name":"瑞穂運動場東","name_kana":"みずほうんどうじょうひがし","lat":35.123167,"lng":136.948685,"prefecture":23,"lines":[99514],"attr":"heat","postal_code":"467-0042","address":"名古屋市瑞穂区八勝通３丁目１８番地先","next":[9951421,9951716,9951713,9951717,9951419,9951718,9951712],"voronoi":{"lat":35.117753,"lng":136.963089,"delta_lat":[0,-2254,-2802,2006,7544,7329,2860],"delta_lng":[0,-2635,-8568,-6658,-3392,989,1730]},"impl":true},
    {"code":9951719,"left":9951717,"right":3000609,"id":"1722a2","name":"相生山","name_kana":"あいおいやま","lat":35.102545,"lng":136.976208,"prefecture":23,"lines":[99517],"attr":"cool","postal_code":"458-0011","address":"名古屋市緑区相川3丁目61","open_date":"2011-03-27","next":[9951718,9951616,3000125,9951617,9951720],"voronoi":{"lat":35.084473,"lng":136.978023,"delta_lat":[0,1037,32220,-287,-3965],"delta_lng":[0,-7053,448,6500,8866]},"impl":true},
    {"code":9951717,"left":3000126,"right":9951718,"id":"b318cc","name":"野並","name_kana":"のなみ","lat":35.102358,"lng":136.95549,"prefecture":23,"lines":[99517],"attr":"cool","postal_code":"468-0046","address":"名古屋市天白区古川町２００","next":[9951718,3000128,3000127,9951420,9951716],"voronoi":{"lat":35.115499,"lng":136.960455,"delta_lat":[0,-26715,2820,2859,18234],"delta_lng":[0,813,-12130,-2363,5112]},"impl":true},
    {"code":3000126,"left":3000127,"id":"c202f4","name":"左京山","name_kana":"さきょうやま","lat":35.070553,"lng":136.960301,"prefecture":23,"lines":[30001],"attr":"eco","postal_code":"458-0801","address":"名古屋市緑区鳴海町左京山","next":[1150241,9951718,3000127,3000125,1150228],"voronoi":{"lat":35.056549,"lng":136.962351,"delta_lat":[0,28827,948,-17257,-3109],"delta_lng":[0,7662,-5152,-14536,203]},"impl":true},
    {"code":3000127,"id":"025094","name":"鳴海","name_kana":"なるみ","lat":35.079149,"lng":136.950096,"prefecture":23,"lines":[30001],"attr":"eco","postal_code":"458-0831","address":"名古屋市緑区鳴海町向田","next":[3000126,9951718,1150228,9951717,3000128],"voronoi":{"lat":35.07862,"lng":136.940723,"delta_lat":[0,-9553,17257,2460,2820],"delta_lng":[0,9603,14536,-3594,-12130]},"impl":true},
    {"code":9951718,"id":"7b2c83","name":"鳴子北","name_kana":"なるこきた","lat":35.102684,"lng":136.966209,"prefecture":23,"lines":[99517],"attr":"cool","postal_code":"468-0836","address":"名古屋市天白区相川1丁目1","open_date":"2011-03-27","next":[9951719,3000126,9951421,9951717,3000127,9951616,9951420,3000125],"voronoi":{"lat":35.11773,"lng":136.971419,"delta_lat":[0,1673,-1650,-2254,-26715,-2460,-948,134],"delta_lng":[0,-4396,-3933,-2635,813,3594,5152,957]},"impl":true},
    {"code":3000609,"left":9951721,"right":9951619,"id":"99ea78","name":"赤池(愛知)","original_name":"赤池","name_kana":"あかいけ","lat":35.121097,"lng":137.017978,"prefecture":23,"lines":[30006,99516],"attr":"eco","postal_code":"470-0125","address":"日進市赤池１-１５０３","next":[3000608,9951321,9951619,9951721,9951320,9951203],"voronoi":{"lat":35.148796,"lng":137.021923,"delta_lat":[0,-358,-260,-41889,-15460,52650],"delta_lng":[0,-4273,-1254,-6313,20744,4647]},"impl":true},
    {"code":9951721,"left":9951720,"id":"e5a429","name":"徳重","name_kana":"とくしげ","lat":35.094491,"lng":136.99815,"prefecture":23,"lines":[99517],"attr":"cool","postal_code":"458-0004","address":"名古屋市緑区乗鞍2丁目102-1","open_date":"2011-03-27","next":[3000608,3000122,3000124,3000609,9951619,9951720,3000123],"voronoi":{"lat":35.073247,"lng":136.999178,"delta_lat":[0,6562,29634,-3153,-15460,-16380,-2679],"delta_lng":[0,-13143,13861,10187,20744,7728,-14286]},"impl":true},
    {"code":9951720,"id":"3e931e","name":"神沢","name_kana":"かみさわ","lat":35.098518,"lng":136.98954,"prefecture":23,"lines":[99517],"attr":"cool","postal_code":"458-0014","address":"名古屋市緑区神沢1丁目303","open_date":"2011-03-27","next":[9951617,9951618,3000125,3000124,9951721,9951619,9951719],"voronoi":{"lat":35.113563,"lng":136.988337,"delta_lat":[0,-2368,-1752,-29634,73,4591,29005],"delta_lng":[0,9114,2445,-13861,-343,-7669,8761]},"impl":true},
    {"code":9951619,"id":"ba83df","name":"平針","name_kana":"ひらばり","lat":35.122766,"lng":137.006904,"prefecture":23,"lines":[99516],"attr":"cool","postal_code":"468-0011","address":"名古屋市天白区平針２-１３０１","next":[3000609,9951319,9951618,9951320,9951721,9951720],"voronoi":{"lat":35.106289,"lng":137.010083,"delta_lat":[0,41889,13,-773,-36224,-1752],"delta_lng":[0,6313,-3827,-3202,-11916,2445]},"impl":true},
    {"code":9951423,"left":9951614,"right":9951616,"id":"adbe97","name":"八事日赤","name_kana":"やごとにっせき","lat":35.144556,"lng":136.965008,"prefecture":23,"lines":[99514],"attr":"heat","postal_code":"466-0815","address":"名古屋市昭和区山手通３丁目１７番地先","next":[9951614,9951616,9951422,9951424],"voronoi":{"lat":35.150462,"lng":136.95929,"delta_lat":[0,-9204,-1522,7427],"delta_lng":[0,1263,11917,7190]},"impl":true},
    {"code":9951614,"left":9951422,"right":9951613,"id":"c23a12","name":"いりなか","name_kana":"いりなか","lat":35.143234,"lng":136.955375,"prefecture":23,"lines":[99516],"attr":"heat","postal_code":"466-0833","address":"名古屋市昭和区隼人町３-４","next":[9951613,9951423,9951422,9951421,9951424],"voronoi":{"lat":35.141258,"lng":136.960553,"delta_lat":[0,-4528,815,14885,-1968],"delta_lng":[0,-3288,-12139,12227,1937]},"impl":true},
    {"code":9951422,"left":9951421,"id":"32e4d2","name":"八事","name_kana":"やごと","lat":35.136946,"lng":136.964036,"prefecture":23,"lines":[99514,99516],"attr":"heat","postal_code":"466-0825","address":"名古屋市昭和区八事本町１０２-３","next":[9951614,9951421,9951423,9951616],"voronoi":{"lat":35.122647,"lng":136.966755,"delta_lat":[0,14082,4528,-1522],"delta_lng":[0,-9489,3288,11917]},"impl":true},
    {"code":9951421,"id":"2d1e38","name":"総合リハビリセンター","name_kana":"そうごうりはびりせんたー","lat":35.130536,"lng":136.954523,"prefecture":23,"lines":[99514],"attr":"heat","postal_code":"467-0035","address":"名古屋市瑞穂区弥富町字月見ケ岡５番地先","next":[9951420,9951614,9951422,9951718,9951616,9951613,9951712,9951711],"voronoi":{"lat":35.137293,"lng":136.94486,"delta_lat":[0,-4857,-14683,1650,3245,14082,815,-59],"delta_lng":[0,-304,18534,3933,-268,-9489,-12139,-183]},"impl":true},
    {"code":9951613,"id":"6d446d","name":"川名","name_kana":"かわな","lat":35.148703,"lng":136.948717,"prefecture":23,"lines":[99516],"attr":"heat","postal_code":"466-0854","address":"名古屋市昭和区広路通８-７","next":[9951711,9951614,9951316,9951709,9951421,9951315,9951424,9951612,9951314],"voronoi":{"lat":35.157906,"lng":136.945191,"delta_lat":[0,-4644,-9242,-6534,59,14885,3792,37,2065],"delta_lng":[0,-3511,-559,3822,183,12227,-1180,-38,-7391]},"impl":true},
    {"code":9951616,"left":9951618,"right":9951424,"id":"b7b75d","name":"塩釜口","name_kana":"しおがまぐち","lat":35.132433,"lng":136.977529,"prefecture":23,"lines":[99516],"attr":"heat","postal_code":"468-0073","address":"名古屋市天白区塩釜口１-８３４","next":[9951423,9951424,9951318,9951317,9951719,9951617,9951718,9951421,9951422],"voronoi":{"lat":35.147162,"lng":136.979661,"delta_lat":[0,33,246,-1773,-28226,287,1673,3245,17088],"delta_lng":[0,66,1483,7025,-10316,-6500,-4396,-268,5716]},"impl":true},
    {"code":9951618,"left":9951617,"id":"7cbe80","name":"原(愛知)","original_name":"原","name_kana":"はら","lat":35.126118,"lng":136.996714,"prefecture":23,"lines":[99516],"attr":"cool","postal_code":"468-0015","address":"名古屋市天白区原１-５１３","next":[9951720,9951318,9951619,9951617,9951319],"voronoi":{"lat":35.147248,"lng":137.000239,"delta_lat":[0,-792,-32893,-2368,36224],"delta_lng":[0,-2475,-9426,9114,11916]},"impl":true},
    {"code":9951617,"id":"384f8a","name":"植田(名古屋市交通局)","original_name":"植田","name_kana":"うえだ","lat":35.128649,"lng":136.987882,"prefecture":23,"lines":[99516],"attr":"cool","postal_code":"468-0051","address":"名古屋市天白区植田三丁目1001","next":[9951720,9951318,9951616,9951618,9951719],"voronoi":{"lat":35.113563,"lng":136.988337,"delta_lat":[0,32893,-787,-28226,-3965],"delta_lng":[0,9426,-9529,-10316,8866]},"impl":true},
    {"code":9951424,"id":"2ce4b2","name":"名古屋大学","name_kana":"なごやだいがく","lat":35.154261,"lng":136.96658,"prefecture":23,"lines":[99514],"attr":"cool","postal_code":"464-0819","address":"名古屋市千種区四谷通２０番地先","next":[9951316,9951616,9951614,9951613,9951423,9951317],"voronoi":{"lat":35.147162,"lng":136.979661,"delta_lat":[0,3299,1968,3792,3611,-12637],"delta_lng":[0,-20370,-1937,-1180,11117,12436]},"impl":true},
    {"code":3000604,"left":3000519,"right":9951116,"id":"9d8286","name":"浄水","name_kana":"じょうすい","lat":35.121298,"lng":137.137186,"prefecture":23,"lines":[30006],"attr":"heat","postal_code":"470-0343","address":"豊田市浄水町伊保原２４３","next":[9951112,9951116,3000603,3000605,3000517,9951115],"voronoi":{"lat":35.129737,"lng":137.139888,"delta_lat":[0,-2768,-35278,-169,11402,19855],"delta_lng":[0,-15067,-7635,1406,23211,5607]},"impl":true},
    {"code":3000519,"left":9951112,"right":3000521,"id":"c32de8","name":"豊田市","name_kana":"とよたし","lat":35.087305,"lng":137.156227,"prefecture":23,"lines":[30005,30006],"attr":"cool","postal_code":"471-0026","address":"豊田市若宮町１-３５","next":[3000520,3000521,3000518,9951112],"voronoi":{"lat":35.083263,"lng":137.180318,"delta_lat":[0,-7260,3874,14784],"delta_lng":[0,6180,-33745,4026]},"impl":true},
    {"code":9951112,"left":3000518,"right":3000603,"id":"842717","name":"新豊田","name_kana":"しんとよた","lat":35.088041,"lng":137.153524,"prefecture":23,"lines":[99511],"attr":"cool","postal_code":"471-0034","address":"豊田市小坂本町１丁目","next":[3000520,3000604,9951111,3000603,3000517,3000518,9951113,3000519],"voronoi":{"lat":35.079877,"lng":137.152753,"delta_lat":[0,-13,3351,8308,11402,-30,-3466,-4768],"delta_lng":[0,-226,-23576,-10358,23211,471,8125,6379]},"impl":true},
    {"code":3000518,"left":9951111,"id":"46cf35","name":"上挙母","name_kana":"うわごろも","lat":35.071854,"lng":137.154453,"prefecture":23,"lines":[30005],"attr":"cool","postal_code":"471-0876","address":"豊田市金谷町２-９６","next":[9951111,9951110,3000519,3000521,9951112],"voronoi":{"lat":35.079864,"lng":137.152526,"delta_lat":[0,-16332,-15454,27925,3874],"delta_lng":[0,613,72258,-38900,-33745]},"impl":true},
    {"code":9951111,"id":"f4f9fe","name":"新上挙母","name_kana":"しんうわごろも","lat":35.071732,"lng":137.151206,"prefecture":23,"lines":[99511],"attr":"cool","postal_code":"471-0831","address":"豊田市司町１丁目","next":[9951110,3000517,9951112,3000518],"voronoi":{"lat":35.079864,"lng":137.152526,"delta_lat":[0,3351,-19483,-200],"delta_lng":[0,-23576,12206,11983]},"impl":true},
    {"code":3000603,"id":"f8abb2","name":"上豊田","name_kana":"かみとよた","lat":35.116168,"lng":137.15535,"prefecture":23,"lines":[30006],"attr":"heat","postal_code":"470-0341","address":"豊田市上原町西山１３５-２","next":[9951114,9951113,3000604,9951112,9951115],"voronoi":{"lat":35.113366,"lng":137.163701,"delta_lat":[0,-10472,30,19855,2737],"delta_lng":[0,-21426,-471,5607,6380]},"impl":true},
    {"code":3000521,"left":3000520,"right":3000522,"id":"c2efbd","name":"越戸","name_kana":"こしど","lat":35.10769,"lng":137.180178,"prefecture":23,"lines":[30005],"attr":"eco","postal_code":"470-0332","address":"豊田市越戸町梅盛４","next":[3000523,3000109,9951110,9951105,9951113,3000519,3000108,3000518,3000110,9951114,3000520,3000522],"voronoi":{"lat":35.030784,"lng":137.301908,"delta_lat":[0,-281,-6119,670,23023,27925,7260,21520,7941,1606,562,-83352],"delta_lng":[0,-935,-31092,-3318,-41166,-38900,-6180,-9622,-1078,1320,5820,127181]},"impl":true},
    {"code":3000520,"left":9951113,"id":"dcb6ff","name":"梅坪","name_kana":"うめつぼ","lat":35.099654,"lng":137.162206,"prefecture":23,"lines":[30005,30006],"attr":"eco","postal_code":"471-0064","address":"豊田市梅坪町７-１２５","next":[9951112,9951113,3000519,3000521],"voronoi":{"lat":35.104782,"lng":137.170695,"delta_lat":[0,-5354,-4768,-11398],"delta_lng":[0,-20296,6379,23539]},"impl":true},
    {"code":9951113,"id":"452a27","name":"愛環梅坪","name_kana":"あいかんうめつぼ","lat":35.105056,"lng":137.160781,"prefecture":23,"lines":[99511],"attr":"heat","postal_code":"471-0071","address":"豊田市東梅坪町一丁目６","next":[3000520,9951114,3000603,3000521,9951112],"voronoi":{"lat":35.104782,"lng":137.170695,"delta_lat":[0,7941,643,-10472,-3466],"delta_lng":[0,-1078,-5917,-21426,8125]},"impl":true},
    {"code":3000522,"id":"3b1e9f","name":"平戸橋","name_kana":"ひらとばし","lat":35.114628,"lng":137.184725,"prefecture":23,"lines":[30005],"attr":"eco","postal_code":"470-0331","address":"豊田市平戸橋町石平４３","next":[1141312,3000523,9952410,3000521,3000108],"voronoi":{"lat":35.092497,"lng":137.397489,"delta_lat":[0,109952,-87558,-83352,22807],"delta_lng":[0,-103933,-116798,127181,67130]},"impl":true},
    {"code":9951116,"left":3000606,"right":3000523,"id":"8b2b09","name":"保見","name_kana":"ほみ","lat":35.136665,"lng":137.134363,"prefecture":23,"lines":[99511],"attr":"heat","postal_code":"470-0344","address":"豊田市保見町権堂坊","next":[3000604,3000605,9951115,9951117],"voronoi":{"lat":35.139892,"lng":137.11938,"delta_lat":[0,-12922,2768,31527],"delta_lng":[0,5442,15067,8212]},"impl":true},
    {"code":3000606,"left":3000605,"right":9951117,"id":"5220a4","name":"黒笹","name_kana":"くろざさ","lat":35.127681,"lng":137.091365,"prefecture":23,"lines":[30006],"attr":"cool","postal_code":"470-0201","address":"愛知県みよし市黒笹町縄手36-2","next":[3000517,9951117,9951206,3000607,3000605,9951118,9951207],"voronoi":{"lat":35.152819,"lng":137.089726,"delta_lat":[0,-4450,-68537,7203,58624,7152,318],"delta_lng":[0,-14214,11129,13103,2253,-6727,-973]},"impl":true},
    {"code":3000605,"left":3000607,"id":"ed9b2e","name":"三好ヶ丘","name_kana":"みよしがおか","lat":35.126918,"lng":137.111219,"prefecture":23,"lines":[30006],"attr":"cool","postal_code":"470-0202","address":"愛知県みよし市三好丘二丁目1-1","next":[9951116,3000517,3000604,3000606,9951117],"voronoi":{"lat":35.126969,"lng":137.124822,"delta_lat":[0,-35278,-4657,58624,-5767],"delta_lng":[0,-7635,-17442,2253,17382]},"impl":true},
    {"code":3000607,"id":"cdf9d5","name":"米野木","name_kana":"こめのき","lat":35.123728,"lng":137.06702,"prefecture":23,"lines":[30006],"attr":"cool","postal_code":"470-0111","address":"日進市米野木町南山１８５-３","next":[9951206,9951205,3000517,3000515,3000606,9951204,3000516,3000608],"voronoi":{"lat":35.144943,"lng":137.050893,"delta_lat":[0,1940,2018,-532,-68537,-892,-5545,-1119],"delta_lng":[0,5431,16415,2774,11129,-935,-9717,-3783]},"impl":true},
    {"code":9951117,"id":"98d99f","name":"篠原(愛知)","original_name":"篠原","name_kana":"ささばら","lat":35.155171,"lng":137.120592,"prefecture":23,"lines":[99511],"attr":"heat","postal_code":"470-0352","address":"豊田市篠原町砂ヶ入","next":[3000606,9951115,9951119,9951118,9951116,3000605],"voronoi":{"lat":35.161264,"lng":137.148101,"delta_lat":[0,47916,-9506,-46864,-7152,-5767],"delta_lng":[0,38478,-21828,-69480,6727,17382]},"impl":true},
    {"code":3000523,"left":9951114,"right":9951115,"id":"258d3a","name":"猿投","name_kana":"さなげ","lat":35.122613,"lng":137.178739,"prefecture":23,"lines":[30005],"attr":"eco","postal_code":"470-0372","address":"豊田市井上町５-６２","next":[9951114,9951115,3000521,9951119,1141114,9952410,1141115,3001220,3000522],"voronoi":{"lat":35.229744,"lng":137.269541,"delta_lat":[0,10666,166,-9920,-17107,-66664,-32555,562,87558],"delta_lng":[0,-35874,-11732,-12478,-16749,-22786,1016,5820,116798]},"impl":true},
    {"code":9951114,"id":"b8b176","name":"四郷","name_kana":"しごう","lat":35.12211,"lng":137.162635,"prefecture":23,"lines":[99511],"attr":"heat","postal_code":"470-0373","address":"豊田市四郷町森前","next":[3000523,3000603,9951113,9951115,3000521],"voronoi":{"lat":35.112723,"lng":137.169617,"delta_lat":[0,643,12150,21368,-32555],"delta_lng":[0,-5917,-9910,16131,1016]},"impl":true},
    {"code":9951115,"id":"98eea6","name":"貝津","name_kana":"かいづ","lat":35.133089,"lng":137.148091,"prefecture":23,"lines":[99511],"attr":"heat","postal_code":"470-0348","address":"豊田市貝津町片坂１０５-３","next":[3000523,9951119,9951117,9951114,9951116,3000603,3000604],"voronoi":{"lat":35.125517,"lng":137.153791,"delta_lat":[0,21368,66664,-4368,-47916,-31527,-6958],"delta_lng":[0,16131,22786,-6129,-38478,-8212,7522]},"impl":true},
    {"code":9951319,"left":3001209,"right":9951208,"id":"0bd5fa","name":"一社","name_kana":"いっしゃ","lat":35.168231,"lng":136.995927,"prefecture":23,"lines":[99513],"attr":"cool","postal_code":"465-0093","address":"名古屋市名東区一社２-１","next":[9951320,9951619,3001211,3001210,9951318,9951426,9951618],"voronoi":{"lat":35.147248,"lng":137.000239,"delta_lat":[0,31869,3935,2890,1130,-38880,-773],"delta_lng":[0,-17159,908,4586,5086,18910,-3202]},"impl":true},
    {"code":3001209,"left":3001208,"right":9952307,"id":"d0aa5a","name":"瓢箪山(愛知)","original_name":"瓢箪山","name_kana":"ひょうたんやま","lat":35.197222,"lng":136.965048,"prefecture":23,"lines":[30012],"attr":"cool","postal_code":"463-0062","address":"名古屋市守山区長栄１５-１７","next":[9952306,3001210,9951427,3001208,9952305],"voronoi":{"lat":35.204977,"lng":136.968661,"delta_lat":[0,-16171,2436,8808,3729],"delta_lng":[0,4516,-10995,-1179,2394]},"impl":true},
    {"code":3001208,"left":9951428,"right":9951426,"id":"427396","name":"守山自衛隊前","name_kana":"もりやまじえいたいまえ","lat":35.196258,"lng":136.957843,"prefecture":23,"lines":[30012],"attr":"cool","postal_code":"463-0065","address":"名古屋市守山区廿軒家５-７","next":[9951427,9951428,9952305,9952304,3001209],"voronoi":{"lat":35.20005,"lng":136.961003,"delta_lat":[0,-134,-6372,-3118,816],"delta_lng":[0,-769,-6208,6000,2156]},"impl":true},
    {"code":9951428,"left":9951315,"right":3001207,"id":"5cf164","name":"砂田橋","name_kana":"すなだばし","lat":35.188861,"lng":136.953999,"prefecture":23,"lines":[99514,99523],"attr":"cool","postal_code":"461-0043","address":"名古屋市東区大幸４-１６","next":[9952304,9951314,9951315,3001208,9951427,9951401,3001207],"voronoi":{"lat":35.193544,"lng":136.954026,"delta_lat":[0,-3118,-12709,23,1526,10336,4279],"delta_lng":[0,6000,-6541,-1755,-4302,2163,3341]},"impl":true},
    {"code":9951315,"left":9951314,"id":"24c922","name":"覚王山","name_kana":"かくおうざん","lat":35.166565,"lng":136.953708,"prefecture":23,"lines":[99513],"attr":"heat","postal_code":"464-0821","address":"名古屋市千種区末盛通１-７","next":[9951426,9951316,9951428,9951613,9951314,9951427],"voronoi":{"lat":35.170941,"lng":136.960121,"delta_lat":[0,-14682,2065,19417,-23,-1550],"delta_lng":[0,-3985,-7391,2985,1755,3275]},"impl":true},
    {"code":9951314,"id":"0426e3","name":"池下","name_kana":"いけした","lat":35.167675,"lng":136.946486,"prefecture":23,"lines":[99513],"attr":"heat","postal_code":"464-0841","address":"名古屋市千種区覚王山通７-１１","next":[9951428,9951401,9951313,9951315,9951709,9951613],"voronoi":{"lat":35.157906,"lng":136.945191,"delta_lat":[0,5696,15505,160,-1526,-19417],"delta_lng":[0,-4557,3801,2992,4302,-2985]},"impl":true},
    {"code":3001207,"id":"ecc8a4","name":"矢田(愛知)","original_name":"矢田","name_kana":"やだ","lat":35.193699,"lng":136.947802,"prefecture":23,"lines":[30012],"attr":"cool","postal_code":"461-0043","address":"名古屋市東区大幸１-１０","next":[9952304,1141106,1141105,3001801,9951428,9951401,9952305],"voronoi":{"lat":35.193881,"lng":136.952931,"delta_lat":[0,-4279,6657,5768,623,-2302,-223],"delta_lng":[0,-3341,-7862,-1187,347,9186,220]},"impl":true},
    {"code":9951426,"left":9951318,"right":9951427,"id":"890f2f","name":"自由ヶ丘","name_kana":"じゆうがおか","lat":35.174961,"lng":136.966762,"prefecture":23,"lines":[99514],"attr":"cool","postal_code":"464-0044","address":"名古屋市千種区自由ヶ丘三丁目11","next":[9951317,9951315,9951316,3001210,9951427,9951319,9951318],"voronoi":{"lat":35.183051,"lng":136.983988,"delta_lat":[0,2526,-9410,-5227,-3049,3040,8185],"delta_lng":[0,-7082,-20146,3361,10134,7217,5608]},"impl":true},
    {"code":9951318,"left":9951316,"id":"1a2e32","name":"星ヶ丘(愛知)","original_name":"星ヶ丘","name_kana":"ほしがおか","lat":35.162399,"lng":136.985095,"prefecture":23,"lines":[99513],"attr":"heat","postal_code":"464-0026","address":"名古屋市千種区井上町85-1","next":[9951617,9951616,9951618,9951317,9951319,9951426],"voronoi":{"lat":35.170932,"lng":136.977471,"delta_lat":[0,-23490,-1773,787,792,31869],"delta_lng":[0,3738,7025,9529,2475,-17159]},"impl":true},
    {"code":9951316,"id":"3ea271","name":"本山(愛知)","original_name":"本山","name_kana":"もとやま","lat":35.163923,"lng":136.963441,"prefecture":23,"lines":[99513,99514],"attr":"heat","postal_code":"464-0821","address":"名古屋市千種区末盛通５-１３-３","next":[9951424,9951613,9951426,9951315,9951317],"voronoi":{"lat":35.170941,"lng":136.960121,"delta_lat":[0,-14682,-37,3611,8059],"delta_lng":[0,-3985,38,11117,2964]},"impl":true},
    {"code":9951427,"id":"f77444","name":"茶屋ヶ坂","name_kana":"ちゃやがさか","lat":35.184612,"lng":136.962254,"prefecture":23,"lines":[99514],"attr":"cool","postal_code":"464-0092","address":"名古屋市千種区茶屋が坂一丁目2116","next":[3001208,3001209,9951428,3001210,9951426,9951315],"voronoi":{"lat":35.177718,"lng":136.953484,"delta_lat":[0,12709,816,-2436,-3229,-9410],"delta_lng":[0,6541,2156,10995,3729,-20146]},"impl":true},
    {"code":9952307,"left":1141106,"right":9952308,"id":"47feed","name":"川村(愛知)","original_name":"川村","name_kana":"かわむら","lat":35.214297,"lng":136.968591,"prefecture":23,"lines":[99523],"attr":"heat","postal_code":"463-0098","address":"名古屋市守山区川北町３２２-２","next":[9952308,9952306,1141107,3001210],"voronoi":{"lat":35.205758,"lng":136.96924,"delta_lat":[0,14743,8406,-20319],"delta_lng":[0,-8768,10604,3714]},"impl":true},
    {"code":1141106,"left":9952305,"right":9952306,"id":"a295df","name":"新守山","name_kana":"しんもりやま","lat":35.207283,"lng":136.951207,"prefecture":23,"lines":[11411],"attr":"heat","postal_code":"463-0071","address":"名古屋市守山区新守町２６８","next":[3001802,9952306,1141107,3001207,3001801,9952305],"voronoi":{"lat":35.200348,"lng":136.950074,"delta_lat":[0,2302,8182,8893,-1195,-10303],"delta_lng":[0,-9186,-1304,8953,5300,2967]},"impl":true},
    {"code":9952305,"left":9952304,"id":"04c1b6","name":"金屋","name_kana":"かなや","lat":35.202551,"lng":136.956747,"prefecture":23,"lines":[99523],"attr":"eco","postal_code":"463-0072","address":"名古屋市守山区金屋２-２４３","open_date":"2001-03-23","next":[9952304,3001208,1141106,3001207,3001209,9952306],"voronoi":{"lat":35.208227,"lng":136.956805,"delta_lat":[0,-7879,-223,-209,134,3729],"delta_lng":[0,-6730,220,9939,769,2394]},"impl":true},
    {"code":9952304,"id":"f36118","name":"守山(愛知)","original_name":"守山","name_kana":"もりやま","lat":35.197431,"lng":136.956639,"prefecture":23,"lines":[99523],"attr":"eco","postal_code":"463-0067","address":"名古屋市守山区守山１-９","next":[9952305,9951428,3001207,3001208],"voronoi":{"lat":35.193544,"lng":136.954026,"delta_lat":[0,337,6244,-209],"delta_lng":[0,-1094,-2637,9939]},"impl":true},
    {"code":9952306,"id":"f21e97","name":"川宮","name_kana":"かわみや","lat":35.210405,"lng":136.962047,"prefecture":23,"lines":[99523],"attr":"heat","postal_code":"463-0081","address":"名古屋市守山区川宮町７８番地","next":[9952307,1141106,3001209,3001210,9952305,1141107],"voronoi":{"lat":35.205758,"lng":136.96924,"delta_lat":[0,-780,-1198,4448,10303,1970],"delta_lng":[0,-580,-5264,-6592,-2967,6635]},"impl":true},
    {"code":9952308,"left":3001211,"right":9952309,"id":"7d41e6","name":"白沢渓谷","name_kana":"しらさわけいこく","lat":35.216121,"lng":136.978569,"prefecture":23,"lines":[99523],"attr":"heat","postal_code":"463-0005","address":"名古屋市守山区大字川字東山１８０７番地","next":[9952307,3001210,9952309,3001211,1141107],"voronoi":{"lat":35.228906,"lng":136.971076,"delta_lat":[0,-20319,-862,3882,19303],"delta_lng":[0,3714,4893,4668,-12043]},"impl":true},
    {"code":3001211,"left":3001210,"id":"cd7163","name":"喜多山(愛知)","original_name":"喜多山","name_kana":"きたやま","lat":35.205099,"lng":136.987735,"prefecture":23,"lines":[30012],"attr":"heat","postal_code":"463-0011","address":"名古屋市守山区小幡字二軒家２６１０-１３","next":[3001210,3001212,9951319,9952309,9952308,9951320],"voronoi":{"lat":35.213794,"lng":136.990465,"delta_lat":[0,-2187,-3882,-21784,1130,1320],"delta_lng":[0,-6114,-4668,8890,5086,2145]},"impl":true},
    {"code":3001210,"id":"2e2e85","name":"小幡","name_kana":"おばた","lat":35.200216,"lng":136.975769,"prefecture":23,"lines":[30012],"attr":"cool","postal_code":"463-0048","address":"名古屋市守山区小幡南１-２１-２１","next":[9952308,3001211,3001209,9951426,9951319,9951427,9952307,9952306],"voronoi":{"lat":35.208587,"lng":136.97479,"delta_lat":[0,-862,-21784,-2890,2526,3229,16171,780],"delta_lng":[0,4893,8890,-4586,-7082,-3729,-4516,580]},"impl":true},
    {"code":9952309,"id":"c2fb3b","name":"小幡緑地","name_kana":"おばたりょくち","lat":35.218785,"lng":136.982839,"prefecture":23,"lines":[99523],"attr":"cool","postal_code":"463-0004","address":"名古屋市守山区大字吉根字松洞３３８６-７","next":[3001213,9952308,1141107,3001212,1141108,3001211],"voronoi":{"lat":35.224186,"lng":136.999503,"delta_lat":[0,5072,2845,-1193,-19303,2187],"delta_lng":[0,1380,-28079,-496,12043,6114]},"impl":true},
    {"code":9951208,"left":9951204,"right":3001215,"id":"27d13c","name":"陶磁資料館南","name_kana":"とうじしりょうかんみなみ","lat":35.179286,"lng":137.097099,"prefecture":23,"lines":[99512],"attr":"heat","postal_code":"470-0356","address":"豊田市八草町","next":[9951119,9951118,9951207],"voronoi":{"lat":35.190878,"lng":137.090734,"delta_lat":[0,-4079,-26666],"delta_lng":[0,15015,-10514]},"impl":true},
    {"code":9951204,"left":9951321,"right":9951118,"id":"faa3ef","name":"長久手古戦場","name_kana":"ながくてこせんじょう","lat":35.171574,"lng":137.049932,"prefecture":23,"lines":[99512],"attr":"eco","postal_code":"480-1118","address":"愛知県長久手市横道41","next":[9951202,3000608,3000607,3001216,9951205,9951203],"voronoi":{"lat":35.193938,"lng":137.050736,"delta_lat":[0,-219,-46836,-1940,162,32762],"delta_lng":[0,4059,1528,-5431,-7465,581]},"impl":true},
    {"code":9951321,"left":9951203,"right":9951202,"id":"a949ef","name":"本郷(愛知)","original_name":"本郷","name_kana":"ほんごう","lat":35.175453,"lng":137.013425,"prefecture":23,"lines":[99513],"attr":"cool","postal_code":"465-0024","address":"名古屋市名東区本郷２-１５３","next":[9951201,3000609,3001212,9951320,9951203],"voronoi":{"lat":35.148796,"lng":137.021923,"delta_lat":[0,-358,43033,717,-22686],"delta_lng":[0,-4273,-12189,1330,18236]},"impl":true},
    {"code":9951203,"left":9951320,"id":"e8fff7","name":"杁ヶ池公園","name_kana":"いりがいけこうえん","lat":35.171788,"lng":137.037866,"prefecture":23,"lines":[99512],"attr":"eco","postal_code":"480-1116","address":"愛知県長久手市杁ヶ池","next":[9951201,3000609,9951202,3000608,9951204,9951321],"voronoi":{"lat":35.169923,"lng":137.025297,"delta_lat":[0,7943,-32762,-1625,5317,20706],"delta_lng":[0,18711,-581,-7953,-13551,3104]},"impl":true},
    {"code":9951320,"id":"f81546","name":"上社","name_kana":"かみやしろ","lat":35.173656,"lng":137.007081,"prefecture":23,"lines":[99513],"attr":"cool","postal_code":"465-0025","address":"名古屋市名東区上社１-８０３","next":[9951319,3000609,3001212,9951321,9951619,3001211],"voronoi":{"lat":35.187071,"lng":136.99366,"delta_lat":[0,-38880,-13,260,43033,-3080],"delta_lng":[0,18910,3827,1254,-12189,-9657]},"impl":true},
    {"code":9951202,"id":"d9adfd","name":"はなみずき通","name_kana":"はなみずきどおり","lat":35.17767,"lng":137.035369,"prefecture":23,"lines":[99512],"attr":"eco","postal_code":"480-1151","address":"愛知県長久手市久保山","next":[3001216,9951204,9951203,3001215,9951201],"voronoi":{"lat":35.196999,"lng":137.04378,"delta_lat":[0,-3062,-16071,-7943,27327],"delta_lng":[0,6957,-6728,-18711,8889]},"impl":true},
    {"code":9951118,"left":9951206,"right":9951207,"id":"99f8de","name":"八草","name_kana":"やくさ","lat":35.175404,"lng":137.106945,"prefecture":23,"lines":[99511,99512],"attr":"heat","postal_code":"470-0356","address":"豊田市八草町字石坂","next":[9951119,9951117,9951208,9951207,3000606],"voronoi":{"lat":35.153128,"lng":137.094297,"delta_lat":[0,7004,26666,12876,-46864],"delta_lng":[0,938,10514,59001,-69480]},"impl":true},
    {"code":9951206,"left":9951205,"id":"702c07","name":"公園西","name_kana":"こうえんにし","lat":35.174403,"lng":137.076737,"prefecture":23,"lines":[99512],"attr":"heat","postal_code":"480-1345","address":"愛知県長久手市丸山","next":[3000607,9951207,9951120,3000606,9951205],"voronoi":{"lat":35.148369,"lng":137.075512,"delta_lat":[0,4450,37972,1890,-43780],"delta_lng":[0,14214,-11994,-11892,6898]},"impl":true},
    {"code":9951205,"id":"238c40","name":"芸大通","name_kana":"げいだいどおり","lat":35.171938,"lng":137.061092,"prefecture":23,"lines":[99512],"attr":"eco","postal_code":"480-1103","address":"愛知県長久手市岩作","next":[3000607,9951120,3001216,9951204,9951206],"voronoi":{"lat":35.19268,"lng":137.065841,"delta_lat":[0,2418,-1380,-46836,2018],"delta_lng":[0,-4044,-7001,1528,16415]},"impl":true},
    {"code":9951207,"id":"105f49","name":"愛・地球博記念公園","name_kana":"あい・ちきゅうはくきねんこうえん","lat":35.177948,"lng":137.08796,"prefecture":23,"lines":[99512],"attr":"heat","postal_code":"480-1342","address":"愛知県長久手市茨ヶ廻間","next":[9951206,9951119,9951120,9951118,9951208,3000606],"voronoi":{"lat":35.160133,"lng":137.095236,"delta_lat":[0,30745,2061,-2148,-37972,310],"delta_lng":[0,-4501,-2875,-10127,11994,4571]},"impl":true},
    {"code":3001215,"left":3001213,"right":9951120,"id":"624dd2","name":"尾張旭","name_kana":"おわりあさひ","lat":35.216743,"lng":137.036393,"prefecture":23,"lines":[30012],"attr":"heat","postal_code":"488-0801","address":"尾張旭市東大道町原田２５９１-３","next":[9951201,3001214,3001216,1141110,1141109,9951202],"voronoi":{"lat":35.239767,"lng":137.04508,"delta_lat":[0,2135,-4446,-38697,-1508,-251],"delta_lng":[0,-13779,-6654,5985,3555,9593]},"impl":true},
    {"code":3001213,"left":9951201,"right":3001214,"id":"f52a5b","name":"印場","name_kana":"いんば","lat":35.211085,"lng":137.011132,"prefecture":23,"lines":[30012],"attr":"heat","postal_code":"488-0841","address":"尾張旭市印場元町北山４４０９-３","next":[9952309,1141109,3001214,9951201,1141108,3001212],"voronoi":{"lat":35.224186,"lng":136.999503,"delta_lat":[0,5072,4292,42,-35461,-4547],"delta_lng":[0,1380,5328,1682,12726,-12455]},"impl":true},
    {"code":9951201,"left":3001212,"id":"59c2e7","name":"藤が丘(愛知)","original_name":"藤が丘","name_kana":"ふじがおか","lat":35.182113,"lng":137.02171,"prefecture":23,"lines":[99512,99513],"attr":"eco","postal_code":"465-0032","address":"名古屋市名東区藤が丘１６３","next":[3001215,9951321,3001213,9951203,3001214,3001212,9951202],"voronoi":{"lat":35.169923,"lng":137.025297,"delta_lat":[0,-421,22686,1396,4547,627,-1508],"delta_lng":[0,-270,-18236,1373,12455,10012,3555]},"impl":true},
    {"code":3001212,"id":"3e9ced","name":"大森・金城学院前","name_kana":"おおもり・きんじょうがくいんまえ","lat":35.206934,"lng":136.996465,"prefecture":23,"lines":[30012],"attr":"heat","postal_code":"463-0021","address":"名古屋市守山区大森３-３０１","next":[9951321,3001211,9951320,9952309,9951201,3001213],"voronoi":{"lat":35.224186,"lng":136.999503,"delta_lat":[0,-10392,-25403,3080,717,1396],"delta_lng":[0,-9038,5339,9657,1330,1373]},"impl":true},
    {"code":3001214,"id":"7c77b8","name":"旭前","name_kana":"あさひまえ","lat":35.214162,"lng":137.019706,"prefecture":23,"lines":[30012],"attr":"heat","postal_code":"488-0855","address":"愛知県尾張旭市旭前町五丁目4-5","next":[3001215,3001213,9951201,1141109],"voronoi":{"lat":35.198758,"lng":137.030632,"delta_lat":[0,-627,35461,3863],"delta_lng":[0,-10012,-12726,16753]},"impl":true},
    {"code":9951120,"left":9951119,"right":3001216,"id":"78a736","name":"瀬戸口","name_kana":"せとぐち","lat":35.206679,"lng":137.081866,"prefecture":23,"lines":[99511],"attr":"eco","postal_code":"489-0877","address":"瀬戸市東赤重町２丁目","next":[3001219,9951206,3001220,9951207,9951205,9951119,3001217,3001218,3001216],"voronoi":{"lat":35.21504,"lng":137.075117,"delta_lat":[0,1146,-1337,-4159,-17752,-2148,1890,2418,13819],"delta_lng":[0,5101,10590,4973,-7921,-10127,-11892,-4044,4485]},"impl":true},
    {"code":9951119,"id":"3f7cf0","name":"山口(愛知)","original_name":"山口","name_kana":"やまぐち","lat":35.197656,"lng":137.102089,"prefecture":23,"lines":[99511],"attr":"eco","postal_code":"489-0961","address":"瀬戸市田中町","next":[3000523,9951207,9951115,9951117,3001220,9951118,9951208,9951120],"voronoi":{"lat":35.192939,"lng":137.08786,"delta_lat":[0,-2061,-4079,12876,9506,4368,17107,-19965],"delta_lng":[0,2875,15015,59001,21828,6129,16749,-113676]},"impl":true},
    {"code":3001216,"id":"5369ad","name":"三郷(愛知)","original_name":"三郷","name_kana":"さんごう","lat":35.216258,"lng":137.052352,"prefecture":23,"lines":[30012],"attr":"heat","postal_code":"488-0015","address":"尾張旭市三郷町栄９２-１","next":[9951202,9951122,3001215,1141110,9951205,9951204,3001217,9951120],"voronoi":{"lat":35.238967,"lng":137.052325,"delta_lat":[0,1596,-797,-42767,-3062,-219,1380,13819],"delta_lng":[0,-2783,-4463,-1300,6957,4059,7001,4485]},"impl":true}
  ]
}