{
  "name":"segment10",
  "root":9980609,
  "east":133.556693,
  "west":131.97669,
  "south":33.715973,
  "north":34.262003,
  "station_size":145,
  "node_list":[
    {"code":9980609,"left":1161206,"right":9980812,"id":"015dd9","name":"大手町(愛媛)","name_kana":"おおてまち","lat":33.839726,"lng":132.755384,"prefecture":38,"lines":[99806,99808,99809,99811],"attr":"cool","postal_code":"790-0067","address":"松山市大手町２","next":[1180657,9980502,9980803,9980806,9981205,9980805,9981204],"voronoi":{"lat":33.840976,"lng":132.756899,"delta_lat":[0,-4509,-690,2487,3902,978,-351],"delta_lng":[0,522,-4374,134,1326,1497,546]}},
    {"code":1161206,"left":9980506,"right":1172402,"id":"cf517c","name":"神代(山口)","name_kana":"こうじろ","lat":33.998871,"lng":132.209398,"prefecture":35,"lines":[11612],"attr":"eco","postal_code":"740-1432","address":"岩国市由宇町神東","next":[9980601,1161207,1180719,1161208,1161205,1180720],"voronoi":{"lat":33.881674,"lng":132.441854,"delta_lat":[0,114935,30737,-11081,-185335,14378],"delta_lng":[0,26928,-323219,5981,229551,19877]}},
    {"code":9980506,"left":9980604,"right":9980805,"id":"cd6042","name":"岡田(愛媛)","name_kana":"おかだ","lat":33.799083,"lng":132.724271,"prefecture":38,"lines":[99805],"attr":"heat","postal_code":"791-3133","address":"伊予郡松前町大字昌農内","next":[1180702,1180741,9980505,1180703,9980507],"voronoi":{"lat":33.817869,"lng":132.700472,"delta_lat":[0,-19238,-119,-7160,-4232],"delta_lng":[0,38497,47,-3401,-6941]}},
    {"code":9980604,"left":9980510,"right":1161207,"id":"539642","name":"三津","name_kana":"みつ","lat":33.863864,"lng":132.720002,"prefecture":38,"lines":[99806],"attr":"heat","postal_code":"791-8065","address":"松山市三杉町","next":[9980603,1180656,9980605,1180655],"voronoi":{"lat":33.860397,"lng":132.723776,"delta_lat":[0,-11140,29840,-1063],"delta_lng":[0,-22061,25642,1319]}},
    {"code":9980510,"left":9980512,"right":9980508,"id":"f36420","name":"新川(愛媛)","name_kana":"しんかわ","lat":33.772178,"lng":132.704148,"prefecture":38,"lines":[99805],"attr":"cool","postal_code":"799-3111","address":"伊予市下吾川","next":[9980512,9980509,1180715,1180705,1180704,9980511],"voronoi":{"lat":33.774626,"lng":132.715568,"delta_lat":[0,1208,1789,-4338,-6664,-180],"delta_lng":[0,-39,-97387,6746,57718,23330]}},
    {"code":9980512,"left":1180706,"right":9980511,"id":"5973f7","name":"郡中港","name_kana":"ぐんちゅうこう","lat":33.756302,"lng":132.702315,"prefecture":38,"lines":[99805],"attr":"eco","postal_code":"799-3113","address":"伊予市米湊","next":[1180707,1180706,1180715,9980510,9980511],"voronoi":{"lat":33.766621,"lng":132.682606,"delta_lat":[0,6664,-5584,-16883,6309],"delta_lng":[0,-57718,7011,52432,22387]}},
    {"code":1180706,"left":1180707,"id":"e30aa9","name":"伊予市","name_kana":"いよし","lat":33.755532,"lng":132.702532,"prefecture":38,"lines":[11807],"attr":"heat","postal_code":"799-3113","address":"伊予市米湊","next":[1180705,9980512,1180708,9980511,1180707],"voronoi":{"lat":33.750818,"lng":132.684331,"delta_lat":[0,6309,-1035,-17206,-786],"delta_lng":[0,22387,3526,16111,-5232]}},
    {"code":1180707,"id":"6a6bd2","name":"向井原","name_kana":"むかいばら","lat":33.735871,"lng":132.695736,"prefecture":38,"lines":[11807],"attr":"heat","postal_code":"799-3122","address":"伊予市市場","next":[9980512,1180708,1180715,1180706],"voronoi":{"lat":33.71326,"lng":132.682337,"delta_lat":[0,54441,-16883,-12718],"delta_lng":[0,-50437,52432,36792]}},
    {"code":9980511,"id":"932c01","name":"郡中","name_kana":"ぐんちゅう","lat":33.760734,"lng":132.70406,"prefecture":38,"lines":[99805],"attr":"eco","postal_code":"799-3111","address":"伊予市下吾川","next":[1180706,1180705,9980512,9980510],"voronoi":{"lat":33.766621,"lng":132.682606,"delta_lat":[0,-9494,-1035,10349],"delta_lng":[0,24112,3526,-4308]}},
    {"code":9980508,"left":1180705,"right":9980507,"id":"62c39f","name":"松前","name_kana":"まさき","lat":33.785965,"lng":132.705051,"prefecture":38,"lines":[99805],"attr":"cool","postal_code":"791-3110","address":"伊予郡松前町大字浜","next":[9980505,9980605,9980509,9980603,1180716,9980602,1180715,9980601,9980507],"voronoi":{"lat":33.798265,"lng":132.582646,"delta_lat":[0,9218,22216,2807,-1294,-319,-2883,-4291,-42112],"delta_lng":[0,-16799,-31524,95174,45097,3190,10371,4190,22908]}},
    {"code":1180705,"left":9980509,"id":"04b250","name":"鳥ノ木","name_kana":"とりのき","lat":33.763751,"lng":132.711309,"prefecture":38,"lines":[11807],"attr":"heat","postal_code":"799-3111","address":"伊予市下吾川","next":[1180706,1180708,9980511,9980510,1180704],"voronoi":{"lat":33.774626,"lng":132.715568,"delta_lat":[0,-8185,-10349,-17206,-608],"delta_lng":[0,-9632,4308,16111,10264]}},
    {"code":9980509,"id":"4eaec9","name":"地蔵町","name_kana":"じぞうまち","lat":33.779907,"lng":132.70429,"prefecture":38,"lines":[99805],"attr":"cool","postal_code":"791-3102","address":"伊予郡松前町大字北黒田","next":[9980508,9980507,9980510,1180715,1180704],"voronoi":{"lat":33.775835,"lng":132.71553,"delta_lat":[0,1789,20641,-16658,-1586],"delta_lng":[0,-97387,-35497,132607,1560]}},
    {"code":9980507,"id":"62df9d","name":"古泉","name_kana":"こいずみ","lat":33.792539,"lng":132.717136,"prefecture":38,"lines":[99805],"attr":"cool","postal_code":"791-3134","address":"伊予郡松前町大字西古泉","next":[9980509,1180704,9980505,1180741,9980508,9980506],"voronoi":{"lat":33.817869,"lng":132.700472,"delta_lat":[0,5849,-42112,-1586,5396,1704],"delta_lng":[0,-8128,22908,1560,10610,1252]}},
    {"code":1161207,"left":1161209,"right":9980602,"id":"3bdc16","name":"大畠","name_kana":"おおばたけ","lat":33.963377,"lng":132.180741,"prefecture":35,"lines":[11612],"attr":"eco","postal_code":"749-0102","address":"柳井市大畠鍋網代","next":[1161206,1180720,1161208],"voronoi":{"lat":34.016265,"lng":132.151545,"delta_lat":[0,-185335,-168243],"delta_lng":[0,229551,-191304]}},
    {"code":1161209,"left":1161208,"right":1161211,"id":"87a48c","name":"柳井","name_kana":"やない","lat":33.965728,"lng":132.105988,"prefecture":35,"lines":[11612],"attr":"eco","postal_code":"742-0032","address":"柳井市大字古開作","next":[1172407,1161204,1161210,1161208,1172406,1172405],"voronoi":{"lat":34.033196,"lng":132.138664,"delta_lat":[0,-192427,183724,3594,7330,606],"delta_lng":[0,-50040,-20546,7434,40088,20137]}},
    {"code":1161208,"left":1161210,"id":"0556d6","name":"柳井港","name_kana":"やないみなと","lat":33.958357,"lng":132.134333,"prefecture":35,"lines":[11612],"attr":"eco","postal_code":"742-0021","address":"柳井市大字柳井","next":[1180730,1161206,1180720,1161204,1161205,1161209,1161207,1161210],"voronoi":{"lat":33.588786,"lng":132.087373,"delta_lat":[0,44578,29324,353578,11081,4538,1311,-192427],"delta_lng":[0,73882,28537,-38247,-5981,-4861,-2039,-50040]}},
    {"code":1161210,"id":"33ad8f","name":"田布施","name_kana":"たぶせ","lat":33.958805,"lng":132.044084,"prefecture":35,"lines":[11612],"attr":"eco","postal_code":"742-1502","address":"熊毛郡田布施町大字波野","next":[1172408,1180730,1190649,1161209,1161211,1172407,1161213,1161208],"voronoi":{"lat":33.588786,"lng":132.087373,"delta_lat":[0,-34816,36932,265687,163523,4464,-83,-183724],"delta_lng":[0,-44462,-107530,31171,76466,17606,7454,20546]}},
    {"code":1161211,"id":"ce7c7c","name":"岩田","name_kana":"いわた","lat":33.981624,"lng":131.995285,"prefecture":35,"lines":[11612],"attr":"eco","postal_code":"743-0103","address":"光市岩田","next":[1172408,1161213,1161212,1161210,1172409],"voronoi":{"lat":34.020112,"lng":132.043017,"delta_lat":[0,-163523,61970,100691,7474],"delta_lng":[0,-76466,-5888,25971,24819]}},
    {"code":9980602,"left":9980603,"right":9980601,"id":"17c855","name":"梅津寺","name_kana":"ばいしんじ","lat":33.874637,"lng":132.707595,"prefecture":38,"lines":[99806],"attr":"heat","postal_code":"791-8082","address":"松山市梅津寺町","next":[9980601,9980508,1180655,9980603],"voronoi":{"lat":33.831211,"lng":132.674593,"delta_lat":[0,1294,56481,-3253],"delta_lng":[0,-45097,91529,1464]}},
    {"code":9980603,"id":"87f6d7","name":"港山","name_kana":"みなとやま","lat":33.869533,"lng":132.713405,"prefecture":38,"lines":[99806],"attr":"heat","postal_code":"791-8085","address":"松山市港山町","next":[9980604,9980508,9980605,1180655,9980602],"voronoi":{"lat":33.831211,"lng":132.674593,"delta_lat":[0,-319,18364,29840,6637],"delta_lng":[0,3190,23932,25642,-4868]}},
    {"code":9980601,"id":"b4bcca","name":"高浜(愛媛)","name_kana":"たかはま","lat":33.883417,"lng":132.702177,"prefecture":38,"lines":[99806],"attr":"heat","postal_code":"791-8081","address":"松山市高浜町１","next":[1161206,9980602,1161205,1180653,1171619,1180650,1180716,1171616,1171620,1180718,1180719,1171617,1180655,1171618,9980508,1180654,1180649],"voronoi":{"lat":33.978185,"lng":132.677572,"delta_lat":[0,-46131,-9260,-33807,-56481,-2807,9467,15243,27266,114935,2493,8437,18072,6252,4481,2453,-51303],"delta_lng":[0,34109,3977,5368,-91529,-95174,-27315,-25889,-39264,26928,816,19145,45146,21519,17833,11476,81467]}},
    {"code":9980805,"left":9980503,"right":9980607,"id":"fd4757","name":"JR松山駅前","name_kana":"じぇいあーるまつやまえきまえ","lat":33.840765,"lng":132.752326,"prefecture":38,"lines":[99808,99809,99811],"attr":"cool","postal_code":"790-0067","address":"松山市大手町２","next":[1180657,9980609,9980806],"voronoi":{"lat":33.84257,"lng":132.750215,"delta_lat":[0,-4306,3902],"delta_lng":[0,2967,1326]}},
    {"code":9980503,"left":9980505,"right":1180702,"id":"e0c9c3","name":"土居田","name_kana":"どいだ","lat":33.8241,"lng":132.744094,"prefecture":38,"lines":[99805],"attr":"heat","postal_code":"790-0056","address":"松山市土居田町","next":[9980606,1180702,9980502,9980504,1180657],"voronoi":{"lat":33.819908,"lng":132.756223,"delta_lat":[0,-4653,17923,3352,-4602],"delta_lng":[0,-13440,-13920,8641,10342]}},
    {"code":9980505,"left":1180741,"right":9980504,"id":"c5e88d","name":"鎌田","name_kana":"かまた","lat":33.810115,"lng":132.729784,"prefecture":38,"lines":[99805],"attr":"heat","postal_code":"790-0047","address":"松山市余戸南４","next":[1180702,9980508,9980504,9980605,9980507,9980506],"voronoi":{"lat":33.807987,"lng":132.73945,"delta_lat":[0,22251,-2228,-4291,-5849,-19238],"delta_lng":[0,-32851,-18444,4190,8128,38497]}},
    {"code":1180741,"left":1180704,"id":"06256a","name":"南伊予","name_kana":"みなみいよ","lat":33.777727,"lng":132.737292,"prefecture":38,"lines":[11807],"attr":"heat","postal_code":"799-3104","address":"愛媛県伊予市上三谷字堤池下甲388番地","open_date":"2020-03-14","next":[1180704,1180703,9980506,1180708,9980507,9981303],"voronoi":{"lat":33.748545,"lng":132.771831,"delta_lat":[0,42808,-4232,-1704,-52226,-12358],"delta_lng":[0,-36215,-6941,-1252,24740,26485]}},
    {"code":1180704,"id":"b341c1","name":"伊予横田","name_kana":"いよよこた","lat":33.772909,"lng":132.727121,"prefecture":38,"lines":[11807],"attr":"heat","postal_code":"791-3154","address":"伊予郡松前町大字横田","next":[1180741,1180708,9980507,9980509,1180705,9980510],"voronoi":{"lat":33.775835,"lng":132.71553,"delta_lat":[0,4186,5396,-52226,5088,36348],"delta_lng":[0,1283,10610,24740,-15543,-21051]}},
    {"code":9980504,"id":"0787a2","name":"余戸","name_kana":"ようご","lat":33.816173,"lng":132.733887,"prefecture":38,"lines":[99805],"attr":"heat","postal_code":"790-0045","address":"松山市余戸中６","next":[9980606,9980505,9980503,1180702,9980605],"voronoi":{"lat":33.833178,"lng":132.728862,"delta_lat":[0,-17923,-7268,22251,2971],"delta_lng":[0,13920,-3333,-32851,12158]}},
    {"code":1180702,"left":1180703,"right":1180657,"id":"9143f7","name":"市坪","name_kana":"いちつぼ","lat":33.809113,"lng":132.749283,"prefecture":38,"lines":[11807],"attr":"heat","postal_code":"790-0947","address":"松山市市坪南２丁目","next":[9980505,9980506,9980503,9980502,1180703,9981302,9980504,9980703],"voronoi":{"lat":33.797906,"lng":132.76483,"delta_lat":[0,607,119,9355,7268,4653,-1501,-4559],"delta_lng":[0,-25813,-47,480,3333,13440,4924,3597]}},
    {"code":1180703,"id":"3adee7","name":"北伊予","name_kana":"きたいよ","lat":33.787441,"lng":132.748774,"prefecture":38,"lines":[11807],"attr":"heat","postal_code":"791-3161","address":"伊予郡松前町大字神崎","next":[9981302,1180741,1180702,9981303,9980506],"voronoi":{"lat":33.797906,"lng":132.76483,"delta_lat":[0,-5386,-43975,42808,7160],"delta_lng":[0,3737,3264,-36215,3401]}},
    {"code":1180657,"id":"89f6ed","name":"松山(愛媛)","name_kana":"まつやま","lat":33.839954,"lng":132.751149,"prefecture":38,"lines":[11806,11807],"attr":"heat","postal_code":"790-0062","address":"松山市南江戸１丁目","next":[9980607,9980606,9980609,9980806,9980502,9980805,9980503],"voronoi":{"lat":33.836529,"lng":132.737504,"delta_lat":[0,5616,2382,-1958,-4306,-2487,-3849],"delta_lng":[0,3338,4079,5294,2967,-134,-5202]}},
    {"code":9980607,"left":1180656,"right":9980608,"id":"a5d8f3","name":"衣山","name_kana":"きぬやま","lat":33.8522,"lng":132.743997,"prefecture":38,"lines":[99806],"attr":"cool","postal_code":"791-8025","address":"松山市衣山２","next":[1180655,1180657,9980608,9980606,9980806,9980808,1180656,9980809],"voronoi":{"lat":33.850792,"lng":132.750068,"delta_lat":[0,-1748,-4516,-2382,16443,12520,403,-9879],"delta_lng":[0,-830,-4318,-4079,-3365,7595,4523,868]}},
    {"code":1180656,"left":9980606,"right":1180655,"id":"6649f1","name":"三津浜","name_kana":"みつはま","lat":33.86142,"lng":132.728798,"prefecture":38,"lines":[11806],"attr":"heat","postal_code":"791-8076","address":"松山市会津町","next":[9980605,9980604,1180655,9980607,9980606],"voronoi":{"lat":33.871108,"lng":132.745071,"delta_lat":[0,6925,-17637,-4980,3172],"delta_lng":[0,-16395,-4900,6814,6886]}},
    {"code":9980606,"left":9980605,"id":"fde41f","name":"西衣山","name_kana":"にしきぬやま","lat":33.850152,"lng":132.733989,"prefecture":38,"lines":[99806],"attr":"cool","postal_code":"791-8025","address":"松山市衣山４","next":[9980504,1180657,9980503,9980605,9980607,1180656],"voronoi":{"lat":33.855416,"lng":132.730591,"delta_lat":[0,-22208,-31,3352,5616,16443],"delta_lng":[0,-11834,10106,8641,3338,-3365]}},
    {"code":9980605,"id":"b01da0","name":"山西","name_kana":"やまにし","lat":33.855301,"lng":132.724326,"prefecture":38,"lines":[99806],"attr":"heat","postal_code":"791-8067","address":"松山市古三津町６","next":[9980508,1180656,9980505,9980603,9980606,9980604,9980504],"voronoi":{"lat":33.855416,"lng":132.730591,"delta_lat":[0,4980,-11140,-18364,-2883,2228,2971],"delta_lng":[0,-6814,-22061,-23932,10371,18444,12158]}},
    {"code":1180655,"id":"82e3be","name":"伊予和気","name_kana":"いよわけ","lat":33.889529,"lng":132.740672,"prefecture":38,"lines":[11806],"attr":"heat","postal_code":"799-2656","address":"松山市和気町１丁目","next":[9980809,9980607,1180656,9980601,9980603,9980602,9980604,1180654,9980810],"voronoi":{"lat":33.922794,"lng":132.715658,"delta_lat":[0,-33807,-3253,-6637,-1063,-6925,403,4898,4533],"delta_lng":[0,5368,1464,4868,1319,16395,4523,9920,8128]}},
    {"code":9980608,"left":9980806,"right":1180654,"id":"9e01b0","name":"古町","name_kana":"こまち","lat":33.846978,"lng":132.754998,"prefecture":38,"lines":[99806,99808,99809],"attr":"cool","postal_code":"790-0807","address":"松山市平和通６","next":[9980607,9980806,9981204,9981203,9980808],"voronoi":{"lat":33.846518,"lng":132.757148,"delta_lat":[0,-2667,5192,1748,-1640],"delta_lng":[0,-1279,-6631,830,6382]}},
    {"code":9980806,"id":"682ac6","name":"宮田町","name_kana":"みやたちょう","lat":33.843948,"lng":132.752626,"prefecture":38,"lines":[99808,99809],"attr":"cool","postal_code":"790-0066","address":"松山市宮田町","next":[9980608,1180657,9980609,9980607,9981204,9980805],"voronoi":{"lat":33.84257,"lng":132.750215,"delta_lat":[0,1958,4516,-5192,-708,-978],"delta_lng":[0,-5294,4318,6631,135,-1497]}},
    {"code":1180654,"id":"3ce914","name":"堀江","name_kana":"ほりえ","lat":33.905458,"lng":132.753496,"prefecture":38,"lines":[11806],"attr":"heat","postal_code":"799-2651","address":"松山市堀江町","next":[9980810,1180653,1180655,9980601,9981011],"voronoi":{"lat":33.932054,"lng":132.711681,"delta_lat":[0,-9260,-41851,1251,16894],"delta_lng":[0,3977,51985,8932,29657]}},
    {"code":1172402,"left":100313,"right":1171616,"id":"44b4f7","name":"西岩国","name_kana":"にしいわくに","lat":34.16302,"lng":132.195786,"prefecture":35,"lines":[11724],"attr":"eco","postal_code":"741-0061","address":"岩国市錦見６丁目","next":[1172403,100313,1161128,1161202,1161129,1161127],"voronoi":{"lat":34.208036,"lng":132.174684,"delta_lat":[0,-12472,-49905,8524,35270,10412],"delta_lng":[0,-537,17319,23150,-10409,-13430]}},
    {"code":100313,"left":1172405,"right":9971807,"id":"480d8f","name":"新岩国","name_kana":"しんいわくに","lat":34.164998,"lng":132.149795,"prefecture":35,"lines":[1003],"attr":"heat","postal_code":"741-0083","address":"山口県岩国市御庄１０２−１","next":[9971802,1172402,1172403,1172404,1161127,9971803],"voronoi":{"lat":34.168843,"lng":132.143217,"delta_lat":[0,-13170,1065,38827,12472,16037],"delta_lng":[0,14417,4684,11829,537,-11442]}},
    {"code":1172405,"left":1172406,"right":1172403,"id":"403c4e","name":"欽明路","name_kana":"きんめいじ","lat":34.1044,"lng":132.101813,"prefecture":35,"lines":[11724],"attr":"eco","postal_code":"742-0344","address":"岩国市玖珂町中野口","next":[1161204,1172406,9971804,1161203,9971805,1172404,1161209],"voronoi":{"lat":34.083287,"lng":132.152323,"delta_lat":[0,9710,41735,514,-4699,-95131,606],"delta_lng":[0,-830,-31210,-20381,-18811,34509,20137]}},
    {"code":1172406,"left":1172407,"right":9971805,"id":"cede9a","name":"玖珂","name_kana":"くが","lat":34.097195,"lng":132.081951,"prefecture":35,"lines":[11724],"attr":"cool","postal_code":"742-0344","address":"岩国市玖珂町萃石","next":[1172405,9971805,1172407,1161209],"voronoi":{"lat":34.028087,"lng":132.075512,"delta_lat":[0,104338,-1877,-95131],"delta_lng":[0,-18621,24200,34509]}},
    {"code":1172407,"left":1172408,"id":"c42652","name":"周防高森","name_kana":"すおうたかもり","lat":34.090701,"lng":132.045564,"prefecture":35,"lines":[11724],"attr":"cool","postal_code":"742-0417","address":"岩国市周東町下久原","next":[9971807,1161209,9971806,1172406,1161210,1172408,9971805],"voronoi":{"lat":34.028087,"lng":132.075512,"delta_lat":[0,-3594,83,113072,2661,-7032,-852],"delta_lng":[0,-7434,-7454,-59363,22490,31649,1491]}},
    {"code":1172408,"id":"177a37","name":"米川","name_kana":"よねかわ","lat":34.074521,"lng":132.014745,"prefecture":35,"lines":[11724],"attr":"cool","postal_code":"742-0424","address":"岩国市周東町差川","next":[1161211,9971807,9971809,1161210,1172407,1172409],"voronoi":{"lat":34.020112,"lng":132.043017,"delta_lat":[0,4464,113072,2399,-2973,-110350],"delta_lng":[0,17606,-59363,-15329,-25120,50642]}},
    {"code":9971805,"id":"dab70d","name":"行波","name_kana":"ゆかば","lat":34.163368,"lng":132.087084,"prefecture":35,"lines":[99718],"attr":"heat","postal_code":"740-0301","address":"岩国市大字行波","next":[9971806,1172406,1172405,9971804,1172407],"voronoi":{"lat":34.133276,"lng":132.0554,"delta_lat":[0,62302,-60332,-4699,1877],"delta_lng":[0,34907,9595,-18811,-24200]}},
    {"code":1172403,"left":1172404,"right":9971802,"id":"855c09","name":"川西(山口)","name_kana":"かわにし","lat":34.156612,"lng":132.177321,"prefecture":35,"lines":[11724,99718],"attr":"eco","postal_code":"741-0082","address":"岩国市川西２丁目","next":[1161203,1172402,1172404,1161202,100313],"voronoi":{"lat":34.156738,"lng":132.162319,"delta_lat":[0,-27113,1510,14525,49905],"delta_lng":[0,15200,3132,10816,-17319]}},
    {"code":1172404,"id":"a0c862","name":"柱野","name_kana":"はしらの","lat":34.143874,"lng":132.154599,"prefecture":35,"lines":[11724],"attr":"eco","postal_code":"741-0073","address":"岩国市柱野","next":[1172403,9971802,1161203,9971804,9971803,100313,1172405],"voronoi":{"lat":34.134733,"lng":132.120282,"delta_lat":[0,6301,3698,10941,1065,-27113,-36627],"delta_lng":[0,2715,5134,29503,4684,15200,-26026]}},
    {"code":9971802,"id":"d5d754","name":"清流新岩国","name_kana":"せいりゅうしんいわくに","lat":34.162639,"lng":132.14764,"prefecture":35,"lines":[99718],"attr":"heat","postal_code":"741-0083","address":"岩国市大字御庄字観音原","next":[100313,1172404,9971803],"voronoi":{"lat":34.155673,"lng":132.157635,"delta_lat":[0,-10941,24111],"delta_lng":[0,-29503,15086]}},
    {"code":9971807,"left":9971813,"right":9971803,"id":"90784d","name":"椋野","name_kana":"むくの","lat":34.193637,"lng":132.033385,"prefecture":35,"lines":[99718],"attr":"eco","postal_code":"740-0504","address":"岩国市美川町南桑字西椋町","next":[1172408,1172407,9971808,9971813,9971806,9971809],"voronoi":{"lat":34.140046,"lng":131.985931,"delta_lat":[0,-2399,2661,105565,-57969,-3153],"delta_lng":[0,15329,22490,59764,-73880,-2013]}},
    {"code":9971813,"left":9971808,"right":9971810,"id":"ff7b36","name":"清流みはらし","name_kana":"せいりゅうみはらし","lat":34.211861,"lng":132.004833,"prefecture":35,"lines":[99718],"attr":"eco","postal_code":"740-0505","address":"岩国市美川町根笠字イモヶ迫","open_date":"2019-03-19","next":[9971810,9971807,9971809,9971808],"voronoi":{"lat":34.187905,"lng":132.009634,"delta_lat":[0,-3153,42581,16505],"delta_lng":[0,-2013,-9471,19344]}},
    {"code":9971808,"left":9971809,"id":"fb6648","name":"南桑","name_kana":"なぐわ","lat":34.20961,"lng":132.020852,"prefecture":35,"lines":[99718],"attr":"eco","postal_code":"740-0504","address":"岩国市美川町南桑字南桑","next":[9971811,1161126,9971807,9971810,9971813,9971806,9971803],"voronoi":{"lat":34.278847,"lng":132.108885,"delta_lat":[0,-32974,-57969,55933,21219,65039,-41882],"delta_lng":[0,-25371,-73880,7860,15374,69999,9239]}},
    {"code":9971809,"id":"c65268","name":"根笠","name_kana":"ねかさ","lat":34.210487,"lng":131.998656,"prefecture":35,"lines":[99718],"attr":"eco","postal_code":"740-0505","address":"岩国市美川町根笠字渡里","next":[1172408,1172409,1172413,9971813,9971807,9971810],"voronoi":{"lat":34.16147,"lng":131.882451,"delta_lat":[0,-15486,-8910,2973,44705,42581],"delta_lng":[0,24356,54005,25120,21690,-9471]}},
    {"code":9971810,"id":"c5d592","name":"河山","name_kana":"かわやま","lat":34.236368,"lng":131.983923,"prefecture":35,"lines":[99718],"attr":"eco","postal_code":"740-0502","address":"岩国市美川町四馬神字竹ノ瓜","next":[1172414,9971813,1172413,9971808,9971812,9971811,9971809,100314],"voronoi":{"lat":34.162473,"lng":131.880363,"delta_lat":[0,-1004,65863,16505,21219,-26216,-67838,-150],"delta_lng":[0,2088,115700,19344,15374,-75289,-91776,154]}},
    {"code":9971803,"left":9971804,"right":9971806,"id":"d54277","name":"守内かさ神","name_kana":"しゅうちかさがみ","lat":34.170107,"lng":132.135704,"prefecture":35,"lines":[99718],"attr":"heat","postal_code":"740-0312","address":"岩国市大字守内字向守内","next":[9971806,9971802,1161127,1172404,9971808,1161126,9971804,100313],"voronoi":{"lat":34.168843,"lng":132.143217,"delta_lat":[0,-24111,-3698,120907,16907,9366,-42998,-21142],"delta_lng":[0,-15086,-5134,-15514,1402,3221,39706,11430]}},
    {"code":9971804,"id":"0cc795","name":"南河内","name_kana":"みなみごうち","lat":34.165957,"lng":132.103363,"prefecture":35,"lines":[99718],"attr":"heat","postal_code":"740-0327","address":"岩国市大字角","next":[1172405,1172404,9971805,9971806,9971803],"voronoi":{"lat":34.26194,"lng":132.107483,"delta_lat":[0,-66362,-60332,-514,6301],"delta_lng":[0,-17177,9595,20381,2715]}},
    {"code":9971806,"id":"a746a9","name":"北河内(山口)","name_kana":"きたごうち","lat":34.176011,"lng":132.064519,"prefecture":35,"lines":[99718],"attr":"heat","postal_code":"740-0306","address":"岩国市大字天尾字高原瀬","next":[9971805,9971803,9971807,1172407,9971808,9971804],"voronoi":{"lat":34.278847,"lng":132.108885,"delta_lat":[0,-32974,-105565,-7032,62302,66362],"delta_lng":[0,-25371,-59764,31649,34907,17177]}},
    {"code":1171616,"left":1161127,"right":1171618,"id":"283bc2","name":"広","name_kana":"ひろ","lat":34.228613,"lng":132.628417,"prefecture":34,"lines":[11716],"attr":"eco","postal_code":"737-0131","address":"呉市広中町","next":[1171614,1161110,1171612,1171615,1180649,9980601,1171613,1171617],"voronoi":{"lat":34.329481,"lng":132.651192,"delta_lat":[0,-1647,-7528,-37295,-236500,-7713,-2453,291592],"delta_lng":[0,789,2058,2500,-59841,-11981,-11476,72519]}},
    {"code":1161127,"left":1161203,"right":1161129,"id":"6cae34","name":"大竹(広島)","name_kana":"おおたけ","lat":34.217565,"lng":132.223479,"prefecture":34,"lines":[11611],"attr":"heat","postal_code":"739-0611","address":"大竹市新町１丁目","next":[1161129,9971803,1161125,100313,1161126,1172402],"voronoi":{"lat":34.228119,"lng":132.280088,"delta_lat":[0,2283,14814,-21142,-16037,-8171],"delta_lng":[0,-3617,-124658,11430,11442,16093]}},
    {"code":1161203,"left":1161205,"right":1161202,"id":"1a668a","name":"藤生","name_kana":"ふじゅう","lat":34.112668,"lng":132.198515,"prefecture":35,"lines":[11612],"attr":"eco","postal_code":"740-0036","address":"岩国市藤生町１丁目","next":[1172403,1172405,1161202,1172404,1161204],"voronoi":{"lat":34.083287,"lng":132.152323,"delta_lat":[0,9710,36627,1510,-30470],"delta_lng":[0,-830,26026,3132,91752]}},
    {"code":1161205,"left":1161204,"id":"2fee4a","name":"由宇","name_kana":"ゆう","lat":34.043279,"lng":132.213621,"prefecture":35,"lines":[11612],"attr":"eco","postal_code":"740-1488","address":"岩国市由宇町字浜沖","next":[9980601,1161128,1171621,1171620,1171622,1161208,1161204,1161206],"voronoi":{"lat":33.999103,"lng":132.469598,"delta_lat":[0,79421,7274,3780,7769,-65462,-4538,-30737],"delta_lng":[0,-49841,-4980,-2744,-83157,-188174,4861,323219]}},
    {"code":1161204,"id":"8711f9","name":"通津","name_kana":"つづ","lat":34.068207,"lng":132.204949,"prefecture":35,"lines":[11612],"attr":"eco","postal_code":"740-0044","address":"岩国市通津","next":[1172405,1161209,1161202,1161208,1161203,1161205,1161128],"voronoi":{"lat":34.031885,"lng":132.140703,"delta_lat":[0,1311,2827,47265,17377,-687,-2631],"delta_lng":[0,-2039,-2927,16586,120080,43293,13181]}},
    {"code":1161202,"id":"fb8dd6","name":"南岩国","name_kana":"みなみいわくに","lat":34.135246,"lng":132.206013,"prefecture":35,"lines":[11612],"attr":"eco","postal_code":"740-0034","address":"岩国市南岩国町１丁目","next":[1161203,1172403,1161128,1161204,1172402],"voronoi":{"lat":34.145659,"lng":132.191466,"delta_lat":[0,-14525,-30470,-687,54206],"delta_lng":[0,-10816,91752,43293,-101079]}},
    {"code":1161129,"left":1161128,"right":1171615,"id":"74c6a1","name":"和木","name_kana":"わき","lat":34.204194,"lng":132.227709,"prefecture":35,"lines":[11611],"attr":"eco","postal_code":"740-0061","address":"玖珂郡和木町和木４丁目","next":[1161127,1161125,1161124,1161128,1172402],"voronoi":{"lat":34.199865,"lng":132.190778,"delta_lat":[0,28253,-31152,-18479,10966],"delta_lng":[0,89310,66004,28914,-170798]}},
    {"code":1161128,"id":"226bd7","name":"岩国","name_kana":"いわくに","lat":34.171828,"lng":132.225631,"prefecture":35,"lines":[11611,11612,11724],"attr":"eco","postal_code":"740-0018","address":"岩国市麻里布町１丁目","next":[1161205,1161202,1172402,1161129,1161124,1161204,1171622],"voronoi":{"lat":34.173209,"lng":132.385658,"delta_lat":[0,5278,10966,-35270,-54206,-2631,-7769],"delta_lng":[0,-10652,-170798,10409,101079,13181,83157]}},
    {"code":1171615,"id":"440135","name":"仁方","name_kana":"にがた","lat":34.221784,"lng":132.655406,"prefecture":34,"lines":[11716],"attr":"eco","postal_code":"737-0152","address":"呉市仁方本町２丁目","next":[1171616,1171614,1180649],"voronoi":{"lat":34.04651,"lng":132.596698,"delta_lat":[0,236500,-175104],"delta_lng":[0,59841,53449]}},
    {"code":1171618,"left":1161126,"right":1171614,"id":"fa2540","name":"安芸阿賀","name_kana":"あきあが","lat":34.235843,"lng":132.599788,"prefecture":34,"lines":[11716],"attr":"eco","postal_code":"737-0003","address":"呉市阿賀中央６丁目","next":[1171617,1171628,9980601,1161111,1171619,1161110],"voronoi":{"lat":34.324453,"lng":132.628229,"delta_lat":[0,-3989,-10526,-284327,6252,292866],"delta_lng":[0,-16972,-18030,-59338,21519,75016]}},
    {"code":1161126,"left":1171619,"right":1171621,"id":"d91405","name":"玖波","name_kana":"くば","lat":34.2553,"lng":132.227963,"prefecture":34,"lines":[11611],"attr":"heat","postal_code":"739-0651","address":"大竹市玖波２丁目","next":[9971811,9971808,1161125,1161127,9971803],"voronoi":{"lat":34.288213,"lng":132.112107,"delta_lat":[0,41882,126602,-226296,14814],"delta_lng":[0,-9239,927,172676,-124658]}},
    {"code":1171619,"left":1171620,"id":"bd7635","name":"呉","name_kana":"くれ","lat":34.244652,"lng":132.557578,"prefecture":34,"lines":[11716],"attr":"eco","postal_code":"737-0029","address":"呉市宝町","next":[9980601,1171620,1171623,1171628,1171618],"voronoi":{"lat":34.307251,"lng":132.581971,"delta_lat":[0,-23448,-276264,18072,284327],"delta_lng":[0,-23217,-70011,45146,59338]}},
    {"code":1171620,"id":"abcd49","name":"川原石","name_kana":"かわらいし","lat":34.248817,"lng":132.541143,"prefecture":34,"lines":[11716],"attr":"eco","postal_code":"737-0823","address":"呉市海岸","next":[1171619,1171623,1161205,9980601,1171621],"voronoi":{"lat":34.078523,"lng":132.419757,"delta_lat":[0,-79421,8437,276264,-5215],"delta_lng":[0,49841,19145,70011,-8096]}},
    {"code":1171621,"id":"dbe618","name":"吉浦","name_kana":"よしうら","lat":34.257947,"lng":132.527189,"prefecture":34,"lines":[11716],"attr":"eco","postal_code":"737-0861","address":"呉市吉浦本町１丁目","next":[1161205,1171623,1171622,1171620],"voronoi":{"lat":34.271862,"lng":132.529081,"delta_lat":[0,-186065,-7274,200065],"delta_lng":[0,-114303,4980,130901]}},
    {"code":1171614,"left":1171617,"right":1171613,"id":"686dad","name":"安芸川尻","name_kana":"あきかわじり","lat":34.232854,"lng":132.691672,"prefecture":34,"lines":[11716],"attr":"eco","postal_code":"737-2603","address":"呉市川尻町西２","next":[1171616,1180649,1171615,1171613,1180648,1180647],"voronoi":{"lat":34.320306,"lng":132.654039,"delta_lat":[0,-37295,-175104,13325,5338,15153],"delta_lng":[0,2500,53449,36970,10678,20225]}},
    {"code":1171617,"id":"c8ad9a","name":"新広","name_kana":"しんひろ","lat":34.23206,"lng":132.614557,"prefecture":34,"lines":[11716],"attr":"eco","postal_code":"737-0112","address":"呉市広古新開２-１","next":[1171618,1161110,9980601,1171616],"voronoi":{"lat":34.036345,"lng":132.573241,"delta_lat":[0,-4481,292866,3207],"delta_lng":[0,-17833,75016,15336]}},
    {"code":1171613,"id":"bd72a0","name":"安登","name_kana":"あと","lat":34.254396,"lng":132.722741,"prefecture":34,"lines":[11716],"attr":"eco","postal_code":"737-2503","address":"呉市安浦町安登","next":[1171614,1171616,1180647,1180646,1171611,1171612],"voronoi":{"lat":34.327834,"lng":132.651981,"delta_lat":[0,-7528,-178583,7614,26955,48083],"delta_lng":[0,2058,123822,14213,35735,-32147]}},
    {"code":9980812,"left":9980817,"right":1180642,"id":"c7f44f","name":"清水町","name_kana":"しみずまち","lat":33.849328,"lng":132.764281,"prefecture":38,"lines":[99808,99809],"attr":"heat","postal_code":"790-0823","address":"松山市清水町２","next":[9980820,9981204,9981203,9980813,9980811],"voronoi":{"lat":33.849001,"lng":132.76145,"delta_lat":[0,-2372,-1892,603,8574],"delta_lng":[0,581,1463,2390,1882]}},
    {"code":9980817,"left":9981205,"right":9980708,"id":"08078e","name":"警察署前","name_kana":"けいさつしょまえ","lat":33.844596,"lng":132.775354,"prefecture":38,"lines":[99808,99809,99810,99811],"attr":"heat","postal_code":"790-0878","address":"松山市勝山町２","next":[9980819,9980815,9981009,9980818,9980814,9980816],"voronoi":{"lat":33.845785,"lng":132.773711,"delta_lat":[0,-233,-1114,-724,-1466,3246],"delta_lng":[0,-794,-1320,460,7897,-2038]}},
    {"code":9981205,"left":9980801,"right":9980819,"id":"b75e93","name":"本町１丁目","name_kana":"ほんまちいっちょうめ","lat":33.84037679,"lng":132.75877,"prefecture":38,"lines":[99812],"attr":"cool","postal_code":"790-0067","address":"松山市大手町１","next":[9981204,9980803,9980802,9980609],"voronoi":{"lat":33.842793,"lng":132.75655,"delta_lat":[0,-84,-3053,1320],"delta_lng":[0,4838,-1227,-3262]}},
    {"code":9980801,"left":9980802,"right":9980702,"id":"ebdcbd","name":"松山市駅","name_kana":"まつやましえき","lat":33.836148,"lng":132.762587,"prefecture":38,"lines":[99808,99809,99810,99812],"attr":"eco","postal_code":"790-0012","address":"松山市湊町５","next":[9980802,9980501,9980821,9980702],"voronoi":{"lat":33.833712,"lng":132.765956,"delta_lat":[0,3451,953,-2299],"delta_lng":[0,-5549,3164,3891]}},
    {"code":9980802,"left":9980501,"right":9980803,"id":"81ccc2","name":"南堀端","name_kana":"みなみほりばた","lat":33.839213,"lng":132.761664,"prefecture":38,"lines":[99808,99809,99810,99811,99812],"attr":"cool","postal_code":"790-0006","address":"松山市南堀端町","next":[9980501,9981204,9980801,9980803,9981205,9980821],"voronoi":{"lat":33.843199,"lng":132.762421,"delta_lat":[0,-490,-3053,-2673,180,953],"delta_lng":[0,-1033,-1227,-794,1039,3164]}},
    {"code":9980501,"left":9980502,"id":"341a64","name":"松山市","name_kana":"まつやまし","lat":33.835656,"lng":132.762281,"prefecture":38,"lines":[99805,99806,99807],"attr":"heat","postal_code":"790-0012","address":"松山市湊町５","next":[9980802,9980803,9980702,9980801,9980502],"voronoi":{"lat":33.836182,"lng":132.758384,"delta_lat":[0,800,180,-3451,-5658],"delta_lng":[0,983,1039,5549,-3478]}},
    {"code":9980502,"id":"522d74","name":"土橋(愛媛)","name_kana":"どばし","lat":33.832738,"lng":132.756487,"prefecture":38,"lines":[99805],"attr":"heat","postal_code":"790-0032","address":"松山市土橋町","next":[9980609,9980803,9980702,1180702,9980503,9980703,1180657,9980501],"voronoi":{"lat":33.819778,"lng":132.76156,"delta_lat":[0,-1372,1501,12020,3849,690,-284,-8129],"delta_lng":[0,-413,-4924,-8377,5202,4374,963,4093]}},
    {"code":9980803,"id":"29e264","name":"西堀端","name_kana":"にしほりばた","lat":33.840105,"lng":132.75866,"prefecture":38,"lines":[99808,99809,99811],"attr":"cool","postal_code":"790-0067","address":"松山市大手町１","next":[9980609,9980502,9980501,9980802,9981205],"voronoi":{"lat":33.840976,"lng":132.756899,"delta_lat":[0,-4509,-284,800,2673],"delta_lng":[0,522,963,983,794]}},
    {"code":9980702,"left":9981301,"right":9980821,"id":"a4a650","name":"石手川公園","name_kana":"いしてがわこうえん","lat":33.831311,"lng":132.76935,"prefecture":38,"lines":[99807],"attr":"eco","postal_code":"790-0966","address":"松山市立花町１","next":[9980818,9980819,9980502,9980501,9980821,9980703,9980801],"voronoi":{"lat":33.836274,"lng":132.76833,"delta_lat":[0,-243,-1566,-14686,8275,5658,2105],"delta_lng":[0,4666,2976,-14413,918,3478,1506]}},
    {"code":9981301,"left":9980703,"id":"0dcea2","name":"伊予立花","name_kana":"いよたちばな","closed":true,"lat":33.82756,"lng":132.773326,"prefecture":38,"lines":[99813],"attr":"unknown","postal_code":"790-0966","address":"愛媛県松山市立花２丁目１-４２","next":[9980703,9980818,9980704,9981302],"voronoi":{"lat":33.813994,"lng":132.765115,"delta_lat":[0,20328,-717,-14227],"delta_lng":[0,11920,6797,-4513]}},
    {"code":9980703,"id":"9ac51a","name":"いよ立花","name_kana":"いよたちばな","lat":33.827784,"lng":132.772944,"prefecture":38,"lines":[99807],"attr":"eco","postal_code":"790-0966","address":"松山市立花町２","next":[9981301,9980818,9981302,9980502,9980702,1180702],"voronoi":{"lat":33.813994,"lng":132.765115,"delta_lat":[0,20328,142,-14686,-1372,-4559],"delta_lng":[0,11920,-1062,-14413,-413,3597]}},
    {"code":9980821,"id":"6e67fe","name":"市役所前(愛媛)","name_kana":"しやくしょまえ","lat":33.839926,"lng":132.764819,"prefecture":38,"lines":[99808,99809,99810,99811],"attr":"cool","postal_code":"790-0002","address":"松山市二番町","next":[9980820,9980819,9980702,9980802,9980801,9981204],"voronoi":{"lat":33.837026,"lng":132.768154,"delta_lat":[0,-753,-457,2299,5083,730],"delta_lng":[0,176,-869,-3891,-1149,636]}},
    {"code":9980819,"left":9981203,"right":9980815,"id":"7359f8","name":"大街道","name_kana":"おおかいどう","lat":33.841103,"lng":132.769861,"prefecture":38,"lines":[99808,99809,99810,99811],"attr":"cool","postal_code":"790-0004","address":"松山市大街道","next":[9980817,9980814,9980820,9980702,9980813,9980818,9980821],"voronoi":{"lat":33.837026,"lng":132.768154,"delta_lat":[0,7509,289,-386,-724,-7684,243],"delta_lng":[0,-78,2445,1076,460,939,-4666]}},
    {"code":9981203,"left":9980820,"right":9980813,"id":"e3c02a","name":"本町４丁目","name_kana":"ほんまちよんちょうめ","lat":33.847982,"lng":132.758789,"prefecture":38,"lines":[99812],"attr":"cool","postal_code":"790-0811","address":"松山市本町４","next":[9981202,9980808,9981204,9980811,9980812,9980608],"voronoi":{"lat":33.849151,"lng":132.756451,"delta_lat":[0,400,-82,-469,-2372,-110],"delta_lng":[0,590,3940,470,581,-4883]}},
    {"code":9980820,"left":9981204,"id":"2cfdf2","name":"県庁前(愛媛)","name_kana":"けんちょうまえ","lat":33.841067,"lng":132.766364,"prefecture":38,"lines":[99808,99809,99810,99811],"attr":"cool","postal_code":"790-0001","address":"松山市一番町","next":[9980813,9981204,9980812,9980821,9980819],"voronoi":{"lat":33.843928,"lng":132.763057,"delta_lat":[0,808,603,-804,-7509],"delta_lng":[0,437,2390,2192,78]}},
    {"code":9981204,"id":"99fabc","name":"本町３丁目","name_kana":"ほんまちさんちょうめ","lat":33.84513,"lng":132.758853,"prefecture":38,"lines":[99812],"attr":"cool","postal_code":"790-0811","address":"松山市本町３","next":[9980820,9980608,9980802,9981203,9981205,9980812,9980821,9980806,9980609],"voronoi":{"lat":33.842708,"lng":132.761389,"delta_lat":[0,490,730,808,1892,-110,-2667,-708,-351],"delta_lng":[0,1033,636,437,-1463,-4883,-1279,135,546]}},
    {"code":9980813,"id":"c5cf5f","name":"鉄砲町","name_kana":"てっぽうちょう","lat":33.84829,"lng":132.769011,"prefecture":38,"lines":[99808,99809],"attr":"heat","postal_code":"790-0827","address":"松山市鉄砲町","next":[9980820,9980814,9980811,9980819,9980812],"voronoi":{"lat":33.845339,"lng":132.765885,"delta_lat":[0,-804,289,16052,-6963],"delta_lng":[0,2192,2445,833,-3588]}},
    {"code":9980815,"left":9980818,"right":9980814,"id":"ac9998","name":"平和通１丁目","name_kana":"へいわどおりいっちょうめ","lat":33.847673,"lng":132.774452,"prefecture":38,"lines":[99808,99809],"attr":"heat","postal_code":"790-0807","address":"松山市平和通１","next":[9981011,9980817,9981009,9980816,9980814],"voronoi":{"lat":33.856645,"lng":132.777587,"delta_lat":[0,-6887,-3973,-233,15842],"delta_lng":[0,-334,-3541,-794,3384]}},
    {"code":9980818,"id":"c04691","name":"勝山町","name_kana":"かつやまちょう","lat":33.841709,"lng":132.774818,"prefecture":38,"lines":[99808,99809,99810,99811],"attr":"heat","postal_code":"790-0878","address":"松山市勝山町２","next":[9980703,9980702,9981009,9980817,9981301,9980819,9980704,9981010],"voronoi":{"lat":33.838171,"lng":132.784586,"delta_lat":[0,4077,1466,-7684,-1566,-142,-717,1888],"delta_lng":[0,-4631,-7897,939,2976,1062,6797,2555]}},
    {"code":9980814,"id":"7d0110","name":"赤十字病院前","name_kana":"せきじゅうじびょういんまえ","lat":33.848115,"lng":132.772383,"prefecture":38,"lines":[99808,99809],"attr":"heat","postal_code":"790-0826","address":"松山市文京町","next":[9981011,9980813,9980819,9980815,9980817,9980810,9980811],"voronoi":{"lat":33.868785,"lng":132.774898,"delta_lat":[0,-7391,-15842,-1114,386,16052,1094],"delta_lng":[0,1404,-3384,-1320,-1076,833,391]}},
    {"code":9980708,"left":9980712,"right":9980704,"id":"c62f15","name":"平井(愛媛)","name_kana":"ひらい","lat":33.808687,"lng":132.828617,"prefecture":38,"lines":[99807],"attr":"eco","postal_code":"791-0243","address":"松山市平井町甲","next":[9981011,9980709,9980715,9981303,9980707],"voronoi":{"lat":33.890181,"lng":132.864535,"delta_lat":[0,-49728,-58967,4720,74572],"delta_lng":[0,-4760,-42711,-2171,21589]}},
    {"code":9980712,"left":9980710,"right":9980714,"id":"457c7b","name":"田窪","name_kana":"たのくぼ","lat":33.792948,"lng":132.865413,"prefecture":38,"lines":[99807],"attr":"heat","postal_code":"791-0212","address":"東温市田窪","next":[1180709,9980713,9980714,9980711],"voronoi":{"lat":33.674935,"lng":132.831761,"delta_lat":[0,-35742,162666,11428],"delta_lng":[0,33252,4638,-4213]}},
    {"code":9980710,"left":9980711,"right":9980709,"id":"f1eed2","name":"牛渕団地前","name_kana":"うしぶちだんちまえ","lat":33.797739,"lng":132.846051,"prefecture":38,"lines":[99807],"attr":"heat","postal_code":"791-0213","address":"東温市牛渕","next":[9981303,9980711,9980709,9980715],"voronoi":{"lat":33.835834,"lng":132.860022,"delta_lat":[0,-79392,-49402,126417],"delta_lng":[0,-37730,6327,31752]}},
    {"code":9980711,"left":9981303,"id":"3fd407","name":"牛渕","name_kana":"うしぶち","lat":33.795212,"lng":132.856112,"prefecture":38,"lines":[99807],"attr":"heat","postal_code":"791-0213","address":"東温市牛渕","next":[1180709,9980715,9981303,9980712,9980714,9980710],"voronoi":{"lat":33.70704,"lng":132.828618,"delta_lat":[0,-31191,-913,138352,4348,15821],"delta_lng":[0,2224,918,33677,-505,-4562]}},
    {"code":9981303,"id":"bb1ee1","name":"森松","name_kana":"もりまつ","closed":true,"lat":33.790419,"lng":132.788892,"prefecture":38,"lines":[99813],"attr":"unknown","postal_code":"791-1113","address":"愛媛県松山市森松町５２９−２","next":[9980709,9980706,1180709,9981302,9980710,1180708,9980711,1180703,1180741,9980708,9980707],"voronoi":{"lat":33.781485,"lng":132.817063,"delta_lat":[0,-25044,-49402,-31191,11811,33173,27712,43975,11958,-6150,-12122],"delta_lng":[0,5228,6327,2224,-21484,-30711,-6817,-3264,26113,10059,10154]}},
    {"code":9980709,"id":"c07779","name":"梅本","name_kana":"うめのもと","lat":33.800944,"lng":132.839307,"prefecture":38,"lines":[99807],"attr":"heat","postal_code":"791-0245","address":"松山市南梅本町甲","next":[9981303,9980708,9980715,9980710],"voronoi":{"lat":33.840452,"lng":132.859774,"delta_lat":[0,-58967,-25044,79392],"delta_lng":[0,-42711,5228,37730]}},
    {"code":9980714,"left":9980713,"right":9980715,"id":"7e591a","name":"愛大医学部南口","name_kana":"あいだいいがくぶみなみぐち","lat":33.797831,"lng":132.878659,"prefecture":38,"lines":[99807],"attr":"cool","postal_code":"791-0204","address":"東温市志津川甲","next":[1180146,9980712,9980711,9980715,9980713],"voronoi":{"lat":33.619403,"lng":133.057618,"delta_lat":[0,198233,-4348,-11428,-189390],"delta_lng":[0,-192685,505,4213,183120]}},
    {"code":9980713,"id":"1a44f0","name":"見奈良","name_kana":"みなら","lat":33.792721,"lng":132.873374,"prefecture":38,"lines":[99807],"attr":"cool","postal_code":"791-0211","address":"東温市見奈良","next":[1180806,9980712,1180146,1180157,1180709,9980714],"voronoi":{"lat":33.80186,"lng":132.869651,"delta_lat":[0,-162666,-128887,150,1167,100846],"delta_lng":[0,-4638,113822,3573,2010,68353]}},
    {"code":9980715,"id":"ceb81d","name":"横河原","name_kana":"よこがわら","lat":33.803353,"lng":132.88434,"prefecture":38,"lines":[99807],"attr":"cool","postal_code":"791-0203","address":"東温市横河原","next":[1180638,1180651,9980711,9981011,1180146,1180647,1180640,1180641,1180639,9980709,1180637,9980708,9980714,1180652,1180636,9980710],"voronoi":{"lat":33.835834,"lng":132.860022,"delta_lat":[0,4619,49728,21477,6345,5486,6959,-3107,-1645,-60482,-18932,-43530,-150915,-32434,198233,15821],"delta_lng":[0,-247,4760,10170,7786,7430,37032,5797,2269,50760,11886,22207,61186,-23440,-192685,-4562]}},
    {"code":9980704,"left":9981009,"right":9980706,"id":"920e04","name":"福音寺","name_kana":"ふくおんじ","lat":33.82261,"lng":132.788931,"prefecture":38,"lines":[99807],"attr":"eco","postal_code":"790-0921","address":"松山市福音寺町","next":[9981302,9981010,9981301,9980818,9980705],"voronoi":{"lat":33.835494,"lng":132.786387,"delta_lat":[0,-1888,-14227,-7421,25523],"delta_lng":[0,-2555,-4513,11402,8740]}},
    {"code":9981009,"left":9981302,"right":9981010,"id":"666114","name":"南町","name_kana":"みなみまち","lat":33.847412,"lng":132.779839,"prefecture":38,"lines":[99810,99811],"attr":"eco","postal_code":"790-0856","address":"松山市南町２","next":[9981011,9980816,9980818,9980815,9980817,9981010],"voronoi":{"lat":33.842249,"lng":132.779954,"delta_lat":[0,3246,4264,6887,-7379,-11095],"delta_lng":[0,-2038,-664,334,4543,2456]}},
    {"code":9981302,"left":9980816,"id":"931938","name":"石井(愛媛)","name_kana":"いしい","closed":true,"lat":33.80928,"lng":132.780255,"prefecture":38,"lines":[99813],"attr":"unknown","postal_code":"791-1104","address":"愛媛県松山市北土居５丁目１６","next":[1180703,9980705,9981303,9980706,9980703,9980704,9981301,1180702],"voronoi":{"lat":33.792519,"lng":132.768567,"delta_lat":[0,11958,387,7093,7421,-5384,-147,-15942],"delta_lng":[0,26113,-108,-3851,-11402,-14204,-371,86]}},
    {"code":9980816,"id":"edbbd3","name":"上一万","name_kana":"かみいちまん","lat":33.846737,"lng":132.775502,"prefecture":38,"lines":[99808,99809,99810,99811],"attr":"heat","postal_code":"790-0804","address":"松山市中一万町","next":[9981009,9980815,9980817],"voronoi":{"lat":33.845785,"lng":132.773711,"delta_lat":[0,3973,-4264],"delta_lng":[0,3541,664]}},
    {"code":9981010,"id":"39fcba","name":"道後公園","name_kana":"どうごこうえん","lat":33.848552,"lng":132.784989,"prefecture":38,"lines":[99810,99811],"attr":"eco","postal_code":"790-0843","address":"松山市道後町１","next":[9981011,9980705,9980704,9980818,9980707,9981009,9980706],"voronoi":{"lat":33.845688,"lng":132.817032,"delta_lat":[0,-8208,-1987,2678,11095,4024,-5279],"delta_lng":[0,-17571,-13074,-1801,-2456,45034,-6271]}},
    {"code":9980706,"left":9980707,"right":9980705,"id":"b86e1b","name":"久米","name_kana":"くめ","lat":33.816036,"lng":132.804555,"prefecture":38,"lines":[99807],"attr":"eco","postal_code":"790-0924","address":"松山市南久米町","next":[9981303,9980707,9981302,9980705,9981010],"voronoi":{"lat":33.845688,"lng":132.817032,"delta_lat":[0,-40824,-387,-6150,49684],"delta_lng":[0,-22460,108,10059,16154]}},
    {"code":9980707,"id":"7bc1fc","name":"鷹ノ子","name_kana":"たかのこ","lat":33.812542,"lng":132.815301,"prefecture":38,"lines":[99807],"attr":"eco","postal_code":"790-0925","address":"松山市鷹子町","next":[9980706,9981011,9981010,9980708,9981303],"voronoi":{"lat":33.798327,"lng":132.804738,"delta_lat":[0,49684,5279,7487,-74572],"delta_lng":[0,16154,6271,9318,-21589]}},
    {"code":9980705,"id":"1f6afe","name":"北久米","name_kana":"きたくめ","lat":33.819277,"lng":132.798664,"prefecture":38,"lines":[99807],"attr":"eco","postal_code":"790-0923","address":"松山市北久米町","next":[9981302,9981010,9980706,9980704],"voronoi":{"lat":33.811957,"lng":132.79072,"delta_lat":[0,-7093,40824,-8208],"delta_lng":[0,3851,22460,-17571]}},
    {"code":1180642,"left":1180651,"right":1180639,"id":"35325e","name":"今治","name_kana":"いまばり","lat":34.063765,"lng":132.99408,"prefecture":38,"lines":[11806],"attr":"cool","postal_code":"794-0028","address":"今治市北宝来町１丁目","next":[1180643,1180645,1171604,1180640,1180641],"voronoi":{"lat":34.027305,"lng":132.960338,"delta_lat":[0,39075,117132,-10516,-72773],"delta_lng":[0,1426,159398,62708,-91036]}},
    {"code":1180651,"left":1180653,"right":1180646,"id":"59ff28","name":"柳原(愛媛)","name_kana":"やなぎはら","lat":33.953519,"lng":132.773465,"prefecture":38,"lines":[11806],"attr":"heat","postal_code":"799-2436","address":"松山市河野別府","next":[9980715,1180647,1180652,1180650,1180648,1180653],"voronoi":{"lat":33.918003,"lng":132.88249,"delta_lat":[0,5486,13184,20695,12689,-7403],"delta_lng":[0,7430,-15569,-39508,-131245,15775]}},
    {"code":1180653,"left":9980809,"right":9980811,"id":"20bbe7","name":"光洋台","name_kana":"こうようだい","lat":33.926886,"lng":132.760967,"prefecture":38,"lines":[11806],"attr":"heat","postal_code":"799-2468","address":"松山市小川","next":[9980601,1180652,1180654,1180651,9981011,1180650],"voronoi":{"lat":33.978185,"lng":132.677572,"delta_lat":[0,-46131,-32966,4000,59566,7403],"delta_lng":[0,34109,94551,12815,-99673,-15775]}},
    {"code":9980809,"left":9981202,"right":9980810,"id":"7084ee","name":"本町６丁目","name_kana":"ほんまちろくちょうめ","lat":33.853472,"lng":132.758473,"prefecture":38,"lines":[99808,99809,99812],"attr":"eco","postal_code":"790-0811","address":"松山市本町６","next":[1180655,9980810,9980808,9981202,9980607],"voronoi":{"lat":33.871511,"lng":132.749594,"delta_lat":[0,4898,-23999,-297,9519],"delta_lng":[0,9920,115,-1898,-7269]}},
    {"code":9981202,"left":9980808,"id":"07749a","name":"本町５丁目","name_kana":"ほんまちごちょうめ","lat":33.851047,"lng":132.758853,"prefecture":38,"lines":[99812],"attr":"cool","postal_code":"790-0811","address":"松山市本町５","next":[9981203,9980810,9980811,9980809,9980808],"voronoi":{"lat":33.849552,"lng":132.75704,"delta_lat":[0,-82,2167,774,-297],"delta_lng":[0,3940,-370,-981,-1898]}},
    {"code":9980808,"id":"c16861","name":"萱町６丁目","name_kana":"かやまちろくちょうめ","lat":33.851756,"lng":132.756226,"prefecture":38,"lines":[99808,99809],"attr":"eco","postal_code":"790-0813","address":"松山市萱町６","next":[9981203,9980607,9980809,9981202,9980608],"voronoi":{"lat":33.849552,"lng":132.75704,"delta_lat":[0,2562,9519,-10841,-1640],"delta_lng":[0,691,-7269,-394,6382]}},
    {"code":9980810,"id":"5073d3","name":"木屋町","name_kana":"きやちょう","lat":33.853483,"lng":132.760776,"prefecture":38,"lines":[99808,99809],"attr":"eco","postal_code":"790-0821","address":"松山市木屋町３","next":[9981202,9980809,1180654,9980814,9981011,9980811,1180655],"voronoi":{"lat":33.876409,"lng":132.759515,"delta_lat":[0,-23999,-774,10334,6815,13408,-1251],"delta_lng":[0,115,981,11135,3152,1677,-8932]}},
    {"code":9980811,"left":9981011,"right":1180652,"id":"a009bd","name":"高砂町","name_kana":"たかさごちょう","lat":33.851664,"lng":132.762464,"prefecture":38,"lines":[99808,99809],"attr":"eco","postal_code":"790-0822","address":"松山市高砂町２","next":[9981202,9980813,9981203,9980810,9980814,9980812],"voronoi":{"lat":33.860877,"lng":132.771355,"delta_lat":[0,1094,-10334,-2167,-469,4913],"delta_lng":[0,391,-11135,370,470,6316]}},
    {"code":9981011,"id":"b431a2","name":"道後温泉","name_kana":"どうごおんせん","lat":33.850477,"lng":132.784817,"prefecture":38,"lines":[99810,99811],"attr":"cool","postal_code":"790-0843","address":"松山市道後町１","next":[9980708,9980815,9981009,9981010,9980715,9980814,9980707,1180653,9980810,1180652,1180654],"voronoi":{"lat":33.882193,"lng":132.776574,"delta_lat":[0,-13408,-7391,-4749,-7379,4024,7487,29403,21477,-8570,-4000],"delta_lng":[0,-1677,1404,1285,4543,45034,9318,28053,10170,-55658,-12815]}},
    {"code":1180652,"id":"69fe1e","name":"粟井","name_kana":"あわい","lat":33.942965,"lng":132.770576,"prefecture":38,"lines":[11806],"attr":"heat","postal_code":"799-2461","address":"松山市鹿峰","next":[1180653,1180651,9981011,9980715],"voronoi":{"lat":33.962653,"lng":132.719374,"delta_lat":[0,-59566,8570,6345],"delta_lng":[0,99673,55658,7786]}},
    {"code":1180646,"left":1180648,"right":1180644,"id":"466102","name":"伊予亀岡","name_kana":"いよかめおか","lat":34.053811,"lng":132.874049,"prefecture":38,"lines":[11806],"attr":"heat","postal_code":"799-2301","address":"今治市菊間町佐方","next":[1180644,1171611,1180645,1171613,1180647,1180641],"voronoi":{"lat":33.93167,"lng":132.926932,"delta_lat":[0,217666,26955,5087,-80657,-159560],"delta_lng":[0,-134857,35735,16213,48597,35542]}},
    {"code":1180648,"left":1180649,"right":1180647,"id":"1dc192","name":"浅海","name_kana":"あさなみ","lat":34.010017,"lng":132.80306,"prefecture":38,"lines":[11806],"attr":"heat","postal_code":"799-2402","address":"松山市浅海本谷","next":[1180647,1180650,1180651,1171614,1180649],"voronoi":{"lat":34.121232,"lng":132.746959,"delta_lat":[0,5338,-189897,20695,28889],"delta_lng":[0,10678,116715,-39508,-38678]}},
    {"code":1180649,"left":1180650,"id":"e0f9c9","name":"大浦","name_kana":"おおうら","lat":34.000005,"lng":132.775597,"prefecture":38,"lines":[11806],"attr":"heat","postal_code":"799-2408","address":"松山市大浦","next":[1171614,1180650,1171616,1180648,9980601,1171615],"voronoi":{"lat":34.121232,"lng":132.746959,"delta_lat":[0,-134975,1238,51303,7713,61396],"delta_lng":[0,49207,-129981,-81467,11981,113290]}},
    {"code":1180650,"id":"7cc157","name":"伊予北条","name_kana":"いよほうじょう","lat":33.972903,"lng":132.775339,"prefecture":38,"lines":[11806],"attr":"heat","postal_code":"799-2430","address":"松山市北条辻","next":[1180649,1180648,9980601,1180651,1180653],"voronoi":{"lat":33.978185,"lng":132.677572,"delta_lat":[0,9310,-1238,-28889,12689],"delta_lng":[0,-11387,129981,38678,-131245]}},
    {"code":1180647,"id":"a90073","name":"菊間","name_kana":"きくま","lat":34.033404,"lng":132.841111,"prefecture":38,"lines":[11806],"attr":"heat","postal_code":"799-2303","address":"今治市菊間町浜","next":[1180648,1180651,1171613,9980715,1180646,1180641,1171614],"voronoi":{"lat":34.126569,"lng":132.757637,"delta_lat":[0,-189897,-13184,6959,1223,217666,-7614],"delta_lng":[0,116715,15569,37032,-21,-134857,-14213]}},
    {"code":1180644,"left":1180645,"right":1180643,"id":"2bffee","name":"波方","name_kana":"なみかた","lat":34.095217,"lng":132.942771,"prefecture":38,"lines":[11806],"attr":"cool","postal_code":"799-2102","address":"今治市波方町樋口","next":[1171609,1180646,1171606,1171607,1180643,1180645,1171611],"voronoi":{"lat":34.218041,"lng":132.9339,"delta_lat":[0,-2,-731,-147065,30478,80657,11530],"delta_lng":[0,198,8899,15657,-66034,-48597,16318]}},
    {"code":1180645,"id":"91417e","name":"大西","name_kana":"おおにし","lat":34.066128,"lng":132.929345,"prefecture":38,"lines":[11806],"attr":"heat","postal_code":"799-2203","address":"今治市大西町新町","next":[1180641,1180642,1180643,1180646,1180644],"voronoi":{"lat":34.100721,"lng":132.89262,"delta_lat":[0,-159560,86144,39075,3863],"delta_lng":[0,35542,32177,1426,-3111]}},
    {"code":1180643,"id":"83cf87","name":"波止浜","name_kana":"はしはま","lat":34.098001,"lng":132.968922,"prefecture":38,"lines":[11806],"attr":"cool","postal_code":"799-2113","address":"今治市高部町","next":[1171606,1180642,1180645,1180644,1171604,1171605],"voronoi":{"lat":34.183512,"lng":133.121163,"delta_lat":[0,-117132,3863,147065,786,-4284],"delta_lng":[0,-159398,-3111,-15657,30178,45750]}},
    {"code":1180639,"left":1180634,"right":1180628,"id":"89b2d6","name":"伊予三芳","name_kana":"いよみよし","lat":33.954382,"lng":133.064298,"prefecture":38,"lines":[11806],"attr":"cool","postal_code":"799-1301","address":"西条市三芳","next":[1180640,1180638,1180633,9980715],"voronoi":{"lat":33.925696,"lng":132.935019,"delta_lat":[0,113471,-31248,-142705],"delta_lng":[0,226899,-10536,-165603]}},
    {"code":1180634,"left":1180637,"right":1180632,"id":"8e871a","name":"石鎚山","name_kana":"いしづちやま","lat":33.895882,"lng":133.157744,"prefecture":38,"lines":[11806],"attr":"heat","postal_code":"793-0062","address":"西条市西田甲","next":[1180146,1180632,1180145,1180633,1180635],"voronoi":{"lat":33.675698,"lng":133.137327,"delta_lat":[0,35457,10120,31804,200255],"delta_lng":[0,105424,23049,-10102,-109550]}},
    {"code":1180637,"left":1180635,"right":1180638,"id":"ea9832","name":"玉之江","name_kana":"たまのえ","lat":33.912829,"lng":133.098941,"prefecture":38,"lines":[11806],"attr":"heat","postal_code":"799-1363","address":"西条市玉之江","next":[1180636,1180635,1180638,1180633,9980715],"voronoi":{"lat":33.925781,"lng":133.125501,"delta_lat":[0,36255,43,-115798,-43530],"delta_lng":[0,18242,0,-146079,22207]}},
    {"code":1180635,"left":1180636,"id":"9abb0b","name":"伊予氷見","name_kana":"いよひみ","lat":33.896734,"lng":133.130929,"prefecture":38,"lines":[11806],"attr":"heat","postal_code":"793-0000","address":"西条市氷見","next":[1180146,1180636,1180637,1180633,1180634],"voronoi":{"lat":33.962037,"lng":133.143743,"delta_lat":[0,-36255,-261081,10998,277636],"delta_lng":[0,-18242,-15303,27129,8821]}},
    {"code":1180636,"id":"8c1de9","name":"伊予小松","name_kana":"いよこまつ","lat":33.897567,"lng":133.116717,"prefecture":38,"lines":[11806],"attr":"heat","postal_code":"799-1101","address":"西条市小松町新屋敷","next":[1180146,1180637,1180635,9980715],"voronoi":{"lat":33.664701,"lng":133.110199,"delta_lat":[0,261081,-123030,-150915],"delta_lng":[0,15303,-105630,61186]}},
    {"code":1180638,"id":"0bf9dc","name":"壬生川","name_kana":"にゅうがわ","lat":33.929699,"lng":133.085568,"prefecture":38,"lines":[11806],"attr":"heat","postal_code":"799-1351","address":"西条市三津屋","next":[9980715,1180637,1180639,1180633],"voronoi":{"lat":33.865213,"lng":132.985778,"delta_lat":[0,-18932,115798,45839],"delta_lng":[0,11886,146079,7638]}},
    {"code":1180632,"left":1180633,"right":1180631,"id":"1415aa","name":"中萩","name_kana":"なかはぎ","lat":33.926232,"lng":133.253294,"prefecture":38,"lines":[11806],"attr":"heat","postal_code":"792-0060","address":"新居浜市大生院","next":[1180145,1180633,1180144,1180634,1180161,9981833,1180629,1180631,1180640],"voronoi":{"lat":34.078376,"lng":133.187416,"delta_lat":[0,-325297,-31804,4751,7434,13533,1113,31490,311876],"delta_lng":[0,68283,10102,28164,30083,37451,2400,-6678,-164651]}},
    {"code":1180633,"id":"1e54cd","name":"伊予西条","name_kana":"いよさいじょう","lat":33.912584,"lng":133.188275,"prefecture":38,"lines":[11806],"attr":"heat","postal_code":"793-0030","address":"西条市大町福森","next":[1180632,1180639,1180640,1180637,1180635,1180638,1180634],"voronoi":{"lat":33.953335,"lng":133.146148,"delta_lat":[0,8702,43,45839,31248,39210,-325297],"delta_lng":[0,-2405,0,7638,10536,25498,68283]}},
    {"code":1180631,"id":"747913","name":"新居浜","name_kana":"にいはま","lat":33.948124,"lng":133.294761,"prefecture":38,"lines":[11806],"attr":"heat","postal_code":"792-0812","address":"新居浜市坂井町","next":[1180629,1180640,1180632,1180630],"voronoi":{"lat":33.779597,"lng":133.357221,"delta_lat":[0,311876,20038,-202482],"delta_lng":[0,-164651,4931,149587]}},
    {"code":1180628,"left":1180640,"right":1180626,"id":"c5db8c","name":"伊予土居","name_kana":"いよどい","lat":33.959024,"lng":133.428294,"prefecture":38,"lines":[11806],"attr":"eco","postal_code":"799-0711","address":"四国中央市土居町土居","next":[9981826,9981827,1180627,1180630,1180136,1180121,1180138,1180626,1180629],"voronoi":{"lat":33.755126,"lng":133.435213,"delta_lat":[0,786,184,3392,28624,28331,316933,-4858,-373770],"delta_lng":[0,11382,1066,14419,23991,-3531,-87044,-542,33942]}},
    {"code":1180640,"left":1180629,"right":1180641,"id":"0ecad5","name":"伊予桜井","name_kana":"いよさくらい","lat":34.011923,"lng":133.035522,"prefecture":38,"lines":[11806],"attr":"cool","postal_code":"799-1527","address":"今治市長沢甲","next":[1180641,1180630,1180639,1171603,1180631,1180633,9980715,1180642,1171604,1180632],"voronoi":{"lat":34.078376,"lng":133.187416,"delta_lat":[0,-39210,-113471,1645,172883,72773,-148,-1563,-59775,-20038],"delta_lng":[0,-25498,-226899,-2269,160085,91036,10560,11614,-8544,-4931]}},
    {"code":1180629,"left":1180630,"id":"0eae28","name":"関川","name_kana":"せきがわ","lat":33.955791,"lng":133.392692,"prefecture":38,"lines":[11806],"attr":"eco","postal_code":"799-0722","address":"四国中央市土居町北野","next":[1180631,9981827,9981833,9981829,1180632,1180628,1180630],"voronoi":{"lat":33.909029,"lng":133.347087,"delta_lat":[0,-129432,-31490,4166,728,1748,373770],"delta_lng":[0,10133,6678,47509,5714,11775,-33942]}},
    {"code":1180630,"id":"182a65","name":"多喜浜","name_kana":"たきはま","lat":33.970533,"lng":133.325094,"prefecture":38,"lines":[11806],"attr":"heat","postal_code":"792-0882","address":"新居浜市又野１丁目","next":[1180640,1161018,1180628,1171603,1161015,1180629,1180631,1161016,1180627,1161017],"voronoi":{"lat":34.224215,"lng":133.38903,"delta_lat":[0,358,-91196,-4858,-219490,202482,59775,557,47481,4252],"delta_lng":[0,9109,-2642,-542,-47867,-149587,8544,923,155969,21478]}},
    {"code":1180641,"id":"c9429a","name":"伊予富田","name_kana":"いよとみた","lat":34.036302,"lng":133.009194,"prefecture":38,"lines":[11806],"attr":"cool","postal_code":"799-1511","address":"今治市上徳甲","next":[1180640,1180645,1180642,1180647,9980715,1180646],"voronoi":{"lat":33.93167,"lng":132.926932,"delta_lat":[0,-1223,-3107,172883,-72918,-86144],"delta_lng":[0,21,5797,160085,-132496,-32177]}},
    {"code":1180626,"left":1180627,"right":1180625,"id":"988e40","name":"伊予寒川","name_kana":"いよさんがわ","lat":33.967978,"lng":133.500123,"prefecture":38,"lines":[11806],"attr":"eco","postal_code":"799-0431","address":"四国中央市寒川町","next":[1180627,1180121,1180624,1180628,1180625],"voronoi":{"lat":34.054663,"lng":133.499135,"delta_lat":[0,39737,-277956,-28331,56095],"delta_lng":[0,-24520,7925,3531,70623]}},
    {"code":1180627,"id":"c3d45b","name":"赤星","name_kana":"あかぼし","lat":33.96673,"lng":133.456352,"prefecture":38,"lines":[11806],"attr":"eco","postal_code":"799-0704","address":"四国中央市土居町津根","next":[1180626,1180628,100308,1180624,1180621,1161015,1180630],"voronoi":{"lat":34.228363,"lng":133.410833,"delta_lat":[0,86,-24174,-109876,-277956,316933,91196],"delta_lng":[0,472,19134,44176,7925,-87044,2642]}},
    {"code":1180625,"id":"13a41b","name":"伊予三島","name_kana":"いよみしま","lat":33.979541,"lng":133.542401,"prefecture":38,"lines":[11806],"attr":"eco","postal_code":"799-0405","address":"四国中央市三島中央３丁目","next":[1180120,1180121,1180624,1180115,1180626],"voronoi":{"lat":33.878624,"lng":133.618296,"delta_lat":[0,12817,26824,136397,-210455],"delta_lng":[0,16705,6965,-142831,57559]}}
  ]
}