{
  "name":"segment41",
  "root":2600207,
  "east":139.751864,
  "west":139.617796,
  "south":-90.0,
  "north":35.60538,
  "station_size":155,
  "node_list":[
    {"code":2600207,"left":1130703,"right":2700306,"id":"57e7d9","name":"奥沢","name_kana":"おくさわ","lat":35.603947,"lng":139.672355,"prefecture":13,"lines":[26002],"attr":"heat","postal_code":"158-0083","address":"世田谷区奥沢３-４７-１７","next":[2600108,2600508,2600409,2600509,2600107],"voronoi":{"lat":35.602095,"lng":139.66741,"delta_lat":[0,-5340,2033,325,10756],"delta_lng":[0,7619,2774,181,-3672]},"impl":true},
    {"code":1130703,"left":9931710,"right":2600114,"id":"136de6","name":"関内","name_kana":"かんない","lat":35.443336,"lng":139.636984,"prefecture":14,"lines":[11307,99316],"attr":"cool","postal_code":"231-0017","address":"横浜市中区港町１丁目","next":[9931004,1130704,9931617,1130702,9931005],"voronoi":{"lat":35.437986,"lng":139.63761,"delta_lat":[0,8235,56,702,-4226],"delta_lng":[0,-4956,71,5893,2619]},"impl":true},
    {"code":9931710,"left":2700137,"right":9931708,"id":"5fae2b","name":"八景島","name_kana":"はっけいじま","lat":35.340914,"lng":139.64079,"prefecture":14,"lines":[99317],"attr":"eco","postal_code":"236-0013","address":"横浜市金沢区海の公園１０","next":[9931711,9931707,9931713,9931708,9931709,9931712],"voronoi":{"lat":35.337106,"lng":139.637276,"delta_lat":[0,11612,-654,-2665,-24189,12074],"delta_lng":[0,2753,1475,3004,7883,-13494]},"impl":true},
    {"code":2700137,"left":9931713,"right":9931618,"id":"727059","name":"能見台","name_kana":"のうけんだい","lat":35.360528,"lng":139.629233,"prefecture":14,"lines":[27001],"attr":"heat","postal_code":"236-0053","address":"横浜市金沢区能見台通２-１","next":[2700138,9931705,2700135,9931711,1130709,2700136,9931706],"voronoi":{"lat":35.363066,"lng":139.636071,"delta_lat":[0,2208,-33,-5653,-9480,2234,8907],"delta_lng":[0,-25461,-58,-3187,21829,6230,1306]},"impl":true},
    {"code":9931713,"left":2700139,"right":9931712,"id":"306ff7","name":"野島公園","name_kana":"のじまこうえん","lat":35.330559,"lng":139.631524,"prefecture":14,"lines":[99317],"attr":"cool","postal_code":"236-0023","address":"横浜市金沢区平潟町１２７","next":[1130815,9931710,2700140,9931709,9931712,2700139],"voronoi":{"lat":35.324217,"lng":139.625461,"delta_lat":[0,-10252,1284,5961,12074,1102],"delta_lng":[0,23385,7834,-4289,-13494,-12841]},"impl":true},
    {"code":2700139,"left":2700141,"right":2700138,"id":"634c7c","name":"金沢八景","name_kana":"かなざわはっけい","lat":35.331223,"lng":139.62018,"prefecture":14,"lines":[27001,27004,99317],"attr":"heat","postal_code":"236-0027","address":"横浜市金沢区瀬戸１５-１","next":[2700402,2700140,9931713,9931712,2700138],"voronoi":{"lat":35.33917,"lng":139.603805,"delta_lat":[0,-16549,1596,10169,2218],"delta_lng":[0,16329,5327,595,-1117]},"impl":true},
    {"code":2700141,"left":2700140,"id":"8fa81d","name":"京急田浦","name_kana":"けいきゅうたうら","lat":35.300892,"lng":139.625252,"prefecture":14,"lines":[27001],"attr":"heat","postal_code":"237-0076","address":"横須賀市船越町５-２","next":[1130814,2700140,1130815],"voronoi":{"lat":35.307884,"lng":139.612787,"delta_lat":[0,-34823,35452],"delta_lng":[0,3130,23254]},"impl":true},
    {"code":2700140,"id":"74a393","name":"追浜","name_kana":"おっぱま","lat":35.315461,"lng":139.624905,"prefecture":14,"lines":[27001],"attr":"heat","postal_code":"237-0064","address":"横須賀市追浜町３-３","next":[1130815,2700141,2700139,9931713,1130814,2700402],"voronoi":{"lat":35.308374,"lng":139.612433,"delta_lat":[0,-490,629,5452,10252,-1596],"delta_lng":[0,353,26384,9676,-23385,-5327]},"impl":true},
    {"code":2700138,"id":"258467","name":"金沢文庫","name_kana":"かなざわぶんこ","lat":35.342966,"lng":139.621606,"prefecture":14,"lines":[27001],"attr":"heat","postal_code":"236-0016","address":"横浜市金沢区谷津町３８４","next":[2700137,1130709,1130710,9931711,9931712,2700402,2700139],"voronoi":{"lat":35.33917,"lng":139.603805,"delta_lat":[0,6984,2472,10962,-9480,-6459,-7045],"delta_lng":[0,-14057,1755,15862,21829,-399,-3856]},"impl":true},
    {"code":9931712,"left":1130815,"right":9931711,"id":"29e920","name":"海の公園南口","name_kana":"うみのこうえんみなみぐち","lat":35.337225,"lng":139.632096,"prefecture":14,"lines":[99317],"attr":"cool","postal_code":"236-0013","address":"横浜市金沢区海の公園１０","next":[2700138,9931711,9931713,2700139,9931710],"voronoi":{"lat":35.334386,"lng":139.626057,"delta_lat":[0,2218,7045,-6543,-3822],"delta_lng":[0,-1117,3856,8481,1621]},"impl":true},
    {"code":1130815,"left":2700509,"id":"538ab5","name":"田浦","name_kana":"たうら","lat":35.29271,"lng":139.637726,"prefecture":14,"lines":[11308],"attr":"eco","postal_code":"237-0075","address":"横須賀市田浦町１丁目","next":[9931713,2700140,2700141,9931709,1130816,2700142,1130814],"voronoi":{"lat":35.308512,"lng":139.639171,"delta_lat":[0,5452,1284,-650,-14629,-31903,4994],"delta_lng":[0,9676,7834,2681,-7010,-37278,843]},"impl":true},
    {"code":2700509,"id":"a471d4","name":"三崎口","name_kana":"みさきぐち","lat":35.177515,"lng":139.633207,"prefecture":14,"lines":[27005],"attr":"heat","postal_code":"238-0111","address":"三浦市初声町下宮田４９５","next":[1130112,9932008,1132522,1130817,2700508,2700404,9932010,9950104,1132524,2500217,9950103],"voronoi":{"lat":35.0424,"lng":139.388796,"delta_lat":[0,15433,80973,30739,33646,30221,-6458,-161785,-163665,-107077,183748],"delta_lng":[0,6456,71035,29931,38459,66719,18363,85791,-105089,-85038,-97993]},"impl":true},
    {"code":9931711,"id":"78d53b","name":"海の公園柴口","name_kana":"うみのこうえんしばぐち","lat":35.342086,"lng":139.635846,"prefecture":14,"lines":[99317],"attr":"eco","postal_code":"236-0013","address":"横浜市金沢区海の公園１０","next":[9931710,2700137,2700138,9931707,9931712,9931706],"voronoi":{"lat":35.352342,"lng":139.635425,"delta_lat":[0,-2234,-6459,-6543,11612,2927],"delta_lng":[0,-6230,-399,8481,2753,-3157]},"impl":true},
    {"code":9931618,"left":9931619,"right":1130706,"id":"ba4611","name":"阪東橋","name_kana":"ばんどうばし","lat":35.437434,"lng":139.624843,"prefecture":14,"lines":[99316],"attr":"heat","postal_code":"231-0058","address":"横浜市中区弥生町５-４８","next":[1130706,9931617,2700128,9931619,2700129],"voronoi":{"lat":35.436455,"lng":139.621651,"delta_lat":[0,-12397,4307,12537,456],"delta_lng":[0,3774,8295,-5431,-1989]},"impl":true},
    {"code":9931619,"left":1130708,"right":2700129,"id":"d50309","name":"吉野町","name_kana":"よしのちょう","lat":35.435489,"lng":139.618455,"prefecture":14,"lines":[99316],"attr":"heat","postal_code":"232-0014","address":"横浜市南区吉野町３-７","next":[9931620,2700129,2700130,1130706,9931618],"voronoi":{"lat":35.436455,"lng":139.621651,"delta_lat":[0,4235,-8661,-10984,3013],"delta_lng":[0,-4446,-2461,7322,3359]},"impl":true},
    {"code":1130708,"left":1130707,"id":"4dc06c","name":"新杉田","name_kana":"しんすぎた","lat":35.386863,"lng":139.619483,"prefecture":14,"lines":[11307,99317],"attr":"eco","postal_code":"235-0032","address":"横浜市磯子区新杉田町","next":[1130707,2700134,9931702,2700135],"voronoi":{"lat":35.38955,"lng":139.614156,"delta_lat":[0,3625,1785,-16978],"delta_lng":[0,2915,14828,-8280]},"impl":true},
    {"code":1130707,"id":"3facbf","name":"磯子","name_kana":"いそご","lat":35.399881,"lng":139.617916,"prefecture":14,"lines":[11307],"attr":"eco","postal_code":"235-0023","address":"横浜市磯子区森１丁目","next":[9931621,2700134,1130706,1130708,9931702,9931620,2700133],"voronoi":{"lat":35.415282,"lng":139.615461,"delta_lat":[0,1051,-18386,-2986,-1785,12423,6311],"delta_lng":[0,4051,16243,-3856,-14828,-9413,2818]},"impl":true},
    {"code":2700129,"id":"0f0041","name":"黄金町","name_kana":"こがねちょう","lat":35.439694,"lng":139.62246,"prefecture":14,"lines":[27001],"attr":"cool","postal_code":"232-0005","address":"横浜市南区白金町１-１","next":[2900103,9931619,2700128,2700127,2700130,9931618],"voronoi":{"lat":35.436455,"lng":139.621651,"delta_lat":[0,4235,5726,960,222,-6240],"delta_lng":[0,-4446,-1753,962,1297,8589]},"impl":true},
    {"code":1130706,"left":9931702,"right":9931617,"id":"249978","name":"根岸(神奈川)","original_name":"根岸","name_kana":"ねぎし","lat":35.415887,"lng":139.636034,"prefecture":14,"lines":[11307],"attr":"cool","postal_code":"235-0005","address":"横浜市磯子区東町","next":[9931618,9931702,9931620,1130707,9931703,9931617,9931619,1130705],"voronoi":{"lat":35.397285,"lng":139.643976,"delta_lat":[0,661,18386,4712,3013,4307,13,-28203],"delta_lng":[0,-8222,-16243,2555,3359,8295,108,29867]},"impl":true},
    {"code":9931702,"left":2700136,"id":"830980","name":"南部市場","name_kana":"なんぶしじょう","lat":35.380192,"lng":139.633163,"prefecture":14,"lines":[99317],"attr":"heat","postal_code":"236-0051","address":"横浜市金沢区富岡東２-１","next":[9931704,1130706,1130707,1130708,9931703,2700135,2700136],"voronoi":{"lat":35.373255,"lng":139.635521,"delta_lat":[0,24031,661,-2986,-16978,-2410,-2984],"delta_lng":[0,8455,-8222,-3856,-8280,-498,11832]},"impl":true},
    {"code":2700136,"id":"a2c4be","name":"京急富岡","name_kana":"けいきゅうとみおか","lat":35.366743,"lng":139.629772,"prefecture":14,"lines":[27001],"attr":"heat","postal_code":"236-0052","address":"横浜市金沢区富岡西７-１-１","next":[9931705,2700135,9931702,9931704,2700137],"voronoi":{"lat":35.368566,"lng":139.636588,"delta_lat":[0,4023,2984,-10299,-2208],"delta_lng":[0,-1635,-11832,-12510,25461]},"impl":true},
    {"code":9931617,"id":"ecf4ca","name":"伊勢佐木長者町","name_kana":"いせざきちょうじゃまち","lat":35.441044,"lng":139.633176,"prefecture":14,"lines":[99316],"attr":"heat","postal_code":"231-0033","address":"横浜市中区長者町５-４８","next":[9931618,1130702,1130706,2700128,1130703,1130705,1130704],"voronoi":{"lat":35.446221,"lng":139.632654,"delta_lat":[0,-186,-5133,-12537,13,1883,7725],"delta_lng":[0,-817,-3548,5431,108,2012,1770]},"impl":true},
    {"code":9931708,"left":1130816,"right":9931706,"id":"c124a4","name":"福浦","name_kana":"ふくうら","lat":35.349627,"lng":139.648517,"prefecture":14,"lines":[99317],"attr":"eco","postal_code":"236-0004","address":"横浜市金沢区福浦２-７-２","next":[9931707,1130407,9931705,9931709,9931710,1132513,9931704],"voronoi":{"lat":35.386147,"lng":139.757609,"delta_lat":[0,-8223,-32526,2665,20185,1696,18324],"delta_lng":[0,-758,-112343,-3004,34668,4831,71050]},"impl":true},
    {"code":1130816,"left":2700142,"right":2700145,"id":"9f2f98","name":"横須賀","name_kana":"よこすか","lat":35.284022,"lng":139.655855,"prefecture":14,"lines":[11308],"attr":"heat","postal_code":"238-0045","address":"横須賀市東逸見町１丁目","next":[2700145,9931709,2700144,2700142,2700143,1130815],"voronoi":{"lat":35.29997,"lng":139.652351,"delta_lat":[0,-13922,-6301,23932,12527,-1607],"delta_lng":[0,-2819,8248,13735,4746,-16900]},"impl":true},
    {"code":2700142,"left":2700143,"right":9931709,"id":"8f8d88","name":"安針塚","name_kana":"あんじんづか","lat":35.286641,"lng":139.64292,"prefecture":14,"lines":[27001],"attr":"eco","postal_code":"237-0072","address":"横須賀市長浦町２-３２","next":[1130816,1130817,2700143,1130815,1130814],"voronoi":{"lat":35.244742,"lng":139.608193,"delta_lat":[0,16221,25085,13922,-31903],"delta_lng":[0,26231,15109,2819,-37278]},"impl":true},
    {"code":2700143,"left":2700508,"id":"bed45a","name":"逸見","name_kana":"へみ","lat":35.28048,"lng":139.653149,"prefecture":14,"lines":[27001],"attr":"eco","postal_code":"238-0045","address":"横須賀市東逸見町２-１８","next":[2700144,1130816,2700142,1130817],"voronoi":{"lat":35.279747,"lng":139.65778,"delta_lat":[0,6301,-25085,7937],"delta_lng":[0,-8248,-15109,23078]},"impl":true},
    {"code":2700508,"id":"ac56dd","name":"三浦海岸","name_kana":"みうらかいがん","lat":35.188084,"lng":139.653138,"prefecture":14,"lines":[27005],"attr":"heat","postal_code":"238-0101","address":"三浦市南下浦町上宮田１４９７","next":[1132520,1130817,2700509,1132522,2700507],"voronoi":{"lat":35.225559,"lng":139.631707,"delta_lat":[0,1394,-161785,6782,40965],"delta_lng":[0,-11948,85791,5213,16832]},"impl":true},
    {"code":9931709,"id":"64471c","name":"市大医学部","name_kana":"しだいいがくぶ","lat":35.343966,"lng":139.650156,"prefecture":14,"lines":[99317],"attr":"eco","postal_code":"236-0004","address":"横浜市金沢区福浦３","next":[9931708,1130816,2700149,2700145,9931713,1130815,1132513,9931710],"voronoi":{"lat":35.345399,"lng":139.644509,"delta_lat":[0,32526,-24231,-24202,-13286,-1607,650,5961],"delta_lng":[0,112343,-1592,-35691,-43307,-16900,-2681,-4289]},"impl":true},
    {"code":2700145,"left":2700507,"right":2700144,"id":"09e7f9","name":"横須賀中央","name_kana":"よこすかちゅうおう","lat":35.27858,"lng":139.670217,"prefecture":14,"lines":[27001],"attr":"eco","postal_code":"238-0007","address":"横須賀市若松町２-２５","next":[1130817,1130816,2700149,9931709,2700144,2700146,2700148],"voronoi":{"lat":35.329492,"lng":139.719568,"delta_lat":[0,-13286,-12527,-35131,-635,26492,9394],"delta_lng":[0,-43307,-4746,-7506,1511,34393,6549]},"impl":true},
    {"code":2700507,"left":1130817,"id":"9b5cb1","name":"津久井浜","name_kana":"つくいはま","lat":35.198419,"lng":139.665279,"prefecture":14,"lines":[27005],"attr":"cool","postal_code":"239-0843","address":"横須賀市津久井４-２-１","next":[1130817,1132520,1132518,2700508,2700506,2700505],"voronoi":{"lat":35.121188,"lng":139.731747,"delta_lat":[0,-8272,112644,1249,-98116,-5099],"delta_lng":[0,-4152,-95888,17940,79005,3559]},"impl":true},
    {"code":1130817,"id":"22da7f","name":"衣笠","name_kana":"きぬがさ","lat":35.257091,"lng":139.661193,"prefecture":14,"lines":[11308],"attr":"heat","postal_code":"238-0031","address":"横須賀市衣笠栄町２丁目","next":[2700146,2700507,2700145,2700503,2700506,1130814,2700508,2700142,2700505,2700509,2700144,2700143,2700404],"voronoi":{"lat":35.244742,"lng":139.608193,"delta_lat":[0,16221,7937,-352,-635,-11557,-24911,-548,-4088,-1249,1394,6458,4747],"delta_lng":[0,26231,23078,6508,1511,9223,-7655,-1030,-16412,-17940,-11948,-18363,2179]},"impl":true},
    {"code":2700144,"id":"4f15f3","name":"汐入","name_kana":"しおいり","lat":35.280241,"lng":139.662443,"prefecture":14,"lines":[27001],"attr":"eco","postal_code":"238-0042","address":"横須賀市汐入町２-４１","next":[2700143,1130816,1130817,2700145],"voronoi":{"lat":35.268548,"lng":139.664009,"delta_lat":[0,352,10847,23932],"delta_lng":[0,-6508,279,13735]},"impl":true},
    {"code":9931706,"left":9931703,"right":1130705,"id":"32c4fa","name":"幸浦","name_kana":"さちうら","lat":35.358406,"lng":139.643706,"prefecture":14,"lines":[99317],"attr":"heat","postal_code":"236-0003","address":"横浜市金沢区幸浦２-２４","next":[9931707,9931705,2700137,9931711],"voronoi":{"lat":35.363748,"lng":139.660044,"delta_lat":[0,-2499,-8907,-697],"delta_lng":[0,-23314,-1306,1448]},"impl":true},
    {"code":9931703,"left":9931705,"right":1130704,"id":"ff167a","name":"鳥浜","name_kana":"とりはま","lat":35.377187,"lng":139.641704,"prefecture":14,"lines":[99317],"attr":"heat","postal_code":"236-0005","address":"横浜市金沢区並木１-１","next":[1130705,1130706,9931702,9931704],"voronoi":{"lat":35.373255,"lng":139.635521,"delta_lat":[0,24031,2889,-6825],"delta_lng":[0,8455,19719,71855]},"impl":true},
    {"code":9931705,"left":9931704,"id":"7b5012","name":"並木中央","name_kana":"なみきちゅうおう","lat":35.365505,"lng":139.642945,"prefecture":14,"lines":[99317],"attr":"heat","postal_code":"236-0003","address":"横浜市金沢区幸浦２-１-１","next":[2700136,9931706,2700137,9931704,9931708,9931707],"voronoi":{"lat":35.363748,"lng":139.660044,"delta_lat":[0,-2499,1817,5500,1379,-1696],"delta_lng":[0,-23314,-659,516,44416,-4831]},"impl":true},
    {"code":9931704,"id":"cb6d62","name":"並木北","name_kana":"なみききた","lat":35.372015,"lng":139.642743,"prefecture":14,"lines":[99317],"attr":"heat","postal_code":"236-0005","address":"横浜市金沢区並木１-１２","next":[9931702,1130705,9931705,2700136,1130407,9931703,9931708],"voronoi":{"lat":35.369944,"lng":139.681004,"delta_lat":[0,-1379,4023,666,20095,-502,-4579],"delta_lng":[0,-44416,-1635,569,100029,7475,9028]},"impl":true},
    {"code":1130704,"id":"80ef40","name":"石川町","name_kana":"いしかわちょう","lat":35.438808,"lng":139.642934,"prefecture":14,"lines":[11307],"attr":"cool","postal_code":"231-0868","address":"横浜市中区石川町２丁目","next":[9931006,1130703,9931005,9931617,1130705],"voronoi":{"lat":35.43026,"lng":139.63584,"delta_lat":[0,7725,4767,176,-8601],"delta_lng":[0,1770,3627,4339,4147]},"impl":true},
    {"code":1130705,"left":9931707,"right":9931006,"id":"384e87","name":"山手","name_kana":"やまて","lat":35.426891,"lng":139.646425,"prefecture":14,"lines":[11307],"attr":"cool","postal_code":"231-0846","address":"横浜市中区大和町２丁目","next":[9931704,9931703,1130407,1130706,9931617,9931006,1130704],"voronoi":{"lat":35.43026,"lng":139.63584,"delta_lat":[0,-1883,-28203,-6825,-502,24167,17313],"delta_lng":[0,-2012,29867,71855,7475,-26399,-66903]},"impl":true},
    {"code":9931707,"id":"35bd2d","name":"産業振興センター","name_kana":"さんぎょうしんこうせんたー","lat":35.35339,"lng":139.646326,"prefecture":14,"lines":[99317],"attr":"heat","postal_code":"236-0004","address":"横浜市金沢区福浦１-５-２","next":[9931706,9931708,9931710,9931711,9931705],"voronoi":{"lat":35.348063,"lng":139.641504,"delta_lat":[0,654,2927,12103,4501],"delta_lng":[0,-1475,-3157,23172,16128]},"impl":true},
    {"code":9931006,"id":"0677e7","name":"元町・中華街","name_kana":"もとまち・ちゅうかがい","lat":35.44243,"lng":139.650446,"prefecture":14,"lines":[99310],"attr":"heat","postal_code":"231-0023","address":"横浜市中区山下町６５","next":[1133233,1130704,1130407,9931005,2700121,1130705],"voronoi":{"lat":35.434327,"lng":139.649724,"delta_lat":[0,8601,21341,-156,-2223,-44876],"delta_lng":[0,-4147,11956,1605,18441,39048]},"impl":true},
    {"code":2600114,"left":2700124,"right":2600113,"id":"cbf22b","name":"綱島","name_kana":"つなしま","lat":35.536906,"lng":139.63491,"prefecture":14,"lines":[26001],"attr":"eco","postal_code":"223-0053","address":"横浜市港北区綱島西１-１-８","next":[9934308,1130805,9931606,2600113,1130401,2600115,9934309,1130303],"voronoi":{"lat":35.521727,"lng":139.654889,"delta_lat":[0,11149,3780,5965,1641,-10635,-1201,-5687],"delta_lng":[0,-31633,-1523,5105,15699,15018,489,311]},"impl":true},
    {"code":2700124,"left":9931002,"right":2600115,"id":"7f707e","name":"京急東神奈川","name_kana":"けいきゅうひがしかながわ","lat":35.477412,"lng":139.634669,"prefecture":14,"lines":[27001],"attr":"cool","postal_code":"221-0044","address":"横浜市神奈川区東神奈川１-１１-５","next":[9931003,2700123,1130601,2700125],"voronoi":{"lat":35.466067,"lng":139.647559,"delta_lat":[0,15315,-7976,-6084],"delta_lng":[0,-11583,-4164,5086]},"impl":true},
    {"code":9931002,"left":1130105,"right":9931003,"id":"1f5eb0","name":"新高島","name_kana":"しんたかしま","lat":35.46192,"lng":139.626499,"prefecture":14,"lines":[99310],"attr":"eco","postal_code":"220-0011","address":"横浜市西区高島１-３","next":[1130105,9931614,2700125,9931003],"voronoi":{"lat":35.457848,"lng":139.628037,"delta_lat":[0,4456,4263,-554],"delta_lng":[0,-5411,4802,6007]},"impl":true},
    {"code":1130105,"left":9931614,"right":2600120,"id":"b0c711","name":"横浜","name_kana":"よこはま","lat":35.466195,"lng":139.622704,"prefecture":14,"lines":[11301,11307,11308,11328,11332,11333,26001,27001,29001,99310,99316],"attr":"cool","postal_code":"220-0011","address":"横浜市西区高島２丁目","next":[9931002,2600120,2700125,2900102,9931614,9931612],"voronoi":{"lat":35.468292,"lng":139.614755,"delta_lat":[0,-6210,222,4263,4306,1006],"delta_lng":[0,6246,1624,4802,-4721,-3264]},"impl":true},
    {"code":9931614,"left":2700127,"id":"9b241b","name":"高島町","name_kana":"たかしまちょう","lat":35.458575,"lng":139.623745,"prefecture":14,"lines":[99316],"attr":"eco","postal_code":"220-0022","address":"横浜市西区花咲町７-４１","next":[9931002,2700127,9931003,1130702,2900102,1130105],"voronoi":{"lat":35.457848,"lng":139.628037,"delta_lat":[0,-2461,-3442,8165,1972,222],"delta_lng":[0,-156,-3599,-3793,513,1624]},"impl":true},
    {"code":2700127,"id":"c1a9d1","name":"戸部","name_kana":"とべ","lat":35.456631,"lng":139.61956,"prefecture":14,"lines":[27001],"attr":"cool","postal_code":"220-0041","address":"横浜市西区戸部本町４８-１１","next":[9931614,1130702,2700129,2900103,2700128,2900102],"voronoi":{"lat":35.451944,"lng":139.624281,"delta_lat":[0,-184,-4163,-222,8108,4626],"delta_lng":[0,-90,-6480,-1297,-2395,6469]},"impl":true},
    {"code":2600120,"id":"ab780e","name":"反町","name_kana":"たんまち","lat":35.47474,"lng":139.625337,"prefecture":14,"lines":[26001],"attr":"cool","postal_code":"221-0825","address":"横浜市神奈川区反町１-１","next":[9931612,2600119,1130105,1130601,2700125],"voronoi":{"lat":35.470872,"lng":139.622707,"delta_lat":[0,1006,10099,-3374,-3479],"delta_lng":[0,-3264,1700,7361,1412]},"impl":true},
    {"code":9931003,"left":1130702,"right":2700125,"id":"5333cb","name":"みなとみらい","name_kana":"みなとみらい","lat":35.458028,"lng":139.632386,"prefecture":14,"lines":[99310],"attr":"cool","postal_code":"220-0012","address":"横浜市西区みなとみらい３-５","next":[2700125,1130702,9931614,9931005,2700124,9931002,9931004,2700123],"voronoi":{"lat":35.459182,"lng":139.644906,"delta_lat":[0,-5161,1365,2461,8165,1310,-1255,-1186],"delta_lng":[0,-10750,-6275,156,5398,3464,10661,3594]},"impl":true},
    {"code":1130702,"left":2700128,"id":"0f9020","name":"桜木町","name_kana":"さくらぎちょう","lat":35.451112,"lng":139.630881,"prefecture":14,"lines":[11307,99316],"attr":"cool","postal_code":"231-0062","address":"横浜市中区桜木町１丁目","next":[9931004,9931003,9931617,2700127,2700128,9931614,1130703],"voronoi":{"lat":35.454021,"lng":139.634155,"delta_lat":[0,1365,-3442,-184,-5726,186,56],"delta_lng":[0,-6275,-3599,-90,7646,817,71]},"impl":true},
    {"code":2700128,"id":"35431c","name":"日ノ出町","name_kana":"ひのでちょう","lat":35.445524,"lng":139.626696,"prefecture":14,"lines":[27001],"attr":"cool","postal_code":"231-0066","address":"横浜市中区日ノ出町１-３１","next":[9931618,2700129,1130702,9931617,2700127],"voronoi":{"lat":35.447598,"lng":139.617712,"delta_lat":[0,-6240,-456,5133,5726],"delta_lng":[0,8589,1989,3548,-7646]},"impl":true},
    {"code":2700125,"id":"0c2be2","name":"神奈川","name_kana":"かながわ","lat":35.471304,"lng":139.627364,"prefecture":14,"lines":[27001],"attr":"cool","postal_code":"221-0057","address":"横浜市神奈川区青木町１-１","next":[9931003,9931002,1130105,2700124,2600120,1130601],"voronoi":{"lat":35.475125,"lng":139.629915,"delta_lat":[0,-4252,-4306,-554,1310,6084],"delta_lng":[0,-7209,4721,6007,3464,-5086]},"impl":true},
    {"code":2600115,"left":9934308,"right":1130603,"id":"e02432","name":"大倉山(神奈川)","original_name":"大倉山","name_kana":"おおくらやま","lat":35.52243,"lng":139.629808,"prefecture":14,"lines":[26001],"attr":"eco","postal_code":"222-0037","address":"横浜市港北区大倉山一丁目1-1","next":[9931607,9931606,1130401,2600114,1130603],"voronoi":{"lat":35.521727,"lng":139.654889,"delta_lat":[0,11149,-8654,-8340,832],"delta_lng":[0,-31633,-2570,1550,31133]},"impl":true},
    {"code":9934308,"left":2600119,"right":1130309,"id":"60fe2a","name":"高田(神奈川)","original_name":"高田","name_kana":"たかた","lat":35.549713,"lng":139.619944,"prefecture":14,"lines":[99343],"attr":"cool","postal_code":"223-0065","address":"横浜市港北区高田東３丁目１番先","next":[2600114,9931606,9934309,1130308,9934307,1130309],"voronoi":{"lat":35.570334,"lng":139.617556,"delta_lat":[0,-29112,-4565,5965,25427,48],"delta_lng":[0,-8578,12755,5105,-317,-74]},"impl":true},
    {"code":2600119,"left":2600118,"id":"6811e5","name":"東白楽","name_kana":"ひがしはくらく","lat":35.483523,"lng":139.629364,"prefecture":14,"lines":[26001],"attr":"cool","postal_code":"221-0065","address":"横浜市神奈川区白楽１２-１","next":[2600120,9931612,2600118,2700123,1130601],"voronoi":{"lat":35.488314,"lng":139.635809,"delta_lat":[0,-3909,-2427,-3374,4796],"delta_lng":[0,-15835,1169,7361,6411]},"impl":true},
    {"code":2600118,"id":"0d8935","name":"白楽","name_kana":"はくらく","lat":35.489555,"lng":139.627875,"prefecture":14,"lines":[26001],"attr":"cool","postal_code":"221-0065","address":"横浜市神奈川区白楽１００","next":[9931609,9931612,2700123,2600119,2600117],"voronoi":{"lat":35.488314,"lng":139.635809,"delta_lat":[0,-3909,1587,11279,-6913],"delta_lng":[0,-15835,-1584,6763,11988]},"impl":true},
    {"code":1130309,"id":"56b185","name":"武蔵新城","name_kana":"むさししんじょう","lat":35.587369,"lng":139.629419,"prefecture":14,"lines":[11303],"attr":"cool","postal_code":"211-0045","address":"川崎市中原区上新城２丁目","next":[2600414,1130308,2600311,2600309,1130310,9934307,2600413,2600308,9934308],"voronoi":{"lat":35.570334,"lng":139.617556,"delta_lat":[0,3501,13606,5671,3857,2958,-1966,-2132,-27732],"delta_lng":[0,-4621,3813,3634,4905,8199,5088,2418,-14545]},"impl":true},
    {"code":1130603,"left":1130601,"right":9934309,"id":"38f281","name":"菊名","name_kana":"きくな","lat":35.509749,"lng":139.630147,"prefecture":14,"lines":[11306,26001],"attr":"cool","postal_code":"222-0011","address":"横浜市港北区菊名７丁目","next":[2600117,9931607,1130602,2600115,100203,1130401],"voronoi":{"lat":35.515883,"lng":139.622237,"delta_lat":[0,-289,-13159,5789,6871,1620],"delta_lng":[0,-159,3007,20842,7395,48]},"impl":true},
    {"code":1130601,"left":2600117,"id":"21cb10","name":"東神奈川","name_kana":"ひがしかながわ","lat":35.47804,"lng":139.633466,"prefecture":14,"lines":[11306,11332],"attr":"cool","postal_code":"221-0044","address":"横浜市神奈川区東神奈川","next":[2700124,2600119,2600120,2700123,2700125],"voronoi":{"lat":35.481382,"lng":139.635976,"delta_lat":[0,2017,-4796,-3479,-1718],"delta_lng":[0,-1062,-6411,1412,1897]},"impl":true},
    {"code":2600117,"id":"602007","name":"妙蓮寺","name_kana":"みょうれんじ","lat":35.498779,"lng":139.633194,"prefecture":14,"lines":[26001],"attr":"cool","postal_code":"222-0011","address":"横浜市港北区菊名１-１-１","next":[1130603,9931609,100203,1130602,2600118,2700123],"voronoi":{"lat":35.490358,"lng":139.63714,"delta_lat":[0,6913,3970,1194,5789,-17841],"delta_lng":[0,-11988,-674,606,20842,-8726]},"impl":true},
    {"code":9934309,"id":"aeb3e6","name":"日吉本町","name_kana":"ひよしほんちょう","lat":35.549883,"lng":139.633554,"prefecture":14,"lines":[99343],"attr":"eco","postal_code":"223-0062","address":"横浜市港北区日吉本町５丁目３番","next":[1130308,9934308,2600113,2600114],"voronoi":{"lat":35.542622,"lng":139.626839,"delta_lat":[0,25427,-2125,-21661],"delta_lng":[0,-317,9518,6498]},"impl":true},
    {"code":2600113,"left":1130602,"right":1130306,"id":"b16830","name":"日吉(神奈川)","original_name":"日吉","name_kana":"ひよし","lat":35.5539,"lng":139.646944,"prefecture":14,"lines":[26001,26002,99343],"attr":"eco","postal_code":"223-0061","address":"横浜市港北区日吉２-１-１","next":[2600112,2600114,1130308,9934309,1130805],"voronoi":{"lat":35.533628,"lng":139.657556,"delta_lat":[0,10635,21661,919,-12625],"delta_lng":[0,-15018,-6498,4007,19285]},"impl":true},
    {"code":1130602,"left":2700123,"right":2700120,"id":"755821","name":"大口","name_kana":"おおぐち","lat":35.492375,"lng":139.646288,"prefecture":14,"lines":[11306],"attr":"cool","postal_code":"221-0002","address":"横浜市神奈川区大口通","next":[2700120,2700122,1133233,1130603,2700121,1130401,2600117,2700123],"voronoi":{"lat":35.490382,"lng":139.6372,"delta_lat":[0,17841,6871,-607,-15456,-3813,-7384,1848],"delta_lng":[0,8726,7395,326,2372,-2047,-4620,-10919]},"impl":true},
    {"code":2700123,"left":9931005,"right":2700122,"id":"45b387","name":"神奈川新町","name_kana":"かながわしんまち","lat":35.481559,"lng":139.640152,"prefecture":14,"lines":[27001],"attr":"cool","postal_code":"221-0041","address":"横浜市神奈川区亀住町１９-１","next":[9931005,2600118,2700122,2700124,2600119,9931003,1130601,1130602,2600117],"voronoi":{"lat":35.490358,"lng":139.63714,"delta_lat":[0,-2044,-4914,-2017,-15315,-1186,184,24617,700],"delta_lng":[0,-1332,-894,1062,11583,3594,2608,-15328,-1233]},"impl":true},
    {"code":9931005,"left":9931004,"id":"ac80bb","name":"日本大通り","name_kana":"にほんおおどおり","lat":35.446821,"lng":139.642608,"prefecture":14,"lines":[99310],"attr":"heat","postal_code":"231-0021","address":"横浜市中区日本大通９","next":[9931006,1133233,2700123,9931003,2700122,1130704,1130703,9931004],"voronoi":{"lat":35.446978,"lng":139.638619,"delta_lat":[0,-4226,176,21341,706,90,-184,-5699],"delta_lng":[0,2619,4339,11956,-2336,-1435,-2608,-6248]},"impl":true},
    {"code":9931004,"id":"106837","name":"馬車道","name_kana":"ばしゃみち","lat":35.450135,"lng":139.636175,"prefecture":14,"lines":[99310],"attr":"cool","postal_code":"231-0005","address":"横浜市中区本町５-４９","next":[1130702,1130703,9931003,9931005],"voronoi":{"lat":35.446978,"lng":139.638619,"delta_lat":[0,-702,7745,5161],"delta_lng":[0,-5893,1430,10750]},"impl":true},
    {"code":2700122,"id":"fe4129","name":"子安","name_kana":"こやす","lat":35.484556,"lng":139.644965,"prefecture":14,"lines":[27001],"attr":"cool","postal_code":"221-0021","address":"横浜市神奈川区子安通１-４６","next":[1130602,1133233,2700123,9931005],"voronoi":{"lat":35.465065,"lng":139.653762,"delta_lat":[0,24617,-1848,-22859],"delta_lng":[0,-15328,10919,5844]},"impl":true},
    {"code":2700120,"left":2700121,"right":1130805,"id":"79a985","name":"生麦","name_kana":"なまむぎ","lat":35.4956,"lng":139.6673,"prefecture":14,"lines":[27001],"attr":"cool","postal_code":"230-0052","address":"横浜市鶴見区生麦３-１-３５","next":[1130602,1130403,2700119,1130401,2700121],"voronoi":{"lat":35.492682,"lng":139.674628,"delta_lat":[0,18102,3704,-15456,-28569],"delta_lng":[0,-15623,-5358,2372,20850]},"impl":true},
    {"code":2700121,"left":1133233,"id":"4edf6e","name":"京急新子安","name_kana":"けいきゅうしんこやす","lat":35.487242,"lng":139.655848,"prefecture":14,"lines":[27001],"attr":"cool","postal_code":"221-0021","address":"横浜市神奈川区子安通３-２８９","next":[1130407,9931006,1130403,1130602,2700120,1133233],"voronoi":{"lat":35.461891,"lng":139.677579,"delta_lat":[0,6302,2270,28569,-3813,-31105],"delta_lng":[0,165,-874,-20850,-2047,5165]},"impl":true},
    {"code":1133233,"id":"f68db6","name":"新子安","name_kana":"しんこやす","lat":35.487064,"lng":139.654776,"prefecture":14,"lines":[11332],"attr":"eco","postal_code":"221-0021","address":"横浜市神奈川区子安通","next":[9931006,1130602,9931005,2700122,2700121],"voronoi":{"lat":35.495219,"lng":139.653973,"delta_lat":[0,-7384,-22859,-706,-156],"delta_lng":[0,-4620,5844,2336,1605]},"impl":true},
    {"code":1130805,"id":"bc9528","name":"新川崎","name_kana":"しんかわさき","lat":35.551784,"lng":139.671481,"prefecture":14,"lines":[11308,11333],"attr":"cool","postal_code":"212-0058","address":"川崎市幸区鹿島田","next":[1130305,2600114,1130304,1130303,2600113,2600112],"voronoi":{"lat":35.556295,"lng":139.673659,"delta_lat":[0,-13339,-10530,1201,20590,1416],"delta_lng":[0,-1245,-14369,-489,1776,1171]},"impl":true},
    {"code":1130306,"left":2600110,"right":2600109,"id":"970f78","name":"向河原","name_kana":"むかいがわら","lat":35.572891,"lng":139.66725,"prefecture":14,"lines":[11303],"attr":"cool","postal_code":"211-0011","address":"川崎市中原区下沼部","next":[2600110,2600603,2600112,1130307,2600602,1130305],"voronoi":{"lat":35.564971,"lng":139.66343,"delta_lat":[0,4566,6922,2625,-3479,-7081],"delta_lng":[0,-2611,3455,3774,5577,1364]},"impl":true},
    {"code":2600110,"left":1130307,"right":1130308,"id":"ee1c3a","name":"新丸子","name_kana":"しんまるこ","lat":35.58049,"lng":139.661964,"prefecture":14,"lines":[26001,26002],"attr":"heat","postal_code":"211-0005","address":"川崎市中原区新丸子町７６６","next":[1130306,2600602,2600109,2600108,2600412,1130307,1130308],"voronoi":{"lat":35.584329,"lng":139.651446,"delta_lat":[0,-7869,2625,4557,7497,1222,-500],"delta_lng":[0,12829,3774,-821,-10096,-3697,-1633]},"impl":true},
    {"code":1130307,"left":2600112,"id":"7b401a","name":"武蔵小杉","name_kana":"むさしこすぎ","lat":35.576692,"lng":139.659634,"prefecture":14,"lines":[11303,11308,11328,11333,26001,26002],"attr":"cool","postal_code":"211-0063","address":"川崎市中原区小杉町三丁目492","open_date":"1944-04-01","next":[1130308,1130306,2600112,2600110],"voronoi":{"lat":35.569538,"lng":139.66082,"delta_lat":[0,5316,9475,-7869],"delta_lng":[0,-11768,2394,12829]},"impl":true},
    {"code":2600112,"id":"ea8147","name":"元住吉","name_kana":"もとすみよし","lat":35.565698,"lng":139.654668,"prefecture":14,"lines":[26001,26002],"attr":"heat","postal_code":"211-0025","address":"川崎市中原区木月６７９","next":[1130305,2600113,1130308,1130306,1130307,1130805],"voronoi":{"lat":35.564971,"lng":139.66343,"delta_lat":[0,4566,5316,-8011,-12625,1416],"delta_lng":[0,-2611,-11768,-9005,19285,1171]},"impl":true},
    {"code":1130308,"id":"170d57","name":"武蔵中原","name_kana":"むさしなかはら","lat":35.581498,"lng":139.640613,"prefecture":14,"lines":[11303],"attr":"cool","postal_code":"211-0053","address":"川崎市中原区上小田中","next":[1130307,2600413,1130309,9934309,2600112,2600113,9934308,2600412,2600110],"voronoi":{"lat":35.594007,"lng":139.647676,"delta_lat":[0,1822,-27732,-48,-2125,919,8011,9475,7532],"delta_lng":[0,-6683,-14545,74,9518,4007,9005,2394,356]},"impl":true},
    {"code":2600109,"left":1130305,"right":2600108,"id":"b68259","name":"多摩川","name_kana":"たまがわ","lat":35.589591,"lng":139.668723,"prefecture":13,"lines":[26001,26002,26006],"attr":"eco","postal_code":"145-0071","address":"大田区田園調布１-５３-８","next":[2600108,2600509,2600602,2600110],"voronoi":{"lat":35.591139,"lng":139.657132,"delta_lat":[0,3230,-5545,-5182],"delta_lng":[0,17068,1098,-8070]},"impl":true},
    {"code":1130305,"id":"e76796","name":"平間","name_kana":"ひらま","lat":35.560565,"lng":139.671039,"prefecture":14,"lines":[11303],"attr":"cool","postal_code":"211-0014","address":"川崎市中原区田尻町","next":[2600112,1130805,2600604,1130304,2600603,1130306],"voronoi":{"lat":35.566788,"lng":139.677706,"delta_lat":[0,-6621,-3871,-662,9338,3553],"delta_lng":[0,4934,-8982,-13156,2928,11559]},"impl":true},
    {"code":2600108,"id":"bc9888","name":"田園調布","name_kana":"でんえんちょうふ","lat":35.596815,"lng":139.667356,"prefecture":13,"lines":[26001,26002],"attr":"eco","postal_code":"145-0071","address":"大田区田園調布３-２５-１８","next":[2600109,2600412,2600207,2600509,2600411,2600110,2600107],"voronoi":{"lat":35.602298,"lng":139.66579,"delta_lat":[0,-8220,-1718,-1222,3230,2386,5340],"delta_lng":[0,-11063,-1293,3697,17068,830,-7619]},"impl":true},
    {"code":2700306,"left":1130406,"right":2600514,"id":"fdfa84","name":"大師橋","name_kana":"たいしばし","lat":35.536611,"lng":139.740381,"prefecture":14,"lines":[27003],"attr":"eco","postal_code":"210-0811","address":"川崎市川崎区大師河原２-４-２５","next":[1130412,2700204,2700203,2700305,2700307],"voronoi":{"lat":35.544642,"lng":139.740966,"delta_lat":[0,-237,-25633,-1088,24795],"delta_lng":[0,-3685,190,1965,6249]},"impl":true},
    {"code":1130406,"left":1130405,"right":1130412,"id":"f1baa0","name":"新芝浦","name_kana":"しんしばうら","lat":35.491914,"lng":139.7001,"prefecture":14,"lines":[11304],"attr":"cool","postal_code":"230-0045","address":"横浜市鶴見区末広町２丁目","next":[1130404,1130407,1130408,1130409,1130405],"voronoi":{"lat":35.495456,"lng":139.704997,"delta_lat":[0,-5889,-1224,3368,4153],"delta_lng":[0,2009,-14214,1216,5372]},"impl":true},
    {"code":1130405,"left":2700503,"right":1130302,"id":"445ff8","name":"浅野","name_kana":"あさの","lat":35.497555,"lng":139.695739,"prefecture":14,"lines":[11304],"attr":"cool","postal_code":"230-0045","address":"横浜市鶴見区末広町２丁目","next":[2700117,1130408,1130404,1130327,1130406],"voronoi":{"lat":35.491711,"lng":139.694008,"delta_lat":[0,15205,1712,-106,-12658],"delta_lng":[0,-4345,3680,605,5432]},"impl":true},
    {"code":2700503,"left":2700146,"right":2700147,"id":"da55ce","name":"北久里浜","name_kana":"きたくりはま","lat":35.249355,"lng":139.686368,"prefecture":14,"lines":[27005],"attr":"eco","postal_code":"239-0807","address":"横須賀市根岸町２-２０６","next":[1130817,2700147,2700502,2700505,2700146,1130818],"voronoi":{"lat":35.23092,"lng":139.682056,"delta_lat":[0,524,24911,382,-244,-9280],"delta_lng":[0,-14968,7655,834,6002,18742]},"impl":true},
    {"code":2700146,"left":2700505,"right":1130403,"id":"69aa25","name":"県立大学","name_kana":"けんりつだいがく","lat":35.269731,"lng":139.677033,"prefecture":14,"lines":[27001],"attr":"eco","postal_code":"238-0012","address":"横須賀市安浦町２-２８","next":[1130817,2700147,2700148,2700503,2700145],"voronoi":{"lat":35.267913,"lng":139.665521,"delta_lat":[0,-11557,382,35285,2382],"delta_lng":[0,9223,834,23208,1128]},"impl":true},
    {"code":2700505,"left":2700506,"id":"caa741","name":"ＹＲＰ野比","name_kana":"わいあーるぴーのび","lat":35.212229,"lng":139.685068,"prefecture":14,"lines":[27005],"attr":"cool","postal_code":"239-0841","address":"横須賀市野比１-９-１","next":[2700506,1132518,1130818,1130817,2700503,2700504,2700507],"voronoi":{"lat":35.17308,"lng":139.7481,"delta_lat":[0,51336,6504,524,-548,-102204,-5099],"delta_lng":[0,-57446,-8598,-14968,-1030,62593,3559]},"impl":true},
    {"code":2700506,"id":"1100fc","name":"京急長沢","name_kana":"けいきゅうながさわ","lat":35.20548,"lng":139.674048,"prefecture":14,"lines":[27005],"attr":"cool","postal_code":"239-0842","address":"横須賀市長沢１-３５-１","next":[2700505,1130817,2700507],"voronoi":{"lat":35.226809,"lng":139.649646,"delta_lat":[0,4088,-102204],"delta_lng":[0,16412,62593]},"impl":true},
    {"code":1130403,"id":"0eedf7","name":"鶴見小野","name_kana":"つるみおの","lat":35.497005,"lng":139.681226,"prefecture":14,"lines":[11304],"attr":"cool","postal_code":"230-0046","address":"横浜市鶴見区小野町","next":[1130404,1130407,2700121,2700118,2700120,1130402,2700119],"voronoi":{"lat":35.492682,"lng":139.674628,"delta_lat":[0,-22219,-2270,8051,28235,-1989,-8191],"delta_lng":[0,2241,874,4542,4281,-5726,-5568]},"impl":true},
    {"code":2700147,"left":2700148,"right":1130404,"id":"88cb4c","name":"堀ノ内","name_kana":"ほりのうち","lat":35.26322,"lng":139.686932,"prefecture":14,"lines":[27001,27005],"attr":"eco","postal_code":"238-0014","address":"横須賀市三春町３-４５","next":[2700146,2700502,2700503,2700148],"voronoi":{"lat":35.261357,"lng":139.690931,"delta_lat":[0,-4864,244,35285],"delta_lng":[0,-9352,-6002,23208]},"impl":true},
    {"code":2700148,"left":2700502,"id":"4b95c8","name":"京急大津","name_kana":"けいきゅうおおつ","lat":35.261068,"lng":139.695334,"prefecture":14,"lines":[27001],"attr":"eco","postal_code":"239-0808","address":"横須賀市大津町１-１１-１９","next":[2700502,2700146,2700149,2700145,2700147],"voronoi":{"lat":35.261357,"lng":139.690931,"delta_lat":[0,-11662,54103,-9394,-2382],"delta_lng":[0,9140,6391,-6549,-1128]},"impl":true},
    {"code":2700502,"id":"73be54","name":"新大津","name_kana":"しんおおつ","lat":35.257013,"lng":139.69016,"prefecture":14,"lines":[27005],"attr":"eco","postal_code":"239-0808","address":"横須賀市大津町４-７-１","next":[2700148,1130818,2700149,2700147,2700503],"voronoi":{"lat":35.256494,"lng":139.68158,"delta_lat":[0,4864,-11662,-2427,-55],"delta_lng":[0,9352,9140,373,-123]},"impl":true},
    {"code":1130404,"id":"cb9d66","name":"弁天橋","name_kana":"べんてんばし","lat":35.495758,"lng":139.689451,"prefecture":14,"lines":[11304],"attr":"cool","postal_code":"230-0045","address":"横浜市鶴見区末広町１丁目","next":[1130403,1130407,1130406,2700118,1130405,2700117],"voronoi":{"lat":35.491711,"lng":139.694008,"delta_lat":[0,-3368,-12099,28235,2317,120],"delta_lng":[0,-1216,-10507,4281,2231,866]},"impl":true},
    {"code":1130302,"left":2700118,"right":1130326,"id":"243d86","name":"尻手","name_kana":"しって","lat":35.530939,"lng":139.684233,"prefecture":14,"lines":[11303],"attr":"cool","postal_code":"212-0016","address":"川崎市幸区南幸町３丁目","next":[1130104,2700117,1130401,1130303,1130326],"voronoi":{"lat":35.524172,"lng":139.684749,"delta_lat":[0,-1926,3996,12521,-8955],"delta_lng":[0,-11758,-11138,28791,251]},"impl":true},
    {"code":2700118,"left":1130402,"right":1130401,"id":"c71f07","name":"京急鶴見","name_kana":"けいきゅうつるみ","lat":35.507032,"lng":139.677743,"prefecture":14,"lines":[27001],"attr":"cool","postal_code":"230-0051","address":"横浜市鶴見区鶴見中央１-３０-２２","next":[1130404,1130403,1130401,2700117,1130402],"voronoi":{"lat":35.504478,"lng":139.686566,"delta_lat":[0,2317,6123,-8205,-2224],"delta_lng":[0,2231,-7453,-6936,6432]},"impl":true},
    {"code":1130402,"left":2700119,"id":"85327f","name":"国道","name_kana":"こくどう","lat":35.50083,"lng":139.675599,"prefecture":14,"lines":[11304],"attr":"cool","postal_code":"230-0052","address":"横浜市鶴見区生麦５丁目","next":[2700119,1130403,1130401,2700118],"voronoi":{"lat":35.504713,"lng":139.674409,"delta_lat":[0,65,-10480,8191],"delta_lng":[0,-911,1775,5568]},"impl":true},
    {"code":2700119,"id":"822b2a","name":"花月総持寺","name_kana":"かげつそうじじ","lat":35.500358,"lng":139.672813,"prefecture":14,"lines":[27001],"attr":"cool","postal_code":"230-0052","address":"横浜市鶴見区生麦５-１-３","next":[1130402,2700120,1130403,1130401],"voronoi":{"lat":35.494298,"lng":139.675273,"delta_lat":[0,-1617,18102,-6005],"delta_lng":[0,-644,-15623,14492]},"impl":true},
    {"code":1130401,"id":"2681c3","name":"鶴見","name_kana":"つるみ","lat":35.508387,"lng":139.67614,"prefecture":14,"lines":[11304,11332],"attr":"cool","postal_code":"230-0051","address":"横浜市鶴見区鶴見中央","next":[2700117,2600115,2600114,2700118,1130602,2700120,1130402,1130603,1130302,1130303,2700119],"voronoi":{"lat":35.510783,"lng":139.659006,"delta_lat":[0,3704,607,1620,5013,5012,-498,-3996,-9327,-8205,65],"delta_lng":[0,-5358,-326,48,1520,3466,3498,11138,8353,-6936,-911]},"impl":true},
    {"code":1130326,"left":1130327,"right":1130104,"id":"96b035","name":"八丁畷","name_kana":"はっちょうなわて","lat":35.523071,"lng":139.691446,"prefecture":14,"lines":[11303,27001],"attr":"cool","postal_code":"210-0022","address":"川崎市川崎区池田１丁目","next":[1130104,2700117,1130327,1130302],"voronoi":{"lat":35.524695,"lng":139.697871,"delta_lat":[0,-8045,7522,5636],"delta_lng":[0,-4925,-8197,6146]},"impl":true},
    {"code":1130327,"left":2700117,"id":"d7cf68","name":"川崎新町","name_kana":"かわさきしんまち","lat":35.518234,"lng":139.699348,"prefecture":14,"lines":[11303],"attr":"eco","postal_code":"210-0845","address":"川崎市川崎区渡田山王町","next":[1130330,1130408,1130405,2700117,1130104,1130326,2700115],"voronoi":{"lat":35.525318,"lng":139.702243,"delta_lat":[0,-623,-8045,-8022,-106,221,15995],"delta_lng":[0,-4372,-4925,397,605,3110,10673]},"impl":true},
    {"code":2700117,"id":"75ea7d","name":"鶴見市場","name_kana":"つるみいちば","lat":35.517594,"lng":139.68642,"prefecture":14,"lines":[27001],"attr":"cool","postal_code":"230-0025","address":"横浜市鶴見区市場大和町７-１","next":[1130405,1130401,1130302,1130326,1130327,2700118,1130404],"voronoi":{"lat":35.508627,"lng":139.693344,"delta_lat":[0,8022,7522,-1926,-9327,-6123,120],"delta_lng":[0,-397,-8197,-11758,8353,7453,866]},"impl":true},
    {"code":1130104,"id":"c7e5b9","name":"川崎","name_kana":"かわさき","lat":35.531311,"lng":139.697485,"prefecture":14,"lines":[11301,11303,11332],"attr":"cool","postal_code":"210-0007","address":"川崎市川崎区駅前本町","next":[2700115,1130303,1130326,1130302,1130327],"voronoi":{"lat":35.524695,"lng":139.697871,"delta_lat":[0,5113,8955,5945,-19390],"delta_lng":[0,-6976,-251,2842,8757]},"impl":true},
    {"code":1130412,"left":1130410,"right":2700303,"id":"6dbfca","name":"昭和","name_kana":"しょうわ","lat":35.506836,"lng":139.723897,"prefecture":14,"lines":[11304],"attr":"heat","postal_code":"210-0867","address":"川崎市川崎区扇町","next":[2700303,2700306,1130328,2700307,2700304,2700305,1130413],"voronoi":{"lat":35.505863,"lng":139.717735,"delta_lat":[0,15315,142,-527,-2021,-1088,-30633],"delta_lng":[0,5283,1253,7422,5779,1965,36176]},"impl":true},
    {"code":1130410,"left":1130407,"right":1130409,"id":"c737ca","name":"武蔵白石","name_kana":"むさししらいし","lat":35.501912,"lng":139.706513,"prefecture":14,"lines":[11304],"attr":"eco","postal_code":"210-0857","address":"川崎市川崎区白石町","next":[1130328,1130330,1130409,1130408],"voronoi":{"lat":35.507613,"lng":139.700971,"delta_lat":[0,786,-5686,-6431],"delta_lng":[0,6304,6948,-8905]},"impl":true},
    {"code":1130407,"left":2700504,"right":1130408,"id":"a300f6","name":"海芝浦","name_kana":"うみしばうら","lat":35.486073,"lng":139.700603,"prefecture":14,"lines":[11304],"attr":"cool","postal_code":"230-0045","address":"横浜市鶴見区末広町２丁目","next":[9931006,1130403,1130404,9931708,2700121,1130406,1130705,1130409,1132513,1130413,9931704],"voronoi":{"lat":35.386147,"lng":139.757609,"delta_lat":[0,17967,49277,36175,-1224,-12099,-8051,-6302,-44876,-24167,-4579],"delta_lng":[0,17760,-35176,-33187,-14214,-10507,-4542,-165,39048,26399,9028]},"impl":true},
    {"code":2700504,"left":1130818,"id":"951785","name":"京急久里浜","name_kana":"けいきゅうくりはま","lat":35.231332,"lng":139.702139,"prefecture":14,"lines":[27005],"attr":"eco","postal_code":"239-0831","address":"横須賀市久里浜４-４-１０","next":[1132517,1132518,1130818,2700150,2700505],"voronoi":{"lat":35.200299,"lng":139.762417,"delta_lat":[0,4693,34314,-14890,-51336],"delta_lng":[0,1237,-52302,-20697,57446]},"impl":true},
    {"code":1130818,"id":"0b5424","name":"久里浜","name_kana":"くりはま","lat":35.233107,"lng":139.700862,"prefecture":14,"lines":[11308],"attr":"heat","postal_code":"239-0831","address":"横須賀市久里浜１丁目","next":[2700149,2700505,2700150,2700502,2700504,2700503],"voronoi":{"lat":35.247268,"lng":139.700444,"delta_lat":[0,-306,-7656,-14890,6504,16293],"delta_lng":[0,1253,9654,-20697,-8598,18265]},"impl":true},
    {"code":1130408,"id":"39c464","name":"安善","name_kana":"あんぜん","lat":35.499668,"lng":139.700663,"prefecture":14,"lines":[11304],"attr":"eco","postal_code":"230-0035","address":"横浜市鶴見区安善町１丁目","next":[1130405,1130327,1130406,1130409,1130410,1130330],"voronoi":{"lat":35.508742,"lng":139.697058,"delta_lat":[0,-221,-12658,-408,826,11331],"delta_lng":[0,-3110,5432,5617,320,-4347]},"impl":true},
    {"code":1130409,"left":2700150,"right":1130413,"id":"e67c8c","name":"大川","name_kana":"おおかわ","lat":35.495646,"lng":139.711038,"prefecture":14,"lines":[11304],"attr":"eco","postal_code":"210-0858","address":"川崎市川崎区大川町","next":[1130406,1130408,1130410,1130407,1130413,1130328],"voronoi":{"lat":35.502712,"lng":139.714222,"delta_lat":[0,-6431,-826,-5889,-36175,49286],"delta_lng":[0,-8905,-320,2009,33187,-25759]},"impl":true},
    {"code":2700150,"left":2700149,"id":"9fe363","name":"浦賀","name_kana":"うらが","lat":35.250933,"lng":139.714999,"prefecture":14,"lines":[27001],"attr":"eco","postal_code":"239-0822","address":"横須賀市浦賀町１-８６","next":[2700149,1130818,1132517,2700504,1132514],"voronoi":{"lat":35.204992,"lng":139.763654,"delta_lat":[0,34314,7656,63539,-51290],"delta_lng":[0,-52302,-9654,72211,14864]},"impl":true},
    {"code":2700149,"id":"db38ff","name":"馬堀海岸","name_kana":"まぼりかいがん","lat":35.259651,"lng":139.707328,"prefecture":14,"lines":[27001],"attr":"eco","postal_code":"239-0802","address":"横須賀市馬堀町３-２０-１","next":[1132513,1130818,2700150,9931709,2700145,2700502,1132514,2700148],"voronoi":{"lat":35.329492,"lng":139.719568,"delta_lat":[0,24202,-36934,-6258,-63539,306,2427,54103],"delta_lng":[0,35691,17298,1351,-72211,-1253,-373,6391]},"impl":true},
    {"code":1130413,"id":"676b75","name":"扇町(神奈川)","original_name":"扇町","name_kana":"おうぎまち","lat":35.501452,"lng":139.722147,"prefecture":14,"lines":[11304],"attr":"heat","postal_code":"210-0867","address":"川崎市川崎区扇町","next":[9933608,2700307,1130328,1130409,1130407,1130412,1132513],"voronoi":{"lat":35.404115,"lng":139.775369,"delta_lat":[0,49277,49286,3185,-18812,-1885,-52309],"delta_lng":[0,-35176,-25759,3300,57878,2472,33443]},"impl":true},
    {"code":2700303,"left":2700115,"right":2700304,"id":"87952b","name":"鈴木町","name_kana":"すずきちょう","lat":35.53535,"lng":139.720655,"prefecture":14,"lines":[27003],"attr":"heat","postal_code":"210-0801","address":"川崎市川崎区鈴木町２-２","next":[1130412,2700304,2700113,2700302,1130328],"voronoi":{"lat":35.52132,"lng":139.72427,"delta_lat":[0,23129,-2499,-19078,-1694],"delta_lng":[0,-1578,-6358,794,5889]},"impl":true},
    {"code":2700115,"left":1130328,"right":2700302,"id":"af8ad4","name":"京急川崎","name_kana":"けいきゅうかわさき","lat":35.53285,"lng":139.700893,"prefecture":14,"lines":[27001,27003],"attr":"cool","postal_code":"210-0006","address":"川崎市川崎区砂子１-３-１","next":[1130104,2700302,2700114,1130330,1130327,1130303],"voronoi":{"lat":35.544707,"lng":139.693487,"delta_lat":[0,-19390,-580,150,9785,11086],"delta_lng":[0,8757,5488,679,-1812,-12773]},"impl":true},
    {"code":1130328,"left":1130330,"id":"68dd99","name":"浜川崎","name_kana":"はまかわさき","lat":35.510428,"lng":139.713483,"prefecture":14,"lines":[11303,11304],"attr":"eco","postal_code":"210-0855","address":"川崎市川崎区南渡田町","next":[1130410,1130412,1130330,1130413,2700302,2700303,1130409],"voronoi":{"lat":35.505863,"lng":139.717735,"delta_lat":[0,15315,1694,-110,-14363,-5686,-35],"delta_lng":[0,5283,-5889,-3005,-6849,6948,212]},"impl":true},
    {"code":1130330,"id":"3bd23c","name":"小田栄","name_kana":"おださかえ","lat":35.5145,"lng":139.704944,"prefecture":14,"lines":[11303],"attr":"eco","postal_code":"210-0843","address":"川崎市川崎区小田栄","open_date":"2016-03-26","next":[2700302,1130327,1130410,1130328,2700115,1130408],"voronoi":{"lat":35.508742,"lng":139.697058,"delta_lat":[0,15995,150,-2126,-14363,-786],"delta_lng":[0,10673,679,5713,-6849,-6304]},"impl":true},
    {"code":2700302,"id":"800330","name":"港町","name_kana":"みなとちょう","lat":35.535014,"lng":139.712578,"prefecture":14,"lines":[27003],"attr":"cool","postal_code":"210-0807","address":"川崎市川崎区港町１-１","next":[1130330,2700115,2700113,2700114,2700303,1130328],"voronoi":{"lat":35.54195,"lng":139.716335,"delta_lat":[0,224,-7501,-9785,-2126,110],"delta_lng":[0,-1353,-8383,1812,5713,3005]},"impl":true},
    {"code":2700304,"left":2700307,"right":2700305,"id":"2f7309","name":"川崎大師","name_kana":"かわさきだいし","lat":35.535711,"lng":139.725946,"prefecture":14,"lines":[27003],"attr":"heat","postal_code":"210-0802","address":"川崎市川崎区大師駅前１-１８-１","next":[2700202,2700303,2700113,2700305,1130412],"voronoi":{"lat":35.52132,"lng":139.72427,"delta_lat":[0,23129,1322,-949,-24029],"delta_lng":[0,-1578,1692,4849,2459]},"impl":true},
    {"code":2700307,"id":"478bff","name":"小島新田","name_kana":"こじましんでん","lat":35.534798,"lng":139.747575,"prefecture":14,"lines":[27003],"attr":"eco","postal_code":"210-0822","address":"川崎市川崎区田町２-３-１５","next":[2700207,2700205,9933608,1130412,1130413,2700204,9933611,2700306],"voronoi":{"lat":35.54268,"lng":139.749149,"delta_lat":[0,-4231,-3953,-31472,-17859,1885,30633,24795],"delta_lng":[0,8971,2036,14296,3633,-2472,-36176,6249]},"impl":true},
    {"code":2700305,"id":"6780f7","name":"東門前","name_kana":"ひがしもんぜん","lat":35.536566,"lng":139.734298,"prefecture":14,"lines":[27003],"attr":"eco","postal_code":"210-0818","address":"川崎市川崎区中瀬３-２３-１０","next":[2700203,2700202,2700304,2700306,1130412],"voronoi":{"lat":35.520793,"lng":139.731693,"delta_lat":[0,24029,963,-1380,-25633],"delta_lng":[0,-2459,3691,4357,190]},"impl":true},
    {"code":2600514,"left":2600511,"right":2700109,"id":"6965e7","name":"蓮沼","name_kana":"はすぬま","lat":35.564173,"lng":139.708544,"prefecture":13,"lines":[26005],"attr":"cool","postal_code":"144-0051","address":"大田区西蒲田７-１７-１","next":[2700113,2600606,1133230,2600513],"voronoi":{"lat":35.566696,"lng":139.703758,"delta_lat":[0,-12188,1994,18249],"delta_lng":[0,2557,4460,4036]},"impl":true},
    {"code":2600511,"left":2600512,"right":2600507,"id":"847cc7","name":"久が原","name_kana":"くがはら","lat":35.579499,"lng":139.685678,"prefecture":13,"lines":[26005],"attr":"heat","postal_code":"146-0084","address":"大田区南久が原２-６-１０","next":[9930201,2600604,2600512,2600603,2600510],"voronoi":{"lat":35.58277,"lng":139.695958,"delta_lat":[0,-7348,37,5038,7457],"delta_lng":[0,-8338,-2912,-3980,13347]},"impl":true},
    {"code":2600512,"left":2600604,"right":2600605,"id":"f5a94b","name":"千鳥町","name_kana":"ちどりちょう","lat":35.572983,"lng":139.69142,"prefecture":13,"lines":[26005],"attr":"cool","postal_code":"146-0083","address":"大田区千鳥１-２０-１","next":[9930201,2600511,2600604,2600605,2600513],"voronoi":{"lat":35.571458,"lng":139.697033,"delta_lat":[0,-1655,5619,7348,-1948],"delta_lng":[0,-7888,-1525,8338,1861]},"impl":true},
    {"code":2600604,"left":1130303,"right":2600603,"id":"ea14ec","name":"下丸子","name_kana":"しもまるこ","lat":35.571397,"lng":139.685576,"prefecture":13,"lines":[26006],"attr":"heat","postal_code":"146-0092","address":"大田区下丸子３-７-１","next":[1130305,1130304,2600511,2600512,2600603,2600605],"voronoi":{"lat":35.575423,"lng":139.687621,"delta_lat":[0,37,-8672,-6621,-631,10268],"delta_lng":[0,-2912,-7002,4934,1185,5320]},"impl":true},
    {"code":1130303,"left":1130304,"id":"18f4b1","name":"矢向","name_kana":"やこう","lat":35.539408,"lng":139.68055,"prefecture":14,"lines":[11303],"attr":"cool","postal_code":"230-0001","address":"横浜市鶴見区矢向６丁目","next":[1130805,2600606,1130104,2700114,1130302,1130401,2600114,2700115,1130304],"voronoi":{"lat":35.548135,"lng":139.693723,"delta_lat":[0,-2377,-1051,-5945,-12521,498,5687,10530,8233],"delta_lng":[0,102,-339,-2842,-28791,-3498,-311,14369,17761]},"impl":true},
    {"code":1130304,"id":"2cf3d6","name":"鹿島田","name_kana":"かしまだ","lat":35.551459,"lng":139.674964,"prefecture":14,"lines":[11303],"attr":"cool","postal_code":"212-0058","address":"川崎市幸区鹿島田","next":[2600605,2600606,1130805,2600604,1130305,1130303],"voronoi":{"lat":35.542957,"lng":139.672414,"delta_lat":[0,13339,3871,-631,-5483,-2863],"delta_lng":[0,1245,8982,1185,5110,1239]},"impl":true},
    {"code":2600603,"id":"edaad6","name":"鵜の木","name_kana":"うのき","lat":35.575452,"lng":139.680554,"prefecture":13,"lines":[26006],"attr":"eco","postal_code":"146-0091","address":"大田区鵜の木２-４-１","next":[1130306,2600511,2600510,1130305,2600604,2600602],"voronoi":{"lat":35.575606,"lng":139.673626,"delta_lat":[0,-7081,-1737,8672,5038,389],"delta_lng":[0,1364,2717,7002,-3980,-1981]},"impl":true},
    {"code":2600605,"left":2700114,"right":2600513,"id":"b596e2","name":"武蔵新田","name_kana":"むさしにった","lat":35.567806,"lng":139.692506,"prefecture":13,"lines":[26006],"attr":"heat","postal_code":"146-0093","address":"大田区矢口１-１８-１","next":[1130304,2600512,2600513,2600604,2600606],"voronoi":{"lat":35.571458,"lng":139.697033,"delta_lat":[0,-1655,-10268,-5483,14000],"delta_lng":[0,-7888,-5320,5110,9490]},"impl":true},
    {"code":2700114,"left":2600606,"id":"1825d3","name":"六郷土手","name_kana":"ろくごうどて","lat":35.540577,"lng":139.7076,"prefecture":13,"lines":[27001],"attr":"cool","postal_code":"144-0055","address":"大田区仲六郷４-２７-１１","next":[2600606,1130303,2700302,2700115,2700113],"voronoi":{"lat":35.534672,"lng":139.706598,"delta_lat":[0,11086,2377,3253,-9215],"delta_lng":[0,-12773,-102,9873,11385]},"impl":true},
    {"code":2600606,"id":"32a485","name":"矢口渡","name_kana":"やぐちのわたし","lat":35.562462,"lng":139.700389,"prefecture":13,"lines":[26006],"attr":"heat","postal_code":"146-0095","address":"大田区多摩川１-２０-１５","next":[1130304,2700114,1130303,2600514,2600513,2700113,2600605],"voronoi":{"lat":35.554052,"lng":139.688935,"delta_lat":[0,-2863,-3054,3253,3119,12188,1357],"delta_lng":[0,1239,3549,9873,2718,-2557,-5332]},"impl":true},
    {"code":2600513,"id":"dea916","name":"池上","name_kana":"いけがみ","lat":35.572025,"lng":139.702822,"prefecture":13,"lines":[26005],"attr":"cool","postal_code":"146-0082","address":"大田区池上６-３-１０","next":[9930201,2600606,1133230,2600512,2600514,2600605],"voronoi":{"lat":35.571458,"lng":139.697033,"delta_lat":[0,9364,-3902,-2170,-8055,1357],"delta_lng":[0,786,18553,-1562,-11053,-5332]},"impl":true},
    {"code":2600507,"left":2600509,"right":2600405,"id":"8053b8","name":"洗足池","name_kana":"せんぞくいけ","lat":35.599648,"lng":139.690896,"prefecture":13,"lines":[26005],"attr":"eco","postal_code":"145-0065","address":"大田区東雪谷１-１-６","next":[2600407,2600206,9930201,2600510,2600506,2600508],"voronoi":{"lat":35.602118,"lng":139.686158,"delta_lat":[0,1921,-1700,-10108,-4102,1039],"delta_lng":[0,3008,4706,3679,-3487,-1779]},"impl":true},
    {"code":2600509,"left":2600510,"right":2600508,"id":"31c87a","name":"雪が谷大塚","name_kana":"ゆきがやおおつか","lat":35.592038,"lng":139.681083,"prefecture":13,"lines":[26005],"attr":"heat","postal_code":"145-0066","address":"大田区南雪谷２-２-１６","next":[2600108,2600109,2600510,2600508,2600602,2600207],"voronoi":{"lat":35.59001,"lng":139.688499,"delta_lat":[0,-2397,1210,5545,2386,2033],"delta_lng":[0,-11730,-1471,-1098,830,2774]},"impl":true},
    {"code":2600510,"left":2600602,"id":"ee3c14","name":"御嶽山","name_kana":"おんたけさん","lat":35.585236,"lng":139.682473,"prefecture":13,"lines":[26005],"attr":"heat","postal_code":"145-0073","address":"大田区北嶺町３２-１７","next":[2600508,2600507,2600509,2600602,2600603,9930201,2600511],"voronoi":{"lat":35.580498,"lng":139.680729,"delta_lat":[0,389,6727,2397,-842,-1039,-175],"delta_lng":[0,-1981,-1979,11730,3786,1779,12]},"impl":true},
    {"code":2600602,"id":"688ebb","name":"沼部","name_kana":"ぬまべ","lat":35.582526,"lng":139.67326,"prefecture":13,"lines":[26006],"attr":"eco","postal_code":"145-0072","address":"大田区田園調布本町２８-１","next":[2600110,2600109,2600510,2600509,1130306,2600603],"voronoi":{"lat":35.587613,"lng":139.676769,"delta_lat":[0,1210,-5182,-4557,-3479,5281],"delta_lng":[0,-1471,-8070,821,5577,5122]},"impl":true},
    {"code":2600508,"id":"6cf65c","name":"石川台","name_kana":"いしかわだい","lat":35.596888,"lng":139.685063,"prefecture":13,"lines":[26005],"attr":"heat","postal_code":"145-0065","address":"大田区東雪谷２-２３-１","next":[2600510,2600409,2600207,2600509,2600206,2600507],"voronoi":{"lat":35.602118,"lng":139.686158,"delta_lat":[0,215,-3221,-325,-8777,-842],"delta_lng":[0,-2695,-5478,-181,10695,3786]},"impl":true},
    {"code":2600405,"left":9930201,"right":2600406,"id":"e0e94e","name":"荏原町","name_kana":"えばらまち","lat":35.60382,"lng":139.707571,"prefecture":13,"lines":[26004],"attr":"cool","postal_code":"142-0053","address":"品川区中延５-２-１","next":[2600406,9930202,2600506,2600504,2600404],"voronoi":{"lat":35.596773,"lng":139.703774,"delta_lat":[0,1146,11858,-2152,-6494],"delta_lng":[0,-193,2475,2901,2477]},"impl":true},
    {"code":9930201,"left":2600506,"id":"0f4b79","name":"西馬込","name_kana":"にしまごめ","lat":35.586859,"lng":139.705942,"prefecture":13,"lines":[99302],"attr":"eco","postal_code":"143-0026","address":"大田区西馬込２-１-６","next":[2600512,2600511,2600513,9930202,2600507,1133229,2700111,2600506,2600510,1133230],"voronoi":{"lat":35.577801,"lng":139.717941,"delta_lat":[0,8810,8539,-2919,-4102,-175,-5184,-1948,-3902,514],"delta_lng":[0,-814,-14025,-5552,-3487,12,1883,1861,18553,1240]},"impl":true},
    {"code":2600506,"id":"575332","name":"長原(東京)","original_name":"長原","name_kana":"ながはら","lat":35.60219,"lng":139.697881,"prefecture":13,"lines":[26005],"attr":"eco","postal_code":"145-0064","address":"大田区上池台１-１０-１０","next":[2600507,2600405,2600406,9930201,2600407,9930202],"voronoi":{"lat":35.597918,"lng":139.703582,"delta_lat":[0,9003,-4582,-10108,2919,1622],"delta_lng":[0,-5585,-4125,3679,5552,672]},"impl":true},
    {"code":2600406,"id":"436515","name":"旗の台","name_kana":"はたのだい","lat":35.604923,"lng":139.702286,"prefecture":13,"lines":[26004,26005],"attr":"cool","postal_code":"142-0064","address":"品川区旗の台２-１３-１","next":[2600405,2600506,2600205,2600204,2600407,2600504],"voronoi":{"lat":35.611741,"lng":139.705039,"delta_lat":[0,-1738,-2721,-360,-9003,11858],"delta_lng":[0,-5095,-1893,-55,5585,2475]},"impl":true},
    {"code":2700109,"left":2700202,"right":2700107,"id":"e5560a","name":"平和島","name_kana":"へいわじま","lat":35.57868,"lng":139.73491,"prefecture":13,"lines":[27001],"attr":"heat","postal_code":"143-0016","address":"大田区大森北６-１３-１１","next":[9933605,2700110,9933604,1133229,2700108],"voronoi":{"lat":35.583384,"lng":139.730884,"delta_lat":[0,-3925,-7389,3637,7052],"delta_lng":[0,-5875,16015,1945,-1596]},"impl":true},
    {"code":2700202,"left":1133230,"right":9933605,"id":"2c652e","name":"糀谷","name_kana":"こうじや","lat":35.5545,"lng":139.72962,"prefecture":13,"lines":[27002],"attr":"eco","postal_code":"144-0034","address":"大田区西糀谷４-１３-１７","next":[2700111,2700304,2700113,2700203,2700305,2700112],"voronoi":{"lat":35.561469,"lng":139.736097,"delta_lat":[0,-15685,-963,949,7445,7586],"delta_lng":[0,-3172,-3691,-4849,-2433,8042]},"impl":true},
    {"code":1133230,"left":2700112,"right":2700111,"id":"2ed364","name":"蒲田","name_kana":"かまた","lat":35.562517,"lng":139.716032,"prefecture":13,"lines":[11332,26005,26006],"attr":"cool","postal_code":"144-0052","address":"大田区蒲田５丁目","next":[2700112,2700113,2600513,2700111,2600514,9930201],"voronoi":{"lat":35.57692,"lng":139.716372,"delta_lat":[0,-2170,-18249,-624,11586,9971],"delta_lng":[0,-1562,-4036,7782,2607,-3551]},"impl":true},
    {"code":2700112,"left":2700113,"id":"feadab","name":"京急蒲田","name_kana":"けいきゅうかまた","lat":35.560796,"lng":139.723681,"prefecture":13,"lines":[27001,27002],"attr":"cool","postal_code":"144-0052","address":"大田区蒲田４-５０-１０","next":[1133230,2700111,2700113,2700202],"voronoi":{"lat":35.553216,"lng":139.721952,"delta_lat":[0,2662,11586,-6662],"delta_lng":[0,-3395,2607,8830]},"impl":true},
    {"code":2700113,"id":"ed1221","name":"雑色","name_kana":"ぞうしき","lat":35.549725,"lng":139.715005,"prefecture":13,"lines":[27001],"attr":"cool","postal_code":"144-0055","address":"大田区仲六郷２-４２-１","next":[2600514,2700202,2700302,2700304,1133230,2700303,2700112,2600606,2700114],"voronoi":{"lat":35.551388,"lng":139.703597,"delta_lat":[0,3119,1994,-624,-2662,-7445,-1322,-2499,224],"delta_lng":[0,2718,4460,7782,3395,2433,-1692,-6358,-1353]},"impl":true},
    {"code":2700111,"id":"5c590e","name":"梅屋敷(東京)","original_name":"梅屋敷","name_kana":"うめやしき","lat":35.566873,"lng":139.728266,"prefecture":13,"lines":[27001],"attr":"heat","postal_code":"144-0052","address":"大田区蒲田２-２８-１","next":[2700202,2700112,2700110,9930201,1133229,1133230,2700203],"voronoi":{"lat":35.577803,"lng":139.718102,"delta_lat":[0,-1,-367,-9971,-6662,668,2216],"delta_lng":[0,-160,-329,3551,8830,6103,2867]},"impl":true},
    {"code":9933605,"left":2700204,"right":2700110,"id":"eaebf6","name":"昭和島","name_kana":"しょうわじま","lat":35.570656,"lng":139.749918,"prefecture":13,"lines":[99336],"attr":"eco","postal_code":"143-0004","address":"大田区昭和島２-２-１","next":[2700109,9933609,2700203,2700206,9933604,9933606,9933610,2700110],"voronoi":{"lat":35.575707,"lng":139.742969,"delta_lat":[0,3016,-4543,-2692,-4096,-5985,2750,7913],"delta_lng":[0,35415,-2378,-1557,-2535,-26957,-4718,785]},"impl":true},
    {"code":2700204,"left":2700203,"id":"fc3558","name":"穴守稲荷","name_kana":"あなもりいなり","lat":35.550326,"lng":139.746669,"prefecture":13,"lines":[27002],"attr":"heat","postal_code":"144-0043","address":"大田区羽田４-６-１１","next":[2700306,9933606,2700203,2700307,2700205],"voronoi":{"lat":35.559222,"lng":139.745362,"delta_lat":[0,-14580,-2163,202,8922],"delta_lng":[0,-4396,4719,3463,1673]},"impl":true},
    {"code":2700203,"id":"fe3a0f","name":"大鳥居","name_kana":"おおとりい","lat":35.552531,"lng":139.739356,"prefecture":13,"lines":[27002],"attr":"eco","postal_code":"144-0034","address":"大田区西糀谷３-３７-１８","next":[9933606,2700305,2700110,9933605,2700202,2700306,2700204,2700111],"voronoi":{"lat":35.564156,"lng":139.74024,"delta_lat":[0,-2750,-2185,-14580,-237,1380,15685,2216],"delta_lng":[0,4718,405,-4396,-3685,-4357,3172,2867]},"impl":true},
    {"code":2700110,"id":"a2aa8b","name":"大森町","name_kana":"おおもりまち","lat":35.572431,"lng":139.732027,"prefecture":13,"lines":[27001],"attr":"heat","postal_code":"143-0015","address":"大田区大森西３-２４-７","next":[2700203,1133229,2700111,2700109,9933605],"voronoi":{"lat":35.579458,"lng":139.725009,"delta_lat":[0,-1656,-14117,471,7913],"delta_lng":[0,-6908,20862,1276,785]},"impl":true},
    {"code":2700107,"left":9930202,"right":9933603,"id":"8ec42c","name":"立会川","name_kana":"たちあいがわ","lat":35.598489,"lng":139.738886,"prefecture":13,"lines":[27001],"attr":"eco","postal_code":"140-0011","address":"品川区東大井２-２３-１","next":[9933603,1133228,1130804,2700106,1133229,2700108],"voronoi":{"lat":35.599813,"lng":139.744286,"delta_lat":[0,3193,-4155,-1102,-3360,-2537],"delta_lng":[0,-6200,-7997,-201,2981,8034]},"impl":true},
    {"code":9930202,"left":2700108,"right":1130804,"id":"5fbf12","name":"馬込","name_kana":"まごめ","lat":35.596435,"lng":139.711772,"prefecture":13,"lines":[99302],"attr":"eco","postal_code":"143-0021","address":"大田区北馬込２-３１-９","next":[2600404,9930201,1130804,1133229,2600405,2600506],"voronoi":{"lat":35.601131,"lng":139.711435,"delta_lat":[0,-358,-7969,-6192,8539,1622],"delta_lng":[0,4407,4146,-2860,-14025,672]},"impl":true},
    {"code":2700108,"left":1133229,"id":"9a5228","name":"大森海岸","name_kana":"おおもりかいがん","lat":35.587576,"lng":139.73544,"prefecture":13,"lines":[27001],"attr":"heat","postal_code":"140-0013","address":"品川区南大井３-３２-１","next":[9933604,2700109,9933603,2700107,1133229],"voronoi":{"lat":35.583384,"lng":139.730884,"delta_lat":[0,-625,5026,4067,2537],"delta_lng":[0,10489,2125,-2596,-8034]},"impl":true},
    {"code":1133229,"id":"f14198","name":"大森(東京)","original_name":"大森","name_kana":"おおもり","lat":35.588903,"lng":139.728079,"prefecture":13,"lines":[11332],"attr":"cool","postal_code":"143-0016","address":"大田区大森北１丁目","next":[9930201,9930202,2700110,1130804,2700111,2700109,2700107,2700108],"voronoi":{"lat":35.597749,"lng":139.729888,"delta_lat":[0,-4945,-6192,-8810,1,1656,3925,11005],"delta_lng":[0,-9900,-2860,814,160,6908,5875,1984]},"impl":true},
    {"code":1130804,"id":"697dd3","name":"西大井","name_kana":"にしおおい","lat":35.601616,"lng":139.721729,"prefecture":13,"lines":[11308,11333],"attr":"heat","postal_code":"140-0015","address":"品川区西大井１丁目","next":[2700107,2600404,9930202,1133229,2600403,2600402,1133228],"voronoi":{"lat":35.601972,"lng":139.728984,"delta_lat":[0,4358,-2431,-3126,-7969,4945,1102],"delta_lng":[0,-6823,-4929,-1391,4146,9900,201]},"impl":true},
    {"code":9933603,"left":9933604,"right":2700106,"id":"e63370","name":"大井競馬場前","name_kana":"おおいけいばじょうまえ","lat":35.595006,"lng":139.74708,"prefecture":13,"lines":[99336],"attr":"eco","postal_code":"140-0012","address":"品川区勝島２-２-３５","next":[9933604,2700107,2700106,9933706,9931109,2700108],"voronoi":{"lat":35.59204,"lng":139.773191,"delta_lat":[0,5941,3786,-1955,-7961,-4067],"delta_lng":[0,-4162,-20727,-4017,-3383,2596]},"impl":true},
    {"code":9933604,"id":"da3ff9","name":"流通センター","name_kana":"りゅうつうせんたー","lat":35.58186,"lng":139.748964,"prefecture":13,"lines":[99336],"attr":"eco","postal_code":"143-0006","address":"大田区平和島６-１-２","next":[9933603,2700108,9931109,9933610,9933605,2700109],"voronoi":{"lat":35.582759,"lng":139.741374,"delta_lat":[0,5026,4256,-8011,-5307,-3016],"delta_lng":[0,2125,29693,9427,-4234,-35415]},"impl":true},
    {"code":2700106,"id":"b5b7c9","name":"鮫洲","name_kana":"さめず","lat":35.604977,"lng":139.742227,"prefecture":13,"lines":[27001],"attr":"eco","postal_code":"140-0011","address":"品川区東大井１-２-２０","next":[9933603,2700105,2700107,9933706,1133228],"voronoi":{"lat":35.603006,"lng":139.738085,"delta_lat":[0,-3193,1955,4834,1177],"delta_lng":[0,6200,4017,-2342,-7047]},"impl":true}
  ]
}