{
  "name":"segment23",
  "root":1160204,
  "east":135.816602,
  "west":134.82566,
  "south":34.825522,
  "north":35.009114,
  "station_size":155,
  "node_list":[
    {"code":1160204,"left":9961508,"right":3400308,"id":"66728b","name":"長岡京","name_kana":"ながおかきょう","lat":34.923483,"lng":135.700882,"prefecture":26,"lines":[11602],"attr":"eco","postal_code":"617-0833","address":"長岡京市神足２丁目","next":[3400328,3300114,3400309,3400310],"voronoi":{"lat":34.917129,"lng":135.695534,"delta_lat":[0,-8979,20909,3056],"delta_lng":[0,7824,22712,-28244]},"impl":true},
    {"code":9961508,"left":9961507,"right":1162915,"id":"086057","name":"一の鳥居","name_kana":"いちのとりい","lat":34.879599,"lng":135.419888,"prefecture":28,"lines":[99615],"attr":"cool","postal_code":"666-0114","address":"川西市東畦野山手１-１１-１","next":[9961512,9961509,3400704,9961507,9961511],"voronoi":{"lat":34.871546,"lng":135.457648,"delta_lat":[0,-5551,10195,12426,351],"delta_lng":[0,-5194,-42303,15496,1376]},"impl":true},
    {"code":9961507,"left":9963306,"right":3300118,"id":"608084","name":"平野(兵庫)","original_name":"平野","name_kana":"ひらの","lat":34.868719,"lng":135.417266,"prefecture":28,"lines":[99615],"attr":"cool","postal_code":"666-0121","address":"川西市平野１-３６-１","next":[9961506,9964002,3400704,9961508,9961505,9961509],"voronoi":{"lat":34.873391,"lng":135.382978,"delta_lat":[0,-4621,-5743,1271,1696,10195],"delta_lng":[0,-7249,59027,16554,1143,-42303]},"impl":true},
    {"code":9963306,"left":9963305,"right":1163208,"id":"910978","name":"道場南口","name_kana":"どうじょうみなみぐち","lat":34.856024,"lng":135.223137,"prefecture":28,"lines":[99633],"attr":"eco","postal_code":"651-1505","address":"神戸市北区道場町日下部字鳥居元１２２２-４","next":[9963307,9963308,9963404,9963303,9963304,9963305],"voronoi":{"lat":34.843436,"lng":135.20839,"delta_lat":[0,-3766,279,23116,1760,-6560],"delta_lng":[0,-25419,-13806,32708,10542,23516]},"impl":true},
    {"code":9963305,"left":9963518,"right":3400213,"id":"0d8a4e","name":"二郎","name_kana":"にろう","lat":34.848818,"lng":135.227017,"prefecture":28,"lines":[99633],"attr":"cool","postal_code":"651-1311","address":"神戸市北区有野町二郎字細１１６-２","next":[9963307,9963304,1162914,9963306],"voronoi":{"lat":34.85851,"lng":135.240981,"delta_lat":[0,-17981,2907,14829],"delta_lng":[0,11657,-44248,27541]},"impl":true},
    {"code":9963518,"left":9963304,"right":9963519,"id":"fcf3a0","name":"小野(兵庫)","original_name":"小野","name_kana":"おの","lat":34.843172,"lng":134.934146,"prefecture":28,"lines":[99635],"attr":"cool","postal_code":"675-1331","address":"小野市神明町字西畑ケ２３５-３","next":[9963519,9963516,1163205,9963515,1163209,1163208,9963517,1163206],"voronoi":{"lat":34.841463,"lng":134.924428,"delta_lat":[0,23437,8227,5156,-15758,-14248,-17094,273],"delta_lng":[0,11530,20277,44914,-14555,-20729,-31402,-3927]},"impl":true},
    {"code":9963304,"left":1163206,"id":"61f51f","name":"田尾寺","name_kana":"たおじ","lat":34.835664,"lng":135.226153,"prefecture":28,"lines":[99633],"attr":"cool","postal_code":"651-1312","address":"神戸市北区有野町有野字福谷口３３８９-２","next":[9963305,9963217,9963303,1162914,9963306],"voronoi":{"lat":34.84053,"lng":135.252639,"delta_lat":[0,-8811,-8790,16742,3766],"delta_lng":[0,9491,-16174,-62984,25419]},"impl":true},
    {"code":1163206,"id":"192ff7","name":"小野町","name_kana":"おのまち","lat":34.833601,"lng":134.918466,"prefecture":28,"lines":[11632],"attr":"eco","postal_code":"675-1344","address":"小野市下来住町中前","next":[9964202,1163207,1163204,1163203,9963518,9964302,1163205,9963519],"voronoi":{"lat":34.84285,"lng":134.907808,"delta_lat":[0,-6897,-9422,-5380,-5115,-423,15842,10007],"delta_lng":[0,-17908,-6615,5797,17121,8243,16091,-6108]},"impl":true},
    {"code":9963519,"id":"f0bbd5","name":"葉多","name_kana":"はた","lat":34.850204,"lng":134.919852,"prefecture":28,"lines":[99635],"attr":"cool","postal_code":"675-1377","address":"小野市葉多町字家ケ内５７８-２","next":[9963518,1163207,1163208,1163206],"voronoi":{"lat":34.864899,"lng":134.935958,"delta_lat":[0,-162,-21887,-1388],"delta_lng":[0,-14068,-14083,16621]},"impl":true},
    {"code":3400213,"left":3400214,"right":1162913,"id":"20a762","name":"川西能勢口","name_kana":"かわにしのせぐち","lat":34.827654,"lng":135.413393,"prefecture":28,"lines":[34002,99615],"attr":"heat","postal_code":"666-0015","address":"川西市小花１-１-１０","next":[9961504,3400214,1162908,3400212,9961503,9961502],"voronoi":{"lat":34.81948,"lng":135.417074,"delta_lat":[0,11230,9267,-217,-2648,-9647],"delta_lng":[0,-8995,-264,794,5232,7166]},"impl":true},
    {"code":3400214,"left":1162912,"id":"41dcfe","name":"雲雀丘花屋敷","name_kana":"ひばりがおかはなやしき","lat":34.827357,"lng":135.402946,"prefecture":28,"lines":[34002],"attr":"heat","postal_code":"665-0805","address":"宝塚市雲雀丘１-１-１０","next":[3400215,9961506,3400213,9961504,9961505,1162908],"voronoi":{"lat":34.839977,"lng":135.407815,"delta_lat":[0,9464,1142,3692,-43456,19891],"delta_lng":[0,-12104,-2031,-9116,16365,7150]},"impl":true},
    {"code":1162912,"id":"d765f0","name":"西宮名塩","name_kana":"にしのみやなじお","lat":34.827125,"lng":135.308871,"prefecture":28,"lines":[11629],"attr":"eco","postal_code":"669-1134","address":"西宮市名塩新町","next":[1162914,3400503,1162911,9963217,1162913],"voronoi":{"lat":34.78768,"lng":135.299513,"delta_lat":[0,-3040,46000,7107,5576],"delta_lng":[0,-9544,-20253,5353,51828]},"impl":true},
    {"code":1162913,"id":"ae2263","name":"武田尾","name_kana":"たけだお","lat":34.855316,"lng":135.305838,"prefecture":28,"lines":[11629],"attr":"eco","postal_code":"669-1231","address":"宝塚市玉瀬字イズリハ","next":[3400217,3400216,1162915,1162914,9964002,1162911,1162912],"voronoi":{"lat":34.853738,"lng":135.34649,"delta_lat":[0,1798,14428,86823,-8307,-110734,5576],"delta_lng":[0,1279,8147,-50807,-3656,-26384,51828]},"impl":true},
    {"code":1163208,"left":9964303,"right":1162914,"id":"eff50e","name":"河合西","name_kana":"かわいにし","lat":34.879221,"lng":134.919519,"prefecture":28,"lines":[11632],"attr":"eco","postal_code":"675-1355","address":"小野市新部町","next":[9964302,1163209,9964304,1163207,9963518,9963519],"voronoi":{"lat":34.873127,"lng":134.956235,"delta_lat":[0,32617,-5568,-24061,-11377,162],"delta_lng":[0,-70071,349,9963,25414,14068]},"impl":true},
    {"code":9964303,"left":1163207,"right":9964304,"id":"b100f0","name":"田原","name_kana":"たはら","lat":34.865486,"lng":134.866744,"prefecture":28,"lines":[99643],"attr":"heat","postal_code":"675-2114","address":"加西市田原町字前","next":[1160817,1163202,1163203,9964304,9964302],"voronoi":{"lat":34.833634,"lng":134.826895,"delta_lat":[0,-9201,-597,2419,64326],"delta_lng":[0,13600,5410,14899,19828]},"impl":true},
    {"code":1163207,"left":9964302,"id":"62aae2","name":"粟生","name_kana":"あお","lat":34.856859,"lng":134.909509,"prefecture":28,"lines":[11632,99635,99643],"attr":"eco","postal_code":"675-1358","address":"小野市粟生町","next":[1163206,9963519,1163208,9964302],"voronoi":{"lat":34.835953,"lng":134.889899,"delta_lat":[0,6897,21887,11377],"delta_lng":[0,17908,14083,-25414]},"impl":true},
    {"code":9964302,"id":"54d86d","name":"網引","name_kana":"あびき","lat":34.862022,"lng":134.877982,"prefecture":28,"lines":[99643],"attr":"heat","postal_code":"675-2113","address":"加西市網引町字堂の前","next":[1163203,1163208,1163207,9964303,1163206,9964304],"voronoi":{"lat":34.890581,"lng":134.880632,"delta_lat":[0,-64326,276,9422,40161,24061],"delta_lng":[0,-19828,22480,6615,6577,-9963]},"impl":true},
    {"code":9964304,"id":"ef2964","name":"法華口","name_kana":"ほっけぐち","lat":34.875262,"lng":134.856384,"prefecture":28,"lines":[99643],"attr":"heat","postal_code":"675-2212","address":"加西市東笠原町字沖","next":[1163209,9964308,9964305,1163208,9964303,1160817,9964302],"voronoi":{"lat":34.890581,"lng":134.880632,"delta_lat":[0,-56947,3857,76388,5016,-13152,-5568],"delta_lng":[0,-53737,-7890,51627,11481,4051,349]},"impl":true},
    {"code":1162914,"left":9961506,"right":9963308,"id":"2f7712","name":"道場","name_kana":"どうじょう","lat":34.867303,"lng":135.255528,"prefecture":28,"lines":[11629],"attr":"heat","postal_code":"669-1161","address":"神戸市北区道場町生野","next":[9963307,1162912,9963217,9963309,9963305,1162913,9963304,1162915],"voronoi":{"lat":34.884806,"lng":135.248302,"delta_lat":[0,-13474,-12821,-17981,-8811,-1079,7107,110734],"delta_lng":[0,-7538,217,11657,9491,7586,5353,26384]},"impl":true},
    {"code":9961506,"left":9963307,"id":"c5e21c","name":"多田(兵庫)","original_name":"多田","name_kana":"ただ","lat":34.860815,"lng":135.416497,"prefecture":28,"lines":[99615],"attr":"heat","postal_code":"666-0122","address":"川西市東多田３-１-２１","next":[9961505,9961507,3400215,3400214,9964002,3400216],"voronoi":{"lat":34.854275,"lng":135.384563,"delta_lat":[0,-3692,12444,5743,-2773,-3916],"delta_lng":[0,9116,41077,-59027,-5435,3422]},"impl":true},
    {"code":9963307,"id":"031122","name":"神鉄道場","name_kana":"しんてつどうじょう","lat":34.866806,"lng":135.226145,"prefecture":28,"lines":[99633],"attr":"eco","postal_code":"651-1505","address":"神戸市北区道場町日下部字尼ケ谷７４２-１","next":[9963308,1162914,9963305,9963309,9963306],"voronoi":{"lat":34.864826,"lng":135.212416,"delta_lat":[0,9653,-3147,-12821,-245],"delta_lng":[0,14709,13640,217,-5050]},"impl":true},
    {"code":9963308,"id":"8a240b","name":"横山(兵庫)","original_name":"横山","name_kana":"よこやま","lat":34.876633,"lng":135.219696,"prefecture":28,"lines":[99633,99634],"attr":"heat","postal_code":"669-1535","address":"三田市南が丘２-９-１３","next":[9963307,9963306,9963309,1162915,9963404],"voronoi":{"lat":34.863065,"lng":135.201873,"delta_lat":[0,1760,9653,11037,4717],"delta_lng":[0,10542,14709,-5760,-5679]},"impl":true},
    {"code":3300118,"left":1160217,"right":3400314,"id":"62cc85","name":"牧野","name_kana":"まきの","lat":34.843868,"lng":135.665584,"prefecture":27,"lines":[33001],"attr":"heat","postal_code":"573-1146","address":"枚方市牧野阪２-４-２","next":[3300302,1161711,3400314,3400313,3300119,1161710,3300117],"voronoi":{"lat":34.85767,"lng":135.661666,"delta_lat":[0,-2252,-6937,-23746,-1434,13133,4983],"delta_lng":[0,-16024,-989,30032,4841,10390,1881]},"impl":true},
    {"code":1160217,"left":9961502,"right":3400315,"id":"49e68c","name":"JR総持寺","name_kana":"じぇいあーるそうじじ","lat":34.828611,"lng":135.577778,"prefecture":27,"lines":[11602],"attr":"heat","postal_code":"567-0806","address":"大阪府茨木市庄一丁目28番55号","open_date":"2018-03-17","next":[9962704,3400317,1160208,3400315,1160207,9962705,3400316],"voronoi":{"lat":34.821988,"lng":135.580222,"delta_lat":[0,1956,17112,9458,19454,-30703,-2368],"delta_lng":[0,-12095,-14737,1112,9535,17966,1046]},"impl":true},
    {"code":9961502,"left":9962704,"right":9961503,"id":"d40f41","name":"絹延橋","name_kana":"きぬのべばし","lat":34.834809,"lng":135.423025,"prefecture":28,"lines":[99615],"attr":"eco","postal_code":"666-0012","address":"川西市絹延町３-２３","next":[3400704,3400212,9961503,3400702,3400213],"voronoi":{"lat":34.832492,"lng":135.445061,"delta_lat":[0,1126,10540,-7045,-9647],"delta_lng":[0,538,95,-31853,7166]},"impl":true},
    {"code":9962704,"left":3400704,"id":"e620a7","name":"豊川(大阪)","original_name":"豊川","name_kana":"とよかわ","lat":34.834611,"lng":135.526778,"prefecture":27,"lines":[99627],"attr":"heat","postal_code":"567-0057","address":"茨木市豊川４丁目","next":[1160217,9962705,9962703,1160208,3400801],"voronoi":{"lat":34.830359,"lng":135.547474,"delta_lat":[0,10697,9458,-9021,-16430],"delta_lng":[0,5915,1112,-48966,15457]},"impl":true},
    {"code":3400704,"id":"1df911","name":"箕面","name_kana":"みのお","lat":34.834404,"lng":135.46819,"prefecture":27,"lines":[34007],"attr":"eco","postal_code":"562-0001","address":"箕面市箕面１-１-１","next":[9961502,9961505,9961513,9961507,3400703,3400801,9961508,9961503,9961512,9961401,9962705,9961514,3400702],"voronoi":{"lat":34.833617,"lng":135.445599,"delta_lat":[0,10540,11628,8513,1696,5551,2298,2843,4048,-35953,-13367,-6418,8572],"delta_lng":[0,95,2145,3472,1143,5194,4094,6798,13235,13850,-4526,-6148,-39237]},"impl":true},
    {"code":9961503,"id":"3055f1","name":"滝山","name_kana":"たきやま","lat":34.843075,"lng":135.421197,"prefecture":28,"lines":[99615],"attr":"eco","postal_code":"666-0002","address":"川西市滝山町１２-３","next":[9961505,3400704,9961502,9961504,3400213],"voronoi":{"lat":34.83976,"lng":135.408609,"delta_lat":[0,12716,3309,-11628,-7045],"delta_lng":[0,25730,13500,-2145,-31853]},"impl":true},
    {"code":3400315,"left":3300119,"right":1160207,"id":"005e2f","name":"富田(大阪)","original_name":"富田","name_kana":"とんだ","lat":34.835207,"lng":135.592721,"prefecture":27,"lines":[34003],"attr":"heat","postal_code":"569-0814","address":"高槻市富田町３-４-１０","next":[3300121,1160217,1160207,3300122,1160206,3400314,3400316],"voronoi":{"lat":34.818859,"lng":135.61381,"delta_lat":[0,5655,2804,4204,7742,-2368,-24164],"delta_lng":[0,2865,-1349,-2768,-30555,1046,24625]},"impl":true},
    {"code":3300119,"left":3400316,"id":"a7e47f","name":"御殿山","name_kana":"ごてんやま","lat":34.829178,"lng":135.653969,"prefecture":27,"lines":[33001],"attr":"heat","postal_code":"573-1182","address":"枚方市御殿山町２-２","next":[3400314,3300302,3300121,3300120,3300118],"voronoi":{"lat":34.821327,"lng":135.654792,"delta_lat":[0,7091,3062,17002,-23746],"delta_lng":[0,-17892,-3726,11478,30032]},"impl":true},
    {"code":3400316,"id":"ec713b","name":"総持寺","name_kana":"そうじじ","lat":34.827257,"lng":135.58492,"prefecture":27,"lines":[34003],"attr":"heat","postal_code":"567-0802","address":"茨木市総持寺駅前町７-３","next":[3300122,3400315,1160217,3400317],"voronoi":{"lat":34.812733,"lng":135.607673,"delta_lat":[0,24164,-14909,-18229],"delta_lng":[0,-24625,-2827,21593]},"impl":true},
    {"code":1160207,"id":"ab482f","name":"摂津富田","name_kana":"せっつとんだ","lat":34.837729,"lng":135.59336,"prefecture":27,"lines":[11602],"attr":"heat","postal_code":"569-0814","address":"高槻市富田町１丁目","next":[1160217,3400315,9962705,1160206],"voronoi":{"lat":34.902376,"lng":135.57221,"delta_lat":[0,-32408,-30703,-7742],"delta_lng":[0,-8174,17966,30555]},"impl":true},
    {"code":3400314,"left":9961505,"right":3400313,"id":"7a72f6","name":"高槻市","name_kana":"たかつきし","lat":34.849905,"lng":135.623265,"prefecture":27,"lines":[34003],"attr":"heat","postal_code":"569-0071","address":"高槻市城北町２-１-１８","next":[1160206,3300119,3300121,3400315,1160215,3300118,3400313],"voronoi":{"lat":34.848482,"lng":135.644652,"delta_lat":[0,-17002,-6965,2804,58553,-3039,-27414],"delta_lng":[0,-11478,-16500,-1349,12134,2381,15801]},"impl":true},
    {"code":9961505,"left":1160206,"right":9962705,"id":"0989e4","name":"鼓滝","name_kana":"つつみがたき","lat":34.854735,"lng":135.418339,"prefecture":28,"lines":[99615],"attr":"heat","postal_code":"666-0123","address":"川西市鼓が滝１-５-１","next":[9961503,9961506,9961504,3400704,9961507,3400214],"voronoi":{"lat":34.852476,"lng":135.434339,"delta_lat":[0,3309,8513,-1271,-12444,-1142],"delta_lng":[0,13500,3472,-16554,-41077,2031]},"impl":true},
    {"code":1160206,"left":9961504,"id":"b69678","name":"高槻","name_kana":"たかつき","lat":34.8512,"lng":135.617016,"prefecture":27,"lines":[11602],"attr":"heat","postal_code":"569-1116","address":"高槻市白梅町","next":[3400314,3400315,1161409,9962705,1160215,1160207],"voronoi":{"lat":34.827318,"lng":135.615326,"delta_lat":[0,58553,44062,-2340,-25218,-70853],"delta_lng":[0,12134,-28637,-25462,-1150,40347]},"impl":true},
    {"code":9961504,"id":"6ab28e","name":"鶯の森","name_kana":"うぐいすのもり","lat":34.847747,"lng":135.418888,"prefecture":28,"lines":[99615],"attr":"eco","postal_code":"666-0001","address":"兵庫県川西市鶯の森町","open_date":"1953-08-21","next":[9961505,3400213,3400214,9961503],"voronoi":{"lat":34.83976,"lng":135.408609,"delta_lat":[0,217,9464,3035],"delta_lng":[0,-794,-12104,38628]},"impl":true},
    {"code":9962705,"id":"c9779f","name":"彩都西","name_kana":"さいとにし","lat":34.855492,"lng":135.522931,"prefecture":27,"lines":[99627],"attr":"heat","postal_code":"567-0085","address":"茨木市彩都あさぎ１丁目","next":[9962704,3400801,9961514,1161409,1160206,1160217,1160207,1161410,3400704],"voronoi":{"lat":34.841492,"lng":135.505535,"delta_lat":[0,9021,19454,32408,25218,3309,14435,-64603,-35953],"delta_lng":[0,48966,9535,8174,1150,-6466,-38898,-46222,13850]},"impl":true},
    {"code":3400313,"left":3300117,"right":3400312,"id":"3d7331","name":"上牧(大阪)","original_name":"上牧","name_kana":"かんまき","lat":34.872018,"lng":135.661629,"prefecture":27,"lines":[34003],"attr":"heat","postal_code":"569-0007","address":"高槻市神内２-１-５","next":[3300117,3400312,3300118,1160215,3400314],"voronoi":{"lat":34.85767,"lng":135.661666,"delta_lat":[0,11449,7425,6288,-27414],"delta_lng":[0,8378,-6833,-33370,15801]},"impl":true},
    {"code":3300117,"id":"902002","name":"樟葉","name_kana":"くずは","lat":34.861977,"lng":135.675352,"prefecture":27,"lines":[33001],"attr":"heat","postal_code":"573-1121","address":"枚方市楠葉花園町１４-１","next":[3400312,3300502,1161710,3400313,3300116,3300118],"voronoi":{"lat":34.85767,"lng":135.661666,"delta_lat":[0,11449,3735,-5858,-14472,-11107],"delta_lng":[0,8378,7853,13208,11299,-10607]},"impl":true},
    {"code":3400312,"id":"44929f","name":"水無瀬","name_kana":"みなせ","lat":34.877745,"lng":135.667853,"prefecture":27,"lines":[34003],"attr":"heat","postal_code":"618-0014","address":"三島郡島本町水無瀬１-１７-１２","next":[3300117,1160205,3300116,3400313,1160215],"voronoi":{"lat":34.876545,"lng":135.66321,"delta_lat":[0,-7425,3735,10952,2858],"delta_lng":[0,6833,7853,-2870,-3680]},"impl":true},
    {"code":1162915,"left":9964308,"right":9961511,"id":"2a618f","name":"三田(兵庫)","original_name":"三田","name_kana":"さんだ","lat":34.888787,"lng":135.22979,"prefecture":28,"lines":[11629,99633,99634],"attr":"heat","postal_code":"669-1528","address":"三田市駅前町１丁目","next":[9963309,9964002,9963404,1162916,1162913,9963308,1162914],"voronoi":{"lat":34.956788,"lng":135.305109,"delta_lat":[0,25059,-86459,-5155,-4717,-710,63675],"delta_lng":[0,-2707,-87341,625,5679,26938,53150]},"impl":true},
    {"code":9964308,"left":9963405,"right":1163215,"id":"428aee","name":"北条町","name_kana":"ほうじょうまち","lat":34.929664,"lng":134.832617,"prefecture":28,"lines":[99643],"attr":"cool","postal_code":"675-2312","address":"加西市北条町北条","next":[9964304,9964307,9964305,1163211,1163213,1163209,1163210,1163510,1163509,1163508],"voronoi":{"lat":34.93577,"lng":134.788074,"delta_lat":[0,-24939,3048,5016,3586,63045,3925,52544,-27165,-52913],"delta_lng":[0,64908,17650,11481,1218,5772,-365,-16221,-32806,-41761]},"impl":true},
    {"code":9963405,"left":9963406,"right":1162916,"id":"fce311","name":"南ウッディタウン","name_kana":"みなみうっでぃたうん","lat":34.901729,"lng":135.189612,"prefecture":28,"lines":[99634],"attr":"eco","postal_code":"669-1323","address":"三田市あかしあ台５-１０１-５","next":[9963209,9963406,9963404,1162916,9963507],"voronoi":{"lat":34.839971,"lng":135.127399,"delta_lat":[0,58634,14087,-67315,-29],"delta_lng":[0,74982,-6268,-91632,31]},"impl":true},
    {"code":9963406,"left":1163209,"right":1163210,"id":"83d5a7","name":"ウッディタウン中央","name_kana":"うっでぃたうんちゅうおう","lat":34.909767,"lng":135.183707,"prefecture":28,"lines":[99634],"attr":"cool","postal_code":"669-1324","address":"三田市ゆりのき台１-１０２","next":[9963507,9963512,9963405,1162918,1162917,1162916],"voronoi":{"lat":34.91562,"lng":135.196064,"delta_lat":[0,11469,-61517,-6698,-13496,67315],"delta_lng":[0,-28303,-83732,4052,16400,91632]},"impl":true},
    {"code":1163209,"left":9964305,"id":"a0f569","name":"青野ヶ原","name_kana":"あおのがはら","lat":34.897297,"lng":134.927933,"prefecture":28,"lines":[11632],"attr":"eco","postal_code":"675-1352","address":"兵庫県小野市復井町字十郎260","next":[9964304,1163211,1163210,9963518,9963515,1163208,9964308],"voronoi":{"lat":34.918895,"lng":134.882114,"delta_lat":[0,-13152,-32617,5156,1788,14425,27986],"delta_lng":[0,4051,70071,44914,3639,-23379,-98078]},"impl":true},
    {"code":9964305,"id":"e084da","name":"播磨下里","name_kana":"はりましもさと","lat":34.886258,"lng":134.840114,"prefecture":28,"lines":[99643],"attr":"eco","postal_code":"675-2231","address":"加西市王子町字野中","next":[1160817,9964307,9964304,9964308,9964306,1160818],"voronoi":{"lat":34.837491,"lng":134.819006,"delta_lat":[0,76388,-3048,-6866,-59954,-1751],"delta_lng":[0,51627,-17650,-11185,-42417,2316]},"impl":true},
    {"code":1163210,"id":"5f108d","name":"社町","name_kana":"やしろちょう","lat":34.920336,"lng":134.934507,"prefecture":28,"lines":[11632],"attr":"eco","postal_code":"679-0221","address":"加東市河高","next":[1163211,1163209,9964308],"voronoi":{"lat":34.894495,"lng":134.98141,"delta_lat":[0,27986,63045],"delta_lng":[0,-98078,5772]},"impl":true},
    {"code":1162916,"left":9963309,"right":1162917,"id":"ac2f5e","name":"新三田","name_kana":"しんさんだ","lat":34.910183,"lng":135.20861,"prefecture":28,"lines":[11629],"attr":"heat","postal_code":"669-1313","address":"三田市福島字道野上","next":[1162922,9964002,9963404,1162915,9963405,1162917,9963406],"voronoi":{"lat":34.91562,"lng":135.196064,"delta_lat":[0,82389,5322,-21484,-86459,3218,14087],"delta_lng":[0,86654,20117,-434,-87341,-12679,-6268]},"impl":true},
    {"code":9963309,"left":9963404,"id":"dffb49","name":"三田本町","name_kana":"さんだほんまち","lat":34.881805,"lng":135.229606,"prefecture":28,"lines":[99633,99634],"attr":"heat","postal_code":"669-1526","address":"三田市相生町１２-５","next":[1162915,1162914,9963307,9963308],"voronoi":{"lat":34.885516,"lng":135.221365,"delta_lat":[0,-710,-13474,3147],"delta_lng":[0,26938,-7538,-13640]},"impl":true},
    {"code":9963404,"id":"2e76bf","name":"フラワータウン","name_kana":"ふらわーたうん","lat":34.88546,"lng":135.202334,"prefecture":28,"lines":[99634],"attr":"eco","postal_code":"669-1546","address":"三田市弥生が丘１-１１","next":[9963209,1162916,9963303,9963212,1162915,9963306,9963302,9963405,9963308],"voronoi":{"lat":34.895387,"lng":135.215061,"delta_lat":[0,3218,-58634,-4650,-265,2323,2570,23116,27167],"delta_lng":[0,-12679,-74982,12783,7603,13231,8149,32708,13812]},"impl":true},
    {"code":1162917,"id":"089c94","name":"広野(兵庫)","original_name":"広野","name_kana":"ひろの","lat":34.928424,"lng":135.191267,"prefecture":28,"lines":[11629],"attr":"heat","postal_code":"669-1331","address":"三田市広野","next":[1162922,1162918,1162919,9963406,1162916],"voronoi":{"lat":34.91562,"lng":135.196064,"delta_lat":[0,11469,35665,26261,8994],"delta_lng":[0,-28303,19272,35729,59956]},"impl":true},
    {"code":1163215,"left":1163213,"right":1162920,"id":"1abf35","name":"比延","name_kana":"ひえ","lat":34.988773,"lng":134.995733,"prefecture":28,"lines":[11632],"attr":"heat","postal_code":"677-0033","address":"西脇市鹿野町","next":[1162920,1163216,1163214,1162918,1162919,1163212],"voronoi":{"lat":34.941631,"lng":135.011591,"delta_lat":[0,56487,-13818,-9799,-13525,-58813],"delta_lng":[0,-33781,96698,507,-993,-15152]},"impl":true},
    {"code":1163213,"left":1163212,"right":1163214,"id":"6204aa","name":"西脇市","name_kana":"にしわきし","lat":34.971702,"lng":134.968795,"prefecture":28,"lines":[11632],"attr":"heat","postal_code":"677-0054","address":"西脇市野村町","next":[1163214,1163212,1163211,1163510,9964308,1163217],"voronoi":{"lat":34.953996,"lng":134.987905,"delta_lat":[0,15358,20098,52544,4962,-33578],"delta_lng":[0,-54748,-44419,-16221,1207,72155]},"impl":true},
    {"code":1163212,"left":1163211,"id":"c6d054","name":"滝(兵庫)","original_name":"滝","name_kana":"たき","lat":34.948812,"lng":134.962374,"prefecture":28,"lines":[11632],"attr":"heat","postal_code":"679-0211","address":"加東市上滝野","next":[1162918,9963512,1163214,1163211,1163213,1163215],"voronoi":{"lat":34.941631,"lng":135.011591,"delta_lat":[0,12365,15358,-85898,8644,10063],"delta_lng":[0,-23686,-54748,89620,36024,69]},"impl":true},
    {"code":1163211,"id":"6b669f","name":"滝野","name_kana":"たきの","lat":34.941034,"lng":134.954919,"prefecture":28,"lines":[11632],"attr":"eco","postal_code":"679-0211","address":"加東市上滝野","next":[9963515,1163210,1163212,1163209,9964308,1163213,9963512],"voronoi":{"lat":34.969353,"lng":134.933158,"delta_lat":[0,20098,-3925,-91031,-14425,1460,1925],"delta_lng":[0,-44419,365,92306,23379,11677,6312]},"impl":true},
    {"code":1163214,"id":"582ad2","name":"新西脇","name_kana":"しんにしわき","lat":34.977907,"lng":134.977563,"prefecture":28,"lines":[11632],"attr":"heat","postal_code":"677-0053","address":"西脇市和布町","next":[1163215,1163212,1163213,1163217,1163216],"voronoi":{"lat":34.941631,"lng":135.011591,"delta_lat":[0,12365,59384,-7574,-7688],"delta_lng":[0,-23686,-42026,22676,9255]},"impl":true},
    {"code":1162920,"left":1162918,"right":1163216,"id":"cd6e5e","name":"草野(兵庫)","original_name":"草野","name_kana":"くさの","lat":34.996887,"lng":135.1524,"prefecture":28,"lines":[11629],"attr":"cool","postal_code":"669-2113","address":"篠山市草野","next":[1163215,1163003,1163216,1162921,1162919,1162922,1163004],"voronoi":{"lat":35.009051,"lng":135.075337,"delta_lat":[0,-24752,-9799,20407,11666,9682,-1428],"delta_lng":[0,-829,507,129268,-21183,-100701,-2236]},"impl":true},
    {"code":1162918,"left":1162919,"id":"b7e5a5","name":"相野","name_kana":"あいの","lat":34.947482,"lng":135.155998,"prefecture":28,"lines":[11629],"attr":"heat","postal_code":"669-1345","address":"三田市下相野","next":[1163212,1163215,9963512,1162917,9963406,1162919],"voronoi":{"lat":34.927088,"lng":135.167762,"delta_lat":[0,-61517,26528,10063,58813,1778],"delta_lng":[0,-83732,-25228,69,15152,113011]},"impl":true},
    {"code":1162919,"id":"dd9903","name":"藍本","name_kana":"あいもと","lat":34.977041,"lng":135.155533,"prefecture":28,"lines":[11629],"attr":"heat","postal_code":"669-1358","address":"三田市藍本","next":[1163215,1162922,1162917,1162918,1162920],"voronoi":{"lat":34.989015,"lng":135.222763,"delta_lat":[0,-26261,-1778,13525,20407],"delta_lng":[0,-35729,-113011,993,129268]},"impl":true},
    {"code":1163216,"id":"b7ae4d","name":"日本へそ公園","name_kana":"にほんへそこうえん","lat":35.002069,"lng":134.997633,"prefecture":28,"lines":[11632],"attr":"heat","postal_code":"677-0039","address":"西脇市上比延町大字芦谷滝ノ上","next":[1163220,1163215,1163219,1163217,1162920,1163004,1163214],"voronoi":{"lat":35.005805,"lng":134.968556,"delta_lat":[0,18805,-597,-6693,-8269,-24752,13818],"delta_lng":[0,75870,3102,14991,12819,-829,-96698]},"impl":true},
    {"code":9961511,"left":3400311,"right":3400903,"id":"d4e9a5","name":"笹部","name_kana":"ささべ","lat":34.893765,"lng":135.416269,"prefecture":28,"lines":[99615],"attr":"cool","postal_code":"666-0104","address":"川西市笹部字川原２７７-２","next":[9964002,9961510,9961509,9961508,9961512],"voronoi":{"lat":34.888615,"lng":135.425646,"delta_lat":[0,814,21398,7919,-29780],"delta_lng":[0,-10624,-4382,4356,12026]},"impl":true},
    {"code":3400311,"left":1160205,"right":3300501,"id":"176429","name":"大山崎","name_kana":"おおやまざき","lat":34.891485,"lng":135.681637,"prefecture":26,"lines":[34003],"attr":"cool","postal_code":"618-0071","address":"乙訓郡大山崎町字大山崎小字明島１３-２","next":[3300116,1160205,3400328,3300501],"voronoi":{"lat":34.90255,"lng":135.683661,"delta_lat":[0,-17036,3462,9958],"delta_lng":[0,-5234,12509,3890]},"impl":true},
    {"code":1160205,"left":1160215,"right":9961510,"id":"63adf2","name":"山崎(京都)","original_name":"山崎","name_kana":"やまざき","lat":34.892257,"lng":135.679124,"prefecture":26,"lines":[11602],"attr":"eco","postal_code":"618-0000","address":"乙訓郡大山崎町西谷","next":[1160215,3400311,3300116,3400312,3400328],"voronoi":{"lat":34.918268,"lng":135.64942,"delta_lat":[0,-31603,-2858,1707,17036],"delta_lng":[0,21927,3680,3401,5234]},"impl":true},
    {"code":1160215,"left":9961509,"id":"1b98f4","name":"島本","name_kana":"しまもと","lat":34.881337,"lng":135.663385,"prefecture":27,"lines":[11602],"attr":"heat","postal_code":"618-0022","address":"三島郡島本町桜井２丁目","next":[1160205,1161409,3400328,3400310,3400314,3400313,1160206,3400312],"voronoi":{"lat":34.876545,"lng":135.66321,"delta_lat":[0,6288,3039,44062,10688,-157,-22197,-31603],"delta_lng":[0,-33370,-2381,-28637,22651,235,27711,21927]},"impl":true},
    {"code":9961509,"id":"d05d1b","name":"畦野","name_kana":"うねの","lat":34.884954,"lng":135.415594,"prefecture":28,"lines":[99615],"attr":"cool","postal_code":"666-0117","address":"川西市東畦野２-２-１２","next":[9961508,9964002,9961510,9961511,9961507],"voronoi":{"lat":34.888615,"lng":135.425646,"delta_lat":[0,814,-12154,-3884,2798],"delta_lng":[0,-10624,-28314,-3730,27172]},"impl":true},
    {"code":9961510,"id":"b83898","name":"山下(兵庫)","original_name":"山下","name_kana":"やました","lat":34.892926,"lng":135.412172,"prefecture":28,"lines":[99615,99640],"attr":"cool","postal_code":"666-0105","address":"川西市見野１-１９-１","next":[9961511,9961509,9964002],"voronoi":{"lat":34.889429,"lng":135.415023,"delta_lat":[0,-12154,33552],"delta_lng":[0,-28314,23932]},"impl":true},
    {"code":3300501,"left":3300502,"right":3300115,"id":"8724e9","name":"ケーブル八幡宮口","name_kana":"けーぶるはちまんぐうぐち","lat":34.884516,"lng":135.699473,"prefecture":26,"lines":[33005],"attr":"heat","postal_code":"614-8001","address":"八幡市八幡科手１","next":[3300502,3300115,3400328,3400311,3300116],"voronoi":{"lat":34.882819,"lng":135.699959,"delta_lat":[0,17921,-1806,-9958,-6895],"delta_lng":[0,-490,-4643,-3890,1120]},"impl":true},
    {"code":3300502,"left":3300116,"id":"18a6c4","name":"ケーブル八幡宮山上","name_kana":"けーぶるはちまんぐうさんじょう","lat":34.881061,"lng":135.699796,"prefecture":26,"lines":[33005],"attr":"heat","postal_code":"614-8008","address":"京都府八幡市八幡平ノ山","next":[3300117,3102513,3300501,3300115,1161710,1161709,3300116,3300114],"voronoi":{"lat":34.878505,"lng":135.72695,"delta_lat":[0,4313,-738,-15084,-14472,1367,16739,3],"delta_lng":[0,-26990,-7903,-952,11299,5666,28743,0]},"impl":true},
    {"code":3300116,"id":"9ee420","name":"橋本(京都)","original_name":"橋本","name_kana":"はしもと","lat":34.882042,"lng":135.684251,"prefecture":26,"lines":[33001],"attr":"heat","postal_code":"614-8341","address":"八幡市橋本中ノ町３７","next":[3400311,1160205,3400312,3300502,3300501,3300117],"voronoi":{"lat":34.872854,"lng":135.677897,"delta_lat":[0,10952,1707,3462,-6895,-15084],"delta_lng":[0,-2870,3401,12509,1120,-952]},"impl":true},
    {"code":3300115,"id":"ad2464","name":"石清水八幡宮","name_kana":"いわしみずはちまんぐう","lat":34.88454,"lng":135.700352,"prefecture":26,"lines":[33001],"attr":"heat","postal_code":"614-8001","address":"八幡市八幡科手１","next":[3300502,3300114,3300501,3400328],"voronoi":{"lat":34.90074,"lng":135.69947,"delta_lat":[0,-17921,-4313,23109],"delta_lng":[0,490,26990,-25400]},"impl":true},
    {"code":3400903,"left":9964002,"right":3400310,"id":"fc0936","name":"松尾大社","name_kana":"まつおたいしゃ","lat":35.000331,"lng":135.688214,"prefecture":26,"lines":[34009],"attr":"cool","postal_code":"616-0023","address":"京都市西京区嵐山宮ノ前町４９","next":[9960502,1161408,3400904,3400310,3400902,9960504,3400307,9961208,9961207],"voronoi":{"lat":34.964447,"lng":135.652396,"delta_lat":[0,-4554,-65,1527,11935,16535,18611,-3001,-3248],"delta_lng":[0,-11092,-1197,240,5662,15494,28107,7461,3995]},"impl":true},
    {"code":9964002,"left":9961513,"right":9961514,"id":"3615ca","name":"日生中央","name_kana":"にっせいちゅうおう","lat":34.906447,"lng":135.393216,"prefecture":28,"lines":[99640],"attr":"heat","postal_code":"666-0261","address":"川辺郡猪名川町松尾台１-２-２","next":[9961514,1162916,9961511,9961507,1162923,9961506,9961513,1161415,1162915,9961509,1162922,3400216,1162913,9961510,9961512],"voronoi":{"lat":34.918746,"lng":135.414997,"delta_lat":[0,-7919,-33552,-3884,-4621,-2773,3967,86823,25059,21484,24002,24853,-33922,-79267,-15422],"delta_lng":[0,-4356,-23932,-3730,-7249,-5435,-14379,-50807,-2707,434,14429,17252,73561,7856,-108]},"impl":true},
    {"code":9961513,"left":9961512,"id":"cb5092","name":"ときわ台(大阪)","original_name":"ときわ台","name_kana":"ときわだい","lat":34.906134,"lng":135.438195,"prefecture":27,"lines":[99615],"attr":"eco","postal_code":"563-0102","address":"豊能郡豊能町ときわ台１-９-４","next":[3400704,9964002,9961512,9961514],"voronoi":{"lat":34.938996,"lng":135.415933,"delta_lat":[0,-15422,-49731,2843],"delta_lng":[0,-108,45916,6798]},"impl":true},
    {"code":9961512,"id":"016c64","name":"光風台(大阪)","original_name":"光風台","name_kana":"こうふうだい","lat":34.899887,"lng":135.431429,"prefecture":27,"lines":[99615],"attr":"eco","postal_code":"563-0104","address":"豊能郡豊能町光風台３-５７-７","next":[9961508,9961513,3400704,9961511,9964002],"voronoi":{"lat":34.918746,"lng":135.414997,"delta_lat":[0,-29780,-17421,2298,49731],"delta_lng":[0,12026,30625,4094,-45916]},"impl":true},
    {"code":9961514,"id":"bf39f9","name":"妙見口","name_kana":"みょうけんぐち","lat":34.911539,"lng":135.444597,"prefecture":27,"lines":[99615],"attr":"heat","postal_code":"563-0101","address":"豊能郡豊能町吉川１４６-１","next":[9964002,1161415,1161410,9962705,1161414,9961513,1161413,1161411,3400704],"voronoi":{"lat":34.945337,"lng":135.527997,"delta_lat":[0,3019,53964,2082,8482,5379,-79267,-62310,4048],"delta_lng":[0,-2299,-59136,-3753,-28354,-26377,7856,52606,13235]},"impl":true},
    {"code":3400310,"left":3400328,"right":3400902,"id":"7f6003","name":"長岡天神","name_kana":"ながおかてんじん","lat":34.924791,"lng":135.69233,"prefecture":26,"lines":[34003],"attr":"heat","postal_code":"617-0824","address":"長岡京市天神１-３０-１","next":[1161409,9960504,3400903,3400307,1160215,3400308,3400328,3400309,1160204],"voronoi":{"lat":34.917129,"lng":135.695534,"delta_lat":[0,23336,157,15325,3881,65,-6702,-1380,-19696],"delta_lng":[0,-73826,-235,14627,4006,1197,24462,3259,28802]},"impl":true},
    {"code":3400328,"id":"12055a","name":"西山天王山","name_kana":"にしやまてんのうざん","lat":34.9127,"lng":135.688508,"prefecture":26,"lines":[34003],"attr":"cool","postal_code":"617-0843","address":"京都府長岡京市友岡四丁目22-1","open_date":"2013-12-21","next":[1160204,1160215,1160205,3300114,3400311,3300501,3300115,3400310],"voronoi":{"lat":34.90815,"lng":135.703358,"delta_lat":[0,-6535,-875,-1806,3616,15718,22197,-23336],"delta_lng":[0,-1809,-2080,-4643,-11165,-34242,-27711,73826]},"impl":true},
    {"code":3400902,"id":"228abd","name":"上桂","name_kana":"かみかつら","lat":34.990201,"lng":135.696069,"prefecture":26,"lines":[34009],"attr":"cool","postal_code":"615-8227","address":"京都市西京区上桂宮ノ後町３３-２","next":[9961213,3400305,9961206,3400903,3400306,3400307,9961207],"voronoi":{"lat":34.999836,"lng":135.706024,"delta_lat":[0,-406,-9349,-17981,-7653,37740,-113],"delta_lng":[0,424,943,-26548,-28448,48670,669]},"impl":true},
    {"code":3400308,"left":3102512,"right":3400302,"id":"d74402","name":"東向日","name_kana":"ひがしむこう","lat":34.953885,"lng":135.704646,"prefecture":26,"lines":[34003],"attr":"heat","postal_code":"617-0002","address":"向日市寺戸町小佃５-２","next":[3400307,3400309,3400310,1160203],"voronoi":{"lat":34.95181,"lng":135.669024,"delta_lat":[0,1380,6162,-13187],"delta_lng":[0,-3259,40537,2437]},"impl":true},
    {"code":3102512,"left":3300202,"right":3300207,"id":"66f23d","name":"大久保(京都)","original_name":"大久保","name_kana":"おおくぼ","lat":34.874351,"lng":135.777024,"prefecture":26,"lines":[31025],"attr":"heat","postal_code":"611-0031","address":"宇治市広野町西裏８１-２","next":[3102511,3300114,3102513,1161811],"voronoi":{"lat":34.868981,"lng":135.778812,"delta_lat":[0,8594,8682,-8202],"delta_lng":[0,-37141,4455,32777]},"impl":true},
    {"code":3300202,"left":3300113,"right":3102508,"id":"fdf99d","name":"観月橋","name_kana":"かんげつきょう","lat":34.928103,"lng":135.768642,"prefecture":26,"lines":[33002],"attr":"heat","postal_code":"612-8106","address":"京都市伏見区豊後橋町７６１","next":[3300112,3102508,3102509,1161805,3300113,3300203],"voronoi":{"lat":34.921211,"lng":135.765318,"delta_lat":[0,7042,2175,1096,-5638,-3706],"delta_lng":[0,-1021,2288,1851,8451,728]},"impl":true},
    {"code":3300113,"left":1161709,"right":3102513,"id":"b49d84","name":"中書島","name_kana":"ちゅうしょじま","lat":34.926875,"lng":135.760174,"prefecture":26,"lines":[33001,33002],"attr":"heat","postal_code":"612-8224","address":"京都市伏見区葭島矢倉町５９","next":[3400309,3300114,3102509,3300202,3102506,1160203,3300112],"voronoi":{"lat":34.921211,"lng":135.765318,"delta_lat":[0,-16159,26166,3915,3186,-1274,-8792],"delta_lng":[0,-20313,-14080,886,1768,18718,12000]},"impl":true},
    {"code":1161709,"left":1161708,"right":3300114,"id":"52615d","name":"松井山手","name_kana":"まついやまて","lat":34.833288,"lng":135.727617,"prefecture":26,"lines":[11617],"attr":"eco","postal_code":"610-0356","address":"京田辺市山手中央","next":[1161710,1161708,3102514,3300502,3102513],"voronoi":{"lat":34.87063,"lng":135.736812,"delta_lat":[0,-16739,-53576,60390,6793],"delta_lng":[0,-28743,27109,6791,-3059]},"impl":true},
    {"code":1161708,"left":1161710,"id":"222dc7","name":"大住","name_kana":"おおすみ","lat":34.830785,"lng":135.749874,"prefecture":26,"lines":[11617],"attr":"eco","postal_code":"610-0343","address":"京田辺市大住","next":[1161707,3102515,1161712,1161709,1161710,1161706,3102514,1161711],"voronoi":{"lat":34.789569,"lng":135.738925,"delta_lat":[0,4287,38623,13198,15029,-60390,-5322,-121],"delta_lng":[0,3825,19879,-5392,-15268,-6791,701,42]},"impl":true},
    {"code":1161710,"id":"b7703e","name":"長尾(大阪)","original_name":"長尾","name_kana":"ながお","lat":34.825938,"lng":135.713091,"prefecture":27,"lines":[11617],"attr":"heat","postal_code":"573-0163","address":"枚方市長尾元町５","next":[1161709,3300117,1161708,1161711,3300502,3300118],"voronoi":{"lat":34.852525,"lng":135.702403,"delta_lat":[0,1367,-53576,-5322,41441,4983],"delta_lng":[0,5666,27109,701,-45964,1881]},"impl":true},
    {"code":3300114,"id":"e4790b","name":"淀","name_kana":"よど","lat":34.904416,"lng":135.718435,"prefecture":26,"lines":[33001],"attr":"heat","postal_code":"613-0904","address":"京都市伏見区淀池上町１７４","next":[1160204,3300113,3102511,3400328,3102512,3102513,3300115,3102509,3300502,3400309],"voronoi":{"lat":34.905051,"lng":135.745005,"delta_lat":[0,-14014,-4780,-8682,-6942,7872,23109,6535,20909,2159],"delta_lng":[0,2873,-1753,-4455,-4858,-9863,-25400,1809,22712,4855]},"impl":true},
    {"code":3102513,"left":3102515,"right":3102509,"id":"4d537d","name":"久津川","name_kana":"くつがわ","lat":34.864943,"lng":135.774847,"prefecture":26,"lines":[31025],"attr":"cool","postal_code":"610-0101","address":"城陽市平川東垣外１-４","next":[3102514,3300502,3300114,3102512,1161811,1161812,1161709],"voronoi":{"lat":34.858607,"lng":135.775492,"delta_lat":[0,6400,3974,8594,-6942,-3,-3132],"delta_lng":[0,9674,-6355,-37141,-4858,0,2098]},"impl":true},
    {"code":3102515,"left":3102514,"id":"1a75b6","name":"富野荘","name_kana":"とのしょう","lat":34.840201,"lng":135.772922,"prefecture":26,"lines":[31025],"attr":"cool","postal_code":"610-0117","address":"城陽市枇杷庄鹿背田５８","next":[1161708,1161813,3102514,1161707,3102516,1161812],"voronoi":{"lat":34.847148,"lng":135.778352,"delta_lat":[0,-1472,-13198,-2128,-63,15572],"delta_lng":[0,-21115,5392,9539,10593,-1984]},"impl":true},
    {"code":3102514,"id":"c66aa3","name":"寺田(京都)","original_name":"寺田","name_kana":"てらだ","lat":34.853275,"lng":135.772011,"prefecture":26,"lines":[31025],"attr":"cool","postal_code":"610-0121","address":"城陽市寺田樋尻４１-３","next":[3102513,1161812,1161708,1161709,3102515],"voronoi":{"lat":34.845677,"lng":135.757238,"delta_lat":[0,15029,6793,-8891,-11459],"delta_lng":[0,-15268,-3059,36582,2860]},"impl":true},
    {"code":3102509,"id":"95bf8d","name":"向島","name_kana":"むかいじま","lat":34.914924,"lng":135.769681,"prefecture":26,"lines":[31025],"attr":"heat","postal_code":"612-8155","address":"京都市伏見区向島東定請１１","next":[3300202,3300113,3102511,3300203,3300205,3300114,3102510,1161808],"voronoi":{"lat":34.909925,"lng":135.78643,"delta_lat":[0,-16127,-2761,14014,16159,969,-6112,-4515],"delta_lng":[0,-28850,-9701,-2873,20313,12297,7042,1872]},"impl":true},
    {"code":3102508,"left":3400309,"right":3300110,"id":"09f097","name":"桃山御陵前","name_kana":"ももやまごりょうまえ","lat":34.933349,"lng":135.765537,"prefecture":26,"lines":[31025],"attr":"heat","postal_code":"612-8101","address":"京都市伏見区観音寺町２９","next":[3300202,1161805,3300111,3300112,3102507],"voronoi":{"lat":34.936093,"lng":135.764061,"delta_lat":[0,-16,-5650,1096,3864],"delta_lng":[0,-1100,3624,1851,442]},"impl":true},
    {"code":3400309,"left":3300111,"right":3102506,"id":"bd692b","name":"西向日","name_kana":"にしむこう","lat":34.939892,"lng":135.702657,"prefecture":26,"lines":[34003],"attr":"heat","postal_code":"617-0006","address":"向日市上植野町南開２３-１","next":[3300113,1160203,1160204,3400308,3300114,3400310],"voronoi":{"lat":34.929059,"lng":135.726071,"delta_lat":[0,2159,3915,11033,5645,-19696],"delta_lng":[0,4855,886,-23072,-39715,28802]},"impl":true},
    {"code":3300111,"left":3300112,"id":"2e4ce2","name":"丹波橋","name_kana":"たんばばし","lat":34.938879,"lng":135.765457,"prefecture":26,"lines":[33001],"attr":"heat","postal_code":"612-0073","address":"京都市伏見区桃山筒井伊賀西町","next":[3300110,3102507,3102508,3300112,3102506],"voronoi":{"lat":34.942888,"lng":135.768957,"delta_lat":[0,-6794,-16,1455,6443],"delta_lng":[0,-4895,-1100,-8393,11622]},"impl":true},
    {"code":3300112,"id":"e1ad86","name":"伏見桃山","name_kana":"ふしみももやま","lat":34.932599,"lng":135.764368,"prefecture":26,"lines":[33001],"attr":"heat","postal_code":"612-8083","address":"京都市伏見区京町３-１７３","next":[3300202,3102506,3300111,3102508,3300113],"voronoi":{"lat":34.930428,"lng":135.766586,"delta_lat":[0,5650,1455,-488,-8792],"delta_lng":[0,-3624,-8393,-2271,12000]},"impl":true},
    {"code":3102506,"id":"cf2a9e","name":"伏見(京都)","original_name":"伏見","name_kana":"ふしみ","lat":34.946054,"lng":135.761479,"prefecture":26,"lines":[31025],"attr":"heat","postal_code":"612-8432","address":"京都市伏見区深草柴田屋敷町７９","next":[1160203,3300110,3300112,3300109,3300111,3102505,3300113],"voronoi":{"lat":34.938318,"lng":135.73358,"delta_lat":[0,560,14735,-365,-9273,-6443,-488],"delta_lng":[0,96,29456,449,2610,-11622,-2271]},"impl":true},
    {"code":3300110,"left":1161805,"right":1161804,"id":"4456b9","name":"墨染","name_kana":"すみぞめ","lat":34.948206,"lng":135.769126,"prefecture":26,"lines":[33001],"attr":"heat","postal_code":"612-0051","address":"京都市伏見区墨染町６９１","next":[1161804,3300109,3300111,3102506,3102507],"voronoi":{"lat":34.942888,"lng":135.768957,"delta_lat":[0,1088,9273,-1091,-10289],"delta_lng":[0,-2766,-2610,8787,113]},"impl":true},
    {"code":1161805,"left":3102507,"id":"97bdcd","name":"桃山","name_kana":"ももやま","lat":34.932647,"lng":135.771673,"prefecture":26,"lines":[11618],"attr":"heat","postal_code":"612-8037","address":"京都市伏見区桃山町鍋島","next":[3300203,1161804,3102508,3300202,3102507],"voronoi":{"lat":34.935388,"lng":135.768878,"delta_lat":[0,-3864,-5638,13299,1178],"delta_lng":[0,-442,8451,1762,-4575]},"impl":true},
    {"code":3102507,"id":"8ec5e5","name":"近鉄丹波橋","name_kana":"きんてつたんばばし","lat":34.938299,"lng":135.766262,"prefecture":26,"lines":[31025],"attr":"heat","postal_code":"612-0072","address":"京都市伏見区桃山筒井伊賀東町４５","next":[3300111,1161804,1161805,3300110,3102508],"voronoi":{"lat":34.936093,"lng":135.764061,"delta_lat":[0,6794,-1019,-1506,-4975],"delta_lng":[0,4895,3524,1594,-5196]},"impl":true},
    {"code":1161804,"id":"7b2522","name":"JR藤森","name_kana":"じぇいあーるふじのもり","lat":34.948278,"lng":135.775695,"prefecture":26,"lines":[11618],"attr":"heat","postal_code":"612-0847","address":"京都市伏見区深草大亀谷大山町９９番","next":[3300110,1161805,3102507,9961104,3300204,9961102,9961103,1161803,3300108,3300203,3300109],"voronoi":{"lat":34.952158,"lng":135.772368,"delta_lat":[0,-10289,-1506,-1178,4030,3350,8790,4221,2887,-884,-989],"delta_lng":[0,113,1594,4575,8689,3090,2394,-295,-1009,-3272,-2850]},"impl":true},
    {"code":3300207,"left":1161810,"right":1161807,"id":"4f6431","name":"三室戸","name_kana":"みむろど","lat":34.898976,"lng":135.806339,"prefecture":26,"lines":[33002],"attr":"eco","postal_code":"611-0013","address":"宇治市菟道田中１５","next":[1161809,3300601,3300208,1161808,3102510],"voronoi":{"lat":34.896986,"lng":135.800075,"delta_lat":[0,-2088,22726,-14168,-1530],"delta_lng":[0,81596,-15945,-73410,372]},"impl":true},
    {"code":1161810,"left":3102511,"right":1161809,"id":"b836bf","name":"JR小倉","name_kana":"じぇいあーるおぐら","lat":34.889117,"lng":135.785962,"prefecture":26,"lines":[11618],"attr":"heat","postal_code":"611-0042","address":"宇治市小倉町中畑４８番地１","next":[1161809,3102510,3102511,1161811],"voronoi":{"lat":34.880044,"lng":135.788044,"delta_lat":[0,7551,12209,-22007],"delta_lng":[0,-7483,11832,1980]},"impl":true},
    {"code":3102511,"left":1161812,"right":3102510,"id":"b51f0b","name":"伊勢田","name_kana":"いせだ","lat":34.882208,"lng":135.77899,"prefecture":26,"lines":[31025],"attr":"heat","postal_code":"611-0043","address":"宇治市伊勢田町中山２５","next":[3300114,3102509,1161811,3102510,3102512,1161810],"voronoi":{"lat":34.878055,"lng":135.778903,"delta_lat":[0,8202,4780,2761,-6204,-7551],"delta_lng":[0,-32777,1753,9701,22982,7483]},"impl":true},
    {"code":1161812,"left":1161811,"id":"36ccf9","name":"城陽","name_kana":"じょうよう","lat":34.855536,"lng":135.781071,"prefecture":26,"lines":[11618],"attr":"cool","postal_code":"610-0121","address":"城陽市大字寺田字北山田","next":[1161809,3102514,3102513,3102515,1161811,1161813],"voronoi":{"lat":34.845859,"lng":135.780778,"delta_lat":[0,1289,11459,6400,374,-1773],"delta_lng":[0,-2425,-2860,9674,19255,3163]},"impl":true},
    {"code":1161811,"id":"ab0368","name":"新田(京都)","original_name":"新田","name_kana":"しんでん","lat":34.874314,"lng":135.780707,"prefecture":26,"lines":[11618],"attr":"cool","postal_code":"611-0031","address":"宇治市広野町東浦","next":[1161809,3102511,3102512,3102513,1161810,1161812],"voronoi":{"lat":34.865008,"lng":135.785166,"delta_lat":[0,3974,9074,1988,-2247,-12415],"delta_lng":[0,-6355,91,9142,6329,10048]},"impl":true},
    {"code":3102510,"id":"01b1dc","name":"小倉(京都)","original_name":"小倉","name_kana":"おぐら","lat":34.89304,"lng":135.781914,"prefecture":26,"lines":[31025],"attr":"heat","postal_code":"611-0042","address":"宇治市小倉町神楽町３５-４","next":[1161809,1161808,3102511,3102509,1161810,3300207],"voronoi":{"lat":34.903455,"lng":135.792317,"delta_lat":[0,6470,-16127,-6204,12209,2122],"delta_lng":[0,-5887,-28850,22982,11832,295]},"impl":true},
    {"code":1161809,"left":1161814,"right":3300208,"id":"13ff78","name":"宇治(JR)","original_name":"宇治","name_kana":"うじ","lat":34.890437,"lng":135.800629,"prefecture":26,"lines":[11618],"attr":"heat","postal_code":"611-0021","address":"宇治市宇治字文治","next":[1161812,3300207,3300208,1161811,3102510,1161814,1161810,1161813],"voronoi":{"lat":34.859046,"lng":135.828808,"delta_lat":[0,37940,4940,-2122,-22007,-12415,-1773,-4555],"delta_lng":[0,-28733,-7387,-295,1980,10048,3163,20227]},"impl":true},
    {"code":1161814,"left":1161813,"id":"1bbbe6","name":"山城青谷","name_kana":"やましろあおだに","lat":34.828127,"lng":135.800111,"prefecture":26,"lines":[11618],"attr":"cool","postal_code":"610-0114","address":"城陽市市辺五島","next":[3300208,1161813,1161815,1161809,3102517,3102516],"voronoi":{"lat":34.828276,"lng":135.785349,"delta_lat":[0,30778,-8,-2863,-39992,3900],"delta_lng":[0,42462,997,31142,-68711,-3602]},"impl":true},
    {"code":1161813,"id":"41d9b9","name":"長池","name_kana":"ながいけ","lat":34.842351,"lng":135.789801,"prefecture":26,"lines":[11618],"attr":"cool","postal_code":"610-0112","address":"城陽市字長池北浦","next":[1161814,3102515,3102516,1161809,1161812],"voronoi":{"lat":34.845859,"lng":135.780778,"delta_lat":[0,-15572,-2012,30778,4555],"delta_lng":[0,1984,2588,42462,-20227]},"impl":true},
    {"code":3300208,"id":"27c551","name":"宇治(京阪電気鉄道)","original_name":"宇治","name_kana":"うじ","lat":34.894678,"lng":135.806229,"prefecture":26,"lines":[33002],"attr":"eco","postal_code":"611-0021","address":"宇治市宇治字文治","next":[3300601,1161814,1161809,1161815,3300207,1150911],"voronoi":{"lat":34.85606,"lng":135.901153,"delta_lat":[0,123,2863,37940,-2088,-33598],"delta_lng":[0,-41202,-31142,-28733,81596,25030]},"impl":true},
    {"code":1161807,"left":3300204,"right":9961102,"id":"6a6e0e","name":"木幡(JR)","original_name":"木幡","name_kana":"こはた","lat":34.924962,"lng":135.798901,"prefecture":26,"lines":[11618],"attr":"heat","postal_code":"611-0002","address":"京都府宇治市木幡大瀬戸","next":[3300205,1161806,9961102,1161808],"voronoi":{"lat":34.916273,"lng":135.794602,"delta_lat":[0,12726,1777,-4276],"delta_lng":[0,3999,8943,13100]},"impl":true},
    {"code":3300204,"left":3300205,"right":1161806,"id":"20cee5","name":"六地蔵(京阪電気鉄道)","original_name":"六地蔵","name_kana":"ろくじぞう","lat":34.932017,"lng":135.793322,"prefecture":26,"lines":[33002],"attr":"heat","postal_code":"612-8007","address":"京都市伏見区桃山町因幡2","next":[3300203,3300205,1161806,1161804,9961102],"voronoi":{"lat":34.946564,"lng":135.790428,"delta_lat":[0,-3350,-16787,3063,13730],"delta_lng":[0,-3090,1673,6922,-2826]},"impl":true},
    {"code":3300205,"left":3300203,"id":"e1a335","name":"木幡(京阪電気鉄道)","original_name":"木幡","name_kana":"こわた","lat":34.925859,"lng":135.796047,"prefecture":26,"lines":[33002],"attr":"cool","postal_code":"611-0002","address":"京都府宇治市木幡","next":[3300204,3300203,1161806,1161807,3102509,1161808],"voronoi":{"lat":34.911553,"lng":135.78653,"delta_lat":[0,4515,10360,3063,-492,-12726],"delta_lng":[0,-1872,4354,6922,2668,-3999]},"impl":true},
    {"code":3300203,"id":"474570","name":"桃山南口","name_kana":"ももやまみなみぐち","lat":34.931056,"lng":135.783683,"prefecture":26,"lines":[33002],"attr":"heat","postal_code":"612-8018","address":"京都市伏見区桃山町丹後１１","next":[3300204,1161805,3300205,3102509,1161804,3300202],"voronoi":{"lat":34.925886,"lng":135.776888,"delta_lat":[0,13299,4030,-16787,-10360,6112],"delta_lng":[0,1762,8689,1673,-4354,-7042]},"impl":true},
    {"code":1161806,"id":"67fee5","name":"六地蔵(JR)","original_name":"六地蔵","name_kana":"ろくじぞう","lat":34.932843,"lng":135.797335,"prefecture":26,"lines":[11618,99611],"attr":"heat","postal_code":"612-8007","address":"京都市伏見区桃山町因幡2","next":[9961102,3300205,3300204,1161807],"voronoi":{"lat":34.928999,"lng":135.798602,"delta_lat":[0,492,13730,-12445],"delta_lng":[0,-2668,-2826,14437]},"impl":true},
    {"code":9961102,"left":1161808,"right":9961103,"id":"520a28","name":"石田(京都)","original_name":"石田","name_kana":"いしだ","lat":34.940569,"lng":135.803995,"prefecture":26,"lines":[99611],"attr":"eco","postal_code":"601-1434","address":"京都市伏見区石田森南町","next":[1161806,1161808,1161804,1161807,3300204,9961103],"voronoi":{"lat":34.955355,"lng":135.792823,"delta_lat":[0,-8790,-3344,-12445,-4276,-187],"delta_lng":[0,-2394,2679,14437,13100,15750]},"impl":true},
    {"code":1161808,"id":"56efb4","name":"黄檗","name_kana":"おうばく","lat":34.912831,"lng":135.803665,"prefecture":26,"lines":[11618,33002],"attr":"heat","postal_code":"611-0011","address":"宇治市五ケ庄新開","next":[9961103,3102510,9961102,3300207,3300601,3102509,3300205,1161807],"voronoi":{"lat":34.926313,"lng":135.836395,"delta_lat":[0,-5136,-3553,-14168,6470,1627,4720,10227],"delta_lng":[0,27399,1933,-73410,-5887,100,8073,26042]},"impl":true},
    {"code":9961103,"id":"a8cb44","name":"醍醐(京都)","original_name":"醍醐","name_kana":"だいご","lat":34.950732,"lng":135.810769,"prefecture":26,"lines":[99611],"attr":"eco","postal_code":"601-1375","address":"京都市伏見区醍醐高畑町","next":[1161808,3300705,9961104,1161804,3300601,9961102],"voronoi":{"lat":34.921177,"lng":135.863794,"delta_lat":[0,24215,2016,12168,-4221,-29042],"delta_lng":[0,-4281,-2018,-64967,295,43572]},"impl":true},
    {"code":3400302,"left":1160202,"right":1161802,"id":"20dcb6","name":"烏丸","name_kana":"からすま","lat":35.003665,"lng":135.759108,"prefecture":26,"lines":[34003],"attr":"eco","postal_code":"600-8008","address":"京都市下京区四条通烏丸東入ル長刀鉾町１７","next":[9961009,3400303,9961008,3400301,9961114],"voronoi":{"lat":35.006852,"lng":135.753908,"delta_lat":[0,-5967,4051,1778,755],"delta_lng":[0,45,10321,-17,-9762]},"impl":true},
    {"code":1160202,"left":3102503,"right":1161402,"id":"3f37ac","name":"西大路","name_kana":"にしおおじ","lat":34.981077,"lng":135.731702,"prefecture":26,"lines":[11602],"attr":"heat","postal_code":"601-8469","address":"京都市南区唐橋平垣町","next":[3102503,3400304,1161416,1161402,3102504,1160216,3102502,3400306,3400305],"voronoi":{"lat":34.978091,"lng":135.717623,"delta_lat":[0,-711,-18201,10059,7981,911,12618,1621,49],"delta_lng":[0,39,13891,7664,2735,49,-8476,-2112,-1473]},"impl":true},
    {"code":3102503,"left":1160216,"right":3102504,"id":"77d6ff","name":"十条(近畿日本鉄道)","original_name":"十条","name_kana":"じゅうじょう","lat":34.97398,"lng":135.752413,"prefecture":26,"lines":[31025],"attr":"heat","postal_code":"601-8435","address":"京都市南区西九条柳の内町1","next":[1160202,9961013,3102502,3102504,9961012],"voronoi":{"lat":34.969621,"lng":135.75515,"delta_lat":[0,-382,7981,-323,-1264],"delta_lng":[0,-15934,2735,13824,886]},"impl":true},
    {"code":1160216,"left":1160203,"right":3400306,"id":"07f989","name":"桂川(京都)","original_name":"桂川","name_kana":"かつらがわ","lat":34.964814,"lng":135.710391,"prefecture":26,"lines":[11602],"attr":"heat","postal_code":"601-8211","address":"京都市南区久世高田町6-7","next":[1160202,3400306,1160203,3102504,3400307],"voronoi":{"lat":34.971764,"lng":135.706008,"delta_lat":[0,5616,-18201,-616,1434],"delta_lng":[0,11653,13891,4,-24366]},"impl":true},
    {"code":1160203,"left":3400307,"id":"63a575","name":"向日町","name_kana":"むこうまち","lat":34.954838,"lng":135.709804,"prefecture":26,"lines":[11602],"attr":"cool","postal_code":"617-0002","address":"向日市寺戸町久々相","next":[3102506,3400307,3400309,1160216,3102505,3102504,3400308,3300113],"voronoi":{"lat":34.938879,"lng":135.733675,"delta_lat":[0,13238,6447,1434,-645,-13187,-11033,3186],"delta_lng":[0,-569,-1550,-24366,-888,2437,23072,1768]},"impl":true},
    {"code":3400307,"id":"3d18b6","name":"洛西口","name_kana":"らくさいぐち","lat":34.964081,"lng":135.703096,"prefecture":26,"lines":[34003],"attr":"cool","postal_code":"615-8103","address":"京都市西京区川島六ノ坪町","next":[3400308,1160203,3400306,3400310,3400902,3400903,1160216],"voronoi":{"lat":34.971764,"lng":135.706008,"delta_lat":[0,335,-7653,-4554,-6702,6162,645],"delta_lng":[0,-25165,-28448,-11092,24462,40537,888]},"impl":true},
    {"code":3400306,"id":"6adbf0","name":"桂","name_kana":"かつら","lat":34.979522,"lng":135.703302,"prefecture":26,"lines":[34003,34009],"attr":"cool","postal_code":"615-8107","address":"京都市西京区川島北裏町９７-２","next":[1160216,3400307,3400902,1160202,3400305],"voronoi":{"lat":34.990081,"lng":135.707391,"delta_lat":[0,-17981,-335,5616,711],"delta_lng":[0,-26548,25165,11653,-39]},"impl":true},
    {"code":3102504,"left":9961014,"right":3102502,"id":"df065a","name":"上鳥羽口","name_kana":"かみとばぐち","lat":34.965135,"lng":135.752625,"prefecture":26,"lines":[31025],"attr":"heat","postal_code":"612-8417","address":"京都市伏見区竹田向代町川町１１０","next":[9961014,1160202,1160216,1160203,9961013,3102505,3102503],"voronoi":{"lat":34.969239,"lng":135.739217,"delta_lat":[0,-10059,-616,-6447,8429,7226,1849],"delta_lng":[0,-7664,4,1550,20210,3692,-1858]},"impl":true},
    {"code":9961014,"left":3102505,"id":"a8ed16","name":"くいな橋","name_kana":"くいなばし","lat":34.962674,"lng":135.757441,"prefecture":26,"lines":[99610],"attr":"cool","postal_code":"612-8415","address":"京都市伏見区竹田中島町","next":[3102504,3300109,9961013,3300108,3300107,3102505],"voronoi":{"lat":34.960546,"lng":135.753317,"delta_lat":[0,7226,-1392,-916,-4979,-2207],"delta_lng":[0,3692,6054,487,616,-1020]},"impl":true},
    {"code":3102505,"id":"1e4e3d","name":"竹田(京都)","original_name":"竹田","name_kana":"たけだ","lat":34.956825,"lng":135.756091,"prefecture":26,"lines":[31025,99610],"attr":"heat","postal_code":"612-8421","address":"京都市伏見区竹田桶ノ井町","next":[3300109,1160203,3102506,3102504,9961014],"voronoi":{"lat":34.960546,"lng":135.753317,"delta_lat":[0,-8429,-13238,14735,4664],"delta_lng":[0,-20210,569,29456,14]},"impl":true},
    {"code":3102502,"id":"0eda7c","name":"東寺","name_kana":"とうじ","lat":34.979967,"lng":135.752553,"prefecture":26,"lines":[31025],"attr":"heat","postal_code":"601-8414","address":"京都市南区西九条蔵王町３９","next":[9961012,1161416,100216,3102503,1160202],"voronoi":{"lat":34.97722,"lng":135.741952,"delta_lat":[0,-323,4668,5581,-9015],"delta_lng":[0,13824,594,-5907,-8462]},"impl":true},
    {"code":1161402,"left":9961203,"right":9961201,"id":"c6e219","name":"丹波口","name_kana":"たんばぐち","lat":34.99501,"lng":135.742396,"prefecture":26,"lines":[11614],"attr":"heat","postal_code":"600-8813","address":"京都市下京区中堂寺南町","next":[1160202,9961010,1161416,3400304,9961201],"voronoi":{"lat":35.002761,"lng":135.740404,"delta_lat":[0,-10391,-1621,2171,2038],"delta_lng":[0,-8991,2112,17548,-29]},"impl":true},
    {"code":9961203,"left":3400304,"right":9961204,"id":"17ea4e","name":"西大路三条","name_kana":"にしおおじさんじょう","lat":35.007855,"lng":135.732438,"prefecture":26,"lines":[99612],"attr":"heat","postal_code":"615-0001","address":"京都市右京区西院上今田町２２","next":[1161403,9961204,3400304,9961116],"voronoi":{"lat":35.005749,"lng":135.738306,"delta_lat":[0,-23,2077,3477],"delta_lng":[0,-10624,107,8653]},"impl":true},
    {"code":3400304,"left":3400305,"id":"625797","name":"西院","name_kana":"さいいん(さい)","lat":35.003619,"lng":135.732447,"prefecture":26,"lines":[34003,99612],"attr":"eco","postal_code":"604-8854","address":"京都市中京区壬生仙念町１６","next":[1161403,9961204,1160202,9961201,9961203,1161402,3400305],"voronoi":{"lat":34.999327,"lng":135.724427,"delta_lat":[0,6400,23,-2650,-339,-10391,49],"delta_lng":[0,3255,10624,2107,-9,-8991,-1473]},"impl":true},
    {"code":3400305,"id":"2a053a","name":"西京極","name_kana":"にしきょうごく","lat":34.992459,"lng":135.718462,"prefecture":26,"lines":[34003],"attr":"cool","postal_code":"615-0851","address":"京都市右京区西京極西池田町２","next":[3400902,9961213,9961204,1160202,3400306,3400304],"voronoi":{"lat":34.999327,"lng":135.724427,"delta_lat":[0,2094,-1991,-9349,-11989,14327],"delta_lng":[0,-7061,-10917,943,10231,12317]},"impl":true},
    {"code":9961204,"id":"933b2c","name":"山ノ内(京都)","original_name":"山ノ内","name_kana":"やまのうち","lat":35.008336,"lng":135.72317,"prefecture":26,"lines":[99612],"attr":"heat","postal_code":"615-0093","address":"京都市右京区山ノ内宮前町","next":[3400304,9961117,9961203,9961213,3400305,1161404,1161405,9961116],"voronoi":{"lat":35.014117,"lng":135.725703,"delta_lat":[0,1225,-1506,-7321,-5095,-2094,6400,2077],"delta_lng":[0,-1613,-2971,-2562,-1191,7061,3255,107]},"impl":true},
    {"code":9961201,"left":100216,"right":3400303,"id":"b566a0","name":"四条大宮","name_kana":"しじょうおおみや","lat":35.00319,"lng":135.748395,"prefecture":26,"lines":[99612],"attr":"eco","postal_code":"600-8389","address":"京都市下京区四条大宮町４-４","next":[3400303,3400304,9961010,1161403,1161402],"voronoi":{"lat":35.002761,"lng":135.740404,"delta_lat":[0,339,3747,-8115,-3774],"delta_lng":[0,9,4360,8924,-2653]},"impl":true},
    {"code":100216,"left":1161416,"id":"deedbe","name":"京都","name_kana":"きょうと","lat":34.985465,"lng":135.757748,"prefecture":26,"lines":[1002,11601,11602,11605,11614,11618,31025,99610],"attr":"heat","postal_code":"600-8216","address":"京都市下京区烏丸通塩小路下ル東塩小路町","next":[9961012,3102502,9961010,1161416,3300104,1161802],"voronoi":{"lat":34.989727,"lng":135.761906,"delta_lat":[0,2059,-4640,-5581,2253,365],"delta_lng":[0,-10388,-1055,5907,7529,125]},"impl":true},
    {"code":1161416,"id":"d9614a","name":"梅小路京都西","name_kana":"うめこうじきょうとにし","lat":34.988778,"lng":135.743167,"prefecture":26,"lines":[11614],"attr":"heat","postal_code":"600-8835","address":"京都市下京区観喜寺町3番地","open_date":"2019-03-16","next":[3102502,1160202,9961010,100216,1161402],"voronoi":{"lat":34.990749,"lng":135.733524,"delta_lat":[0,-12618,9015,4640,1134],"delta_lng":[0,8476,8462,1055,-445]},"impl":true},
    {"code":3400303,"id":"affa95","name":"大宮(京都)","original_name":"大宮","name_kana":"おおみや","lat":35.003587,"lng":135.748756,"prefecture":26,"lines":[34003],"attr":"eco","postal_code":"604-8365","address":"京都市中京区四条通大宮西入ル錦大宮町１２７","next":[9961009,9961201,9961114,9961010,1161403,3400302],"voronoi":{"lat":35.006852,"lng":135.753908,"delta_lat":[0,1552,-1557,-8115,17,2136],"delta_lng":[0,-7505,-1630,8924,14,242]},"impl":true},
    {"code":1161802,"left":3300108,"right":3400301,"id":"7f99ee","name":"東福寺","name_kana":"とうふくじ","lat":34.981371,"lng":135.769778,"prefecture":26,"lines":[11618,33001],"attr":"heat","postal_code":"605-0981","address":"京都市東山区本町１２","next":[9961012,3300104,3300106,3300701,100216],"voronoi":{"lat":34.983817,"lng":135.763899,"delta_lat":[0,-6448,738,11275,-5200],"delta_lng":[0,1472,25283,-5233,-21397]},"impl":true},
    {"code":3300108,"left":3300106,"right":1161803,"id":"cc3a93","name":"龍谷大前深草","name_kana":"りゅうこくだいまえふかくさ","lat":34.964247,"lng":135.770154,"prefecture":26,"lines":[33001],"attr":"cool","postal_code":"612-0015","address":"京都市伏見区深草ススハキ町３８","next":[3300107,1161803,3300109,9961014,1161804],"voronoi":{"lat":34.96059,"lng":135.785396,"delta_lat":[0,-105,4979,710,-4595],"delta_lng":[0,-21231,-616,3833,20864]},"impl":true},
    {"code":3300106,"left":3300107,"right":9961012,"id":"9181af","name":"鳥羽街道","name_kana":"とばかいどう","lat":34.973632,"lng":135.770004,"prefecture":26,"lines":[33001],"attr":"cool","postal_code":"605-0982","address":"京都市東山区福稲下高松町４","next":[9961012,9961013,1161802,3300701,9961105,1161803,3300107],"voronoi":{"lat":34.97203,"lng":135.764936,"delta_lat":[0,3556,1783,738,-2431,-3236,-1851],"delta_lng":[0,-502,936,25283,1732,-70,-18106]},"impl":true},
    {"code":3300107,"left":9961013,"id":"83646c","name":"伏見稲荷","name_kana":"ふしみいなり","lat":34.968966,"lng":135.769279,"prefecture":26,"lines":[33001],"attr":"cool","postal_code":"612-0012","address":"京都市伏見区深草一ノ坪町３３","next":[9961013,3300108,9961014,1161803,3300106],"voronoi":{"lat":34.966174,"lng":135.767383,"delta_lat":[0,-710,916,5651,-1441],"delta_lng":[0,-3833,-487,1874,9273]},"impl":true},
    {"code":9961013,"id":"77d0f0","name":"十条(京都市交通局)","original_name":"十条","name_kana":"じゅうじょう","lat":34.972168,"lng":135.759623,"prefecture":26,"lines":[99610],"attr":"cool","postal_code":"601-8033","address":"京都市南区東九条南石田町","next":[3102503,3300106,9961012,3300107,3102504,9961014],"voronoi":{"lat":34.967771,"lng":135.757009,"delta_lat":[0,1849,6012,-46,-3556,-5651],"delta_lng":[0,-1858,1511,7773,502,-1874]},"impl":true},
    {"code":9961012,"id":"5e475e","name":"九条(京都)","original_name":"九条","name_kana":"くじょう","lat":34.979062,"lng":135.759664,"prefecture":26,"lines":[99610],"attr":"heat","postal_code":"601-8041","address":"京都市南区東九条南烏丸町","next":[3102502,1161802,100216,3300106,9961013,3102503],"voronoi":{"lat":34.976897,"lng":135.755775,"delta_lat":[0,4668,2253,-6448,-1783,46],"delta_lng":[0,594,7529,1472,-936,-7773]},"impl":true},
    {"code":1161803,"left":9961104,"right":9961105,"id":"71db41","name":"稲荷","name_kana":"いなり","lat":34.966758,"lng":135.770707,"prefecture":26,"lines":[11618],"attr":"heat","postal_code":"612-0881","address":"京都市伏見区深草稲荷御前町","next":[9961104,9961105,3300108,1161804,3300107,3300106],"voronoi":{"lat":34.970589,"lng":135.77421,"delta_lat":[0,-4416,-4595,884,8032,1946],"delta_lng":[0,-6827,20864,3272,1059,-262]},"impl":true},
    {"code":9961104,"left":3300109,"id":"b0e879","name":"小野(京都)","original_name":"小野","name_kana":"おの","lat":34.961218,"lng":135.812733,"prefecture":26,"lines":[99611],"attr":"eco","postal_code":"607-8258","address":"京都市山科区小野西浦","next":[9961105,3300705,1161803,1161804,9961103,3300704],"voronoi":{"lat":34.947407,"lng":135.857494,"delta_lat":[0,12168,2887,8032,-8382,-7870],"delta_lng":[0,-64967,-1009,1059,49887,9594]},"impl":true},
    {"code":3300109,"id":"e21bea","name":"藤森","name_kana":"ふじのもり","lat":34.956782,"lng":135.770191,"prefecture":26,"lines":[33001],"attr":"heat","postal_code":"612-0027","address":"京都市伏見区深草極楽町７６４","next":[3300110,3102505,9961014,3102506,3300108,1161804],"voronoi":{"lat":34.960485,"lng":135.764166,"delta_lat":[0,-2207,-4664,-365,-1091,8432],"delta_lng":[0,-1020,-14,449,8787,13029]},"impl":true},
    {"code":9961105,"id":"c824a0","name":"椥辻","name_kana":"なぎつじ","lat":34.972675,"lng":135.814658,"prefecture":26,"lines":[99611],"attr":"eco","postal_code":"607-8162","address":"京都市山科区椥辻草海道町","next":[9961104,3300701,3300704,1161803,3300106,9961106],"voronoi":{"lat":34.980386,"lng":135.800879,"delta_lat":[0,-4710,-3236,-1946,-8382,11447],"delta_lng":[0,-8494,-70,262,49887,-9395]},"impl":true},
    {"code":3400301,"left":3300103,"right":3300102,"id":"47df64","name":"京都河原町","name_kana":"きょうとかわらまち","lat":35.003765,"lng":135.769463,"prefecture":26,"lines":[34003],"attr":"eco","postal_code":"600-8001","address":"京都市下京区四条通河原町西入ル真町５２","next":[3300101,3300103,3300102,9961112,9961008,9961009,3400302],"voronoi":{"lat":35.006713,"lng":135.764257,"delta_lat":[0,258,407,-901,-6973,758,4673],"delta_lng":[0,177,4648,1714,-212,-5639,-671]},"impl":true},
    {"code":3300103,"left":3300104,"right":9961009,"id":"ae79b8","name":"清水五条","name_kana":"きよみずごじょう","lat":34.995691,"lng":135.768378,"prefecture":26,"lines":[33001],"attr":"eco","postal_code":"605-0846","address":"京都市東山区五条大橋東詰","next":[3300104,9961010,9961009,3400301,3300102,9961109,3300701],"voronoi":{"lat":34.991662,"lng":135.785067,"delta_lat":[0,1813,6030,758,-1422,-6004,-1747],"delta_lng":[0,-1025,-13459,-5639,-1082,303,20910]},"impl":true},
    {"code":3300104,"left":9961010,"id":"a9ec1b","name":"七条","name_kana":"しちじょう","lat":34.989322,"lng":135.767846,"prefecture":26,"lines":[33001],"attr":"eco","postal_code":"605-0000","address":"京都市東山区七条大橋東詰","next":[3300103,1161802,100216,9961010,3300701],"voronoi":{"lat":34.984183,"lng":135.764023,"delta_lat":[0,5544,3110,-1747,-1707],"delta_lng":[0,-2118,2260,20910,345]},"impl":true},
    {"code":9961010,"id":"dee72f","name":"五条(京都)","original_name":"五条","name_kana":"ごじょう","lat":34.995252,"lng":135.759687,"prefecture":26,"lines":[99610],"attr":"heat","postal_code":"605-0846","address":"京都市東山区五条大橋東詰","next":[9961009,3300103,1161416,100216,9961201,1161402,3400303,3300104],"voronoi":{"lat":34.989727,"lng":135.761906,"delta_lat":[0,2059,1134,2038,3774,17,92,-6004],"delta_lng":[0,-10388,-445,-29,2653,14,10152,303]},"impl":true},
    {"code":9961009,"id":"025411","name":"四条","name_kana":"しじょう","lat":35.002353,"lng":135.759623,"prefecture":26,"lines":[99610],"attr":"heat","postal_code":"605-0000","address":"京都市東山区四条大橋東詰","next":[3400303,9961010,3300103,3400302,3400301],"voronoi":{"lat":34.99884,"lng":135.763862,"delta_lat":[0,-92,2136,4051,-4673],"delta_lng":[0,-10152,242,10321,671]},"impl":true},
    {"code":3300102,"left":3300701,"right":9961109,"id":"883c86","name":"祇園四条","name_kana":"ぎおんしじょう","lat":35.003689,"lng":135.771961,"prefecture":26,"lines":[33001],"attr":"eco","postal_code":"605-0801","address":"京都市東山区宮川筋一丁目","next":[9961110,3300103,3400301,9961109,3300101,9961111],"voronoi":{"lat":34.995766,"lng":135.783497,"delta_lat":[0,-2292,6030,6973,-146,-1254],"delta_lng":[0,545,-13459,212,2541,3868]},"impl":true},
    {"code":3300701,"id":"d9b4e5","name":"御陵","name_kana":"みささぎ","lat":34.996158,"lng":135.801637,"prefecture":26,"lines":[33007,99611],"attr":"heat","postal_code":"607-8424","address":"京都市山科区御陵原西町１７-４","next":[9961105,3300106,3300103,1161802,9961109,3300702,9961106,1160119,3300104],"voronoi":{"lat":34.978108,"lng":135.790654,"delta_lat":[0,-2431,4710,6767,2436,31129,-29057,-572,-1707],"delta_lng":[0,1732,8494,6474,660,7305,-30251,8,345]},"impl":true},
    {"code":9961109,"id":"c0c1f1","name":"蹴上","name_kana":"けあげ","lat":35.008037,"lng":135.790227,"prefecture":26,"lines":[99611],"attr":"heat","postal_code":"605-0044","address":"京都市東山区東小物座町","next":[1160119,9960603,9960602,9960604,3300616,3300102,3300103,3300701,9961110],"voronoi":{"lat":34.995766,"lng":135.783497,"delta_lat":[0,-2292,-1813,29057,7749,80,-512,-3339,-2737],"delta_lng":[0,545,1025,30251,4517,-25,-6594,-17641,-8360]},"impl":true}
  ]
}