{
  "name":"segment50",
  "root":1140431,
  "east":139.69799,
  "west":137.400288,
  "south":37.1837,
  "north":38.244861,
  "station_size":155,
  "node_list":[
    {"code":1140431,"left":1140805,"right":1122625,"id":"9e132f","name":"保内","name_kana":"ほない","lat":37.639322,"lng":139.014608,"prefecture":15,"lines":[11404],"attr":"heat","postal_code":"955-0022","address":"三条市大字上保内","next":[1141005,1122732,1140430,1140428,1140433,100511,1140432],"voronoi":{"lat":37.501372,"lng":139.052866,"delta_lat":[0,62096,117755,4961,21380,-15291,-180499],"delta_lng":[0,-40060,-31180,626,7018,18004,102380]},"impl":true},
    {"code":1140805,"left":1140417,"right":1140819,"id":"67b48d","name":"刈羽","name_kana":"かりわ","lat":37.430047,"lng":138.61955,"prefecture":15,"lines":[11408],"attr":"eco","postal_code":"945-0307","address":"刈羽郡刈羽村大字刈羽","next":[1140804,1140806,1140810,1140411,1140416,1140410,1140809,1140417],"voronoi":{"lat":37.7888,"lng":138.342304,"delta_lat":[0,39395,62528,-305190,-82311,-108268,7922,2340],"delta_lng":[0,-39821,-65804,191981,59724,154197,13812,2308]},"impl":true},
    {"code":1140417,"left":1140415,"right":1122736,"id":"d70781","name":"長鳥","name_kana":"ながとり","lat":37.366405,"lng":138.684063,"prefecture":15,"lines":[11404],"attr":"cool","postal_code":"949-3723","address":"柏崎市大字西長鳥","next":[1140416,1140807,1140419,1140806,1140418,1140805],"voronoi":{"lat":37.402875,"lng":138.656393,"delta_lat":[0,-94730,86269,25812,-7625,-7386],"delta_lng":[0,37572,21284,-7099,-35133,-14316]},"impl":true},
    {"code":1140415,"left":9940211,"right":1140413,"id":"16bb78","name":"北条","name_kana":"きたじょう","lat":37.338262,"lng":138.636954,"prefecture":15,"lines":[11404],"attr":"cool","postal_code":"949-3733","address":"柏崎市大字本条","next":[9940206,1140418,1140416,1140732,1140731,1140414],"voronoi":{"lat":37.236678,"lng":138.612534,"delta_lat":[0,-6560,26365,3595,31344,82600],"delta_lng":[0,58590,25794,2189,-5687,-64927]},"impl":true},
    {"code":9940211,"left":1140405,"right":1140408,"id":"59b7a8","name":"くびき","name_kana":"くびき","lat":37.198168,"lng":138.361689,"prefecture":15,"lines":[99402],"attr":"eco","postal_code":"942-0207","address":"上越市頸城区手島","next":[1140405,1140403,9940210,1140404,1140406],"voronoi":{"lat":37.152755,"lng":138.322329,"delta_lat":[0,38834,20743,12850,92],"delta_lng":[0,8365,13797,21213,41715]},"impl":true},
    {"code":1140405,"left":1140404,"right":1140406,"id":"29db3d","name":"潟町","name_kana":"かたまち","lat":37.234135,"lng":138.339902,"prefecture":15,"lines":[11404],"attr":"cool","postal_code":"949-3103","address":"上越市大潟区潟町","next":[9940211,1140522,1140407,1140406,1140403,1140404],"voronoi":{"lat":37.225182,"lng":138.365704,"delta_lat":[0,230276,41937,-234,-68709,-216120],"delta_lng":[0,-191760,-39720,81,47041,163145]},"impl":true},
    {"code":1140404,"left":1140403,"id":"c79c5f","name":"土底浜","name_kana":"どそこはま","lat":37.222719,"lng":138.324779,"prefecture":15,"lines":[11404],"attr":"cool","postal_code":"949-3112","address":"上越市大潟区土底浜","next":[1140403,9940211,1140405],"voronoi":{"lat":37.428453,"lng":138.181346,"delta_lat":[0,-236863,20743],"delta_lng":[0,149348,13797]},"impl":true},
    {"code":1140403,"id":"518398","name":"犀潟","name_kana":"さいがた","lat":37.210345,"lng":138.305154,"prefecture":15,"lines":[11404,99402],"attr":"cool","postal_code":"949-3116","address":"上越市大潟区犀潟","next":[1140402,1140404,1140522,9940211,9940210,1140405,1140523],"voronoi":{"lat":37.148478,"lng":138.320704,"delta_lat":[0,4278,38834,236863,68709,-96107,-56074],"delta_lng":[0,1625,8365,-149348,-47041,26804,20478]},"impl":true},
    {"code":1140406,"id":"5363e6","name":"上下浜","name_kana":"じょうげはま","lat":37.252178,"lng":138.361569,"prefecture":15,"lines":[11404],"attr":"cool","postal_code":"949-3255","address":"上越市柿崎区上下浜","next":[1140405,9940210,9940211,1140407],"voronoi":{"lat":37.455458,"lng":138.173943,"delta_lat":[0,-230276,92,1174],"delta_lng":[0,191760,41715,6720]},"impl":true},
    {"code":1140408,"left":1140407,"right":1140409,"id":"b7c6e7","name":"米山","name_kana":"よねやま","lat":37.316804,"lng":138.431266,"prefecture":15,"lines":[11404],"attr":"cool","postal_code":"949-3675","address":"柏崎市米山町","next":[1140521,1140409,1140522,9940208,1141001,9940207,1140407],"voronoi":{"lat":37.238942,"lng":138.485682,"delta_lat":[0,3597,917718,388067,-785838,-12337,-512800],"delta_lng":[0,7801,-484702,-370492,373554,6424,441977]},"impl":true},
    {"code":1140407,"left":9940210,"id":"f9f711","name":"柿崎","name_kana":"かきざき","lat":37.277732,"lng":138.385933,"prefecture":15,"lines":[11404],"attr":"cool","postal_code":"949-3216","address":"上越市柿崎区柿崎","next":[1140522,1140405,1140408,9940209,9940208,9940210,1140406],"voronoi":{"lat":37.224929,"lng":138.425456,"delta_lat":[0,5349,7070,512800,-252753,-41937,-229010],"delta_lng":[0,19133,15654,-441977,115957,39720,240195]},"impl":true},
    {"code":9940210,"id":"6c59a5","name":"大池いこいの森","name_kana":"おおいけいこいのもり","lat":37.18442,"lng":138.373406,"prefecture":15,"lines":[99402],"attr":"eco","postal_code":"942-0214","address":"上越市頸城区大蒲生田","next":[1140316,1140402,1140403,9940211,1140406,100908,9940209,1140407,1140319],"voronoi":{"lat":37.093275,"lng":138.344427,"delta_lat":[0,-5054,136708,1519,-1174,-72519,-4278,-23629,-8556],"delta_lng":[0,5742,75287,-11318,-6720,-85090,-1625,161,4506]},"impl":true},
    {"code":1140409,"id":"5a47af","name":"笠島","name_kana":"かさしま","lat":37.335794,"lng":138.467221,"prefecture":15,"lines":[11404],"attr":"cool","postal_code":"949-3662","address":"柏崎市大字笠島","next":[1141001,1140410,1140408,9940207,1140811],"voronoi":{"lat":37.249923,"lng":138.526422,"delta_lat":[0,-7385,917718,-4833,-62325],"delta_lng":[0,-32939,-484702,4817,52300]},"impl":true},
    {"code":1140413,"left":1140412,"right":1140803,"id":"1f199f","name":"茨目","name_kana":"いばらめ","lat":37.356986,"lng":138.586714,"prefecture":15,"lines":[11404],"attr":"cool","postal_code":"945-1341","address":"柏崎市茨目２丁目","next":[1140412,1140802,1140803,1140414],"voronoi":{"lat":37.275361,"lng":138.553341,"delta_lat":[0,83931,16303,-4772],"delta_lng":[0,17964,13160,28508]},"impl":true},
    {"code":1140412,"left":1140411,"right":1140802,"id":"f19f08","name":"柏崎","name_kana":"かしわざき","lat":37.363495,"lng":138.556303,"prefecture":15,"lines":[11404,11408],"attr":"cool","postal_code":"945-0055","address":"柏崎市駅前１丁目","next":[1140413,1140411,1140802,1140414],"voronoi":{"lat":37.359291,"lng":138.571305,"delta_lat":[0,38469,-122404,4],"delta_lng":[0,-42005,24039,2]},"impl":true},
    {"code":1140411,"left":1140410,"id":"4f18a5","name":"鯨波","name_kana":"くじらなみ","lat":37.355828,"lng":138.517263,"prefecture":15,"lines":[11404],"attr":"cool","postal_code":"945-0855","address":"柏崎市鯨波１丁目","next":[9940207,1140804,1140410,1140802,1140805,1140412,1140414],"voronoi":{"lat":37.39776,"lng":138.529301,"delta_lat":[0,97132,8329,82311,-334842,-608,25274],"delta_lng":[0,-36098,-4818,-59724,104295,16472,3912]},"impl":true},
    {"code":1140410,"id":"ba0b1d","name":"青海川","name_kana":"おうみがわ","lat":37.346143,"lng":138.486169,"prefecture":15,"lines":[11404],"attr":"cool","postal_code":"949-3661","address":"柏崎市大字青海川","next":[1140411,1140409,1140811,1140805,1140810,9940207],"voronoi":{"lat":37.249923,"lng":138.526422,"delta_lat":[0,843175,-138600,-63776,-305190,-334842],"delta_lng":[0,-460524,119313,51469,191981,104295]},"impl":true},
    {"code":1140802,"id":"73fdd3","name":"東柏崎","name_kana":"ひがしかしわざき","lat":37.373867,"lng":138.565802,"prefecture":15,"lines":[11408],"attr":"eco","postal_code":"945-0076","address":"柏崎市小倉町","next":[1140803,1140411,1140804,1140413,1140412],"voronoi":{"lat":37.39776,"lng":138.529301,"delta_lat":[0,97132,-52435,-66863,-16303],"delta_lng":[0,-36098,44970,46293,-13160]},"impl":true},
    {"code":1140803,"left":1140416,"right":1140804,"id":"b72591","name":"西中通","name_kana":"にしなかどおり","lat":37.392456,"lng":138.592651,"prefecture":15,"lines":[11408],"attr":"eco","postal_code":"945-0013","address":"柏崎市大字山本","next":[1140802,1140804,1140413,1140414],"voronoi":{"lat":37.442457,"lng":138.538173,"delta_lat":[0,-66863,-4772,5406],"delta_lng":[0,46293,28508,14292]},"impl":true},
    {"code":1140416,"left":1140414,"id":"2b1186","name":"越後広田","name_kana":"えちごひろた","lat":37.357354,"lng":138.661243,"prefecture":15,"lines":[11404],"attr":"cool","postal_code":"949-3725","address":"柏崎市大字旧広田","next":[1140417,1140415,1140805,1140418,1140414,1140804],"voronoi":{"lat":37.402875,"lng":138.656393,"delta_lat":[0,-94730,-16723,82600,2284,18647],"delta_lng":[0,37572,-546,-64927,-752,14841]},"impl":true},
    {"code":1140414,"id":"27325e","name":"安田(新潟)","original_name":"安田","name_kana":"やすだ","lat":37.341155,"lng":138.612057,"prefecture":15,"lines":[11404],"attr":"cool","postal_code":"945-1352","address":"柏崎市大字安田","next":[9940206,9940207,1140416,1140413,1140411,1140412,1140415,1140803,1140804],"voronoi":{"lat":37.376229,"lng":138.627266,"delta_lat":[0,-5406,-95462,-4,-25274,-13729,325,137344,2284],"delta_lng":[0,-14292,-59632,-2,-3912,26003,37103,15959,-752]},"impl":true},
    {"code":1140804,"id":"9d82ef","name":"荒浜","name_kana":"あらはま","lat":37.404699,"lng":138.601752,"prefecture":15,"lines":[11408],"attr":"eco","postal_code":"945-0317","address":"刈羽郡刈羽村字正明寺","next":[1140805,1140411,1140802,1140803,1140416,1140414],"voronoi":{"lat":37.376229,"lng":138.627266,"delta_lat":[0,66229,52435,8329,-108268,-18647],"delta_lng":[0,-89093,-44970,-4818,154197,-14841]},"impl":true},
    {"code":1122736,"left":1134231,"right":1140421,"id":"b08918","name":"越後広瀬","name_kana":"えちごひろせ","lat":37.274363,"lng":138.981141,"prefecture":15,"lines":[11227],"attr":"heat","postal_code":"946-0111","address":"魚沼市並柳","next":[1134231,1134230,1122737,1122735],"voronoi":{"lat":37.318461,"lng":138.927126,"delta_lat":[0,-30279,-11106,-39445],"delta_lng":[0,6602,7363,127736]},"impl":true},
    {"code":1134231,"left":1140733,"right":1134230,"id":"359d3f","name":"北堀之内","name_kana":"きたほりのうち","lat":37.25588,"lng":138.896372,"prefecture":15,"lines":[11342],"attr":"heat","postal_code":"949-7416","address":"魚沼市下島","next":[1134230,1134228,1122736,1134232,1122735,1140733,100509,1134234],"voronoi":{"lat":37.339626,"lng":138.915837,"delta_lat":[0,-85404,-51180,189,6536,78415,30279,22422],"delta_lng":[0,-41904,6748,629,10893,41525,-6602,-8981]},"impl":true},
    {"code":1140733,"left":1140732,"right":1134232,"id":"26c85d","name":"内ヶ巻","name_kana":"うちがまき","lat":37.250008,"lng":138.851833,"prefecture":15,"lines":[11407],"attr":"cool","postal_code":"949-8722","address":"新潟県小千谷市大字川井","next":[1134233,1134232,1140732,1140731,1134231,100509],"voronoi":{"lat":37.176704,"lng":138.850054,"delta_lat":[0,25399,69720,3102,-20703,-51180],"delta_lng":[0,-18272,-11789,4808,49132,6748]},"impl":true},
    {"code":1140732,"left":1140731,"id":"092cc3","name":"越後岩沢","name_kana":"えちごいわさわ","lat":37.240753,"lng":138.797097,"prefecture":15,"lines":[11407],"attr":"cool","postal_code":"949-8724","address":"小千谷市大字岩沢","next":[1140731,1134233,1140733,1140415,1140418],"voronoi":{"lat":37.260079,"lng":138.699107,"delta_lat":[0,-3595,-54380,69720,16875],"delta_lng":[0,-2189,134865,-11789,-72231]},"impl":true},
    {"code":1140731,"id":"1ffe7a","name":"下条","name_kana":"げじょう","lat":37.198324,"lng":138.779989,"prefecture":15,"lines":[11407],"attr":"cool","postal_code":"949-8603","address":"十日町市下条４丁目","next":[1140732,1140729,9940206,1140733,1140415,9940203,1140730,100509],"voronoi":{"lat":37.174048,"lng":138.849481,"delta_lat":[0,-3989,25418,2365,32276,26365,-54380,-25399],"delta_lng":[0,-27448,-131727,-6335,-12847,25794,134865,18272]},"impl":true},
    {"code":1134232,"id":"679a1e","name":"越後川口","name_kana":"えちごかわぐち","lat":37.272983,"lng":138.861514,"prefecture":15,"lines":[11342,11407],"attr":"eco","postal_code":"949-7504","address":"新潟県長岡市東川口693-1","next":[1140733,1134231,1134233,1134234],"voronoi":{"lat":37.324948,"lng":138.862969,"delta_lat":[0,-50022,-20703,85404],"delta_lng":[0,-38167,49132,41904]},"impl":true},
    {"code":1134230,"left":1122738,"right":1122737,"id":"6c50e3","name":"越後堀之内","name_kana":"えちごほりのうち","lat":37.23913,"lng":138.928003,"prefecture":15,"lines":[11342],"attr":"heat","postal_code":"949-7413","address":"魚沼市堀之内","next":[1134231,1122737,1134228,1122738,1122736],"voronoi":{"lat":37.262542,"lng":138.946458,"delta_lat":[0,-46388,-6386,78415,-11106],"delta_lng":[0,-10085,-44169,41525,7363]},"impl":true},
    {"code":1122738,"left":1134228,"id":"021b7f","name":"小出","name_kana":"こいで","lat":37.233581,"lng":138.953526,"prefecture":15,"lines":[11227,11342],"attr":"heat","postal_code":"946-0007","address":"魚沼市四日町","next":[1134228,1122737,1134230],"voronoi":{"lat":37.216153,"lng":138.936372,"delta_lat":[0,-48937,95325],"delta_lng":[0,109641,-99556]},"impl":true},
    {"code":1134228,"id":"4e9c2d","name":"八色","name_kana":"やいろ","lat":37.191747,"lng":138.934854,"prefecture":15,"lines":[11342],"attr":"heat","postal_code":"949-7301","address":"南魚沼市五箇","next":[1122729,1134231,1134230,1122738,1122737,1134226,100509],"voronoi":{"lat":37.203231,"lng":138.881311,"delta_lat":[0,6536,6386,-48937,-69714,-33354,12751],"delta_lng":[0,10893,44169,109641,110928,13134,-34562]},"impl":true},
    {"code":1122737,"id":"ee4a7b","name":"藪神","name_kana":"やぶかみ","lat":37.256737,"lng":138.975698,"prefecture":15,"lines":[11227],"attr":"eco","postal_code":"946-0051","address":"魚沼市今泉","next":[1122731,1122735,1134230,1122738,1134228,1122736,1122730,1122729],"voronoi":{"lat":37.167217,"lng":139.046014,"delta_lat":[0,95325,14535,-39445,-6229,-33397,-75199,-25304],"delta_lng":[0,-99556,-5366,127736,13904,24822,43852,5536]},"impl":true},
    {"code":1140421,"left":1140419,"right":1134234,"id":"a14eb6","name":"前川","name_kana":"まえかわ","lat":37.401795,"lng":138.823865,"prefecture":15,"lines":[11404],"attr":"cool","postal_code":"940-1144","address":"長岡市上前島町","next":[1134235,1134234,1140420],"voronoi":{"lat":37.43826,"lng":138.799214,"delta_lat":[0,-44489,-16265],"delta_lng":[0,55622,-48605]},"impl":true},
    {"code":1140419,"left":1134233,"right":1140420,"id":"a0b51e","name":"越後岩塚","name_kana":"えちごいわつか","lat":37.38629,"lng":138.756372,"prefecture":15,"lines":[11404],"attr":"cool","postal_code":"949-5414","address":"長岡市飯塚","next":[1140808,1134233,1140417,1140420,1140418,1140807],"voronoi":{"lat":37.451764,"lng":138.745959,"delta_lat":[0,-102226,-7476,52353,25812,11469],"delta_lng":[0,40836,-10055,-61491,-7099,9048]},"impl":true},
    {"code":1134233,"left":1140418,"id":"946131","name":"小千谷","name_kana":"おぢや","lat":37.309822,"lng":138.813233,"prefecture":15,"lines":[11342],"attr":"eco","postal_code":"947-0003","address":"小千谷市ひ生","next":[1140419,1140733,1140732,1140420,1140418,1134232,1134234],"voronoi":{"lat":37.274926,"lng":138.824801,"delta_lat":[0,-3102,16875,53363,7476,1667,-26257],"delta_lng":[0,-4808,-72231,28978,10055,4898,71275]},"impl":true},
    {"code":1140418,"id":"ffda56","name":"塚山","name_kana":"つかやま","lat":37.355114,"lng":138.729829,"prefecture":15,"lines":[11404],"attr":"cool","postal_code":"949-5121","address":"長岡市西谷","next":[1140419,1140415,1140416,1134233,1140732,1140417],"voronoi":{"lat":37.342061,"lng":138.776741,"delta_lat":[0,-53363,-28620,31344,16723,86269],"delta_lng":[0,-28978,-48656,-5687,546,21284]},"impl":true},
    {"code":1140420,"id":"3475cf","name":"来迎寺","name_kana":"らいこうじ","lat":37.397136,"lng":138.783523,"prefecture":15,"lines":[11404],"attr":"cool","postal_code":"949-5411","address":"長岡市来迎寺","next":[1134234,1140810,1140808,1134233,1140419,1140809,100510,1134235,1140421],"voronoi":{"lat":37.43826,"lng":138.799214,"delta_lat":[0,29422,10980,-2371,-9061,-15467,-102226,1667,26302],"delta_lng":[0,-13022,-7899,-4751,-13481,-14101,40836,4898,14537]},"impl":true},
    {"code":1134234,"left":1122735,"right":1134235,"id":"bf4fc1","name":"越後滝谷","name_kana":"えちごたきや","lat":37.368724,"lng":138.834932,"prefecture":15,"lines":[11342],"attr":"eco","postal_code":"940-1138","address":"長岡市滝谷町","next":[1140420,1122735,1134235,1140421,1134231,1122734,1134232,1134233],"voronoi":{"lat":37.351205,"lng":138.791694,"delta_lat":[0,26302,16265,-8098,-10813,-33977,-1257,-14679],"delta_lng":[0,14537,48605,82178,-2852,-16016,-2308,-52869]},"impl":true},
    {"code":1122735,"id":"f7d20a","name":"魚沼田中","name_kana":"うおぬまたなか","lat":37.294413,"lng":138.992578,"prefecture":15,"lines":[11227],"attr":"heat","postal_code":"946-0106","address":"魚沼市田中","next":[1122737,1122734,1134231,1122731,1134234,1122736],"voronoi":{"lat":37.231402,"lng":139.082731,"delta_lat":[0,4121,139337,-33977,-22422,-80830],"delta_lng":[0,-1993,-146577,-16016,8981,141701]},"impl":true},
    {"code":1134235,"id":"138712","name":"宮内(新潟)","original_name":"宮内","name_kana":"みやうち","lat":37.422223,"lng":138.840204,"prefecture":15,"lines":[11342,11404],"attr":"eco","postal_code":"940-1106","address":"長岡市宮内３丁目","next":[1122734,100510,1140421,1134234,1140420],"voronoi":{"lat":37.393772,"lng":138.854836,"delta_lat":[0,-8098,800,81209,-29422],"delta_lng":[0,82178,459,-151281,13022]},"impl":true},
    {"code":1140819,"left":1140812,"right":1140821,"id":"3d34af","name":"北吉田","name_kana":"きたよしだ","lat":37.702037,"lng":138.882209,"prefecture":15,"lines":[11408],"attr":"cool","postal_code":"959-0267","address":"燕市吉田宮小路","next":[1141004,1140818,1141002,1140820],"voronoi":{"lat":37.709425,"lng":138.862061,"delta_lat":[0,-11246,-7510,25283],"delta_lng":[0,4194,29252,20788]},"impl":true},
    {"code":1140812,"left":1140810,"right":1141002,"id":"7f934e","name":"小島谷","name_kana":"おじまや","lat":37.57455,"lng":138.771225,"prefecture":15,"lines":[11408],"attr":"eco","postal_code":"949-4511","address":"長岡市小島谷","next":[1140810,1140425,1140811,1140813,1140424],"voronoi":{"lat":37.548871,"lng":138.832003,"delta_lat":[0,69100,-100289,-21107,20933],"delta_lng":[0,-88625,27986,16404,24268]},"impl":true},
    {"code":1140810,"left":1140808,"right":1140425,"id":"4bd0dc","name":"出雲崎","name_kana":"いずもざき","lat":37.531857,"lng":138.716291,"prefecture":15,"lines":[11408],"attr":"eco","postal_code":"949-4352","address":"三島郡出雲崎町大字大門字滝谷林","next":[1140811,1140420,1140812,100510,1140805,1140410,1140809,1140424],"voronoi":{"lat":37.488393,"lng":138.784236,"delta_lat":[0,-9731,-2371,351903,62528,63776,-436816,-21107],"delta_lng":[0,-5944,-4751,-471058,-65804,-51469,586153,16404]},"impl":true},
    {"code":1140808,"left":1140807,"right":1140809,"id":"168451","name":"石地","name_kana":"いしじ","lat":37.484132,"lng":138.688101,"prefecture":15,"lines":[11408],"attr":"eco","postal_code":"949-4111","address":"柏崎市西山町別山","next":[1140807,1140419,1140420,1140809,1140806],"voronoi":{"lat":37.431696,"lng":138.717198,"delta_lat":[0,20068,15467,80276,-16777],"delta_lng":[0,28761,14101,-157834,12948]},"impl":true},
    {"code":1140807,"left":1140806,"id":"2ee608","name":"礼拝","name_kana":"らいはい","lat":37.459221,"lng":138.66392,"prefecture":15,"lines":[11408],"attr":"eco","postal_code":"949-4124","address":"柏崎市西山町礼拝","next":[1140808,1140417,1140419,1140806],"voronoi":{"lat":37.53073,"lng":138.615174,"delta_lat":[0,-99034,-11469,-7625],"delta_lng":[0,102024,-9048,-35133]},"impl":true},
    {"code":1140806,"id":"3dee79","name":"西山(新潟)","original_name":"西山","name_kana":"にしやま","lat":37.448375,"lng":138.64177,"prefecture":15,"lines":[11408],"attr":"eco","postal_code":"949-4143","address":"柏崎市西山町和田","next":[1140805,1140808,1140809,1140417,1140807],"voronoi":{"lat":37.53073,"lng":138.615174,"delta_lat":[0,16777,241293,-383584,7386],"delta_lng":[0,-12948,-259922,316397,14316]},"impl":true},
    {"code":1140809,"id":"e61fe6","name":"小木ノ城","name_kana":"おぎのじょう","lat":37.515431,"lng":138.70402,"prefecture":15,"lines":[11408],"attr":"eco","postal_code":"949-4300","address":"三島郡出雲崎町大字小柿","next":[1140808,1140806,1140420,1140810,1140805],"voronoi":{"lat":37.547506,"lng":138.602227,"delta_lat":[0,-80276,9061,351903,-39395],"delta_lng":[0,157834,13481,-471058,39821]},"impl":true},
    {"code":1140425,"left":1140424,"right":1140811,"id":"705209","name":"押切","name_kana":"おしきり","lat":37.50467,"lng":138.880988,"prefecture":15,"lines":[11404],"attr":"heat","postal_code":"954-0143","address":"長岡市池之島","next":[1140424,1122733,1140812,1122732,1140426,1140813],"voronoi":{"lat":37.548871,"lng":138.832003,"delta_lat":[0,-31363,-83360,12240,9201,101601],"delta_lng":[0,-19967,161615,11384,7254,-151200]},"impl":true},
    {"code":1140424,"left":100510,"id":"e8a07a","name":"北長岡","name_kana":"きたながおか","lat":37.468768,"lng":138.86247,"prefecture":15,"lines":[11404],"attr":"heat","postal_code":"940-0021","address":"長岡市城岡２丁目","next":[1140425,1122734,1122733,1140812,100510,1140810],"voronoi":{"lat":37.517508,"lng":138.812036,"delta_lat":[0,-83360,-13136,-4520,71901,8182],"delta_lng":[0,161615,-8509,-4321,-176584,3531]},"impl":true},
    {"code":100510,"id":"7bcf10","name":"長岡","name_kana":"ながおか","lat":37.447787,"lng":138.853927,"prefecture":15,"lines":[1005,11342,11404],"attr":"heat","postal_code":"940-0061","address":"長岡市城内町２丁目","next":[1134235,1140810,1140420,1140424,1122734],"voronoi":{"lat":37.488393,"lng":138.784236,"delta_lat":[0,-9731,-10980,-81209,30019],"delta_lng":[0,-5944,7899,151281,23348]},"impl":true},
    {"code":1140811,"id":"b3a805","name":"妙法寺(新潟)","original_name":"妙法寺","name_kana":"みょうほうじ","lat":37.566405,"lng":138.742037,"prefecture":15,"lines":[11408],"attr":"eco","postal_code":"949-4522","address":"長岡市村田","next":[1140810,1141001,1140813,1140410,1140812,1140409],"voronoi":{"lat":37.954498,"lng":138.185211,"delta_lat":[0,-436816,100289,83890,453562,-62325],"delta_lng":[0,586153,-27986,-58687,-671093,52300]},"impl":true},
    {"code":1141002,"left":1140815,"right":1140818,"id":"d58b5e","name":"矢作","name_kana":"やはぎ","lat":37.690649,"lng":138.851669,"prefecture":15,"lines":[11410],"attr":"eco","postal_code":"959-0305","address":"西蒲原郡弥彦村大字矢作","next":[1140820,1140818,1140819,1141001,1140815,1140817],"voronoi":{"lat":37.660657,"lng":138.841371,"delta_lat":[0,2695,55393,-9320,-11246,-13619],"delta_lng":[0,-13147,23685,10152,4194,-1804]},"impl":true},
    {"code":1140815,"left":1140814,"right":1141001,"id":"f4e6f6","name":"分水","name_kana":"ぶんすい","lat":37.629032,"lng":138.839038,"prefecture":15,"lines":[11408],"attr":"eco","postal_code":"959-0122","address":"燕市大武新田","next":[1140427,1140426,1140817,1140816,1141001,1141002,1140814],"voronoi":{"lat":37.586685,"lng":138.874785,"delta_lat":[0,15687,56644,1641,2695,-1515,-95394],"delta_lng":[0,9832,-41038,-2208,-13147,-14600,33782]},"impl":true},
    {"code":1140814,"left":1140813,"id":"31df63","name":"寺泊","name_kana":"てらどまり","lat":37.620349,"lng":138.814519,"prefecture":15,"lines":[11408],"attr":"eco","postal_code":"959-0161","address":"長岡市寺泊竹森","next":[1141001,1140426,1140813,1140815],"voronoi":{"lat":37.562757,"lng":138.844129,"delta_lat":[0,113366,-14287,-95394],"delta_lng":[0,-95811,65305,33782]},"impl":true},
    {"code":1140813,"id":"454f9e","name":"桐原(新潟)","original_name":"桐原","name_kana":"きりはら","lat":37.601553,"lng":138.792279,"prefecture":15,"lines":[11408],"attr":"eco","postal_code":"959-0154","address":"長岡市寺泊五分一","next":[1140811,1140426,1140812,1140425,1141001,1140814],"voronoi":{"lat":37.676124,"lng":138.748318,"delta_lat":[0,25738,-83890,-69100,8319,5567],"delta_lng":[0,-63628,58687,88625,9086,3041]},"impl":true},
    {"code":1141001,"id":"ec0c47","name":"弥彦","name_kana":"やひこ","lat":37.699161,"lng":138.831761,"prefecture":15,"lines":[11410],"attr":"eco","postal_code":"959-0323","address":"西蒲原郡弥彦村大字弥彦","next":[1140409,1140811,1140814,1140815,1141002,1140408,1140820,1140521,1140813,1140823,1140821],"voronoi":{"lat":37.8308,"lng":138.758063,"delta_lat":[0,746458,-28935,-388067,-4833,-453562,-25738,-14287,1515,55393,33447],"delta_lng":[0,-1141045,21271,370492,4817,671093,63628,65305,14600,23685,-15446]},"impl":true},
    {"code":1140818,"left":1140816,"right":1140820,"id":"7f5095","name":"吉田(新潟)","original_name":"吉田","name_kana":"よしだ","lat":37.687111,"lng":138.878377,"prefecture":15,"lines":[11408,11410],"attr":"cool","postal_code":"959-0264","address":"燕市吉田","next":[1141002,1140819,1140817,1141004],"voronoi":{"lat":37.671574,"lng":138.890994,"delta_lat":[0,12985,13619,-7510],"delta_lng":[0,-26544,1804,29252]},"impl":true},
    {"code":1140816,"left":1140817,"id":"1705e8","name":"粟生津","name_kana":"あおうづ","lat":37.653988,"lng":138.873484,"prefecture":15,"lines":[11408],"attr":"eco","postal_code":"959-0222","address":"燕市下粟生津","next":[1141004,100511,1141005,1140815,1140427,1140817,1140428],"voronoi":{"lat":37.610832,"lng":138.897079,"delta_lat":[0,-8461,56644,6747,-15885,-7958,-23424],"delta_lng":[0,-12463,-41038,48604,11478,1974,-1839]},"impl":true},
    {"code":1140817,"id":"a7e5d3","name":"南吉田","name_kana":"みなみよしだ","lat":37.671999,"lng":138.870984,"prefecture":15,"lines":[11408],"attr":"cool","postal_code":"959-0221","address":"燕市吉田西太田","next":[1140815,1141004,1140818,1140816,1141002],"voronoi":{"lat":37.660657,"lng":138.841371,"delta_lat":[0,-1641,6747,5812,12985],"delta_lng":[0,2208,48604,-1188,-26544]},"impl":true},
    {"code":1140820,"id":"e604f3","name":"岩室","name_kana":"いわむろ","lat":37.721382,"lng":138.879881,"prefecture":15,"lines":[11408],"attr":"cool","postal_code":"953-0125","address":"新潟市西蒲区和納","next":[1141004,1141002,1140819,1140821,1141001],"voronoi":{"lat":37.709425,"lng":138.862061,"delta_lat":[0,6527,10479,25761,-33447],"delta_lng":[0,54234,14839,-94671,15446]},"impl":true},
    {"code":1140821,"left":100511,"right":1140826,"id":"ff1caa","name":"巻","name_kana":"まき","lat":37.756753,"lng":138.889506,"prefecture":15,"lines":[11408],"attr":"cool","postal_code":"953-0041","address":"新潟市西蒲区巻甲","next":[1141005,1140822,1140823,1140820,1141001,1141004],"voronoi":{"lat":37.736875,"lng":138.965526,"delta_lat":[0,61581,32344,-78609,-25761,6503],"delta_lng":[0,-104949,-102515,78400,94671,25364]},"impl":true},
    {"code":100511,"left":1141005,"right":1140430,"id":"c163ec","name":"燕三条","name_kana":"つばめさんじょう","lat":37.648824,"lng":138.939274,"prefecture":15,"lines":[1005,11410],"attr":"heat","postal_code":"955-0093","address":"三条市下須頃","next":[1140816,1141005,1140430,1140428,1140431,1141007],"voronoi":{"lat":37.620075,"lng":138.927706,"delta_lat":[0,-1580,23424,44265,-4961,-13402],"delta_lng":[0,-23911,1839,76618,-626,-7914]},"impl":true},
    {"code":1141005,"left":1140427,"right":1141004,"id":"30ccc2","name":"燕","name_kana":"つばめ","lat":37.667613,"lng":138.928419,"prefecture":15,"lines":[11410],"attr":"heat","postal_code":"959-1253","address":"燕市本町２丁目","next":[1140431,1141004,100511,1140821,1140816,1140433,1140822],"voronoi":{"lat":37.736875,"lng":138.965526,"delta_lat":[0,-3942,-83056,-7958,44265,21380,31720],"delta_lng":[0,-9029,-52837,1974,76618,7018,-6234]},"impl":true},
    {"code":1140427,"left":1140426,"id":"3daca5","name":"帯織","name_kana":"おびおり","lat":37.572975,"lng":138.92848,"prefecture":15,"lines":[11404],"attr":"heat","postal_code":"959-1117","address":"三条市帯織","next":[1140815,1140426,1122732,1140816,1140428],"voronoi":{"lat":37.481247,"lng":139.021142,"delta_lat":[0,105438,15687,8461,-110561],"delta_lng":[0,-146357,9832,12463,153690]},"impl":true},
    {"code":1140426,"id":"5519f9","name":"見附","name_kana":"みつけ","lat":37.540094,"lng":138.904792,"prefecture":15,"lines":[11404],"attr":"heat","postal_code":"954-0051","address":"見附市本所２丁目","next":[1140427,1140425,1140815,1140814,1140813,1122732],"voronoi":{"lat":37.455589,"lng":138.992288,"delta_lat":[0,101601,5567,3685,20242,-105438],"delta_lng":[0,-151200,3041,3276,27379,146357]},"impl":true},
    {"code":1141004,"id":"580dc2","name":"西燕","name_kana":"にしつばめ","lat":37.679819,"lng":138.909232,"prefecture":15,"lines":[11410],"attr":"eco","postal_code":"959-1200","address":"燕市大字東太田字花見","next":[1140819,1140820,1140816,1141005,1140817,1140818,1140821],"voronoi":{"lat":37.649878,"lng":138.903661,"delta_lat":[0,15885,5812,19094,25283,10479,6503],"delta_lng":[0,-11478,-1188,4512,20788,14839,25364]},"impl":true},
    {"code":1140430,"left":1140429,"right":1141007,"id":"cc4133","name":"東三条","name_kana":"ひがしさんじょう","lat":37.628491,"lng":138.973703,"prefecture":15,"lines":[11404,11410],"attr":"heat","postal_code":"955-0047","address":"三条市東三条１丁目","next":[1140429,1140431,100511,1141007,1140428],"voronoi":{"lat":37.681223,"lng":138.981627,"delta_lat":[0,-13402,-38552,-47635,-18166],"delta_lng":[0,-7914,-9174,27357,20911]},"impl":true},
    {"code":1140429,"left":1140428,"id":"12a2e3","name":"三条(新潟)","original_name":"三条","name_kana":"さんじょう","lat":37.620962,"lng":138.960593,"prefecture":15,"lines":[11404],"attr":"heat","postal_code":"955-0862","address":"三条市南新保","next":[1140430,1141007,1140428],"voronoi":{"lat":37.617698,"lng":138.934921,"delta_lat":[0,11572,-47635],"delta_lng":[0,29617,27357]},"impl":true},
    {"code":1140428,"id":"e98d06","name":"東光寺","name_kana":"とうこうじ","lat":37.593098,"lng":138.942956,"prefecture":15,"lines":[11404],"attr":"heat","postal_code":"955-0814","address":"三条市大字金子新田","next":[1122732,1140431,100511,1141007,1140430,1140427,1140429,1140816],"voronoi":{"lat":37.610832,"lng":138.897079,"delta_lat":[0,-110561,1101,62096,18166,36063,2378,-1580],"delta_lng":[0,153690,2097,-40060,-20911,-56974,-7215,-23911]},"impl":true},
    {"code":1141007,"id":"d07a32","name":"北三条","name_kana":"きたさんじょう","lat":37.632702,"lng":138.956006,"prefecture":15,"lines":[11410],"attr":"cool","postal_code":"955-0072","address":"三条市元町","next":[1140430,1140429,1140428,100511],"voronoi":{"lat":37.620075,"lng":138.927706,"delta_lat":[0,-2378,11572,38552],"delta_lng":[0,7215,29617,9174]},"impl":true},
    {"code":1140826,"left":1140824,"right":1140828,"id":"13d419","name":"新潟大学前","name_kana":"にいがただいがくまえ","lat":37.869178,"lng":138.95442,"prefecture":15,"lines":[11408],"attr":"heat","postal_code":"950-2044","address":"新潟市西区坂井砂山４丁目","next":[1140827,1140822,1140434,1140825,1140435,1140829,1140824,1121419],"voronoi":{"lat":38.039303,"lng":138.879218,"delta_lat":[0,-250415,-260,-103,10934,16685,1317343,-50326],"delta_lng":[0,128668,-222,-128,-19087,-13711,-809273,52963]},"impl":true},
    {"code":1140824,"left":1140822,"right":1140825,"id":"870b4f","name":"内野西が丘","name_kana":"うちのにしがおか","lat":37.846355,"lng":138.926647,"prefecture":15,"lines":[11408],"attr":"cool","postal_code":"950-2153","address":"新潟市西区内野崎山","next":[1140822,1140825,1140826,9941807,1140823],"voronoi":{"lat":37.799458,"lng":138.988449,"delta_lat":[0,16685,1290920,-460799,-836046],"delta_lng":[0,-13711,-1539184,140911,1375446]},"impl":true},
    {"code":1140822,"left":1140823,"id":"d64830","name":"越後曽根","name_kana":"えちごそね","lat":37.793544,"lng":138.911094,"prefecture":15,"lines":[11408],"attr":"cool","postal_code":"959-0432","address":"新潟市西蒲区川崎","next":[1140826,1140434,1140823,1140824,1140433,1140821,1141005],"voronoi":{"lat":37.736875,"lng":138.965526,"delta_lat":[0,61581,11762,-10760,-10934,-39528,-9712],"delta_lng":[0,-104949,91334,36538,19087,-18014,-6486]},"impl":true},
    {"code":1140823,"id":"cf0a80","name":"越後赤塚","name_kana":"えちごあかつか","lat":37.816008,"lng":138.908201,"prefecture":15,"lines":[11408],"attr":"cool","postal_code":"950-2261","address":"新潟市西区赤塚","next":[1140822,1140521,1140824,1140821,9941807,1141001],"voronoi":{"lat":37.798457,"lng":138.860578,"delta_lat":[0,11762,836046,-29662,-39344,-746458],"delta_lng":[0,91334,-1375446,8705,31847,1141045]},"impl":true},
    {"code":1140825,"id":"8e3c76","name":"内野","name_kana":"うちの","lat":37.85824,"lng":138.936615,"prefecture":15,"lines":[11408],"attr":"cool","postal_code":"950-2112","address":"新潟市西区内野町","next":[1121420,1140824,1121419,1140826,1121509,9941807,1121424],"voronoi":{"lat":39.203591,"lng":138.092716,"delta_lat":[0,-70104,-1317343,1290920,749882,-140342,-315977],"delta_lng":[0,72750,809273,-1539184,-232574,311810,367673]},"impl":true},
    {"code":1140828,"left":1140827,"right":1140829,"id":"0daab9","name":"小針","name_kana":"こばり","lat":37.889591,"lng":138.991359,"prefecture":15,"lines":[11408],"attr":"heat","postal_code":"950-2026","address":"新潟市西区小針南台","next":[1140439,1140827,1140830,1140829],"voronoi":{"lat":37.948948,"lng":138.944103,"delta_lat":[0,-139427,32087,14342],"delta_lng":[0,82982,15035,-9927]},"impl":true},
    {"code":1140827,"id":"0edf46","name":"寺尾","name_kana":"てらお","lat":37.879106,"lng":138.973742,"prefecture":15,"lines":[11408],"attr":"heat","postal_code":"950-2055","address":"新潟市西区寺尾上","next":[1140439,1140826,1140829,1140828,1140435],"voronoi":{"lat":37.80952,"lng":139.027086,"delta_lat":[0,139427,90355,-250415,16769],"delta_lng":[0,-82982,-64885,128668,17914]},"impl":true},
    {"code":1140829,"id":"cd253f","name":"青山(新潟)","original_name":"青山","name_kana":"あおやま","lat":37.898546,"lng":139.000813,"prefecture":15,"lines":[11408],"attr":"heat","postal_code":"950-2001","address":"新潟市西区浦山１丁目","next":[1121419,1140830,1140827,1140826,1140828],"voronoi":{"lat":37.948948,"lng":138.944103,"delta_lat":[0,90355,1043858,-300680,-926531],"delta_lng":[0,-64885,-660790,328949,484816]},"impl":true},
    {"code":1122625,"left":1122725,"right":1140607,"id":"30439a","name":"北五泉","name_kana":"きたごせん","lat":37.746785,"lng":139.169758,"prefecture":15,"lines":[11226],"attr":"heat","postal_code":"959-1814","address":"五泉市北五泉駅前","next":[1140436,1122626,1122624,1122623,1140435],"voronoi":{"lat":37.747248,"lng":139.136171,"delta_lat":[0,24069,-6470,-59206,33674],"delta_lng":[0,70750,-2110,-73288,944]},"impl":true},
    {"code":1122725,"left":1140432,"right":1122715,"id":"4d5d4e","name":"会津大塩","name_kana":"あいづおおしお","lat":37.392803,"lng":139.413044,"prefecture":7,"lines":[11227],"attr":"eco","postal_code":"968-0326","address":"大沼郡金山町大字大塩","next":[1122724,1122728,1122726,1122722],"voronoi":{"lat":37.534221,"lng":139.386007,"delta_lat":[0,-207135,-88308,229514],"delta_lng":[0,-2846,38253,4528]},"impl":true},
    {"code":1140432,"left":1122730,"right":1122622,"id":"2e4254","name":"加茂(新潟)","original_name":"加茂","name_kana":"かも","lat":37.658806,"lng":139.048959,"prefecture":15,"lines":[11404],"attr":"heat","postal_code":"959-1300","address":"加茂市加茂駅前","next":[1122732,1140433,1122727,1140431,1122730,1122623,1122624],"voronoi":{"lat":37.646289,"lng":139.143427,"delta_lat":[0,45985,-180499,1964,11881,5940,44952],"delta_lng":[0,-136152,102380,34596,52029,5789,-18338]},"impl":true},
    {"code":1122730,"left":1122733,"right":1122727,"id":"7334ca","name":"大白川","name_kana":"おおしらかわ","lat":37.341687,"lng":139.121373,"prefecture":15,"lines":[11227],"attr":"cool","postal_code":"946-0303","address":"魚沼市大白川","next":[1122729,1122727,1122737,1122732,1140432,1122731],"voronoi":{"lat":37.122807,"lng":139.151406,"delta_lat":[0,329714,73099,-11881,-127959,-187774],"delta_lng":[0,58707,-13833,-52029,-39580,2883]},"impl":true},
    {"code":1122733,"left":1122731,"right":1122732,"id":"f9d1d8","name":"上条(新潟)","original_name":"上条","name_kana":"かみじょう","lat":37.346836,"lng":139.050698,"prefecture":15,"lines":[11227],"attr":"cool","postal_code":"946-0203","address":"魚沼市渋川","next":[1122732,1140424,1140425,1122734,1122731],"voronoi":{"lat":37.296918,"lng":139.063137,"delta_lat":[0,124094,13136,12240,-107500],"delta_lng":[0,-97995,8509,11384,84231]},"impl":true},
    {"code":1122731,"left":1122734,"id":"a0a94d","name":"柿ノ木","name_kana":"かきのき","closed":true,"lat":37.341195,"lng":139.08933,"prefecture":15,"lines":[11227],"attr":"unknown","postal_code":"946-0304","address":"魚沼市穴沢","open_date":"1987-04-01","closed_date":"2015-03-14","next":[1122737,1122734,1122735,1122732,1122733,1122730],"voronoi":{"lat":37.38578,"lng":139.104671,"delta_lat":[0,-46891,-41970,-61395,-4121,-33397],"delta_lng":[0,-35405,-6129,17602,1993,24822]},"impl":true},
    {"code":1122734,"id":"52f794","name":"越後須原","name_kana":"えちごすはら","lat":37.320591,"lng":139.017463,"prefecture":15,"lines":[11227],"attr":"heat","postal_code":"946-0216","address":"魚沼市須原","next":[1134235,1140424,1122733,1122731,1122735,1134234,100510],"voronoi":{"lat":37.421013,"lng":138.965142,"delta_lat":[0,-124094,-61395,139337,10813,800,30019],"delta_lng":[0,97995,17602,-146577,2852,459,23348]},"impl":true},
    {"code":1122732,"id":"5f8c6d","name":"入広瀬","name_kana":"いりひろせ","lat":37.358818,"lng":139.06599,"prefecture":15,"lines":[11227],"attr":"cool","postal_code":"946-0305","address":"魚沼市大栃山","next":[1122733,1140432,1140428,1140431,1140425,1140427,1122731,1140426,1122730],"voronoi":{"lat":37.511774,"lng":139.109655,"delta_lat":[0,-10402,-1101,-19025,-25657,-9201,-107500,46891,127959],"delta_lng":[0,-56788,-2097,-29628,-28853,-7254,84231,35405,39580]},"impl":true},
    {"code":1122727,"left":1122728,"right":1122726,"id":"857cba","name":"会津蒲生","name_kana":"あいづがもう","lat":37.381775,"lng":139.333213,"prefecture":7,"lines":[11227],"attr":"eco","postal_code":"968-0414","address":"南会津郡只見町大字蒲生字久保","next":[1122730,1122623,1140432,1122729,1122728,1122726],"voronoi":{"lat":37.549039,"lng":139.256972,"delta_lat":[0,-17479,-5940,-73099,-38260,-75475],"delta_lng":[0,-54903,-5789,13833,31318,129147]},"impl":true},
    {"code":1122728,"left":1122729,"id":"4ecb29","name":"只見","name_kana":"ただみ","lat":37.350239,"lng":139.314783,"prefecture":7,"lines":[11227],"attr":"eco","postal_code":"968-0421","address":"南会津郡只見町大字只見字上ノ原","next":[1122729,1122727,1122725,1122724,9921621,1122726],"voronoi":{"lat":37.338785,"lng":139.370577,"delta_lat":[0,75475,-329058,54029,99546,88308],"delta_lng":[0,-129147,178596,36015,-34627,-38253]},"impl":true},
    {"code":1122729,"id":"e5a7ac","name":"田子倉","name_kana":"たごくら","closed":true,"lat":37.317869,"lng":139.255142,"prefecture":7,"lines":[11227],"attr":"unknown","postal_code":"968-0423","address":"南会津郡只見町大字田子倉後山","open_date":"1971-08-29","closed_date":"2013-03-16","next":[1134228,1122730,1122728,9921621,1134216,9934106,1134215,1122727,9931218,1134226,1122737,9934105],"voronoi":{"lat":37.063176,"lng":139.408874,"delta_lat":[0,22026,329058,38260,-329714,-25304,-33354,-36724,-33891,-24572,14870,19824],"delta_lng":[0,11152,-178596,-31318,-58707,5536,13134,20963,57494,47071,50681,17777]},"impl":true},
    {"code":1122726,"id":"41b8b6","name":"会津塩沢","name_kana":"あいづしおざわ","lat":37.393599,"lng":139.355096,"prefecture":7,"lines":[11227],"attr":"eco","postal_code":"968-0411","address":"南会津郡只見町大字塩沢字上田","next":[1122722,1122618,1122623,1122727,1122619,1122617,1122725,1122728],"voronoi":{"lat":37.338785,"lng":139.370577,"delta_lat":[0,210253,5312,282,-3719,-3883,-12810,-207135],"delta_lng":[0,-113606,13458,54224,44366,12428,4560,-2846]},"impl":true},
    {"code":1122622,"left":1122623,"right":1122621,"id":"12d390","name":"馬下","name_kana":"まおろし","lat":37.737569,"lng":139.260466,"prefecture":15,"lines":[11226],"attr":"heat","postal_code":"959-1614","address":"五泉市大字馬下","next":[1122623,1121403,1121404,1122621],"voronoi":{"lat":37.802909,"lng":139.275015,"delta_lat":[0,-19212,-165735,185751],"delta_lng":[0,-44063,34797,15635]},"impl":true},
    {"code":1122623,"left":1140434,"right":1122624,"id":"f1d9c1","name":"猿和田","name_kana":"さるわだ","lat":37.729594,"lng":139.222481,"prefecture":15,"lines":[11226],"attr":"heat","postal_code":"959-1643","address":"五泉市大字土堀","next":[1122622,1122727,1121402,1122625,1122619,1122621,1122726,1121403,1122624,1122626,1140432],"voronoi":{"lat":37.576511,"lng":139.183731,"delta_lat":[0,188335,6470,8200,3613,567,-165735,-61734,-1877,-5312,-17479],"delta_lng":[0,21081,2110,5264,7202,11564,34797,4876,-195,-13458,-54903]},"impl":true},
    {"code":1140434,"left":1140433,"id":"b39bf8","name":"田上","name_kana":"たがみ","lat":37.719035,"lng":139.074599,"prefecture":15,"lines":[11404],"attr":"heat","postal_code":"959-1502","address":"南蒲原郡田上町田上","next":[1140435,1140822,1140826,1140433,1122624],"voronoi":{"lat":37.748996,"lng":138.989523,"delta_lat":[0,39528,103,-86947,-32448],"delta_lng":[0,18014,128,123176,4732]},"impl":true},
    {"code":1140433,"id":"915794","name":"羽生田","name_kana":"はにゅうだ","lat":37.693613,"lng":139.060715,"prefecture":15,"lines":[11404],"attr":"heat","postal_code":"959-1512","address":"南蒲原郡田上町羽生田字根廻","next":[1140432,1140434,1140822,1141005,1140431,1122624],"voronoi":{"lat":37.669233,"lng":139.135572,"delta_lat":[0,79764,-9712,-31720,-15291,-45985],"delta_lng":[0,-146050,-6486,6234,18004,136152]},"impl":true},
    {"code":1122624,"id":"edc65a","name":"五泉","name_kana":"ごせん","lat":37.734373,"lng":139.179785,"prefecture":15,"lines":[11226],"attr":"heat","postal_code":"959-1823","address":"五泉市駅前１","next":[1122625,1140434,1140435,1140433,1122623,1140432],"voronoi":{"lat":37.646289,"lng":139.143427,"delta_lat":[0,22944,32448,3960,59206,-188335],"delta_lng":[0,-7854,-4732,683,73288,-21081]},"impl":true},
    {"code":1122621,"left":1122618,"right":1122620,"id":"93acf6","name":"咲花","name_kana":"さきはな","lat":37.735003,"lng":139.29095,"prefecture":15,"lines":[11226],"attr":"cool","postal_code":"959-1615","address":"五泉市大字佐取","next":[1122620,1122619,1122623,1122622,1121404],"voronoi":{"lat":37.683967,"lng":139.309536,"delta_lat":[0,-127739,61734,185751,7410],"delta_lng":[0,-38912,-4876,15635,20437]},"impl":true},
    {"code":1122618,"left":1122619,"id":"88b924","name":"三川(新潟)","original_name":"三川","name_kana":"みかわ","lat":37.70835,"lng":139.381482,"prefecture":15,"lines":[11226],"attr":"cool","postal_code":"959-4400","address":"東蒲原郡阿賀町","next":[1122617,1122616,1121407,1121406,1122620,1122726,1122619],"voronoi":{"lat":37.554633,"lng":139.324654,"delta_lat":[0,-3719,235957,57153,-7796,-1546,-21758],"delta_lng":[0,44366,72526,7389,-39708,-4000,-10402]},"impl":true},
    {"code":1122619,"id":"5afc2e","name":"五十島","name_kana":"いがしま","lat":37.715974,"lng":139.353419,"prefecture":15,"lines":[11226],"attr":"cool","postal_code":"959-4614","address":"東蒲原郡阿賀町五十島","next":[1122621,1122623,1122620,1122618,1122726],"voronoi":{"lat":37.55435,"lng":139.27043,"delta_lat":[0,1877,127739,128957,-258291],"delta_lng":[0,195,38912,85288,-70171]},"impl":true},
    {"code":1122620,"id":"14da81","name":"東下条","name_kana":"ひがしげじょう","lat":37.736876,"lng":139.321815,"prefecture":15,"lines":[11226],"attr":"cool","postal_code":"959-4634","address":"東蒲原郡阿賀町熊渡","next":[1122621,1121405,1122618,1122619,1121404,1121406],"voronoi":{"lat":37.82787,"lng":139.342786,"delta_lat":[0,-9356,-7391,-127156,128957,21758],"delta_lng":[0,-28918,-12048,7716,85288,10402]},"impl":true},
    {"code":1122715,"left":1122720,"right":1122613,"id":"e3cb3b","name":"会津桧原","name_kana":"あいづひのはら","lat":37.491664,"lng":139.679382,"prefecture":7,"lines":[11227],"attr":"heat","postal_code":"969-7513","address":"大沼郡三島町大字桧原","next":[1122716,1122713,1122714,1122611],"voronoi":{"lat":37.534168,"lng":139.641695,"delta_lat":[0,-89721,70865,26651],"delta_lng":[0,53906,-10096,-21559]},"impl":true},
    {"code":1122720,"left":1122722,"right":1122716,"id":"74982e","name":"会津中川","name_kana":"あいづなかがわ","lat":37.473785,"lng":139.532135,"prefecture":7,"lines":[11227],"attr":"cool","postal_code":"968-0006","address":"大沼郡金山町大字中川","next":[1122719,1122722,1122616,1122617,1122721],"voronoi":{"lat":37.476714,"lng":139.500282,"delta_lat":[0,80632,23375,5357,-133531],"delta_lng":[0,-70249,58957,22652,43148]},"impl":true},
    {"code":1122722,"left":1122723,"right":1122721,"id":"430000","name":"本名","name_kana":"ほんな","lat":37.44476,"lng":139.49882,"prefecture":7,"lines":[11227],"attr":"cool","postal_code":"968-0016","address":"大沼郡金山町大字本名","next":[1122721,1122720,1122617,1122726,1122724,1122723,1122725],"voronoi":{"lat":37.534221,"lng":139.386007,"delta_lat":[0,12810,10316,-80632,-88649,60097,20129],"delta_lng":[0,-4560,48585,70249,36551,-94137,-16753]},"impl":true},
    {"code":1122723,"left":1122724,"id":"db25eb","name":"会津越川","name_kana":"あいづこすがわ","lat":37.398684,"lng":139.469405,"prefecture":7,"lines":[11227],"attr":"cool","postal_code":"968-0321","address":"大沼郡金山町大字越川","next":[1122724,9921618,9921617,9921621,9921620,1122722,1122718,1122721],"voronoi":{"lat":37.388066,"lng":139.536832,"delta_lat":[0,60097,-274655,7648,50155,32762,28697,49392],"delta_lng":[0,-94137,51825,10013,55518,30418,22260,-28342]},"impl":true},
    {"code":1122724,"id":"2452b8","name":"会津横田","name_kana":"あいづよこた","lat":37.392353,"lng":139.435853,"prefecture":7,"lines":[11227],"attr":"cool","postal_code":"968-0322","address":"大沼郡金山町大字横田","next":[1122723,1122725,9921621,1122722,1122728],"voronoi":{"lat":37.238778,"lng":139.421414,"delta_lat":[0,229514,-20129,-274655,-34276],"delta_lng":[0,4528,16753,51825,-38479]},"impl":true},
    {"code":1122721,"id":"efaf58","name":"会津川口","name_kana":"あいづかわぐち","lat":37.455076,"lng":139.52384,"prefecture":7,"lines":[11227],"attr":"cool","postal_code":"968-0011","address":"大沼郡金山町大字川口字森ノ上","next":[1122722,1122719,1122718,1122723,1122720],"voronoi":{"lat":37.476714,"lng":139.500282,"delta_lat":[0,-88649,-45904,99256,11130],"delta_lng":[0,36551,47555,-21166,-8432]},"impl":true},
    {"code":1122716,"left":1122717,"right":1122719,"id":"26aa8a","name":"会津西方","name_kana":"あいづにしかた","lat":37.480937,"lng":139.661528,"prefecture":7,"lines":[11227],"attr":"heat","postal_code":"969-7402","address":"大沼郡三島町大字名入字根岸居平","next":[1122718,1122611,1122714,1122715,1122717],"voronoi":{"lat":37.444446,"lng":139.695602,"delta_lat":[0,89721,-3544,-2481,-147800],"delta_lng":[0,-53906,-23052,401,100077]},"impl":true},
    {"code":1122717,"left":1122718,"id":"47f225","name":"会津宮下","name_kana":"あいづみやした","lat":37.471169,"lng":139.647102,"prefecture":7,"lines":[11227],"attr":"cool","postal_code":"969-7511","address":"大沼郡三島町大字宮下字田中","next":[1122714,9921616,1122718,9921617,1122716],"voronoi":{"lat":37.348165,"lng":139.733757,"delta_lat":[0,-40495,-8640,229113,-147800],"delta_lng":[0,-85308,-24197,-5208,100077]},"impl":true},
    {"code":1122718,"id":"667691","name":"早戸","name_kana":"はやと","lat":37.469953,"lng":139.593605,"prefecture":7,"lines":[11227],"attr":"cool","postal_code":"969-7406","address":"大沼郡三島町大字早戸字小津巻","next":[1122716,9921617,1122611,1122719,1122717,1122721,1122723],"voronoi":{"lat":37.342161,"lng":139.584387,"delta_lat":[0,99256,96410,-7204,-2481,-229113,-6260],"delta_lng":[0,-21166,38341,17081,401,5208,-11523]},"impl":true},
    {"code":1122719,"id":"c467df","name":"会津水沼","name_kana":"あいづみずぬま","lat":37.483026,"lng":139.560733,"prefecture":7,"lines":[11227],"attr":"cool","postal_code":"968-0001","address":"大沼郡金山町大字水沼字桑畑","next":[1122616,1122720,1122721,1122718,1122612,1122611,1122614],"voronoi":{"lat":37.579308,"lng":139.548222,"delta_lat":[0,-41481,-96410,11130,133531,168,-2117],"delta_lng":[0,53340,-38341,-8432,-43148,441,26777]},"impl":true},
    {"code":1122613,"left":1122616,"right":1122610,"id":"b2029b","name":"徳沢","name_kana":"とくさわ","lat":37.666876,"lng":139.602879,"prefecture":7,"lines":[11226],"attr":"cool","postal_code":"969-4511","address":"耶麻郡西会津町大字群岡字徳沢","next":[1121914,1122608,1122612,1121916,1122614,1122609,1021204],"voronoi":{"lat":37.725707,"lng":139.696981,"delta_lat":[0,-31010,-100306,264429,-219,-7626,-46616],"delta_lng":[0,-12811,-135409,136196,1445,16257,7610]},"impl":true},
    {"code":1122616,"left":1122614,"right":1122615,"id":"587766","name":"鹿瀬","name_kana":"かのせ","lat":37.695656,"lng":139.479663,"prefecture":15,"lines":[11226],"attr":"cool","postal_code":"959-4301","address":"東蒲原郡阿賀町向鹿瀬","next":[1122719,1121407,1122618,1122614,1122617,1122720,1122615],"voronoi":{"lat":37.860503,"lng":139.477276,"delta_lat":[0,-16480,-57153,-206149,5357,168,46590],"delta_lng":[0,-28341,-7389,47444,22652,441,7284]},"impl":true},
    {"code":1122614,"left":1122617,"id":"fc6e78","name":"豊実","name_kana":"とよみ","lat":37.680541,"lng":139.576348,"prefecture":15,"lines":[11226],"attr":"cool","postal_code":"959-4304","address":"東蒲原郡阿賀町豊実","next":[1122615,1122616,1122612,1121916,1122613,1122719],"voronoi":{"lat":37.586247,"lng":139.512083,"delta_lat":[0,46590,232235,-6251,-264429,-10262],"delta_lng":[0,7284,137916,27674,-136196,-9901]},"impl":true},
    {"code":1122617,"id":"46dc15","name":"津川","name_kana":"つがわ","lat":37.68817,"lng":139.447136,"prefecture":15,"lines":[11226],"attr":"cool","postal_code":"959-4400","address":"東蒲原郡阿賀町","next":[1122618,1122722,1122616,1122720,1122726],"voronoi":{"lat":37.550913,"lng":139.369019,"delta_lat":[0,235957,-206149,-23375,-10316],"delta_lng":[0,72526,47444,-58957,-48585]},"impl":true},
    {"code":1122615,"id":"2420ca","name":"日出谷","name_kana":"ひでや","lat":37.705699,"lng":139.533985,"prefecture":15,"lines":[11226],"attr":"cool","postal_code":"959-4303","address":"東蒲原郡阿賀町日出谷","next":[1122614,1121408,1121917,1122616,1121916,1121407],"voronoi":{"lat":37.860503,"lng":139.477276,"delta_lat":[0,-227667,232235,12221,21346,-35203],"delta_lng":[0,42091,137916,-34038,-88135,-54317]},"impl":true},
    {"code":1122610,"left":1122611,"right":1122612,"id":"665e46","name":"尾登","name_kana":"おのぼり","lat":37.609024,"lng":139.691542,"prefecture":7,"lines":[11226],"attr":"eco","postal_code":"969-4401","address":"耶麻郡西会津町登世島","next":[1122712,1122611,1122609,1122612],"voronoi":{"lat":37.615196,"lng":139.662196,"delta_lat":[0,-52851,15659,116150],"delta_lng":[0,20416,34139,-32627]},"impl":true},
    {"code":1122611,"id":"4b876a","name":"野沢","name_kana":"のざわ","lat":37.590898,"lng":139.64462,"prefecture":7,"lines":[11226],"attr":"cool","postal_code":"969-4406","address":"耶麻郡西会津町野沢","next":[1122612,1122716,1122713,1122712,1122718,1122610,1122715,1122719],"voronoi":{"lat":37.579308,"lng":139.548222,"delta_lat":[0,35888,-52851,-9551,-10832,-7795,-3544,7204],"delta_lng":[0,113973,20416,-6299,-12366,-22251,-23052,-17081]},"impl":true},
    {"code":1122612,"id":"521e44","name":"上野尻","name_kana":"かみのじり","lat":37.625041,"lng":139.633869,"prefecture":7,"lines":[11226],"attr":"cool","postal_code":"969-4512","address":"耶麻郡西会津町上野尻","next":[1122611,1122609,1122614,1122613,1122719,1122610],"voronoi":{"lat":37.694698,"lng":139.68417,"delta_lat":[0,-100306,-10262,-4821,35888,78958],"delta_lng":[0,-135409,-9901,9363,113973,21928]},"impl":true},
    {"code":1140607,"left":1140440,"right":1121916,"id":"f45100","name":"黒山","name_kana":"くろやま","lat":37.937128,"lng":139.241177,"prefecture":15,"lines":[11406],"attr":"cool","postal_code":"950-3313","address":"新潟市北区太田","next":[1140605,1140608,1140606,1140604,1121405],"voronoi":{"lat":38.169017,"lng":139.15745,"delta_lat":[0,-114520,-83909,-65594,14326],"delta_lng":[0,20306,21360,45143,21868]},"impl":true},
    {"code":1140440,"left":1121401,"right":1140602,"id":"4d7e85","name":"亀田","name_kana":"かめだ","lat":37.877154,"lng":139.108065,"prefecture":15,"lines":[11404],"attr":"eco","postal_code":"950-0163","address":"新潟市江南区東船場１丁目","next":[1140441,1121402,1140602,1140603,1140604,1140439,100512],"voronoi":{"lat":37.89291,"lng":139.111087,"delta_lat":[0,-280,-15788,-8151,-10123,-7858,6292],"delta_lng":[0,14286,28561,7316,-8578,-100981,4685]},"impl":true},
    {"code":1121401,"left":1140438,"right":1121402,"id":"6a2a43","name":"新津","name_kana":"にいつ","lat":37.800383,"lng":139.121445,"prefecture":15,"lines":[11214,11226,11404],"attr":"cool","postal_code":"956-0864","address":"新潟市秋葉区新津本町１丁目","next":[1140436,1122627,1140438],"voronoi":{"lat":37.795245,"lng":139.084352,"delta_lat":[0,-11078,30411],"delta_lng":[0,42635,17363]},"impl":true},
    {"code":1140438,"left":1140436,"right":1140439,"id":"dbe9b4","name":"さつき野","name_kana":"さつきの","lat":37.812731,"lng":139.117466,"prefecture":15,"lines":[11404],"attr":"eco","postal_code":"956-0861","address":"新潟市秋葉区北上","next":[1121401,1140435,1140436,1140439,1122627,1121402],"voronoi":{"lat":37.832346,"lng":139.146516,"delta_lat":[0,-29997,-4994,-2109,19333,3473],"delta_lng":[0,-103060,14622,26274,59998,3313]},"impl":true},
    {"code":1140436,"left":1140435,"id":"595276","name":"古津","name_kana":"ふるつ","lat":37.7727,"lng":139.114252,"prefecture":15,"lines":[11404],"attr":"eco","postal_code":"956-0835","address":"新潟市秋葉区朝日","next":[1121401,1122625,1140435,1140438,1122627,1122626],"voronoi":{"lat":37.747248,"lng":139.136171,"delta_lat":[0,-7933,58040,-2109,-11078,-21126],"delta_lng":[0,-3704,-74390,26274,42635,10692]},"impl":true},
    {"code":1140435,"id":"a8734c","name":"矢代田","name_kana":"やしろだ","lat":37.748863,"lng":139.095654,"prefecture":15,"lines":[11404],"attr":"eco","postal_code":"956-0113","address":"新潟市秋葉区矢代田","next":[1140434,1140438,1140826,1122624,1140439,1140436,1122625,1140827],"voronoi":{"lat":37.788888,"lng":139.007886,"delta_lat":[0,-260,-86947,3960,33674,58040,4994,3308],"delta_lng":[0,-222,123176,683,944,-74390,-14622,-17655]},"impl":true},
    {"code":1140439,"id":"25f2b4","name":"荻川","name_kana":"おぎかわ","lat":37.833307,"lng":139.111477,"prefecture":15,"lines":[11404],"attr":"eco","postal_code":"956-0805","address":"新潟市秋葉区中野３丁目","next":[1140827,1121402,1140440,1140830,1140435,1140828,1140438,100512],"voronoi":{"lat":37.858569,"lng":139.152671,"delta_lat":[0,-26223,-29997,3308,3864,32087,5753,3350],"delta_lng":[0,-6156,-103060,-17655,1285,15035,4340,5230]},"impl":true},
    {"code":1121402,"left":1122626,"right":1121403,"id":"e7d60b","name":"京ヶ瀬","name_kana":"きょうがせ","lat":37.817616,"lng":139.178322,"prefecture":15,"lines":[11214],"attr":"cool","postal_code":"959-2134","address":"新潟県阿賀野市小河原453","next":[1140439,1140440,1140604,1122623,1122627,1121403,1140605,1122626,1140438],"voronoi":{"lat":37.832346,"lng":139.146516,"delta_lat":[0,26223,10123,642,18,-86222,-3613,13734,24801],"delta_lng":[0,6156,8578,3404,12424,42310,-7202,-43006,-21517]},"impl":true},
    {"code":1122626,"left":1122627,"id":"bbefe8","name":"新関","name_kana":"しんせき","lat":37.768096,"lng":139.162508,"prefecture":15,"lines":[11226],"attr":"eco","postal_code":"956-0827","address":"新潟市秋葉区大関","next":[1122627,1122625,1121402,1122623,1140436],"voronoi":{"lat":37.79325,"lng":139.16918,"delta_lat":[0,-13734,-8200,-24069,15794],"delta_lng":[0,43006,-5264,-70750,1507]},"impl":true},
    {"code":1122627,"id":"7710fa","name":"東新津","name_kana":"ひがしにいつ","lat":37.787638,"lng":139.143768,"prefecture":15,"lines":[11226],"attr":"eco","postal_code":"956-0854","address":"新潟市秋葉区滝谷町","next":[1121401,1122626,1121402,1140436,1140438],"voronoi":{"lat":37.79325,"lng":139.16918,"delta_lat":[0,-30209,21126,30411,3473],"delta_lng":[0,-31501,-10692,17363,3313]},"impl":true},
    {"code":1121403,"id":"3032ff","name":"水原","name_kana":"すいばら","lat":37.836712,"lng":139.217237,"prefecture":15,"lines":[11214],"attr":"cool","postal_code":"959-2002","address":"阿賀野市下条","next":[1121404,1140605,1140606,1121402,1122622,1122623],"voronoi":{"lat":37.78313,"lng":139.219387,"delta_lat":[0,86222,8188,222,-74853,-19212],"delta_lng":[0,-42310,17686,9706,70545,-44063]},"impl":true},
    {"code":1140602,"left":1140831,"right":1140605,"id":"6e5987","name":"東新潟","name_kana":"ひがしにいがた","lat":37.908773,"lng":139.108685,"prefecture":15,"lines":[11406],"attr":"eco","postal_code":"950-0824","address":"新潟市東区中島","next":[1140441,1140440,1140603,100512],"voronoi":{"lat":37.920339,"lng":139.0855,"delta_lat":[0,-27428,-280,104430],"delta_lng":[0,25587,14286,-34215]},"impl":true},
    {"code":1140831,"left":1140441,"right":100512,"id":"513125","name":"白山(新潟)","original_name":"白山","name_kana":"はくさん","lat":37.911829,"lng":139.029955,"prefecture":15,"lines":[11408],"attr":"heat","postal_code":"951-8131","address":"新潟市中央区白山浦２丁目","next":[1121419,1140830,1121418,100512,1121417],"voronoi":{"lat":37.847888,"lng":139.046388,"delta_lat":[0,749354,-15023,-158779,-100952],"delta_lng":[0,-293028,17072,171533,97208]},"impl":true},
    {"code":1140441,"left":1140830,"id":"464079","name":"越後石山","name_kana":"えちごいしやま","lat":37.896407,"lng":139.095429,"prefecture":15,"lines":[11404],"attr":"eco","postal_code":"950-0852","address":"新潟市東区石山","next":[1140440,1140602,100512],"voronoi":{"lat":37.857003,"lng":139.056375,"delta_lat":[0,35908,27428],"delta_lng":[0,54711,-25587]},"impl":true},
    {"code":1140830,"id":"4776c5","name":"関屋(新潟)","original_name":"関屋","name_kana":"せきや","lat":37.906015,"lng":139.015087,"prefecture":15,"lines":[11408],"attr":"heat","postal_code":"951-8142","address":"新潟市中央区関屋大川前２丁目","next":[100512,1140831,1140829,1121419,1140439,1140828],"voronoi":{"lat":37.855949,"lng":139.032193,"delta_lat":[0,926531,-185238,-749354,-528,-5753],"delta_lng":[0,-484816,205982,293028,73,-4340]},"impl":true},
    {"code":100512,"id":"503058","name":"新潟","name_kana":"にいがた","lat":37.912299,"lng":139.060869,"prefecture":15,"lines":[1005,11404,11406,11408],"attr":"eco","postal_code":"950-0086","address":"新潟市中央区花園１丁目","next":[1140830,1121417,1140831,1140603,1140602,1140604,1140441,1140440,1140439],"voronoi":{"lat":37.857003,"lng":139.056375,"delta_lat":[0,63336,76722,179465,115631,30332,-474600,-528,3350],"delta_lng":[0,29124,5658,-8446,-12048,-31491,7215,73,5230]},"impl":true},
    {"code":1140605,"left":1140606,"right":1140604,"id":"2c59e4","name":"早通","name_kana":"はやどおり","lat":37.92109,"lng":139.178173,"prefecture":15,"lines":[11406],"attr":"cool","postal_code":"950-3372","address":"新潟市北区早通","next":[1121403,1140607,1140604,1121402,1140606],"voronoi":{"lat":38.054498,"lng":139.177757,"delta_lat":[0,-185164,18,8188,93049],"delta_lng":[0,-13103,12424,17686,4353]},"impl":true},
    {"code":1140606,"left":1140603,"id":"c9428b","name":"豊栄","name_kana":"とよさか","lat":37.919351,"lng":139.215347,"prefecture":15,"lines":[11406],"attr":"cool","postal_code":"950-3325","address":"新潟市北区白新町１丁目","next":[1121405,1121403,1140607,1140605,1121404],"voronoi":{"lat":37.904994,"lng":139.24426,"delta_lat":[0,65594,-93049,222,18084],"delta_lng":[0,-45143,-4353,9706,34985]},"impl":true},
    {"code":1140603,"id":"6b8cc9","name":"大形","name_kana":"おおがた","lat":37.915518,"lng":139.129272,"prefecture":15,"lines":[11406],"attr":"eco","postal_code":"950-0821","address":"新潟市東区岡山","next":[1140440,1140602,1140604,100512],"voronoi":{"lat":37.89263,"lng":139.125372,"delta_lat":[0,-15788,299683,-179465],"delta_lng":[0,28561,-71222,8446]},"impl":true},
    {"code":1140604,"id":"70f8b0","name":"新崎","name_kana":"にいざき","lat":37.922478,"lng":139.158558,"prefecture":15,"lines":[11406],"attr":"cool","postal_code":"950-3134","address":"新潟市北区新崎１丁目","next":[1140605,1121402,1140440,1140607,1140603,100512,1121416,1121417,1140608],"voronoi":{"lat":38.233027,"lng":139.141819,"delta_lat":[0,58601,529,-115631,-299683,-8151,642,185164,114520],"delta_lng":[0,-70440,-716,12048,71222,7316,3404,13103,-20306]},"impl":true},
    {"code":1121916,"left":1140609,"right":1121415,"id":"b8b640","name":"越後金丸","name_kana":"えちごかなまる","lat":38.066474,"lng":139.663521,"prefecture":15,"lines":[11219],"attr":"cool","postal_code":"959-3228","address":"岩船郡関川村大字金丸","next":[1121415,1121417,1121917,1122614,1122613,1121914,1121418,1121420,1122615,1121915],"voronoi":{"lat":37.928019,"lng":139.698919,"delta_lat":[0,-69418,219,6251,12221,397427,24870,9637,5839,8475],"delta_lng":[0,-12517,-1445,-27674,-34038,40950,19052,11264,8806,18663]},"impl":true},
    {"code":1140609,"left":1121406,"right":1121409,"id":"5eaeec","name":"西新発田","name_kana":"にししばた","lat":37.942097,"lng":139.303474,"prefecture":15,"lines":[11406],"attr":"heat","postal_code":"957-0062","address":"新発田市富塚町１丁目","next":[1121406,1121407,1121408,1140608],"voronoi":{"lat":37.927687,"lng":139.282627,"delta_lat":[0,-991,55266,25644],"delta_lng":[0,37751,-3525,-15982]},"impl":true},
    {"code":1121406,"left":1121405,"right":1140608,"id":"5c46f2","name":"中浦","name_kana":"なかうら","lat":37.912202,"lng":139.302689,"prefecture":15,"lines":[11214],"attr":"cool","postal_code":"959-2331","address":"新発田市大字下飯塚","next":[1121407,1121405,1140609,1122618,1140608,1122620],"voronoi":{"lat":37.82787,"lng":139.342786,"delta_lat":[0,91736,8081,-991,-90468,-1546],"delta_lng":[0,-69462,9303,37751,88848,-4000]},"impl":true},
    {"code":1121405,"left":1121404,"id":"929311","name":"月岡(新潟)","original_name":"月岡","name_kana":"つきおか","lat":37.889334,"lng":139.272488,"prefecture":15,"lines":[11214],"attr":"cool","postal_code":"959-2335","address":"新発田市大字本田字中谷内","next":[1121406,1140606,1122620,1140608,1121404,1140607],"voronoi":{"lat":37.919605,"lng":139.273325,"delta_lat":[0,-91736,-9356,77332,9149,14326],"delta_lng":[0,69462,-28918,-74414,4805,21868]},"impl":true},
    {"code":1121404,"id":"ce0b41","name":"神山","name_kana":"かみやま","lat":37.862586,"lng":139.244691,"prefecture":15,"lines":[11214],"attr":"cool","postal_code":"959-1968","address":"阿賀野市榎船渡","next":[1121403,1121405,1122622,1122620,1122621,1140606],"voronoi":{"lat":37.877761,"lng":139.20447,"delta_lat":[0,-74853,804,7410,7391,77332],"delta_lng":[0,70545,6369,20437,12048,-74414]},"impl":true},
    {"code":1140608,"id":"e29da5","name":"佐々木","name_kana":"ささき","lat":37.949716,"lng":139.270099,"prefecture":15,"lines":[11406],"attr":"cool","postal_code":"957-0081","address":"新発田市上中沢","next":[1121408,1140607,1121405,1121409,1121406,1121410,1121416,1140609,1140604],"voronoi":{"lat":38.233027,"lng":139.141819,"delta_lat":[0,-9342,-90308,-98519,-27252,-79919,-8081,-285,249697],"delta_lng":[0,16770,70597,63459,8226,-18244,-9303,-7197,-108677]},"impl":true},
    {"code":1121409,"left":1121408,"right":1121410,"id":"5fc9cd","name":"金塚","name_kana":"かなづか","lat":38.020178,"lng":139.37949,"prefecture":15,"lines":[11214],"attr":"cool","postal_code":"959-2477","address":"新発田市下小中山","next":[1121410,1121918,1121919,1140608,1121408],"voronoi":{"lat":38.034858,"lng":139.292645,"delta_lat":[0,98519,-170364,-5147,-31694],"delta_lng":[0,-63459,275248,2951,12264]},"impl":true},
    {"code":1121408,"left":1121407,"id":"9ca017","name":"加治","name_kana":"かじ","lat":37.976411,"lng":139.358535,"prefecture":15,"lines":[11214],"attr":"cool","postal_code":"959-2451","address":"新発田市下中","next":[1121917,1122615,1140608,1121407,1121409,1121918,1140609],"voronoi":{"lat":38.007606,"lng":139.300872,"delta_lat":[0,27252,-108686,-27209,-324,-35203,118526],"delta_lng":[0,-8226,227004,15344,116,-54317,-163939]},"impl":true},
    {"code":1121407,"id":"b3cded","name":"新発田","name_kana":"しばた","lat":37.94412,"lng":139.335189,"prefecture":15,"lines":[11214,11406],"attr":"cool","postal_code":"957-0055","address":"新発田市諏訪町１丁目","next":[1121406,1122616,1122618,1140609,1121408,1122615],"voronoi":{"lat":37.981962,"lng":139.316853,"delta_lat":[0,-55266,-90468,7796,16480,2932],"delta_lng":[0,3525,88848,39708,28341,3517]},"impl":true},
    {"code":1121410,"id":"4667ae","name":"中条","name_kana":"なかじょう","lat":38.049342,"lng":139.397541,"prefecture":15,"lines":[11214],"attr":"cool","postal_code":"959-2631","address":"胎内市表町","next":[1121411,1121409,1121416,1121919,1140608],"voronoi":{"lat":38.223685,"lng":139.158589,"delta_lat":[0,-10344,-184870,-65458,170364],"delta_lng":[0,43926,274590,27329,-275248]},"impl":true},
    {"code":1121415,"left":1121413,"right":1121918,"id":"62ecab","name":"村上(新潟)","original_name":"村上","name_kana":"むらかみ","lat":38.219851,"lng":139.463306,"prefecture":15,"lines":[11214],"attr":"heat","postal_code":"958-0854","address":"村上市大字田端町","next":[1121916,1121917,1121919,1121417,1121416,1121414,1121918],"voronoi":{"lat":38.274719,"lng":139.664194,"delta_lat":[0,24870,-3296,-81215,-23376,485,62191],"delta_lng":[0,19052,-23660,-330569,231574,1061,83472]},"impl":true},
    {"code":1121413,"left":1121412,"right":1121414,"id":"b33f8a","name":"平林(新潟)","original_name":"平林","name_kana":"ひらばやし","lat":38.150027,"lng":139.459045,"prefecture":15,"lines":[11214],"attr":"heat","postal_code":"959-3435","address":"村上市宿田","next":[1121414,1121919,1121412],"voronoi":{"lat":38.168316,"lng":139.374061,"delta_lat":[0,-2661,-45003],"delta_lng":[0,149242,-38265]},"impl":true},
    {"code":1121412,"left":1121411,"id":"aa8ef4","name":"坂町","name_kana":"さかまち","lat":38.119277,"lng":139.445838,"prefecture":15,"lines":[11214,11219],"attr":"heat","postal_code":"959-3132","address":"村上市坂町","next":[1121919,1121411,1121414,1121413],"voronoi":{"lat":38.168316,"lng":139.374061,"delta_lat":[0,6856,-95221,40701],"delta_lng":[0,-31928,131907,10998]},"impl":true},
    {"code":1121411,"id":"054bb9","name":"平木田","name_kana":"ひらきだ","lat":38.094338,"lng":139.427835,"prefecture":15,"lines":[11214],"attr":"cool","postal_code":"959-2614","address":"胎内市平木田","next":[1121410,1121414,1121412,1121919,1121416],"voronoi":{"lat":38.213341,"lng":139.202515,"delta_lat":[0,-184870,51481,95221,31880],"delta_lng":[0,274590,-3066,-131907,-89428]},"impl":true},
    {"code":1121414,"id":"797c31","name":"岩船町","name_kana":"いわふねまち","lat":38.183564,"lng":139.459643,"prefecture":15,"lines":[11214],"attr":"heat","postal_code":"959-3446","address":"村上市小口川","next":[1121416,1121411,1121413,1121919,1121412,1121415],"voronoi":{"lat":38.165655,"lng":139.523302,"delta_lat":[0,2661,6856,31880,8026,-23376],"delta_lng":[0,-149242,-31928,-89428,76313,231574]},"impl":true},
    {"code":1121918,"left":1121917,"right":1121919,"id":"20a6ec","name":"越後下関","name_kana":"えちごしもせき","lat":38.090037,"lng":139.560024,"prefecture":15,"lines":[11219],"attr":"heat","postal_code":"959-3265","address":"岩船郡関川村大字下関","next":[1121409,1121917,1121919,1121408,1121415],"voronoi":{"lat":38.192187,"lng":139.561652,"delta_lat":[0,-234322,-31694,-27209,355416],"delta_lng":[0,-54267,12264,15344,110131]},"impl":true},
    {"code":1121917,"id":"0ea2ca","name":"越後片貝","name_kana":"えちごかたかい","lat":38.070712,"lng":139.62239,"prefecture":15,"lines":[11219],"attr":"cool","postal_code":"959-3226","address":"岩船郡関川村大字片貝","next":[1121408,1122615,1121415,1121918,1121916],"voronoi":{"lat":38.254378,"lng":139.645125,"delta_lat":[0,-355416,-324,-21346,397427],"delta_lng":[0,-110131,116,88135,40950]},"impl":true},
    {"code":1121919,"id":"ef3a5d","name":"越後大島","name_kana":"えちごおおしま","lat":38.099721,"lng":139.518209,"prefecture":15,"lines":[11219],"attr":"heat","postal_code":"959-3241","address":"岩船郡関川村大字大島","next":[1121412,1121410,1121415,1121918,1121413,1121409,1121414,1121411],"voronoi":{"lat":38.079952,"lng":139.474039,"delta_lat":[0,40701,45003,26047,485,-234322,5147,65458],"delta_lng":[0,10998,38265,37289,1061,-54267,-2951,-27329]},"impl":true}
  ]
}