{
  "name":"segment36",
  "root":1130319,
  "east":139.617796,
  "west":138.945467,
  "south":35.436923,
  "north":35.653997,
  "station_size":155,
  "node_list":[
    {"code":1130319,"left":2400211,"right":2600317,"id":"382e37","name":"南多摩","name_kana":"みなみたま","lat":35.649249,"lng":139.489781,"prefecture":13,"lines":[11303],"attr":"heat","postal_code":"206-0801","address":"稲城市大丸","next":[2201205,2400206,2400205,2201206,1130318,1130320,2400126],"voronoi":{"lat":35.650134,"lng":139.473825,"delta_lat":[0,3457,-4412,-6888,-9274,8064,7534],"delta_lng":[0,20329,3099,-2678,-11429,-13718,2412]},"impl":true},
    {"code":2400211,"left":2900116,"right":2400132,"id":"29914f","name":"多摩境","name_kana":"たまさかい","lat":35.601826,"lng":139.366987,"prefecture":13,"lines":[24002],"attr":"eco","postal_code":"194-0212","address":"町田市小山町２７１８-１","next":[2400132,1130918,1130619,1130617,2400210,2400133,1130616,1130615],"voronoi":{"lat":35.590001,"lng":139.361392,"delta_lat":[0,2595,22034,4340,2566,509,79,-27339],"delta_lng":[0,-3830,-6738,628,3769,1735,2873,26189]},"impl":true},
    {"code":2900116,"left":1130914,"right":2600324,"id":"abd789","name":"さがみ野","name_kana":"さがみの","lat":35.471485,"lng":139.429055,"prefecture":14,"lines":[29001],"attr":"heat","postal_code":"243-0401","address":"海老名市東柏ケ谷２-３０-２８","next":[2900117,2500204,2500130,2500205,2900115],"voronoi":{"lat":35.485875,"lng":139.435514,"delta_lat":[0,6103,-7858,-44464,45564],"delta_lng":[0,-7814,-10635,15966,3064]},"impl":true},
    {"code":1130914,"left":1130912,"right":1130615,"id":"bc4190","name":"下溝","name_kana":"しもみぞ","lat":35.518516,"lng":139.380428,"prefecture":14,"lines":[11309],"attr":"heat","postal_code":"252-0335","address":"相模原市南区下溝1364","next":[2500129,2500134,1130913,1130915,2500130,1130612],"voronoi":{"lat":35.535299,"lng":139.401715,"delta_lat":[0,-43889,-1045,17649,11474,14604],"delta_lng":[0,-90511,5122,77532,7855,1172]},"impl":true},
    {"code":1130912,"left":1130911,"right":2500130,"id":"30f888","name":"入谷(神奈川)","original_name":"入谷","name_kana":"いりや","lat":35.478478,"lng":139.391913,"prefecture":14,"lines":[11309],"attr":"heat","postal_code":"252-0029","address":"神奈川県座間市入谷西五丁目45番1号","next":[1130910,2500131,2500134,1130911,1130913],"voronoi":{"lat":35.473262,"lng":139.35777,"delta_lat":[0,-3552,-495,-3867,22017],"delta_lng":[0,5029,1294,36188,-6713]},"impl":true},
    {"code":1130911,"left":1130910,"right":1130913,"id":"b54559","name":"海老名","name_kana":"えびな","lat":35.454282,"lng":139.389328,"prefecture":14,"lines":[11309,25001,29001],"attr":"cool","postal_code":"243-0434","address":"海老名市上郷","next":[1130910,1130912,2500131,2900117,1130909],"voronoi":{"lat":35.46533,"lng":139.400326,"delta_lat":[0,18,3867,-38465,-6268],"delta_lng":[0,-46,-36188,37871,17556]},"impl":true},
    {"code":1130910,"left":2500134,"id":"41dc80","name":"厚木","name_kana":"あつぎ","lat":35.44375,"lng":139.378631,"prefecture":14,"lines":[11309,25001],"attr":"cool","postal_code":"243-0433","address":"海老名市河原口","next":[2500134,1130912,1130911,1130909],"voronoi":{"lat":35.469214,"lng":139.364093,"delta_lat":[0,495,-37348,-1612],"delta_lng":[0,-1294,11467,27698]},"impl":true},
    {"code":2500134,"id":"4d4c3b","name":"本厚木","name_kana":"ほんあつぎ","lat":35.439338,"lng":139.364261,"prefecture":14,"lines":[25001],"attr":"cool","postal_code":"243-0013","address":"厚木市泉町１丁目","next":[1130910,2500135,1130912,1130914,1130915,1130909,1130913,1130916],"voronoi":{"lat":35.491411,"lng":139.311205,"delta_lat":[0,-1045,-17104,-3552,-37348,-9626,68703,269],"delta_lng":[0,5122,41443,5029,11467,-13896,-73954,22396]},"impl":true},
    {"code":1130913,"id":"f38b6f","name":"相武台下","name_kana":"そうぶだいした","lat":35.492734,"lng":139.386297,"prefecture":14,"lines":[11309],"attr":"heat","postal_code":"252-0326","address":"相模原市南区新戸1940","next":[2500131,2500134,1130914,1130912,2500130],"voronoi":{"lat":35.508014,"lng":139.393859,"delta_lat":[0,-17649,-17104,14103,5487],"delta_lng":[0,-77532,41443,35798,4769]},"impl":true},
    {"code":2500130,"left":2900117,"right":2500129,"id":"f1f343","name":"相武台前","name_kana":"そうぶだいまえ","lat":35.499294,"lng":139.408509,"prefecture":14,"lines":[25001],"attr":"cool","postal_code":"252-0011","address":"神奈川県座間市相武台一丁目33番1号","next":[2500129,2900116,2500131,1130914,2500204,2900117,1130913],"voronoi":{"lat":35.508014,"lng":139.393859,"delta_lat":[0,11474,-23408,-4102,-7858,-13,8744],"delta_lng":[0,7855,26368,-382,-10635,-60,-18668]},"impl":true},
    {"code":2900117,"left":2500131,"id":"565333","name":"かしわ台","name_kana":"かしわだい","lat":35.466744,"lng":139.415851,"prefecture":14,"lines":[29001],"attr":"heat","postal_code":"243-0402","address":"海老名市柏ケ谷１０２６","next":[2900116,2900115,2500208,1130911,1130909,2500130,2500131],"voronoi":{"lat":35.484121,"lng":139.417065,"delta_lat":[0,-44464,-417,-16481,1723,40848,18778],"delta_lng":[0,15966,64,-11511,-2064,-19193,16678]},"impl":true},
    {"code":2500131,"id":"9a846f","name":"座間","name_kana":"ざま","lat":35.480913,"lng":139.399899,"prefecture":14,"lines":[25001],"attr":"cool","postal_code":"252-0028","address":"神奈川県座間市入谷東三丁目60番1号","next":[1130913,1130912,1130911,2500130,2900117],"voronoi":{"lat":35.46533,"lng":139.400326,"delta_lat":[0,18,22017,5487,-8744],"delta_lng":[0,-46,-6713,4769,18668]},"impl":true},
    {"code":2500129,"id":"58a1b0","name":"小田急相模原","name_kana":"おだきゅうさがみはら","lat":35.515134,"lng":139.422571,"prefecture":14,"lines":[25001],"attr":"cool","postal_code":"252-0314","address":"相模原市南区南台三丁目20番1号","next":[2500130,2500202,1130914,2500203,1130612,2500204,2500128],"voronoi":{"lat":35.535289,"lng":139.417208,"delta_lat":[0,-1197,-14604,-23408,368,14328,14686],"delta_lng":[0,-14323,-1172,26368,283,4703,-4868]},"impl":true},
    {"code":1130615,"left":1130918,"right":1130613,"id":"6b0b0a","name":"相模原","name_kana":"さがみはら","lat":35.58113,"lng":139.371007,"prefecture":14,"lines":[11306],"attr":"heat","postal_code":"252-0239","address":"相模原市中央区相模原一丁目1-3","next":[1130917,1130614,1130918,2400210,2400211],"voronoi":{"lat":35.590001,"lng":139.361392,"delta_lat":[0,-18966,-3831,27191,390],"delta_lng":[0,727,11460,13900,-1461]},"impl":true},
    {"code":1130918,"left":1130917,"right":1130616,"id":"173c4c","name":"南橋本","name_kana":"みなみはしもと","lat":35.58042,"lng":139.352484,"prefecture":14,"lines":[11309],"attr":"eco","postal_code":"252-0253","address":"相模原市中央区南橋本二丁目4-17","next":[1130916,2400211,1130917,1130615,1130617,1130616],"voronoi":{"lat":35.562891,"lng":139.302819,"delta_lat":[0,-26642,15809,18977,18966,2595],"delta_lng":[0,-33979,52718,40560,-727,-3830]},"impl":true},
    {"code":1130917,"left":1130916,"id":"223d9e","name":"上溝","name_kana":"かみみぞ","lat":35.557623,"lng":139.36315,"prefecture":14,"lines":[11309],"attr":"eco","postal_code":"252-0243","address":"相模原市中央区上溝七丁目19-13","next":[1130615,1130613,1130918,1130614,1130916],"voronoi":{"lat":35.552057,"lng":139.321559,"delta_lat":[0,18977,-3831,-12747,-3217],"delta_lng":[0,40560,11460,8592,1125]},"impl":true},
    {"code":1130916,"id":"a534c0","name":"番田(神奈川)","original_name":"番田","name_kana":"ばんだ","lat":35.545392,"lng":139.362988,"prefecture":14,"lines":[11309],"attr":"heat","postal_code":"252-0243","address":"相模原市中央区上溝378","next":[2500135,2400307,1130617,1130915,1130613,1130918,2500136,1130917,2500137,1131113,2500134],"voronoi":{"lat":35.549036,"lng":139.384901,"delta_lat":[0,2203,818,-15809,-1531,-17863,-13713,-3091,-5707,-2905,269],"delta_lng":[0,-1606,-61737,-52718,-3010,-16684,-5654,5960,17311,19652,22396]},"impl":true},
    {"code":1130616,"id":"d9f5cb","name":"橋本(神奈川)","original_name":"橋本","name_kana":"はしもと","lat":35.594975,"lng":139.344586,"prefecture":14,"lines":[11306,11309,24002],"attr":"heat","postal_code":"252-0143","address":"神奈川県相模原市緑区橋本六丁目1番25号","next":[1130617,2400211,1130918],"voronoi":{"lat":35.562891,"lng":139.302819,"delta_lat":[0,51739,-22034],"delta_lng":[0,48004,6738]},"impl":true},
    {"code":1130613,"left":1130612,"right":1130614,"id":"81eba8","name":"淵野辺","name_kana":"ふちのべ","lat":35.568784,"lng":139.395075,"prefecture":14,"lines":[11306],"attr":"eco","postal_code":"252-0206","address":"相模原市中央区淵野辺三丁目5-16","next":[1130612,1130916,1130917,2500308,1130915,1130614],"voronoi":{"lat":35.554456,"lng":139.382171,"delta_lat":[0,-3217,-2203,-5942,43852,6200],"delta_lng":[0,1125,1606,11994,23185,-17942]},"impl":true},
    {"code":1130612,"left":1130915,"id":"9188f3","name":"古淵","name_kana":"こぶち","lat":35.556055,"lng":139.419151,"prefecture":14,"lines":[11306],"attr":"eco","postal_code":"252-0344","address":"相模原市南区古淵二丁目19-1","next":[2500308,1130613,1130915,2500128,2500129,1130611,2500126,1130914],"voronoi":{"lat":35.535299,"lng":139.401715,"delta_lat":[0,7795,43852,2023,-24634,-18502,-10544,-1197],"delta_lng":[0,-4820,23185,16284,4138,-9837,-13457,-14323]},"impl":true},
    {"code":1130915,"id":"d517f7","name":"原当麻","name_kana":"はらたいま","lat":35.528978,"lng":139.375355,"prefecture":14,"lines":[11309],"attr":"heat","postal_code":"252-0336","address":"相模原市南区当麻1288-1","next":[1130916,1130612,2500134,1130613,1130914],"voronoi":{"lat":35.491411,"lng":139.311205,"delta_lat":[0,297,57329,-5942,-7795],"delta_lng":[0,-2393,76090,11994,4820]},"impl":true},
    {"code":1130614,"id":"c361dc","name":"矢部","name_kana":"やべ","lat":35.573275,"lng":139.386373,"prefecture":14,"lines":[11306],"attr":"heat","postal_code":"252-0232","address":"神奈川県相模原市中央区矢部三丁目","next":[1130615,1130917,1130613,2500308,2400210],"voronoi":{"lat":35.593146,"lng":139.402138,"delta_lat":[0,-38690,12747,27191,1578],"delta_lng":[0,-19968,-8592,13900,9802]},"impl":true},
    {"code":2600324,"left":2600326,"right":1130610,"id":"7e6d46","name":"すずかけ台","name_kana":"すずかけだい","lat":35.517094,"lng":139.481684,"prefecture":13,"lines":[26003],"attr":"heat","postal_code":"194-0001","address":"町田市つくし野３-１","next":[1130608,2600325,2900112,2600323,1130609,1130610,2900113],"voronoi":{"lat":35.493828,"lng":139.486072,"delta_lat":[0,29640,1657,-6524,-6145,-14407,-4034],"delta_lng":[0,-14583,3445,19758,6906,3770,-9484]},"impl":true},
    {"code":2600326,"left":2500204,"right":2900113,"id":"a716b5","name":"つきみ野","name_kana":"つきみの","lat":35.510546,"lng":139.458651,"prefecture":14,"lines":[26003],"attr":"heat","postal_code":"242-0002","address":"大和市つきみ野５-８-１","next":[2600325,2500205,2500203,2500204,1130610,1130611,2500202],"voronoi":{"lat":35.528173,"lng":139.456683,"delta_lat":[0,-3839,-28265,2475,5233,14055,9536],"delta_lng":[0,6711,2316,-6119,-7270,-2396,4821]},"impl":true},
    {"code":2500204,"left":2500205,"right":2500203,"id":"906598","name":"南林間","name_kana":"みなみりんかん","lat":35.495627,"lng":139.447911,"prefecture":14,"lines":[25002],"attr":"heat","postal_code":"242-0006","address":"大和市南林間１-６-１１","next":[2900116,2600326,2500129,2500203,2500130,2500205],"voronoi":{"lat":35.503778,"lng":139.45232,"delta_lat":[0,-7329,-368,-4102,-6103,12669],"delta_lng":[0,-23956,-283,-382,7814,24077]},"impl":true},
    {"code":2500205,"left":2900115,"id":"00d737","name":"鶴間","name_kana":"つるま","lat":35.49057,"lng":139.450572,"prefecture":14,"lines":[25002],"attr":"heat","postal_code":"242-0005","address":"大和市西鶴間１-１-１","next":[2600325,2900113,2600326,2500206,2900115,2900116,2500204],"voronoi":{"lat":35.496069,"lng":139.46571,"delta_lat":[0,-6317,-1589,-10303,7360,655,12669],"delta_lng":[0,6697,-1000,-19629,-15683,-581,24077]},"impl":true},
    {"code":2900115,"id":"cc36bf","name":"相模大塚","name_kana":"さがみおおつか","lat":35.470666,"lng":139.441232,"prefecture":14,"lines":[29001],"attr":"cool","postal_code":"242-0028","address":"大和市桜森３-１-１","next":[2500207,2500206,2900117,2500205,2900116,2500208],"voronoi":{"lat":35.457254,"lng":139.450747,"delta_lat":[0,20606,7360,-45564,-417,3559],"delta_lng":[0,1030,-15683,-3064,64,5747]},"impl":true},
    {"code":2500203,"id":"f2c7c5","name":"中央林間","name_kana":"ちゅうおうりんかん","lat":35.508066,"lng":139.444105,"prefecture":14,"lines":[25002,26003],"attr":"heat","postal_code":"242-0007","address":"大和市中央林間３-３-８","next":[2500202,2500129,2600326,2500204],"voronoi":{"lat":35.496448,"lng":139.428365,"delta_lat":[0,14328,7056,-14055],"delta_lng":[0,4703,16857,2396]},"impl":true},
    {"code":2900113,"left":2500207,"right":2600325,"id":"49140e","name":"瀬谷","name_kana":"せや","lat":35.470412,"lng":139.482574,"prefecture":14,"lines":[29001],"attr":"cool","postal_code":"246-0031","address":"横浜市瀬谷区瀬谷４-１-１","next":[2500205,2600325,2900112,2500206,2500207,2900205,2600324],"voronoi":{"lat":35.450322,"lng":139.490157,"delta_lat":[0,-905,12551,26195,1589,4076,187],"delta_lng":[0,-2951,-14851,-949,1000,13666,9812]},"impl":true},
    {"code":2500207,"left":2500206,"id":"63c8cc","name":"桜ヶ丘","name_kana":"さくらがおか","lat":35.450486,"lng":139.465734,"prefecture":14,"lines":[25002],"attr":"eco","postal_code":"242-0024","address":"神奈川県大和市福田","next":[2900115,2900113,2500206,2900205,2500208],"voronoi":{"lat":35.442798,"lng":139.438841,"delta_lat":[0,14456,4714,-12551,-8684],"delta_lng":[0,11906,21608,14851,-6218]},"impl":true},
    {"code":2500206,"id":"9f87c8","name":"大和(神奈川)","original_name":"大和","name_kana":"やまと","lat":35.46965,"lng":139.461553,"prefecture":14,"lines":[25002,29001],"attr":"eco","postal_code":"242-0016","address":"大和市大和南１-１-１","next":[2900115,2900113,2500205,2500207],"voronoi":{"lat":35.457254,"lng":139.450747,"delta_lat":[0,20606,10303,-26195],"delta_lng":[0,1030,19629,949]},"impl":true},
    {"code":2600325,"id":"734489","name":"南町田グランベリーパーク","name_kana":"みなみまちだぐらんべりーぱーく","lat":35.511502,"lng":139.470318,"prefecture":13,"lines":[26003],"attr":"heat","postal_code":"194-0004","address":"町田市鶴間３-３-２","next":[2500205,2900113,2600326,2600324,1130610],"voronoi":{"lat":35.524334,"lng":139.463394,"delta_lat":[0,-28265,-6317,4076,29640],"delta_lng":[0,2316,6697,13666,-14583]},"impl":true},
    {"code":1130610,"left":1130611,"right":2600803,"id":"6c797d","name":"成瀬","name_kana":"なるせ","lat":35.535412,"lng":139.472875,"prefecture":13,"lines":[11306],"attr":"heat","postal_code":"194-0045","address":"町田市南成瀬１丁目","next":[2500126,2600325,2600323,2600326,2600803,2600802,1130611,2600324],"voronoi":{"lat":35.523468,"lng":139.471489,"delta_lat":[0,866,3839,18953,3879,-3788,-8683,-13409],"delta_lng":[0,-8096,-6711,4578,11477,6217,4566,-8586]},"impl":true},
    {"code":1130611,"left":2500202,"right":2500126,"id":"c61325","name":"町田","name_kana":"まちだ","lat":35.542004,"lng":139.445579,"prefecture":13,"lines":[11306,25001],"attr":"heat","postal_code":"194-0013","address":"町田市原町田１丁目","next":[2500126,2500128,2600326,2500202,1130610,1130612],"voronoi":{"lat":35.547127,"lng":139.46126,"delta_lat":[0,-18953,-805,370,18095,18502],"delta_lng":[0,-4578,-1937,-1187,-22893,9837]},"impl":true},
    {"code":2500202,"left":2500128,"id":"c5b9c2","name":"東林間","name_kana":"ひがしりんかん","lat":35.520541,"lng":139.438883,"prefecture":14,"lines":[25002],"attr":"heat","postal_code":"252-0302","address":"相模原市南区上鶴間七丁目7番1号","next":[2500129,2500128,2500203,1130611,2600326],"voronoi":{"lat":35.527738,"lng":139.453559,"delta_lat":[0,-2276,-14686,7056,9536],"delta_lng":[0,-25359,4868,16857,4821]},"impl":true},
    {"code":2500128,"id":"dc69a7","name":"相模大野","name_kana":"さがみおおの","lat":35.532208,"lng":139.437836,"prefecture":14,"lines":[25001,25002],"attr":"cool","postal_code":"252-0303","address":"相模原市南区相模大野三丁目8番1号","next":[2500202,1130612,1130611,2500129],"voronoi":{"lat":35.527738,"lng":139.453559,"delta_lat":[0,18095,-10544,-9827],"delta_lng":[0,-22893,-13457,10991]},"impl":true},
    {"code":2500126,"id":"cb15d7","name":"玉川学園前","name_kana":"たまがわがくえんまえ","lat":35.563486,"lng":139.463388,"prefecture":13,"lines":[25001],"attr":"cool","postal_code":"194-0041","address":"町田市玉川学園２丁目","next":[1130611,2600803,2500304,1130610,9933401,2500308,2500305,1130612,2500125],"voronoi":{"lat":35.590194,"lng":139.454538,"delta_lat":[0,1380,103,-2363,-344,-24634,-17209,3879,18138],"delta_lng":[0,-9342,-4971,-3506,-354,4138,20758,11477,4249]},"impl":true},
    {"code":2600803,"left":2600323,"right":2500125,"id":"d23557","name":"こどもの国(神奈川)","original_name":"こどもの国","name_kana":"こどものくに","lat":35.558035,"lng":139.486657,"prefecture":14,"lines":[26008],"attr":"cool","postal_code":"227-0036","address":"横浜市青葉区奈良町宇島９９５-１","next":[2500126,2500125,2500124,2600802,1130610,2600320],"voronoi":{"lat":35.559203,"lng":139.506345,"delta_lat":[0,-11986,3788,18138,3579,-5257],"delta_lng":[0,-27390,-6217,4249,18299,15142]},"impl":true},
    {"code":2600323,"id":"391564","name":"つくし野","name_kana":"つくしの","lat":35.527559,"lng":139.485139,"prefecture":13,"lines":[26003],"attr":"eco","postal_code":"194-0001","address":"町田市つくし野４-１","next":[2600802,1130610,2600324,1130609],"voronoi":{"lat":35.525125,"lng":139.474934,"delta_lat":[0,13409,-1181,-18752],"delta_lng":[0,8586,3038,8134]},"impl":true},
    {"code":2500125,"id":"9beb6b","name":"鶴川","name_kana":"つるかわ","lat":35.583077,"lng":139.481759,"prefecture":13,"lines":[25001],"attr":"cool","postal_code":"195-0053","address":"町田市能ケ谷町","next":[2500303,2500304,2600803,2500124,2500302,2500126],"voronoi":{"lat":35.590194,"lng":139.454538,"delta_lat":[0,3877,375,-2687,-19036,-3579],"delta_lng":[0,10590,18431,3898,7829,-18299]},"impl":true},
    {"code":2400132,"left":2400307,"right":2400208,"id":"71fd1b","name":"長沼(東京)","original_name":"長沼","name_kana":"ながぬま","lat":35.642788,"lng":139.365849,"prefecture":13,"lines":[24001],"attr":"heat","postal_code":"192-0907","address":"八王子市長沼町７００","next":[2400211,2400131,1131109,1131702,2400133,2400210],"voronoi":{"lat":35.65486,"lng":139.369703,"delta_lat":[0,1482,-581,-33717,79,8621],"delta_lng":[0,-1584,-6145,-5019,2873,17726]},"impl":true},
    {"code":2400307,"left":1131115,"right":2400304,"id":"959583","name":"高尾山口","name_kana":"たかおさんぐち","lat":35.632377,"lng":139.269856,"prefecture":13,"lines":[24003],"attr":"heat","postal_code":"193-0844","address":"八王子市高尾町２２４１","next":[1130916,1131113,1131112,1131606,1131607,2400305,1130617],"voronoi":{"lat":35.624401,"lng":139.286007,"delta_lat":[0,54600,-527,-7973,-153647,17863,67578],"delta_lng":[0,-42377,-3847,-19044,28408,16684,27800]},"impl":true},
    {"code":1131115,"left":1131119,"right":1131113,"id":"f35cb3","name":"上野原","name_kana":"うえのはら","lat":35.618747,"lng":139.115787,"prefecture":19,"lines":[11311],"attr":"cool","postal_code":"409-0113","address":"上野原市新田","next":[1150506,1131607,1131525,1131116,1150507,1131524,2500140,1131114],"voronoi":{"lat":35.715319,"lng":139.131648,"delta_lat":[0,-63,-3389,-223400,-186,-346,1187,216997],"delta_lng":[0,-13078,-34311,23237,1350,11100,4233,16771]},"impl":true},
    {"code":1131119,"left":1131117,"right":1131116,"id":"4cc6b6","name":"猿橋","name_kana":"さるはし","lat":35.61288,"lng":138.968388,"prefecture":19,"lines":[11311],"attr":"cool","postal_code":"409-0617","address":"大月市猿橋町殿上","next":[1131118,9940103,9940102,1131120,9940104,1131525],"voronoi":{"lat":35.760298,"lng":138.957521,"delta_lat":[0,-166647,-1206,-11695,-18443,168699],"delta_lng":[0,-2222,141,6120,17741,22981]},"impl":true},
    {"code":1131117,"left":1131118,"id":"9a00a2","name":"梁川(山梨)","original_name":"梁川","name_kana":"やながわ","lat":35.605271,"lng":139.038076,"prefecture":19,"lines":[11311],"attr":"cool","postal_code":"409-0503","address":"大月市梁川町綱の上","next":[1150507,9940104,1150508,1131116,1131118],"voronoi":{"lat":35.490532,"lng":139.011188,"delta_lat":[0,-4633,43,1910,222289],"delta_lng":[0,1280,63510,11085,-57873]},"impl":true},
    {"code":1131118,"id":"aa6ead","name":"鳥沢","name_kana":"とりさわ","lat":35.608118,"lng":139.003345,"prefecture":19,"lines":[11311],"attr":"cool","postal_code":"409-0502","address":"大月市富浜町鳥沢","next":[9940104,1131119,1131117,1131525,1131116],"voronoi":{"lat":35.718848,"lng":139.028419,"delta_lat":[0,12158,-168699,-71776,219609],"delta_lng":[0,-26136,-22981,31887,18002]},"impl":true},
    {"code":1131116,"id":"36136e","name":"四方津","name_kana":"しおつ","lat":35.614252,"lng":139.072572,"prefecture":19,"lines":[11311],"attr":"cool","postal_code":"409-0121","address":"上野原市四方津","next":[1131115,1131117,1150507,1131525,1131118],"voronoi":{"lat":35.718848,"lng":139.028419,"delta_lat":[0,-6981,-223400,-616,222289],"delta_lng":[0,55841,23237,-20433,-57873]},"impl":true},
    {"code":1131113,"left":1130617,"right":1130618,"id":"402cd9","name":"相模湖","name_kana":"さがみこ","lat":35.617335,"lng":139.1885,"prefecture":14,"lines":[11311],"attr":"cool","postal_code":"252-0171","address":"相模原市緑区与瀬1395","next":[1131607,2400307,1131114,2500137,2500139,1130916,2500140],"voronoi":{"lat":35.495873,"lng":139.175184,"delta_lat":[0,192907,-18279,-153647,-13713,-6578,-1393],"delta_lng":[0,-7570,53125,28408,-5654,-17397,-9179]},"impl":true},
    {"code":1130617,"left":1131114,"id":"8dc800","name":"相原","name_kana":"あいはら","lat":35.60694,"lng":139.33169,"prefecture":13,"lines":[11306],"attr":"heat","postal_code":"194-0211","address":"町田市相原町","next":[1130916,1130618,1130619,2400304,1130616,2400211,1130918,2400305,2400307],"voronoi":{"lat":35.534718,"lng":139.26583,"delta_lat":[0,1531,26642,51739,4340,608,-1750,-1283,-14249],"delta_lng":[0,3010,33979,48004,628,-2096,-41028,-2022,-12675]},"impl":true},
    {"code":1131114,"id":"58dcab","name":"藤野","name_kana":"ふじの","lat":35.615918,"lng":139.15239,"prefecture":14,"lines":[11311],"attr":"cool","postal_code":"252-0184","address":"相模原市緑区小渕1698","next":[1131607,1131113,2500140,1131115],"voronoi":{"lat":35.68878,"lng":139.167614,"delta_lat":[0,-192907,-6751,216997],"delta_lng":[0,7570,-51004,16771]},"impl":true},
    {"code":1130618,"id":"59b77e","name":"八王子みなみ野","name_kana":"はちおうじみなみの","lat":35.630664,"lng":139.330678,"prefecture":13,"lines":[11306],"attr":"cool","postal_code":"192-0915","address":"八王子市宇津貫町","next":[1130617,2400304,2400302,1130619,2400303],"voronoi":{"lat":35.630387,"lng":139.315637,"delta_lat":[0,-12560,1750,17862,2303],"delta_lng":[0,-7309,41028,-15361,-4956]},"impl":true},
    {"code":2400304,"left":9934802,"right":2400303,"id":"bf6abe","name":"めじろ台","name_kana":"めじろだい","lat":35.643601,"lng":139.308446,"prefecture":13,"lines":[24003],"attr":"eco","postal_code":"193-0833","address":"八王子市めじろ台１-１００-１","next":[1130617,1130618,1131111,2400305,9934801,2400303],"voronoi":{"lat":35.648851,"lng":139.314453,"delta_lat":[0,1910,-6477,-27740,1283,12560],"delta_lng":[0,-5931,-7834,5617,2022,7309]},"impl":true},
    {"code":9934802,"left":2400305,"right":9934801,"id":"ec8861","name":"多摩御陵前","name_kana":"たまごりょうまえ","closed":true,"lat":35.650114,"lng":139.289861,"prefecture":13,"lines":[99348],"attr":"unknown","postal_code":"193-0824","address":"東京都八王子市長房町１５６２−２９","next":[9934801,1131605,1131604,1131606,2400305,1131112],"voronoi":{"lat":35.680619,"lng":139.249176,"delta_lat":[0,4037,3830,614,-41865,-3307],"delta_lng":[0,9742,15279,15191,6914,-7940]},"impl":true},
    {"code":2400305,"left":1131112,"id":"d73fcc","name":"狭間","name_kana":"はざま","lat":35.640637,"lng":139.293808,"prefecture":13,"lines":[24003],"attr":"eco","postal_code":"193-0834","address":"八王子市東浅川町７７３","next":[2400304,9934801,2400307,1130617,9934802,1131112],"voronoi":{"lat":35.647236,"lng":139.296302,"delta_lat":[0,-2951,-27740,-14249,22106,19527],"delta_lng":[0,4387,5617,-12675,-7624,2355]},"impl":true},
    {"code":1131112,"id":"873563","name":"高尾(東京)","original_name":"高尾","name_kana":"たかお","lat":35.642026,"lng":139.282288,"prefecture":13,"lines":[11311,11312,11328,24003],"attr":"eco","postal_code":"193-0844","address":"八王子市高尾町","next":[2400307,1131606,2400305,9934802],"voronoi":{"lat":35.680619,"lng":139.249176,"delta_lat":[0,-1618,-54600,19527],"delta_lng":[0,-5546,42377,2355]},"impl":true},
    {"code":9934801,"id":"9bfa5d","name":"武蔵横山","name_kana":"むさしよこやま","closed":true,"lat":35.652032,"lng":139.301475,"prefecture":13,"lines":[99348],"attr":"unknown","postal_code":"193-0831","address":"東京都八王子市並木町１３-１","next":[9934802,1131111,2400305,2400304,1131604],"voronoi":{"lat":35.6891,"lng":139.289388,"delta_lat":[0,-41865,-2951,6477,38947],"delta_lng":[0,6914,4387,7834,-16007]},"impl":true},
    {"code":2400303,"left":1130619,"right":2400133,"id":"e0ef68","name":"山田(東京)","original_name":"山田","name_kana":"やまだ","lat":35.644411,"lng":139.321082,"prefecture":13,"lines":[24003],"attr":"cool","postal_code":"193-0932","address":"八王子市緑町４３４","next":[2400302,1131111,1130620,1130618,2400304],"voronoi":{"lat":35.639742,"lng":139.329039,"delta_lat":[0,11770,5215,-7876,-18464],"delta_lng":[0,50,-3244,-11391,1183]},"impl":true},
    {"code":1130619,"left":2400302,"id":"9de637","name":"片倉","name_kana":"かたくら","lat":35.639704,"lng":139.34119,"prefecture":13,"lines":[11306],"attr":"cool","postal_code":"192-0914","address":"八王子市片倉町","next":[1130617,2400302,2400211,1130618,2400133],"voronoi":{"lat":35.647955,"lng":139.345734,"delta_lat":[0,-10515,-17862,-608,2566],"delta_lng":[0,-11740,15361,2096,3769]},"impl":true},
    {"code":2400302,"id":"536dc6","name":"京王片倉","name_kana":"けいおうかたくら","lat":35.644343,"lng":139.337035,"prefecture":13,"lines":[24003],"attr":"cool","postal_code":"192-0914","address":"八王子市片倉町３４-９","next":[2400133,2400303,1130619,1130618,1130620,2400134],"voronoi":{"lat":35.647955,"lng":139.345734,"delta_lat":[0,-10515,2303,11770,-2674,-717],"delta_lng":[0,-11740,-4956,50,15268,1377]},"impl":true},
    {"code":2400133,"id":"c5bbde","name":"北野(東京)","original_name":"北野","name_kana":"きたの","lat":35.644479,"lng":139.354489,"prefecture":13,"lines":[24001,24003],"attr":"heat","postal_code":"192-0911","address":"八王子市打越町３３５-１","next":[2400302,2400134,2400132,2400211,1130619,1131702],"voronoi":{"lat":35.657495,"lng":139.357132,"delta_lat":[0,-9373,-167,-26419,509,33717],"delta_lng":[0,-11399,1,9486,1735,5019]},"impl":true},
    {"code":2400208,"left":2500307,"right":9933402,"id":"d040c4","name":"京王多摩センター","name_kana":"けいおうたませんたー","lat":35.62518,"lng":139.42402,"prefecture":13,"lines":[24002],"attr":"heat","postal_code":"206-0033","address":"多摩市落合１-１０-２","next":[9933401,2500307,9933402],"voronoi":{"lat":35.627511,"lng":139.419803,"delta_lat":[0,-3136,5783],"delta_lng":[0,3689,5783]},"impl":true},
    {"code":2500307,"left":9933401,"right":2500305,"id":"6c2cf8","name":"小田急多摩センター","name_kana":"おだきゅうたませんたー","lat":35.624902,"lng":139.424298,"prefecture":13,"lines":[25003],"attr":"cool","postal_code":"206-0033","address":"多摩市落合１丁目","next":[9933401,9933402,2500306,2400208,2500305],"voronoi":{"lat":35.631972,"lng":139.435148,"delta_lat":[0,-1814,-5783,-22982,975],"delta_lng":[0,-5873,-5783,17858,145]},"impl":true},
    {"code":9933401,"left":2500308,"right":2400209,"id":"0d1b46","name":"多摩センター","name_kana":"たませんたー","lat":35.623724,"lng":139.422782,"prefecture":13,"lines":[99334],"attr":"eco","postal_code":"206-0033","address":"多摩市落合１-４８-１","next":[9933402,2500307,2500305,2400208,2500126,2500308],"voronoi":{"lat":35.627007,"lng":139.412899,"delta_lat":[0,503,-3136,-22982,-9716,-2363],"delta_lng":[0,6904,3689,17858,-1126,-3506]},"impl":true},
    {"code":2500308,"left":2400210,"id":"c6dbfc","name":"唐木田","name_kana":"からきだ","lat":35.616672,"lng":139.411622,"prefecture":13,"lines":[25003],"attr":"cool","postal_code":"206-0033","address":"多摩市落合","next":[9933403,1130612,2400210,9933402,1130613,1130614,2400209,2500126,9933401],"voronoi":{"lat":35.588969,"lng":139.436365,"delta_lat":[0,-2023,6200,2826,10676,20908,-487,-62,-37694],"delta_lng":[0,-16284,-17942,-4858,-863,14359,2034,89,23819]},"impl":true},
    {"code":2400210,"id":"1e7615","name":"南大沢","name_kana":"みなみおおさわ","lat":35.6141,"lng":139.3798,"prefecture":13,"lines":[24002],"attr":"eco","postal_code":"192-0364","address":"八王子市南大沢２-１-６","next":[2500308,2400131,2400209,2400211,1130615,1130614,2400132],"voronoi":{"lat":35.630719,"lng":139.384287,"delta_lat":[0,-24070,-10676,-1578,390,27339,8621],"delta_lng":[0,12131,863,-9802,-1461,-26189,17726]},"impl":true},
    {"code":2400209,"id":"5145f5","name":"京王堀之内","name_kana":"けいおうほりのうち","lat":35.624438,"lng":139.400314,"prefecture":13,"lines":[24002],"attr":"heat","postal_code":"192-0355","address":"八王子市堀之内３-２４-４","next":[9933404,2400210,9933403,2400502,2500308,2400131],"voronoi":{"lat":35.638355,"lng":139.393687,"delta_lat":[0,-6608,-4191,-20908,24070,7755],"delta_lng":[0,13861,3228,-14359,-12131,8723]},"impl":true},
    {"code":2500305,"left":2500303,"right":2400206,"id":"08712f","name":"はるひ野","name_kana":"はるひの","lat":35.618885,"lng":139.464534,"prefecture":14,"lines":[25003],"attr":"eco","postal_code":"215-0035","address":"川崎市麻生区黒川字谷ツ１０２１番１","next":[2500304,2400206,9933401,2500306,2500126,2400207,2500307],"voronoi":{"lat":35.601393,"lng":139.44135,"delta_lat":[0,-9716,-103,25399,23216,-20365,-17456],"delta_lng":[0,-1126,4971,23289,-1335,-13989,-11665]},"impl":true},
    {"code":2500303,"left":2500304,"id":"c990ed","name":"栗平","name_kana":"くりひら","lat":35.605731,"lng":139.481298,"prefecture":14,"lines":[25003],"attr":"cool","postal_code":"215-0031","address":"川崎市麻生区栗平２-１-１","next":[2500125,2400205,2400206,2500302,2500304],"voronoi":{"lat":35.59407,"lng":139.465127,"delta_lat":[0,375,24188,2813,-7091],"delta_lng":[0,18431,10978,-4483,-10582]},"impl":true},
    {"code":2500304,"id":"9d364f","name":"黒川(神奈川)","original_name":"黒川","name_kana":"くろかわ","lat":35.613203,"lng":139.470731,"prefecture":14,"lines":[25003],"attr":"eco","postal_code":"215-0034","address":"川崎市麻生区南黒川４丁目","next":[2500125,2500305,2500126,2500303,2400206],"voronoi":{"lat":35.616973,"lng":139.468484,"delta_lat":[0,-25399,-1380,3877,20285],"delta_lng":[0,-23289,9342,10590,14344]},"impl":true},
    {"code":2400206,"id":"1c1932","name":"若葉台","name_kana":"わかばだい","lat":35.619325,"lng":139.472189,"prefecture":14,"lines":[24002],"attr":"cool","postal_code":"215-0035","address":"川崎市麻生区黒川６０９","next":[1130319,2400207,2500305,2400126,2500303,2400205,2500304],"voronoi":{"lat":35.616973,"lng":139.468484,"delta_lat":[0,23216,79,813,-8064,-11570,-7091],"delta_lng":[0,-1335,36,2243,13718,6907,-10582]},"impl":true},
    {"code":9933402,"left":2400131,"right":2400207,"id":"377119","name":"松が谷","name_kana":"まつがや","lat":35.63169,"lng":139.422201,"prefecture":13,"lines":[99334],"attr":"eco","postal_code":"192-0354","address":"八王子市松が谷４０","next":[9933401,2500308,2500307,2500306,2400127,2400128,2400208,9933403],"voronoi":{"lat":35.62707,"lng":139.412811,"delta_lat":[0,-62,503,2647,1814,7876,2089,2095],"delta_lng":[0,89,6904,9472,5873,525,-1612,-5921]},"impl":true},
    {"code":2400131,"left":9933403,"right":2400502,"id":"580bb2","name":"平山城址公園","name_kana":"ひらやまじょうしこうえん","lat":35.647371,"lng":139.379926,"prefecture":13,"lines":[24001],"attr":"heat","postal_code":"191-0043","address":"日野市平山５-１８-１０","next":[2400132,2400502,2400210,1131109,2400130,2400209],"voronoi":{"lat":35.639221,"lng":139.392954,"delta_lat":[0,13684,1955,-24116,-26,7755],"delta_lng":[0,-8141,-15109,7851,6732,8723]},"impl":true},
    {"code":9933403,"left":9933404,"id":"eb3a6b","name":"大塚・帝京大学","name_kana":"おおつか・ていきょうだいがく","lat":35.636878,"lng":139.416461,"prefecture":13,"lines":[99334],"attr":"eco","postal_code":"192-0352","address":"八王子市大塚１４７３","next":[2500308,2400209,2400128,9933404,9933406,9933402],"voronoi":{"lat":35.648597,"lng":139.421833,"delta_lat":[0,-1304,-15545,-4191,-487,16962],"delta_lng":[0,-4122,-10162,3228,2034,15330]},"impl":true},
    {"code":9933404,"id":"6f9fd4","name":"中央大学・明星大学","name_kana":"ちゅうおうだいがく・めいせいだいがく","lat":35.64197,"lng":139.408672,"prefecture":13,"lines":[99334],"attr":"eco","postal_code":"192-0351","address":"八王子市東中野７４２","next":[2400209,2400502,9933406,9933403],"voronoi":{"lat":35.648262,"lng":139.411431,"delta_lat":[0,-9906,-6608,15545],"delta_lng":[0,-17743,13861,10162]},"impl":true},
    {"code":2400502,"id":"3b3e52","name":"多摩動物公園","name_kana":"たまどうぶつこうえん","lat":35.649215,"lng":139.404627,"prefecture":13,"lines":[24005,99334],"attr":"cool","postal_code":"191-0042","address":"日野市程久保３-３６-３９","next":[9933406,2400130,2400131,2400209,9933404],"voronoi":{"lat":35.638355,"lng":139.393687,"delta_lat":[0,118,748,19566,-10526],"delta_lng":[0,-678,-56,8286,10191]},"impl":true},
    {"code":2400207,"left":2500306,"right":2400127,"id":"0a5e4d","name":"京王永山","name_kana":"けいおうながやま","lat":35.630102,"lng":139.448204,"prefecture":13,"lines":[24002],"attr":"heat","postal_code":"206-0025","address":"多摩市永山１-１８-１","next":[2400127,2400206,2400126,2500306,2500305],"voronoi":{"lat":35.619823,"lng":139.453161,"delta_lat":[0,20364,1218,-1138,-79],"delta_lng":[0,-10143,20600,3568,-36]},"impl":true},
    {"code":2500306,"id":"ba5e6b","name":"小田急永山","name_kana":"おだきゅうながやま","lat":35.629972,"lng":139.447943,"prefecture":13,"lines":[25003],"attr":"cool","postal_code":"206-0025","address":"多摩市永山１丁目","next":[9933402,2500307,2400207,2500305,2400127],"voronoi":{"lat":35.619823,"lng":139.453161,"delta_lat":[0,-17456,29604,7876,340],"delta_lng":[0,-11665,-6347,525,7344]},"impl":true},
    {"code":2400127,"id":"d332c8","name":"聖蹟桜ヶ丘","name_kana":"せいせきさくらがおか","lat":35.650814,"lng":139.446979,"prefecture":13,"lines":[24001],"attr":"heat","postal_code":"206-0011","address":"東京都多摩市関戸一丁目10-10","next":[1130329,2400207,2400128,9933402,2400126,2500306],"voronoi":{"lat":35.639848,"lng":139.435674,"delta_lat":[0,2089,23331,-184,-23678,-1218],"delta_lng":[0,-1612,9735,352,19469,-20600]},"impl":true},
    {"code":2600317,"left":9931603,"right":2500119,"id":"384eed","name":"江田(神奈川)","original_name":"江田","name_kana":"えだ","lat":35.558671,"lng":139.551518,"prefecture":14,"lines":[26003],"attr":"eco","postal_code":"225-0013","address":"横浜市青葉区荏田町２３６０","next":[9931604,2600316,9931602,2600318,9934303],"voronoi":{"lat":35.551866,"lng":139.562784,"delta_lat":[0,10255,4288,-20331,3886],"delta_lng":[0,-2407,-21997,14581,8720]},"impl":true},
    {"code":9931603,"left":1130608,"right":2900301,"id":"7830b3","name":"センター北","name_kana":"せんたーきた","lat":35.55353,"lng":139.578457,"prefecture":14,"lines":[99316,99343],"attr":"eco","postal_code":"224-0003","address":"横浜市都筑区中川中央１-１-１","next":[9931604,9934306,9931602,9931605],"voronoi":{"lat":35.564755,"lng":139.581283,"delta_lat":[0,-11352,-8400,3231],"delta_lng":[0,-12448,16240,5243]},"impl":true},
    {"code":1130608,"left":2900110,"right":2600319,"id":"f2314a","name":"十日市場(神奈川)","original_name":"十日市場","name_kana":"とおかいちば","lat":35.526254,"lng":139.51669,"prefecture":14,"lines":[11306],"attr":"eco","postal_code":"226-0025","address":"横浜市緑区十日市場町中里","next":[2900112,1130607,2600320,2600324,1130609,2600319,2600321],"voronoi":{"lat":35.523594,"lng":139.504354,"delta_lat":[0,-11138,-14407,-2482,32906,5833,386],"delta_lng":[0,-2755,3770,10348,16464,-9149,-9347]},"impl":true},
    {"code":2900110,"left":2900111,"right":1130606,"id":"57dba2","name":"二俣川","name_kana":"ふたまたがわ","lat":35.463335,"lng":139.532207,"prefecture":14,"lines":[29001,29002],"attr":"eco","postal_code":"241-0821","address":"横浜市旭区二俣川２-９１-７","next":[1130607,2900109,1130808,2900202,2900112,2900111],"voronoi":{"lat":35.482142,"lng":139.519929,"delta_lat":[0,9032,-776,-37880,-4037,12647],"delta_lng":[0,1358,5331,25493,-5414,-23323]},"impl":true},
    {"code":2900111,"left":2900202,"right":2900112,"id":"788594","name":"希望ヶ丘","name_kana":"きぼうがおか","lat":35.460399,"lng":139.5143,"prefecture":14,"lines":[29001],"attr":"cool","postal_code":"241-0825","address":"横浜市旭区中希望が丘","next":[2900112,2900202,2900203,2900110,2900205,2900204],"voronoi":{"lat":35.447782,"lng":139.500088,"delta_lat":[0,866,33495,-21014,-12126,-2998],"delta_lng":[0,-1399,21240,3445,-7930,-8310]},"impl":true},
    {"code":2900202,"left":2900203,"id":"4956f3","name":"南万騎が原","name_kana":"みなみまきがはら","lat":35.452522,"lng":139.526344,"prefecture":14,"lines":[29002],"attr":"eco","postal_code":"241-0835","address":"横浜市旭区柏町１２８","next":[2900203,2900111,2900110,1130808],"voronoi":{"lat":35.461128,"lng":139.523375,"delta_lat":[0,-12126,-8739,8218],"delta_lng":[0,-7930,25270,5983]},"impl":true},
    {"code":2900203,"id":"377633","name":"緑園都市","name_kana":"りょくえんとし","lat":35.439502,"lng":139.521841,"prefecture":14,"lines":[29002],"attr":"eco","postal_code":"245-0002","address":"横浜市泉区緑園３-１-１","next":[9931628,1130808,2900204,2900202,1130106,2900111,9931629],"voronoi":{"lat":35.42132,"lng":139.532309,"delta_lat":[0,1197,17747,8739,-2998,-22399,-1486],"delta_lng":[0,3759,4646,-25270,-8310,14077,3996]},"impl":true},
    {"code":2900112,"id":"6d2624","name":"三ツ境","name_kana":"みつきょう","lat":35.467779,"lng":139.502662,"prefecture":14,"lines":[29001],"attr":"cool","postal_code":"246-0022","address":"横浜市瀬谷区三ツ境４","next":[1130608,2900113,1130607,2900111,2600324,2900110,2900205],"voronoi":{"lat":35.450322,"lng":139.490157,"delta_lat":[0,43693,4034,-2482,-4393,-9032,-33495],"delta_lng":[0,5727,9484,10348,5571,-1358,-21240]},"impl":true},
    {"code":1130606,"left":2900108,"right":1130607,"id":"b647e3","name":"鴨居","name_kana":"かもい","lat":35.510955,"lng":139.56707,"prefecture":14,"lines":[11306],"attr":"cool","postal_code":"226-0004","address":"横浜市緑区鴨居町","next":[2900109,9934302,9934303,1130605,2900108,1130607,2900301,9931605],"voronoi":{"lat":35.526191,"lng":139.575082,"delta_lat":[0,-3074,-8179,-18435,-1476,-805,5860,17773],"delta_lng":[0,-13795,-7618,-2552,3033,19594,8969,1315]},"impl":true},
    {"code":2900108,"left":2900109,"id":"5d2918","name":"西谷","name_kana":"にしや","lat":35.478092,"lng":139.565721,"prefecture":14,"lines":[29001,29003],"attr":"eco","postal_code":"240-0052","address":"横浜市保土ケ谷区西谷町１１０１","open_date":"1926-12-01","next":[2900301,2900107,1130606,2900109],"voronoi":{"lat":35.495026,"lng":139.554151,"delta_lat":[0,-805,-16522,-20726],"delta_lng":[0,19594,2636,-15011]},"impl":true},
    {"code":2900109,"id":"e895fc","name":"鶴ヶ峰","name_kana":"つるがみね","lat":35.475031,"lng":139.549586,"prefecture":14,"lines":[29001],"attr":"eco","postal_code":"241-0022","address":"横浜市旭区鶴ケ峰二丁目","next":[1130606,2900110,1130607,1130808,2900107,2900108],"voronoi":{"lat":35.453892,"lng":139.560628,"delta_lat":[0,-1374,37880,6104,-1476,-38053],"delta_lng":[0,-8517,-25493,24499,3033,7219]},"impl":true},
    {"code":1130607,"id":"bc49ca","name":"中山(神奈川)","original_name":"中山","name_kana":"なかやま","lat":35.514745,"lng":139.539692,"prefecture":14,"lines":[11306,99343],"attr":"cool","postal_code":"226-0013","address":"横浜市緑区寺山町","next":[1130608,2900110,2600319,2900109,2900112,1130606,9934302],"voronoi":{"lat":35.496502,"lng":139.551118,"delta_lat":[0,-6104,776,4393,32906,426,-13962],"delta_lng":[0,-24499,-5331,-5571,16464,1016,20473]},"impl":true},
    {"code":2600319,"left":2600320,"right":9931604,"id":"646e62","name":"藤が丘(神奈川)","original_name":"藤が丘","name_kana":"ふじがおか","lat":35.543454,"lng":139.527655,"prefecture":14,"lines":[26003],"attr":"eco","postal_code":"227-0043","address":"横浜市青葉区藤が丘２-５-４","next":[2600318,1130607,2600320,9934302,1130608],"voronoi":{"lat":35.534307,"lng":139.523031,"delta_lat":[0,36755,-32900,-9262,-426],"delta_lng":[0,-2142,19085,-6778,-1016]},"impl":true},
    {"code":2600320,"left":2600321,"right":2600802,"id":"96df8e","name":"青葉台","name_kana":"あおばだい","lat":35.542855,"lng":139.517376,"prefecture":14,"lines":[26003],"attr":"eco","postal_code":"227-0062","address":"横浜市青葉区青葉台１-７-３","next":[1130608,2500124,2600319,2600803,2600321,2600802,2600318],"voronoi":{"lat":35.57178,"lng":139.520632,"delta_lat":[0,-4315,-8262,-8912,-15599,-386,36755],"delta_lng":[0,-10205,-4083,-946,8286,9347,-2142]},"impl":true},
    {"code":2600321,"left":1130609,"id":"71db08","name":"田奈","name_kana":"たな","lat":35.536204,"lng":139.504855,"prefecture":14,"lines":[26003],"attr":"eco","postal_code":"227-0064","address":"横浜市青葉区田奈町３９８７","next":[2600802,1130609,2600320,1130608],"voronoi":{"lat":35.523594,"lng":139.504354,"delta_lat":[0,15755,10942,-15599],"delta_lng":[0,-6977,8022,8286]},"impl":true},
    {"code":1130609,"id":"15eb4a","name":"長津田","name_kana":"ながつた","lat":35.531698,"lng":139.49468,"prefecture":14,"lines":[11306,26003,26008],"attr":"cool","postal_code":"226-0027","address":"横浜市緑区長津田４丁目","next":[2600321,2600323,1130608,2600324,2600802],"voronoi":{"lat":35.523594,"lng":139.504354,"delta_lat":[0,-11138,6145,18752,1996],"delta_lng":[0,-2755,-6906,-8134,10818]},"impl":true},
    {"code":2600802,"id":"645f34","name":"恩田","name_kana":"おんだ","lat":35.545535,"lng":139.492127,"prefecture":14,"lines":[26008],"attr":"cool","postal_code":"227-0065","address":"横浜市青葉区恩田町２０４３","next":[2600321,2600323,2600803,1130610,1130609,2600320],"voronoi":{"lat":35.547218,"lng":139.478955,"delta_lat":[0,-8683,-1181,1996,10942,8912],"delta_lng":[0,4566,3038,10818,8022,946]},"impl":true},
    {"code":9931604,"left":9934303,"right":2600318,"id":"0475cd","name":"センター南","name_kana":"せんたーみなみ","lat":35.545476,"lng":139.574291,"prefecture":14,"lines":[99316,99343],"attr":"eco","postal_code":"224-0032","address":"横浜市都筑区茅ケ崎中央１-１","next":[2600317,9931603,9934303,9931602,9931605],"voronoi":{"lat":35.530203,"lng":139.57527,"delta_lat":[0,19760,1902,1537,-8400],"delta_lng":[0,-13588,1103,6050,16240]},"impl":true},
    {"code":9934303,"left":9934302,"id":"26c4fb","name":"都筑ふれあいの丘","name_kana":"つづきふれあいのおか","lat":35.536583,"lng":139.561359,"prefecture":14,"lines":[99343],"attr":"heat","postal_code":"224-0062","address":"横浜市都筑区葛が谷１１番","next":[9934302,1130606,9931604,9931605,2600317,2600318],"voronoi":{"lat":35.540996,"lng":139.54915,"delta_lat":[0,-17880,3074,4013,19760,-3886],"delta_lng":[0,12138,13795,187,-13588,-8720]},"impl":true},
    {"code":9934302,"id":"cf282b","name":"川和町","name_kana":"かわわちょう","lat":35.52802,"lng":139.548745,"prefecture":14,"lines":[99343],"attr":"heat","postal_code":"224-0057","address":"横浜市都筑区川和町１２５１番地先","next":[1130606,9934303,1130607,2600318,2600319],"voronoi":{"lat":35.528899,"lng":139.533196,"delta_lat":[0,-13962,8179,17880,-2835],"delta_lng":[0,20473,7618,-12138,-9175]},"impl":true},
    {"code":2600318,"id":"50c2be","name":"市が尾","name_kana":"いちがお","lat":35.551483,"lng":139.541496,"prefecture":14,"lines":[26003],"attr":"eco","postal_code":"225-0024","address":"横浜市青葉区市ケ尾町１１５６-１","next":[2600319,2600316,2600317,9934302,2500124,2600320,9934303],"voronoi":{"lat":35.566408,"lng":139.53838,"delta_lat":[0,9733,-4361,-719,-32900,2835,5081],"delta_lng":[0,-13960,-3788,257,19085,9175,3812]},"impl":true},
    {"code":2900301,"left":2900104,"right":9931606,"id":"2866fa","name":"羽沢横浜国大","name_kana":"はざわよこはまこくだい","lat":35.481389,"lng":139.586389,"prefecture":14,"lines":[29003],"attr":"eco","postal_code":"221-0866","address":"横浜市神奈川区羽沢南二丁目471","open_date":"2019-11-30","next":[9931611,2900107,9931610,2900108,2900106,1130606,1130605],"voronoi":{"lat":35.500082,"lng":139.582713,"delta_lat":[0,-5860,-16522,-5183,148,11415,11293],"delta_lng":[0,-8969,2636,11248,6653,2921,-4948]},"impl":true},
    {"code":2900104,"left":2900106,"right":9931612,"id":"e75d3f","name":"天王町","name_kana":"てんのうちょう","lat":35.453984,"lng":139.602554,"prefecture":14,"lines":[29001],"attr":"eco","postal_code":"240-0003","address":"横浜市保土ケ谷区天王町２-４５-５","next":[9931611,2900103,2900105,1130807,2900102],"voronoi":{"lat":35.448733,"lng":139.60521,"delta_lat":[0,3560,12951,-278,-717],"delta_lng":[0,-8938,7783,2208,318]},"impl":true},
    {"code":2900106,"left":1130807,"right":2900107,"id":"a39c10","name":"和田町","name_kana":"わだまち","lat":35.463597,"lng":139.586786,"prefecture":14,"lines":[29001],"attr":"eco","postal_code":"240-0044","address":"横浜市保土ケ谷区仏向町４","next":[2900301,2900105,9931611,1130808,1130807,2900107],"voronoi":{"lat":35.472665,"lng":139.594282,"delta_lat":[0,-2786,-23553,-3787,4298,25680],"delta_lng":[0,1936,-14557,-4953,-4764,15685]},"impl":true},
    {"code":1130807,"left":2900105,"id":"b006bc","name":"保土ケ谷","name_kana":"ほどがや","lat":35.446746,"lng":139.599671,"prefecture":14,"lines":[11308,11333],"attr":"cool","postal_code":"240-0023","address":"横浜市保土ケ谷区岩井町","next":[1130808,2900103,2700131,2900105,2900104,2900106,2700130],"voronoi":{"lat":35.448733,"lng":139.60521,"delta_lat":[0,3560,-5968,-3787,-3823,2015,3691],"delta_lng":[0,-8938,-14611,-4953,1462,27580,2640]},"impl":true},
    {"code":2900105,"id":"36ccab","name":"星川(神奈川)","original_name":"星川","name_kana":"ほしかわ","lat":35.458634,"lng":139.594816,"prefecture":14,"lines":[29001],"attr":"eco","postal_code":"240-0006","address":"横浜市保土ケ谷区星川１-１-１","next":[2900104,9931611,2900106,1130807],"voronoi":{"lat":35.465245,"lng":139.604055,"delta_lat":[0,4634,-23553,5968],"delta_lng":[0,-7837,-14557,14611]},"impl":true},
    {"code":2900107,"id":"9de24d","name":"上星川","name_kana":"かみほしかわ","lat":35.467694,"lng":139.580078,"prefecture":14,"lines":[29001],"attr":"eco","postal_code":"240-0042","address":"横浜市保土ケ谷区上星川町２２","next":[2900301,2900108,1130808,2900109,2900106],"voronoi":{"lat":35.446836,"lng":139.571944,"delta_lat":[0,7056,3081,20726,-5183],"delta_lng":[0,-11315,741,15011,11248]},"impl":true},
    {"code":9931612,"left":2900102,"right":9931611,"id":"8853f2","name":"三ツ沢下町","name_kana":"みつざわしもちょう","lat":35.476512,"lng":139.61481,"prefecture":14,"lines":[99316],"attr":"eco","postal_code":"221-0852","address":"横浜市神奈川区三ツ沢下町２-１６","next":[2600120,2600118,9931610,9931609,2600119,9931611,2900102,1130105],"voronoi":{"lat":35.481978,"lng":139.621143,"delta_lat":[0,2427,1587,329,-3294,-15338,603,3587],"delta_lng":[0,-1169,-1584,-2842,-5435,-23,4666,4687]},"impl":true},
    {"code":2900102,"left":2900103,"id":"a8260d","name":"平沼橋","name_kana":"ひらぬまばし","lat":35.460355,"lng":139.616897,"prefecture":14,"lines":[29001],"attr":"eco","postal_code":"220-0024","address":"横浜市西区西平沼町３-７","next":[9931612,9931614,1130105,9931611,2700127,2900104,2900103],"voronoi":{"lat":35.464249,"lng":139.606581,"delta_lat":[0,717,2722,603,-6210,-1972,-4626],"delta_lng":[0,-318,3827,4666,6246,-513,-6469]},"impl":true},
    {"code":2900103,"id":"0390e5","name":"西横浜","name_kana":"にしよこはま","lat":35.453437,"lng":139.608745,"prefecture":14,"lines":[29001],"attr":"eco","postal_code":"220-0024","address":"横浜市西区西平沼町８-１","next":[2900104,1130807,2700129,2700130,2700127,2900102],"voronoi":{"lat":35.447376,"lng":139.616414,"delta_lat":[0,-960,-1994,4312,15516,-8766],"delta_lng":[0,-962,-7063,-3180,1371,7439]},"impl":true},
    {"code":9931611,"id":"0b979f","name":"三ツ沢上町","name_kana":"みつざわかみちょう","lat":35.476526,"lng":139.605395,"prefecture":14,"lines":[99316],"attr":"eco","postal_code":"221-0856","address":"横浜市神奈川区三ツ沢上町５-９","next":[2900301,2900104,2900105,2900106,9931612,9931610,2900102],"voronoi":{"lat":35.464967,"lng":139.606262,"delta_lat":[0,278,4634,2786,11415,-1053,-15338],"delta_lng":[0,-2208,-7837,-1936,2921,12910,-23]},"impl":true},
    {"code":9931606,"left":9931605,"right":100203,"id":"4cd2da","name":"新羽","name_kana":"にっぱ","lat":35.527701,"lng":139.612065,"prefecture":14,"lines":[99316],"attr":"eco","postal_code":"223-0057","address":"横浜市港北区新羽町１２８５-１","next":[9931607,2600115,2600114,9934308,9934307,9931605,1130605],"voronoi":{"lat":35.524222,"lng":139.620686,"delta_lat":[0,8654,3780,4565,-1537,-16537,-829],"delta_lng":[0,2570,-1523,-12755,-5314,-5592,1295]},"impl":true},
    {"code":9931605,"left":9931610,"right":9934307,"id":"d3e97e","name":"仲町台","name_kana":"なかまちだい","lat":35.535258,"lng":139.589715,"prefecture":14,"lines":[99316],"attr":"eco","postal_code":"224-0041","address":"横浜市都筑区仲町台１-１-１","next":[1130605,9934307,9934306,9931604,9934303,9931606,9931603,1130606],"voronoi":{"lat":35.523147,"lng":139.598073,"delta_lat":[0,16537,8296,253,-3231,-14799,-4013,-8336],"delta_lng":[0,5592,-10782,-2565,-5243,-9805,-187,8946]},"impl":true},
    {"code":9931610,"left":1130605,"id":"568f08","name":"片倉町","name_kana":"かたくらちょう","lat":35.490205,"lng":139.606511,"prefecture":14,"lines":[99316],"attr":"eco","postal_code":"221-0865","address":"横浜市神奈川区片倉１-３３-７","next":[2900301,9931609,9931612,9931611,1130605],"voronoi":{"lat":35.495372,"lng":139.592255,"delta_lat":[0,-11293,-1053,3294,14630],"delta_lng":[0,4948,12910,5435,-8087]},"impl":true},
    {"code":1130605,"id":"4e98db","name":"小机","name_kana":"こづくえ","lat":35.508533,"lng":139.599787,"prefecture":14,"lines":[11306],"attr":"cool","postal_code":"222-0036","address":"横浜市港北区小机町","next":[9931605,1130606,9931609,100203,9931606,9931610,2900301,9931607],"voronoi":{"lat":35.501673,"lng":139.607983,"delta_lat":[0,-723,-5578,4709,17773,5293,-829,-11532],"delta_lng":[0,-523,-15206,-9541,1315,14044,1295,9502]},"impl":true},
    {"code":9934307,"id":"39ff5a","name":"東山田","name_kana":"ひがしやまた","lat":35.554302,"lng":139.604369,"prefecture":14,"lines":[99343],"attr":"cool","postal_code":"224-0024","address":"横浜市都筑区東山田町３３９番地","next":[9931606,9931605,9934306,2600311,1130309,9934308],"voronoi":{"lat":35.573834,"lng":139.612936,"delta_lat":[0,209,-26063,-8296,1537,29112],"delta_lng":[0,-5474,-14579,10782,5314,8578]},"impl":true},
    {"code":100203,"left":9931609,"right":9931607,"id":"659bd9","name":"新横浜","name_kana":"しんよこはま","lat":35.506824,"lng":139.617348,"prefecture":14,"lines":[1002,11306,99316],"attr":"cool","postal_code":"222-0026","address":"横浜市港北区篠原町","next":[9931607,2600117,1130605,1130603,9931609],"voronoi":{"lat":35.501673,"lng":139.607983,"delta_lat":[0,9113,4807,-13159,-1194],"delta_lng":[0,886,13208,3007,-606]},"impl":true},
    {"code":9931609,"id":"301643","name":"岸根公園","name_kana":"きしねこうえん","lat":35.496038,"lng":139.617065,"prefecture":14,"lines":[99316],"attr":"eco","postal_code":"222-0026","address":"横浜市港北区篠原町１１２３","next":[2600118,9931610,2600117,1130605,9931612,100203],"voronoi":{"lat":35.501673,"lng":139.607983,"delta_lat":[0,-723,-14630,-329,11279,3970],"delta_lng":[0,-523,8087,2842,6763,-674]},"impl":true},
    {"code":9931607,"id":"84b3ae","name":"北新横浜","name_kana":"きたしんよこはま","lat":35.519271,"lng":139.612818,"prefecture":14,"lines":[99316],"attr":"eco","postal_code":"223-0057","address":"横浜市港北区新羽町５３９-１","next":[9931606,2600115,1130603,100203,1130605],"voronoi":{"lat":35.522318,"lng":139.599367,"delta_lat":[0,1904,-8340,-289,-4807],"delta_lng":[0,21319,1550,-159,-13208]},"impl":true},
    {"code":2500119,"left":2400204,"right":1130311,"id":"6cbf39","name":"向ヶ丘遊園","name_kana":"むこうがおかゆうえん","lat":35.617273,"lng":139.564719,"prefecture":14,"lines":[25001],"attr":"cool","postal_code":"214-0014","address":"神奈川県川崎市多摩区登戸","next":[2600313,2600314,2500120,1130315,2600315,1130313,1130314],"voronoi":{"lat":35.62807,"lng":139.561251,"delta_lat":[0,-9268,-20446,-1220,1182,1019,13401],"delta_lng":[0,-8154,2089,7751,5185,1907,1665]},"impl":true},
    {"code":2400204,"left":2500121,"right":1130316,"id":"02d6a2","name":"京王よみうりランド","name_kana":"けいおうよみうりらんど","lat":35.632934,"lng":139.517597,"prefecture":13,"lines":[24002],"attr":"cool","postal_code":"206-0812","address":"東京都稲城市矢野口","next":[1130318,2500122,2400203,2500121,1130317,2400205],"voronoi":{"lat":35.640152,"lng":139.511416,"delta_lat":[0,-4975,-10109,-4134,683,16151],"delta_lng":[0,12806,719,-7306,-11068,3035]},"impl":true},
    {"code":2500121,"left":2500123,"right":2500120,"id":"69e1df","name":"読売ランド前","name_kana":"よみうりらんどまえ","lat":35.614723,"lng":139.527903,"prefecture":14,"lines":[25001],"attr":"cool","postal_code":"214-0037","address":"川崎市多摩区西生田","next":[2600315,2500120,2400204,2400203,1130316,2500122],"voronoi":{"lat":35.589687,"lng":139.535375,"delta_lat":[0,33263,832,1286,-4134,-32797],"delta_lng":[0,-544,-2171,-7718,-7306,15847]},"impl":true},
    {"code":2500123,"left":2500124,"right":2500122,"id":"d914d1","name":"新百合ヶ丘","name_kana":"しんゆりがおか","lat":35.603705,"lng":139.507608,"prefecture":14,"lines":[25001,25003],"attr":"cool","postal_code":"215-0004","address":"川崎市麻生区万福寺一丁目18番1号","next":[2400205,2500122,2500124,2600316,2500302],"voronoi":{"lat":35.618264,"lng":139.496477,"delta_lat":[0,1550,-37983,-1691,17122],"delta_lng":[0,6976,23759,-1293,-24170]},"impl":true},
    {"code":2500124,"left":2500302,"id":"e72d48","name":"柿生","name_kana":"かきお","lat":35.589597,"lng":139.497614,"prefecture":14,"lines":[25001],"attr":"cool","postal_code":"215-0021","address":"川崎市麻生区上麻生","next":[2600320,2500125,2600803,2500302,2500123,2600316,2600318],"voronoi":{"lat":35.580139,"lng":139.52592,"delta_lat":[0,17122,-5503,-19036,-5257,4315,4361],"delta_lng":[0,-24170,-14293,7829,15142,10205,3788]},"impl":true},
    {"code":2500302,"id":"795a88","name":"五月台","name_kana":"さつきだい","lat":35.600174,"lng":139.493542,"prefecture":14,"lines":[25003],"attr":"cool","postal_code":"215-0025","address":"川崎市麻生区五力田３丁目","next":[2500125,2500124,2500303,2400205,2500123],"voronoi":{"lat":35.618264,"lng":139.496477,"delta_lat":[0,370,-24188,-2687,5503],"delta_lng":[0,-1941,-10978,3898,14293]},"impl":true},
    {"code":2500122,"id":"46c3bd","name":"百合ヶ丘","name_kana":"ゆりがおか","lat":35.60903,"lng":139.516121,"prefecture":14,"lines":[25001],"attr":"cool","postal_code":"215-0011","address":"川崎市麻生区百合丘一丁目21番1号","next":[2400205,2400204,2500123,2600316,2500121,2600315],"voronoi":{"lat":35.58649,"lng":139.532253,"delta_lat":[0,-4660,37983,1804,-683,-32797],"delta_lng":[0,-5040,-23759,3114,11068,15847]},"impl":true},
    {"code":2500120,"left":2600315,"right":1130315,"id":"8f62a8","name":"生田(神奈川)","original_name":"生田","name_kana":"いくた","lat":35.614954,"lng":139.542024,"prefecture":14,"lines":[25001],"attr":"cool","postal_code":"214-0038","address":"川崎市多摩区生田７丁目","next":[1130315,2500121,1130316,2500119,2600315],"voronoi":{"lat":35.589687,"lng":139.535375,"delta_lat":[0,33263,2268,-6416,-20446],"delta_lng":[0,-544,6205,12061,2089]},"impl":true},
    {"code":2600315,"left":2600316,"id":"346cec","name":"たまプラーザ","name_kana":"たまぷらーざ","lat":35.577427,"lng":139.558447,"prefecture":14,"lines":[26003],"attr":"cool","postal_code":"225-0002","address":"横浜市青葉区美しが丘１-３","next":[2500121,2600314,9931602,2600316,2500119,2500120,2500122],"voronoi":{"lat":35.589687,"lng":139.535375,"delta_lat":[0,8669,-1220,-24809,-3182,17345,1647],"delta_lng":[0,19811,7751,3908,-4036,-30556,1230]},"impl":true},
    {"code":2600316,"id":"205bc2","name":"あざみ野","name_kana":"あざみの","lat":35.568645,"lng":139.553462,"prefecture":14,"lines":[26003,99316],"attr":"eco","postal_code":"225-0011","address":"横浜市青葉区あざみ野２-１-１","next":[2600317,9931602,2600315,2600318,2500122,2500123,2500124],"voronoi":{"lat":35.576141,"lng":139.52442,"delta_lat":[0,-9733,-4288,7025,17345,-4660,-1691],"delta_lng":[0,13960,21997,2431,-30556,-5040,-1293]},"impl":true},
    {"code":1130315,"id":"79077e","name":"中野島","name_kana":"なかのしま","lat":35.630135,"lng":139.5501,"prefecture":14,"lines":[11303],"attr":"eco","postal_code":"214-0012","address":"川崎市多摩区中野島","next":[2500120,2400116,2500119,1130314,1130316,2400117,2400202,2500117],"voronoi":{"lat":35.639706,"lng":139.555087,"delta_lat":[0,628,-2322,-12793,-6416,9268,1640,6916],"delta_lng":[0,-8523,-2472,-3057,12061,8154,761,817]},"impl":true},
    {"code":1130316,"left":1130317,"right":2400116,"id":"75712c","name":"稲田堤","name_kana":"いなだづつみ","lat":35.633701,"lng":139.535173,"prefecture":14,"lines":[11303],"attr":"eco","postal_code":"214-0003","address":"川崎市多摩区菅稲田堤１丁目","next":[2400202,2500120,2500121,1130315,2400203],"voronoi":{"lat":35.638011,"lng":139.544092,"delta_lat":[0,-12793,-2268,832,15647],"delta_lng":[0,-3057,-6205,-2171,745]},"impl":true},
    {"code":1130317,"left":2400203,"right":1130318,"id":"e40217","name":"矢野口","name_kana":"やのくち","lat":35.641305,"lng":139.520849,"prefecture":13,"lines":[11303],"attr":"heat","postal_code":"206-0812","address":"稲城市矢野口","next":[2400120,2400203,2400204,1130318,2400202,2400121,2400119],"voronoi":{"lat":35.641736,"lng":139.528964,"delta_lat":[0,-6558,4975,11394,381,-1310,-2727],"delta_lng":[0,-4741,-12806,1818,911,8749,4822]},"impl":true},
    {"code":2400203,"left":2400205,"id":"3861f8","name":"京王稲田堤","name_kana":"けいおういなだづつみ","lat":35.633895,"lng":139.531099,"prefecture":14,"lines":[24002],"attr":"cool","postal_code":"214-0001","address":"川崎市多摩区菅４-１-１","next":[2400204,1130317,2500121,2400202,1130316],"voronoi":{"lat":35.641736,"lng":139.528964,"delta_lat":[0,-6558,-10109,-1286,15647],"delta_lng":[0,-4741,719,7718,745]},"impl":true},
    {"code":2400205,"id":"cb33c8","name":"稲城","name_kana":"いなぎ","lat":35.636166,"lng":139.500398,"prefecture":13,"lines":[24002],"attr":"cool","postal_code":"206-0802","address":"稲城市東長沼３１０８","next":[2500122,1130319,2500123,2500303,2400206,2400204,2500302,1130318],"voronoi":{"lat":35.64229,"lng":139.494575,"delta_lat":[0,-9274,-11570,-2813,-370,1550,1804,16151],"delta_lng":[0,-11429,6907,4483,1941,6976,3114,3035]},"impl":true},
    {"code":1130318,"id":"83312c","name":"稲城長沼","name_kana":"いなぎながぬま","lat":35.644184,"lng":139.502811,"prefecture":13,"lines":[11303],"attr":"heat","postal_code":"206-0802","address":"稲城市東長沼","next":[2400204,2201205,1130317,1130319,2400121,2400205],"voronoi":{"lat":35.640152,"lng":139.511416,"delta_lat":[0,11394,1079,-3447,-6888,-4522],"delta_lng":[0,1818,-2542,-13439,-2678,15027]},"impl":true},
    {"code":2400116,"left":2400117,"right":2400118,"id":"e4b2dc","name":"国領","name_kana":"こくりょう","lat":35.650087,"lng":139.558036,"prefecture":13,"lines":[24001],"attr":"cool","postal_code":"182-0022","address":"調布市国領町３-１８-１","next":[2400117,2500117,2400115,1130315,2500116],"voronoi":{"lat":35.66967,"lng":139.554241,"delta_lat":[0,-29965,-3079,1126,3120],"delta_lng":[0,847,7741,1634,2957]},"impl":true},
    {"code":2400117,"left":2400202,"id":"1f18ac","name":"布田","name_kana":"ふだ","lat":35.649904,"lng":139.551557,"prefecture":13,"lines":[24001],"attr":"cool","postal_code":"182-0022","address":"調布市国領町５-６７-１","next":[2400116,2400118,2400115,2400202,1130315],"voronoi":{"lat":35.640334,"lng":139.546564,"delta_lat":[0,3040,27805,-1508,-29965],"delta_lng":[0,-1099,8364,411,847]},"impl":true},
    {"code":2400202,"id":"f16248","name":"京王多摩川","name_kana":"けいおうたまがわ","lat":35.644499,"lng":139.536606,"prefecture":13,"lines":[24002],"attr":"cool","postal_code":"182-0025","address":"調布市多摩川４-４０-１","next":[1130316,2400119,2400118,2400117,1130317,2400203,1130315],"voronoi":{"lat":35.643373,"lng":139.545465,"delta_lat":[0,9004,-4487,-6155,-2306,-1418,2322],"delta_lng":[0,-9370,-8379,1247,4441,10688,2472]},"impl":true},
    {"code":2400118,"id":"7bab77","name":"調布","name_kana":"ちょうふ","lat":35.652181,"lng":139.543988,"prefecture":13,"lines":[24001,24002],"attr":"cool","postal_code":"182-0024","address":"調布市布田４-３２-１","next":[2400117,2400202,1131105,2400115,1131221,2400119],"voronoi":{"lat":35.652377,"lng":139.536096,"delta_lat":[0,-9004,27805,5865,195,-93],"delta_lng":[0,9370,8364,-471,-604,-7938]},"impl":true},
    {"code":1130311,"left":9934306,"right":2500115,"id":"4aeae3","name":"津田山","name_kana":"つだやま","lat":35.604259,"lng":139.600002,"prefecture":14,"lines":[11303],"attr":"heat","postal_code":"213-0033","address":"川崎市高津区下作延","next":[2600311,1130312,2500114,2600310,2600308,2600312,2600309],"voronoi":{"lat":35.622467,"lng":139.609108,"delta_lat":[0,-1,-23509,-3588,4542,10769,9166],"delta_lng":[0,-57,-19690,7033,7950,4538,547]},"impl":true},
    {"code":9934306,"left":2600313,"right":2600310,"id":"b712a6","name":"北山田(神奈川)","original_name":"北山田","name_kana":"きたやまた","lat":35.561077,"lng":139.592258,"prefecture":14,"lines":[99343],"attr":"cool","postal_code":"224-0021","address":"横浜市都筑区北山田１丁目６番先","next":[2600312,9931603,2600313,2600314,9934307,2600311,9931605,9931602],"voronoi":{"lat":35.571667,"lng":139.58399,"delta_lat":[0,2406,592,-621,-26063,253,16521,4552],"delta_lng":[0,5590,16381,1500,-14579,-2565,-9035,386]},"impl":true},
    {"code":2600313,"left":2600314,"right":2600312,"id":"6d258f","name":"宮前平","name_kana":"みやまえだいら","lat":35.584951,"lng":139.581983,"prefecture":14,"lines":[26003],"attr":"cool","postal_code":"216-0000","address":"川崎市宮前区宮前１-１１-１","next":[2500119,9934306,2600312,1130313,1130312,2600314],"voronoi":{"lat":35.598319,"lng":139.568121,"delta_lat":[0,1019,891,-913,-25243,-2406],"delta_lng":[0,1907,11231,2161,6160,-5590]},"impl":true},
    {"code":2600314,"left":9931602,"id":"9aa1b8","name":"鷺沼","name_kana":"さぎぬま","lat":35.579762,"lng":139.573268,"prefecture":14,"lines":[26003],"attr":"cool","postal_code":"216-0004","address":"川崎市宮前区鷺沼３-１-１","next":[9931602,2600315,2500119,9934306,2600313],"voronoi":{"lat":35.598319,"lng":139.568121,"delta_lat":[0,-1182,-24809,-3021,2360],"delta_lng":[0,-5185,3908,14824,2322]},"impl":true},
    {"code":9931602,"id":"abe995","name":"中川(神奈川)","original_name":"中川","name_kana":"なかがわ","lat":35.562973,"lng":139.569846,"prefecture":14,"lines":[99316],"attr":"eco","postal_code":"224-0001","address":"横浜市都筑区中川１-１-１","next":[2600314,2600316,2600315,9931604,2600317,9934306,9931603],"voronoi":{"lat":35.553403,"lng":139.568834,"delta_lat":[0,-1537,10255,7025,3182,-3021,-4552],"delta_lng":[0,-6050,-2407,2431,4036,14824,-386]},"impl":true},
    {"code":2600312,"id":"c3b0c4","name":"宮崎台","name_kana":"みやざきだい","lat":35.587228,"lng":139.591313,"prefecture":14,"lines":[26003],"attr":"cool","postal_code":"216-0033","address":"川崎市宮前区宮崎２-１０-１２","next":[2600311,9934306,2600313,1130311,1130312],"voronoi":{"lat":35.595368,"lng":139.596393,"delta_lat":[0,-20704,-592,25243,-359],"delta_lng":[0,9568,-16381,-6160,5940]},"impl":true},
    {"code":2600310,"left":1130310,"right":2600309,"id":"c19154","name":"溝の口","name_kana":"みぞのくち","lat":35.59984,"lng":139.610487,"prefecture":14,"lines":[26003,26004],"attr":"cool","postal_code":"213-0001","address":"川崎市高津区溝口２-１-１","next":[2600309,1130310,1130311,2600311],"voronoi":{"lat":35.599911,"lng":139.604343,"delta_lat":[0,10769,-8762,-5118],"delta_lng":[0,4538,4632,-5197]},"impl":true},
    {"code":1130310,"left":2600311,"id":"8c0c30","name":"武蔵溝ノ口","name_kana":"むさしみぞのくち","lat":35.598923,"lng":139.61139,"prefecture":14,"lines":[11303],"attr":"cool","postal_code":"213-0001","address":"川崎市高津区溝口","next":[2600310,1130309,2600311,2600309],"voronoi":{"lat":35.587441,"lng":139.616748,"delta_lat":[0,9359,5118,-8806],"delta_lng":[0,-8432,5197,6869]},"impl":true},
    {"code":2600311,"id":"64f61c","name":"梶が谷","name_kana":"かじがや","lat":35.593963,"lng":139.605885,"prefecture":14,"lines":[26003],"attr":"cool","postal_code":"213-0013","address":"川崎市高津区末長字姿見台８５","next":[1130311,2600312,1130309,1130310,9934306,9934307,2600310],"voronoi":{"lat":35.587441,"lng":139.616748,"delta_lat":[0,-13606,209,621,20704,4542,-3111],"delta_lng":[0,-3813,-5474,-1500,-9568,7950,3973]},"impl":true},
    {"code":2600309,"id":"cced91","name":"高津(神奈川)","original_name":"高津","name_kana":"たかつ","lat":35.603248,"lng":139.616934,"prefecture":14,"lines":[26003,26004],"attr":"cool","postal_code":"213-0002","address":"川崎市高津区二子４-１-１","next":[2600308,1130309,2600310,1130310,1130311],"voronoi":{"lat":35.596968,"lng":139.625287,"delta_lat":[0,-3857,8806,8762,9166],"delta_lng":[0,-4905,-6869,-4632,547]},"impl":true},
    {"code":2500115,"left":2500117,"right":2500114,"id":"e21767","name":"喜多見","name_kana":"きたみ","lat":35.636697,"lng":139.587445,"prefecture":13,"lines":[25001],"attr":"cool","postal_code":"157-0067","address":"世田谷区喜多見９丁目","next":[2400113,2400114,1130313,1130312,2500114,2500116],"voronoi":{"lat":35.645069,"lng":139.577407,"delta_lat":[0,4266,502,-24884,-1389,1361],"delta_lng":[0,7341,5061,7385,-6944,-3675]},"impl":true},
    {"code":2500117,"left":1130313,"right":2500116,"id":"507dcd","name":"和泉多摩川","name_kana":"いずみたまがわ","lat":35.627349,"lng":139.573695,"prefecture":13,"lines":[25001],"attr":"cool","postal_code":"201-0014","address":"狛江市東和泉４丁目","next":[1130313,1130314,2400116,2500116,1130315],"voronoi":{"lat":35.62971,"lng":139.562012,"delta_lat":[0,-8311,2946,13407,-1126],"delta_lng":[0,14640,5983,-18172,-1634]},"impl":true},
    {"code":1130313,"left":1130314,"id":"53a6a5","name":"宿河原","name_kana":"しゅくがわら","lat":35.615429,"lng":139.579565,"prefecture":14,"lines":[11303],"attr":"heat","postal_code":"214-0021","address":"川崎市多摩区宿河原","next":[2500117,1130314,2500115,2600313,2500116,2500119,1130312],"voronoi":{"lat":35.600228,"lng":139.581259,"delta_lat":[0,-891,13401,8661,2946,580,-1361],"delta_lng":[0,-11231,1665,4958,5983,3940,3675]},"impl":true},
    {"code":1130314,"id":"f1bdd7","name":"登戸","name_kana":"のぼりと","lat":35.620889,"lng":139.570028,"prefecture":14,"lines":[11303,25001],"attr":"heat","postal_code":"214-0014","address":"川崎市多摩区登戸","next":[2500117,1130313,1130315,2500119],"voronoi":{"lat":35.62807,"lng":139.561251,"delta_lat":[0,1640,-8311,-8661],"delta_lng":[0,761,14640,-4958]},"impl":true},
    {"code":2500116,"id":"7967b2","name":"狛江","name_kana":"こまえ","lat":35.632001,"lng":139.577127,"prefecture":13,"lines":[25001],"attr":"cool","postal_code":"201-0014","address":"狛江市東和泉１丁目","next":[2400114,1130313,2500117,2400116,2400115,2500115],"voronoi":{"lat":35.624346,"lng":139.582634,"delta_lat":[0,13407,3120,4082,115,-20144],"delta_lng":[0,-18172,2957,8511,1476,9168]},"impl":true},
    {"code":2500114,"left":1130312,"right":2500113,"id":"9eeb9c","name":"成城学園前","name_kana":"せいじょうがくえんまえ","lat":35.640114,"lng":139.598958,"prefecture":13,"lines":[25001],"attr":"cool","postal_code":"157-0066","address":"世田谷区成城６丁目","next":[2600307,2400112,2500113,1130311,2600308,2500115,1130312,2400113],"voronoi":{"lat":35.649838,"lng":139.589809,"delta_lat":[0,-24884,-2488,1,391,105,30999,248],"delta_lng":[0,7385,11857,57,553,107,-9044,-4025]},"impl":true},
    {"code":1130312,"id":"58e5c8","name":"久地","name_kana":"くじ","lat":35.610363,"lng":139.592714,"prefecture":14,"lines":[11303],"attr":"heat","postal_code":"213-0032","address":"川崎市高津区久地","next":[1130311,2500115,2600313,1130313,2500114,2600312],"voronoi":{"lat":35.622465,"lng":139.60905,"delta_lat":[0,2488,-1389,-23336,-913,-359],"delta_lng":[0,-11857,-6944,-8990,2161,5940]},"impl":true},
    {"code":2500113,"id":"fffe84","name":"祖師ヶ谷大蔵","name_kana":"そしがやおおくら","lat":35.643236,"lng":139.609659,"prefecture":13,"lines":[25001],"attr":"cool","postal_code":"157-0072","address":"東京都世田谷区祖師谷1丁目","next":[2500112,2600307,2400110,2500114,2400111,2400112,2600306],"voronoi":{"lat":35.626258,"lng":139.615855,"delta_lat":[0,-3295,30999,2879,102,-651,-23053],"delta_lng":[0,-6088,-9044,7907,1968,3306,6783]},"impl":true}
  ]
}