{
  "name":"segment7",
  "root":1191421,
  "east":131.97669,
  "west":130.724903,
  "south":33.209495,
  "north":33.868913,
  "station_size":145,
  "node_list":[
    {"code":1191421,"left":9990208,"right":1190631,"id":"0b5ed5","name":"筑前岩屋","name_kana":"ちくぜんいわや","lat":33.430539,"lng":130.881524,"prefecture":40,"lines":[11914],"attr":"cool","postal_code":"838-1701","address":"朝倉郡東峰村宝珠山","next":[1191424,1191315,1190618,1191423,1191312,1191308,1191310,1191420,1191422,1191313],"voronoi":{"lat":33.452309,"lng":131.055062,"delta_lat":[0,38967,-43585,-1039,-16077,-28027,-341,1553,4002,31188],"delta_lng":[0,-34968,-246093,719,20729,137407,8360,25591,10728,61832]}},
    {"code":9990208,"left":1191413,"right":9990902,"id":"ccc924","name":"赤池(福岡)","name_kana":"あかいけ","lat":33.69206,"lng":130.768675,"prefecture":40,"lines":[99902],"attr":"eco","postal_code":"822-1101","address":"田川郡福智町赤池","next":[9990207,1191111,9990209,1191110,9990210],"voronoi":{"lat":33.696671,"lng":130.783522,"delta_lat":[0,-23114,1740,9804,22153],"delta_lng":[0,-45125,-604,869,57392]}},
    {"code":1191413,"left":9990214,"right":1191417,"id":"ba5347","name":"田川伊田","name_kana":"たがわいた","lat":33.642046,"lng":130.817688,"prefecture":40,"lines":[11914,99902,99904],"attr":"eco","postal_code":"825-0002","address":"田川市伊田","next":[9990402,1191415,9990305,9990214,1191414,1191416],"voronoi":{"lat":33.620309,"lng":130.829255,"delta_lat":[0,5526,14032,1116,13553,-33624],"delta_lng":[0,-13336,-9447,282,12597,16251]}},
    {"code":9990214,"left":1191309,"right":9990304,"id":"b8dcea","name":"下伊田","name_kana":"しもいた","lat":33.651965,"lng":130.807016,"prefecture":40,"lines":[99902],"attr":"cool","postal_code":"825-0002","address":"田川市伊田","next":[1191412,1191413,9990213,9990402,9990305],"voronoi":{"lat":33.653792,"lng":130.800133,"delta_lat":[0,10123,-3022,-6357,-13553],"delta_lng":[0,19854,431,-1067,-12597]}},
    {"code":1191309,"left":1191504,"right":1191414,"id":"b28185","name":"うきは","name_kana":"うきは","lat":33.33506,"lng":130.789107,"prefecture":40,"lines":[11913],"attr":"cool","postal_code":"839-1401","address":"うきは市浮羽町朝田","next":[1191311,9991713,1191310,1191308,1190335],"voronoi":{"lat":33.108806,"lng":130.783665,"delta_lat":[0,189378,96162,-279027,-2926],"delta_lng":[0,38125,-42057,-45006,7530]}},
    {"code":1191504,"left":1191308,"right":1191505,"id":"1c1e7c","name":"筑前庄内","name_kana":"ちくぜんしょうない","lat":33.61635,"lng":130.738475,"prefecture":40,"lines":[11915],"attr":"cool","postal_code":"820-0106","address":"飯塚市赤坂","next":[1191111,1191415,1191112,1191503,1191419,1191502,1191505,1191416],"voronoi":{"lat":33.51023,"lng":130.75766,"delta_lat":[0,-10657,136766,14458,1904,1620,-68113,-25460],"delta_lng":[0,-6927,-20503,3463,1917,2431,32679,-1223]}},
    {"code":1191308,"left":1191503,"id":"dd4c6d","name":"筑後吉井","name_kana":"ちくごよしい","lat":33.341014,"lng":130.752193,"prefecture":40,"lines":[11913],"attr":"cool","postal_code":"839-1321","address":"うきは市吉井町１９９","next":[1191306,1191420,1191307,3600312,1191421,1190335,1191309,1191310],"voronoi":{"lat":33.446652,"lng":130.774719,"delta_lat":[0,1039,7487,-54796,-254238,-30768,-58,279027],"delta_lng":[0,-719,-10230,-43662,9105,5319,194,45006]}},
    {"code":1191503,"id":"9312c3","name":"下鴨生","name_kana":"しもかもお","lat":33.614811,"lng":130.728209,"prefecture":40,"lines":[11915],"attr":"cool","postal_code":"820-0206","address":"嘉麻市鴨生","next":[1191115,1191502,1190801,1191504,1191203,1191419],"voronoi":{"lat":33.636339,"lng":130.73023,"delta_lat":[0,-45542,-25988,-48920,-18539,2223],"delta_lng":[0,-23564,4889,22500,15369,1309]}},
    {"code":1191505,"id":"f06e8f","name":"船尾(福岡)","name_kana":"ふなお","lat":33.630221,"lng":130.767387,"prefecture":40,"lines":[11915],"attr":"heat","postal_code":"826-0041","address":"田川市大字弓削田","next":[9990304,1191111,9990305,1191414,1191415,1191504,9990303],"voronoi":{"lat":33.639533,"lng":130.782033,"delta_lat":[0,-3157,-20763,-29405,68113,6101,-7042],"delta_lng":[0,1763,47,-13123,-32679,3717,20498]}},
    {"code":1191414,"left":1191310,"right":9990305,"id":"525435","name":"田川後藤寺","name_kana":"たがわごとうじ","lat":33.630294,"lng":130.800232,"prefecture":40,"lines":[11914,11915,99903],"attr":"eco","postal_code":"826-0043","address":"田川市奈良","next":[1191415,1191413,9990305,1191505],"voronoi":{"lat":33.625834,"lng":130.815919,"delta_lat":[0,14032,-3490,-20763],"delta_lng":[0,-9447,-22676,47]}},
    {"code":1191310,"left":1191415,"id":"5b732c","name":"筑後大石","name_kana":"ちくごおおいし","lat":33.347215,"lng":130.816899,"prefecture":40,"lines":[11913],"attr":"cool","postal_code":"839-1406","address":"うきは市浮羽町高見","next":[1191311,1191421,1191309,1191425,1191422,1191423,1191308],"voronoi":{"lat":33.298183,"lng":130.821789,"delta_lat":[0,44594,21473,13982,52343,16077,-52307],"delta_lng":[0,25034,712,-7067,-45020,-20729,5013]}},
    {"code":1191415,"id":"1a0e93","name":"池尻","name_kana":"いけじり","lat":33.613121,"lng":130.805704,"prefecture":40,"lines":[11914],"attr":"eco","postal_code":"826-0002","address":"田川郡川崎町大字池尻","next":[1191413,1191504,1191414,1191416,1191505],"voronoi":{"lat":33.625834,"lng":130.815919,"delta_lat":[0,-5526,-59560,25460,29405],"delta_lng":[0,13336,-59758,1223,13123]}},
    {"code":9990305,"id":"0676f9","name":"大藪","name_kana":"おおやぶ","lat":33.64712,"lng":130.797642,"prefecture":40,"lines":[99903],"attr":"eco","postal_code":"826-0042","address":"田川市大字川宮","next":[9990304,9990213,1191413,1191414,1191505,9990214],"voronoi":{"lat":33.639867,"lng":130.806471,"delta_lat":[0,-3490,3157,16261,-2003,-12809],"delta_lng":[0,-22676,-1763,12825,5275,6621]}},
    {"code":9990304,"left":9990210,"right":9990212,"id":"bca796","name":"糸田","name_kana":"いとだ","lat":33.656481,"lng":130.785773,"prefecture":40,"lines":[99903],"attr":"eco","postal_code":"822-1300","address":"田川郡糸田町大字糸田","next":[9990305,1191505,9990212,9990213,9990303,9990211],"voronoi":{"lat":33.664429,"lng":130.787608,"delta_lat":[0,-11049,-13847,16261,1535,6483],"delta_lng":[0,-25353,19777,12825,-359,-3996]}},
    {"code":9990210,"left":9990303,"right":9990209,"id":"943449","name":"金田","name_kana":"かなだ","lat":33.682805,"lng":130.776491,"prefecture":40,"lines":[99902,99903],"attr":"heat","postal_code":"822-1201","address":"田川郡福智町金田","next":[9990211,9990207,1191410,9990302,9990209,9990208],"voronoi":{"lat":33.696671,"lng":130.783522,"delta_lat":[0,-25038,8595,30411,4415,-7800],"delta_lng":[0,-20970,22413,24868,-1421,-12358]}},
    {"code":9990303,"left":9990302,"id":"3468b3","name":"松山(福岡)","name_kana":"まつやま","lat":33.668496,"lng":130.780537,"prefecture":40,"lines":[99903],"attr":"cool","postal_code":"822-1300","address":"田川郡糸田町糸田","next":[1191111,9990302,9990209,9990304,9990211,1191505],"voronoi":{"lat":33.660423,"lng":130.741757,"delta_lat":[0,414,8984,905,-6296,-11049],"delta_lng":[0,4,17925,25049,2873,-25353]}},
    {"code":9990302,"id":"ae54d1","name":"豊前大熊","name_kana":"ぶぜんおおくま","lat":33.672646,"lng":130.780387,"prefecture":40,"lines":[99903],"attr":"cool","postal_code":"822-1300","address":"田川郡糸田町大字糸田","next":[9990209,9990211,9990303,9990210],"voronoi":{"lat":33.670725,"lng":130.784736,"delta_lat":[0,-905,1812,8595],"delta_lng":[0,-25049,2865,22413]}},
    {"code":9990209,"id":"020b62","name":"人見","name_kana":"ひとみ","lat":33.687316,"lng":130.771105,"prefecture":40,"lines":[99902],"attr":"heat","postal_code":"822-1201","address":"田川郡福智町金田","next":[9990302,9990303,1191111,9990208,9990210],"voronoi":{"lat":33.673556,"lng":130.738397,"delta_lat":[0,-12720,8984,1812,25038],"delta_lng":[0,3365,17925,2865,20970]}},
    {"code":9990212,"left":9990213,"right":9990211,"id":"9e2446","name":"糒","name_kana":"ほしい","lat":33.664744,"lng":130.799177,"prefecture":40,"lines":[99902],"attr":"heat","postal_code":"825-0005","address":"田川市大字糒","next":[9990304,9990211,1191410,9990213,1191412,1191411],"voronoi":{"lat":33.690866,"lng":130.822403,"delta_lat":[0,7115,-34168,-6483,22546,2279],"delta_lng":[0,-5634,-26266,3996,27594,540]}},
    {"code":9990213,"id":"ef77ff","name":"田川市立病院","name_kana":"たがわしりつびょういん","lat":33.660436,"lng":130.802697,"prefecture":40,"lines":[99902],"attr":"cool","postal_code":"825-0005","address":"田川市大字糒１７２２-３","next":[1191412,9990305,9990304,9990214,9990212],"voronoi":{"lat":33.657329,"lng":130.794499,"delta_lat":[0,-1535,-2003,10123,15961],"delta_lng":[0,359,5275,19854,2106]}},
    {"code":9990211,"id":"a1c326","name":"上金田","name_kana":"かみかなだ","lat":33.672435,"lng":130.789172,"prefecture":40,"lines":[99902],"attr":"heat","postal_code":"822-1201","address":"田川郡福智町金田","next":[9990210,9990302,9990212,9990303,9990304,1191410],"voronoi":{"lat":33.663812,"lng":130.790502,"delta_lat":[0,617,6296,9502,30411,-12658],"delta_lng":[0,-2894,-2873,229,24868,6936]}},
    {"code":1191417,"left":1191420,"right":1191411,"id":"3e4b84","name":"西添田","name_kana":"にしそえだ","lat":33.57344,"lng":130.847124,"prefecture":40,"lines":[11914],"attr":"eco","postal_code":"824-0601","address":"田川郡添田町大字庄","next":[1191416,1191419,1191418,1191429,9990406],"voronoi":{"lat":33.555238,"lng":130.841898,"delta_lat":[0,-28300,-4018,78241,-9165],"delta_lng":[0,-55210,-9886,72660,16422]}},
    {"code":1191420,"left":1191429,"right":1191423,"id":"a739e1","name":"彦山","name_kana":"ひこさん","lat":33.500728,"lng":130.869093,"prefecture":40,"lines":[11914],"attr":"cool","postal_code":"824-0722","address":"田川郡添田町大字落合","next":[1190618,1191308,1191203,9990409,9990408,3600312,1191421,1191419],"voronoi":{"lat":33.532837,"lng":130.992561,"delta_lat":[0,-2311,-39250,-43585,7487,38456,2497,41947],"delta_lng":[0,6417,21116,-246093,-10230,-14793,423,220649]}},
    {"code":1191429,"left":1191311,"right":1191418,"id":"867455","name":"歓遊舎ひこさん","name_kana":"かんゆうしゃひこさん","lat":33.548853,"lng":130.859727,"prefecture":40,"lines":[11914],"attr":"eco","postal_code":"824-0604","address":"田川郡添田町野田１３４７番地","next":[1191418,9990408,1191419,1191417],"voronoi":{"lat":33.566773,"lng":130.907093,"delta_lat":[0,-10799,-29036,28300],"delta_lng":[0,20059,-140465,55210]}},
    {"code":1191311,"left":1191419,"id":"aa8ac4","name":"夜明","name_kana":"よあけ","lat":33.319541,"lng":130.866195,"prefecture":44,"lines":[11913,11914],"attr":"heat","postal_code":"877-1112","address":"日田市夜明中町","next":[1191310,1191312,1191309,1191425,9991713,1192312,1191313,1192316,1191314,1191316],"voronoi":{"lat":33.098781,"lng":130.867635,"delta_lat":[0,-254,-2,10281,189378,44594,-19422,-51476,-11353,-134530],"delta_lng":[0,-704,-44773,-38493,38125,25034,46262,7790,-395,-21662]}},
    {"code":1191419,"id":"2a5477","name":"豊前桝田","name_kana":"ぶぜんますだ","lat":33.535777,"lng":130.86243,"prefecture":40,"lines":[11914],"attr":"cool","postal_code":"824-0723","address":"田川郡添田町大字桝田","next":[1191203,9990408,1191416,1191503,1191429,1191417,1191504,1191420],"voronoi":{"lat":33.496132,"lng":130.749401,"delta_lat":[0,1219,2223,10657,12689,4018,29036,-17895],"delta_lng":[0,23,1309,6927,19142,9886,140465,42897]}},
    {"code":1191418,"id":"e3fe89","name":"添田","name_kana":"そえだ","lat":33.567352,"lng":130.856454,"prefecture":40,"lines":[11914],"attr":"eco","postal_code":"824-0602","address":"田川郡添田町大字添田","next":[1191429,9990407,9990406,9990408,1191417],"voronoi":{"lat":33.555238,"lng":130.841898,"delta_lat":[0,11535,3042,21340,841],"delta_lng":[0,65196,-3759,-34698,-2753]}},
    {"code":1191423,"left":1191425,"right":1191422,"id":"266170","name":"宝珠山","name_kana":"ほうしゅやま","lat":33.378819,"lng":130.87942,"prefecture":40,"lines":[11914],"attr":"cool","postal_code":"838-1702","address":"朝倉郡東峰村福井","next":[1191422,1191421,1191425,1191424,1191310],"voronoi":{"lat":33.378232,"lng":130.840468,"delta_lat":[0,24316,-341,-39078,1121],"delta_lng":[0,92387,8360,-78267,-15413]}},
    {"code":1191425,"id":"a2ff96","name":"今山","name_kana":"いまやま","lat":33.345223,"lng":130.876977,"prefecture":44,"lines":[11914],"attr":"cool","postal_code":"877-1111","address":"日田市夜明上町","next":[1191311,1191423,1191424,1191310,1191312],"voronoi":{"lat":33.36313,"lng":130.862949,"delta_lat":[0,1121,-21473,-19422,24217],"delta_lng":[0,-15413,-712,46262,9904]}},
    {"code":1191422,"id":"263ac2","name":"大行司","name_kana":"だいぎょうじ","lat":33.396897,"lng":130.874662,"prefecture":40,"lines":[11914],"attr":"cool","postal_code":"838-1701","address":"朝倉郡東峰村宝珠山","next":[1191423,1191310,1191421],"voronoi":{"lat":33.430575,"lng":130.795448,"delta_lat":[0,-52343,24316],"delta_lng":[0,45020,92387]}},
    {"code":1191411,"left":9990403,"right":9990405,"id":"4fec8e","name":"香春","name_kana":"かわら","lat":33.666003,"lng":130.846972,"prefecture":40,"lines":[11914],"attr":"heat","postal_code":"822-1403","address":"田川郡香春町大字高野","next":[9990403,1191412,1191410,9990404,9990212],"voronoi":{"lat":33.659331,"lng":130.84289,"delta_lat":[0,-1787,22690,10631,-8711],"delta_lng":[0,5126,45767,-71380,230]}},
    {"code":9990403,"left":9990402,"right":1191412,"id":"2297a3","name":"勾金","name_kana":"まがりかね","lat":33.651568,"lng":130.841939,"prefecture":40,"lines":[99904],"attr":"eco","postal_code":"822-1405","address":"田川郡香春町大字中津原","next":[1191411,9990405,1191412,9990402,9990404],"voronoi":{"lat":33.627851,"lng":130.842568,"delta_lat":[0,22085,9396,-1787,-21048],"delta_lng":[0,-6547,6868,5126,43]}},
    {"code":9990402,"left":1191416,"id":"d483e8","name":"上伊田","name_kana":"かみいた","lat":33.648079,"lng":130.83017,"prefecture":40,"lines":[99904],"attr":"eco","postal_code":"825-0002","address":"田川市大字伊田１１９５-２","next":[1191413,1191412,9990403,1191416,9990214,9990405],"voronoi":{"lat":33.649936,"lng":130.836021,"delta_lat":[0,10957,-6357,-33624,-727,7666],"delta_lng":[0,-15604,-1067,16251,4561,2406]}},
    {"code":1191416,"id":"1197a1","name":"豊前川崎","name_kana":"ぶぜんかわさき","lat":33.596782,"lng":130.821989,"prefecture":40,"lines":[11914],"attr":"eco","postal_code":"827-0003","address":"田川郡川崎町大字川崎","next":[1191419,1191417,9990406,1191415,9990402,1191413,9990405,1191504],"voronoi":{"lat":33.51023,"lng":130.75766,"delta_lat":[0,12689,78241,16590,2434,727,-603,-59560],"delta_lng":[0,19142,72660,-6965,-2334,-4561,-6347,-59758]}},
    {"code":1191412,"id":"4aad31","name":"一本松(福岡)","name_kana":"いっぽんまつ","lat":33.65607,"lng":130.835781,"prefecture":40,"lines":[11914],"attr":"heat","postal_code":"822-1405","address":"田川郡香春町中津原１８０５-２","next":[1191411,9990213,9990402,9990214,9990403,9990212],"voronoi":{"lat":33.659331,"lng":130.84289,"delta_lat":[0,-9396,10957,3022,15961,2279],"delta_lng":[0,-6868,-15604,-431,2106,540]}},
    {"code":9990405,"left":9990406,"right":9990404,"id":"137285","name":"内田","name_kana":"うちだ","lat":33.637367,"lng":130.864302,"prefecture":40,"lines":[99904],"attr":"eco","postal_code":"824-0432","address":"田川郡赤村大字内田","next":[9990403,9990409,9990404,9990406,9990408,1191416,9990402],"voronoi":{"lat":33.636496,"lng":130.848058,"delta_lat":[0,31267,-24403,-9354,-16256,2434,7666],"delta_lng":[0,43669,-493,-6258,-42480,-2334,2406]}},
    {"code":9990406,"id":"d330d4","name":"赤","name_kana":"あか","lat":33.617703,"lng":130.871827,"prefecture":40,"lines":[99904],"attr":"eco","postal_code":"824-0432","address":"田川郡赤村大字内田","next":[9990408,9990405,1191416,1191418,9990407,1191417],"voronoi":{"lat":33.591155,"lng":130.868636,"delta_lat":[0,41304,1548,-16256,-16590,-9165],"delta_lng":[0,16242,98,-42480,6965,16422]}},
    {"code":9990404,"id":"a45a6d","name":"柿下温泉口","name_kana":"かきしたおんせんぐち","lat":33.651593,"lng":130.854116,"prefecture":40,"lines":[99904],"attr":"eco","postal_code":"822-1404","address":"田川郡香春町柿下","next":[1191410,9990405,9990409,1191411,9990403],"voronoi":{"lat":33.657544,"lng":130.848015,"delta_lat":[0,22690,16,-12487,-31267],"delta_lng":[0,45767,941,-2996,-43669]}},
    {"code":9990902,"left":9990910,"right":9990811,"id":"91e2c0","name":"西黒崎","name_kana":"にしくろさき","lat":33.866309,"lng":130.761418,"prefecture":40,"lines":[99909],"attr":"eco","postal_code":"806-0021","address":"北九州市八幡西区黒崎３-１４６","next":[9990903,1190212,9990901,9990904,1191003],"voronoi":{"lat":33.878385,"lng":130.758939,"delta_lat":[0,-27130,-8734,29337,5959],"delta_lng":[0,1605,3667,-951,-620]}},
    {"code":9990910,"left":9990920,"right":1190213,"id":"10b404","name":"西山(福岡)","name_kana":"にしやま","lat":33.829393,"lng":130.732274,"prefecture":40,"lines":[99909],"attr":"heat","postal_code":"807-0844","address":"北九州市八幡西区春日台５-７９２-２","next":[1191102,9990909,9990911,9990916,1191103],"voronoi":{"lat":33.835446,"lng":130.720421,"delta_lat":[0,4576,-41100,4961,29851],"delta_lng":[0,2183,59667,-25688,-36068]}},
    {"code":9990920,"left":9990918,"right":9990205,"id":"55345d","name":"感田","name_kana":"がんだ","lat":33.758799,"lng":130.733137,"prefecture":40,"lines":[99909],"attr":"cool","postal_code":"822-0001","address":"直方市大字感田字渕尻２９７１-２","next":[1191108,9990205,1191409,9990921,9990206,9990202,9990919],"voronoi":{"lat":33.762164,"lng":130.725056,"delta_lat":[0,-15986,-1656,-2629,8652,9392,18414],"delta_lng":[0,12391,1911,6408,33602,18191,551]}},
    {"code":9990918,"left":9990919,"right":9990911,"id":"670ec3","name":"木屋瀬","name_kana":"こやのせ","lat":33.778483,"lng":130.724957,"prefecture":40,"lines":[99909],"attr":"cool","postal_code":"807-1261","address":"北九州市八幡西区木屋瀬５-２１０-１","next":[9990917,1191106,9990919,1191107],"voronoi":{"lat":33.772956,"lng":130.716829,"delta_lat":[0,7232,2481,-13063],"delta_lng":[0,-557,26651,-21449]}},
    {"code":9990919,"left":9990921,"id":"b8b2d2","name":"遠賀野","name_kana":"おんがの","lat":33.768628,"lng":130.730959,"prefecture":40,"lines":[99909],"attr":"cool","postal_code":"822-0001","address":"直方市大字感田字若柳２２１１-２","next":[1191408,9990921,9990917,9990916,9990909,9990918,1191107,1191409,9990920],"voronoi":{"lat":33.762164,"lng":130.725056,"delta_lat":[0,445,6997,13063,3556,11371,-645,-17856,-744],"delta_lng":[0,-1446,-2136,21449,8162,36450,8493,2159,-77]}},
    {"code":9990921,"id":"8d847d","name":"筑豊直方","name_kana":"ちくほうのおがた","lat":33.753499,"lng":130.726299,"prefecture":40,"lines":[99909],"attr":"cool","postal_code":"822-0022","address":"直方市知古１-１-５","next":[9990919,1191107,9990920,1191108],"voronoi":{"lat":33.754463,"lng":130.716904,"delta_lat":[0,8147,-445,-15986],"delta_lng":[0,6706,1446,12391]}},
    {"code":9990911,"id":"fb1898","name":"通谷","name_kana":"とおりたに","lat":33.822994,"lng":130.726978,"prefecture":40,"lines":[99909],"attr":"heat","postal_code":"809-0015","address":"中間市太賀１-２-１","next":[9990912,1191103,9990910,9990916,9990915],"voronoi":{"lat":33.803883,"lng":130.756583,"delta_lat":[0,29851,-3422,-21710,-3642],"delta_lng":[0,-36068,-995,11409,10859]}},
    {"code":9990205,"left":9990206,"right":9990204,"id":"281a32","name":"中泉","name_kana":"なかいずみ","lat":33.720992,"lng":130.742871,"prefecture":40,"lines":[99902],"attr":"eco","postal_code":"822-0011","address":"直方市大字中泉","next":[1191110,9990204,9990202,9990920,9990206],"voronoi":{"lat":33.741894,"lng":130.745766,"delta_lat":[0,-4610,-40650,-878,54790],"delta_lng":[0,-4551,-5497,642,43008]}},
    {"code":9990206,"id":"64decc","name":"市場(福岡)","name_kana":"いちば","lat":33.708074,"lng":130.759328,"prefecture":40,"lines":[99902],"attr":"eco","postal_code":"822-1103","address":"田川郡福智町市場","next":[9990207,1191410,9990205,9990920,1191409,1191110],"voronoi":{"lat":33.738559,"lng":130.806431,"delta_lat":[0,1956,19423,-9392,-54790,-10315],"delta_lng":[0,12,-8885,-18191,-43008,2284]}},
    {"code":9990204,"id":"48351d","name":"藤棚","name_kana":"ふじたな","lat":33.722017,"lng":130.735291,"prefecture":40,"lines":[99902],"attr":"eco","postal_code":"822-0007","address":"直方市大字下境","next":[1191110,9990203,9990205,9990202],"voronoi":{"lat":33.732761,"lng":130.733939,"delta_lat":[0,-22872,-13256,40650],"delta_lng":[0,-11390,13168,5497]}},
    {"code":1190213,"left":9990907,"right":9990904,"id":"f7336e","name":"陣原","name_kana":"じんのはる","lat":33.868242,"lng":130.742656,"prefecture":40,"lines":[11902],"attr":"cool","postal_code":"807-0821","address":"北九州市八幡西区陣原１丁目２番１号","next":[1191004,9990903,9990906,1191005,9990904,9990905],"voronoi":{"lat":33.861518,"lng":130.737705,"delta_lat":[0,890,19065,-4164,-8343,-6154],"delta_lng":[0,-8165,6652,15511,-1171,-6663]}},
    {"code":9990907,"left":9990908,"right":9990906,"id":"620e1a","name":"今池(福岡)","name_kana":"いまいけ","lat":33.845258,"lng":130.739582,"prefecture":40,"lines":[99909],"attr":"eco","postal_code":"807-0846","address":"北九州市八幡西区里中２-１４６８-１３","next":[9990904,9990905,1190214,1191102,9990901,9990906,9990908],"voronoi":{"lat":33.845671,"lng":130.723553,"delta_lat":[0,3948,2663,-4399,-5403,-1539,-6200],"delta_lng":[0,-555,1849,25136,12191,2549,5076]}},
    {"code":9990908,"left":9990909,"id":"d93317","name":"永犬丸","name_kana":"えいのまる","lat":33.838865,"lng":130.738071,"prefecture":40,"lines":[99909],"attr":"heat","postal_code":"807-0846","address":"北九州市八幡西区里中２-１-１","next":[1190211,9990907,9990909,9990901,1191102],"voronoi":{"lat":33.834741,"lng":130.769799,"delta_lat":[0,-14370,-10508,33905,1903],"delta_lng":[0,14468,5526,-66366,126]}},
    {"code":9990909,"id":"b5c727","name":"三ヶ森","name_kana":"さんがもり","lat":33.834776,"lng":130.735982,"prefecture":40,"lines":[99909],"attr":"heat","postal_code":"807-0843","address":"福岡県北九州市八幡西区三ヶ森一丁目","next":[1191102,1190211,9990910,1191408,9990919,9990916,9990908],"voronoi":{"lat":33.79821,"lng":130.796509,"delta_lat":[0,-1258,645,1325,41100,3747,-33905],"delta_lng":[0,-482,-8493,-5263,-59667,822,66366]}},
    {"code":9990906,"id":"2956fb","name":"森下(福岡)","name_kana":"もりした","lat":33.853885,"lng":130.741092,"prefecture":40,"lines":[99909],"attr":"eco","postal_code":"806-0046","address":"北九州市八幡西区森下町１３","next":[9990905,1191005,1190213,9990907,1190214],"voronoi":{"lat":33.862407,"lng":130.729539,"delta_lat":[0,-890,-13634,4399,8700],"delta_lng":[0,8165,12278,-25136,3029]}},
    {"code":9990904,"left":9990905,"right":9990903,"id":"2b3079","name":"萩原(福岡)","name_kana":"はぎわら","lat":33.861173,"lng":130.749186,"prefecture":40,"lines":[99909],"attr":"eco","postal_code":"806-0059","address":"北九州市八幡西区萩原１-１０-５","next":[9990907,9990902,1190213,9990903,9990901,9990905],"voronoi":{"lat":33.840942,"lng":130.764723,"delta_lat":[0,1580,8734,17710,-6154,-20331],"delta_lng":[0,-511,-3667,-10013,-6663,18305]}},
    {"code":9990905,"id":"6539ea","name":"穴生","name_kana":"あのお","lat":33.857352,"lng":130.744942,"prefecture":40,"lines":[99909],"attr":"eco","postal_code":"806-0049","address":"北九州市八幡西区穴生１-８１","next":[9990906,9990907,1190213,9990904],"voronoi":{"lat":33.862812,"lng":130.743869,"delta_lat":[0,-1294,-13634,-5403],"delta_lng":[0,-6164,12278,12191]}},
    {"code":9990903,"id":"e9b9b5","name":"熊西","name_kana":"くまにし","lat":33.866101,"lng":130.757902,"prefecture":40,"lines":[99909],"attr":"eco","postal_code":"806-0031","address":"北九州市八幡西区熊西１-２８-１","next":[9990902,1191003,1190213,9990904,1191004],"voronoi":{"lat":33.878385,"lng":130.758939,"delta_lat":[0,-27130,17710,8343,1867],"delta_lng":[0,1605,-10013,1171,4640]}},
    {"code":9990811,"left":9990812,"right":9990808,"id":"cb3102","name":"徳力嵐山口","name_kana":"とくりきあらしやまぐち","lat":33.824744,"lng":130.863694,"prefecture":40,"lines":[99908],"attr":"heat","postal_code":"802-0974","address":"北九州市小倉南区徳力６","next":[1191408,9990812,1191407,1190606,1190210,1190211,9990810],"voronoi":{"lat":33.848125,"lng":130.835412,"delta_lat":[0,10,-29082,-17914,2826,7571,14328],"delta_lng":[0,-353,-23521,-11554,49366,14706,4097]}},
    {"code":9990812,"left":1191409,"right":1191406,"id":"a82e8f","name":"志井(北九州高速鉄道)","name_kana":"しい","lat":33.822556,"lng":130.871345,"prefecture":40,"lines":[99908],"attr":"cool","postal_code":"802-0985","address":"北九州市小倉南区大字志井","next":[9990809,9990810,9990811,9990813,1191407],"voronoi":{"lat":33.811536,"lng":130.864055,"delta_lat":[0,14328,3403,-307,-16315],"delta_lng":[0,4097,7059,2830,-7510]}},
    {"code":1191409,"left":1191410,"right":1191408,"id":"74a3e2","name":"呼野","name_kana":"よぶの","lat":33.754949,"lng":130.861796,"prefecture":40,"lines":[11914],"attr":"heat","postal_code":"803-0181","address":"北九州市小倉南区大字呼野","next":[1191408,1190612,1190613,9990920,1191410,9990414,9990919,9990206],"voronoi":{"lat":33.759938,"lng":130.797558,"delta_lat":[0,18414,744,-16538,-18226,-18143,-4536,18862],"delta_lng":[0,551,77,118849,-324,-4447,-2272,-103549]}},
    {"code":1191410,"left":9990207,"id":"e259c3","name":"採銅所","name_kana":"さいどうしょ","lat":33.707489,"lng":130.853151,"prefecture":40,"lines":[11914],"attr":"heat","postal_code":"822-1401","address":"田川郡香春町大字採銅所","next":[9990207,9990413,9990404,1191411,9990410,9990414,9990206,9990212,9990210,9990409,1191409,9990411,9990211],"voronoi":{"lat":33.690866,"lng":130.822403,"delta_lat":[0,-10631,16,5187,6252,8230,4318,17415,18862,-1956,-23505,-4415,-12658],"delta_lng":[0,71380,941,5705,4120,3960,785,699,-103549,-12,1980,1421,6936]}},
    {"code":9990207,"id":"521635","name":"ふれあい生力","name_kana":"ふれあいしょうりき","lat":33.700112,"lng":130.765567,"prefecture":40,"lines":[99902],"attr":"eco","postal_code":"822-1101","address":"田川郡福智町赤池","next":[1191410,1191110,9990206,9990210,9990208],"voronoi":{"lat":33.685101,"lng":130.738661,"delta_lat":[0,340,53118,-23505,-7800],"delta_lng":[0,-18,67788,1980,-12358]}},
    {"code":1191408,"id":"048e60","name":"石原町","name_kana":"いしはらまち","lat":33.784959,"lng":130.865972,"prefecture":40,"lines":[11914],"attr":"heat","postal_code":"803-0186","address":"北九州市小倉南区大字新道寺","next":[9990919,1191409,9990811,1191407,9990909,1190610,1190612,1190211],"voronoi":{"lat":33.79821,"lng":130.796509,"delta_lat":[0,-1258,-17856,-16538,3483,6874,31050,-2826],"delta_lng":[0,-482,2159,118849,1050,-1730,-67006,-49366]}},
    {"code":1191406,"left":1191407,"right":9990813,"id":"9bd655","name":"志井公園","name_kana":"しいこうえん","lat":33.818636,"lng":130.879793,"prefecture":40,"lines":[11914],"attr":"heat","postal_code":"802-0981","address":"北九州市小倉南区企救丘２丁目","next":[1190609,9990813,1191407,1191405],"voronoi":{"lat":33.798344,"lng":130.914183,"delta_lat":[0,13457,14919,-20279],"delta_lng":[0,-39015,7074,29898]}},
    {"code":1191407,"id":"2f80cd","name":"志井(JR)","name_kana":"しい","lat":33.803569,"lng":130.874596,"prefecture":40,"lines":[11914],"attr":"heat","postal_code":"802-0985","address":"北九州市小倉南区大字志井","next":[1191408,1190609,9990813,9990811,9990812,1190610,1191406],"voronoi":{"lat":33.811802,"lng":130.875168,"delta_lat":[0,843,-1109,-7571,-31050,23200,2230],"delta_lng":[0,-4636,-6476,-14706,67006,-1101,-1072]}},
    {"code":9990813,"id":"0edd33","name":"企救丘","name_kana":"きくがおか","lat":33.819708,"lng":130.877532,"prefecture":40,"lines":[99908],"attr":"cool","postal_code":"802-0981","address":"北九州市小倉南区企救丘２","next":[1191405,1191406,9990809,1191407,9990812],"voronoi":{"lat":33.829335,"lng":130.879405,"delta_lat":[0,-2614,-14919,843,16315],"delta_lng":[0,2837,-7074,-4636,7510]}},
    {"code":9990808,"left":9990901,"right":9990806,"id":"5e497f","name":"競馬場前(福岡)","name_kana":"けいばじょうまえ","lat":33.842878,"lng":130.876526,"prefecture":40,"lines":[99908],"attr":"heat","postal_code":"802-0841","address":"北九州市小倉南区北方４","next":[1190606,9990809,9990807,1191405],"voronoi":{"lat":33.83588,"lng":130.881315,"delta_lat":[0,14494,412,-7408],"delta_lng":[0,-24699,960,30368]}},
    {"code":9990901,"left":9990809,"right":1190212,"id":"2f8a66","name":"黒崎駅前","name_kana":"くろさきえきまえ","lat":33.86644,"lng":130.765459,"prefecture":40,"lines":[99909],"attr":"eco","postal_code":"806-0021","address":"北九州市八幡西区黒崎３-５７-３","next":[1190211,1190212,9990902,9990907,9990904,9990908],"voronoi":{"lat":33.834741,"lng":130.769799,"delta_lat":[0,6200,1580,29337,-40977,-10510],"delta_lng":[0,-5076,-511,-951,20132,874]}},
    {"code":9990809,"left":9990810,"id":"1cd54e","name":"守恒","name_kana":"もりつね","lat":33.836648,"lng":130.87287,"prefecture":40,"lines":[99908],"attr":"heat","postal_code":"802-0971","address":"北九州市小倉南区守恒本町１","next":[9990812,9990808,9990810,9990813,1190606,1191405],"voronoi":{"lat":33.850374,"lng":130.856616,"delta_lat":[0,-1146,-19962,-307,375,6546],"delta_lng":[0,-4787,23383,2830,1363,1910]}},
    {"code":9990810,"id":"31d438","name":"徳力公団前","name_kana":"とくりきこうだんまえ","lat":33.830421,"lng":130.867554,"prefecture":40,"lines":[99908],"attr":"heat","postal_code":"802-0974","address":"北九州市小倉南区徳力１","next":[9990812,9990809,9990811,1190606],"voronoi":{"lat":33.848125,"lng":130.835412,"delta_lat":[0,-22261,3403,19962],"delta_lng":[0,32741,7059,-23383]}},
    {"code":1190212,"id":"1329b5","name":"黒崎","name_kana":"くろさき","lat":33.866807,"lng":130.766206,"prefecture":40,"lines":[11902],"attr":"cool","postal_code":"806-0021","address":"北九州市八幡西区黒崎３丁目","next":[1190211,9990902,9990901,1191003,1191002],"voronoi":{"lat":33.830881,"lng":130.783393,"delta_lat":[0,40977,5959,802,-2058],"delta_lng":[0,-20132,-620,13931,3504]}},
    {"code":9990806,"left":9990807,"right":9990805,"id":"b1e1e5","name":"城野(北九州高速鉄道)","name_kana":"じょうの","lat":33.858398,"lng":130.879601,"prefecture":40,"lines":[99908],"attr":"heat","postal_code":"802-0801","address":"北九州市小倉南区富士見三丁目","next":[9990807,1190607,9990805,1190606],"voronoi":{"lat":33.85593,"lng":130.865751,"delta_lat":[0,-2852,8680,745],"delta_lng":[0,17017,256,-12100]}},
    {"code":9990807,"id":"a444d9","name":"北方(福岡)","name_kana":"きたがた","lat":33.84908,"lng":130.878039,"prefecture":40,"lines":[99908],"attr":"heat","postal_code":"802-0841","address":"北九州市小倉南区北方３","next":[9990806,1191405,9990808,1190607,1190606,1190608],"voronoi":{"lat":33.845331,"lng":130.891033,"delta_lat":[0,-1952,7408,5143,-2852,-7478],"delta_lng":[0,-3089,-30368,8175,17017,8316]}},
    {"code":9990805,"id":"1049f8","name":"片野","name_kana":"かたの","lat":33.865511,"lng":130.880039,"prefecture":40,"lines":[99908],"attr":"eco","postal_code":"802-0072","address":"北九州市小倉北区東篠崎１","next":[1190607,9990806,9990804,1190606],"voronoi":{"lat":33.862502,"lng":130.870924,"delta_lat":[0,-745,6847,1232],"delta_lng":[0,12100,8068,-18008]}},
    {"code":1190631,"left":1190637,"right":1190611,"id":"0556b8","name":"立石","name_kana":"たていし","lat":33.481829,"lng":131.476993,"prefecture":44,"lines":[11906],"attr":"eco","postal_code":"879-1302","address":"杵築市山香町立石","next":[1190633,1190630,1161220,1190632,1190637,1190629,1161213],"voronoi":{"lat":33.724721,"lng":131.699465,"delta_lat":[0,20582,-187613,-151482,2935,166943,134021],"delta_lng":[0,-71979,-143703,-71674,14441,192890,96454]}},
    {"code":1190637,"left":1191318,"right":1190646,"id":"628c23","name":"豊後豊岡","name_kana":"ぶんごとよおか","lat":33.361923,"lng":131.50137,"prefecture":44,"lines":[11906],"attr":"eco","postal_code":"879-1507","address":"速見郡日出町大字豊岡","next":[1190638,1190636,1190631,1190630,1190632,1191324],"voronoi":{"lat":33.33928,"lng":131.523471,"delta_lat":[0,65927,3935,-2935,-17949,-11857],"delta_lng":[0,-18482,-78440,-14441,-35532,8052]}},
    {"code":1191318,"left":1191322,"right":1191315,"id":"021be8","name":"北山田(大分)","name_kana":"きたやまだ","lat":33.282004,"lng":131.100917,"prefecture":44,"lines":[11913],"attr":"heat","postal_code":"879-4331","address":"玖珠郡玖珠町大字戸畑","next":[1190618,1191319,1191315,1191321,1191317,1191320,1190621],"voronoi":{"lat":33.243846,"lng":131.128736,"delta_lat":[0,-21839,-10633,119305,120914,645,-6223],"delta_lng":[0,-7941,-6793,-59390,3151,39980,27455]}},
    {"code":1191322,"left":1191320,"right":1191324,"id":"40249d","name":"豊後中村","name_kana":"ぶんごなかむら","lat":33.226016,"lng":131.207548,"prefecture":44,"lines":[11913],"attr":"heat","postal_code":"879-4801","address":"玖珠郡九重町大字右田","next":[1191326,1191320,1191321,1191323,1192321,1192322],"voronoi":{"lat":33.126464,"lng":131.264331,"delta_lat":[0,144107,-21673,-165546,-2492,2514],"delta_lng":[0,-46749,-19194,-21917,58475,20970]}},
    {"code":1191320,"left":1191321,"right":1191317,"id":"5f2a8a","name":"恵良","name_kana":"えら","lat":33.255224,"lng":131.174566,"prefecture":44,"lines":[11913],"attr":"heat","postal_code":"879-4801","address":"玖珠郡九重町大字右田","next":[1191321,1191323,1191322,1191319,1191318],"voronoi":{"lat":33.222008,"lng":131.120795,"delta_lat":[0,26891,21673,40781,-67506],"delta_lng":[0,77593,19194,7826,-96672]}},
    {"code":1191321,"left":1191316,"id":"ecab1f","name":"引治","name_kana":"ひきじ","lat":33.229188,"lng":131.183589,"prefecture":44,"lines":[11913],"attr":"heat","postal_code":"879-4723","address":"玖珠郡九重町大字町田","next":[1191320,1192317,1192321,1191322,1191316,1191317,1191318,1192319,1192318,1192320],"voronoi":{"lat":33.094435,"lng":131.101134,"delta_lat":[0,1562,4678,769,173,109757,10633,26891,-165546,-903],"delta_lng":[0,-5140,-13173,-1577,28,32729,6793,77593,-21917,-22418]}},
    {"code":1191316,"id":"b4d2b3","name":"天ヶ瀬","name_kana":"あまがせ","lat":33.254747,"lng":131.023877,"prefecture":44,"lines":[11913],"attr":"heat","postal_code":"879-4201","address":"大分県日田市天瀬町桜竹","next":[1191321,1192316,1192317,1191315,1191317,1191311,1191314],"voronoi":{"lat":33.125997,"lng":130.878818,"delta_lat":[0,-27216,-4781,7445,173,182642,-51435],"delta_lng":[0,-11184,95899,117711,28,-42282,-84765]}},
    {"code":1191317,"id":"80430b","name":"杉河内","name_kana":"すぎかわち","lat":33.264391,"lng":131.065535,"prefecture":44,"lines":[11913],"attr":"heat","postal_code":"879-4202","address":"日田市天瀬町赤岩","next":[1191321,1191318,1191315,1191316],"voronoi":{"lat":33.211374,"lng":131.114001,"delta_lat":[0,119305,-46420,-182642],"delta_lng":[0,-59390,-15621,42282]}},
    {"code":1191324,"left":1191325,"right":1190640,"id":"9c0699","name":"由布院","name_kana":"ゆふいん","lat":33.262551,"lng":131.355024,"prefecture":44,"lines":[11913],"attr":"heat","postal_code":"879-5114","address":"由布市湯布院町川北","next":[1190638,1191328,1190625,1190630,1190639,1191327,1190637,1191325,1191326,1191323,1190640],"voronoi":{"lat":33.247245,"lng":131.417071,"delta_lat":[0,-17622,216,78196,94684,7223,-21684,-11857,-80172,-2131,-33673],"delta_lng":[0,-29005,-22381,-74393,-20338,35164,70459,8052,39586,749,3966]}},
    {"code":1191325,"left":1191323,"id":"57b1cd","name":"南由布","name_kana":"みなみゆふ","lat":33.242116,"lng":131.333544,"prefecture":44,"lines":[11913],"attr":"cool","postal_code":"879-5104","address":"由布市湯布院町中川","next":[1191323,1191324,1191326],"voronoi":{"lat":33.308036,"lng":131.291292,"delta_lat":[0,-111739,33543],"delta_lng":[0,2360,72033]}},
    {"code":1191323,"id":"f4b6a1","name":"野矢","name_kana":"のや","lat":33.240391,"lng":131.25186,"prefecture":44,"lines":[11913],"attr":"heat","postal_code":"879-4802","address":"玖珠郡九重町大字野上","next":[1191320,1191325,1191319,1191322,1190625,1191326,1191324],"voronoi":{"lat":33.196296,"lng":131.293651,"delta_lat":[0,-69832,144107,40781,92005,-638,-94684],"delta_lng":[0,-29321,-46749,7826,40514,5032,20338]}},
    {"code":1190640,"id":"ff1ac7","name":"別府(大分)","name_kana":"べっぷ","lat":33.279665,"lng":131.500319,"prefecture":44,"lines":[11906],"attr":"eco","postal_code":"874-0935","address":"別府市駅前町","next":[1190639,1191330,1191328,1190641,1191324],"voronoi":{"lat":33.294098,"lng":131.424964,"delta_lat":[0,3427,-55533,2813,15620],"delta_lng":[0,108229,-64739,-16027,-23497]}},
    {"code":1191315,"left":1191312,"right":1190639,"id":"13f8c4","name":"豊後中川","name_kana":"ぶんごなかがわ","lat":33.284482,"lng":131.005834,"prefecture":44,"lines":[11913],"attr":"heat","postal_code":"879-4122","address":"日田市天瀬町合田","next":[1191421,1191318,1190618,1191316,1191313,1191317,1191314],"voronoi":{"lat":33.438951,"lng":131.039367,"delta_lat":[0,13359,-716,-120914,-46420,-51435,160752],"delta_lng":[0,15695,2701,-3151,-15621,-84765,63126]}},
    {"code":1191312,"left":1191314,"right":1191424,"id":"ed6642","name":"光岡","name_kana":"てるおか","lat":33.327668,"lng":130.919901,"prefecture":44,"lines":[11913,11914],"attr":"heat","postal_code":"877-0078","address":"日田市北友田町１丁目","next":[1191311,1191421,1191424,1191313,1191425],"voronoi":{"lat":33.323356,"lng":130.893086,"delta_lat":[0,-51476,135883,-4002,-56188],"delta_lng":[0,7790,76659,-10728,-63817]}},
    {"code":1191314,"left":1191313,"id":"bbc0de","name":"豊後三芳","name_kana":"ぶんごみよし","lat":33.305796,"lng":130.951557,"prefecture":44,"lines":[11913],"attr":"heat","postal_code":"877-0035","address":"日田市日高町","next":[1191313,1191311,1191315,1191316],"voronoi":{"lat":33.125997,"lng":130.878818,"delta_lat":[0,134530,133050,-160752],"delta_lng":[0,21662,116871,-63126]}},
    {"code":1191313,"id":"c78a5c","name":"日田","name_kana":"ひた","lat":33.317014,"lng":130.938786,"prefecture":44,"lines":[11913,11914],"attr":"heat","postal_code":"877-0013","address":"日田市元町","next":[1191315,1191312,1191311,1191314,1191421],"voronoi":{"lat":33.407763,"lng":130.977534,"delta_lat":[0,-135883,-11353,133050,45374],"delta_lng":[0,-76659,-395,116871,22015]}},
    {"code":1191424,"id":"50bd3a","name":"大鶴","name_kana":"おおつる","lat":33.366868,"lng":130.885387,"prefecture":44,"lines":[11914],"attr":"cool","postal_code":"877-1106","address":"日田市大肥本町","next":[1191421,1191312,1191425,1191423],"voronoi":{"lat":33.403761,"lng":130.966807,"delta_lat":[0,-56188,15557,39078],"delta_lng":[0,-63817,-40041,78267]}},
    {"code":1190639,"left":1191319,"right":1190638,"id":"96a9ef","name":"別府大学","name_kana":"べっぷだいがく","lat":33.31327,"lng":131.499255,"prefecture":44,"lines":[11906],"attr":"eco","postal_code":"874-0023","address":"別府市上人ケ浜町","next":[1190635,1190638,1190636,1190641,1190640,1191324,1190642],"voronoi":{"lat":33.304587,"lng":131.561685,"delta_lat":[0,-7062,-3427,2131,37588,-2194,-24224],"delta_lng":[0,-28492,-108229,-749,104990,3981,30792]}},
    {"code":1191319,"id":"501a39","name":"豊後森","name_kana":"ぶんごもり","lat":33.282954,"lng":131.155202,"prefecture":44,"lines":[11913],"attr":"heat","postal_code":"879-4403","address":"玖珠郡玖珠町大字帆足","next":[1191318,1191323,1191320,1190621,1190622,1190625,1190624],"voronoi":{"lat":33.440565,"lng":131.177551,"delta_lat":[0,4976,475,-202169,67506,92005,14000],"delta_lng":[0,-44249,-8105,3538,96672,40514,-28631]}},
    {"code":1190638,"id":"0bbbab","name":"亀川","name_kana":"かめがわ","lat":33.330688,"lng":131.493019,"prefecture":44,"lines":[11906],"attr":"eco","postal_code":"874-0014","address":"別府市亀川浜田町","next":[1191324,1190639,1190637,1190636],"voronoi":{"lat":33.33928,"lng":131.523471,"delta_lat":[0,37121,-80172,37588],"delta_lng":[0,-138843,39586,104990]}},
    {"code":1190646,"left":1190644,"right":1190634,"id":"a8000d","name":"鶴崎","name_kana":"つるさき","lat":33.242852,"lng":131.686899,"prefecture":44,"lines":[11906],"attr":"heat","postal_code":"870-0106","address":"大分市大字鶴崎","next":[1190645,1190647,1192333,1190634],"voronoi":{"lat":33.345114,"lng":131.671273,"delta_lat":[0,-146652,-21218,190406],"delta_lng":[0,70,34488,-6156]}},
    {"code":1190644,"left":1191335,"right":1190648,"id":"35c568","name":"牧(大分)","name_kana":"まき","lat":33.237006,"lng":131.637828,"prefecture":44,"lines":[11906],"attr":"heat","postal_code":"870-0152","address":"大分市大字牧","next":[1192336,1191335,1190634,1190643,1190645,1190642],"voronoi":{"lat":33.280208,"lng":131.616101,"delta_lat":[0,-51255,-2433,-17354,107630,-107],"delta_lng":[0,6912,1343,32439,-35026,-251]}},
    {"code":1191335,"left":1191334,"right":1190643,"id":"79b1ed","name":"古国府","name_kana":"ふるごう","lat":33.220707,"lng":131.608306,"prefecture":44,"lines":[11913],"attr":"eco","postal_code":"870-0844","address":"大分市古国府","next":[1190644,1192336,1192335,1190643,1191334],"voronoi":{"lat":33.224982,"lng":131.594958,"delta_lat":[0,3971,-2433,-23133,-1121],"delta_lng":[0,28055,1343,-17520,-5355]}},
    {"code":1191334,"left":1191333,"id":"2e4d9d","name":"南大分","name_kana":"みなみおおいた","lat":33.214276,"lng":131.585913,"prefecture":44,"lines":[11913],"attr":"eco","postal_code":"870-0883","address":"大分市永興","next":[1191332,1192335,1190642,1191333,1190643,1191335],"voronoi":{"lat":33.224982,"lng":131.594958,"delta_lat":[0,5343,-1709,-36015,-12127,21792],"delta_lng":[0,-4785,-16744,1819,6716,19517]}},
    {"code":1191333,"id":"2dca47","name":"賀来","name_kana":"かく","lat":33.213091,"lng":131.562455,"prefecture":44,"lines":[11913],"attr":"eco","postal_code":"870-0877","address":"大分市大字賀来","next":[1190642,1191334,1191331,1191332,1190641],"voronoi":{"lat":33.228617,"lng":131.57343,"delta_lat":[0,-36015,25960,14442,14357],"delta_lng":[0,1819,-41647,-4916,15116]}},
    {"code":1190643,"id":"5edc55","name":"大分","name_kana":"おおいた","lat":33.232794,"lng":131.606595,"prefecture":44,"lines":[11906,11913,11923],"attr":"eco","postal_code":"870-0831","address":"大分市要町","next":[1190642,1191334,1190644,1191335],"voronoi":{"lat":33.224982,"lng":131.594958,"delta_lat":[0,5343,49883,-51255],"delta_lng":[0,-4785,25928,6912]}},
    {"code":1190648,"left":1190649,"right":1190645,"id":"54ce86","name":"坂ノ市","name_kana":"さかのいち","lat":33.236715,"lng":131.751593,"prefecture":44,"lines":[11906],"attr":"heat","postal_code":"870-0302","address":"大分市大字坂ノ市","next":[1190651,1190647,1190652,1190649,1190650,1190633],"voronoi":{"lat":33.445459,"lng":131.783673,"delta_lat":[0,-277176,15790,2038,4478,258707],"delta_lng":[0,-64362,44227,2672,4184,17074]}},
    {"code":1190649,"id":"58ca94","name":"幸崎","name_kana":"こうざき","lat":33.233844,"lng":131.795095,"prefecture":44,"lines":[11906],"attr":"heat","postal_code":"879-2111","address":"大分市本神崎","next":[1190656,1161213,1190633,1190648,1161210,1190650,1180730],"voronoi":{"lat":33.55397,"lng":132.04291,"delta_lat":[0,36932,4825,-146430,-258707,113445,37625],"delta_lng":[0,-107530,-29838,-118074,-17074,295685,51069]}},
    {"code":1190645,"id":"e12458","name":"高城","name_kana":"たかじょう","lat":33.242837,"lng":131.655746,"prefecture":44,"lines":[11906],"attr":"heat","postal_code":"870-0156","address":"大分市高城新町","next":[1190646,1192336,1190634,1190644,1192333],"voronoi":{"lat":33.199471,"lng":131.6667,"delta_lat":[0,9695,107630,28318,-146652],"delta_lng":[0,-9905,-35026,49504,70]}},
    {"code":1190634,"left":1190636,"right":1190642,"id":"18d11c","name":"大神","name_kana":"おおが","lat":33.383576,"lng":131.57524,"prefecture":44,"lines":[11906],"attr":"eco","postal_code":"879-1504","address":"速見郡日出町大字大神","next":[1190642,1190635,1190647,1190644,1190633,1190645,1190646],"voronoi":{"lat":33.397023,"lng":131.727914,"delta_lat":[0,356,-82560,1870,107,28318,22536],"delta_lng":[0,-178393,37571,34426,251,49504,28402]}},
    {"code":1190636,"left":1190635,"right":1190632,"id":"9b9a08","name":"暘谷","name_kana":"ようこく","lat":33.370112,"lng":131.530581,"prefecture":44,"lines":[11906],"attr":"eco","postal_code":"879-1505","address":"速見郡日出町大字川崎字佐尾","next":[1190639,1190637,1190635,1190632,1190633,1190638],"voronoi":{"lat":33.331624,"lng":131.533185,"delta_lat":[0,72921,9144,-8481,-65927,-5463],"delta_lng":[0,6973,-8379,-26790,18482,5733]}},
    {"code":1190635,"left":1190641,"id":"e1f675","name":"日出","name_kana":"ひじ","lat":33.368921,"lng":131.543036,"prefecture":44,"lines":[11906],"attr":"eco","postal_code":"879-1505","address":"速見郡日出町川崎字則次","next":[1190639,1190634,1190636,1190642,1190633],"voronoi":{"lat":33.404545,"lng":131.540158,"delta_lat":[0,-72921,-24224,7420,82560],"delta_lng":[0,-6973,30792,23115,-37571]}},
    {"code":1190641,"id":"07dd11","name":"東別府","name_kana":"ひがしべっぷ","lat":33.267753,"lng":131.510537,"prefecture":44,"lines":[11906],"attr":"heat","postal_code":"874-0947","address":"別府市大字浜脇","next":[1190642,1190639,1191331,1190640,1191333,1191330],"voronoi":{"lat":33.233004,"lng":131.528686,"delta_lat":[0,14357,57227,-7062,-55533,-10480],"delta_lng":[0,15116,17883,-28492,-64739,30256]}},
    {"code":1190632,"id":"a00370","name":"中山香","name_kana":"なかやまが","lat":33.448636,"lng":131.505721,"prefecture":44,"lines":[11906],"attr":"eco","postal_code":"879-1307","address":"杵築市山香町野原","next":[1190633,1190631,1190636,1190637],"voronoi":{"lat":33.413689,"lng":131.53178,"delta_lat":[0,162397,-166943,-3935],"delta_lng":[0,87660,-192890,78440]}},
    {"code":1190642,"left":1190647,"right":1190633,"id":"de1332","name":"西大分","name_kana":"にしおおいた","lat":33.245184,"lng":131.582758,"prefecture":44,"lines":[11906],"attr":"heat","postal_code":"870-0003","address":"大分市大字生石","next":[1190641,1191333,1190634,1191334,1190643,1190635,1190639,1190644],"voronoi":{"lat":33.280208,"lng":131.616101,"delta_lat":[0,-49883,-1709,18744,57227,2812,7420,1870],"delta_lng":[0,-25928,-16744,-29628,17883,2293,23115,34426]}},
    {"code":1190647,"id":"4e6698","name":"大在","name_kana":"おおざい","lat":33.243938,"lng":131.720487,"prefecture":44,"lines":[11906],"attr":"heat","postal_code":"870-0268","address":"大分市大字政所","next":[1190648,1190652,1190634,1192333,1190633,1190646],"voronoi":{"lat":33.166433,"lng":131.716329,"delta_lat":[0,1851,277176,-48436,-29373,-190406],"delta_lng":[0,2982,64362,-55759,-28239,6156]}},
    {"code":1190633,"id":"420b38","name":"杵築","name_kana":"きつき","lat":33.411081,"lng":131.575295,"prefecture":44,"lines":[11906],"attr":"eco","postal_code":"873-0015","address":"杵築市大字八坂野添","next":[1190631,1190632,1190649,1161213,1190647,1190636,1190634,1190648,1190635],"voronoi":{"lat":33.404545,"lng":131.540158,"delta_lat":[0,9144,162397,134021,-114380,-146430,-3837,-48436,356],"delta_lng":[0,-8379,87660,96454,189649,-118074,-3795,-55759,-178393]}},
    {"code":1190611,"left":9990415,"right":1190622,"id":"474baf","name":"苅田","name_kana":"かんだ","lat":33.784462,"lng":130.979016,"prefecture":40,"lines":[11906],"attr":"heat","postal_code":"800-0361","address":"京都郡苅田町神田町１丁目","next":[1190615,9992802,1190610,1190612,1172312,1190616,9992801],"voronoi":{"lat":33.87153,"lng":131.039259,"delta_lat":[0,-96448,-20505,15890,24036,79638,-1369],"delta_lng":[0,-92150,91580,48436,45318,-64913,-16287]}},
    {"code":9990415,"left":9990411,"right":1190610,"id":"9390ff","name":"美夜古泉","name_kana":"みやこいずみ","lat":33.709108,"lng":130.969052,"prefecture":40,"lines":[99904],"attr":"cool","postal_code":"824-0000","address":"行橋市大字福富","next":[9990417,1190614,1190613,9990414],"voronoi":{"lat":33.720531,"lng":130.942186,"delta_lat":[0,-1150,-10104,-13634],"delta_lng":[0,17553,17408,8163]}},
    {"code":9990411,"left":9990409,"right":9990413,"id":"9ad9ac","name":"東犀川三四郎","name_kana":"ひがしさいがわさんしろう","lat":33.661385,"lng":130.948966,"prefecture":40,"lines":[99904],"attr":"heat","postal_code":"824-0203","address":"京都郡みやこ町犀川続命院","next":[1190616,9990412,1190617,9990413,9990410,1191410],"voronoi":{"lat":33.681057,"lng":130.943655,"delta_lat":[0,-44130,-21700,-9192,85654,8230],"delta_lng":[0,53856,2858,-675,-95145,3960]}},
    {"code":9990409,"left":9990408,"right":9990410,"id":"fe1d07","name":"崎山","name_kana":"さきやま","lat":33.636285,"lng":130.917903,"prefecture":40,"lines":[99904],"attr":"heat","postal_code":"824-0224","address":"京都郡みやこ町犀川崎山","next":[9990408,9990405,1191420,9990404,1191410,9990410,1190618],"voronoi":{"lat":33.685438,"lng":130.900428,"delta_lat":[0,-5187,-12487,-24403,-110523,-2311,7407],"delta_lng":[0,-5705,-2996,-493,101326,6417,576]}},
    {"code":9990408,"left":9990407,"id":"e6b0a8","name":"源じいの森","name_kana":"げんじいのもり","lat":33.616179,"lng":130.895972,"prefecture":40,"lines":[99904],"attr":"eco","postal_code":"824-0431","address":"田川郡赤村赤","next":[1191419,9990409,9990406,9990407,1191420,1191429,1191418,9990405],"voronoi":{"lat":33.634007,"lng":130.884977,"delta_lat":[0,-1548,-62644,-3042,-10799,-17895,-5241,110523],"delta_lng":[0,-98,18456,3759,20059,42897,22511,-101326]}},
    {"code":9990407,"id":"123c05","name":"油須原","name_kana":"ゆすばる","lat":33.612765,"lng":130.884384,"prefecture":40,"lines":[99904],"attr":"eco","postal_code":"824-0431","address":"田川郡赤村大字赤","next":[9990408,1191418,9990406],"voronoi":{"lat":33.569815,"lng":130.903335,"delta_lat":[0,21340,41304],"delta_lng":[0,-34698,16242]}},
    {"code":9990410,"id":"216804","name":"犀川","name_kana":"さいがわ","lat":33.650689,"lng":130.939337,"prefecture":40,"lines":[99904],"attr":"heat","postal_code":"824-0231","address":"京都郡みやこ町犀川本庄","next":[1190617,1191410,9990411,9990409,1190618],"voronoi":{"lat":33.537934,"lng":130.999554,"delta_lat":[0,147504,6252,-85654,-59827],"delta_lng":[0,-99125,4120,95145,1355]}},
    {"code":9990413,"left":9990412,"right":9990414,"id":"84aa49","name":"豊津(福岡)","name_kana":"とよつ","lat":33.687505,"lng":130.962984,"prefecture":40,"lines":[99904],"attr":"heat","postal_code":"824-0037","address":"行橋市大字矢留","next":[9990412,9990414,1191410,1190615,9990411],"voronoi":{"lat":33.686569,"lng":130.986453,"delta_lat":[0,5185,12484,-4318,-18862],"delta_lng":[0,-874,-76285,-785,35146]}},
    {"code":9990412,"id":"9554de","name":"新豊津","name_kana":"しんとよつ","lat":33.679717,"lng":130.963987,"prefecture":40,"lines":[99904],"attr":"heat","postal_code":"824-0122","address":"京都郡みやこ町彦徳","next":[9990413,1190616,9990411,1190615],"voronoi":{"lat":33.636928,"lng":130.997511,"delta_lat":[0,44130,5511,-35400],"delta_lng":[0,-53856,42798,12327]}},
    {"code":9990414,"id":"a7e153","name":"今川河童","name_kana":"いまがわかっぱ","lat":33.702983,"lng":130.965517,"prefecture":40,"lines":[99904],"attr":"cool","postal_code":"824-0043","address":"行橋市大字流末","next":[9990413,1190613,1191410,1190614,9990415,1190615,1191409],"voronoi":{"lat":33.721653,"lng":130.909992,"delta_lat":[0,-17415,-12484,2945,944,24888,5658],"delta_lng":[0,-699,76285,539,-808,-43124,-29921]}},
    {"code":1190610,"left":1190608,"right":1190613,"id":"9bb330","name":"朽網","name_kana":"くさみ","lat":33.807384,"lng":130.955025,"prefecture":40,"lines":[11906],"attr":"heat","postal_code":"802-0000","address":"北九州市小倉南区井無田","next":[9992801,1190611,1190609,1191408,1161237,1191407,1190612],"voronoi":{"lat":33.766041,"lng":130.918086,"delta_lat":[0,6874,23200,73713,2774,-1071,-96448],"delta_lng":[0,-1730,-1101,91751,12456,19797,-92150]}},
    {"code":1190608,"left":1190609,"right":1190607,"id":"337170","name":"安部山公園","name_kana":"あべやまこうえん","lat":33.844078,"lng":130.904498,"prefecture":40,"lines":[11906],"attr":"heat","postal_code":"800-0256","address":"北九州市小倉南区湯川新町４丁目","next":[1161237,1191405,1190607,9990807,1190609],"voronoi":{"lat":33.818191,"lng":130.912002,"delta_lat":[0,27139,269,30612,-7854],"delta_lng":[0,-20970,51,23684,16348]}},
    {"code":1190609,"left":1191405,"id":"acffe6","name":"下曽根","name_kana":"しもそね","lat":33.832522,"lng":130.934829,"prefecture":40,"lines":[11906],"attr":"heat","postal_code":"800-0217","address":"北九州市小倉南区下曽根１丁目","next":[1191407,1191406,1190610,1191405,1161237,1190608],"voronoi":{"lat":33.818191,"lng":130.912002,"delta_lat":[0,-11750,-8097,-2230,73713,-1470],"delta_lng":[0,137,2043,1072,91751,-75890]}},
    {"code":1191405,"id":"39752e","name":"石田(福岡)","name_kana":"いしだ","lat":33.831985,"lng":130.888847,"prefecture":40,"lines":[11914],"attr":"heat","postal_code":"802-0833","address":"北九州市小倉南区上石田","next":[1190608,9990813,1190609,9990807,9990808,9990809,1191406],"voronoi":{"lat":33.82672,"lng":130.882241,"delta_lat":[0,2614,6546,7498,1952,-27139,-11750],"delta_lng":[0,-2837,1910,6629,3089,20970,137]}},
    {"code":1190607,"id":"8febcb","name":"城野(JR)","name_kana":"じょうの","lat":33.858202,"lng":130.886242,"prefecture":40,"lines":[11906,11914],"attr":"heat","postal_code":"802-0802","address":"北九州市小倉南区城野一丁目6-1","next":[1190608,9990805,9990806,9990807,9990804,1161237,100318],"voronoi":{"lat":33.875613,"lng":130.909568,"delta_lat":[0,-7008,-6847,-8680,-7478,30612,45],"delta_lng":[0,-18477,-8068,-256,8316,23684,-44]}},
    {"code":1190613,"left":9990417,"right":1190612,"id":"7640c5","name":"行橋","name_kana":"ゆくはし","lat":33.72835,"lng":130.970313,"prefecture":40,"lines":[11906,99904],"attr":"cool","postal_code":"824-0031","address":"行橋市西宮市２丁目","next":[9990417,1191409,9990414,1190614,9990415,1190612],"voronoi":{"lat":33.744331,"lng":130.916712,"delta_lat":[0,-18143,-5658,-1150,4341,15388],"delta_lng":[0,-4447,29921,17553,17513,17115]}},
    {"code":9990417,"id":"589a5d","name":"令和コスタ行橋","name_kana":"れいわこすたゆくはし","lat":33.716389,"lng":130.973278,"prefecture":40,"lines":[99904],"attr":"cool","postal_code":"824-0038","address":"福岡県行橋市西泉6丁目2736-4","open_date":"2019-08-24","next":[9990415,1190613,1190614],"voronoi":{"lat":33.719381,"lng":130.959738,"delta_lat":[0,-10104,14445],"delta_lng":[0,17408,105]}},
    {"code":1190612,"id":"b1c52e","name":"小波瀬西工大前","name_kana":"おばせにしこうだいまえ","lat":33.752992,"lng":130.97197,"prefecture":40,"lines":[11906],"attr":"cool","postal_code":"800-0344","address":"京都郡苅田町新津","next":[1191409,1190611,1191408,1190614,1190610,1190615,1190613],"voronoi":{"lat":33.744331,"lng":130.916712,"delta_lat":[0,18226,3483,9042,-20505,-7312,-8156],"delta_lng":[0,324,1050,29023,91580,-11635,-32687]}},
    {"code":1190622,"left":1190627,"right":1190618,"id":"5664eb","name":"中津(大分)","name_kana":"なかつ","lat":33.599202,"lng":131.190769,"prefecture":44,"lines":[11906],"attr":"eco","postal_code":"871-0033","address":"中津市大字島田","next":[1190620,1190623,1190624,1172112,1191319,1190621],"voronoi":{"lat":33.763216,"lng":131.243935,"delta_lat":[0,-2206,-312035,-8411,4976,237579],"delta_lng":[0,10371,-73763,-2991,-44249,74618]}},
    {"code":1190627,"left":1190624,"right":1190629,"id":"353650","name":"柳ヶ浦","name_kana":"やなぎがうら","lat":33.564982,"lng":131.362665,"prefecture":44,"lines":[11906],"attr":"eco","postal_code":"872-0032","address":"大分県宇佐市大字江須賀","next":[1172110,1190626,1190629,1190628],"voronoi":{"lat":33.525796,"lng":131.372336,"delta_lat":[0,-48657,279950,4888],"delta_lng":[0,-32940,10507,26240]}},
    {"code":1190624,"left":1190626,"right":1190623,"id":"eb18e1","name":"今津(大分)","name_kana":"いまづ","lat":33.571929,"lng":131.267462,"prefecture":44,"lines":[11906],"attr":"eco","postal_code":"879-0101","address":"中津市大字今津","next":[1190622,1190623,1190625,1190626,1191319],"voronoi":{"lat":33.440565,"lng":131.177551,"delta_lat":[0,8411,225601,-26530,-230689],"delta_lng":[0,2991,124959,-2614,-65597]}},
    {"code":1190626,"left":1190625,"id":"6e617c","name":"豊前善光寺","name_kana":"ぶぜんぜんこうじ","lat":33.566479,"lng":131.322776,"prefecture":44,"lines":[11906],"attr":"eco","postal_code":"879-0309","address":"宇佐市大字東高家","next":[1190630,1172111,1190627,1190629,1190624,1190625,1190623,1172110],"voronoi":{"lat":33.755212,"lng":131.326572,"delta_lat":[0,-75,-80560,-26530,-215913,30533,14473,279950],"delta_lng":[0,-574,-20497,-2614,13043,17791,5674,10507]}},
    {"code":1190625,"id":"c738f7","name":"天津","name_kana":"あまつ","lat":33.564678,"lng":131.292962,"prefecture":44,"lines":[11906],"attr":"eco","postal_code":"879-0161","address":"宇佐市大字下敷田","next":[1191324,1190630,1190624,1191319,1190626,1191323],"voronoi":{"lat":33.409943,"lng":131.306117,"delta_lat":[0,22191,215913,-230689,-14000,-638],"delta_lng":[0,9813,-13043,-65597,28631,5032]}},
    {"code":1190623,"id":"ee09c8","name":"東中津","name_kana":"ひがしなかつ","lat":33.58788,"lng":131.238664,"prefecture":44,"lines":[11906],"attr":"eco","postal_code":"871-0003","address":"中津市大字是則","next":[1172111,1172112,1190622,1190624,1190626],"voronoi":{"lat":33.674577,"lng":131.305501,"delta_lat":[0,-225601,312035,-2836,-3038],"delta_lng":[0,-124959,73763,41967,29726]}},
    {"code":1190629,"left":1190630,"right":1190628,"id":"9171e9","name":"宇佐","name_kana":"うさ","lat":33.531373,"lng":131.41231,"prefecture":44,"lines":[11906],"attr":"eco","postal_code":"879-1132","address":"宇佐市大字岩崎","next":[1190628,1161220,1190630,1190627,1190626,1190631],"voronoi":{"lat":33.557689,"lng":131.483783,"delta_lat":[0,-95023,14473,48657,220577,-1071],"delta_lng":[0,-150061,5674,32940,252708,2442]}},
    {"code":1190630,"id":"551e26","name":"西屋敷","name_kana":"にしやしき","lat":33.504332,"lng":131.429433,"prefecture":44,"lines":[11906],"attr":"eco","postal_code":"879-1127","address":"宇佐市大字西屋敷","next":[1190631,1190626,1190629,1191324,1190625,1190637],"voronoi":{"lat":33.557689,"lng":131.483783,"delta_lat":[0,-95023,-30533,-22191,-21684,17949],"delta_lng":[0,-150061,-17791,-9813,70459,35532]}},
    {"code":1190628,"id":"4814ab","name":"豊前長洲","name_kana":"ぶぜんながす","lat":33.56465,"lng":131.383264,"prefecture":44,"lines":[11906],"attr":"eco","postal_code":"872-0001","address":"宇佐市大字長洲","next":[1172108,1161220,1190629,1161221,1190627,1172110],"voronoi":{"lat":33.787347,"lng":131.533349,"delta_lat":[0,-19098,-21875,-220577,236181,13997],"delta_lng":[0,50311,41384,-252708,3807,58109]}},
    {"code":1190618,"left":1190615,"right":1190620,"id":"9dafb5","name":"豊前松江","name_kana":"ぶぜんしょうえ","lat":33.622487,"lng":131.095421,"prefecture":40,"lines":[11906],"attr":"eco","postal_code":"828-0002","address":"豊前市大字松江","next":[1191420,1191318,1191421,1190617,1191315,1190619,1190621,9990409,9990410],"voronoi":{"lat":33.537934,"lng":130.999554,"delta_lat":[0,-7407,-39250,-38967,-716,645,34975,194962,-135967],"delta_lng":[0,-576,21116,34968,2701,39980,8020,7419,-112133]}},
    {"code":1190615,"left":1190617,"right":1190614,"id":"735cda","name":"新田原","name_kana":"しんでんばる","lat":33.695152,"lng":131.008316,"prefecture":40,"lines":[11906],"attr":"cool","postal_code":"824-0026","address":"行橋市大字道場寺","next":[1190611,9990413,1190616,1190614,9990414,9990412,1190612],"voronoi":{"lat":33.770468,"lng":131.087124,"delta_lat":[0,-119299,35400,5185,2945,52567,7312],"delta_lng":[0,-88345,-12327,-874,539,40936,11635]}},
    {"code":1190617,"left":1190616,"id":"12059f","name":"椎田","name_kana":"しいだ","lat":33.653377,"lng":131.057965,"prefecture":40,"lines":[11906],"attr":"eco","postal_code":"829-0301","address":"築上郡築上町椎田","next":[1190616,9990410,1190618,9990411,1190619],"voronoi":{"lat":33.682176,"lng":131.113181,"delta_lat":[0,-135967,59827,9192,155572],"delta_lng":[0,-112133,-1355,675,154367]}},
    {"code":1190616,"id":"5da3d0","name":"築城","name_kana":"ついき","lat":33.673119,"lng":131.038069,"prefecture":40,"lines":[11906],"attr":"eco","postal_code":"829-0101","address":"築上郡築上町東築城","next":[9990411,1190617,9990412,1190619,1190615,1190611,1172312],"voronoi":{"lat":33.794504,"lng":131.132443,"delta_lat":[0,-24036,-119299,-14241,-21700,155572,9683],"delta_lng":[0,-45318,-88345,-1269,2858,154367,5683]}},
    {"code":1190614,"id":"2b432f","name":"南行橋","name_kana":"みなみゆくはし","lat":33.716332,"lng":130.981118,"prefecture":40,"lines":[11906],"attr":"cool","postal_code":"824-0034","address":"行橋市泉中央２丁目","next":[9990415,1190613,9990414,1190615,9990417,1190612],"voronoi":{"lat":33.739109,"lng":130.994366,"delta_lat":[0,-15388,-14445,-13634,-944,52567],"delta_lng":[0,-17115,-105,8163,808,40936]}},
    {"code":1190620,"left":1190621,"right":1190619,"id":"0b6e21","name":"三毛門","name_kana":"みけかど","lat":33.614597,"lng":131.15653,"prefecture":40,"lines":[11906],"attr":"eco","postal_code":"828-0031","address":"豊前市大字三毛門","next":[1190622,1172112,1190619,1190621,1172312],"voronoi":{"lat":33.778056,"lng":131.177059,"delta_lat":[0,-240500,145563,80097,13525],"delta_lng":[0,-53502,84364,36014,-41006]}},
    {"code":1190621,"id":"b3393e","name":"吉富(福岡)","name_kana":"よしとみ","lat":33.604465,"lng":131.174012,"prefecture":40,"lines":[11906],"attr":"eco","postal_code":"871-0811","address":"築上郡吉富町大字広津","next":[1190620,1191319,1190618,1190622,1190619,1191318],"voronoi":{"lat":33.452239,"lng":131.097743,"delta_lat":[0,34975,50343,145563,-237579,475],"delta_lng":[0,8020,17794,84364,-74618,-8105]}},
    {"code":1190619,"id":"7d54d3","name":"宇島","name_kana":"うのしま","lat":33.62131,"lng":131.126354,"prefecture":40,"lines":[11906],"attr":"eco","postal_code":"828-0021","address":"豊前市大字八屋","next":[1190620,1190616,1190618,1190617,1190621,1172312],"voronoi":{"lat":33.780482,"lng":131.160418,"delta_lat":[0,-9683,-88624,-194962,50343,240500],"delta_lng":[0,-5683,-41554,-7419,17794,53502]}}
  ]
}