{
  "name":"segment42",
  "root":1130208,
  "east":139.751864,
  "west":139.617796,
  "south":35.60538,
  "north":35.714385,
  "station_size":155,
  "node_list":[
    {"code":1130208,"left":2400607,"right":2800516,"id":"3ff383","name":"新宿","name_kana":"しんじゅく","lat":35.689729,"lng":139.700464,"prefecture":13,"lines":[11302,11311,11312,11313,11321,11328,11333,24001,25001,28002,99301,99304],"attr":"heat","postal_code":"160-0022","address":"東京都新宿区新宿三丁目38-1","open_date":"1885-03-01","next":[2500102,1130207,9930102,2800217,9930101],"voronoi":{"lat":35.687559,"lng":139.696248,"delta_lat":[0,-1288,661,5445,-2050],"delta_lng":[0,4483,2795,-1374,-5616]},"impl":true},
    {"code":2400607,"left":2500108,"right":2500106,"id":"982b1d","name":"東松原","name_kana":"ひがしまつばら","lat":35.662634,"lng":139.655535,"prefecture":13,"lines":[24006],"attr":"cool","postal_code":"156-0043","address":"世田谷区松原５-２-６","next":[2500108,2500109,2400105,2400106,2400606,2600709],"voronoi":{"lat":35.658578,"lng":139.657185,"delta_lat":[0,1152,6864,1207,-5753,-1061],"delta_lng":[0,821,57,-2633,-6797,203]},"impl":true},
    {"code":2500108,"left":2600704,"right":2600104,"id":"c7cd36","name":"世田谷代田","name_kana":"せたがやだいた","lat":35.65834,"lng":139.661557,"prefecture":13,"lines":[25001],"attr":"eco","postal_code":"155-0033","address":"世田谷区代田２丁目","next":[2600702,2400607,2400605,2600703,2400606,2500109],"voronoi":{"lat":35.651634,"lng":139.664518,"delta_lat":[0,1353,8089,-1347,-1152,-6211],"delta_lng":[0,3869,-4834,-5548,-821,1815]},"impl":true},
    {"code":2600704,"left":2600305,"right":2600708,"id":"a6352d","name":"松陰神社前","name_kana":"しょういんじんじゃまえ","lat":35.643947,"lng":139.655211,"prefecture":13,"lines":[26007],"attr":"eco","postal_code":"154-0023","address":"世田谷区若林４-２１-１６","next":[2600705,2600304,2500109,2600703],"voronoi":{"lat":35.650111,"lng":139.655376,"delta_lat":[0,-371,-13922,3745],"delta_lng":[0,-2836,1250,6043]},"impl":true},
    {"code":2600305,"left":2600414,"right":2600705,"id":"c81211","name":"桜新町","name_kana":"さくらしんまち","lat":35.631666,"lng":139.644779,"prefecture":13,"lines":[26003],"attr":"cool","postal_code":"154-0015","address":"世田谷区桜新町２-８","next":[2600306,2600705,2500111,2600413,2600414,2600706,2600412,2600304],"voronoi":{"lat":35.63496,"lng":139.652985,"delta_lat":[0,2332,1663,-218,-17270,-1307,902,145],"delta_lng":[0,-4500,-13321,-479,8324,4394,6657,392]},"impl":true},
    {"code":2600414,"left":2600307,"right":2600306,"id":"cd84e8","name":"上野毛","name_kana":"かみのげ","lat":35.611957,"lng":139.638917,"prefecture":13,"lines":[26004],"attr":"eco","postal_code":"158-0093","address":"世田谷区上野毛１-２６-６","next":[1130309,2600307,2600413,2600308,2600305,2600306],"voronoi":{"lat":35.61792,"lng":139.632717,"delta_lat":[0,-16172,-1821,-1966,22199,1307],"delta_lng":[0,223,546,5088,8829,-4394]},"impl":true},
    {"code":2600307,"left":2600308,"id":"ece4b8","name":"二子玉川","name_kana":"ふたこたまがわ","lat":35.611788,"lng":139.626685,"prefecture":13,"lines":[26003,26004],"attr":"cool","postal_code":"158-0094","address":"世田谷区玉川２-２２-１３","next":[2500113,2600414,2500114,2600308,2600306],"voronoi":{"lat":35.601748,"lng":139.632941,"delta_lat":[0,21110,105,3295,-8338],"delta_lng":[0,-23280,107,6088,16862]},"impl":true},
    {"code":2600308,"id":"1d14c9","name":"二子新地","name_kana":"ふたこしんち","lat":35.606994,"lng":139.622338,"prefecture":14,"lines":[26003,26004],"attr":"cool","postal_code":"213-0002","address":"川崎市高津区二子２-２-１","next":[2600309,2600414,2600307,2500114,1130311,1130309],"voronoi":{"lat":35.601748,"lng":139.632941,"delta_lat":[0,21110,-391,-2621,-22877,2958],"delta_lng":[0,-23280,-553,321,15859,8199]},"impl":true},
    {"code":2600306,"id":"1387c8","name":"用賀","name_kana":"ようが","lat":35.626436,"lng":139.633928,"prefecture":13,"lines":[26003],"attr":"cool","postal_code":"158-0097","address":"世田谷区用賀２-３９","next":[2600305,2500112,2500111,2600414,2500113,2600307],"voronoi":{"lat":35.626258,"lng":139.615855,"delta_lat":[0,6981,5610,-112,-17270,-3547],"delta_lng":[0,4832,12663,1335,8324,-10292]},"impl":true},
    {"code":2600705,"left":2600412,"right":2600706,"id":"79afb9","name":"世田谷","name_kana":"せたがや","lat":35.643564,"lng":139.650945,"prefecture":13,"lines":[26007],"attr":"eco","postal_code":"154-0017","address":"世田谷区世田谷４-９-６","next":[2600305,2600707,2600704,2600706,2600304,2500109,2500110],"voronoi":{"lat":35.649068,"lng":139.650262,"delta_lat":[0,-2423,-9353,-2332,858,13922,46],"delta_lng":[0,-1592,-185,4500,805,-1250,-215]},"impl":true},
    {"code":2600412,"left":2600413,"id":"da6197","name":"尾山台","name_kana":"おやまだい","lat":35.606971,"lng":139.653862,"prefecture":13,"lines":[26004],"attr":"heat","postal_code":"158-0082","address":"世田谷区等々力５-５-７","next":[2600108,2600304,1130308,2600305,2600411,2600110,2600413],"voronoi":{"lat":35.594007,"lng":139.647676,"delta_lat":[0,-2146,500,1718,25371,1757,-145],"delta_lng":[0,4126,1633,1293,5662,-5937,-392]},"impl":true},
    {"code":2600413,"id":"9a32d4","name":"等々力","name_kana":"とどろき","lat":35.608369,"lng":139.647938,"prefecture":13,"lines":[26004],"attr":"eco","postal_code":"158-0082","address":"世田谷区等々力３-１-１","next":[1130308,2600414,2600305,1130309,2600412],"voronoi":{"lat":35.620159,"lng":139.647403,"delta_lat":[0,-22199,-2132,-1822,27055],"delta_lng":[0,-8829,2418,6683,6385]},"impl":true},
    {"code":2600706,"id":"73a799","name":"上町","name_kana":"かみまち","lat":35.643656,"lng":139.646276,"prefecture":13,"lines":[26007],"attr":"eco","postal_code":"154-0017","address":"世田谷区世田谷３-４-３","next":[2600705,2500111,2600707,2600305],"voronoi":{"lat":35.646644,"lng":139.64867,"delta_lat":[0,-3697,-3993,-1663],"delta_lng":[0,-10657,-2849,13321]},"impl":true},
    {"code":2600708,"left":2500111,"right":2500109,"id":"bd2d9e","name":"山下(東京)","original_name":"山下","name_kana":"やました","lat":35.653844,"lng":139.646509,"prefecture":13,"lines":[26007],"attr":"heat","postal_code":"154-0021","address":"世田谷区豪徳寺１-４４-５","next":[2600707,2500110,2600709,2500111],"voronoi":{"lat":35.65041,"lng":139.6468,"delta_lat":[0,8653,-4686,-2638],"delta_lng":[0,367,-6448,716]},"impl":true},
    {"code":2500111,"left":2600707,"right":2600709,"id":"326aae","name":"経堂","name_kana":"きょうどう","lat":35.650991,"lng":139.635993,"prefecture":13,"lines":[25001],"attr":"eco","postal_code":"156-0052","address":"世田谷区経堂１丁目","next":[2600305,2600306,2600706,2500112,2600707,2600709,2400108,2600708],"voronoi":{"lat":35.654377,"lng":139.640719,"delta_lat":[0,4880,-1568,-18840,-112,218,3993,8791],"delta_lng":[0,-7358,-5565,5554,1335,479,2849,3422]},"impl":true},
    {"code":2600707,"left":2500112,"id":"1910fc","name":"宮の坂","name_kana":"みやのさか","lat":35.647508,"lng":139.64494,"prefecture":13,"lines":[26007],"attr":"heat","postal_code":"156-0051","address":"世田谷区宮坂１-２４-７","next":[2600705,2600708,2600706,2500110,2500111],"voronoi":{"lat":35.642948,"lng":139.638013,"delta_lat":[0,3697,2423,1342,1329],"delta_lng":[0,10657,1592,-3462,-5365]},"impl":true},
    {"code":2500112,"id":"260ea5","name":"千歳船橋","name_kana":"ちとせふなばし","lat":35.647616,"lng":139.624544,"prefecture":13,"lines":[25001],"attr":"cool","postal_code":"156-0055","address":"世田谷区船橋１丁目","next":[2500113,2600306,2400110,2400109,2400108,2500111],"voronoi":{"lat":35.657688,"lng":139.627797,"delta_lat":[0,661,-489,-1569,-23053,5610],"delta_lng":[0,-1966,-8277,-3649,6783,12663]},"impl":true},
    {"code":2600709,"id":"01db2e","name":"松原(東京)","original_name":"松原","name_kana":"まつばら","lat":35.660048,"lng":139.642,"prefecture":13,"lines":[26007],"attr":"heat","postal_code":"156-0043","address":"世田谷区松原４-１０-８","next":[2400106,2500110,2400108,2500109,2400107,2600708,2500111,2400607],"voronoi":{"lat":35.660294,"lng":139.648596,"delta_lat":[0,-1232,-4686,4880,3222,1164,-1595,-1061],"delta_lng":[0,-1428,-6448,-7358,2296,11311,1664,203]},"impl":true},
    {"code":2500109,"left":2600703,"right":2400606,"id":"55b04c","name":"梅ヶ丘","name_kana":"うめがおか","lat":35.656024,"lng":139.653628,"prefecture":13,"lines":[25001],"attr":"eco","postal_code":"154-0022","address":"東京都世田谷区梅丘","next":[2500110,2400607,2600704,2600709,2600705,2600703,2500108],"voronoi":{"lat":35.658578,"lng":139.657185,"delta_lat":[0,2409,-692,-10509,-46,371,2256],"delta_lng":[0,-8349,-240,3730,215,2836,3623]},"impl":true},
    {"code":2600703,"left":2500110,"id":"3ce792","name":"若林(東京)","original_name":"若林","name_kana":"わかやばし","lat":35.645933,"lng":139.659911,"prefecture":13,"lines":[26007],"attr":"eco","postal_code":"154-0023","address":"世田谷区若林４-３-１５","next":[2600702,2600704,2500108,2600304,2500109],"voronoi":{"lat":35.650111,"lng":139.655376,"delta_lat":[0,-10548,310,11762,732],"delta_lng":[0,4457,2162,2523,-5519]},"impl":true},
    {"code":2500110,"id":"79fca0","name":"豪徳寺","name_kana":"ごうとくじ","lat":35.653807,"lng":139.647381,"prefecture":13,"lines":[25001],"attr":"eco","postal_code":"154-0021","address":"世田谷区豪徳寺１丁目","next":[2500109,2600709,2600708,2600707,2600705],"voronoi":{"lat":35.649068,"lng":139.650262,"delta_lat":[0,1342,8653,1232,-10509],"delta_lng":[0,-3462,367,1428,3730]},"impl":true},
    {"code":2400606,"id":"0494f7","name":"新代田","name_kana":"しんだいた","lat":35.662593,"lng":139.660524,"prefecture":13,"lines":[24006],"attr":"cool","postal_code":"155-0033","address":"世田谷区代田５-３０-１８","next":[2400605,2400105,2500108,2400607],"voronoi":{"lat":35.659729,"lng":139.658006,"delta_lat":[0,1347,6372,-855],"delta_lng":[0,5548,1052,-6543]},"impl":true},
    {"code":2600104,"left":2600105,"right":2400603,"id":"77fc64","name":"祐天寺","name_kana":"ゆうてんじ","lat":35.637163,"lng":139.690758,"prefecture":13,"lines":[26001],"attr":"cool","postal_code":"153-0052","address":"目黒区祐天寺２-１３-３","next":[2600105,2600103,2600302,2600303,2600203],"voronoi":{"lat":35.645339,"lng":139.690579,"delta_lat":[0,-4840,-2114,-10790,4640],"delta_lng":[0,-10102,-673,16322,5604]},"impl":true},
    {"code":2600105,"left":2600106,"right":2600205,"id":"194a28","name":"学芸大学","name_kana":"がくげいだいがく","lat":35.628786,"lng":139.68522,"prefecture":13,"lines":[26001],"attr":"heat","postal_code":"152-0004","address":"目黒区鷹番３-２-１","next":[2600204,2600203,2600205,2600104,2600303,2600304,2600106],"voronoi":{"lat":35.619291,"lng":139.689158,"delta_lat":[0,6083,2221,10790,-6184,-2708,-11238],"delta_lng":[0,6019,949,-16322,-6129,-539,13943]},"impl":true},
    {"code":2600106,"left":2600409,"right":2600304,"id":"4edee7","name":"都立大学","name_kana":"とりつだいがく","lat":35.617835,"lng":139.676393,"prefecture":13,"lines":[26001],"attr":"heat","postal_code":"152-0031","address":"目黒区中根１-５-１","next":[2600409,2600304,2600107,2600205,2600105,2600206],"voronoi":{"lat":35.618255,"lng":139.687078,"delta_lat":[0,11238,-9805,-8531,1953,4863],"delta_lng":[0,-13943,-10436,11713,7246,5304]},"impl":true},
    {"code":2600409,"left":2600107,"id":"b906a0","name":"緑が丘(東京)","original_name":"緑が丘","name_kana":"みどりがおか","lat":35.60638,"lng":139.679482,"prefecture":13,"lines":[26004],"attr":"heat","postal_code":"152-0034","address":"目黒区緑が丘３-１-１２","next":[2600106,2600508,2600207,2600206,2600107],"voronoi":{"lat":35.613111,"lng":139.681659,"delta_lat":[0,-10777,-3221,10756,1289],"delta_lng":[0,1804,-5478,-3672,100]},"impl":true},
    {"code":2600107,"id":"eee970","name":"自由が丘","name_kana":"じゆうがおか","lat":35.607224,"lng":139.668664,"prefecture":13,"lines":[26001,26004],"attr":"heat","postal_code":"152-0035","address":"目黒区自由が丘１-３０-１","next":[2600411,2600106,2600108,2600207,2600304,2600409],"voronoi":{"lat":35.619689,"lng":139.6627,"delta_lat":[0,-271,-17119,-204,7774,1289],"delta_lng":[0,-1024,4115,1620,6902,100]},"impl":true},
    {"code":2600304,"id":"17af71","name":"駒沢大学","name_kana":"こまざわだいがく","lat":35.633471,"lng":139.661702,"prefecture":13,"lines":[26003],"attr":"cool","postal_code":"154-0011","address":"世田谷区上馬４-３","next":[2600412,2600704,2600303,2600106,2600105,2600705,2600305,2600411,2600107,2600703,2600702],"voronoi":{"lat":35.639873,"lng":139.661995,"delta_lat":[0,-310,-3745,-858,-13753,-1757,-32,271,9805,2708,5607],"delta_lng":[0,-2162,-6043,-805,1467,5937,1286,1024,10436,539,-6794]},"impl":true},
    {"code":2600205,"left":2600407,"right":2600204,"id":"340eb3","name":"洗足","name_kana":"せんぞく","lat":35.61043,"lng":139.694367,"prefecture":13,"lines":[26002],"attr":"cool","postal_code":"152-0012","address":"目黒区洗足２-２１-１","next":[2600105,2600206,2600407,2600106,2600406,2600204],"voronoi":{"lat":35.607281,"lng":139.698052,"delta_lat":[0,2082,8610,282,1036,-9289],"delta_lng":[0,-8061,-3028,116,2079,10787]},"impl":true},
    {"code":2600407,"left":2600206,"id":"6c6a1c","name":"北千束","name_kana":"きたせんぞく","lat":35.606311,"lng":139.693303,"prefecture":13,"lines":[26004],"attr":"cool","postal_code":"145-0062","address":"大田区北千束２-１６-１","next":[2600507,2600206,2600205,2600506,2600406],"voronoi":{"lat":35.609364,"lng":139.68999,"delta_lat":[0,-5324,-1700,4582,360],"delta_lng":[0,-825,4706,4125,55]},"impl":true},
    {"code":2600206,"id":"a2ade1","name":"大岡山","name_kana":"おおおかやま","lat":35.607456,"lng":139.685909,"prefecture":13,"lines":[26002,26004],"attr":"heat","postal_code":"145-0062","address":"大田区北千束３-２７-１","next":[2600507,2600205,2600407,2600409,2600508,2600106],"voronoi":{"lat":35.613111,"lng":139.681659,"delta_lat":[0,-10777,-215,1921,5324,8610],"delta_lng":[0,1804,2695,3008,825,-3028]},"impl":true},
    {"code":2600204,"id":"28feb4","name":"西小山","name_kana":"にしこやま","lat":35.615455,"lng":139.698694,"prefecture":13,"lines":[26002],"attr":"cool","postal_code":"142-0062","address":"品川区小山６-３-１０","next":[2600105,2600504,2600203,2600205,2600406],"voronoi":{"lat":35.610003,"lng":139.699944,"delta_lat":[0,9289,6083,-12042,-1592],"delta_lng":[0,-10787,6019,10499,-636]},"impl":true},
    {"code":2400603,"left":2400604,"right":2600302,"id":"9195c3","name":"駒場東大前","name_kana":"こまばとうだいまえ","lat":35.65868,"lng":139.684308,"prefecture":13,"lines":[24006],"attr":"cool","postal_code":"153-0041","address":"目黒区駒場３-９-１","next":[2400604,2800519,2600302,2500105,2400602],"voronoi":{"lat":35.654647,"lng":139.68843,"delta_lat":[0,-14,8159,2082,-2289],"delta_lng":[0,-10334,1293,5250,5020]},"impl":true},
    {"code":2400604,"left":2600303,"right":2400605,"id":"e20fe9","name":"池ノ上","name_kana":"いけのうえ","lat":35.660402,"lng":139.67344,"prefecture":13,"lines":[24006],"attr":"cool","postal_code":"155-0032","address":"世田谷区代沢２-４３-８","next":[2400605,2500105,2600302,2600303,2400603,2500106,2600702],"voronoi":{"lat":35.652976,"lng":139.668783,"delta_lat":[0,9679,701,-563,-8159,-3240,1003],"delta_lng":[0,1686,8187,734,-1293,-2918,-5094]},"impl":true},
    {"code":2600303,"left":2600702,"id":"ad40c9","name":"三軒茶屋","name_kana":"さんげんちゃや","lat":35.643716,"lng":139.670156,"prefecture":13,"lines":[26003,26007],"attr":"cool","postal_code":"154-0004","address":"世田谷区太子堂４-２１-１","next":[2600302,2600105,2600702,2400604,2600304,2600104],"voronoi":{"lat":35.638386,"lng":139.679804,"delta_lat":[0,-6184,5607,14588,-1003,-10894],"delta_lng":[0,-6129,-6794,3204,5094,5298]},"impl":true},
    {"code":2600702,"id":"90e179","name":"西太子堂","name_kana":"にしたいしどう","lat":35.644545,"lng":139.666382,"prefecture":13,"lines":[26007],"attr":"eco","postal_code":"154-0004","address":"世田谷区太子堂４-１０-３","next":[2500108,2600703,2600303,2400604,2400605,2600304],"voronoi":{"lat":35.639873,"lng":139.661995,"delta_lat":[0,11762,1353,-12,-579,-14588],"delta_lng":[0,2523,3869,395,1302,-3204]},"impl":true},
    {"code":2400605,"id":"e46a3f","name":"下北沢","name_kana":"しもきたざわ","lat":35.661539,"lng":139.66691,"prefecture":13,"lines":[24006,25001],"attr":"cool","postal_code":"155-0031","address":"世田谷区北沢２丁目","next":[2500106,2400604,2400606,2500108,2400104,2600702,2400105],"voronoi":{"lat":35.667642,"lng":139.667331,"delta_lat":[0,-4987,-9679,12,8089,6372,260],"delta_lng":[0,3138,-1686,-395,-4834,1052,331]},"impl":true},
    {"code":2600302,"left":2600103,"right":2400602,"id":"0e95cd","name":"池尻大橋","name_kana":"いけじりおおはし","lat":35.650603,"lng":139.684319,"prefecture":13,"lines":[26003],"attr":"cool","postal_code":"154-0001","address":"世田谷区池尻３-２","next":[2600103,2600303,2400604,2600104,2400602,2400603],"voronoi":{"lat":35.654633,"lng":139.678096,"delta_lat":[0,-3240,-10894,4840,3807,5501],"delta_lng":[0,-2918,5298,10102,1797,-3945]},"impl":true},
    {"code":2600103,"id":"026a31","name":"中目黒","name_kana":"なかめぐろ","lat":35.643854,"lng":139.698621,"prefecture":13,"lines":[26001,28003],"attr":"cool","postal_code":"153-0051","address":"目黒区上目黒３-４-１","next":[2600302,1130204,2600104,2600102,1130203,2600203,2400602],"voronoi":{"lat":35.64133,"lng":139.70532,"delta_lat":[0,-3985,-4630,-480,13104,3807,1581],"delta_lng":[0,985,-2680,-1895,-11151,1797,4200]},"impl":true},
    {"code":2400602,"id":"54a7f5","name":"神泉","name_kana":"しんせん","lat":35.657244,"lng":139.693579,"prefecture":13,"lines":[24006],"attr":"cool","postal_code":"150-0045","address":"渋谷区神泉町４-６","next":[2800519,2600102,2600302,1130205,2400603,2600103],"voronoi":{"lat":35.649146,"lng":139.692375,"delta_lat":[0,5501,7938,2358,-12128,-2088],"delta_lng":[0,-3945,1229,6286,2577,-1947]},"impl":true},
    {"code":2500106,"left":2800228,"right":2800226,"id":"0cb0c2","name":"東北沢","name_kana":"ひがしきたざわ","lat":35.665379,"lng":139.673014,"prefecture":13,"lines":[25001],"attr":"heat","postal_code":"155-0031","address":"世田谷区北沢３丁目","next":[2400605,2500105,2400703,2400604,2400104],"voronoi":{"lat":35.667642,"lng":139.667331,"delta_lat":[0,-4987,701,7898,368],"delta_lng":[0,3138,8187,-4182,-1356]},"impl":true},
    {"code":2800228,"left":2400107,"right":1131215,"id":"0d7e67","name":"方南町","name_kana":"ほうなんちょう","lat":35.683496,"lng":139.656498,"prefecture":13,"lines":[28002],"attr":"heat","postal_code":"166-0013","address":"杉並区堀ノ内１-１-１","next":[2400106,2400104,2400105,2800227,2400609,2800223,2800222],"voronoi":{"lat":35.691051,"lng":139.652817,"delta_lat":[0,-4032,-9911,-915,1911,3993,8345],"delta_lng":[0,-6931,5188,2195,8132,3616,-5612]},"impl":true},
    {"code":2400107,"left":2400610,"right":2400104,"id":"65dfd5","name":"下高井戸","name_kana":"しもたかいど","lat":35.66615,"lng":139.641372,"prefecture":13,"lines":[24001,26007],"attr":"cool","postal_code":"156-0043","address":"世田谷区松原３-２９-１７","next":[2400108,2400106,2600709,2400609],"voronoi":{"lat":35.663643,"lng":139.646969,"delta_lat":[0,-1164,9408,-1046],"delta_lng":[0,-11311,1428,7793]},"impl":true},
    {"code":2400610,"left":2400108,"right":2400611,"id":"796947","name":"西永福","name_kana":"にしえいふく","lat":35.678918,"lng":139.634936,"prefecture":13,"lines":[24006],"attr":"heat","postal_code":"168-0064","address":"杉並区永福３-３６-１","next":[2400108,2800224,2400609,2800223,2400611],"voronoi":{"lat":35.674578,"lng":139.629172,"delta_lat":[0,-2527,15848,1163,243],"delta_lng":[0,7790,5342,-1688,-6107]},"impl":true},
    {"code":2400108,"left":2400109,"id":"026e4f","name":"桜上水","name_kana":"さくらじょうすい","lat":35.66768,"lng":139.63129,"prefecture":13,"lines":[24001],"attr":"cool","postal_code":"156-0045","address":"世田谷区桜上水５-２９-５２","next":[2600709,2400609,2400611,2400610,2400107,2500112,2400109,2500111],"voronoi":{"lat":35.662479,"lng":139.635658,"delta_lat":[0,9408,164,2527,-268,-15960,-661,1568],"delta_lng":[0,1428,-123,-7790,-994,-2348,1966,5565]},"impl":true},
    {"code":2400109,"id":"4daea2","name":"上北沢","name_kana":"かみきたざわ","lat":35.668857,"lng":139.62329,"prefecture":13,"lines":[24001],"attr":"cool","postal_code":"156-0057","address":"世田谷区上北沢４-１４-３","next":[2400110,2500112,2400612,2400611,2400108],"voronoi":{"lat":35.658349,"lng":139.625831,"delta_lat":[0,-489,18686,290,-2527],"delta_lng":[0,-8277,2514,511,7600]},"impl":true},
    {"code":2400611,"id":"a56370","name":"浜田山","name_kana":"はまだやま","lat":35.681603,"lng":139.627528,"prefecture":13,"lines":[24006],"attr":"heat","postal_code":"168-0065","address":"杉並区浜田山３-３１-２","next":[2400108,2800224,2400109,1131217,2400610,2400612],"voronoi":{"lat":35.676836,"lng":139.620578,"delta_lat":[0,-2527,268,14727,4225,-833],"delta_lng":[0,7600,994,5337,-9249,-2574]},"impl":true},
    {"code":2400104,"left":2400105,"right":2400609,"id":"59455a","name":"笹塚","name_kana":"ささづか","lat":35.673758,"lng":139.667251,"prefecture":13,"lines":[24001],"attr":"cool","postal_code":"151-0073","address":"渋谷区笹塚１-５６-７","next":[2800228,2800227,2400605,2400703,2400105,2500106],"voronoi":{"lat":35.667642,"lng":139.667331,"delta_lat":[0,67,10395,3993,80,-10555],"delta_lng":[0,-2394,-3536,3616,4198,3903]},"impl":true},
    {"code":2400105,"left":2400106,"id":"4072cf","name":"代田橋","name_kana":"だいたばし","lat":35.671092,"lng":139.659413,"prefecture":13,"lines":[24001],"attr":"cool","postal_code":"156-0041","address":"世田谷区大原２-１８-９","next":[2400606,2800228,2400607,2400106,2400605,2400104],"voronoi":{"lat":35.678104,"lng":139.6614,"delta_lat":[0,-1911,-8392,-1207,855,260],"delta_lng":[0,-8132,2161,2633,6543,331]},"impl":true},
    {"code":2400106,"id":"2dbd70","name":"明大前","name_kana":"めいだいまえ","lat":35.668758,"lng":139.650352,"prefecture":13,"lines":[24001,24006],"attr":"cool","postal_code":"156-0043","address":"世田谷区松原２-４５-１","next":[2600709,2800228,2400105,2400107,2400607,2400609],"voronoi":{"lat":35.670841,"lng":139.644878,"delta_lat":[0,-7198,-1595,5753,8392,915],"delta_lng":[0,2090,1664,6797,-2161,-2195]},"impl":true},
    {"code":2400609,"id":"60aeb9","name":"永福町","name_kana":"えいふくちょう","lat":35.67629,"lng":139.642733,"prefecture":13,"lines":[24006],"attr":"heat","postal_code":"168-0064","address":"杉並区永福２-６０-３１","next":[2400108,2800228,2800223,2400610,2400106,2400107],"voronoi":{"lat":35.677108,"lng":139.651074,"delta_lat":[0,9911,880,-15848,-164,-1046],"delta_lng":[0,-5188,-3581,-5342,123,7793]},"impl":true},
    {"code":1131215,"left":1131217,"right":2800222,"id":"43f6f8","name":"高円寺","name_kana":"こうえんじ","lat":35.705326,"lng":139.649664,"prefecture":13,"lines":[11312,11313],"attr":"cool","postal_code":"166-0003","address":"杉並区高円寺南４丁目","next":[2200708,2800223,2200707,1131216,2800222,1131214],"voronoi":{"lat":35.700757,"lng":139.652999,"delta_lat":[0,2207,9504,1076,-2423,-5224],"delta_lng":[0,-10155,-350,3790,11315,141]},"impl":true},
    {"code":1131217,"left":2800223,"right":1131216,"id":"edf377","name":"荻窪","name_kana":"おぎくぼ","lat":35.704523,"lng":139.620109,"prefecture":13,"lines":[11312,11313,28002],"attr":"cool","postal_code":"167-0043","address":"杉並区上荻１丁目","next":[2400612,2200711,2800224,2400613,2200710,1131216,2400611,1131218],"voronoi":{"lat":35.694925,"lng":139.613196,"delta_lat":[0,-2228,833,8853,10517,2054,-2313,-15582],"delta_lng":[0,9491,2574,2771,-197,-8671,-9706,511]},"impl":true},
    {"code":2800223,"left":2800224,"id":"90ff60","name":"新高円寺","name_kana":"しんこうえんじ","lat":35.697985,"lng":139.648068,"prefecture":13,"lines":[28002],"attr":"heat","postal_code":"166-0003","address":"杉並区高円寺南２-２０-１","next":[1131215,2800228,2400609,2800224,1131216,2400610,2800222],"voronoi":{"lat":35.691051,"lng":139.652817,"delta_lat":[0,-4032,880,1163,13024,879,-2207],"delta_lng":[0,-6931,-3581,-1688,1734,493,10155]},"impl":true},
    {"code":2800224,"id":"557e52","name":"南阿佐ケ谷","name_kana":"みなみあさがや","lat":35.699624,"lng":139.63576,"prefecture":13,"lines":[28002],"attr":"heat","postal_code":"166-0004","address":"杉並区阿佐谷南１-１５-７","next":[1131216,2400610,1131217,2800223,2400611],"voronoi":{"lat":35.69353,"lng":139.62526,"delta_lat":[0,8853,-297,-13024,243],"delta_lng":[0,2771,14319,-1734,-6107]},"impl":true},
    {"code":1131216,"id":"1f5d00","name":"阿佐ケ谷","name_kana":"あさがや","lat":35.704818,"lng":139.635868,"prefecture":13,"lines":[11312,11313],"attr":"cool","postal_code":"166-0004","address":"東京都杉並区阿佐谷南三丁目36-3","next":[2800224,1131215,2200709,2800223,2200708,2200710,1131217],"voronoi":{"lat":35.702085,"lng":139.642351,"delta_lat":[0,879,9504,553,1776,-1898,-10517],"delta_lng":[0,493,-350,-1080,-10348,-3231,197]},"impl":true},
    {"code":2800222,"left":2800221,"right":1131214,"id":"3514f5","name":"東高円寺","name_kana":"ひがしこうえんじ","lat":35.697802,"lng":139.657822,"prefecture":13,"lines":[28002],"attr":"heat","postal_code":"166-0012","address":"杉並区和田３-５５-４２","next":[2800227,2800228,1131215,2800221,2800223,1131214],"voronoi":{"lat":35.705898,"lng":139.65774,"delta_lat":[0,-5140,-9707,-609,4949,4717],"delta_lng":[0,-4741,-182,6588,3959,131]},"impl":true},
    {"code":2800221,"left":2800227,"id":"cd5cca","name":"新中野","name_kana":"しんなかの","lat":35.697491,"lng":139.66903,"prefecture":13,"lines":[28002],"attr":"heat","postal_code":"164-0011","address":"中野区中央４-２-１５","next":[1131308,2800227,2800222,1131214,2800226,2800220],"voronoi":{"lat":35.693398,"lng":139.669991,"delta_lat":[0,1992,4717,4519,-1004,-4726],"delta_lng":[0,-6628,131,11703,590,146]},"impl":true},
    {"code":2800227,"id":"56b31e","name":"中野富士見町","name_kana":"なかのふじみちょう","lat":35.690514,"lng":139.666933,"prefecture":13,"lines":[28002],"attr":"heat","postal_code":"164-0013","address":"中野区弥生町５-２４-４","next":[2800228,2800222,2400104,2800221,2400703,2800226],"voronoi":{"lat":35.693398,"lng":139.669991,"delta_lat":[0,1992,-4949,-8345,80,1981],"delta_lng":[0,-6628,-3959,5612,4198,2882]},"impl":true},
    {"code":1131214,"id":"558810","name":"中野(東京)","original_name":"中野","name_kana":"なかの","lat":35.705765,"lng":139.665835,"prefecture":13,"lines":[11312,11313,28004],"attr":"heat","postal_code":"164-0001","address":"中野区中野５丁目","next":[2200705,2200706,2200707,2800221,2800222,1131215,1131308],"voronoi":{"lat":35.700107,"lng":139.663494,"delta_lat":[0,5790,5224,515,1171,-6012,-2169],"delta_lng":[0,-5755,-141,546,8042,8922,89]},"impl":true},
    {"code":2800226,"left":2500104,"right":1131309,"id":"4ac72b","name":"中野新橋","name_kana":"なかのしんばし","lat":35.692123,"lng":139.673997,"prefecture":13,"lines":[28002],"attr":"heat","postal_code":"164-0013","address":"中野区弥生町２-２６-８","next":[2800220,9930129,2800221,2400703,2800227],"voronoi":{"lat":35.693398,"lng":139.669991,"delta_lat":[0,5498,-5716,-8195,-828],"delta_lng":[0,5942,3718,-1849,-5706]},"impl":true},
    {"code":2500104,"left":2400702,"right":2500102,"id":"b825ba","name":"代々木八幡","name_kana":"よよぎはちまん","lat":35.669715,"lng":139.688913,"prefecture":13,"lines":[25001],"attr":"heat","postal_code":"151-0053","address":"渋谷区代々木５丁目","next":[2400702,1130206,2500105,2500103,2800519],"voronoi":{"lat":35.667909,"lng":139.68463,"delta_lat":[0,6800,933,-3800,-53],"delta_lng":[0,-431,4199,7242,4]},"impl":true},
    {"code":2400702,"left":2500105,"right":9930129,"id":"ce46a5","name":"初台","name_kana":"はつだい","lat":35.68123,"lng":139.686354,"prefecture":13,"lines":[24001],"attr":"cool","postal_code":"151-0061","address":"渋谷区初台１-５３-７","next":[2400703,9930129,2500103,2500104,2500105,9930101],"voronoi":{"lat":35.686341,"lng":139.688786,"delta_lat":[0,-2281,-8628,-723,933,8806],"delta_lng":[0,-9533,3537,1408,4199,3227]},"impl":true},
    {"code":2500105,"left":2400703,"id":"0aa16c","name":"代々木上原","name_kana":"よよぎうえはら","lat":35.669159,"lng":139.680153,"prefecture":13,"lines":[25001,28005],"attr":"heat","postal_code":"151-0066","address":"渋谷区西原３丁目","next":[2400604,2400703,2500106,2400702,2500104,2400603,2800519],"voronoi":{"lat":35.667909,"lng":139.68463,"delta_lat":[0,6800,723,-4179,-7898,-563,2082],"delta_lng":[0,-431,-1408,-8317,4182,734,5250]},"impl":true},
    {"code":2400703,"id":"551330","name":"幡ヶ谷","name_kana":"はたがや","lat":35.677061,"lng":139.676183,"prefecture":13,"lines":[24001],"attr":"cool","postal_code":"151-0072","address":"東京都渋谷区幡ヶ谷一丁目","next":[2400702,2500105,2500106,2400104,9930129,2800226,2800227],"voronoi":{"lat":35.684986,"lng":139.677803,"delta_lat":[0,-925,-8628,-4179,368,10555,1981],"delta_lng":[0,1451,3537,-8317,-1356,-3903,2882]},"impl":true},
    {"code":9930129,"id":"efcf3b","name":"西新宿五丁目","name_kana":"にししんじゅくごちょうめ","lat":35.689798,"lng":139.684304,"prefecture":13,"lines":[99301],"attr":"heat","postal_code":"160-0023","address":"新宿区西新宿５-２５-９","next":[2400702,9930101,2800219,2800226,2800220,2400703],"voronoi":{"lat":35.686341,"lng":139.688786,"delta_lat":[0,6331,1811,-1303,-8195,-925],"delta_lng":[0,-577,-962,-7596,-1849,1451]},"impl":true},
    {"code":2500102,"left":2500103,"right":9930101,"id":"c6b9f7","name":"南新宿","name_kana":"みなみしんじゅく","lat":35.683483,"lng":139.69867,"prefecture":13,"lines":[25001],"attr":"heat","postal_code":"151-0053","address":"渋谷区代々木２丁目","next":[1130208,2500103,2801014,1130207,9930101],"voronoi":{"lat":35.686272,"lng":139.700731,"delta_lat":[0,-8539,-220,7030,3017],"delta_lng":[0,-1069,-163,-6747,3496]},"impl":true},
    {"code":2500103,"left":2800519,"id":"d1c6bf","name":"参宮橋","name_kana":"さんぐうばし","lat":35.678586,"lng":139.693568,"prefecture":13,"lines":[25001],"attr":"heat","postal_code":"151-0053","address":"渋谷区代々木４丁目","next":[2801014,2500102,2400702,9930101,2500104,1130206],"voronoi":{"lat":35.677512,"lng":139.6995,"delta_lat":[0,7030,-94,-8806,-3800,4371],"delta_lng":[0,-6747,-1128,-3227,7242,3846]},"impl":true},
    {"code":2800519,"id":"94be32","name":"代々木公園","name_kana":"よよぎこうえん","lat":35.669187,"lng":139.689099,"prefecture":13,"lines":[28005],"attr":"cool","postal_code":"151-0063","address":"渋谷区富ケ谷１丁目","next":[2400602,2400603,1130206,2500105,1130205,2500104],"voronoi":{"lat":35.667909,"lng":139.68463,"delta_lat":[0,-3035,-2289,2358,457,6389],"delta_lng":[0,10,5020,6286,388,-690]},"impl":true},
    {"code":9930101,"id":"a34e8c","name":"都庁前","name_kana":"とちょうまえ","lat":35.690551,"lng":139.69257,"prefecture":13,"lines":[99301],"attr":"eco","postal_code":"160-0023","address":"新宿区西新宿２-８-１","next":[2500103,9930129,2400702,2500102,2800219,9930102,1130208],"voronoi":{"lat":35.692255,"lng":139.695727,"delta_lat":[0,417,-6331,-1893,94,3017,2768],"delta_lng":[0,-7518,577,2838,1128,3496,288]},"impl":true},
    {"code":1131309,"left":1131308,"right":2200701,"id":"0a4329","name":"大久保(東京)","original_name":"大久保","name_kana":"おおくぼ","lat":35.700784,"lng":139.69732,"prefecture":13,"lines":[11313],"attr":"cool","postal_code":"169-0073","address":"新宿区百人町１丁目","next":[1130210,1131308,2800219,2200701,1130209,2800402,2200703],"voronoi":{"lat":35.707775,"lng":139.698576,"delta_lat":[0,-9138,-1723,4309,3898,2962,358],"delta_lng":[0,283,-2913,-6153,1738,3008,2798]},"impl":true},
    {"code":1131308,"left":2800219,"right":2800402,"id":"eb3a87","name":"東中野","name_kana":"ひがしなかの","lat":35.706529,"lng":139.684436,"prefecture":13,"lines":[11313,99301],"attr":"cool","postal_code":"164-0003","address":"中野区東中野４丁目","next":[2800221,2200704,1131309,2800402,2800220,2800219,2200705,1131214],"voronoi":{"lat":35.703622,"lng":139.675787,"delta_lat":[0,-2466,66,3898,7375,110,-5810,-2169],"delta_lng":[0,13909,96,1738,-11515,-374,-4533,89]},"impl":true},
    {"code":2800219,"left":2800220,"id":"534c25","name":"西新宿","name_kana":"にししんじゅく","lat":35.694298,"lng":139.692778,"prefecture":13,"lines":[28002],"attr":"heat","postal_code":"160-0023","address":"新宿区西新宿６-７-５１","next":[1131309,2800220,9930129,2200701,1131308,9930101,9930102],"voronoi":{"lat":35.692255,"lng":139.695727,"delta_lat":[0,417,1811,6673,66,-4309,-1176],"delta_lng":[0,-7518,-962,2449,96,6153,319]},"impl":true},
    {"code":2800220,"id":"cf60ae","name":"中野坂上","name_kana":"なかのさかうえ","lat":35.69792,"lng":139.68291,"prefecture":13,"lines":[28002,99301],"attr":"heat","postal_code":"164-0011","address":"中野区中央２-１-２","next":[2800226,2800219,1131308,9930129,2800221],"voronoi":{"lat":35.69318,"lng":139.679651,"delta_lat":[0,1303,6673,2466,-4726],"delta_lng":[0,7596,2449,-13909,146]},"impl":true},
    {"code":2800402,"id":"22131d","name":"落合(東京)","original_name":"落合","name_kana":"おちあい","lat":35.710976,"lng":139.687284,"prefecture":13,"lines":[28004],"attr":"eco","postal_code":"161-0034","address":"新宿区上落合２-１３-７","next":[1131308,2200703,1131309,2200704],"voronoi":{"lat":35.712495,"lng":139.680016,"delta_lat":[0,-7375,2962,5284],"delta_lng":[0,11515,3008,-3174]},"impl":true},
    {"code":2200701,"left":9930102,"right":1130209,"id":"4e0e0e","name":"西武新宿","name_kana":"せいぶしんじゅく","lat":35.696254,"lng":139.7,"prefecture":13,"lines":[22007],"attr":"cool","postal_code":"160-0021","address":"新宿区歌舞伎町１-３０-１","next":[9930102,1131309,2800217,2800219,1130209,2801012],"voronoi":{"lat":35.698373,"lng":139.70352,"delta_lat":[0,263,-1723,-1176,-1877,1589],"delta_lng":[0,-4662,-2913,319,6526,1754]},"impl":true},
    {"code":9930102,"id":"ec56a8","name":"新宿西口","name_kana":"しんじゅくにしぐち","lat":35.693315,"lng":139.699155,"prefecture":13,"lines":[99301],"attr":"eco","postal_code":"160-0023","address":"新宿区西新宿１-３-１７","next":[2800217,2200701,1130208,9930101,2800219],"voronoi":{"lat":35.692255,"lng":139.695727,"delta_lat":[0,-1928,2050,1483,1877],"delta_lng":[0,809,5616,638,-6526]},"impl":true},
    {"code":1130209,"id":"7966f6","name":"新大久保","name_kana":"しんおおくぼ","lat":35.700875,"lng":139.700261,"prefecture":13,"lines":[11302],"attr":"eco","postal_code":"169-0073","address":"東京都新宿区百人町一丁目10-15","open_date":"1914-11-15","next":[2801012,2801011,1131309,2200701,1130210],"voronoi":{"lat":35.707775,"lng":139.698576,"delta_lat":[0,-9138,-263,5737,2338],"delta_lng":[0,283,4662,1534,-1949]},"impl":true},
    {"code":2800516,"left":2800319,"right":2800116,"id":"f7aea3","name":"乃木坂","name_kana":"のぎざか","lat":35.666572,"lng":139.726215,"prefecture":13,"lines":[28005],"attr":"cool","postal_code":"107-0062","address":"港区南青山１丁目","next":[2800319,2800116,2800118,2800515,2800320,2800117],"voronoi":{"lat":35.663232,"lng":139.71952,"delta_lat":[0,-2558,-1446,10467,2002,-3061],"delta_lng":[0,244,5152,7480,-1099,-9220]},"impl":true},
    {"code":2800319,"left":1130202,"right":2800917,"id":"1cf8c3","name":"六本木","name_kana":"ろっぽんぎ","lat":35.662836,"lng":139.731443,"prefecture":13,"lines":[28003,99301],"attr":"cool","postal_code":"106-0032","address":"港区六本木６-１-２５","next":[2800320,2800516,2800515,2800915,2800916],"voronoi":{"lat":35.668969,"lng":139.733486,"delta_lat":[0,725,-10467,-3857,5019],"delta_lng":[0,-1090,-7480,4405,7298]},"impl":true},
    {"code":1130202,"left":9930204,"right":2600202,"id":"11eb04","name":"五反田","name_kana":"ごたんだ","lat":35.625974,"lng":139.723822,"prefecture":13,"lines":[11302,26005,99302],"attr":"eco","postal_code":"141-0022","address":"東京都品川区東五反田一丁目26","open_date":"1911-10-15","next":[2600202,9930206,1130201,2600502,1130203,2800918],"voronoi":{"lat":35.625649,"lng":139.72986,"delta_lat":[0,-2761,2756,3960,2862,-367],"delta_lng":[0,-3709,-6931,239,2827,1898]},"impl":true},
    {"code":9930204,"left":2600503,"right":1130201,"id":"a7e1ba","name":"戸越","name_kana":"とごし","lat":35.614633,"lng":139.716495,"prefecture":13,"lines":[99302],"attr":"eco","postal_code":"142-0041","address":"品川区戸越３-４-１７","next":[2600504,2600402,1130201,2600403,2600503,2600502],"voronoi":{"lat":35.619027,"lng":139.71865,"delta_lat":[0,-6147,-1652,1946,1840,536],"delta_lng":[0,-4874,1759,6755,1119,-231]},"impl":true},
    {"code":2600503,"left":2600404,"right":2600203,"id":"c7aa15","name":"戸越銀座","name_kana":"とごしぎんざ","lat":35.615928,"lng":139.714862,"prefecture":13,"lines":[26005],"attr":"eco","postal_code":"142-0051","address":"品川区平塚２-１６-１","next":[2600502,2600202,2600203,9930204,2600504],"voronoi":{"lat":35.615323,"lng":139.708395,"delta_lat":[0,5843,94,-2232,-6147],"delta_lng":[0,2605,5764,1885,-4874]},"impl":true},
    {"code":2600404,"left":2600504,"id":"616a50","name":"中延","name_kana":"なかのぶ","lat":35.60571,"lng":139.712526,"prefecture":13,"lines":[26004,99302],"attr":"cool","postal_code":"142-0053","address":"品川区中延４-５-５","next":[9930202,1130804,2600504,2600403,2600405],"voronoi":{"lat":35.600772,"lng":139.715842,"delta_lat":[0,3126,4177,-451,-6494],"delta_lng":[0,1391,-2333,-5942,2477]},"impl":true},
    {"code":2600504,"id":"2fb19c","name":"荏原中延","name_kana":"えばらなかのぶ","lat":35.610056,"lng":139.712196,"prefecture":13,"lines":[26005],"attr":"eco","postal_code":"142-0053","address":"品川区中延２-８-１","next":[9930204,2600204,2600404,2600203,2600405,2600403,2600503,2600406],"voronoi":{"lat":35.611741,"lng":139.705039,"delta_lat":[0,1592,1990,-2442,-1652,-3153,-451,2152],"delta_lng":[0,636,2720,5380,1759,-635,-5942,-2901]},"impl":true},
    {"code":2600203,"id":"052a8b","name":"武蔵小山","name_kana":"むさしこやま","lat":35.620538,"lng":139.704524,"prefecture":13,"lines":[26002],"attr":"cool","postal_code":"142-0062","address":"品川区小山３-４-８","next":[1130203,2600202,2600105,2600204,2600104,2600504,2600503,2600103],"voronoi":{"lat":35.631761,"lng":139.70476,"delta_lat":[0,-10595,-5843,-1990,12042,2221,4640,480],"delta_lng":[0,6240,-2605,-2720,-10499,949,5604,1895]},"impl":true},
    {"code":1130201,"left":2600402,"right":2600502,"id":"d3bfe4","name":"大崎","name_kana":"おおさき","lat":35.619772,"lng":139.728439,"prefecture":13,"lines":[11302,11321,11333,99337],"attr":"cool","postal_code":"141-0032","address":"東京都品川区大崎一丁目21-4","open_date":"1901-02-25","next":[2700104,2700103,2600502,1130202,1133228,2600402,9930204,9930206],"voronoi":{"lat":35.625649,"lng":139.72986,"delta_lat":[0,-2761,-7338,-536,-1734,925,3330,7653],"delta_lng":[0,-3709,-2973,231,8796,1950,555,-1912]},"impl":true},
    {"code":2600402,"left":2600403,"id":"8a2abe","name":"下神明","name_kana":"しもしんめい","lat":35.608704,"lng":139.726256,"prefecture":13,"lines":[26004],"attr":"cool","postal_code":"141-0033","address":"品川区西品川１-２９-６","next":[9930204,2600403,1130201,1130804,1133228],"voronoi":{"lat":35.601972,"lng":139.728984,"delta_lat":[0,4358,6845,1840,-1734],"delta_lng":[0,-6823,128,1119,8796]},"impl":true},
    {"code":2600403,"id":"1d0469","name":"戸越公園","name_kana":"とごしこうえん","lat":35.608856,"lng":139.718159,"prefecture":13,"lines":[26004],"attr":"cool","postal_code":"142-0041","address":"品川区戸越５-１０-１５","next":[2600402,1130804,9930204,2600504,2600404],"voronoi":{"lat":35.606329,"lng":139.722161,"delta_lat":[0,6845,-1946,-3153,-4177],"delta_lng":[0,128,-6755,-635,2333]},"impl":true},
    {"code":2600502,"id":"f9c117","name":"大崎広小路","name_kana":"おおさきひろこうじ","lat":35.622244,"lng":139.722339,"prefecture":13,"lines":[26005],"attr":"eco","postal_code":"141-0032","address":"品川区大崎４-１-１","next":[1130201,2600503,1130202,2600202,9930204],"voronoi":{"lat":35.622888,"lng":139.726151,"delta_lat":[0,2756,-4385,-2232,-3477],"delta_lng":[0,-6931,-2455,1885,4528]},"impl":true},
    {"code":2600202,"left":1130205,"right":2800918,"id":"251c1c","name":"不動前","name_kana":"ふどうまえ","lat":35.626526,"lng":139.71469,"prefecture":13,"lines":[26002],"attr":"cool","postal_code":"141-0031","address":"品川区西五反田５-１２-１","next":[2600203,1130202,2600503,2600502,1130203],"voronoi":{"lat":35.631761,"lng":139.70476,"delta_lat":[0,-10595,94,4385,3960],"delta_lng":[0,6240,5764,2455,239]},"impl":true},
    {"code":1130205,"left":1130204,"right":2800118,"id":"8e9a53","name":"渋谷","name_kana":"しぶや","lat":35.658871,"lng":139.701238,"prefecture":13,"lines":[11302,11321,11328,11333,24006,26001,26003,28001,28008,28010],"attr":"cool","postal_code":"150-0043","address":"東京都渋谷区道玄坂一丁目1-1","open_date":"1885-03-01","next":[2800518,2600102,1130204,2400602,2800118,2800519,1130206],"voronoi":{"lat":35.662993,"lng":139.706239,"delta_lat":[0,-6908,-1398,-1871,12128,457,-200],"delta_lng":[0,3977,-1928,-9765,-2577,388,1734]},"impl":true},
    {"code":1130204,"left":2600102,"id":"43da5d","name":"恵比寿","name_kana":"えびす","lat":35.646685,"lng":139.71007,"prefecture":13,"lines":[11302,11321,11333,28003],"attr":"cool","postal_code":"150-0022","address":"東京都渋谷区恵比寿南一丁目5-5","open_date":"1901-02-25","next":[2800320,2600103,2600102,2800118,1130205,1130203,2800918],"voronoi":{"lat":35.642722,"lng":139.718331,"delta_lat":[0,-5376,3985,13356,1398,-369,-12078],"delta_lng":[0,-12027,-985,2968,1928,3046,5569]},"impl":true},
    {"code":2600102,"id":"7c89ed","name":"代官山","name_kana":"だいかんやま","lat":35.648193,"lng":139.703284,"prefecture":13,"lines":[26001],"attr":"cool","postal_code":"150-0034","address":"渋谷区代官山町１９-４","next":[1130204,1130205,2400602,2600103],"voronoi":{"lat":35.654687,"lng":139.708288,"delta_lat":[0,-1871,-2088,-9397],"delta_lng":[0,-9765,-1947,8744]},"impl":true},
    {"code":2800118,"id":"95cf45","name":"表参道","name_kana":"おもてさんどう","lat":35.665247,"lng":139.712314,"prefecture":13,"lines":[28001,28005,28008],"attr":"cool","postal_code":"107-0061","address":"港区北青山３丁目","next":[2800320,2800518,1130204,2800516,1130205,2800117],"voronoi":{"lat":35.672558,"lng":139.710637,"delta_lat":[0,-9565,-6908,-369,4958,2558],"delta_lng":[0,-4398,3977,3046,6502,-244]},"impl":true},
    {"code":2800918,"left":9930206,"right":2800320,"id":"33a57c","name":"白金台","name_kana":"しろかねだい","lat":35.637917,"lng":139.726133,"prefecture":13,"lines":[28009,99303],"attr":"eco","postal_code":"108-0071","address":"港区白金台３-２","next":[2800320,9930206,2800917,1130202,1130204,1130203],"voronoi":{"lat":35.642722,"lng":139.718331,"delta_lat":[0,916,2166,-8455,-5249,367],"delta_lng":[0,499,7914,5289,-7850,-1898]},"impl":true},
    {"code":9930206,"left":1130203,"id":"df5dc1","name":"高輪台","name_kana":"たかなわだい","lat":35.631679,"lng":139.730305,"prefecture":13,"lines":[99302],"attr":"eco","postal_code":"108-0071","address":"港区白金台２-２６-７","next":[2800918,2700101,1130202,1130230,2800917,2700103,1130201,100202],"voronoi":{"lat":35.625425,"lng":139.733042,"delta_lat":[0,-236,461,6450,5249,-702,-847,-2585],"delta_lng":[0,-245,-2938,-5676,7850,2074,612,938]},"impl":true},
    {"code":1130203,"id":"0db398","name":"目黒","name_kana":"めぐろ","lat":35.633923,"lng":139.715775,"prefecture":13,"lines":[11302,26002,28009,99303],"attr":"eco","postal_code":"141-0021","address":"東京都品川区上大崎二丁目16-9","open_date":"1885-03-16","next":[2600203,1130202,2600103,2600202,1130204,2800918],"voronoi":{"lat":35.642722,"lng":139.718331,"delta_lat":[0,-5376,-4630,-955,-2156,2862],"delta_lng":[0,-12027,-2680,1136,14698,2827]},"impl":true},
    {"code":2800320,"id":"9fcef9","name":"広尾","name_kana":"ひろお","lat":35.652279,"lng":139.722202,"prefecture":13,"lines":[28003],"attr":"cool","postal_code":"106-0047","address":"港区南麻布５-１０-２８","next":[1130204,2800918,2800319,2800118,2800916,2800917,2800516],"voronoi":{"lat":35.660673,"lng":139.719764,"delta_lat":[0,-4958,-12078,2166,4343,5224,3857],"delta_lng":[0,-6502,5569,7914,3422,-846,-4405]},"impl":true},
    {"code":2800917,"left":1130230,"right":1130228,"id":"3cde0d","name":"白金高輪","name_kana":"しろかねたかなわ","lat":35.642903,"lng":139.734104,"prefecture":13,"lines":[28009,99303],"attr":"eco","postal_code":"108-0074","address":"港区高輪１-３-２０","next":[2800918,9930206,1130228,2700101,2800320,2800916],"voronoi":{"lat":35.650146,"lng":139.730166,"delta_lat":[0,-4343,-8455,-702,9051,1954],"delta_lng":[0,-3422,5289,2074,6442,-411]},"impl":true},
    {"code":1130230,"left":100202,"right":2700104,"id":"654c8f","name":"高輪ゲートウェイ","name_kana":"たかなわげーとうぇい","lat":35.635468,"lng":139.740749,"prefecture":13,"lines":[11302,11332],"attr":"heat","postal_code":"108-0075","address":"港区港南二丁目10-145","open_date":"2020-03-14","next":[100202,9933602,9931105,9930206,1130228,2700101],"voronoi":{"lat":35.635799,"lng":139.73472,"delta_lat":[0,-2585,-2972,3270,3208,1891],"delta_lng":[0,938,11389,4137,-1183,-2844]},"impl":true},
    {"code":100202,"left":2700103,"right":2700101,"id":"73e262","name":"品川","name_kana":"しながわ","lat":35.62876,"lng":139.738999,"prefecture":13,"lines":[1002,11301,11302,11308,11328,11332,27001],"attr":"heat","postal_code":"108-0074","address":"東京都港区高輪三丁目26-27","open_date":"1872-06-12","next":[1130230,2700103,9933602,9930206],"voronoi":{"lat":35.630243,"lng":139.747047,"delta_lat":[0,-4459,-359,7790],"delta_lng":[0,-2235,-11769,2615]},"impl":true},
    {"code":2700103,"left":1133228,"id":"7455c6","name":"北品川","name_kana":"きたしながわ","lat":35.622458,"lng":139.739191,"prefecture":13,"lines":[27001],"attr":"eco","postal_code":"140-0001","address":"品川区北品川１-１-４","next":[1130201,100202,9933602,9930206,2700104],"voronoi":{"lat":35.625783,"lng":139.744812,"delta_lat":[0,-359,-236,-7653,4606],"delta_lng":[0,-11769,-245,1912,10245]},"impl":true},
    {"code":1133228,"id":"6dde5c","name":"大井町","name_kana":"おおいまち","lat":35.606257,"lng":139.73485,"prefecture":13,"lines":[11332,26004,99337],"attr":"cool","postal_code":"140-0014","address":"品川区大井１丁目","next":[2700107,1130201,2700104,2700105,1130804,2700106,2600402],"voronoi":{"lat":35.601972,"lng":139.728984,"delta_lat":[0,-3121,4155,4773,4734,1693,-925],"delta_lng":[0,1104,7997,828,-1806,-2953,-1950]},"impl":true},
    {"code":2700101,"id":"283523","name":"泉岳寺","name_kana":"せんがくじ","lat":35.638692,"lng":139.74002,"prefecture":13,"lines":[27001,99302],"attr":"eco","postal_code":"108-0074","address":"港区高輪２-１６-３４","next":[1130228,9930206,1130230,2800917],"voronoi":{"lat":35.638611,"lng":139.747157,"delta_lat":[0,-2812,847,9051],"delta_lng":[0,-12437,-612,6442]},"impl":true},
    {"code":2700104,"left":9933706,"right":9933602,"id":"e4d72b","name":"新馬場","name_kana":"しんばんば","lat":35.61762,"lng":139.741366,"prefecture":13,"lines":[27001],"attr":"eco","postal_code":"140-0001","address":"品川区北品川２-１８-１","next":[1130201,2700105,1133228,9933706,9933602,2700103],"voronoi":{"lat":35.61584,"lng":139.748534,"delta_lat":[0,-1434,-1893,1693,3330,4606],"delta_lng":[0,-1594,-9832,-2953,555,10245]},"impl":true},
    {"code":9933706,"left":2700105,"id":"c3eb4a","name":"品川シーサイド","name_kana":"しながわしーさいど","lat":35.608524,"lng":139.749549,"prefecture":13,"lines":[99337],"attr":"heat","postal_code":"140-0002","address":"品川区東品川４-１２-２２","next":[2700105,9931109,9933603,9931108,2700104,9933602,2700106],"voronoi":{"lat":35.606601,"lng":139.74596,"delta_lat":[0,7804,1434,-1010,-10087,-6761,3786],"delta_lng":[0,979,1594,12909,5528,2059,-20727]},"impl":true},
    {"code":2700105,"id":"f67a94","name":"青物横丁","name_kana":"あおものよこちょう","lat":35.609351,"lng":139.742958,"prefecture":13,"lines":[27001],"attr":"eco","postal_code":"140-0004","address":"品川区南品川３-１-２０","next":[9933706,2700106,2700104,1133228],"voronoi":{"lat":35.606601,"lng":139.74596,"delta_lat":[0,7804,-1893,-4734],"delta_lng":[0,979,-9832,1806]},"impl":true},
    {"code":9933602,"id":"ab47d9","name":"天王洲アイル","name_kana":"てんのうずあいる","lat":35.622908,"lng":139.750675,"prefecture":13,"lines":[99336,99337],"attr":"eco","postal_code":"140-0002","address":"品川区東品川２-５-１９","next":[9931105,1130230,2700103,9931108,100202,2700104,9933706,9931107],"voronoi":{"lat":35.614829,"lng":139.761443,"delta_lat":[0,1010,6302,3642,4459,3270,-3445,-10467],"delta_lng":[0,-12909,-3579,-143,2235,4137,9054,1512]},"impl":true},
    {"code":1130228,"left":2800318,"right":9930305,"id":"ddf57e","name":"田町(東京)","original_name":"田町","name_kana":"たまち","lat":35.645736,"lng":139.747575,"prefecture":13,"lines":[11302,11332],"attr":"heat","postal_code":"108-0014","address":"東京都港区芝五丁目33-36","open_date":"1906-12-16","next":[2700101,9930208,1130230,2800917,9931105,2800916,9930122],"voronoi":{"lat":35.648277,"lng":139.74067,"delta_lat":[0,-625,-1954,-7086,-1891,7854,4799],"delta_lng":[0,-532,411,6607,2844,3029,-9774]},"impl":true},
    {"code":2800318,"left":9930122,"right":2800915,"id":"052f60","name":"神谷町","name_kana":"かみやちょう","lat":35.662978,"lng":139.745069,"prefecture":13,"lines":[28003],"attr":"cool","postal_code":"105-0001","address":"港区虎ノ門５-１２-１１","next":[9930122,2800915,2800317,9930306,2800916],"voronoi":{"lat":35.658463,"lng":139.747311,"delta_lat":[0,5308,3337,-7338,-17],"delta_lng":[0,1447,-5507,-3164,17]},"impl":true},
    {"code":9930122,"left":2800916,"id":"f6d995","name":"赤羽橋","name_kana":"あかばねばし","lat":35.655007,"lng":139.743642,"prefecture":13,"lines":[99301],"attr":"cool","postal_code":"106-0044","address":"港区東麻布１-２８-１３","next":[2800318,9930208,9930305,2800916,9930306,1130228],"voronoi":{"lat":35.648277,"lng":139.74067,"delta_lat":[0,11477,-1290,-15,-6787,-2288],"delta_lng":[0,-566,7207,11,-1024,-3043]},"impl":true},
    {"code":2800916,"id":"6a2cb4","name":"麻布十番","name_kana":"あざぶじゅうばん","lat":35.654682,"lng":139.737051,"prefecture":13,"lines":[28009,99301],"attr":"eco","postal_code":"106-0045","address":"港区麻布十番４-４-９","next":[2800915,9930122,2800318,2800320,2800917,1130228,2800319],"voronoi":{"lat":35.65977,"lng":139.740087,"delta_lat":[0,-17,-11477,-625,2495,5224,5019],"delta_lng":[0,17,566,-532,-9972,-846,7298]},"impl":true},
    {"code":2800915,"id":"068fd5","name":"六本木一丁目","name_kana":"ろっぽんぎいっちょうめ","lat":35.665595,"lng":139.739,"prefecture":13,"lines":[28009],"attr":"eco","postal_code":"106-0032","address":"港区六本木１-４-１","next":[2800318,2800114,2800916,2800317,2800515,2800319],"voronoi":{"lat":35.65977,"lng":139.740087,"delta_lat":[0,7338,1688,761,-588,-8580],"delta_lng":[0,3164,-350,-2526,-6890,3133]},"impl":true},
    {"code":9930305,"left":9930208,"right":9930306,"id":"f3d096","name":"芝公園","name_kana":"しばこうえん","lat":35.654074,"lng":139.749824,"prefecture":13,"lines":[99303],"attr":"eco","postal_code":"105-0011","address":"港区芝公園４-８-１４","next":[1130227,9930306,9930122,9930121,9931104,9930208],"voronoi":{"lat":35.651661,"lng":139.746298,"delta_lat":[0,6787,-893,-5049,-1460,-714],"delta_lng":[0,1024,3728,2830,263,-382]},"impl":true},
    {"code":9930208,"id":"3361a8","name":"三田(東京)","original_name":"三田","name_kana":"みた","lat":35.64818,"lng":139.748775,"prefecture":13,"lines":[99302,99303],"attr":"cool","postal_code":"108-0014","address":"港区芝５-３４-１０","next":[9930122,1130228,9931105,9931104,9930305],"voronoi":{"lat":35.646161,"lng":139.75415,"delta_lat":[0,-1587,4799,2288,-1329],"delta_lng":[0,-1120,-9774,3043,7463]},"impl":true},
    {"code":9930306,"id":"659c88","name":"御成門","name_kana":"おなりもん","lat":35.661215,"lng":139.751535,"prefecture":13,"lines":[99303],"attr":"eco","postal_code":"105-0003","address":"港区西新橋３-２４-６","next":[9930305,9930121,1130102,9930307,9930120,2800317,2800318,9930122],"voronoi":{"lat":35.657556,"lng":139.75105,"delta_lat":[0,3772,791,3196,707,-2250,-5308,-15],"delta_lng":[0,5347,-216,-2257,-1480,-3686,-1447,11]},"impl":true},
    {"code":2800116,"left":2800216,"right":2800615,"id":"de873b","name":"青山一丁目","name_kana":"あおやまいっちょうめ","lat":35.672765,"lng":139.724159,"prefecture":13,"lines":[28001,28008,99301],"attr":"cool","postal_code":"107-0062","address":"港区南青山１-１-１９","next":[1131313,2800515,2800516,2800117,2800115,1131102],"voronoi":{"lat":35.672915,"lng":139.731256,"delta_lat":[0,-1218,-3061,6500,3929,-659],"delta_lng":[0,40,-9220,-2308,8325,1349]},"impl":true},
    {"code":2800216,"left":1131312,"right":9930529,"id":"a5b0a6","name":"新宿御苑前","name_kana":"しんじゅくぎょえんまえ","lat":35.688588,"lng":139.71069,"prefecture":13,"lines":[28002],"attr":"cool","postal_code":"160-0022","address":"新宿区新宿１-８-１","next":[1130207,1131312,2801012,2800217,9930104,2800215],"voronoi":{"lat":35.694911,"lng":139.713007,"delta_lat":[0,-1083,-7914,-1509,1029,7570],"delta_lng":[0,-3613,-3085,964,7933,507]},"impl":true},
    {"code":1131312,"left":2801014,"right":1131313,"id":"104af3","name":"千駄ケ谷","name_kana":"せんだがや","lat":35.681231,"lng":139.711644,"prefecture":13,"lines":[11313],"attr":"heat","postal_code":"151-0051","address":"東京都渋谷区千駄ヶ谷一丁目35-10","next":[2800215,2801014,1130207,2800216,9930126],"voronoi":{"lat":35.674754,"lng":139.710828,"delta_lat":[0,8450,1201,1029,-139],"delta_lng":[0,-3784,229,7933,110]},"impl":true},
    {"code":2801014,"left":2800518,"right":1130207,"id":"206ac3","name":"北参道","name_kana":"きたさんどう","lat":35.678459,"lng":139.705453,"prefecture":13,"lines":[28010],"attr":"heat","postal_code":"151-0051","address":"渋谷区千駄ヶ谷４丁目","next":[2500103,1131312,9930126,2800117,2500102,1130207,1130206,2800518],"voronoi":{"lat":35.673375,"lng":139.707238,"delta_lat":[0,2838,1299,220,5471,-8450,-1267,-635],"delta_lng":[0,-7753,14,163,7382,3784,183,-406]},"impl":true},
    {"code":2800518,"left":1130206,"id":"20eddf","name":"明治神宮前〈原宿〉","name_kana":"めいじじんぐうまえ","lat":35.669072,"lng":139.703995,"prefecture":13,"lines":[28005,28010],"attr":"cool","postal_code":"150-0001","address":"渋谷区神宮前１丁目","next":[1130205,2800117,2800118,1130206,2801014],"voronoi":{"lat":35.673375,"lng":139.707238,"delta_lat":[0,-8175,-2208,9565,294],"delta_lng":[0,-9171,8171,4398,-31]},"impl":true},
    {"code":1130206,"id":"b8b871","name":"原宿","name_kana":"はらじゅく","lat":35.670646,"lng":139.702592,"prefecture":13,"lines":[11302],"attr":"cool","postal_code":"150-0001","address":"東京都渋谷区神宮前一丁目18","open_date":"1906-10-30","next":[2500104,2800519,2801014,2800518,1130205,2500103],"voronoi":{"lat":35.671842,"lng":139.695639,"delta_lat":[0,-53,-6389,-200,8175,2838],"delta_lng":[0,4,690,1734,9171,-7753]},"impl":true},
    {"code":1130207,"id":"946224","name":"代々木","name_kana":"よよぎ","lat":35.683061,"lng":139.702042,"prefecture":13,"lines":[11302,11313,99301],"attr":"cool","postal_code":"151-0053","address":"東京都渋谷区代々木一丁目34-1","open_date":"1906-09-23","next":[1131312,2800216,1130208,2500102,2801014,2800217],"voronoi":{"lat":35.686933,"lng":139.703526,"delta_lat":[0,-661,-8539,5471,1201,1509],"delta_lng":[0,-2795,-1069,7382,229,-964]},"impl":true},
    {"code":1131313,"left":2800117,"right":2800215,"id":"e029af","name":"信濃町","name_kana":"しなのまち","lat":35.680031,"lng":139.720729,"prefecture":13,"lines":[11313],"attr":"heat","postal_code":"160-0016","address":"新宿区信濃町","next":[2800116,2800117,2800215,9930126,1131102],"voronoi":{"lat":35.684348,"lng":139.724891,"delta_lat":[0,-568,-8103,-541,3929],"delta_lng":[0,-7194,280,1791,8325]},"impl":true},
    {"code":2800117,"left":9930126,"id":"085095","name":"外苑前","name_kana":"がいえんまえ","lat":35.670527,"lng":139.717857,"prefecture":13,"lines":[28001],"attr":"cool","postal_code":"107-0061","address":"港区北青山２-７-１６","next":[9930126,1131313,2800518,2801014,2800116,2800118,2800516],"voronoi":{"lat":35.663232,"lng":139.71952,"delta_lat":[0,9326,294,635,2190,-541,-6500],"delta_lng":[0,-8883,-31,406,6966,1791,2308]},"impl":true},
    {"code":9930126,"id":"c69062","name":"国立競技場","name_kana":"こくりつきょうぎじょう","lat":35.679831,"lng":139.714932,"prefecture":13,"lines":[99301],"attr":"heat","postal_code":"160-0013","address":"新宿区霞ケ丘町１０-３","next":[2800117,2801014,1131312,1131313,2800215],"voronoi":{"lat":35.685295,"lng":139.715316,"delta_lat":[0,-10541,-1267,2190,8103],"delta_lng":[0,-4488,183,6966,-280]},"impl":true},
    {"code":2800215,"id":"f36115","name":"四谷三丁目","name_kana":"よつやさんちょうめ","lat":35.687958,"lng":139.720103,"prefecture":13,"lines":[28002],"attr":"cool","postal_code":"160-0004","address":"新宿区四谷３-８","next":[9930403,1131312,9930104,1131313,1131102,9930126,2800216],"voronoi":{"lat":35.693172,"lng":139.716705,"delta_lat":[0,-5496,-3329,-568,1515,139,7570],"delta_lng":[0,8792,-605,-7194,-2381,-110,507]},"impl":true},
    {"code":9930529,"left":2801011,"right":2800404,"id":"8c9f7d","name":"面影橋","name_kana":"おもかげばし","lat":35.712981,"lng":139.714444,"prefecture":13,"lines":[99305],"attr":"heat","postal_code":"169-0051","address":"新宿区西早稲田３","next":[9930530,2801011,2801010,2800404,9930528],"voronoi":{"lat":35.712555,"lng":139.710049,"delta_lat":[0,-5773,117,9558,54],"delta_lng":[0,5120,124,2415,-1111]},"impl":true},
    {"code":2801011,"left":2801012,"right":1130210,"id":"e25310","name":"西早稲田","name_kana":"にしわせだ","lat":35.708242,"lng":139.709101,"prefecture":13,"lines":[28010],"attr":"heat","postal_code":"162-0051","address":"新宿区西早稲田二丁目","next":[9930528,1130209,2800404,1130210,9930529,2801012,9930104],"voronoi":{"lat":35.702862,"lng":139.71278,"delta_lat":[0,1249,2338,6705,-598,-5773,-1913],"delta_lng":[0,-7725,-1949,5521,1422,5120,-394]},"impl":true},
    {"code":2801012,"left":2800217,"id":"ab88e5","name":"東新宿","name_kana":"ひがししんじゅく","lat":35.698915,"lng":139.707593,"prefecture":13,"lines":[28010,99301],"attr":"heat","postal_code":"160-0022","address":"新宿区新宿７-２７-３","next":[1130209,2800217,2800216,2801011,2200701,9930104],"voronoi":{"lat":35.693827,"lng":139.709395,"delta_lat":[0,1622,2924,5737,-1249,-7951],"delta_lng":[0,-4850,-1024,1534,7725,228]},"impl":true},
    {"code":2800217,"id":"a6c08b","name":"新宿三丁目","name_kana":"しんじゅくさんちょうめ","lat":35.690847,"lng":139.704895,"prefecture":13,"lines":[28002,28010,99304],"attr":"cool","postal_code":"160-0022","address":"新宿区新宿３-１４-１","next":[2801012,9930102,2800216,2200701,1130207,1130208],"voronoi":{"lat":35.692377,"lng":139.702152,"delta_lat":[0,1483,1589,-1622,-7914,1019],"delta_lng":[0,638,1754,4850,-3085,-2783]},"impl":true},
    {"code":1130210,"id":"4cf552","name":"高田馬場","name_kana":"たかだのばば","lat":35.712677,"lng":139.703715,"prefecture":13,"lines":[11302,22007,28004],"attr":"eco","postal_code":"169-0075","address":"東京都新宿区高田馬場一丁目35-1","open_date":"1910-09-15","next":[1131309,9930528,1130211,2200703,2801011,1130209],"voronoi":{"lat":35.713154,"lng":139.708626,"delta_lat":[0,2585,2140,-9438,-666,-1326],"delta_lng":[0,-1054,-6642,-3594,1239,4530]},"impl":true},
    {"code":2800404,"left":9930403,"right":9930530,"id":"b17028","name":"早稲田(東京メトロ)","original_name":"早稲田","name_kana":"わせだ","lat":35.705723,"lng":139.721319,"prefecture":13,"lines":[28004],"attr":"eco","postal_code":"162-0043","address":"東京都新宿区早稲田南町12","next":[9930104,2801011,9930530,9930105,2800612,2800405,9930529],"voronoi":{"lat":35.706782,"lng":139.715169,"delta_lat":[0,-1913,-3245,3908,52,5619,-4304],"delta_lng":[0,-394,6732,6539,8,-1735,-11026]},"impl":true},
    {"code":9930403,"left":9930104,"id":"b5df85","name":"曙橋","name_kana":"あけぼのばし","lat":35.692402,"lng":139.722881,"prefecture":13,"lines":[99304],"attr":"heat","postal_code":"162-0065","address":"新宿区住吉町７-１","next":[2800215,1131102,9930105,1131315,9930104],"voronoi":{"lat":35.693172,"lng":139.716705,"delta_lat":[0,-5496,4388,2274,2294],"delta_lng":[0,8792,3595,239,-7605]},"impl":true},
    {"code":9930104,"id":"16b972","name":"若松河田","name_kana":"わかまつかわだ","lat":35.699218,"lng":139.718184,"prefecture":13,"lines":[99301],"attr":"eco","postal_code":"162-0054","address":"新宿区河田町１０-１０","next":[2800404,2800215,2800216,2801012,2801011,9930105,9930403],"voronoi":{"lat":35.693172,"lng":139.716705,"delta_lat":[0,-169,1907,7951,2008,-3245,-4992],"delta_lng":[0,-991,-2706,-228,1995,6732,219]},"impl":true},
    {"code":9930530,"id":"b526ca","name":"早稲田(東京都交通局)","original_name":"早稲田","name_kana":"わせだ","lat":35.711848,"lng":139.718928,"prefecture":13,"lines":[99305],"attr":"heat","postal_code":"169-0051","address":"東京都新宿区西早稲田一丁目","next":[2800612,9930527,2800404,9930529,2801010,2800611],"voronoi":{"lat":35.718061,"lng":139.721049,"delta_lat":[0,-854,-749,-9558,4304,462],"delta_lng":[0,-1822,-1520,-2415,11026,75]},"impl":true},
    {"code":2800615,"left":2800212,"right":1131315,"id":"85b57c","name":"麹町","name_kana":"こうじまち","lat":35.684006,"lng":139.737613,"prefecture":13,"lines":[28006],"attr":"heat","postal_code":"102-0083","address":"東京都千代田区麹町三丁目2","open_date":"1974-10-30","next":[2800616,1131102,2800115,1131315,2800805],"voronoi":{"lat":35.688159,"lng":139.738226,"delta_lat":[0,-1179,-6108,-350,1755],"delta_lng":[0,-3526,-1784,4314,3481]},"impl":true},
    {"code":2800212,"left":2800115,"right":2800211,"id":"01f5a3","name":"国会議事堂前","name_kana":"こっかいぎじどうまえ","lat":35.67393,"lng":139.745219,"prefecture":13,"lines":[28002,28005],"attr":"cool","postal_code":"100-0014","address":"千代田区永田町１丁目","next":[2800114,2800317,2800616,2800113,2800617,2800211],"voronoi":{"lat":35.679776,"lng":139.746078,"delta_lat":[0,-3079,-7125,1046,2108,3409],"delta_lng":[0,-2996,579,2691,1689,55]},"impl":true},
    {"code":2800115,"left":2800114,"right":2800616,"id":"67bee3","name":"赤坂見附","name_kana":"あかさかみつけ","lat":35.677021,"lng":139.737047,"prefecture":13,"lines":[28001,28002],"attr":"cool","postal_code":"107-0052","address":"港区赤坂３-１-６","next":[2800616,1131102,2800615,2800116,2800515,2800114],"voronoi":{"lat":35.675773,"lng":139.739585,"delta_lat":[0,-2859,5491,2466,-350,-4588],"delta_lng":[0,-8328,-1814,3473,4314,2480]},"impl":true},
    {"code":2800114,"left":2800515,"id":"55f6a4","name":"溜池山王","name_kana":"ためいけさんのう","lat":35.673621,"lng":139.741419,"prefecture":13,"lines":[28001,28009],"attr":"cool","postal_code":"100-0014","address":"千代田区永田町２-１１-１","next":[2800915,2800317,2800212,2800515,2800616,2800115],"voronoi":{"lat":35.675773,"lng":139.739585,"delta_lat":[0,-6216,-761,775,7125,-763],"delta_lng":[0,791,2526,759,-579,-3372]},"impl":true},
    {"code":2800515,"id":"fc66d7","name":"赤坂(東京)","original_name":"赤坂","name_kana":"あかさか","lat":35.67323,"lng":139.738348,"prefecture":13,"lines":[28005],"attr":"heat","postal_code":"107-0052","address":"港区赤坂５丁目","next":[2800116,2800319,2800114,2800915,2800115,2800516],"voronoi":{"lat":35.668969,"lng":139.733486,"delta_lat":[0,588,6216,-2859,-1218,-2002],"delta_lng":[0,6890,-791,-8328,40,1099]},"impl":true},
    {"code":2800616,"id":"4aa7d8","name":"永田町","name_kana":"ながたちょう","lat":35.678757,"lng":139.740258,"prefecture":13,"lines":[28006,28008,28009],"attr":"heat","postal_code":"100-0014","address":"東京都千代田区永田町一丁目11-28","open_date":"1974-10-30","next":[2800115,2800615,2800617,2800805,2800114,2800212],"voronoi":{"lat":35.681182,"lng":139.746247,"delta_lat":[0,1094,-1755,-4588,763,3079],"delta_lng":[0,-5537,-3481,2480,3372,2996]},"impl":true},
    {"code":2800211,"left":2800113,"right":2800617,"id":"53bc5a","name":"霞ケ関","name_kana":"かすみがせき","lat":35.673838,"lng":139.750899,"prefecture":13,"lines":[28002,28003,28005],"attr":"heat","postal_code":"100-0013","address":"千代田区霞が関２丁目","next":[2800617,9930307,2800315,2800113,2800212],"voronoi":{"lat":35.674912,"lng":139.755478,"delta_lat":[0,-508,-3097,1419,3409],"delta_lng":[0,42,-2688,-4791,55]},"impl":true},
    {"code":2800113,"left":2800317,"id":"258ca8","name":"虎ノ門","name_kana":"とらのもん","lat":35.670236,"lng":139.749832,"prefecture":13,"lines":[28001],"attr":"cool","postal_code":"105-0001","address":"港区虎ノ門１-１-２１","next":[9930307,2800317,2800212,2800211],"voronoi":{"lat":35.672726,"lng":139.74804,"delta_lat":[0,-2108,-4446,5135],"delta_lng":[0,-1689,6048,432]},"impl":true},
    {"code":2800317,"id":"a46932","name":"虎ノ門ヒルズ","name_kana":"とらのもんひるず","lat":35.667409,"lng":139.747754,"prefecture":13,"lines":[28003],"attr":"cool","postal_code":"105-0001","address":"東京都港区虎ノ門１丁目２２-１８","open_date":"2020-06-06","next":[2800318,2800113,2800114,2800915,9930306,2800212,9930307],"voronoi":{"lat":35.666171,"lng":139.7524,"delta_lat":[0,4446,-1046,-775,-1688,-3337,2250],"delta_lng":[0,-6048,-2691,-759,350,5507,3686]},"impl":true},
    {"code":2800617,"id":"32aeb8","name":"桜田門","name_kana":"さくらだもん","lat":35.677405,"lng":139.75149,"prefecture":13,"lines":[28006],"attr":"heat","postal_code":"100-0013","address":"東京都千代田区霞が関二丁目1-1","open_date":"1974-10-30","next":[2800315,2800211,2800408,2800616,2800805,2800511,2800212],"voronoi":{"lat":35.674912,"lng":139.755478,"delta_lat":[0,4087,4621,2068,-4505,-1407,-3641],"delta_lng":[0,1326,-1621,-5144,-3791,-170,2018]},"impl":true},
    {"code":1131315,"left":2800405,"right":9930106,"id":"51ad8c","name":"市ケ谷(市ヶ谷)","name_kana":"いちがや","lat":35.691107,"lng":139.735238,"prefecture":13,"lines":[11313,28006,28009,99304],"attr":"heat","postal_code":"162-0843","address":"東京都新宿区市谷田町一丁目1","open_date":"1974-10-30","next":[9930105,1131316,9930106,2800615,1131102,2800805,9930403],"voronoi":{"lat":35.696246,"lng":139.730902,"delta_lat":[0,-589,-1812,-5687,-1179,5085,2274],"delta_lng":[0,10170,1962,-4808,-3526,-5608,239]},"impl":true},
    {"code":2800405,"left":1131102,"right":2800612,"id":"d4c0cb","name":"神楽坂","name_kana":"かぐらざか","lat":35.70379,"lng":139.734546,"prefecture":13,"lines":[28004],"attr":"eco","postal_code":"162-0805","address":"新宿区矢来町１１２","next":[2800612,9930106,1131316,2800404,9930105],"voronoi":{"lat":35.705532,"lng":139.728046,"delta_lat":[0,52,2247,-3386,-4164],"delta_lng":[0,8,12717,-625,-9743]},"impl":true},
    {"code":1131102,"left":9930105,"id":"90f3a3","name":"四ツ谷(四ッ谷)","name_kana":"よつや","lat":35.686041,"lng":139.730644,"prefecture":13,"lines":[11311,11312,11313,28002,28009],"attr":"heat","postal_code":"160-0004","address":"東京都新宿区四谷一丁目","next":[9930403,2800115,2800615,2800116,1131315,1131313,2800215],"voronoi":{"lat":35.692064,"lng":139.729092,"delta_lat":[0,-5085,-6108,-2466,659,5283,3329],"delta_lng":[0,5608,-1784,-3473,-1349,-3202,605]},"impl":true},
    {"code":9930105,"id":"bab9b7","name":"牛込柳町","name_kana":"うしごめやなぎちょう","lat":35.699518,"lng":139.725027,"prefecture":13,"lines":[99301],"attr":"eco","postal_code":"162-0053","address":"新宿区原町２-３２","next":[1131315,9930403,9930106,2800404,2800405,9930104],"voronoi":{"lat":35.694339,"lng":139.72933,"delta_lat":[0,1908,4035,5251,-3908,-4992],"delta_lng":[0,1571,-499,-2357,-6539,219]},"impl":true},
    {"code":2800612,"id":"fea66e","name":"江戸川橋","name_kana":"えどがわばし","lat":35.709495,"lng":139.733538,"prefecture":13,"lines":[28006],"attr":"eco","postal_code":"112-0014","address":"東京都文京区関口一丁目19-6","open_date":"1974-10-30","next":[1131316,9930530,2800611,2800405,2800404,2800203],"voronoi":{"lat":35.715013,"lng":139.731722,"delta_lat":[0,-3347,-462,-5619,2247,2103],"delta_lng":[0,-5328,-75,1735,12717,1388]},"impl":true},
    {"code":9930106,"left":2800805,"right":1131316,"id":"ef2413","name":"牛込神楽坂","name_kana":"うしごめかぐらざか","lat":35.700851,"lng":139.735802,"prefecture":13,"lines":[99301],"attr":"eco","postal_code":"162-0833","address":"新宿区箪笥町１５","next":[1131315,2800405,9930105,1131316],"voronoi":{"lat":35.704445,"lng":139.740146,"delta_lat":[0,-4164,-4035,-589],"delta_lng":[0,-9743,499,10170]},"impl":true},
    {"code":2800805,"id":"15f0e5","name":"半蔵門","name_kana":"はんぞうもん","lat":35.685703,"lng":139.74163,"prefecture":13,"lines":[28008],"attr":"eco","postal_code":"102-0083","address":"千代田区麹町１-６","next":[2800408,2800407,2800617,1131316,2800616,1131315,2800615],"voronoi":{"lat":35.688159,"lng":139.738226,"delta_lat":[0,5687,-189,-5591,-2378,-4505,1094],"delta_lng":[0,4808,871,5357,777,-3791,-5537]},"impl":true},
    {"code":1131316,"id":"e0bb13","name":"飯田橋","name_kana":"いいだばし","lat":35.701835,"lng":139.745143,"prefecture":13,"lines":[11313,28004,28006,28009,99301],"attr":"eco","postal_code":"102-0072","address":"東京都千代田区飯田橋四丁目10-2","open_date":"1964-12-23","next":[2800612,1131315,2800407,2800204,2800203,2800805,2800405,9930106,1131317],"voronoi":{"lat":35.693656,"lng":139.743905,"delta_lat":[0,189,1812,8788,3386,2103,632,-7017,-3504],"delta_lng":[0,-871,-1962,-926,625,1388,1203,6330,78]},"impl":true}
  ]
}