{
  "name":"segment7",
  "root":3100536,
  "east":137.013148,
  "west":135.654996,
  "south":34.580213,
  "north":35.131793,
  "station_size":582,
  "node_list":[
    {"code":3100536,"left":3400308,"right":3000508,"id":"d337e1","name":"名張","name_kana":"なばり","lat":34.621612,"lng":136.095753,"prefecture":24,"lines":[31005],"attr":"heat","postal_code":"518-0713","address":"名張市平尾２９６１","next":[1150909,1151315,3100535,3100537,1151313],"voronoi":{"lat":34.542842,"lng":136.161873,"delta_lat":[0,-5035,135012,10959,-111685],"delta_lng":[0,-3355,-136797,21478,130197]}},
    {"code":3400308,"left":3102516,"right":3300106,"id":"d74402","name":"東向日","name_kana":"ひがしむこう","lat":34.953885,"lng":135.704646,"prefecture":26,"lines":[34003],"attr":"heat","postal_code":"617-0002","address":"向日市寺戸町小佃５-２","next":[3400307,3400309,3400310,1160203],"voronoi":{"lat":34.95181,"lng":135.669024,"delta_lat":[0,1380,6162,-13187],"delta_lng":[0,-3259,40537,2437]}},
    {"code":3102516,"left":1161712,"right":3102520,"id":"294bd2","name":"新田辺","name_kana":"しんたなべ","lat":34.820492,"lng":135.772805,"prefecture":26,"lines":[31025],"attr":"cool","postal_code":"610-0361","address":"京田辺市河原食田２-３","next":[3102517,1161707,1161813,1161814,3102515],"voronoi":{"lat":34.830351,"lng":135.772169,"delta_lat":[0,-19023,8763,8185,2012],"delta_lng":[0,-2857,18326,-2288,-2588]}},
    {"code":1161712,"left":3101608,"right":3400309,"id":"1de66a","name":"津田","name_kana":"つだ","lat":34.801373,"lng":135.697946,"prefecture":27,"lines":[11617],"attr":"heat","postal_code":"573-0125","address":"枚方市津田駅前１","next":[1161706,1161704,1161713,1161708,3300306,3300305,1161711,3300304,3300308,3300307,3102307,3102308],"voronoi":{"lat":34.771129,"lng":135.735055,"delta_lat":[0,-519,5114,6617,7525,9154,9795,6104,-20046,-5304,-14538,-712],"delta_lng":[0,-1585,-15148,-14768,-14015,-5918,-2441,83,54658,3004,676,-163]}},
    {"code":3101608,"left":3102602,"right":3101603,"id":"e4b10c","name":"平群","name_kana":"へぐり","lat":34.629291,"lng":135.704345,"prefecture":29,"lines":[31016],"attr":"eco","postal_code":"636-0932","address":"生駒郡平群町吉新４-３-３２","next":[1160706,3101609,1160707,3101606,3102402,3101607],"voronoi":{"lat":34.627164,"lng":135.677316,"delta_lat":[0,-4342,884,7730,1437,4908],"delta_lng":[0,1341,49639,6299,172,-22846]}},
    {"code":3102602,"left":3101611,"right":3300307,"id":"d19baa","name":"宝山寺","name_kana":"ほうざんじ","lat":34.686069,"lng":135.68907,"prefecture":29,"lines":[31026],"attr":"cool","postal_code":"630-0266","address":"生駒市門前町１０-１","next":[3101602,3102604,3101603,3102011,3102601,3102603],"voronoi":{"lat":34.679305,"lng":135.697723,"delta_lat":[0,4126,29909,-12325,-10772,-12332],"delta_lng":[0,124,-26905,481,9272,16243]}},
    {"code":3101611,"left":3102604,"right":3101610,"id":"ad184a","name":"信貴山下","name_kana":"しぎさんした","lat":34.600935,"lng":135.695172,"prefecture":29,"lines":[31016],"attr":"cool","postal_code":"636-0812","address":"生駒郡三郷町勢野西１-４-１","next":[3102402,3101609,1160708,3101610,1160709],"voronoi":{"lat":34.605907,"lng":135.674052,"delta_lat":[0,15318,-4183,-16033,-9450],"delta_lng":[0,4718,7281,14255,-3730]}},
    {"code":3102604,"left":1160709,"right":3102603,"id":"0d9d40","name":"霞ヶ丘(奈良)","name_kana":"かすみがおか","lat":34.681341,"lng":135.683577,"prefecture":29,"lines":[31026],"attr":"eco","postal_code":"630-0231","address":"奈良県生駒市菜畑町2312-45","next":[3102603,3102602,3102011,3101604,3102605],"voronoi":{"lat":34.699352,"lng":135.671226,"delta_lat":[0,1663,-10772,-21600,-3607],"delta_lng":[0,198,9272,12476,-2271]}},
    {"code":1160709,"left":3102605,"id":"9b8ae5","name":"三郷(奈良)","name_kana":"さんごう","lat":34.588867,"lng":135.687484,"prefecture":29,"lines":[11607],"attr":"cool","postal_code":"636-0822","address":"生駒郡三郷町大字立野南２","next":[3102402,1160708,1163602,1160710,1163603,3101611],"voronoi":{"lat":34.587975,"lng":135.698436,"delta_lat":[0,-16349,-2754,26859,10175,-14348],"delta_lng":[0,-10414,-5190,-16275,7494,22524]}},
    {"code":3102605,"id":"b2fc7c","name":"生駒山上","name_kana":"いこまさんじょう","lat":34.679594,"lng":135.68053,"prefecture":29,"lines":[31026],"attr":"eco","postal_code":"630-0231","address":"生駒市菜畑町２３１２-５１","next":[3101604,3101605,3102009,3102010,3102604,3101607,3102011],"voronoi":{"lat":34.674564,"lng":135.666231,"delta_lat":[0,-12141,-12200,7637,2901,4275,34316],"delta_lng":[0,1819,3764,14643,2307,2136,-19675]}},
    {"code":3102603,"id":"086fad","name":"梅屋敷(奈良)","name_kana":"うめやしき","lat":34.683299,"lng":135.686967,"prefecture":29,"lines":[31026],"attr":"cool","postal_code":"630-0266","address":"生駒市門前町１８-１","next":[3102604,3101604,3102602,3101603],"voronoi":{"lat":34.690244,"lng":135.680695,"delta_lat":[0,-21600,653,8615],"delta_lng":[0,12476,534,3233]}},
    {"code":3101610,"left":3101708,"right":3101607,"id":"3e38ab","name":"勢野北口","name_kana":"せやきたぐち","lat":34.606098,"lng":135.700979,"prefecture":29,"lines":[31016],"attr":"eco","postal_code":"636-0811","address":"生駒郡三郷町勢野東４-３-５０","next":[3101708,3101611,1160708,3101609],"voronoi":{"lat":34.617041,"lng":135.686051,"delta_lat":[0,-16033,282,6072],"delta_lng":[0,14255,807,15147]}},
    {"code":3101708,"left":1160708,"id":"9fa077","name":"新王寺","name_kana":"しんおうじ","lat":34.597722,"lng":135.704337,"prefecture":29,"lines":[31017],"attr":"heat","postal_code":"636-0003","address":"北葛城郡王寺町久度２-１-１","next":[3101610,1160708,3101707,3101609],"voronoi":{"lat":34.589957,"lng":135.710466,"delta_lat":[0,11334,6072,-39],"delta_lng":[0,-9354,15147,3491]}},
    {"code":1160708,"id":"5b8137","name":"王寺","name_kana":"おうじ","lat":34.597448,"lng":135.704005,"prefecture":29,"lines":[11607,11636,31016],"attr":"cool","postal_code":"636-0003","address":"北葛城郡王寺町久度２丁目","next":[3101707,3101611,3101610,1163602,1160709,3101708],"voronoi":{"lat":34.601291,"lng":135.701113,"delta_lat":[0,-282,-9450,-3583,-76,2057],"delta_lng":[0,-807,-3730,1861,10987,1043]}},
    {"code":3101607,"id":"77e9f4","name":"元山上口","name_kana":"もとさんじょうぐち","lat":34.640562,"lng":135.700887,"prefecture":29,"lines":[31016],"attr":"heat","postal_code":"636-0901","address":"生駒郡平群町椣原８０２","next":[3102402,3102102,3102009,3101608,3101605,3101606,3102605],"voronoi":{"lat":34.650224,"lng":135.671814,"delta_lat":[0,-6056,-2618,-14385,10617,15780,4299],"delta_lng":[0,-3327,616,8212,34605,-16731,-8732]}},
    {"code":3300307,"left":3300306,"right":3101601,"id":"b4c8a4","name":"河内森","name_kana":"かわちもり","lat":34.77386,"lng":135.685617,"prefecture":27,"lines":[33003],"attr":"cool","postal_code":"576-0033","address":"交野市私市１-２-１","next":[3300308,1161713,1161714,1161712],"voronoi":{"lat":34.782341,"lng":135.703554,"delta_lat":[0,-11310,-1973,6666],"delta_lng":[0,-29144,580,43332]}},
    {"code":3300306,"left":1161713,"right":3300305,"id":"362361","name":"交野市","name_kana":"かたのし","lat":34.786924,"lng":135.675595,"prefecture":27,"lines":[33003],"attr":"eco","postal_code":"576-0052","address":"交野市私部３-１８-１５","next":[1161712,1161713,3300305,1161714],"voronoi":{"lat":34.78207,"lng":135.661567,"delta_lat":[0,16950,-9154,-14631],"delta_lng":[0,22055,5918,-16950]}},
    {"code":1161713,"left":1161714,"id":"08ba91","name":"河内磐船","name_kana":"かわちいわふね","lat":34.776501,"lng":135.684592,"prefecture":27,"lines":[11617],"attr":"heat","postal_code":"576-0031","address":"交野市森南１","next":[1161714,1161712,3300307,3300306],"voronoi":{"lat":34.775235,"lng":135.672589,"delta_lat":[0,-4204,11310,7525],"delta_lng":[0,1821,29144,-14015]}},
    {"code":1161714,"id":"b235d1","name":"星田","name_kana":"ほしだ","lat":34.767346,"lng":135.663455,"prefecture":27,"lines":[11617],"attr":"eco","postal_code":"576-0011","address":"交野市星田５","next":[1161713,3300305,1161715,3300123,3300307,3300308,3300306],"voronoi":{"lat":34.77103,"lng":135.67441,"delta_lat":[0,-1973,-22181,25692,11849,-2348,-6835],"delta_lng":[0,580,312,-29922,6290,9896,11023]}},
    {"code":3300305,"id":"08b065","name":"郡津","name_kana":"こうづ","lat":34.794376,"lng":135.669868,"prefecture":27,"lines":[33003],"attr":"eco","postal_code":"576-0053","address":"交野市郡津５-１１-１","next":[3300123,1161714,3300304,1161712,3300306],"voronoi":{"lat":34.808814,"lng":135.681181,"delta_lat":[0,-22688,-1709,-2348,16950],"delta_lng":[0,-29939,429,9896,22055]}},
    {"code":3101601,"left":3102601,"right":3300308,"id":"8289b8","name":"生駒","name_kana":"いこま","lat":34.693082,"lng":135.698006,"prefecture":29,"lines":[31016,31020,31023],"attr":"heat","postal_code":"630-0257","address":"生駒市元町１-１-１","next":[3102306,3102013,3101602,3102601],"voronoi":{"lat":34.720286,"lng":135.687537,"delta_lat":[0,-12585,-16368,-5429],"delta_lng":[0,18367,-1774,-4675]}},
    {"code":3102601,"id":"abb492","name":"鳥居前","name_kana":"とりいまえ","lat":34.692439,"lng":135.696151,"prefecture":29,"lines":[31026],"attr":"cool","postal_code":"630-0257","address":"生駒市元町１丁目１０-１","next":[1161718,1161717,1161716,1161715,3102602,3102011,3102306,3101601,3101602],"voronoi":{"lat":34.683432,"lng":135.697848,"delta_lat":[0,29909,1469,2688,7365,1635,233,-6445,-34382],"delta_lng":[0,-26905,-275,1176,4882,1712,342,8758,11918]}},
    {"code":3300308,"id":"08dd8a","name":"私市","name_kana":"きさいち","lat":34.767671,"lng":135.686569,"prefecture":27,"lines":[33003],"attr":"cool","postal_code":"576-0032","address":"交野市私市山手３-６-３２","next":[3300307,3102306,1161715,3102307,1161712,1161714],"voronoi":{"lat":34.769058,"lng":135.67499,"delta_lat":[0,6666,-5114,-25178,-14471,15916],"delta_lng":[0,43332,15148,-29605,-22741,-5822]}},
    {"code":3101603,"left":3101707,"right":3102014,"id":"1b5953","name":"一分","name_kana":"いちぶ","lat":34.675408,"lng":135.707992,"prefecture":29,"lines":[31016],"attr":"heat","postal_code":"630-0222","address":"生駒市壱分町９０２-３","next":[3101604,3102602,3102013,3102014,3102603,3101602],"voronoi":{"lat":34.679305,"lng":135.697723,"delta_lat":[0,-1394,-8615,2865,9172,630],"delta_lng":[0,-785,-3233,36581,-6434,-4118]}},
    {"code":3101707,"left":3101605,"right":1160707,"id":"8be333","name":"大輪田","name_kana":"おおわだ","lat":34.589173,"lng":135.720328,"prefecture":29,"lines":[31017],"attr":"heat","postal_code":"636-0093","address":"北葛城郡河合町大字大輪田１８０９-２","next":[1160707,1160708,1163602,3101706,3101609,3101708],"voronoi":{"lat":34.608005,"lng":135.720965,"delta_lat":[0,-11965,-24301,16161,2057,17367],"delta_lng":[0,7990,-8977,-10555,1043,9284]}},
    {"code":3101605,"left":3101606,"right":3101604,"id":"56468d","name":"萩の台","name_kana":"はぎのだい","lat":34.656974,"lng":135.708967,"prefecture":29,"lines":[31016],"attr":"heat","postal_code":"630-0224","address":"生駒市萩の台１-３-１","next":[3100205,3102605,3101604,3100204,3102014,3101607,1160706,3101606],"voronoi":{"lat":34.653662,"lng":135.74519,"delta_lat":[0,4814,461,3052,-1227,-2901,-4299,-2699],"delta_lng":[0,733,-16,-4397,-52745,-2307,8732,48216]}},
    {"code":3101606,"left":3101609,"id":"718eba","name":"東山(奈良)","name_kana":"ひがしやま","lat":34.648633,"lng":135.7085,"prefecture":29,"lines":[31016],"attr":"heat","postal_code":"630-0225","address":"生駒市東山町１１４４-１２","next":[3101608,3101605,1160706,3101607],"voronoi":{"lat":34.632873,"lng":135.734766,"delta_lat":[0,17989,2699,-15780],"delta_lng":[0,8639,-48216,16731]}},
    {"code":3101609,"id":"b3e347","name":"竜田川","name_kana":"たつたがわ","lat":34.617272,"lng":135.704559,"prefecture":29,"lines":[31016],"attr":"eco","postal_code":"636-0914","address":"生駒郡平群町西宮２-７-１２","next":[3101608,3101611,3102402,1160707,3101610,3101707,3101708],"voronoi":{"lat":34.607363,"lng":135.716259,"delta_lat":[0,9679,4183,1598,884,-15702,-681],"delta_lng":[0,-30209,-7281,-113,49639,-7330,-1215]}},
    {"code":3101604,"id":"e1fc6f","name":"南生駒","name_kana":"みなみいこま","lat":34.665484,"lng":135.708769,"prefecture":29,"lines":[31016],"attr":"heat","postal_code":"630-0223","address":"生駒市小瀬町６９２-２","next":[3102014,3102605,3101603,3101605,3102603,3102604],"voronoi":{"lat":34.669297,"lng":135.693705,"delta_lat":[0,2865,-10173,-1227,4275,3607],"delta_lng":[0,36581,11223,-52745,2136,2271]}},
    {"code":1160707,"left":3101706,"right":1160706,"id":"f1657a","name":"法隆寺","name_kana":"ほうりゅうじ","lat":34.601377,"lng":135.738604,"prefecture":29,"lines":[11607],"attr":"heat","postal_code":"636-0123","address":"生駒郡斑鳩町興留","next":[3101707,3101608,3101706,3101705,3101609,3100208,3101703,3101704,3100207,1160706],"voronoi":{"lat":34.631437,"lng":135.734595,"delta_lat":[0,-7730,-15702,-11965,-6257,-676,3198,409,4056,2870],"delta_lng":[0,-6299,-7330,7990,13382,10641,7865,441,298,-347]}},
    {"code":3101706,"id":"6a4ed1","name":"佐味田川","name_kana":"さみたがわ","lat":34.585213,"lng":135.731047,"prefecture":29,"lines":[31017],"attr":"eco","postal_code":"636-0092","address":"北葛城郡河合町大字城内１２８-１","next":[1163602,1160707,3101707,3101705],"voronoi":{"lat":34.596039,"lng":135.728956,"delta_lat":[0,-24301,-2540,20584],"delta_lng":[0,-8977,634,21725]}},
    {"code":1160706,"id":"d5a969","name":"大和小泉","name_kana":"やまとこいずみ","lat":34.622226,"lng":135.763488,"prefecture":29,"lines":[11607],"attr":"heat","postal_code":"639-1042","address":"大和郡山市小泉町","next":[3100207,3101608,3101605,3101606,3100205,1160707,3100206],"voronoi":{"lat":34.653662,"lng":135.74519,"delta_lat":[0,-2799,-17989,-1437,-31797,12077,21404],"delta_lng":[0,-1784,-8639,-172,26641,9700,2584]}},
    {"code":3102014,"left":3102306,"right":3102016,"id":"fb16df","name":"富雄","name_kana":"とみお","lat":34.694229,"lng":135.734825,"prefecture":29,"lines":[31020],"attr":"cool","postal_code":"631-0078","address":"奈良市富雄元町２-３-３５","next":[3101604,3100204,3102015,3101605,3102306,3101603,3102307,3102013,3102308],"voronoi":{"lat":34.713186,"lng":135.738465,"delta_lat":[0,-3656,-5204,-22992,-9172,-10173,-3052,3557,50380],"delta_lng":[0,-9481,-7493,2362,6434,11223,4397,2569,-9438]}},
    {"code":3102306,"left":3102013,"right":3102307,"id":"b56a0a","name":"白庭台","name_kana":"しらにわだい","lat":34.720345,"lng":135.716686,"prefecture":29,"lines":[31023],"attr":"eco","postal_code":"630-0136","address":"生駒市白庭台６丁目２１９２-２","next":[3101601,3300308,3102307,3102014,3102601,1161715,3102013],"voronoi":{"lat":34.709529,"lng":135.728984,"delta_lat":[0,35902,-14471,-4230,-6445,-12585,-3375],"delta_lng":[0,-25118,-22741,-2345,8758,18367,15586]}},
    {"code":3102013,"left":3101602,"id":"c2a30a","name":"東生駒","name_kana":"ひがしいこま","lat":34.691729,"lng":135.710488,"prefecture":29,"lines":[31020],"attr":"cool","postal_code":"630-0213","address":"生駒市東生駒１-６","next":[3101601,3101602,3101603,3102014,3102306],"voronoi":{"lat":34.681334,"lng":135.723853,"delta_lat":[0,630,9369,16368,-3375],"delta_lng":[0,-4118,-15604,1774,15586]}},
    {"code":3101602,"id":"56e6a6","name":"菜畑","name_kana":"なばた","lat":34.685535,"lng":135.706769,"prefecture":29,"lines":[31016],"attr":"heat","postal_code":"630-0263","address":"生駒市中菜畑１-５４-２","next":[3102602,3101601,3102013,3102601,3101603],"voronoi":{"lat":34.679305,"lng":135.697723,"delta_lat":[0,4126,2472,5429,-9369],"delta_lng":[0,124,1608,4675,15604]}},
    {"code":3102307,"id":"4d688d","name":"学研北生駒","name_kana":"がっけんきたいこま","lat":34.724789,"lng":135.723038,"prefecture":29,"lines":[31023],"attr":"cool","postal_code":"630-0131","address":"生駒市上町３５３５-６","next":[3102308,3300308,3102306,3102014,1161712],"voronoi":{"lat":34.713186,"lng":135.738465,"delta_lat":[0,-3656,35902,25178,519],"delta_lng":[0,-9481,-25118,29605,1585]}},
    {"code":3102016,"left":3102015,"right":3102308,"id":"e16ad3","name":"菖蒲池","name_kana":"あやめいけ","lat":34.69796,"lng":135.761331,"prefecture":29,"lines":[31020],"attr":"heat","postal_code":"631-0033","address":"奈良市あやめ池南２-２-１","next":[3102015,3100202,3100201,3100203,3102525,3102308],"voronoi":{"lat":34.711463,"lng":135.754389,"delta_lat":[0,-38931,4011,10441,12415,17051],"delta_lng":[0,3157,5013,7929,2490,-2599]}},
    {"code":3102015,"id":"141e49","name":"学園前(奈良)","name_kana":"がくえんまえ","lat":34.697018,"lng":135.749713,"prefecture":29,"lines":[31020],"attr":"cool","postal_code":"631-0034","address":"奈良市学園南３-１-１","next":[3102016,3102014,3102308,3100204,3100203],"voronoi":{"lat":34.665894,"lng":135.752317,"delta_lat":[0,-3400,50380,-1411,-38931],"delta_lng":[0,-3842,-9438,15351,3157]}},
    {"code":3102308,"id":"3c38d7","name":"学研奈良登美ヶ丘","name_kana":"がっけんならとみがおか","lat":34.726518,"lng":135.752424,"prefecture":29,"lines":[31023],"attr":"cool","postal_code":"631-0003","address":"奈良県奈良市中登美ヶ丘六丁目1-1","next":[3102525,3102523,3102307,3102015,3102524,1161703,3102014,1161712,3102016,1161704],"voronoi":{"lat":34.774319,"lng":135.739438,"delta_lat":[0,-3190,-57943,-312,-1411,4987,1561,15338,13783,17054],"delta_lng":[0,-4383,3409,573,15351,15990,1216,1177,-3718,-14462]}},
    {"code":3400309,"left":1160215,"right":3300113,"id":"bd692b","name":"西向日","name_kana":"にしむこう","lat":34.939892,"lng":135.702657,"prefecture":26,"lines":[34003],"attr":"heat","postal_code":"617-0006","address":"向日市上植野町南開２３-１","next":[3300113,1160203,1160204,3400308,3300114,3400310],"voronoi":{"lat":34.929059,"lng":135.726071,"delta_lat":[0,2159,3915,11033,5645,-19696],"delta_lng":[0,4855,886,-23072,-39715,28802]}},
    {"code":1160215,"left":3300118,"right":3400310,"id":"1b98f4","name":"島本","name_kana":"しまもと","lat":34.881337,"lng":135.663385,"prefecture":27,"lines":[11602],"attr":"heat","postal_code":"618-0022","address":"三島郡島本町桜井２丁目","next":[1160205,1161409,3400328,3400310,3400314,3400313,1160206,3400312],"voronoi":{"lat":34.876545,"lng":135.66321,"delta_lat":[0,6288,3039,44062,10688,-157,-22197,-31603],"delta_lng":[0,-33370,-2381,-28637,22651,235,27711,21927]}},
    {"code":3300118,"left":3300302,"right":3400312,"id":"62cc85","name":"牧野","name_kana":"まきの","lat":34.843868,"lng":135.665584,"prefecture":27,"lines":[33001],"attr":"heat","postal_code":"573-1146","address":"枚方市牧野阪２-４-２","next":[3300302,1161711,3400314,3400313,3300119,1161710,3300117],"voronoi":{"lat":34.85767,"lng":135.661666,"delta_lat":[0,-2252,-6937,-23746,-1434,13133,4983],"delta_lng":[0,-16024,-989,30032,4841,10390,1881]}},
    {"code":3300302,"left":3300304,"right":3400313,"id":"59809b","name":"宮之阪","name_kana":"みやのさか","lat":34.813649,"lng":135.65663,"prefecture":27,"lines":[33003],"attr":"heat","postal_code":"573-0022","address":"枚方市宮之阪１-７５５-２","next":[3300118,3300119,1161711,3300120,3300303],"voronoi":{"lat":34.806351,"lng":135.64996,"delta_lat":[0,14975,3409,-1434,-1417],"delta_lng":[0,4832,19892,4841,25]}},
    {"code":3300304,"left":3300303,"id":"ae334a","name":"村野","name_kana":"むらの","lat":34.801828,"lng":135.664221,"prefecture":27,"lines":[33003],"attr":"heat","postal_code":"573-0016","address":"枚方市村野本町１-２５","next":[3300305,3300123,3300122,1161712,3300303,1161711],"voronoi":{"lat":34.81853,"lng":135.680078,"delta_lat":[0,-24518,-1760,-6126,22688,6104],"delta_lng":[0,-32215,211,3167,29939,83]}},
    {"code":3300303,"id":"a78503","name":"星ヶ丘(大阪)","name_kana":"ほしがおか","lat":34.807696,"lng":135.659755,"prefecture":27,"lines":[33003],"attr":"heat","postal_code":"573-0013","address":"大阪府枚方市星丘二丁目","next":[1161711,3300121,3300120,3300122,3300304,3300302],"voronoi":{"lat":34.81853,"lng":135.680078,"delta_lat":[0,-24518,2284,8406,1649,15533],"delta_lng":[0,-32215,-767,1587,1277,29590]}},
    {"code":3400313,"id":"3d7331","name":"上牧(大阪)","name_kana":"かんまき","lat":34.872018,"lng":135.661629,"prefecture":27,"lines":[34003],"attr":"heat","postal_code":"569-0007","address":"高槻市神内２-１-５","next":[3300117,3400312,3300118,1160215,3400314],"voronoi":{"lat":34.85767,"lng":135.661666,"delta_lat":[0,11449,7425,6288,-27414],"delta_lng":[0,8378,-6833,-33370,15801]}},
    {"code":3400312,"left":3300117,"right":3300502,"id":"44929f","name":"水無瀬","name_kana":"みなせ","lat":34.877745,"lng":135.667853,"prefecture":27,"lines":[34003],"attr":"heat","postal_code":"618-0014","address":"三島郡島本町水無瀬１-１７-１２","next":[3300117,1160205,3300116,3400313,1160215],"voronoi":{"lat":34.876545,"lng":135.66321,"delta_lat":[0,-7425,3735,10952,2858],"delta_lng":[0,6833,7853,-2870,-3680]}},
    {"code":3300117,"id":"902002","name":"樟葉","name_kana":"くずは","lat":34.861977,"lng":135.675352,"prefecture":27,"lines":[33001],"attr":"heat","postal_code":"573-1121","address":"枚方市楠葉花園町１４-１","next":[3400312,3300502,1161710,3400313,3300116,3300118],"voronoi":{"lat":34.85767,"lng":135.661666,"delta_lat":[0,11449,3735,-5858,-14472,-11107],"delta_lng":[0,8378,7853,13208,11299,-10607]}},
    {"code":3300502,"id":"18a6c4","name":"ケーブル八幡宮山上","name_kana":"けーぶるはちまんぐうさんじょう","lat":34.881061,"lng":135.699796,"prefecture":26,"lines":[33005],"attr":"heat","postal_code":"614-8008","address":"京都府八幡市八幡平ノ山","next":[3300117,3102513,3300501,3300115,1161710,1161709,3300116,3300114],"voronoi":{"lat":34.878505,"lng":135.72695,"delta_lat":[0,4313,-738,-15084,-14472,1367,16739,3],"delta_lng":[0,-26990,-7903,-952,11299,5666,28743,0]}},
    {"code":3400310,"left":1160205,"right":3300115,"id":"7f6003","name":"長岡天神","name_kana":"ながおかてんじん","lat":34.924791,"lng":135.69233,"prefecture":26,"lines":[34003],"attr":"heat","postal_code":"617-0824","address":"長岡京市天神１-３０-１","next":[1161409,9960504,3400903,3400307,1160215,3400308,3400328,3400309,1160204],"voronoi":{"lat":34.917129,"lng":135.695534,"delta_lat":[0,23336,157,15325,3881,65,-6702,-1380,-19696],"delta_lng":[0,-73826,-235,14627,4006,1197,24462,3259,28802]}},
    {"code":1160205,"left":3300116,"right":3400328,"id":"63adf2","name":"山崎(京都)","name_kana":"やまざき","lat":34.892257,"lng":135.679124,"prefecture":26,"lines":[11602],"attr":"eco","postal_code":"618-0000","address":"乙訓郡大山崎町西谷","next":[1160215,3400311,3300116,3400312,3400328],"voronoi":{"lat":34.918268,"lng":135.64942,"delta_lat":[0,-31603,-2858,1707,17036],"delta_lng":[0,21927,3680,3401,5234]}},
    {"code":3300116,"left":3400311,"id":"9ee420","name":"橋本(京都)","name_kana":"はしもと","lat":34.882042,"lng":135.684251,"prefecture":26,"lines":[33001],"attr":"heat","postal_code":"614-8341","address":"八幡市橋本中ノ町３７","next":[3400311,1160205,3400312,3300502,3300501,3300117],"voronoi":{"lat":34.872854,"lng":135.677897,"delta_lat":[0,10952,1707,3462,-6895,-15084],"delta_lng":[0,-2870,3401,12509,1120,-952]}},
    {"code":3400311,"id":"176429","name":"大山崎","name_kana":"おおやまざき","lat":34.891485,"lng":135.681637,"prefecture":26,"lines":[34003],"attr":"cool","postal_code":"618-0071","address":"乙訓郡大山崎町字大山崎小字明島１３-２","next":[3300116,1160205,3400328,3300501],"voronoi":{"lat":34.90255,"lng":135.683661,"delta_lat":[0,-17036,3462,9958],"delta_lng":[0,-5234,12509,3890]}},
    {"code":3400328,"id":"12055a","name":"西山天王山","name_kana":"にしやまてんのうざん","lat":34.9127,"lng":135.688508,"prefecture":26,"lines":[34003],"attr":"cool","postal_code":"617-0843","address":"京都府長岡京市友岡四丁目22-1","next":[1160204,1160215,1160205,3300114,3400311,3300501,3300115,3400310],"voronoi":{"lat":34.90815,"lng":135.703358,"delta_lat":[0,-6535,-875,-1806,3616,15718,22197,-23336],"delta_lng":[0,-1809,-2080,-4643,-11165,-34242,-27711,73826]}},
    {"code":3300115,"left":3300501,"right":1160204,"id":"ad2464","name":"石清水八幡宮","name_kana":"いわしみずはちまんぐう","lat":34.88454,"lng":135.700352,"prefecture":26,"lines":[33001],"attr":"heat","postal_code":"614-8001","address":"八幡市八幡科手１","next":[3300502,3300114,3300501,3400328],"voronoi":{"lat":34.90074,"lng":135.69947,"delta_lat":[0,-17921,-4313,23109],"delta_lng":[0,490,26990,-25400]}},
    {"code":3300501,"id":"8724e9","name":"ケーブル八幡宮口","name_kana":"けーぶるはちまんぐうぐち","lat":34.884516,"lng":135.699473,"prefecture":26,"lines":[33005],"attr":"heat","postal_code":"614-8001","address":"八幡市八幡科手１","next":[3300502,3300115,3400328,3400311,3300116],"voronoi":{"lat":34.882819,"lng":135.699959,"delta_lat":[0,17921,-1806,-9958,-6895],"delta_lng":[0,-490,-4643,-3890,1120]}},
    {"code":1160204,"id":"66728b","name":"長岡京","name_kana":"ながおかきょう","lat":34.923483,"lng":135.700882,"prefecture":26,"lines":[11602],"attr":"eco","postal_code":"617-0833","address":"長岡京市神足２丁目","next":[3400328,3300114,3400309,3400310],"voronoi":{"lat":34.917129,"lng":135.695534,"delta_lat":[0,-8979,20909,3056],"delta_lng":[0,7824,22712,-28244]}},
    {"code":3300113,"left":1161708,"right":3102507,"id":"b49d84","name":"中書島","name_kana":"ちゅうしょじま","lat":34.926875,"lng":135.760174,"prefecture":26,"lines":[33001,33002],"attr":"heat","postal_code":"612-8224","address":"京都市伏見区葭島矢倉町５９","next":[3400309,3300114,3102509,3300202,3102506,1160203,3300112],"voronoi":{"lat":34.921211,"lng":135.765318,"delta_lat":[0,-16159,26166,3915,3186,-1274,-8792],"delta_lng":[0,-20313,-14080,886,1768,18718,12000]}},
    {"code":1161708,"left":1161709,"right":3102514,"id":"222dc7","name":"大住","name_kana":"おおすみ","lat":34.830785,"lng":135.749874,"prefecture":26,"lines":[11617],"attr":"eco","postal_code":"610-0343","address":"京田辺市大住","next":[1161707,3102515,1161712,1161709,1161710,1161706,3102514,1161711],"voronoi":{"lat":34.789569,"lng":135.738925,"delta_lat":[0,4287,38623,13198,15029,-60390,-5322,-121],"delta_lng":[0,3825,19879,-5392,-15268,-6791,701,42]}},
    {"code":1161709,"left":1161710,"right":3300114,"id":"52615d","name":"松井山手","name_kana":"まついやまて","lat":34.833288,"lng":135.727617,"prefecture":26,"lines":[11617],"attr":"eco","postal_code":"610-0356","address":"京田辺市山手中央","next":[1161710,1161708,3102514,3300502,3102513],"voronoi":{"lat":34.87063,"lng":135.736812,"delta_lat":[0,-16739,-53576,60390,6793],"delta_lng":[0,-28743,27109,6791,-3059]}},
    {"code":1161710,"left":1161711,"id":"b7703e","name":"長尾(大阪)","name_kana":"ながお","lat":34.825938,"lng":135.713091,"prefecture":27,"lines":[11617],"attr":"heat","postal_code":"573-0163","address":"枚方市長尾元町５","next":[1161709,3300117,1161708,1161711,3300502,3300118],"voronoi":{"lat":34.852525,"lng":135.702403,"delta_lat":[0,1367,-53576,-5322,41441,4983],"delta_lng":[0,5666,27109,701,-45964,1881]}},
    {"code":1161711,"id":"67f876","name":"藤阪","name_kana":"ふじさか","lat":34.814466,"lng":135.702748,"prefecture":27,"lines":[11617],"attr":"heat","postal_code":"573-0156","address":"枚方市藤阪南町２","next":[3300303,1161712,3300118,3300302,1161710,1161708,3300304],"voronoi":{"lat":34.794872,"lng":135.735922,"delta_lat":[0,121,41441,-13133,-1417,-3354,-3612],"delta_lng":[0,-42,-45964,-10390,25,528,1185]}},
    {"code":3300114,"id":"e4790b","name":"淀","name_kana":"よど","lat":34.904416,"lng":135.718435,"prefecture":26,"lines":[33001],"attr":"heat","postal_code":"613-0904","address":"京都市伏見区淀池上町１７４","next":[1160204,3300113,3102511,3400328,3102512,3102513,3300115,3102509,3300502,3400309],"voronoi":{"lat":34.905051,"lng":135.745005,"delta_lat":[0,-14014,-4780,-8682,-6942,7872,23109,6535,20909,2159],"delta_lng":[0,2873,-1753,-4455,-4858,-9863,-25400,1809,22712,4855]}},
    {"code":3102514,"left":1161707,"right":3102509,"id":"c66aa3","name":"寺田(京都)","name_kana":"てらだ","lat":34.853275,"lng":135.772011,"prefecture":26,"lines":[31025],"attr":"cool","postal_code":"610-0121","address":"城陽市寺田樋尻４１-３","next":[3102513,1161812,1161708,1161709,3102515],"voronoi":{"lat":34.845677,"lng":135.757238,"delta_lat":[0,15029,6793,-8891,-11459],"delta_lng":[0,-15268,-3059,36582,2860]}},
    {"code":1161707,"id":"eac95d","name":"京田辺","name_kana":"きょうたなべ","lat":34.821114,"lng":135.768664,"prefecture":26,"lines":[11617],"attr":"cool","postal_code":"610-0300","address":"京田辺市田辺久戸","next":[1161708,1161706,3102517,3102516,3102515],"voronoi":{"lat":34.811327,"lng":135.769311,"delta_lat":[0,-4595,-12877,38623,-2128],"delta_lng":[0,-5907,-20654,19879,9539]}},
    {"code":3102509,"id":"95bf8d","name":"向島","name_kana":"むかいじま","lat":34.914924,"lng":135.769681,"prefecture":26,"lines":[31025],"attr":"heat","postal_code":"612-8155","address":"京都市伏見区向島東定請１１","next":[3300202,3300113,3102511,3300203,3300205,3300114,3102510,1161808],"voronoi":{"lat":34.909925,"lng":135.78643,"delta_lat":[0,-16127,-2761,14014,16159,969,-6112,-4515],"delta_lng":[0,-28850,-9701,-2873,20313,12297,7042,1872]}},
    {"code":3102507,"left":3300111,"right":1161805,"id":"8ec5e5","name":"近鉄丹波橋","name_kana":"きんてつたんばばし","lat":34.938299,"lng":135.766262,"prefecture":26,"lines":[31025],"attr":"heat","postal_code":"612-0072","address":"京都市伏見区桃山筒井伊賀東町４５","next":[3300111,1161804,1161805,3300110,3102508],"voronoi":{"lat":34.936093,"lng":135.764061,"delta_lat":[0,6794,-1019,-1506,-4975],"delta_lng":[0,4895,3524,1594,-5196]}},
    {"code":3300111,"left":3102508,"right":3102506,"id":"2e4ce2","name":"丹波橋","name_kana":"たんばばし","lat":34.938879,"lng":135.765457,"prefecture":26,"lines":[33001],"attr":"heat","postal_code":"612-0073","address":"京都市伏見区桃山筒井伊賀西町","next":[3300110,3102507,3102508,3300112,3102506],"voronoi":{"lat":34.942888,"lng":135.768957,"delta_lat":[0,-6794,-16,1455,6443],"delta_lng":[0,-4895,-1100,-8393,11622]}},
    {"code":3102508,"left":3300112,"id":"09f097","name":"桃山御陵前","name_kana":"ももやまごりょうまえ","lat":34.933349,"lng":135.765537,"prefecture":26,"lines":[31025],"attr":"heat","postal_code":"612-8101","address":"京都市伏見区観音寺町２９","next":[3300202,1161805,3300111,3300112,3102507],"voronoi":{"lat":34.936093,"lng":135.764061,"delta_lat":[0,-16,-5650,1096,3864],"delta_lng":[0,-1100,3624,1851,442]}},
    {"code":3300112,"id":"e1ad86","name":"伏見桃山","name_kana":"ふしみももやま","lat":34.932599,"lng":135.764368,"prefecture":26,"lines":[33001],"attr":"heat","postal_code":"612-8083","address":"京都市伏見区京町３-１７３","next":[3300202,3102506,3300111,3102508,3300113],"voronoi":{"lat":34.930428,"lng":135.766586,"delta_lat":[0,5650,1455,-488,-8792],"delta_lng":[0,-3624,-8393,-2271,12000]}},
    {"code":3102506,"id":"cf2a9e","name":"伏見(京都)","name_kana":"ふしみ","lat":34.946054,"lng":135.761479,"prefecture":26,"lines":[31025],"attr":"heat","postal_code":"612-8432","address":"京都市伏見区深草柴田屋敷町７９","next":[1160203,3300110,3300112,3300109,3300111,3102505,3300113],"voronoi":{"lat":34.938318,"lng":135.73358,"delta_lat":[0,560,14735,-365,-9273,-6443,-488],"delta_lng":[0,96,29456,449,2610,-11622,-2271]}},
    {"code":1161805,"left":3300202,"right":3300110,"id":"97bdcd","name":"桃山","name_kana":"ももやま","lat":34.932647,"lng":135.771673,"prefecture":26,"lines":[11618],"attr":"heat","postal_code":"612-8037","address":"京都市伏見区桃山町鍋島","next":[3300203,1161804,3102508,3300202,3102507],"voronoi":{"lat":34.935388,"lng":135.768878,"delta_lat":[0,-3864,-5638,13299,1178],"delta_lng":[0,-442,8451,1762,-4575]}},
    {"code":3300202,"id":"fdf99d","name":"観月橋","name_kana":"かんげつきょう","lat":34.928103,"lng":135.768642,"prefecture":26,"lines":[33002],"attr":"heat","postal_code":"612-8106","address":"京都市伏見区豊後橋町７６１","next":[3300112,3102508,3102509,1161805,3300113,3300203],"voronoi":{"lat":34.921211,"lng":135.765318,"delta_lat":[0,7042,2175,1096,-5638,-3706],"delta_lng":[0,-1021,2288,1851,8451,728]}},
    {"code":3300110,"id":"4456b9","name":"墨染","name_kana":"すみぞめ","lat":34.948206,"lng":135.769126,"prefecture":26,"lines":[33001],"attr":"heat","postal_code":"612-0051","address":"京都市伏見区墨染町６９１","next":[1161804,3300109,3300111,3102506,3102507],"voronoi":{"lat":34.942888,"lng":135.768957,"delta_lat":[0,1088,9273,-1091,-10289],"delta_lng":[0,-2766,-2610,8787,113]}},
    {"code":3102520,"left":1160703,"right":3300204,"id":"dc9454","name":"狛田","name_kana":"こまだ","lat":34.78047,"lng":135.789568,"prefecture":26,"lines":[31025],"attr":"eco","postal_code":"619-0245","address":"相楽郡精華町大字下狛小字下新庄６２-１","next":[3102519,1161703,1161816,1161817,3102521,1161704],"voronoi":{"lat":34.788341,"lng":135.800486,"delta_lat":[0,-3503,-13049,-734,-1101,16248],"delta_lng":[0,3941,-2831,-4877,-8808,1782]}},
    {"code":1160703,"left":3100202,"right":3102018,"id":"bf94a0","name":"平城山","name_kana":"ならやま","lat":34.710431,"lng":135.810252,"prefecture":29,"lines":[11607,11618],"attr":"eco","postal_code":"630-8105","address":"奈良市佐保台１丁目","next":[3102018,3102019,3102525,3102524,1160702,1161702],"voronoi":{"lat":34.723865,"lng":135.805943,"delta_lat":[0,-13979,-12156,389,12703,14835],"delta_lng":[0,-9917,4222,19740,19260,-26044]}},
    {"code":3100202,"left":3100203,"right":3102521,"id":"3162d5","name":"尼ヶ辻","name_kana":"あまがつじ","lat":34.681109,"lng":135.783519,"prefecture":29,"lines":[31002],"attr":"eco","postal_code":"630-8024","address":"奈良県奈良市尼辻中町11-1","next":[3100203,3102018,3102016,3100201],"voronoi":{"lat":34.686984,"lng":135.770488,"delta_lat":[0,-10441,-1141,12310],"delta_lng":[0,-7929,35823,-1955]}},
    {"code":3100203,"left":3100205,"right":3101102,"id":"6e1824","name":"西ノ京","name_kana":"にしのきょう","lat":34.670652,"lng":135.783186,"prefecture":29,"lines":[31002],"attr":"eco","postal_code":"630-8042","address":"奈良市西ノ京町字金岡４０８","next":[3100202,1160705,3102018,3102016,3100204,3102015],"voronoi":{"lat":34.676543,"lng":135.762558,"delta_lat":[0,-1141,-10344,-479,1315,6638],"delta_lng":[0,35823,5549,-1476,-50137,5228]}},
    {"code":3100205,"left":3100207,"right":3100204,"id":"08a562","name":"近鉄郡山","name_kana":"きんてつこおりやま","lat":34.646041,"lng":135.780756,"prefecture":29,"lines":[31002],"attr":"eco","postal_code":"639-1007","address":"大和郡山市南郡山町２３２","next":[3101605,3100204,3100206,1160705,1160706],"voronoi":{"lat":34.653662,"lng":135.74519,"delta_lat":[0,4814,-6097,-19309,51],"delta_lng":[0,733,38447,4573,-15423]}},
    {"code":3100207,"left":3100206,"id":"0c9863","name":"平端","name_kana":"ひらはた","lat":34.606712,"lng":135.782804,"prefecture":29,"lines":[31002,31011],"attr":"cool","postal_code":"639-1033","address":"大和郡山市昭和町５１","next":[1160706,3101102,3100206,3100208,1160707],"voronoi":{"lat":34.59964,"lng":135.761236,"delta_lat":[0,12077,3515,-11651,-6811],"delta_lng":[0,9700,22133,-4203,-27283]}},
    {"code":3100206,"id":"57d827","name":"筒井(奈良)","name_kana":"つつい","lat":34.620152,"lng":135.78067,"prefecture":29,"lines":[31002],"attr":"cool","postal_code":"639-1123","address":"大和郡山市筒井町八王寺６４０","next":[1160705,1163704,3100207,3100205,3101102,1160706],"voronoi":{"lat":34.633069,"lng":135.788943,"delta_lat":[0,-4996,-4298,-8544,-3515,21404],"delta_lng":[0,14409,85,-10368,-22133,2584]}},
    {"code":3100204,"id":"50879b","name":"九条(奈良)","name_kana":"くじょう","lat":34.659523,"lng":135.782894,"prefecture":29,"lines":[31002],"attr":"eco","postal_code":"639-1001","address":"大和郡山市九条町字出口３７５","next":[3102014,1160705,3100205,3101605,3100203,3102015],"voronoi":{"lat":34.664578,"lng":135.802454,"delta_lat":[0,-12200,6097,461,3557,3400],"delta_lng":[0,-18085,-38447,-16,2569,3842]}},
    {"code":3101102,"left":3100208,"right":1160705,"id":"edd025","name":"二階堂","name_kana":"にかいどう","lat":34.602121,"lng":135.79553,"prefecture":29,"lines":[31011],"attr":"eco","postal_code":"632-0081","address":"天理市二階堂上ノ庄町１４７-２","next":[3100207,3101103,3100208,3100206,1163704,3100209],"voronoi":{"lat":34.591141,"lng":135.793766,"delta_lat":[0,12440,11651,8544,-5664,-33920],"delta_lng":[0,-4900,4203,10368,3483,-1817]}},
    {"code":3100208,"left":3100209,"id":"e730d6","name":"ファミリー公園前","name_kana":"ふぁみりーこうえんまえ","lat":34.597968,"lng":135.784987,"prefecture":29,"lines":[31002],"attr":"cool","postal_code":"639-1100","address":"大和郡山市宮堂毘沙門３３９-２","next":[3101703,3100209,1160707,3100207,3101102],"voronoi":{"lat":34.603581,"lng":135.788866,"delta_lat":[0,-6811,-4056,-1104,-469],"delta_lng":[0,-27283,-298,1882,30599]}},
    {"code":3100209,"id":"1d066d","name":"結崎","name_kana":"ゆうざき","lat":34.584586,"lng":135.784782,"prefecture":29,"lines":[31002],"attr":"cool","postal_code":"636-0202","address":"磯城郡川西町結崎出屋敷５８４","next":[3101702,3100208,3100210,3101703,3101103,3101102],"voronoi":{"lat":34.591141,"lng":135.793766,"delta_lat":[0,469,-12052,-1999,2148,4485],"delta_lng":[0,-30599,11038,4628,28589,-2319]}},
    {"code":1160705,"id":"ab6b14","name":"郡山(奈良)","name_kana":"こおりやま","lat":34.648335,"lng":135.790441,"prefecture":29,"lines":[11607],"attr":"eco","postal_code":"639-1133","address":"大和郡山市高田口町","next":[1163704,3102018,3100206,3100203,3100204,1163703,3100205,1163702,1160704],"voronoi":{"lat":34.665022,"lng":135.803996,"delta_lat":[0,36,-479,-12200,-19309,-4996,3926,26027,3202],"delta_lng":[0,-65,-1476,-18085,4573,14409,2984,3768,-1828]}},
    {"code":3102521,"left":3102524,"right":1161702,"id":"ff7533","name":"新祝園","name_kana":"しんほうその","lat":34.759953,"lng":135.792657,"prefecture":26,"lines":[31025],"attr":"eco","postal_code":"619-0241","address":"相楽郡精華町大字祝園小字長塚１３-１","next":[3102522,1161817,3102520,1161818,1161703],"voronoi":{"lat":34.752013,"lng":135.789206,"delta_lat":[0,4563,3908,11306,-734],"delta_lng":[0,18192,1301,-7103,-4877]}},
    {"code":3102524,"left":3102525,"right":1161703,"id":"528cf3","name":"高の原","name_kana":"たかのはら","lat":34.723494,"lng":135.791839,"prefecture":29,"lines":[31025],"attr":"eco","postal_code":"631-0806","address":"奈良市朱雀３-１２-３","next":[1161702,1160703,3102308,3102525,3102523],"voronoi":{"lat":34.723865,"lng":135.805943,"delta_lat":[0,-13979,8124,15338,-3576],"delta_lng":[0,-9917,-24431,1177,25948]}},
    {"code":3102525,"left":3100201,"id":"72d224","name":"平城","name_kana":"へいじょう","lat":34.701496,"lng":135.784524,"prefecture":29,"lines":[31025],"attr":"eco","postal_code":"631-0803","address":"奈良市山陵町宮の前２６９-１２","next":[3102308,1160703,3102018,3102524,3102016,3100201],"voronoi":{"lat":34.699398,"lng":135.772978,"delta_lat":[0,17051,1561,-8124,-12156,-2715],"delta_lng":[0,-2599,1216,24431,4222,-1664]}},
    {"code":3100201,"id":"2b87ba","name":"大和西大寺","name_kana":"やまとさいだいじ","lat":34.69358,"lng":135.783169,"prefecture":29,"lines":[31002,31020,31025],"attr":"eco","postal_code":"631-0823","address":"奈良市西大寺国見町１-１-１","next":[3102018,3102016,3100202,3102525],"voronoi":{"lat":34.699398,"lng":135.772978,"delta_lat":[0,-12415,728,7304],"delta_lng":[0,-2490,25939,2157]}},
    {"code":1161703,"id":"629e99","name":"祝園","name_kana":"ほうその","lat":34.76017,"lng":135.792107,"prefecture":26,"lines":[11617],"attr":"heat","postal_code":"619-0241","address":"相楽郡精華町大字祝園","next":[3102520,1161704,3102522,3102523,3102308,3102521],"voronoi":{"lat":34.752013,"lng":135.789206,"delta_lat":[0,-4559,-322,17054,5769,1101],"delta_lng":[0,-15860,-4293,-14462,33320,8808]}},
    {"code":1161702,"left":3102523,"right":3102522,"id":"80a4ba","name":"西木津","name_kana":"にしきづ","lat":34.737762,"lng":135.803507,"prefecture":26,"lines":[11617],"attr":"heat","postal_code":"619-0222","address":"木津川市相楽","next":[3102524,1161818,1160702,3102523,1160703,3102522],"voronoi":{"lat":34.741244,"lng":135.79862,"delta_lat":[0,-11472,-5907,1792,15453,8455],"delta_lng":[0,99,7223,7261,1306,-6053]}},
    {"code":3102523,"id":"e20877","name":"山田川","name_kana":"やまだがわ","lat":34.737678,"lng":135.793794,"prefecture":26,"lines":[31025],"attr":"eco","postal_code":"619-0231","address":"相楽郡精華町大字山田小字下河原３-１","next":[3102308,3102522,1161703,1161702,3102524],"voronoi":{"lat":34.741244,"lng":135.79862,"delta_lat":[0,6209,-322,-13783,-3576],"delta_lng":[0,-25274,-4293,3718,25948]}},
    {"code":3102522,"id":"5ee1ce","name":"木津川台","name_kana":"きづがわだい","lat":34.746641,"lng":135.795996,"prefecture":26,"lines":[31025],"attr":"eco","postal_code":"619-0221","address":"木津川市吐師","next":[3102523,3102521,1161703,1161702,1161818],"voronoi":{"lat":34.756576,"lng":135.807399,"delta_lat":[0,-4563,-4559,-6209,8321],"delta_lng":[0,-18192,-15860,25274,9836]}},
    {"code":3102018,"left":3102019,"right":1150911,"id":"9a4f3c","name":"新大宮","name_kana":"しんおおみや","lat":34.685434,"lng":135.810744,"prefecture":29,"lines":[31020,31025],"attr":"eco","postal_code":"630-8114","address":"奈良市芝辻町４-１５-５","next":[1160705,1160703,3100202,3100201,3100203,3102019,3102525,1160704],"voronoi":{"lat":34.698119,"lng":135.819987,"delta_lat":[0,-389,-2715,-7304,-12310,-10344,-36,25631],"delta_lng":[0,-19740,-1664,-2157,1955,5549,65,15496]}},
    {"code":3102019,"left":1163703,"right":1163705,"id":"0cc8f8","name":"近鉄奈良","name_kana":"きんてつなら","lat":34.684323,"lng":135.827472,"prefecture":29,"lines":[31020,31025],"attr":"eco","postal_code":"630-8215","address":"奈良市東向中町２９","next":[1160702,1160703,3102018,1150912,1160704,1163702],"voronoi":{"lat":34.677018,"lng":135.825626,"delta_lat":[0,13634,7467,12703,1036,-29315],"delta_lng":[0,-6135,496,19260,19969,47483]}},
    {"code":1163703,"left":1163704,"right":1160704,"id":"6d0b44","name":"帯解","name_kana":"おびとけ","lat":34.643156,"lng":135.82621,"prefecture":29,"lines":[11637],"attr":"eco","postal_code":"630-8444","address":"奈良市今市町１丁目","next":[1163702,3100533,1160705,1150911,3100532,1163704],"voronoi":{"lat":34.632,"lng":135.806335,"delta_lat":[0,26027,-10631,-191,-12396,-2137],"delta_lng":[0,3768,127774,205,-5053,-1883]}},
    {"code":1163704,"left":3101103,"id":"ad0071","name":"櫟本","name_kana":"いちのもと","lat":34.621058,"lng":135.826329,"prefecture":29,"lines":[11637],"attr":"eco","postal_code":"632-0004","address":"天理市櫟本町","next":[1160705,3100206,3101103,1163705,3100532,3101102,1163703],"voronoi":{"lat":34.631307,"lng":135.930178,"delta_lat":[0,-21202,8007,5664,4298,3926,672],"delta_lng":[0,-106856,-16402,-3483,-85,2984,124811]}},
    {"code":3101103,"id":"0b218d","name":"前栽","name_kana":"せんざい","lat":34.600996,"lng":135.816536,"prefecture":29,"lines":[31011],"attr":"eco","postal_code":"632-0078","address":"天理市杉本町２９０-６","next":[1163704,3100210,3101102,1163705,3100209,1163706],"voronoi":{"lat":34.576837,"lng":135.810172,"delta_lat":[0,2870,4485,33920,-8007,-24017],"delta_lng":[0,-2750,-2319,1817,16402,234]}},
    {"code":1160704,"id":"1da50f","name":"奈良","name_kana":"なら","lat":34.680482,"lng":135.818935,"prefecture":29,"lines":[11607,11618,11637],"attr":"eco","postal_code":"630-8122","address":"奈良市三条本町","next":[1163702,3102019,3102018,1160705],"voronoi":{"lat":34.677018,"lng":135.825626,"delta_lat":[0,13634,-25631,-3793],"delta_lng":[0,-6135,-15496,4280]}},
    {"code":1163705,"left":3100535,"right":1163702,"id":"063976","name":"天理","name_kana":"てんり","lat":34.60113,"lng":135.830283,"prefecture":29,"lines":[11637,31011],"attr":"eco","postal_code":"632-0016","address":"天理市川原城町","next":[3100531,1163706,1163704,3101103,3100532],"voronoi":{"lat":34.610105,"lng":135.823321,"delta_lat":[0,-24017,14119,21696,9404],"delta_lng":[0,234,80092,21147,5383]}},
    {"code":3100535,"id":"3f925b","name":"赤目口","name_kana":"あかめぐち","lat":34.599467,"lng":136.073897,"prefecture":24,"lines":[31005],"attr":"heat","postal_code":"518-0465","address":"名張市赤目町丈六２５７-１","next":[3100534,1151315,3100536,1150909],"voronoi":{"lat":34.669435,"lng":136.010707,"delta_lat":[0,-205787,74160,135012],"delta_lng":[0,113024,34787,-136797]}},
    {"code":1163702,"id":"f41860","name":"京終","name_kana":"きょうばて","lat":34.670031,"lng":135.828446,"prefecture":29,"lines":[11637],"attr":"eco","postal_code":"630-8141","address":"奈良市南京終町","next":[1163703,1160704,1150912,1160705,1150911,3102019],"voronoi":{"lat":34.677018,"lng":135.825626,"delta_lat":[0,-15790,-3202,-10631,33768,1380],"delta_lng":[0,-17351,1828,127774,-28412,-2766]}},
    {"code":1150911,"left":1150912,"right":1150908,"id":"66ea48","name":"笠置","name_kana":"かさぎ","lat":34.759086,"lng":135.934289,"prefecture":26,"lines":[11509],"attr":"cool","postal_code":"619-1303","address":"相楽郡笠置町笠置","next":[1150910,3300601,3100533,1150912,3100534,3300208,1161815,1163702,1163703,1150909],"voronoi":{"lat":34.661318,"lng":135.971721,"delta_lat":[0,-14114,191,33768,158300,16596,5240,4508,-191584,-6623],"delta_lng":[0,-33639,-205,-28412,-15935,7622,5549,30429,45480,277]}},
    {"code":1150912,"left":1160702,"right":1161817,"id":"5baa41","name":"加茂(京都)","name_kana":"かも","lat":34.752575,"lng":135.869609,"prefecture":26,"lines":[11509,11607],"attr":"cool","postal_code":"619-1152","address":"木津川市加茂町里","next":[1161816,1150911,3102019,1161815,1163702,1160702,1161817,1161818],"voronoi":{"lat":34.768027,"lng":135.844691,"delta_lat":[0,36721,7692,27024,-158300,1380,29315,36897],"delta_lng":[0,15199,5841,27800,15935,-2766,-47483,-13678]}},
    {"code":1160702,"left":1161818,"id":"5541b7","name":"木津(京都)","name_kana":"きづ","lat":34.735962,"lng":135.824794,"prefecture":26,"lines":[11607,11617,11618],"attr":"eco","postal_code":"619-0214","address":"木津川市木津","next":[3102019,1161702,1160703,1161818,1150912],"voronoi":{"lat":34.748755,"lng":135.845538,"delta_lat":[0,-7645,-15453,-14835,1036],"delta_lng":[0,-31029,-1306,26044,19969]}},
    {"code":1161818,"id":"886b17","name":"上狛","name_kana":"かみこま","lat":34.750447,"lng":135.821225,"prefecture":26,"lines":[11618],"attr":"eco","postal_code":"619-0204","address":"木津川市山城町上狛","next":[1161817,1161702,1160702,3102521,3102522,1150912],"voronoi":{"lat":34.74111,"lng":135.81451,"delta_lat":[0,8455,7010,3908,7543,-19271],"delta_lng":[0,-6053,-1058,1301,35991,848]}},
    {"code":1161817,"id":"9d5094","name":"棚倉","name_kana":"たなくら","lat":34.774705,"lng":135.816141,"prefecture":26,"lines":[11618],"attr":"eco","postal_code":"619-0202","address":"木津川市山城町平尾","next":[1161818,1161816,3102520,3102521,1150912],"voronoi":{"lat":34.784838,"lng":135.804428,"delta_lat":[0,-13049,-11306,7543,36721],"delta_lng":[0,-2831,7103,35991,15199]}},
    {"code":1150908,"left":1150909,"right":1150910,"id":"79194f","name":"島ヶ原","name_kana":"しまがはら","lat":34.767686,"lng":136.054184,"prefecture":24,"lines":[11509],"attr":"heat","postal_code":"519-1711","address":"三重県伊賀市島ヶ原広垣内5770","next":[3100538,9953115,9953102,1150909,9953103,3100537,9960406,9953108],"voronoi":{"lat":34.730044,"lng":136.089026,"delta_lat":[0,32622,58840,2743,-134724,9918,5518,23732],"delta_lng":[0,353,-17782,-42086,21538,21444,7329,8886]}},
    {"code":1150909,"id":"8f8afe","name":"月ヶ瀬口","name_kana":"つきがせぐち","lat":34.762813,"lng":136.023703,"prefecture":26,"lines":[11509],"attr":"heat","postal_code":"619-1411","address":"京都府相楽郡南山城村大字北大河原小字殿田平尾53-3","next":[3100536,1150910,3100534,3100535,9960406,3100537,1150908,1150911],"voronoi":{"lat":34.669435,"lng":136.010707,"delta_lat":[0,3385,10959,5746,134724,2959,-152984,-6623],"delta_lng":[0,11014,21478,7850,-21538,-8994,-37907,277]}},
    {"code":1150910,"id":"ea7202","name":"大河原(京都)","name_kana":"おおかわら","lat":34.77175,"lng":135.987635,"prefecture":26,"lines":[11509],"attr":"heat","postal_code":"619-1411","address":"相楽郡南山城村大字北大河原","next":[1150911,1150909,3300601,9960406],"voronoi":{"lat":34.87332,"lng":135.954568,"delta_lat":[0,-7512,-191584,152984],"delta_lng":[0,-17438,45480,37907]}},
    {"code":3300204,"left":1161812,"right":3300207,"id":"20cee5","name":"六地蔵(京阪電気鉄道)","name_kana":"ろくじぞう","lat":34.932017,"lng":135.793322,"prefecture":26,"lines":[33002],"attr":"heat","postal_code":"612-8007","address":"京都市伏見区桃山町因幡2","next":[3300203,3300205,1161806,1161804,9961102],"voronoi":{"lat":34.946564,"lng":135.790428,"delta_lat":[0,-3350,-16787,3063,13730],"delta_lng":[0,-3090,1673,6922,-2826]}},
    {"code":1161812,"left":3102518,"right":1161811,"id":"36ccf9","name":"城陽","name_kana":"じょうよう","lat":34.855536,"lng":135.781071,"prefecture":26,"lines":[11618],"attr":"cool","postal_code":"610-0121","address":"城陽市大字寺田字北山田","next":[1161809,3102514,3102513,3102515,1161811,1161813],"voronoi":{"lat":34.845859,"lng":135.780778,"delta_lat":[0,1289,11459,6400,374,-1773],"delta_lng":[0,-2425,-2860,9674,19255,3163]}},
    {"code":3102518,"left":3102517,"right":3102519,"id":"4f3b30","name":"三山木","name_kana":"みやまき","lat":34.798435,"lng":135.785905,"prefecture":26,"lines":[31025],"attr":"cool","postal_code":"610-0313","address":"京田辺市三山木高飛２-６","next":[1161705,1161816,1161706,3102517,3102519,1161815],"voronoi":{"lat":34.811265,"lng":135.792989,"delta_lat":[0,-4569,-2191,-9800,2366,11373],"delta_lng":[0,-6197,-2016,746,11116,-901]}},
    {"code":3102517,"left":1161705,"right":3102515,"id":"bac23e","name":"興戸","name_kana":"こうど","lat":34.808293,"lng":135.778638,"prefecture":26,"lines":[31025],"attr":"cool","postal_code":"610-0332","address":"京田辺市興戸北落延６-１","next":[3102516,1161815,1161707,3102518,1161814,1161706],"voronoi":{"lat":34.806733,"lng":135.763405,"delta_lat":[0,4595,8763,-3900,-4926,-4569],"delta_lng":[0,5907,18326,3602,1749,-6197]}},
    {"code":1161705,"left":1161706,"id":"8cdcd6","name":"JR三山木","name_kana":"じぇいあーるみやまき","lat":34.798334,"lng":135.784578,"prefecture":26,"lines":[11617],"attr":"heat","postal_code":"610-0313","address":"京田辺市三山木高飛４番地","next":[3102518,3102519,1161706],"voronoi":{"lat":34.794704,"lng":135.785522,"delta_lat":[0,-9156,18956],"delta_lng":[0,-22396,21650]}},
    {"code":1161706,"id":"1b252d","name":"同志社前","name_kana":"どうししゃまえ","lat":34.805124,"lng":135.778633,"prefecture":26,"lines":[11617],"attr":"cool","postal_code":"610-0313","address":"京田辺市三山木","next":[1161712,1161707,3102518,3102519,1161708,1161705,1161704,3102517],"voronoi":{"lat":34.806733,"lng":135.763405,"delta_lat":[0,-12877,-4287,-14538,7824,2694,18956,2191],"delta_lng":[0,-20654,-3825,676,19318,4206,21650,2016]}},
    {"code":3102515,"id":"1a75b6","name":"富野荘","name_kana":"とのしょう","lat":34.840201,"lng":135.772922,"prefecture":26,"lines":[31025],"attr":"cool","postal_code":"610-0117","address":"城陽市枇杷庄鹿背田５８","next":[1161708,1161813,3102514,1161707,3102516,1161812],"voronoi":{"lat":34.847148,"lng":135.778352,"delta_lat":[0,-1472,-13198,-2128,-63,15572],"delta_lng":[0,-21115,5392,9539,10593,-1984]}},
    {"code":3102519,"left":1161704,"right":1161813,"id":"e8e4d4","name":"近鉄宮津","name_kana":"きんてつみやづ","lat":34.791453,"lng":135.787391,"prefecture":26,"lines":[31025],"attr":"eco","postal_code":"610-0314","address":"京田辺市宮津灰崎３-１","next":[3102520,1161706,3102518,1161704,1161705,1161816],"voronoi":{"lat":34.79707,"lng":135.796638,"delta_lat":[0,-2366,-9156,-2694,3348,2139],"delta_lng":[0,-11116,-22396,-4206,30774,10793]}},
    {"code":1161704,"id":"cad626","name":"下狛","name_kana":"しもこま","lat":34.780579,"lng":135.788574,"prefecture":26,"lines":[11617],"attr":"heat","postal_code":"619-0245","address":"相楽郡精華町字下狛","next":[1161712,1161703,3102519,3102520,3102308,1161706],"voronoi":{"lat":34.786202,"lng":135.789694,"delta_lat":[0,-16248,-5769,10133,712,7824],"delta_lng":[0,-1782,-33320,-15153,163,19318]}},
    {"code":1161813,"id":"41d9b9","name":"長池","name_kana":"ながいけ","lat":34.842351,"lng":135.789801,"prefecture":26,"lines":[11618],"attr":"cool","postal_code":"610-0112","address":"城陽市字長池北浦","next":[1161814,3102515,3102516,1161809,1161812],"voronoi":{"lat":34.845859,"lng":135.780778,"delta_lat":[0,-15572,-2012,30778,4555],"delta_lng":[0,1984,2588,42462,-20227]}},
    {"code":1161811,"left":3102511,"right":3102510,"id":"ab0368","name":"新田(京都)","name_kana":"しんでん","lat":34.874314,"lng":135.780707,"prefecture":26,"lines":[11618],"attr":"cool","postal_code":"611-0031","address":"宇治市広野町東浦","next":[1161809,3102511,3102512,3102513,1161810,1161812],"voronoi":{"lat":34.865008,"lng":135.785166,"delta_lat":[0,3974,9074,1988,-2247,-12415],"delta_lng":[0,-6355,91,9142,6329,10048]}},
    {"code":3102511,"left":3102512,"right":1161804,"id":"b51f0b","name":"伊勢田","name_kana":"いせだ","lat":34.882208,"lng":135.77899,"prefecture":26,"lines":[31025],"attr":"heat","postal_code":"611-0043","address":"宇治市伊勢田町中山２５","next":[3300114,3102509,1161811,3102510,3102512,1161810],"voronoi":{"lat":34.878055,"lng":135.778903,"delta_lat":[0,8202,4780,2761,-6204,-7551],"delta_lng":[0,-32777,1753,9701,22982,7483]}},
    {"code":3102512,"left":3102513,"id":"66f23d","name":"大久保(京都)","name_kana":"おおくぼ","lat":34.874351,"lng":135.777024,"prefecture":26,"lines":[31025],"attr":"heat","postal_code":"611-0031","address":"宇治市広野町西裏８１-２","next":[3102511,3300114,3102513,1161811],"voronoi":{"lat":34.868981,"lng":135.778812,"delta_lat":[0,8594,8682,-8202],"delta_lng":[0,-37141,4455,32777]}},
    {"code":3102513,"id":"4d537d","name":"久津川","name_kana":"くつがわ","lat":34.864943,"lng":135.774847,"prefecture":26,"lines":[31025],"attr":"cool","postal_code":"610-0101","address":"城陽市平川東垣外１-４","next":[3102514,3300502,3300114,3102512,1161811,1161812,1161709],"voronoi":{"lat":34.858607,"lng":135.775492,"delta_lat":[0,6400,3974,8594,-6942,-3,-3132],"delta_lng":[0,9674,-6355,-37141,-4858,0,2098]}},
    {"code":1161804,"id":"7b2522","name":"JR藤森","name_kana":"じぇいあーるふじのもり","lat":34.948278,"lng":135.775695,"prefecture":26,"lines":[11618],"attr":"heat","postal_code":"612-0847","address":"京都市伏見区深草大亀谷大山町９９番","next":[3300110,1161805,3102507,9961104,3300204,9961102,9961103,1161803,3300108,3300203,3300109],"voronoi":{"lat":34.952158,"lng":135.772368,"delta_lat":[0,-10289,-1506,-1178,4030,3350,8790,4221,2887,-884,-989],"delta_lng":[0,113,1594,4575,8689,3090,2394,-295,-1009,-3272,-2850]}},
    {"code":3102510,"left":1161810,"right":3300203,"id":"01b1dc","name":"小倉(京都)","name_kana":"おぐら","lat":34.89304,"lng":135.781914,"prefecture":26,"lines":[31025],"attr":"heat","postal_code":"611-0042","address":"宇治市小倉町神楽町３５-４","next":[1161809,1161808,3102511,3102509,1161810,3300207],"voronoi":{"lat":34.903455,"lng":135.792317,"delta_lat":[0,6470,-16127,-6204,12209,2122],"delta_lng":[0,-5887,-28850,22982,11832,295]}},
    {"code":1161810,"id":"b836bf","name":"JR小倉","name_kana":"じぇいあーるおぐら","lat":34.889117,"lng":135.785962,"prefecture":26,"lines":[11618],"attr":"heat","postal_code":"611-0042","address":"宇治市小倉町中畑４８番地１","next":[1161809,3102510,3102511,1161811],"voronoi":{"lat":34.880044,"lng":135.788044,"delta_lat":[0,7551,12209,-22007],"delta_lng":[0,-7483,11832,1980]}},
    {"code":3300203,"id":"474570","name":"桃山南口","name_kana":"ももやまみなみぐち","lat":34.931056,"lng":135.783683,"prefecture":26,"lines":[33002],"attr":"heat","postal_code":"612-8018","address":"京都市伏見区桃山町丹後１１","next":[3300204,1161805,3300205,3102509,1161804,3300202],"voronoi":{"lat":34.925886,"lng":135.776888,"delta_lat":[0,13299,4030,-16787,-10360,6112],"delta_lng":[0,1762,8689,1673,-4354,-7042]}},
    {"code":3300207,"left":1161816,"right":9961102,"id":"4f6431","name":"三室戸","name_kana":"みむろど","lat":34.898976,"lng":135.806339,"prefecture":26,"lines":[33002],"attr":"eco","postal_code":"611-0013","address":"宇治市菟道田中１５","next":[1161809,3300601,3300208,1161808,3102510],"voronoi":{"lat":34.896986,"lng":135.800075,"delta_lat":[0,-2088,22726,-14168,-1530],"delta_lng":[0,81596,-15945,-73410,372]}},
    {"code":1161816,"left":1161809,"right":9960405,"id":"270091","name":"玉水","name_kana":"たまみず","lat":34.800108,"lng":135.807022,"prefecture":26,"lines":[11618],"attr":"eco","postal_code":"610-0302","address":"綴喜郡井手町大字井手","next":[1161817,3102518,3102520,1150912,1161815,3102519],"voronoi":{"lat":34.784838,"lng":135.804428,"delta_lat":[0,19909,7692,-3996,-11373,-8729],"delta_lng":[0,55462,5841,-69994,901,3849]}},
    {"code":1161809,"left":1161815,"right":3300208,"id":"13ff78","name":"宇治(JR)","name_kana":"うじ","lat":34.890437,"lng":135.800629,"prefecture":26,"lines":[11618],"attr":"heat","postal_code":"611-0021","address":"宇治市宇治字文治","next":[1161812,3300207,3300208,1161811,3102510,1161814,1161810,1161813],"voronoi":{"lat":34.859046,"lng":135.828808,"delta_lat":[0,37940,4940,-2122,-22007,-12415,-1773,-4555],"delta_lng":[0,-28733,-7387,-295,1980,10048,3163,20227]}},
    {"code":1161815,"left":1161814,"id":"16bac5","name":"山城多賀","name_kana":"やましろたが","lat":34.818009,"lng":135.806,"prefecture":26,"lines":[11618],"attr":"cool","postal_code":"610-0301","address":"綴喜郡井手町大字多賀","next":[3300208,3102517,1161814,1161816,1150911,1150912,3102518],"voronoi":{"lat":34.811265,"lng":135.792989,"delta_lat":[0,4926,39992,-123,-16596,-27024,-3996],"delta_lng":[0,-1749,68711,41202,-7622,-27800,-69994]}},
    {"code":1161814,"id":"1bbbe6","name":"山城青谷","name_kana":"やましろあおだに","lat":34.828127,"lng":135.800111,"prefecture":26,"lines":[11618],"attr":"cool","postal_code":"610-0114","address":"城陽市市辺五島","next":[3300208,1161813,1161815,1161809,3102517,3102516],"voronoi":{"lat":34.828276,"lng":135.785349,"delta_lat":[0,30778,-8,-2863,-39992,3900],"delta_lng":[0,42462,997,31142,-68711,-3602]}},
    {"code":3300208,"id":"27c551","name":"宇治(京阪電気鉄道)","name_kana":"うじ","lat":34.894678,"lng":135.806229,"prefecture":26,"lines":[33002],"attr":"eco","postal_code":"611-0021","address":"宇治市宇治字文治","next":[3300601,1161814,1161809,1161815,3300207,1150911],"voronoi":{"lat":34.85606,"lng":135.901153,"delta_lat":[0,123,2863,37940,-2088,-33598],"delta_lng":[0,-41202,-31142,-28733,81596,25030]}},
    {"code":9960405,"left":9960406,"right":9960404,"id":"73f9bf","name":"玉桂寺前","name_kana":"ぎょくけいじまえ","lat":34.885257,"lng":136.06938,"prefecture":25,"lines":[99604],"attr":"heat","postal_code":"529-1804","address":"甲賀市信楽町勅旨字奥出","next":[1150907,1150906,9960406,9960404],"voronoi":{"lat":34.900807,"lng":136.045579,"delta_lat":[0,-58775,9801,10872],"delta_lng":[0,59241,17599,9396]}},
    {"code":9960406,"id":"ba1668","name":"信楽","name_kana":"しがらき","lat":34.87713,"lng":136.061317,"prefecture":25,"lines":[99604],"attr":"cool","postal_code":"529-1851","address":"甲賀市信楽町長野","next":[1150907,9953102,9960405,1160114,9960404,1150909,3300601,1150910,1160115,1150908],"voronoi":{"lat":34.838119,"lng":136.099229,"delta_lat":[0,3914,58775,33925,-7870,-16927,-36616,-46112,-2959,-2743],"delta_lng":[0,5591,-59241,-47645,-8753,-13738,-20875,65949,8994,42086]}},
    {"code":9960404,"id":"51a447","name":"勅旨","name_kana":"ちょくし","lat":34.893681,"lng":136.073102,"prefecture":25,"lines":[99604],"attr":"heat","postal_code":"529-1804","address":"甲賀市信楽町勅旨字鳥居迫","next":[1150906,1160114,1151110,9960403,9960406,9960405],"voronoi":{"lat":34.86629,"lng":136.135377,"delta_lat":[0,79891,-2429,-9019,-33925,-38102],"delta_lng":[0,-125147,-4394,-7902,47645,86236]}},
    {"code":9961102,"left":3300205,"right":9960402,"id":"520a28","name":"石田(京都)","name_kana":"いしだ","lat":34.940569,"lng":135.803995,"prefecture":26,"lines":[99611],"attr":"eco","postal_code":"601-1434","address":"京都市伏見区石田森南町","next":[1161806,1161808,1161804,1161807,3300204,9961103],"voronoi":{"lat":34.955355,"lng":135.792823,"delta_lat":[0,-8790,-3344,-12445,-4276,-187],"delta_lng":[0,-2394,2679,14437,13100,15750]}},
    {"code":3300205,"left":1161808,"right":1161806,"id":"e1a335","name":"木幡(京阪電気鉄道)","name_kana":"こわた","lat":34.925859,"lng":135.796047,"prefecture":26,"lines":[33002],"attr":"cool","postal_code":"611-0002","address":"京都府宇治市木幡","next":[3300204,3300203,1161806,1161807,3102509,1161808],"voronoi":{"lat":34.911553,"lng":135.78653,"delta_lat":[0,4515,10360,3063,-492,-12726],"delta_lng":[0,-1872,4354,6922,2668,-3999]}},
    {"code":1161808,"left":1161807,"id":"56efb4","name":"黄檗","name_kana":"おうばく","lat":34.912831,"lng":135.803665,"prefecture":26,"lines":[11618,33002],"attr":"heat","postal_code":"611-0011","address":"宇治市五ケ庄新開","next":[9961103,3102510,9961102,3300207,3300601,3102509,3300205,1161807],"voronoi":{"lat":34.926313,"lng":135.836395,"delta_lat":[0,-5136,-3553,-14168,6470,1627,4720,10227],"delta_lng":[0,27399,1933,-73410,-5887,100,8073,26042]}},
    {"code":1161807,"id":"6a6e0e","name":"木幡(JR)","name_kana":"こはた","lat":34.924962,"lng":135.798901,"prefecture":26,"lines":[11618],"attr":"heat","postal_code":"611-0002","address":"京都府宇治市木幡大瀬戸","next":[3300205,1161806,9961102,1161808],"voronoi":{"lat":34.916273,"lng":135.794602,"delta_lat":[0,12726,1777,-4276],"delta_lng":[0,3999,8943,13100]}},
    {"code":1161806,"id":"67fee5","name":"六地蔵(JR)","name_kana":"ろくじぞう","lat":34.932843,"lng":135.797335,"prefecture":26,"lines":[11618,99611],"attr":"heat","postal_code":"612-8007","address":"京都市伏見区桃山町因幡2","next":[9961102,3300205,3300204,1161807],"voronoi":{"lat":34.928999,"lng":135.798602,"delta_lat":[0,492,13730,-12445],"delta_lng":[0,-2668,-2826,14437]}},
    {"code":9960402,"left":9960403,"right":9961103,"id":"eba1c0","name":"紫香楽宮跡","name_kana":"しがらきぐうし","lat":34.915741,"lng":136.087967,"prefecture":25,"lines":[99604],"attr":"eco","postal_code":"529-1803","address":"甲賀市信楽町牧字下山","next":[1151104,1151107,1151109,9960403,1151105,1151108,1151106],"voronoi":{"lat":34.873618,"lng":136.138422,"delta_lat":[0,-2677,83748,278,3109,-14179,-25542],"delta_lng":[0,92,-103068,809,47086,32054,14158]}},
    {"code":9960403,"id":"2f9b72","name":"雲井","name_kana":"くもい","lat":34.911249,"lng":136.084317,"prefecture":25,"lines":[99604],"attr":"eco","postal_code":"529-1803","address":"甲賀市信楽町牧字永楽","next":[1151109,9960404,9960402,1151110,1150906,1151104],"voronoi":{"lat":34.86629,"lng":136.135377,"delta_lat":[0,79891,1807,6701,-83748,-2215],"delta_lng":[0,-125147,2466,22749,103068,170]}},
    {"code":9961103,"id":"a8cb44","name":"醍醐(京都)","name_kana":"だいご","lat":34.950732,"lng":135.810769,"prefecture":26,"lines":[99611],"attr":"eco","postal_code":"601-1375","address":"京都市伏見区醍醐高畑町","next":[1161808,3300705,9961104,1161804,3300601,9961102],"voronoi":{"lat":34.921177,"lng":135.863794,"delta_lat":[0,24215,2016,12168,-4221,-29042],"delta_lng":[0,-4281,-2018,-64967,295,43572]}},
    {"code":3300106,"left":9961116,"right":3300613,"id":"9181af","name":"鳥羽街道","name_kana":"とばかいどう","lat":34.973632,"lng":135.770004,"prefecture":26,"lines":[33001],"attr":"cool","postal_code":"605-0982","address":"京都市東山区福稲下高松町４","next":[9961012,9961013,1161802,3300701,9961105,1161803,3300107],"voronoi":{"lat":34.97203,"lng":135.764936,"delta_lat":[0,3556,1783,738,-2431,-3236,-1851],"delta_lng":[0,-502,936,25283,1732,-70,-18106]}},
    {"code":9961116,"left":3400303,"right":1161405,"id":"9e418a","name":"西大路御池","name_kana":"にしおおじおいけ","lat":35.010983,"lng":135.731181,"prefecture":26,"lines":[99611],"attr":"cool","postal_code":"604-0000","address":"京都市中京区西ノ京","next":[9961203,1161404,1161403,9961204],"voronoi":{"lat":35.01128,"lng":135.736441,"delta_lat":[0,3726,-889,-6314],"delta_lng":[0,1,-10740,2086]}},
    {"code":3400303,"left":3400903,"right":1161802,"id":"affa95","name":"大宮(京都)","name_kana":"おおみや","lat":35.003587,"lng":135.748756,"prefecture":26,"lines":[34003],"attr":"eco","postal_code":"604-8365","address":"京都市中京区四条通大宮西入ル錦大宮町１２７","next":[9961009,9961201,9961114,9961010,1161403,3400302],"voronoi":{"lat":35.006852,"lng":135.753908,"delta_lat":[0,1552,-1557,-8115,17,2136],"delta_lng":[0,-7505,-1630,8924,14,242]}},
    {"code":3400903,"left":1160216,"right":9961203,"id":"fc0936","name":"松尾大社","name_kana":"まつおたいしゃ","lat":35.000331,"lng":135.688214,"prefecture":26,"lines":[34009],"attr":"cool","postal_code":"616-0023","address":"京都市西京区嵐山宮ノ前町４９","next":[9960502,1161408,3400904,3400310,3400902,9960504,3400307,9961208,9961207],"voronoi":{"lat":34.964447,"lng":135.652396,"delta_lat":[0,-4554,-65,1527,11935,16535,18611,-3001,-3248],"delta_lng":[0,-11092,-1197,240,5662,15494,28107,7461,3995]}},
    {"code":1160216,"left":3400306,"right":3400305,"id":"07f989","name":"桂川(京都)","name_kana":"かつらがわ","lat":34.964814,"lng":135.710391,"prefecture":26,"lines":[11602],"attr":"heat","postal_code":"601-8211","address":"京都市南区久世高田町6-7","next":[1160202,3400306,1160203,3102504,3400307],"voronoi":{"lat":34.971764,"lng":135.706008,"delta_lat":[0,5616,-18201,-616,1434],"delta_lng":[0,11653,13891,4,-24366]}},
    {"code":3400306,"left":1160203,"right":3400902,"id":"6adbf0","name":"桂","name_kana":"かつら","lat":34.979522,"lng":135.703302,"prefecture":26,"lines":[34003,34009],"attr":"cool","postal_code":"615-8107","address":"京都市西京区川島北裏町９７-２","next":[1160216,3400307,3400902,1160202,3400305],"voronoi":{"lat":34.990081,"lng":135.707391,"delta_lat":[0,-17981,-335,5616,711],"delta_lng":[0,-26548,25165,11653,-39]}},
    {"code":1160203,"left":3400307,"id":"63a575","name":"向日町","name_kana":"むこうまち","lat":34.954838,"lng":135.709804,"prefecture":26,"lines":[11602],"attr":"cool","postal_code":"617-0002","address":"向日市寺戸町久々相","next":[3102506,3400307,3400309,1160216,3102505,3102504,3400308,3300113],"voronoi":{"lat":34.938879,"lng":135.733675,"delta_lat":[0,13238,6447,1434,-645,-13187,-11033,3186],"delta_lng":[0,-569,-1550,-24366,-888,2437,23072,1768]}},
    {"code":3400307,"id":"3d18b6","name":"洛西口","name_kana":"らくさいぐち","lat":34.964081,"lng":135.703096,"prefecture":26,"lines":[34003],"attr":"cool","postal_code":"615-8103","address":"京都市西京区川島六ノ坪町","next":[3400308,1160203,3400306,3400310,3400902,3400903,1160216],"voronoi":{"lat":34.971764,"lng":135.706008,"delta_lat":[0,335,-7653,-4554,-6702,6162,645],"delta_lng":[0,-25165,-28448,-11092,24462,40537,888]}},
    {"code":3400902,"id":"228abd","name":"上桂","name_kana":"かみかつら","lat":34.990201,"lng":135.696069,"prefecture":26,"lines":[34009],"attr":"cool","postal_code":"615-8227","address":"京都市西京区上桂宮ノ後町３３-２","next":[9961213,3400305,9961206,3400903,3400306,3400307,9961207],"voronoi":{"lat":34.999836,"lng":135.706024,"delta_lat":[0,-406,-9349,-17981,-7653,37740,-113],"delta_lng":[0,424,943,-26548,-28448,48670,669]}},
    {"code":3400305,"left":1161416,"right":1161402,"id":"2a053a","name":"西京極","name_kana":"にしきょうごく","lat":34.992459,"lng":135.718462,"prefecture":26,"lines":[34003],"attr":"cool","postal_code":"615-0851","address":"京都市右京区西京極西池田町２","next":[3400902,9961213,9961204,1160202,3400306,3400304],"voronoi":{"lat":34.999327,"lng":135.724427,"delta_lat":[0,2094,-1991,-9349,-11989,14327],"delta_lng":[0,-7061,-10917,943,10231,12317]}},
    {"code":1161416,"left":1160202,"id":"d9614a","name":"梅小路京都西","name_kana":"うめこうじきょうとにし","lat":34.988778,"lng":135.743167,"prefecture":26,"lines":[11614],"attr":"heat","postal_code":"600-8835","address":"京都市下京区観喜寺町3番地","next":[3102502,1160202,9961010,100216,1161402],"voronoi":{"lat":34.990749,"lng":135.733524,"delta_lat":[0,-12618,9015,4640,1134],"delta_lng":[0,8476,8462,1055,-445]}},
    {"code":1160202,"id":"3f37ac","name":"西大路","name_kana":"にしおおじ","lat":34.981077,"lng":135.731702,"prefecture":26,"lines":[11602],"attr":"heat","postal_code":"601-8469","address":"京都市南区唐橋平垣町","next":[3102503,3400304,1161416,1161402,3102504,1160216,3102502,3400306,3400305],"voronoi":{"lat":34.978091,"lng":135.717623,"delta_lat":[0,-711,-18201,10059,7981,911,12618,1621,49],"delta_lng":[0,39,13891,7664,2735,49,-8476,-2112,-1473]}},
    {"code":1161402,"id":"c6e219","name":"丹波口","name_kana":"たんばぐち","lat":34.99501,"lng":135.742396,"prefecture":26,"lines":[11614],"attr":"heat","postal_code":"600-8813","address":"京都市下京区中堂寺南町","next":[1160202,9961010,1161416,3400304,9961201],"voronoi":{"lat":35.002761,"lng":135.740404,"delta_lat":[0,-10391,-1621,2171,2038],"delta_lng":[0,-8991,2112,17548,-29]}},
    {"code":9961203,"left":3400904,"right":3400304,"id":"17ea4e","name":"西大路三条","name_kana":"にしおおじさんじょう","lat":35.007855,"lng":135.732438,"prefecture":26,"lines":[99612],"attr":"heat","postal_code":"615-0001","address":"京都市右京区西院上今田町２２","next":[1161403,9961204,3400304,9961116],"voronoi":{"lat":35.005749,"lng":135.738306,"delta_lat":[0,-23,2077,3477],"delta_lng":[0,-10624,107,8653]}},
    {"code":3400904,"left":9961204,"right":9961117,"id":"942c6f","name":"嵐山(阪急電鉄)","name_kana":"あらしやま","lat":35.010315,"lng":135.681603,"prefecture":26,"lines":[34009],"attr":"eco","postal_code":"616-8384","address":"京都市右京区嵯峨天龍寺造路町","next":[3400903,9961212,9961210,9961211,9961208,9961209,9960502],"voronoi":{"lat":34.989824,"lng":135.661502,"delta_lat":[0,18611,294,3154,1555,-102,-6991],"delta_lng":[0,28107,-115,-2754,-2879,-3521,-8872]}},
    {"code":9961204,"left":9961213,"id":"933b2c","name":"山ノ内(京都)","name_kana":"やまのうち","lat":35.008336,"lng":135.72317,"prefecture":26,"lines":[99612],"attr":"heat","postal_code":"615-0093","address":"京都市右京区山ノ内宮前町","next":[3400304,9961117,9961203,9961213,3400305,1161404,1161405,9961116],"voronoi":{"lat":35.014117,"lng":135.725703,"delta_lat":[0,1225,-1506,-7321,-5095,-2094,6400,2077],"delta_lng":[0,-1613,-2971,-2562,-1191,7061,3255,107]}},
    {"code":9961213,"id":"e99d1f","name":"嵐電天神川","name_kana":"らんでんてんじんがわ","lat":35.010192,"lng":135.715227,"prefecture":26,"lines":[99612],"attr":"heat","postal_code":"616-8104","address":"京都市右京区太秦下刑部町","next":[3400902,9961117,9961206,3400305,9961204,9961205],"voronoi":{"lat":35.001354,"lng":135.706745,"delta_lat":[0,-1519,-406,1991,5095,5306],"delta_lng":[0,-721,424,10917,1191,-3858]}},
    {"code":9961117,"id":"458158","name":"太秦天神川","name_kana":"うずまさてんじんがわ","lat":35.010816,"lng":135.716085,"prefecture":26,"lines":[99611],"attr":"cool","postal_code":"616-0000","address":"京都市右京区太秦","next":[9961213,9961204,1161405,9961205],"voronoi":{"lat":35.011821,"lng":135.714698,"delta_lat":[0,-5306,7321,1210],"delta_lng":[0,3858,2562,-5298]}},
    {"code":3400304,"left":9961201,"right":1161403,"id":"625797","name":"西院","name_kana":"さいいん(さい)","lat":35.003619,"lng":135.732447,"prefecture":26,"lines":[34003,99612],"attr":"eco","postal_code":"604-8854","address":"京都市中京区壬生仙念町１６","next":[1161403,9961204,1160202,9961201,9961203,1161402,3400305],"voronoi":{"lat":34.999327,"lng":135.724427,"delta_lat":[0,6400,23,-2650,-339,-10391,49],"delta_lng":[0,3255,10624,2107,-9,-8991,-1473]}},
    {"code":9961201,"id":"b566a0","name":"四条大宮","name_kana":"しじょうおおみや","lat":35.00319,"lng":135.748395,"prefecture":26,"lines":[99612],"attr":"eco","postal_code":"600-8389","address":"京都市下京区四条大宮町４-４","next":[3400303,3400304,9961010,1161403,1161402],"voronoi":{"lat":35.002761,"lng":135.740404,"delta_lat":[0,339,3747,-8115,-3774],"delta_lng":[0,9,4360,8924,-2653]}},
    {"code":1161403,"id":"b86917","name":"二条","name_kana":"にじょう","lat":35.010978,"lng":135.741701,"prefecture":26,"lines":[11614,99611],"attr":"heat","postal_code":"604-8415","address":"京都市中京区西ノ京栂尾町","next":[9961309,3400304,9961203,9961201,3400303,9961116,1161404,9961114],"voronoi":{"lat":35.006847,"lng":135.744772,"delta_lat":[0,-3747,2650,5531,3726,7465,2288,-16356],"delta_lng":[0,-4360,-2107,-1864,1,4792,3464,1704]}},
    {"code":1161802,"left":9961014,"right":9961010,"id":"7f99ee","name":"東福寺","name_kana":"とうふくじ","lat":34.981371,"lng":135.769778,"prefecture":26,"lines":[11618,33001],"attr":"heat","postal_code":"605-0981","address":"京都市東山区本町１２","next":[9961012,3300104,3300106,3300701,100216],"voronoi":{"lat":34.983817,"lng":135.763899,"delta_lat":[0,-6448,738,11275,-5200],"delta_lng":[0,1472,25283,-5233,-21397]}},
    {"code":9961014,"left":3102503,"right":9961013,"id":"a8ed16","name":"くいな橋","name_kana":"くいなばし","lat":34.962674,"lng":135.757441,"prefecture":26,"lines":[99610],"attr":"cool","postal_code":"612-8415","address":"京都市伏見区竹田中島町","next":[3102504,3300109,9961013,3300108,3300107,3102505],"voronoi":{"lat":34.960546,"lng":135.753317,"delta_lat":[0,7226,-1392,-916,-4979,-2207],"delta_lng":[0,3692,6054,487,616,-1020]}},
    {"code":3102503,"left":3102505,"right":3102502,"id":"77d6ff","name":"十条(近畿日本鉄道)","name_kana":"じゅうじょう","lat":34.97398,"lng":135.752413,"prefecture":26,"lines":[31025],"attr":"heat","postal_code":"601-8435","address":"京都市南区西九条柳の内町1","next":[1160202,9961013,3102502,3102504,9961012],"voronoi":{"lat":34.969621,"lng":135.75515,"delta_lat":[0,-382,7981,-323,-1264],"delta_lng":[0,-15934,2735,13824,886]}},
    {"code":3102505,"left":3102504,"id":"1e4e3d","name":"竹田(京都)","name_kana":"たけだ","lat":34.956825,"lng":135.756091,"prefecture":26,"lines":[31025,99610],"attr":"heat","postal_code":"612-8421","address":"京都市伏見区竹田桶ノ井町","next":[3300109,1160203,3102506,3102504,9961014],"voronoi":{"lat":34.960546,"lng":135.753317,"delta_lat":[0,-8429,-13238,14735,4664],"delta_lng":[0,-20210,569,29456,14]}},
    {"code":3102504,"id":"df065a","name":"上鳥羽口","name_kana":"かみとばぐち","lat":34.965135,"lng":135.752625,"prefecture":26,"lines":[31025],"attr":"heat","postal_code":"612-8417","address":"京都市伏見区竹田向代町川町１１０","next":[9961014,1160202,1160216,1160203,9961013,3102505,3102503],"voronoi":{"lat":34.969239,"lng":135.739217,"delta_lat":[0,-10059,-616,-6447,8429,7226,1849],"delta_lng":[0,-7664,4,1550,20210,3692,-1858]}},
    {"code":3102502,"id":"0eda7c","name":"東寺","name_kana":"とうじ","lat":34.979967,"lng":135.752553,"prefecture":26,"lines":[31025],"attr":"heat","postal_code":"601-8414","address":"京都市南区西九条蔵王町３９","next":[9961012,1161416,100216,3102503,1160202],"voronoi":{"lat":34.97722,"lng":135.741952,"delta_lat":[0,-323,4668,5581,-9015],"delta_lng":[0,13824,594,-5907,-8462]}},
    {"code":9961013,"left":3300107,"right":9961012,"id":"77d0f0","name":"十条(京都市交通局)","name_kana":"じゅうじょう","lat":34.972168,"lng":135.759623,"prefecture":26,"lines":[99610],"attr":"cool","postal_code":"601-8033","address":"京都市南区東九条南石田町","next":[3102503,3300106,9961012,3300107,3102504,9961014],"voronoi":{"lat":34.967771,"lng":135.757009,"delta_lat":[0,1849,6012,-46,-3556,-5651],"delta_lng":[0,-1858,1511,7773,502,-1874]}},
    {"code":3300107,"id":"83646c","name":"伏見稲荷","name_kana":"ふしみいなり","lat":34.968966,"lng":135.769279,"prefecture":26,"lines":[33001],"attr":"cool","postal_code":"612-0012","address":"京都市伏見区深草一ノ坪町３３","next":[9961013,3300108,9961014,1161803,3300106],"voronoi":{"lat":34.966174,"lng":135.767383,"delta_lat":[0,-710,916,5651,-1441],"delta_lng":[0,-3833,-487,1874,9273]}},
    {"code":9961012,"id":"5e475e","name":"九条(京都)","name_kana":"くじょう","lat":34.979062,"lng":135.759664,"prefecture":26,"lines":[99610],"attr":"heat","postal_code":"601-8041","address":"京都市南区東九条南烏丸町","next":[3102502,1161802,100216,3300106,9961013,3102503],"voronoi":{"lat":34.976897,"lng":135.755775,"delta_lat":[0,4668,2253,-6448,-1783,46],"delta_lng":[0,594,7529,1472,-936,-7773]}},
    {"code":9961010,"left":3400302,"right":3300103,"id":"dee72f","name":"五条(京都)","name_kana":"ごじょう","lat":34.995252,"lng":135.759687,"prefecture":26,"lines":[99610],"attr":"heat","postal_code":"605-0846","address":"京都市東山区五条大橋東詰","next":[9961009,3300103,1161416,100216,9961201,1161402,3400303,3300104],"voronoi":{"lat":34.989727,"lng":135.761906,"delta_lat":[0,2059,1134,2038,3774,17,92,-6004],"delta_lng":[0,-10388,-445,-29,2653,14,10152,303]}},
    {"code":3400302,"left":9961009,"right":9961008,"id":"20dcb6","name":"烏丸","name_kana":"からすま","lat":35.003665,"lng":135.759108,"prefecture":26,"lines":[34003],"attr":"eco","postal_code":"600-8008","address":"京都市下京区四条通烏丸東入ル長刀鉾町１７","next":[9961009,3400303,9961008,3400301,9961114],"voronoi":{"lat":35.006852,"lng":135.753908,"delta_lat":[0,-5967,4051,1778,755],"delta_lng":[0,45,10321,-17,-9762]}},
    {"code":9961009,"left":100216,"id":"025411","name":"四条","name_kana":"しじょう","lat":35.002353,"lng":135.759623,"prefecture":26,"lines":[99610],"attr":"heat","postal_code":"605-0000","address":"京都市東山区四条大橋東詰","next":[3400303,9961010,3300103,3400302,3400301],"voronoi":{"lat":34.99884,"lng":135.763862,"delta_lat":[0,-92,2136,4051,-4673],"delta_lng":[0,-10152,242,10321,671]}},
    {"code":100216,"id":"deedbe","name":"京都","name_kana":"きょうと","lat":34.985465,"lng":135.757748,"prefecture":26,"lines":[11601,11602,11605,11614,11618,31025,99610,1002],"attr":"heat","postal_code":"600-8216","address":"京都市下京区烏丸通塩小路下ル東塩小路町","next":[9961012,3102502,9961010,1161416,3300104,1161802],"voronoi":{"lat":34.989727,"lng":135.761906,"delta_lat":[0,2059,-4640,-5581,2253,365],"delta_lng":[0,-10388,-1055,5907,7529,125]}},
    {"code":9961008,"id":"46691f","name":"烏丸御池","name_kana":"からすまおいけ","lat":35.010517,"lng":135.759638,"prefecture":26,"lines":[99610,99611],"attr":"eco","postal_code":"604-8171","address":"京都市中京区虎屋町","next":[9961114,9961112,3400301,9961007,3400302],"voronoi":{"lat":35.007468,"lng":135.754495,"delta_lat":[0,5997,145,-6639,-258],"delta_lng":[0,900,8688,351,-177]}},
    {"code":3300103,"left":3300104,"right":3400301,"id":"ae79b8","name":"清水五条","name_kana":"きよみずごじょう","lat":34.995691,"lng":135.768378,"prefecture":26,"lines":[33001],"attr":"eco","postal_code":"605-0846","address":"京都市東山区五条大橋東詰","next":[3300104,9961010,9961009,3400301,3300102,9961109,3300701],"voronoi":{"lat":34.991662,"lng":135.785067,"delta_lat":[0,1813,6030,758,-1422,-6004,-1747],"delta_lng":[0,-1025,-13459,-5639,-1082,303,20910]}},
    {"code":3300104,"id":"a9ec1b","name":"七条","name_kana":"しちじょう","lat":34.989322,"lng":135.767846,"prefecture":26,"lines":[33001],"attr":"eco","postal_code":"605-0000","address":"京都市東山区七条大橋東詰","next":[3300103,1161802,100216,9961010,3300701],"voronoi":{"lat":34.984183,"lng":135.764023,"delta_lat":[0,5544,3110,-1747,-1707],"delta_lng":[0,-2118,2260,20910,345]}},
    {"code":3400301,"id":"47df64","name":"京都河原町","name_kana":"きょうとかわらまち","lat":35.003765,"lng":135.769463,"prefecture":26,"lines":[34003],"attr":"eco","postal_code":"600-8001","address":"京都市下京区四条通河原町西入ル真町５２","next":[3300101,3300103,3300102,9961112,9961008,9961009,3400302],"voronoi":{"lat":35.006713,"lng":135.764257,"delta_lat":[0,258,407,-901,-6973,758,4673],"delta_lng":[0,177,4648,1714,-212,-5639,-671]}},
    {"code":1161405,"left":1161406,"right":9961006,"id":"07b55b","name":"花園(京都)","name_kana":"はなぞの","lat":35.018743,"lng":135.717895,"prefecture":26,"lines":[11614],"attr":"heat","postal_code":"616-8043","address":"京都市右京区花園寺ノ内町","next":[9961305,9961307,1161404,9961206,9961306,9961303,9961302,9961308,9961117,9961205,9961204],"voronoi":{"lat":35.013837,"lng":135.721119,"delta_lat":[0,1210,2542,1744,815,190,2236,-88,-245,-1245,-5653],"delta_lng":[0,-5298,-3548,-944,97,77,4512,5777,664,1916,-282]}},
    {"code":1161406,"left":9961207,"right":9961302,"id":"86a451","name":"太秦","name_kana":"うずまさ","lat":35.017019,"lng":135.701269,"prefecture":26,"lines":[11614],"attr":"heat","postal_code":"616-8174","address":"京都市右京区太秦垂箕山町","next":[9961310,9961207,9961208,9961302,9961303],"voronoi":{"lat":35.025978,"lng":135.695272,"delta_lat":[0,-8015,-2254,2441,5983],"delta_lng":[0,2011,4172,2053,-5541]}},
    {"code":9961207,"left":9961211,"right":9961206,"id":"92c6c1","name":"帷子ノ辻","name_kana":"かたびらのつじ","lat":35.015146,"lng":135.700257,"prefecture":26,"lines":[99612,99613],"attr":"cool","postal_code":"616-8151","address":"京都市右京区太秦帷子ケ辻町３０-３","next":[1161406,9961206,9961208,9961310,3400903,3400902],"voronoi":{"lat":35.002186,"lng":135.701066,"delta_lat":[0,3248,12528,-2254,-6913,-6722],"delta_lng":[0,-3995,213,4172,1656,-1377]}},
    {"code":9961211,"left":9961208,"right":9961209,"id":"fa3142","name":"嵐電嵯峨","name_kana":"らんでんさが","lat":35.016426,"lng":135.681425,"prefecture":26,"lines":[99612],"attr":"cool","postal_code":"616-8366","address":"京都市右京区嵯峨天龍寺今堀町２３-２","next":[9960501,9961212,3400904,1161407,9961210],"voronoi":{"lat":35.013336,"lng":135.68034,"delta_lat":[0,3609,598,143,-4248],"delta_lng":[0,-1119,1850,2105,685]}},
    {"code":9961208,"left":9961212,"id":"d9c91b","name":"有栖川","name_kana":"ありすがわ","lat":35.015249,"lng":135.694216,"prefecture":26,"lines":[99612],"attr":"cool","postal_code":"616-8317","address":"京都市右京区嵯峨野神ノ木町３７-６","next":[9961209,1161406,3400904,3400903,9961207,9961303],"voronoi":{"lat":35.017962,"lng":135.697284,"delta_lat":[0,-12528,3001,294,18023,-775],"delta_lng":[0,-213,-7461,-115,5217,561]}},
    {"code":9961212,"id":"e5d602","name":"嵐山(京福電気鉄道)","name_kana":"あらしやま","lat":35.015271,"lng":135.677698,"prefecture":26,"lines":[99612],"attr":"cool","postal_code":"616-8384","address":"京都市右京区嵯峨天龍寺造路町","next":[3400904,9960501,9961211,9960502],"voronoi":{"lat":35.006346,"lng":135.671468,"delta_lat":[0,6991,3609,3667],"delta_lng":[0,8872,-1119,-4130]}},
    {"code":9961209,"id":"c31843","name":"車折神社","name_kana":"くるまざきじんじゃ","lat":35.016763,"lng":135.688986,"prefecture":26,"lines":[99612],"attr":"cool","postal_code":"616-8347","address":"京都市右京区嵯峨中又町３０-２","next":[9961208,1161407,9961210,3400904,9961303],"voronoi":{"lat":35.03786,"lng":135.690176,"delta_lat":[0,-8574,-17402,-3154,18023],"delta_lng":[0,-2150,-1285,2754,5217]}},
    {"code":9961206,"left":9961205,"right":9961310,"id":"217df6","name":"太秦広隆寺","name_kana":"うずまさこうりゅうじ","lat":35.013513,"lng":135.708232,"prefecture":26,"lines":[99612],"attr":"cool","postal_code":"616-8125","address":"京都市右京区太秦組石町１０-４","next":[9961213,1161405,3400902,9961207,9961205,9961310,9961302],"voronoi":{"lat":35.016852,"lng":135.706416,"delta_lat":[0,-8057,-6722,-2238,1519,16234,1744],"delta_lng":[0,-3304,-1377,4290,721,5527,-944]}},
    {"code":9961205,"id":"d6f582","name":"蚕ノ社","name_kana":"かいこのやしろ","lat":35.011894,"lng":135.712987,"prefecture":26,"lines":[99612],"attr":"heat","postal_code":"616-8105","address":"京都市右京区太秦森ケ前町１３-４","next":[9961213,9961117,9961206,1161405],"voronoi":{"lat":35.017589,"lng":135.712273,"delta_lat":[0,-16234,10467,3225],"delta_lng":[0,-5527,7953,1122]}},
    {"code":9961310,"id":"14ff93","name":"撮影所前","name_kana":"さつえいじょまえ","lat":35.01575,"lng":135.702778,"prefecture":26,"lines":[99613],"attr":"cool","postal_code":"616-8173","address":"京都市右京区太秦上ノ段町1-5","next":[1161406,9961302,9961207,9961206],"voronoi":{"lat":35.008796,"lng":135.703111,"delta_lat":[0,6913,2441,-1297],"delta_lng":[0,-1656,2053,2907]}},
    {"code":9961302,"left":9960501,"right":9961305,"id":"a26405","name":"常盤(京都)","name_kana":"ときわ","lat":35.020296,"lng":135.704807,"prefecture":26,"lines":[99613],"attr":"cool","postal_code":"616-8225","address":"京都市右京区常盤馬塚町５-１","next":[9961303,9961310,1161406,1161405,9961206],"voronoi":{"lat":35.016852,"lng":135.706416,"delta_lat":[0,1297,5983,-3985,-815],"delta_lng":[0,-2907,-5541,13458,-97]}},
    {"code":9960501,"left":9961210,"right":1161407,"id":"a5346c","name":"トロッコ嵯峨","name_kana":"とろっこさが","lat":35.018656,"lng":135.680704,"prefecture":26,"lines":[99605],"attr":"heat","postal_code":"616-8373","address":"京都市右京区嵯峨天龍寺車道町","next":[1161407,9961212,9961211,9960503,9960502],"voronoi":{"lat":35.053854,"lng":135.67034,"delta_lat":[0,27535,-63846,-598,3667],"delta_lng":[0,5993,4738,-1850,-4130]}},
    {"code":9961210,"left":9960502,"id":"fa0778","name":"鹿王院","name_kana":"ろくおういん","lat":35.01704,"lng":135.685236,"prefecture":26,"lines":[99612],"attr":"cool","postal_code":"616-8367","address":"京都市右京区嵯峨北堀町２６-６","next":[1161407,9961209,3400904,9961211],"voronoi":{"lat":35.017687,"lng":135.683177,"delta_lat":[0,11599,-17402,1555],"delta_lng":[0,4849,-1285,-2879]}},
    {"code":9960502,"id":"712b77","name":"トロッコ嵐山","name_kana":"とろっこあらしやま","lat":35.017162,"lng":135.670252,"prefecture":26,"lines":[99605],"attr":"heat","postal_code":"616-8394","address":"京都市右京区嵯峨小倉山田渕山町","next":[3400903,9960503,3400904,9960501,1161408,9961212],"voronoi":{"lat":35.053854,"lng":135.67034,"delta_lat":[0,-47487,-33078,16535,16521,14267],"delta_lng":[0,-17804,-6528,15494,9966,3623]}},
    {"code":1161407,"id":"7bea6f","name":"嵯峨嵐山","name_kana":"さがあらしやま","lat":35.018698,"lng":135.68127,"prefecture":26,"lines":[11614],"attr":"heat","postal_code":"616-8373","address":"京都市右京区嵯峨天龍寺車道町","next":[9960501,9961210,9961209,9961303,9960503,9961304,9961211],"voronoi":{"lat":35.029286,"lng":135.688026,"delta_lat":[0,8574,9296,37793,-3559,-63846,143],"delta_lng":[0,2150,-1868,-11216,-758,4738,2105]}},
    {"code":9961305,"left":9961303,"right":9961304,"id":"818e4f","name":"御室仁和寺","name_kana":"おむろにんなじ","lat":35.02639,"lng":135.714106,"prefecture":26,"lines":[99613],"attr":"heat","postal_code":"616-8094","address":"京都市右京区御室小松野町１２-２","next":[9961306,1161405,9961304,9961303,9961307],"voronoi":{"lat":35.042209,"lng":135.714583,"delta_lat":[0,-20499,-1373,2236,12002],"delta_lng":[0,-3538,457,4512,139]}},
    {"code":9961303,"id":"8e8673","name":"鳴滝","name_kana":"なるたき","lat":35.023626,"lng":135.705793,"prefecture":26,"lines":[99613],"attr":"cool","postal_code":"616-8234","address":"京都市右京区鳴滝嵯峨園町１-２","next":[9961304,1161407,9961305,9961302,1161405,1161406,9961209,9961208],"voronoi":{"lat":35.026752,"lng":135.694712,"delta_lat":[0,11107,9296,-25445,-1373,-190,3985,1845],"delta_lng":[0,-4536,-1868,22738,457,-77,-13458,-2695]}},
    {"code":9961304,"id":"fdd2f7","name":"宇多野","name_kana":"うたの","lat":35.027145,"lng":135.709731,"prefecture":26,"lines":[99613],"attr":"cool","postal_code":"616-8207","address":"京都市右京区宇多野長尾町１１-１","next":[9961307,9961303,9961305,9960707,9960503,1161407,9960708],"voronoi":{"lat":35.078763,"lng":135.712311,"delta_lat":[0,-36554,-20499,25445,37793,22579,-14956],"delta_lng":[0,2273,-3538,-22738,-11216,-355,19773]}},
    {"code":9961006,"left":9961309,"right":9960709,"id":"14d87e","name":"今出川","name_kana":"いまでがわ","lat":35.030168,"lng":135.759385,"prefecture":26,"lines":[99610],"attr":"eco","postal_code":"602-0032","address":"京都市上京区岡松町","next":[9961005,3300402,9961114,3300401,9961007,9961309],"voronoi":{"lat":35.033779,"lng":135.744633,"delta_lat":[0,0,-9983,-370,-167,2409],"delta_lng":[0,21444,-424,-362,-14934,-4940]}},
    {"code":9961309,"left":9961308,"right":9961114,"id":"0a7b20","name":"北野白梅町","name_kana":"きたのはくばいちょう","lat":35.027409,"lng":135.730846,"prefecture":26,"lines":[99613],"attr":"eco","postal_code":"603-8326","address":"京都市北区北野下白梅町１５-２","next":[1161403,1161404,9961308,9961004,9961114,9961005,9961006],"voronoi":{"lat":35.033779,"lng":135.744633,"delta_lat":[0,5831,21073,-37823,-389,2288,909],"delta_lng":[0,-2040,-13307,-2248,14196,3464,719]}},
    {"code":9961308,"left":1161404,"right":9961307,"id":"4dda60","name":"等持院・立命館大学衣笠キャンパス前","name_kana":"とうじいん・りつめいかんだいがくきぬがさきゃんぱすまえ","lat":35.027828,"lng":135.723797,"prefecture":26,"lines":[99613],"attr":"eco","postal_code":"603-8354","address":"京都市北区等持院西町１５-２","next":[9961004,9960706,9961307,1161404,9961309,1161405],"voronoi":{"lat":35.02224,"lng":135.722455,"delta_lat":[0,48860,-1517,-8900,-37823,-1865],"delta_lng":[0,656,1799,4376,-2248,-2667]}},
    {"code":1161404,"left":9961306,"id":"599b55","name":"円町","name_kana":"えんまち","lat":35.01811,"lng":135.730591,"prefecture":26,"lines":[11614],"attr":"heat","postal_code":"604-8463","address":"京都市中京区西ノ京円町４２番地１","next":[9961309,9961308,1161405,9961116,9961204,1161403],"voronoi":{"lat":35.015007,"lng":135.736443,"delta_lat":[0,-889,1225,5653,1865,-389],"delta_lng":[0,-10740,-1613,282,2667,14196]}},
    {"code":9961306,"id":"6178e6","name":"妙心寺","name_kana":"みょうしんじ","lat":35.026345,"lng":135.718011,"prefecture":26,"lines":[99613],"attr":"heat","postal_code":"616-8021","address":"京都市右京区花園天授ケ岡町３-２","next":[9961305,9961307,1161405],"voronoi":{"lat":35.022574,"lng":135.716015,"delta_lat":[0,12002,-12090],"delta_lng":[0,139,5638]}},
    {"code":9961307,"id":"33f8d4","name":"龍安寺","name_kana":"りょうあんじ","lat":35.027862,"lng":135.721264,"prefecture":26,"lines":[99613],"attr":"heat","postal_code":"616-8012","address":"京都市右京区谷口垣ノ内町９-１","next":[9961304,9961306,9961308,1161405,9960706,9961305,9960707],"voronoi":{"lat":35.078763,"lng":135.712311,"delta_lat":[0,-36554,-7634,-12090,-245,48860,781],"delta_lng":[0,2273,1570,5638,664,656,-874]}},
    {"code":9961114,"left":9961112,"right":9961007,"id":"7c58fa","name":"二条城前","name_kana":"にじょうじょうまえ","lat":35.011892,"lng":135.750473,"prefecture":26,"lines":[99611],"attr":"eco","postal_code":"604-8301","address":"京都市中京区二条城町","next":[9961008,9961006,3400303,9961309,9961007,1161403,3400302],"voronoi":{"lat":35.013465,"lng":135.755395,"delta_lat":[0,9794,2409,-909,-16356,-1552,617],"delta_lng":[0,-5037,-4940,-719,1704,7505,587]}},
    {"code":9961112,"id":"af540c","name":"京都市役所前","name_kana":"きょうとしやくしょまえ","lat":35.011003,"lng":135.768829,"prefecture":26,"lines":[99611],"attr":"heat","postal_code":"604-0084","address":"京都市中京区下丸屋町","next":[9961008,9961007,3400301,3300101,3300402],"voronoi":{"lat":35.016637,"lng":135.765891,"delta_lat":[0,-3027,-6639,407,6015],"delta_lng":[0,-1808,351,4648,3299]}},
    {"code":9961007,"id":"1c36fd","name":"丸太町","name_kana":"まるたまち","lat":35.016554,"lng":135.759537,"prefecture":26,"lines":[99610],"attr":"eco","postal_code":"606-0000","address":"京都市左京区丸太町橋東詰","next":[9961112,9961006,9961114,9961008,3300402],"voronoi":{"lat":35.023426,"lng":135.765291,"delta_lat":[0,-167,-9794,145,3027],"delta_lng":[0,-14934,5037,8688,1808]}},
    {"code":9960709,"left":9960707,"right":9960705,"id":"301cc5","name":"貴船口","name_kana":"きぶねぐち","lat":35.105923,"lng":135.763804,"prefecture":26,"lines":[99607],"attr":"heat","postal_code":"601-1112","address":"京都市左京区鞍馬貴船町５-１","next":[9960710,9960503,1161503,9960708],"voronoi":{"lat":35.109658,"lng":135.675432,"delta_lat":[0,52616,82382,-143924],"delta_lng":[0,-35717,17791,117765]}},
    {"code":9960707,"left":9961005,"right":9960708,"id":"b638a4","name":"市原","name_kana":"いちはら","lat":35.088236,"lng":135.763118,"prefecture":26,"lines":[99607],"attr":"cool","postal_code":"601-1123","address":"京都市左京区静市市原町１２４","next":[9960703,9961304,9960704,9960706,9960708,9961307],"voronoi":{"lat":35.086774,"lng":135.778894,"delta_lat":[0,1959,4335,-496,-13808,-6882],"delta_lng":[0,2502,3141,-88028,15801,9927]}},
    {"code":9961005,"left":9961004,"id":"2a755c","name":"鞍馬口","name_kana":"くらまぐち","lat":35.03739,"lng":135.759385,"prefecture":26,"lines":[99610],"attr":"eco","postal_code":"602-0894","address":"京都市上京区上御霊中町","next":[3300401,9961006,9961309,9961004,9961003],"voronoi":{"lat":35.041995,"lng":135.767534,"delta_lat":[0,-2384,-5831,0,6891],"delta_lng":[0,-24940,2040,21444,4105]}},
    {"code":9961004,"id":"7b8b7c","name":"北大路","name_kana":"きたおおじ","lat":35.044972,"lng":135.75866,"prefecture":26,"lines":[99610],"attr":"eco","postal_code":"603-8142","address":"京都市北区小山北上総町","next":[9961308,9961003,9961309,9960706,9961005],"voronoi":{"lat":35.064222,"lng":135.74926,"delta_lat":[0,5362,-8900,-21073,2384],"delta_lng":[0,-24350,4376,13307,24940]}},
    {"code":9960708,"id":"e30ef9","name":"二ノ瀬","name_kana":"にのせ","lat":35.097657,"lng":135.763065,"prefecture":26,"lines":[99607],"attr":"cool","postal_code":"601-1113","address":"京都市左京区鞍馬二ノ瀬町１６０","next":[9960503,9960710,9960709,9960707,9961304,9960703],"voronoi":{"lat":35.100732,"lng":135.775272,"delta_lat":[0,8926,-2130,-14956,496,1182],"delta_lng":[0,-99839,1304,19773,88028,1328]}},
    {"code":9960705,"left":9961003,"right":9960706,"id":"630746","name":"京都精華大前","name_kana":"きょうとせいかだいまえ","lat":35.073069,"lng":135.768909,"prefecture":26,"lines":[99607],"attr":"eco","postal_code":"601-1123","address":"京都市左京区静市市原町８７１","next":[9960706,9960704,9961003],"voronoi":{"lat":35.064237,"lng":135.750181,"delta_lat":[0,15982,-18339],"delta_lng":[0,24629,-4722]}},
    {"code":9961003,"id":"0bab67","name":"北山(京都)","name_kana":"きたやま","lat":35.051277,"lng":135.766329,"prefecture":26,"lines":[99610],"attr":"eco","postal_code":"603-8053","address":"京都市北区上賀茂岩ケ垣内町","next":[9960704,9960602,9961004,3300401,9961002,9960706,9961005,9960705],"voronoi":{"lat":35.061218,"lng":135.771378,"delta_lat":[0,-19756,-371,-420,1324,22227,16,-2357],"delta_lng":[0,697,-402,-1490,-2649,-18273,921,19907]}},
    {"code":9960706,"id":"135f00","name":"二軒茶屋(京都)","name_kana":"にけんちゃや","lat":35.077743,"lng":135.765876,"prefecture":26,"lines":[99607],"attr":"eco","postal_code":"601-1123","address":"京都市左京区静市市原町９６８","next":[9961308,9961307,9960705,9961004,9961003,9960704,9960707],"voronoi":{"lat":35.071882,"lng":135.722237,"delta_lat":[0,-781,-1517,-5362,16,15982,6554],"delta_lng":[0,874,1799,24350,921,24629,4084]}},
    {"code":3300613,"left":3300612,"right":3300616,"id":"06bd5c","name":"三井寺","name_kana":"みいでら","lat":35.012891,"lng":135.859793,"prefecture":25,"lines":[33006],"attr":"eco","postal_code":"520-0047","address":"大津市浜大津３-６-１２","next":[3300612,1160503,3300706,3300614],"voronoi":{"lat":35.008497,"lng":135.848681,"delta_lat":[0,559,11009,-521],"delta_lng":[0,12042,4226,-2380]}},
    {"code":3300612,"left":1160119,"right":3300607,"id":"43628f","name":"びわ湖浜大津","name_kana":"びわこはまおおつ","lat":35.011283,"lng":135.863982,"prefecture":25,"lines":[33006,33007],"attr":"eco","postal_code":"520-0047","address":"大津市浜大津１-３-８","next":[3300613,3300611,1160118,1160503,3300706],"voronoi":{"lat":35.009055,"lng":135.860724,"delta_lat":[0,11009,5510,-18272,-200],"delta_lng":[0,4226,10788,-9405,-2482]}},
    {"code":1160119,"left":9961105,"right":9961109,"id":"a4984d","name":"山科","name_kana":"やましな","lat":34.992636,"lng":135.816647,"prefecture":26,"lines":[11601,11605,99611],"attr":"heat","postal_code":"607-8009","address":"京都市山科区安朱北屋敷町","next":[9961109,3300615,3300703,3300616,3300702,3300701],"voronoi":{"lat":35.028467,"lng":135.819835,"delta_lat":[0,-1178,-3329,-30457,-3914,31129],"delta_lng":[0,1069,2578,-3038,-12431,7305]}},
    {"code":9961105,"left":3300108,"right":3300703,"id":"c824a0","name":"椥辻","name_kana":"なぎつじ","lat":34.972675,"lng":135.814658,"prefecture":26,"lines":[99611],"attr":"eco","postal_code":"607-8162","address":"京都市山科区椥辻草海道町","next":[9961104,3300701,3300704,1161803,3300106,9961106],"voronoi":{"lat":34.980386,"lng":135.800879,"delta_lat":[0,-4710,-3236,-1946,-8382,11447],"delta_lng":[0,-8494,-70,262,49887,-9395]}},
    {"code":3300108,"left":9961104,"right":1161803,"id":"cc3a93","name":"龍谷大前深草","name_kana":"りゅうこくだいまえふかくさ","lat":34.964247,"lng":135.770154,"prefecture":26,"lines":[33001],"attr":"cool","postal_code":"612-0015","address":"京都市伏見区深草ススハキ町３８","next":[3300107,1161803,3300109,9961014,1161804],"voronoi":{"lat":34.96059,"lng":135.785396,"delta_lat":[0,-105,4979,710,-4595],"delta_lng":[0,-21231,-616,3833,20864]}},
    {"code":9961104,"left":3300109,"id":"b0e879","name":"小野(京都)","name_kana":"おの","lat":34.961218,"lng":135.812733,"prefecture":26,"lines":[99611],"attr":"eco","postal_code":"607-8258","address":"京都市山科区小野西浦","next":[9961105,3300705,1161803,1161804,9961103,3300704],"voronoi":{"lat":34.947407,"lng":135.857494,"delta_lat":[0,12168,2887,8032,-8382,-7870],"delta_lng":[0,-64967,-1009,1059,49887,9594]}},
    {"code":3300109,"id":"e21bea","name":"藤森","name_kana":"ふじのもり","lat":34.956782,"lng":135.770191,"prefecture":26,"lines":[33001],"attr":"heat","postal_code":"612-0027","address":"京都市伏見区深草極楽町７６４","next":[3300110,3102505,9961014,3102506,3300108,1161804],"voronoi":{"lat":34.960485,"lng":135.764166,"delta_lat":[0,-2207,-4664,-365,-1091,8432],"delta_lng":[0,-1020,-14,449,8787,13029]}},
    {"code":1161803,"id":"71db41","name":"稲荷","name_kana":"いなり","lat":34.966758,"lng":135.770707,"prefecture":26,"lines":[11618],"attr":"heat","postal_code":"612-0881","address":"京都市伏見区深草稲荷御前町","next":[9961104,9961105,3300108,1161804,3300107,3300106],"voronoi":{"lat":34.970589,"lng":135.77421,"delta_lat":[0,-4416,-4595,884,8032,1946],"delta_lng":[0,-6827,20864,3272,1059,-262]}},
    {"code":3300703,"left":3300704,"right":3300702,"id":"72e0bd","name":"四宮","name_kana":"しのみや","lat":34.991903,"lng":135.823996,"prefecture":26,"lines":[33007],"attr":"cool","postal_code":"607-8045","address":"京都市山科区四ノ宮堂ノ後町","next":[9961106,1160119,3300704,3300615,3300614,3300702],"voronoi":{"lat":34.986858,"lng":135.820318,"delta_lat":[0,-7371,35374,6059,3041,-30457],"delta_lng":[0,10031,1197,-5090,-2974,-3038]}},
    {"code":3300704,"left":9961106,"id":"099196","name":"追分(滋賀)","name_kana":"おいわけ","lat":34.991445,"lng":135.837528,"prefecture":25,"lines":[33007],"attr":"heat","postal_code":"520-0064","address":"大津市追分町６-２６","next":[3300705,3300703,9961105,9961104,9961106,3300614],"voronoi":{"lat":34.954243,"lng":135.852059,"delta_lat":[0,7870,11447,5927,35374,-8003],"delta_lng":[0,-9594,-9395,-2720,1197,11999]}},
    {"code":9961106,"id":"b2bec1","name":"東野(京都)","name_kana":"ひがしの","lat":34.981841,"lng":135.816602,"prefecture":26,"lines":[99611],"attr":"eco","postal_code":"607-8156","address":"京都市山科区東野片下り町","next":[3300703,3300702,9961105,3300704,3300701],"voronoi":{"lat":34.986858,"lng":135.820318,"delta_lat":[0,-7371,-5927,6827,6767],"delta_lng":[0,10031,2720,-32190,6474]}},
    {"code":3300702,"id":"a2d1dd","name":"京阪山科","name_kana":"けいはんやましな","lat":34.992039,"lng":135.816835,"prefecture":26,"lines":[33007],"attr":"heat","postal_code":"607-8012","address":"京都市山科区安朱桟敷町","next":[9961106,1160119,3300701,3300703],"voronoi":{"lat":34.989589,"lng":135.808014,"delta_lat":[0,-2436,-296,6646],"delta_lng":[0,-660,12965,126]}},
    {"code":9961109,"left":9961111,"right":3300701,"id":"c0c1f1","name":"蹴上","name_kana":"けあげ","lat":35.008037,"lng":135.790227,"prefecture":26,"lines":[99611],"attr":"heat","postal_code":"605-0044","address":"京都市東山区東小物座町","next":[1160119,9960603,9960602,9960604,3300616,3300102,3300103,3300701,9961110],"voronoi":{"lat":34.995766,"lng":135.783497,"delta_lat":[0,-2292,-1813,29057,7749,80,-512,-3339,-2737],"delta_lng":[0,545,1025,30251,4517,-25,-6594,-17641,-8360]}},
    {"code":9961111,"left":3300101,"right":9961110,"id":"840ddd","name":"三条京阪","name_kana":"さんじょうけいはん","lat":35.009278,"lng":135.773773,"prefecture":26,"lines":[99611],"attr":"heat","postal_code":"605-0009","address":"京都市東山区大橋町","next":[3300101,9961110,3300402,3300102],"voronoi":{"lat":35.014249,"lng":135.777003,"delta_lat":[0,-852,-7065,-1254],"delta_lng":[0,-4439,773,3868]}},
    {"code":3300101,"left":3300102,"id":"e81894","name":"三条(京都)","name_kana":"さんじょう","lat":35.009114,"lng":135.772274,"prefecture":26,"lines":[33001,33004],"attr":"eco","postal_code":"605-0000","address":"京都市東山区三条大橋東詰","next":[3400301,9961111,3300402,9961112,3300102],"voronoi":{"lat":35.013396,"lng":135.772564,"delta_lat":[0,-3,-6015,-901,-146],"delta_lng":[0,-183,-3299,1714,2541]}},
    {"code":3300102,"id":"883c86","name":"祇園四条","name_kana":"ぎおんしじょう","lat":35.003689,"lng":135.771961,"prefecture":26,"lines":[33001],"attr":"eco","postal_code":"605-0801","address":"京都市東山区宮川筋一丁目","next":[9961110,3300103,3400301,9961109,3300101,9961111],"voronoi":{"lat":34.995766,"lng":135.783497,"delta_lat":[0,-2292,6030,6973,-146,-1254],"delta_lng":[0,545,-13459,212,2541,3868]}},
    {"code":9961110,"id":"86de15","name":"東山(京都)","name_kana":"ひがしやま","lat":35.009425,"lng":135.780448,"prefecture":26,"lines":[99611],"attr":"heat","postal_code":"605-0022","address":"京都市東山区大井手町","next":[3300102,9960602,9961111,9961109,3300402],"voronoi":{"lat":35.014249,"lng":135.777003,"delta_lat":[0,-9171,-9311,26193,92],"delta_lng":[0,202,6293,3718,-2450]}},
    {"code":3300701,"left":3300705,"right":3300706,"id":"d9b4e5","name":"御陵","name_kana":"みささぎ","lat":34.996158,"lng":135.801637,"prefecture":26,"lines":[33007,99611],"attr":"heat","postal_code":"607-8424","address":"京都市山科区御陵原西町１７-４","next":[9961105,3300106,3300103,1161802,9961109,3300702,9961106,1160119,3300104],"voronoi":{"lat":34.978108,"lng":135.790654,"delta_lat":[0,-2431,4710,6767,2436,31129,-29057,-572,-1707],"delta_lng":[0,1732,8494,6474,660,7305,-30251,8,345]}},
    {"code":3300705,"id":"cfbb14","name":"大谷(滋賀)","name_kana":"おおたに","lat":34.994129,"lng":135.854116,"prefecture":25,"lines":[33007],"attr":"heat","postal_code":"520-0062","address":"大津市大谷町２３-５","next":[3300704,3300606,9961104,9961103,3300614,3300706,3300604,3300601,1160118,1160117],"voronoi":{"lat":34.986773,"lng":135.869308,"delta_lat":[0,11501,8558,25,-52615,-6835,-2016,16855,10421,3587],"delta_lng":[0,-9681,-15626,-455,8513,5436,2018,9223,2346,314]}},
    {"code":3300706,"id":"d04832","name":"上栄町","name_kana":"かみさかえまち","lat":35.00515,"lng":135.860152,"prefecture":25,"lines":[33007],"attr":"cool","postal_code":"520-0045","address":"大津市札の辻１-７","next":[1160118,3300614,3300613,3300705,3300612],"voronoi":{"lat":35.009055,"lng":135.860724,"delta_lat":[0,-559,-1664,-8558,8828],"delta_lng":[0,-12042,-4681,15626,4224]}},
    {"code":3300607,"left":1160116,"right":3300609,"id":"15c0ac","name":"膳所本町","name_kana":"ぜぜほんまち","lat":34.995335,"lng":135.889249,"prefecture":25,"lines":[33006],"attr":"heat","postal_code":"520-0815","address":"大津市膳所２-８-５","next":[3300608,3300606,1160504,1160115,3300605,1160114],"voronoi":{"lat":35.006316,"lng":135.91081,"delta_lat":[0,-8391,-8561,47315,101,-12836],"delta_lng":[0,-10890,-16911,29599,246,1882]}},
    {"code":1160116,"left":3300605,"right":3300602,"id":"c328a7","name":"石山","name_kana":"いしやま","lat":34.97987,"lng":135.900228,"prefecture":25,"lines":[11601],"attr":"heat","postal_code":"520-0832","address":"大津市粟津町","next":[3300604,3300602,3300605,1160115,3300603],"voronoi":{"lat":34.983006,"lng":135.898638,"delta_lat":[0,6150,3401,-10991,-5120],"delta_lng":[0,6547,5162,3176,-12259]}},
    {"code":3300605,"left":3300603,"right":3300606,"id":"a53770","name":"瓦ヶ浜","name_kana":"かわらがはま","lat":34.988266,"lng":135.894696,"prefecture":25,"lines":[33006],"attr":"heat","postal_code":"520-0837","address":"滋賀県大津市中庄一丁目","next":[3300606,3300607,1160115,1160116,3300604],"voronoi":{"lat":34.985023,"lng":135.889408,"delta_lat":[0,12902,8391,-13758,-3401],"delta_lng":[0,10512,10890,-463,-5162]}},
    {"code":3300603,"left":3300604,"id":"d39cb3","name":"京阪石山","name_kana":"けいはんいしやま","lat":34.979639,"lng":135.899651,"prefecture":25,"lines":[33006],"attr":"heat","postal_code":"520-0832","address":"大津市粟津町２番２８号","next":[3300604,3300602,3300601,1160116],"voronoi":{"lat":34.968888,"lng":135.886835,"delta_lat":[0,-3082,17201,-6560],"delta_lng":[0,-10103,21905,2626]}},
    {"code":3300604,"id":"f54860","name":"粟津(滋賀)","name_kana":"あわづ","lat":34.984789,"lng":135.895607,"prefecture":25,"lines":[33006],"attr":"heat","postal_code":"520-0835","address":"大津市別保１-７-６","next":[3300603,1160116,3300705,3300601,3300606,3300605],"voronoi":{"lat":34.985023,"lng":135.889408,"delta_lat":[0,-12355,-10421,3559,17201,6150],"delta_lng":[0,-18326,-2346,7997,21905,6547]}},
    {"code":3300606,"id":"3cba68","name":"中ノ庄","name_kana":"なかのしょう","lat":34.990857,"lng":135.891516,"prefecture":25,"lines":[33006],"attr":"heat","postal_code":"520-0837","address":"大津市中庄２-１６-２","next":[3300605,3300607,3300705,1160117,3300608,3300604],"voronoi":{"lat":34.997924,"lng":135.89992,"delta_lat":[0,-8561,-3889,-9220,-3587,12355],"delta_lng":[0,-16911,-4460,-7153,-314,18326]}},
    {"code":3300602,"left":3300601,"right":1160115,"id":"bf4dc0","name":"唐橋前","name_kana":"からはしまえ","lat":34.973304,"lng":135.90297,"prefecture":25,"lines":[33006],"attr":"heat","postal_code":"520-0854","address":"大津市鳥居川町７-１０","next":[1160116,3300601,3300603,1160115],"voronoi":{"lat":34.968888,"lng":135.886835,"delta_lat":[0,7559,5120,-10023],"delta_lng":[0,14428,12259,6145]}},