{
  "name":"segment13",
  "root":1171622,
  "east":134.155142,
  "west":131.97669,
  "south":34.262003,
  "north":34.3948,
  "station_size":145,
  "node_list":[
    {"code":1171622,"left":9971018,"right":1180205,"id":"88880a","name":"かるが浜","name_kana":"かるがはま","lat":34.263885,"lng":132.517523,"prefecture":34,"lines":[11716],"attr":"heat","postal_code":"737-0862","address":"呉市狩留賀町","next":[1171621,9971027,1161205,9971139,9971141,1161124,1171624,1171625,1171623,1161128],"voronoi":{"lat":34.085798,"lng":132.414778,"delta_lat":[0,186065,3415,-5422,-16784,-2479,-27406,-37615,-12362,-83632],"delta_lng":[0,114303,-29937,-33249,-58303,-3534,-7848,-8517,-2035,26376]}},
    {"code":9971018,"left":1161119,"right":9971015,"id":"9171e7","name":"皆実町六丁目","name_kana":"みなみまちろくちょうめ","lat":34.374169,"lng":132.464454,"prefecture":34,"lines":[99710,99712,99713],"attr":"heat","postal_code":"734-0007","address":"広島市南区皆実町６","next":[9971017,9971308,9971019],"voronoi":{"lat":34.37276,"lng":132.461558,"delta_lat":[0,4147,-3664],"delta_lng":[0,986,8422]}},
    {"code":1161119,"left":9971136,"right":9971023,"id":"db7cf4","name":"五日市","name_kana":"いつかいち","lat":34.366798,"lng":132.367717,"prefecture":34,"lines":[11611],"attr":"heat","postal_code":"731-5125","address":"広島市佐伯区五日市駅前１丁目","next":[9970921,9971128,9971129,9971130],"voronoi":{"lat":34.415392,"lng":132.353601,"delta_lat":[0,-4005,-43653,-2152],"delta_lng":[0,8486,9020,-6272]}},
    {"code":9971136,"left":9971140,"right":9971133,"id":"969130","name":"ＪＡ広島病院前","name_kana":"じぇいえいひろしまびょういんまえ","lat":34.343959,"lng":132.322404,"prefecture":34,"lines":[99711],"attr":"eco","postal_code":"738-0042","address":"廿日市市地御前１-９９６４","next":[9971137,9971135,1161121,9971138],"voronoi":{"lat":34.345713,"lng":132.323818,"delta_lat":[0,3774,-17304,-1890],"delta_lng":[0,-11606,22168,8634]}},
    {"code":9971140,"left":1161123,"right":9971138,"id":"276a04","name":"宮島ボートレース場","name_kana":"みやじまぼーとれーすじょう","lat":34.314425,"lng":132.305006,"prefecture":34,"lines":[99711],"attr":"eco","postal_code":"739-0411","address":"廿日市市宮島口一丁目","next":[1161122,9971137,9971141,1161123,9971139],"voronoi":{"lat":34.313713,"lng":132.303382,"delta_lat":[0,44964,-17076,-21946,-10378],"delta_lng":[0,-45488,30101,20795,7932]}},
    {"code":1161123,"left":1161124,"right":9971141,"id":"fe7354","name":"宮島口","name_kana":"みやじまぐち","lat":34.312081,"lng":132.302689,"prefecture":34,"lines":[11611],"attr":"heat","postal_code":"739-0411","address":"廿日市市宮島口１","next":[1161124,9971140,9971141,9971137],"voronoi":{"lat":34.364546,"lng":132.248136,"delta_lat":[0,-67530,16696,44964],"delta_lng":[0,56195,-948,-45488]}},
    {"code":1161124,"left":1161125,"id":"692395","name":"前空","name_kana":"まえぞら","lat":34.301368,"lng":132.289815,"prefecture":34,"lines":[11611],"attr":"heat","postal_code":"739-0424","address":"廿日市市前空９１０-３番地","next":[9971137,9971141,1161123,1161129,1161128,1171622,1161125],"voronoi":{"lat":34.402081,"lng":132.199006,"delta_lat":[0,-37534,-67530,-111445,-12362,5278,18479],"delta_lng":[0,49129,56195,83362,-2035,-10652,-28914]}},
    {"code":1161125,"id":"81ffbf","name":"大野浦","name_kana":"おおのうら","lat":34.283762,"lng":132.265263,"prefecture":34,"lines":[11611],"attr":"heat","postal_code":"739-0445","address":"廿日市市塩屋沖","next":[1161129,1161127,9971137,9971811,1161126,1161124,1161121],"voronoi":{"lat":34.492453,"lng":132.100496,"delta_lat":[0,-35755,-226296,-2283,-31152,205114,13961],"delta_lng":[0,3299,172676,3617,66004,-147085,-14571]}},
    {"code":9971141,"id":"0b3db7","name":"広電宮島口","name_kana":"ひろでんみやじまぐち","lat":34.31217,"lng":132.304256,"prefecture":34,"lines":[99711],"attr":"eco","postal_code":"739-0411","address":"廿日市市宮島口１-１２-３４","next":[1161124,9971139,9971140,1161123,1171622],"voronoi":{"lat":34.309276,"lng":132.316722,"delta_lat":[0,4436,-16696,-111445,37615],"delta_lng":[0,-13340,948,83362,8517]}},
    {"code":9971138,"left":9971139,"right":9971137,"id":"fffd97","name":"阿品東","name_kana":"あじなひがし","lat":34.326488,"lng":132.318579,"prefecture":34,"lines":[99711],"attr":"eco","postal_code":"738-0054","address":"廿日市市阿品１-２０７０-１１","next":[9971137,9971135,9971133,9971130,1161122,9971027,9971139,9971128,9971129,9971136],"voronoi":{"lat":34.327769,"lng":132.350982,"delta_lat":[0,-6920,-11912,-24974,-6822,-24446,71163,10929,-2604,-1890],"delta_lng":[0,11848,10759,20224,5083,4701,-86463,-8357,25604,8634]}},
    {"code":9971139,"left":1161122,"id":"6f0266","name":"広電阿品","name_kana":"ひろでんあじな","lat":34.321933,"lng":132.31483,"prefecture":34,"lines":[99711],"attr":"eco","postal_code":"738-0054","address":"廿日市市阿品３-２５３３-３","next":[9971027,9971141,1161122,1171622,9971138,9971140],"voronoi":{"lat":34.319655,"lng":132.30879,"delta_lat":[0,4203,-71163,-2102,-27406,86090],"delta_lng":[0,8343,86463,461,-7848,-79487]}},
    {"code":1161122,"id":"6ea846","name":"阿品","name_kana":"あじな","lat":34.323152,"lng":132.314216,"prefecture":34,"lines":[11611],"attr":"heat","postal_code":"738-0054","address":"廿日市市阿品２丁目","next":[9971140,9971137,9971139,9971138],"voronoi":{"lat":34.334787,"lng":132.308777,"delta_lat":[0,6814,-21946,4203],"delta_lng":[0,-20781,20795,8343]}},
    {"code":9971137,"id":"842dfa","name":"地御前","name_kana":"じごぜん","lat":34.340942,"lng":132.320049,"prefecture":34,"lines":[99711],"attr":"eco","postal_code":"738-0042","address":"廿日市市地御前５-２５７９-２","next":[9971140,9971138,1161124,1161121,9971136,1161122,1161125,1161123],"voronoi":{"lat":34.341601,"lng":132.287995,"delta_lat":[0,-6814,-2604,17304,66555,-13961,-37534,-5870],"delta_lng":[0,20781,25604,-22168,-127777,14571,49129,9759]}},
    {"code":9971133,"left":9971134,"right":9971131,"id":"38e23a","name":"広電廿日市","name_kana":"ひろでんはつかいち","lat":34.356621,"lng":132.336179,"prefecture":34,"lines":[99711],"attr":"eco","postal_code":"738-0013","address":"廿日市市廿日市２-１-２５","next":[9971134,9971132,9971135,9971130,9971138,1161120,9971131],"voronoi":{"lat":34.348794,"lng":132.349732,"delta_lat":[0,9901,-2990,-19197,-8740,-6920,3204],"delta_lng":[0,-10399,-6965,11313,7300,11848,-1107]}},
    {"code":9971134,"left":9971135,"right":1161120,"id":"0f7a68","name":"廿日市市役所前（平良）","name_kana":"はつかいちしやくしょまえ(へら)","lat":34.352816,"lng":132.329722,"prefecture":34,"lines":[99711],"attr":"eco","postal_code":"738-0024","address":"廿日市市新宮一丁目","next":[9970919,9971133,1161121,9971135,1161120],"voronoi":{"lat":34.336508,"lng":132.343681,"delta_lat":[0,15107,203472,-4065,-195317],"delta_lng":[0,-17956,-164138,5544,165237]}},
    {"code":9971135,"left":1161121,"id":"09f79d","name":"宮内(広島)","name_kana":"みやうち","lat":34.347472,"lng":132.325226,"prefecture":34,"lines":[99711],"attr":"eco","postal_code":"738-0033","address":"廿日市市串戸２-２３０-３","next":[1161121,9971136,9971138,9971134,9971133],"voronoi":{"lat":34.330292,"lng":132.343015,"delta_lat":[0,15420,5903,-15107,-8740],"delta_lng":[0,-19196,1907,17956,7300]}},
    {"code":1161121,"id":"2b8738","name":"宮内串戸","name_kana":"みやうちくしど","lat":34.347963,"lng":132.323706,"prefecture":34,"lines":[11611],"attr":"heat","postal_code":"738-0033","address":"廿日市市串戸４丁目","next":[9971812,9971137,1170823,9971135,9971134,1170141,9971136,9971811,9970919,1161125],"voronoi":{"lat":34.349487,"lng":132.312212,"delta_lat":[0,-3774,5903,203472,16554,-14948,-59279,-1880,-3082,-76411],"delta_lng":[0,11606,1907,-164138,-21890,-18200,-22242,434,806,83940]}},
    {"code":1161120,"id":"e4d286","name":"廿日市","name_kana":"はつかいち","lat":34.357837,"lng":132.335657,"prefecture":34,"lines":[11611],"attr":"heat","postal_code":"738-0011","address":"廿日市市駅前","next":[9970919,9971132,9971133,9971134],"voronoi":{"lat":34.551022,"lng":132.167131,"delta_lat":[0,-45863,-146464,-2990],"delta_lng":[0,64566,107636,-6965]}},
    {"code":9971131,"left":9971132,"right":9971130,"id":"3ca3ab","name":"楽々園","name_kana":"らくらくえん","lat":34.364282,"lng":132.351988,"prefecture":34,"lines":[99711],"attr":"eco","postal_code":"731-5136","address":"広島市佐伯区楽々園２-５４７-３","next":[9971132,9971130,9970921,9971133],"voronoi":{"lat":34.417029,"lng":132.350618,"delta_lat":[0,12467,-80702,-24742],"delta_lng":[0,-18429,17543,11990]}},
    {"code":9971132,"id":"54144e","name":"山陽女学園前","name_kana":"さんようじょがくえんまえ","lat":34.361948,"lng":132.341251,"prefecture":34,"lines":[99711],"attr":"eco","postal_code":"738-0001","address":"廿日市市佐方岩戸山１４００-４","next":[9970921,9970919,9971131,9971133,1161120],"voronoi":{"lat":34.50516,"lng":132.231698,"delta_lat":[0,-27701,-47962,-80702,9901],"delta_lng":[0,40634,59858,17543,-10399]}},
    {"code":9971130,"id":"21e3a8","name":"佐伯区役所前","name_kana":"さえきくやくしょまえ","lat":34.365443,"lng":132.361709,"prefecture":34,"lines":[99711],"attr":"eco","postal_code":"731-5135","address":"広島市佐伯区海老園２-４-６","next":[1161119,9971131,9971133,9971138,9970921,9971129],"voronoi":{"lat":34.320849,"lng":132.36283,"delta_lat":[0,3204,92977,-1637,-49810,-56646],"delta_lng":[0,-1107,-11104,2982,11234,8754]}},
    {"code":9971023,"left":1171626,"right":9971022,"id":"4b6d16","name":"宇品四丁目","name_kana":"うじなよんちょうめ","lat":34.360079,"lng":132.463925,"prefecture":34,"lines":[99710,99712,99713],"attr":"eco","postal_code":"734-0004","address":"広島市南区宇品神田５","next":[9971026,9971022,1161113,9971027,9971024],"voronoi":{"lat":34.359275,"lng":132.488616,"delta_lat":[0,4099,-983,-2899,-2210],"delta_lng":[0,-34890,823,3874,30974]}},
    {"code":1171626,"left":9971025,"right":1171625,"id":"7f9e81","name":"水尻","name_kana":"みずしり","lat":34.319433,"lng":132.498763,"prefecture":34,"lines":[11716],"attr":"heat","postal_code":"731-4300","address":"安芸郡坂町字水尻","next":[1171627,9971026,1171625,9971027,9971025],"voronoi":{"lat":34.319062,"lng":132.520743,"delta_lat":[0,-38975,42572,1725,16934],"delta_lng":[0,-86594,32551,1518,16832]}},
    {"code":9971025,"left":9971026,"right":9971024,"id":"de9100","name":"海岸通","name_kana":"かいがんどおり","lat":34.354898,"lng":132.463081,"prefecture":34,"lines":[99710,99712,99713],"attr":"eco","postal_code":"734-0011","address":"広島市南区宇品海岸３","next":[9971026,9971024,1171627,1171626],"voronoi":{"lat":34.351075,"lng":132.488379,"delta_lat":[0,6051,-32742,16934],"delta_lng":[0,-27746,7585,16832]}},
    {"code":9971026,"left":9971027,"id":"182e47","name":"元宇品口","name_kana":"もとうじなぐち","lat":34.354048,"lng":132.459412,"prefecture":34,"lines":[99710,99712,99713],"attr":"eco","postal_code":"734-0011","address":"広島市南区宇品海岸１","next":[9971023,9971024,9971025,1171626,9971027],"voronoi":{"lat":34.362391,"lng":132.454549,"delta_lat":[0,-2899,-2367,-32742,-1725],"delta_lng":[0,3874,2210,7585,-1518]}},
    {"code":9971027,"id":"7fd37a","name":"広島港（宇品）","name_kana":"ひろしまこう(うじな)","lat":34.352755,"lng":132.455184,"prefecture":34,"lines":[99710,99712,99713],"attr":"eco","postal_code":"734-0011","address":"広島市南区宇品海岸一丁目","next":[1171625,9971139,9971420,9971017,1171622,1171626,9971026,9971023,9971128,9971138,9971127,9971022],"voronoi":{"lat":34.365202,"lng":132.451455,"delta_lat":[0,519,-36117,-31655,-20808,-24446,-2102,2479,27015,42572,39733,983],"delta_lng":[0,-2649,-37251,-8668,-3992,4701,461,3534,26557,32551,-12151,-823]}},
    {"code":9971024,"id":"2cabb5","name":"宇品五丁目","name_kana":"うじなごちょうめ","lat":34.358131,"lng":132.463786,"prefecture":34,"lines":[99710,99712,99713],"attr":"eco","postal_code":"734-0004","address":"広島市南区宇品神田５","next":[9971026,1161113,9971025,1171627,9971023],"voronoi":{"lat":34.359493,"lng":132.458422,"delta_lat":[0,-2367,-6051,4376,1832],"delta_lng":[0,2210,27746,1817,-799]}},
    {"code":1171625,"left":1171624,"right":1171627,"id":"2a05ab","name":"小屋浦","name_kana":"こやうら","lat":34.302363,"lng":132.506446,"prefecture":34,"lines":[11716],"attr":"heat","postal_code":"731-4331","address":"安芸郡坂町小屋浦","next":[9971027,1171624,1171628,1171626,1171627,1171622],"voronoi":{"lat":34.253072,"lng":132.407592,"delta_lat":[0,27015,38975,-2208,-542,-46456],"delta_lng":[0,26557,86594,18674,1057,-74579]}},
    {"code":1171624,"id":"6987b2","name":"呉ポートピア","name_kana":"くれぽーとぴあ","lat":34.29192,"lng":132.512951,"prefecture":34,"lines":[11716],"attr":"heat","postal_code":"737-0884","address":"呉市天応伝十原町","next":[1171623,1171625,1171628,1171622],"voronoi":{"lat":34.312359,"lng":132.553002,"delta_lat":[0,3953,-46456,5422],"delta_lng":[0,-12528,-74579,33249]}},
    {"code":1171627,"id":"df96d2","name":"坂","name_kana":"さか","lat":34.338635,"lng":132.510736,"prefecture":34,"lines":[11716],"attr":"heat","postal_code":"731-4300","address":"安芸郡坂町","next":[1161113,1171626,1171628,9971025,1171625,9971024],"voronoi":{"lat":34.3582,"lng":132.513186,"delta_lat":[0,-41347,2208,22256,9757,4376],"delta_lng":[0,26230,-18674,-35693,3329,1817]}},
    {"code":9971022,"left":9971127,"right":9971020,"id":"d1cffc","name":"宇品三丁目","name_kana":"うじなさんちょうめ","lat":34.364216,"lng":132.464411,"prefecture":34,"lines":[99710,99712,99713],"attr":"heat","postal_code":"734-0004","address":"広島市南区宇品神田３","next":[9971023,9971017,1161113,9971021,9971027],"voronoi":{"lat":34.359275,"lng":132.488616,"delta_lat":[0,4652,1903,-629,-1827],"delta_lng":[0,-1383,-34323,-1454,2270]}},
    {"code":9971127,"left":9971128,"right":9971420,"id":"994226","name":"井口(広島)","name_kana":"いのくち","lat":34.371751,"lng":132.385805,"prefecture":34,"lines":[99711],"attr":"heat","postal_code":"733-0842","address":"広島市西区井口２-７９９-１４","next":[9971420,9971128,9971126,9971027,1161118],"voronoi":{"lat":34.335524,"lng":132.411467,"delta_lat":[0,-5920,-31655,107015,-30868],"delta_lng":[0,88,-8668,-33709,19422]}},
    {"code":9971128,"left":9971129,"id":"fb7594","name":"修大協創中高前","name_kana":"しゅうだいきょうそうちゅうこうまえ","lat":34.368218,"lng":132.374589,"prefecture":34,"lines":[99711],"attr":"heat","postal_code":"733-0842","address":"広島市西区井口４-２３-１","next":[1161119,9970921,9971127,9971027,1161118,9971138,9971129],"voronoi":{"lat":34.27714,"lng":132.398896,"delta_lat":[0,20808,107015,4450,1974,-43653,-83772],"delta_lng":[0,3992,-33709,-1895,-5197,9020,22706]}},
    {"code":9971129,"id":"9dfbec","name":"広電五日市","name_kana":"ひろでんいつかいち","lat":34.366393,"lng":132.367856,"prefecture":34,"lines":[99711],"attr":"eco","postal_code":"731-5133","address":"広島市佐伯区旭園２-７２０-９","next":[1161119,9971138,9971128,9971130],"voronoi":{"lat":34.365582,"lng":132.364834,"delta_lat":[0,2152,-83772,24974],"delta_lng":[0,6272,22706,-20224]}},
    {"code":9971420,"id":"601545","name":"江波(広島)","name_kana":"えば","lat":34.372496,"lng":132.436044,"prefecture":34,"lines":[99714,99716],"attr":"cool","postal_code":"730-0832","address":"広島市中区江波東１","next":[9971017,9971027,9971419,9971123,9971127,9971126,9971124,9971122,9971125],"voronoi":{"lat":34.368326,"lng":132.417508,"delta_lat":[0,7676,3192,-10768,-2706,-36117,5920,1579,21665],"delta_lng":[0,4300,2920,23753,325,-37251,-88,105,3227]}},
    {"code":9971020,"left":9971021,"right":9971019,"id":"e0fe8b","name":"県病院前","name_kana":"けんびょういんまえ","lat":34.36875,"lng":132.464797,"prefecture":34,"lines":[99710,99712,99713],"attr":"heat","postal_code":"734-0004","address":"広島市南区宇品神田１","next":[1161113,9971021,9971017,9971308,9971019],"voronoi":{"lat":34.370552,"lng":132.485902,"delta_lat":[0,-5492,3177,1574,1497],"delta_lng":[0,1047,-29554,1991,20319]}},
    {"code":9971021,"id":"12da79","name":"宇品二丁目","name_kana":"うじなにちょうめ","lat":34.366164,"lng":132.464519,"prefecture":34,"lines":[99710,99712,99713],"attr":"heat","postal_code":"734-0004","address":"広島市南区宇品神田２","next":[9971020,9971022,1161113,9971017],"voronoi":{"lat":34.365061,"lng":132.486948,"delta_lat":[0,-1133,1903,2407],"delta_lng":[0,284,-34323,4485]}},
    {"code":9971019,"id":"9bbb73","name":"広大附属学校前","name_kana":"ひろだいふぞくがっこうまえ","lat":34.371654,"lng":132.464583,"prefecture":34,"lines":[99710,99712,99713],"attr":"heat","postal_code":"734-0007","address":"広島市南区皆実町６","next":[9971017,9971308,9971020,9971018],"voronoi":{"lat":34.371308,"lng":132.479704,"delta_lat":[0,-1497,2948,483],"delta_lng":[0,-20319,2172,9408]}},
    {"code":9971015,"left":9971416,"right":9971304,"id":"5cb433","name":"日赤病院前","name_kana":"にっせきびょういんまえ","lat":34.380952,"lng":132.455871,"prefecture":34,"lines":[99710,99712,99715],"attr":"heat","postal_code":"730-0052","address":"広島市中区千田町１","next":[9971012,9971014,9971307,9971306,9971419,9971013,9971418,9971016],"voronoi":{"lat":34.373277,"lng":132.448038,"delta_lat":[0,282,3071,7365,1220,17,-125,-2988],"delta_lng":[0,-89,-115,9349,4242,285,23,-175]}},
    {"code":9971416,"left":9971419,"right":9971115,"id":"69c076","name":"舟入本町","name_kana":"ふないりほんまち","lat":34.385556,"lng":132.442632,"prefecture":34,"lines":[99714,99716],"attr":"heat","postal_code":"730-0843","address":"広島市中区舟入本町","next":[9971014,9971417,9971415,9971118],"voronoi":{"lat":34.387599,"lng":132.436585,"delta_lat":[0,-6744,3710,5279],"delta_lng":[0,11006,698,-8429]}},
    {"code":9971419,"left":9971125,"right":9971417,"id":"f81345","name":"舟入南","name_kana":"ふないりみなみ","lat":34.375099,"lng":132.437224,"prefecture":34,"lines":[99714,99716],"attr":"cool","postal_code":"730-0847","address":"広島市中区舟入南５","next":[9971122,9971418,9971017,9971016,9971420,9971121,9971015],"voronoi":{"lat":34.369262,"lng":132.448474,"delta_lat":[0,-835,10768,1074,2117,-8827,-282],"delta_lng":[0,8,-23753,787,2095,20339,89]}},
    {"code":9971125,"left":9971126,"right":9971124,"id":"6fdf2b","name":"草津南","name_kana":"くさつみなみ","lat":34.378092,"lng":132.398479,"prefecture":34,"lines":[99711],"attr":"heat","postal_code":"733-0863","address":"広島市西区草津南３-１８４８","next":[9971126,9971124,9971420,1161118],"voronoi":{"lat":34.337103,"lng":132.411572,"delta_lat":[0,21665,47973,-29868],"delta_lng":[0,3227,-30958,11350]}},
    {"code":9971126,"left":1161118,"id":"6ba663","name":"商工センター入口","name_kana":"しょうこうせんたーいりぐち","lat":34.375423,"lng":132.391999,"prefecture":34,"lines":[99711],"attr":"heat","postal_code":"733-0842","address":"広島市西区井口１-８２６-３３","next":[9971125,1161118,9971420,9971127],"voronoi":{"lat":34.374096,"lng":132.3886,"delta_lat":[0,2777,-39770,-1579],"delta_lng":[0,6591,16381,-105]}},
    {"code":1161118,"id":"5a44c1","name":"新井口","name_kana":"しんいのくち","lat":34.375601,"lng":132.391924,"prefecture":34,"lines":[11611],"attr":"heat","postal_code":"733-0842","address":"広島市西区井口１丁目","next":[9970921,9971126,9971124,9971128,9971127,9971125],"voronoi":{"lat":34.374096,"lng":132.3886,"delta_lat":[0,30868,4450,-2231,-442,-29868],"delta_lng":[0,-19422,-1895,16337,221,11350]}},
    {"code":9971124,"id":"342886","name":"草津(広島)","name_kana":"くさつ","lat":34.3816,"lng":132.403915,"prefecture":34,"lines":[99711],"attr":"heat","postal_code":"733-0861","address":"広島市西区草津東３-２４３-１","next":[9970921,9971123,9971125,1161118,9971420],"voronoi":{"lat":34.358767,"lng":132.4148,"delta_lat":[0,47973,442,638,-39494],"delta_lng":[0,-30958,-221,8974,24914]}},
    {"code":9971417,"left":9971418,"right":9971014,"id":"814450","name":"舟入幸町","name_kana":"ふないりさいわいちょう","lat":34.383139,"lng":132.441151,"prefecture":34,"lines":[99714,99716],"attr":"heat","postal_code":"730-0844","address":"広島市中区舟入幸町","next":[9971014,9971418,9971416,9971118],"voronoi":{"lat":34.380856,"lng":132.44759,"delta_lat":[0,-3452,8730,1466],"delta_lng":[0,79,-14786,3701]}},
    {"code":9971418,"id":"28f5ef","name":"舟入川口町","name_kana":"ふないりかわぐちちょう","lat":34.380341,"lng":132.439499,"prefecture":34,"lines":[99714,99716],"attr":"heat","postal_code":"730-0847","address":"広島市中区舟入南１","next":[9971419,9971417,9971014,9971118,9971119,9971121,9971015],"voronoi":{"lat":34.37663,"lng":132.447835,"delta_lat":[0,774,8730,-72,-1337,-2339,-8827],"delta_lng":[0,-165,-14786,-372,-3495,-1406,20339]}},
    {"code":9971014,"id":"116a82","name":"鷹野橋","name_kana":"たかのばし","lat":34.383431,"lng":132.453918,"prefecture":34,"lines":[99710,99712,99715],"attr":"cool","postal_code":"730-0052","address":"広島市中区千田町１","next":[9971417,9971015,9971418,9971415,9971416,9971013],"voronoi":{"lat":34.385777,"lng":132.449069,"delta_lat":[0,-1212,-3710,-3452,-774,7365],"delta_lng":[0,-781,-698,79,165,9349]}},
    {"code":9971115,"left":9971121,"right":9971012,"id":"46f23f","name":"小網町","name_kana":"こあみちょう","lat":34.394543,"lng":132.44422,"prefecture":34,"lines":[99711,99712],"attr":"cool","postal_code":"730-0855","address":"広島市中区小網町","next":[9971415,9971116,9971113,9971114],"voronoi":{"lat":34.396645,"lng":132.44503,"delta_lat":[0,1962,-7097,509],"delta_lng":[0,-1946,-1309,3821]}},
    {"code":9971121,"left":9971122,"right":9971118,"id":"352e05","name":"東高須","name_kana":"ひがしたかす","lat":34.391922,"lng":132.420224,"prefecture":34,"lines":[99711],"attr":"heat","postal_code":"733-0871","address":"広島市西区高須１-５３４-４","next":[9971120,1161117,9971419,9970921,9971418,9971122,9971119],"voronoi":{"lat":34.382386,"lng":132.427611,"delta_lat":[0,-2117,31159,2099,-18117,-6641,-4044],"delta_lng":[0,-2095,-20157,4530,13807,4415,906]}},
    {"code":9971122,"left":9971123,"id":"911f4a","name":"高須(広島)","name_kana":"たかす","lat":34.389872,"lng":132.417055,"prefecture":34,"lines":[99711],"attr":"heat","postal_code":"733-0871","address":"広島市西区高須１-４５０-１０","next":[9971419,9971123,9970921,9971420,9971121],"voronoi":{"lat":34.411428,"lng":132.405358,"delta_lat":[0,-1749,-33676,3192,1074],"delta_lng":[0,-4692,21142,2920,787]}},
    {"code":9971123,"id":"beb257","name":"古江","name_kana":"ふるえ","lat":34.386311,"lng":132.411383,"prefecture":34,"lines":[99711],"attr":"heat","postal_code":"733-0872","address":"広島市西区古江東町９７７-６","next":[9971124,9971122,9970921,9971420],"voronoi":{"lat":34.409679,"lng":132.400666,"delta_lat":[0,-1858,-39494,7676],"delta_lng":[0,-8072,24914,4300]}},
    {"code":9971118,"id":"c6d365","name":"西観音町","name_kana":"にしかんおんまち","lat":34.393976,"lng":132.43686,"prefecture":34,"lines":[99711,99712],"attr":"heat","postal_code":"733-0037","address":"広島市西区西観音町","next":[9971418,9971415,9971116,9971417,9971416,9971119,9971117],"voronoi":{"lat":34.396356,"lng":132.436018,"delta_lat":[0,-10295,72,1466,2245,480,2903],"delta_lng":[0,-3506,372,3701,3275,283,-969]}},
    {"code":9971012,"left":9971013,"right":9971415,"id":"ae895e","name":"中電前","name_kana":"ちゅうでんまえ","lat":34.388779,"lng":132.455399,"prefecture":34,"lines":[99710,99712,99715],"attr":"cool","postal_code":"730-0051","address":"広島市中区大手町３","next":[9971015,9971007,9971011,9971306,9971415,9971114,9971112,9971006,9971013],"voronoi":{"lat":34.385232,"lng":132.461711,"delta_lat":[0,1485,184,1156,3583,-153,-629,-1980,-3663],"delta_lng":[0,616,-88,-739,-10586,-254,-417,-84,11267]}},
    {"code":9971013,"id":"8fddb4","name":"市役所前(広島)","name_kana":"しやくしょまえ","lat":34.385875,"lng":132.454455,"prefecture":34,"lines":[99710,99712,99715],"attr":"cool","postal_code":"730-0051","address":"広島市中区大手町４","next":[9971415,9971014,9971012,9971015],"voronoi":{"lat":34.383995,"lng":132.457183,"delta_lat":[0,1783,3100,-3663],"delta_lng":[0,-8114,1089,11267]}},
    {"code":9971415,"id":"1a9f68","name":"舟入町","name_kana":"ふないりまち","lat":34.389222,"lng":132.444928,"prefecture":34,"lines":[99714,99716],"attr":"heat","postal_code":"730-0841","address":"広島市中区舟入町","next":[9971115,9971012,9971013,9971014,9971118,9971114,9971416,9971116],"voronoi":{"lat":34.392018,"lng":132.445595,"delta_lat":[0,-1161,-1980,-3100,-1212,5279,480,1185],"delta_lng":[0,4647,-84,-1089,-781,-8429,283,1632]}},
    {"code":9971304,"left":9971306,"right":9971006,"id":"755614","name":"段原一丁目","name_kana":"だんばらいっちょうめ","lat":34.390306,"lng":132.474071,"prefecture":34,"lines":[99713],"attr":"eco","postal_code":"732-0811","address":"広島市南区段原１","next":[1161114,9971305,9971004,9971003],"voronoi":{"lat":34.392131,"lng":132.473569,"delta_lat":[0,-2356,-13481,11578],"delta_lng":[0,-2275,14698,166]}},
    {"code":9971306,"left":9971308,"right":9971305,"id":"721266","name":"比治山橋","name_kana":"ひじやまばし","lat":34.383272,"lng":132.468681,"prefecture":34,"lines":[99713],"attr":"eco","postal_code":"732-0816","address":"広島市南区比治山本町","next":[9971307,9971012,1161114,1161113,9971305,9971015,9971006],"voronoi":{"lat":34.386716,"lng":132.462326,"delta_lat":[0,-1485,-125,-13137,1932,948,12999],"delta_lng":[0,-616,23,24290,342,-214,-20645]}},
    {"code":9971308,"left":9971017,"right":9971307,"id":"16b355","name":"皆実町二丁目","name_kana":"みなみまちにちょうめ","lat":34.377375,"lng":132.465849,"prefecture":34,"lines":[99713],"attr":"eco","postal_code":"734-0007","address":"広島市南区皆実町２","next":[9971020,9971019,1161113,9971018,9971016,9971307,9971017],"voronoi":{"lat":34.373242,"lng":132.470966,"delta_lat":[0,-1934,-756,145,9993,-2222,-1562],"delta_lng":[0,8739,6197,3,-23875,0,514]}},
    {"code":9971017,"left":9971016,"id":"2c4c0f","name":"御幸橋","name_kana":"みゆきばし","lat":34.375321,"lng":132.459605,"prefecture":34,"lines":[99710,99712],"attr":"heat","postal_code":"730-0052","address":"広島市中区千田町３","next":[9971420,9971019,9971018,9971022,9971419,9971027,9971020,9971021,9971016,9971308],"voronoi":{"lat":34.378468,"lng":132.46203,"delta_lat":[0,-9207,-835,-2706,-519,629,2407,1574,2948,4147],"delta_lng":[0,-13556,8,325,2649,1454,4485,1991,2172,986]}},
    {"code":9971016,"id":"85fad4","name":"広電本社前","name_kana":"ひろでんほんしゃまえ","lat":34.377375,"lng":132.45821,"prefecture":34,"lines":[99710,99712,99715],"attr":"heat","postal_code":"730-0052","address":"広島市中区千田町３","next":[9971419,9971308,9971307,9971017,9971015],"voronoi":{"lat":34.373277,"lng":132.448038,"delta_lat":[0,-4015,9207,2222,1428],"delta_lng":[0,435,13556,0,-471]}},
    {"code":9971307,"id":"0660a4","name":"南区役所前","name_kana":"みなみくやくしょまえ","lat":34.380297,"lng":132.467072,"prefecture":34,"lines":[99713],"attr":"eco","postal_code":"732-0816","address":"広島市南区比治山本町","next":[1161113,9971015,9971306,9971308,9971016],"voronoi":{"lat":34.370698,"lng":132.485904,"delta_lat":[0,1272,13137,-2988,-1428],"delta_lng":[0,119,-24290,-175,471]}},
    {"code":9971305,"left":1161113,"right":1161114,"id":"e77b5c","name":"比治山下","name_kana":"ひじやました","lat":34.386963,"lng":132.471005,"prefecture":34,"lines":[99713],"attr":"eco","postal_code":"732-0817","address":"広島市南区比治山町","next":[9971006,9971304,9971004,9971306,1161114,9971005],"voronoi":{"lat":34.389775,"lng":132.471294,"delta_lat":[0,-13481,-1445,12999,452,1721],"delta_lng":[0,14698,159,-20645,491,3385]}},
    {"code":1161113,"id":"2801b9","name":"向洋","name_kana":"むかいなだ","lat":34.376636,"lng":132.506191,"prefecture":34,"lines":[11611,11716],"attr":"heat","postal_code":"735-0017","address":"安芸郡府中町青崎南","next":[1161112,9971307,9971020,9971023,1171627,1171628,9971022,9971024,9971306,9971021,1161114,9971308],"voronoi":{"lat":34.370552,"lng":132.485902,"delta_lat":[0,-5492,-1133,-4652,-1993,-1832,2750,2818,34103,-21220,-1932,-1272],"delta_lng":[0,1047,284,1383,781,799,22991,2688,6368,-35877,-342,-119]}},
    {"code":1161114,"id":"ab30bc","name":"天神川","name_kana":"てんじんがわ","lat":34.389959,"lng":132.498311,"prefecture":34,"lines":[11611,11716],"attr":"heat","postal_code":"732-0801","address":"広島市南区東駅町２８７","next":[9971304,1171445,9971003,1161112,9971306,1161113,9971305,9971002],"voronoi":{"lat":34.396071,"lng":132.522769,"delta_lat":[0,-949,-21220,948,1445,11578,818,5338],"delta_lng":[0,-527,-35877,-214,-159,166,117,1216]}},
    {"code":9971006,"left":9971007,"right":9971005,"id":"c74e14","name":"胡町","name_kana":"えびすちょう","lat":34.393401,"lng":132.465076,"prefecture":34,"lines":[99710,99711,99714],"attr":"cool","postal_code":"730-0021","address":"広島市中区胡町","next":[9971005,9971007,9971305,9971012,9971702,9971306],"voronoi":{"lat":34.3883,"lng":132.465997,"delta_lat":[0,7434,-128,-8706,-184,1132],"delta_lng":[0,709,-1887,-2581,88,3180]}},
    {"code":9971007,"left":9970901,"right":9971008,"id":"e0dfd4","name":"八丁堀(広島)","name_kana":"はっちょうぼり","lat":34.393897,"lng":132.463403,"prefecture":34,"lines":[99710,99711,99714,99717],"attr":"cool","postal_code":"730-0021","address":"広島市中区胡町","next":[9971011,9971012,9971006,9971702,9971008],"voronoi":{"lat":34.389616,"lng":132.460912,"delta_lat":[0,-1559,-1156,8706,742],"delta_lng":[0,588,739,2581,-2121]}},
    {"code":9970901,"left":9971011,"id":"fafc81","name":"本通","name_kana":"ほんどおり","lat":34.393377,"lng":132.457003,"prefecture":34,"lines":[99709,99710,99712,99715],"attr":"heat","postal_code":"730-0035","address":"広島市中区本通６-３０","next":[9971011,9971009,9971111,9971110,9971008],"voronoi":{"lat":34.393156,"lng":132.459189,"delta_lat":[0,1266,-41,-1177,-2077],"delta_lng":[0,-1875,-2204,-1062,5767]}},
    {"code":9971011,"id":"3f3a08","name":"袋町","name_kana":"ふくろまち","lat":34.391187,"lng":132.456214,"prefecture":34,"lines":[99710,99712,99715],"attr":"cool","postal_code":"730-0051","address":"広島市中区大手町２","next":[9971007,9970901,9971112,9971012,9971008,9971111],"voronoi":{"lat":34.391127,"lng":132.459814,"delta_lat":[0,-1512,-1559,3583,223,1342],"delta_lng":[0,1097,588,-10586,224,2910]}},
    {"code":9971008,"id":"e4a8ad","name":"立町","name_kana":"たてまち","lat":34.394569,"lng":132.460871,"prefecture":34,"lines":[99710,99711,99714],"attr":"cool","postal_code":"730-0032","address":"広島市中区立町","next":[9971011,9971009,9971702,9970902,9971007,9970901],"voronoi":{"lat":34.389616,"lng":132.460912,"delta_lat":[0,6733,1525,-1947,-2770,-2029],"delta_lng":[0,1787,-1273,-1692,-545,626]}},
    {"code":9971005,"left":9971004,"right":9971003,"id":"799db5","name":"銀山町","name_kana":"かなやまちょう","lat":34.393135,"lng":132.467866,"prefecture":34,"lines":[99710,99711,99714],"attr":"cool","postal_code":"730-0022","address":"広島市中区銀山町","next":[9971006,9971004,9971702,100312,9971305,9971703,9971001],"voronoi":{"lat":34.390022,"lng":132.469382,"delta_lat":[0,-1721,7434,1891,264,-172,-238],"delta_lng":[0,-3385,709,2871,702,96,100]}},
    {"code":9971004,"id":"26f8c7","name":"稲荷町(広島)","name_kana":"いなりまち","lat":34.392569,"lng":132.471728,"prefecture":34,"lines":[99710,99711,99714],"attr":"cool","postal_code":"732-0827","address":"広島市南区稲荷町","next":[9971005,9971001,9971003,9971305,9971304],"voronoi":{"lat":34.389775,"lng":132.471294,"delta_lat":[0,246,7458,-2446,-2902],"delta_lng":[0,-1912,1093,2480,614]}},
    {"code":9971003,"id":"500f85","name":"的場町","name_kana":"まとばちょう","lat":34.393277,"lng":132.475076,"prefecture":34,"lines":[99710,99711,99713,99714],"attr":"cool","postal_code":"732-0824","address":"広島市南区的場町１","next":[9971004,1161114,9971002,9971001,9971304],"voronoi":{"lat":34.38869,"lng":132.486275,"delta_lat":[0,6225,118,-2902,-4259],"delta_lng":[0,-12230,-1090,614,12589]}},
    {"code":1180205,"left":9980210,"right":1180204,"id":"b65f5b","name":"木太町","name_kana":"きたちょう","lat":34.331928,"lng":134.079889,"prefecture":37,"lines":[11802],"attr":"cool","postal_code":"760-0080","address":"高松市木太町","next":[9980305,9980404,9980405,9980306,9980406],"voronoi":{"lat":34.332625,"lng":134.091128,"delta_lat":[0,5403,-5789,-6392,-419],"delta_lng":[0,-13286,-7044,7998,16034]}},
    {"code":9980210,"left":1171611,"right":9980310,"id":"442afb","name":"円座","name_kana":"えんざ","lat":34.284479,"lng":134.009285,"prefecture":37,"lines":[99802],"attr":"heat","postal_code":"761-8044","address":"高松市円座町１４６９-２","next":[9980211,1180604,9980209,1180603],"voronoi":{"lat":34.301351,"lng":133.991968,"delta_lat":[0,-8046,-35397,53610],"delta_lng":[0,-4011,25139,5863]}},
    {"code":1171611,"left":1180611,"right":1180608,"id":"7c4150","name":"風早","name_kana":"かざはや","lat":34.303234,"lng":132.795789,"prefecture":34,"lines":[11716],"attr":"cool","postal_code":"739-2403","address":"東広島市安芸津町風早","next":[1171610,1180646,1171609,100311,1171612,1180644,1171613],"voronoi":{"lat":34.224375,"lng":132.795662,"delta_lat":[0,111960,11532,-93344,-61614,-11530,-5087],"delta_lng":[0,-41607,27506,63473,15306,-16318,-16213]}},
    {"code":1180611,"left":1171612,"right":1180606,"id":"70395f","name":"丸亀","name_kana":"まるがめ","lat":34.291976,"lng":133.792918,"prefecture":37,"lines":[11806],"attr":"eco","postal_code":"763-0022","address":"丸亀市浜町","next":[9980218,1180612,1180103,1180102,9971901,1171006],"voronoi":{"lat":34.364733,"lng":133.758142,"delta_lat":[0,-157,-97954,-7045,-853,1030],"delta_lng":[0,-6856,43690,20006,14342,1077]}},
    {"code":1171612,"left":1180101,"right":1180612,"id":"a05e8d","name":"安浦","name_kana":"やすうら","lat":34.284013,"lng":132.744067,"prefecture":34,"lines":[11716],"attr":"eco","postal_code":"737-2516","address":"呉市安浦町中央１丁目","next":[1171616,1171611,1161109,1161108,100311,1171613,1161110],"voronoi":{"lat":34.329481,"lng":132.651192,"delta_lat":[0,-1647,-103459,111960,12465,-1876,-4338],"delta_lng":[0,789,143681,-41607,-83940,-5407,-4062]}},
    {"code":1180101,"left":1171623,"id":"fc4501","name":"多度津","name_kana":"たどつ","lat":34.271238,"lng":133.757235,"prefecture":37,"lines":[11801,11806],"attr":"cool","postal_code":"764-0011","address":"仲多度郡多度津町栄町３丁目","next":[1180102,9971901,1180612,1180614],"voronoi":{"lat":34.266622,"lng":133.775258,"delta_lat":[0,101521,6465,-127384],"delta_lng":[0,-69457,-33558,80902]}},
    {"code":1171623,"id":"cee971","name":"天応","name_kana":"てんのう","lat":34.282238,"lng":132.519617,"prefecture":34,"lines":[11716],"attr":"heat","postal_code":"737-0881","address":"呉市天応塩谷町","next":[1171621,1171620,1171624,1171628,1171619,1171622],"voronoi":{"lat":34.278589,"lng":132.550658,"delta_lat":[0,5215,23448,5107,-37081,-3415],"delta_lng":[0,8096,23217,-28970,-53858,29937]}},
    {"code":1180612,"id":"119835","name":"讃岐塩屋","name_kana":"さぬきしおや","lat":34.285093,"lng":133.777486,"prefecture":37,"lines":[11806],"attr":"eco","postal_code":"763-0065","address":"丸亀市塩屋町","next":[1180102,1180611,1180101,9971901],"voronoi":{"lat":34.368143,"lng":133.705801,"delta_lat":[0,-101521,0,97954],"delta_lng":[0,69457,19718,-43690]}},
    {"code":1180606,"left":9980211,"right":1180605,"id":"0d9d0d","name":"讃岐府中","name_kana":"さぬきふちゅう","lat":34.291404,"lng":133.923917,"prefecture":37,"lines":[11806],"attr":"eco","postal_code":"762-0024","address":"坂出市府中町","next":[9980215,9980214,1180605,1180607,9980222,9980216],"voronoi":{"lat":34.269748,"lng":133.923912,"delta_lat":[0,2702,2856,36178,-37006,-3954],"delta_lng":[0,14601,4908,-18532,-30768,8988]}},
    {"code":9980211,"left":9980212,"id":"406047","name":"岡本(香川)","name_kana":"おかもと","lat":34.270261,"lng":133.989265,"prefecture":37,"lines":[99802],"attr":"heat","postal_code":"761-8047","address":"高松市岡本町１５５４-３","next":[9980210,9980208,9980212,9980209,1180604],"voronoi":{"lat":34.257908,"lng":134.013096,"delta_lat":[0,-18351,-23366,66486,10628],"delta_lng":[0,7036,5789,-55393,17429]}},
    {"code":9980212,"id":"ea336d","name":"挿頭丘","name_kana":"かざしがおか","lat":34.262007,"lng":133.979358,"prefecture":37,"lines":[99802],"attr":"cool","postal_code":"761-2101","address":"綾歌郡綾川町畑田５６２-３","next":[1180604,9980211,9980208,1180320,9980213],"voronoi":{"lat":34.281821,"lng":133.967262,"delta_lat":[0,857,-66486,-54963,-7441],"delta_lng":[0,3266,55393,19548,-28937]}},
    {"code":1180605,"id":"498c6a","name":"国分(香川)","name_kana":"こくぶ","lat":34.300541,"lng":133.941754,"prefecture":37,"lines":[11806],"attr":"heat","postal_code":"769-0102","address":"高松市国分寺町国分","next":[1180606,1180607,9980213,1180603,9980214,1180604],"voronoi":{"lat":34.360494,"lng":133.945088,"delta_lat":[0,17941,-66950,-36178,1011,4844],"delta_lng":[0,-8579,-11619,18532,8425,6746]}},
    {"code":1180608,"left":1171610,"right":1180607,"id":"521815","name":"八十場","name_kana":"やそば","lat":34.312804,"lng":133.885306,"prefecture":37,"lines":[11806],"attr":"eco","postal_code":"762-0021","address":"坂出市西庄町","next":[9980217,9971903,9980216,1180609,1170915,1180607],"voronoi":{"lat":34.410728,"lng":133.901366,"delta_lat":[0,-18089,-119074,-116,1522,127688],"delta_lng":[0,-29227,-1609,7814,6625,37896]}},
    {"code":1171610,"left":1180609,"right":1171609,"id":"807c13","name":"安芸津","name_kana":"あきつ","lat":34.318227,"lng":132.817838,"prefecture":34,"lines":[11716],"attr":"cool","postal_code":"739-2402","address":"東広島市安芸津町三津","next":[1161105,1171611,100311,1171609],"voronoi":{"lat":34.347867,"lng":132.781561,"delta_lat":[0,33106,-1940,-124510],"delta_lng":[0,40472,16794,6207]}},
    {"code":1180609,"left":1171006,"id":"f3fba3","name":"坂出","name_kana":"さかいで","lat":34.313189,"lng":133.856819,"prefecture":37,"lines":[11806],"attr":"eco","postal_code":"762-0045","address":"坂出市元町１丁目","next":[1171006,9971903,1180608,9980218,9980217],"voronoi":{"lat":34.392639,"lng":133.872139,"delta_lat":[0,-18697,-107654,364,6913],"delta_lng":[0,-47185,17267,8243,20066]}},
    {"code":1171006,"id":"60d264","name":"宇多津","name_kana":"うたづ","lat":34.306271,"lng":133.813686,"prefecture":37,"lines":[11710,11806],"attr":"cool","postal_code":"769-0203","address":"綾歌郡宇多津町浜三番丁","next":[1180609,9971903,9971901,9980218,1180611],"voronoi":{"lat":34.364733,"lng":133.758142,"delta_lat":[0,7992,1217,-107654,-6534],"delta_lng":[0,43962,22850,17267,-11820]}},
    {"code":1171609,"id":"4c1adc","name":"吉名","name_kana":"よしな","lat":34.320616,"lng":132.86576,"prefecture":34,"lines":[11716],"attr":"cool","postal_code":"725-0013","address":"竹原市吉名町","next":[1180644,1171607,1171611,1171608,1161105,1171610],"voronoi":{"lat":34.192909,"lng":132.86034,"delta_lat":[0,25133,10360,157468,-6837,-124510],"delta_lng":[0,73559,-2610,-67488,-24974,6207]}},
    {"code":1180607,"left":1180604,"right":1180603,"id":"3d228e","name":"鴨川","name_kana":"かもがわ","lat":34.306863,"lng":133.905324,"prefecture":37,"lines":[11806],"attr":"eco","postal_code":"762-0024","address":"坂出市府中町西福寺","next":[1180603,1180605,1180606,1170915,1180608,9980216],"voronoi":{"lat":34.274971,"lng":133.884968,"delta_lat":[0,127688,-2326,-21899,-66950,-37006],"delta_lng":[0,37896,9044,4600,-11619,-30768]}},
    {"code":1180604,"id":"180f29","name":"端岡","name_kana":"はしおか","lat":34.305021,"lng":133.968071,"prefecture":37,"lines":[11806],"attr":"heat","postal_code":"769-0101","address":"高松市国分寺町新居","next":[9980212,1180603,9980210,9980213,1180605,9980211],"voronoi":{"lat":34.301351,"lng":133.991968,"delta_lat":[0,59142,-79332,659,857,10628],"delta_lng":[0,-46881,13505,8670,3266,17429]}},
    {"code":1180603,"id":"c460c0","name":"鬼無","name_kana":"きなし","lat":34.325455,"lng":133.99385,"prefecture":37,"lines":[11806],"attr":"heat","postal_code":"761-8023","address":"高松市鬼無町佐藤","next":[1180607,1180602,9980206,1180604,1180605,9980210,1170915,1180203,9980209],"voronoi":{"lat":34.313698,"lng":134.020657,"delta_lat":[0,335,87026,-725,-21899,-17941,-59142,10167,609],"delta_lng":[0,-61,-85624,-3063,4600,8579,46881,26991,900]}},
    {"code":9980310,"left":9980312,"right":9980306,"id":"3bf8f5","name":"高田(香川)","name_kana":"たかた","lat":34.288506,"lng":134.112155,"prefecture":37,"lines":[99803],"attr":"eco","postal_code":"761-0323","address":"高松市亀田町３８１-３","next":[9980411,9980415,9980309,9980207,9980313,9980311],"voronoi":{"lat":34.255774,"lng":134.07967,"delta_lat":[0,7253,49004,-6728,-2255,-360],"delta_lng":[0,-552,49122,11251,1660,-308]}},
    {"code":9980312,"left":9980209,"right":9980314,"id":"e82313","name":"農学部前","name_kana":"のうがくぶまえ","lat":34.273814,"lng":134.125739,"prefecture":37,"lines":[99803],"attr":"eco","postal_code":"761-0701","address":"木田郡三木町池戸２８５２-６","next":[9980311,9980207,1180318,9980313],"voronoi":{"lat":34.163792,"lng":134.095708,"delta_lat":[0,2031,54187,69740],"delta_lng":[0,-24276,6126,56019]}},
    {"code":9980209,"left":9980311,"right":9980207,"id":"dbecbd","name":"一宮","name_kana":"いちのみや","lat":34.283027,"lng":134.022561,"prefecture":37,"lines":[99802],"attr":"heat","postal_code":"761-8084","address":"高松市一宮町５０４-５","next":[9980208,9980206,9980211,9980210,1180603],"voronoi":{"lat":34.311518,"lng":134.01896,"delta_lat":[0,-53610,-18351,57032,15538],"delta_lng":[0,-5863,7036,10324,-10597]}},
    {"code":9980311,"left":9980208,"id":"e1e28c","name":"池戸","name_kana":"いけのべ","lat":34.27866,"lng":134.119706,"prefecture":37,"lines":[99803],"attr":"eco","postal_code":"761-0701","address":"木田郡三木町池戸３３６２-３","next":[9980312,9980207,9980313,9980310],"voronoi":{"lat":34.255774,"lng":134.07967,"delta_lat":[0,-35765,69740,12939],"delta_lng":[0,-2112,56019,7266]}},
    {"code":9980208,"id":"9f99f2","name":"空港通り","name_kana":"くうこうどおり","lat":34.28112,"lng":134.033096,"prefecture":37,"lines":[99802],"attr":"heat","postal_code":"761-8085","address":"高松市寺井町２７７番地３","next":[9980209,9980206,9980211,1180318,9980212,1180320,9980207],"voronoi":{"lat":34.16137,"lng":134.056506,"delta_lat":[0,-141,54963,23366,57032,-3611,-129235],"delta_lng":[0,-11036,-19548,-5789,10324,5014,28446]}},
    {"code":9980207,"id":"c7b02d","name":"仏生山","name_kana":"ぶっしょうざん","lat":34.283213,"lng":134.042605,"prefecture":37,"lines":[99802],"attr":"heat","postal_code":"760-0000","address":"高松市仏生山町３０２-１","next":[9980309,9980311,9980206,9980312,9980310,1180318,9980208,9980307,9980308],"voronoi":{"lat":34.263028,"lng":134.079118,"delta_lat":[0,-7253,-35765,-54187,-2079,129235,-7498,-40,-19991],"delta_lng":[0,552,-2112,-6126,-7515,-28446,35203,26,7919]}},
    {"code":9980314,"left":9980315,"right":9980313,"id":"3defe2","name":"学園通り","name_kana":"がくえんどおり","lat":34.270576,"lng":134.136998,"prefecture":37,"lines":[99803],"attr":"eco","postal_code":"761-0703","address":"木田郡三木町鹿伏２０８-２","next":[1180211,9980415,9980315,9980313,1180318],"voronoi":{"lat":34.162845,"lng":134.104352,"delta_lat":[0,139323,-3550,-2278,-134670],"delta_lng":[0,38276,7435,1627,-38701]}},
    {"code":9980315,"id":"f62a3e","name":"白山(香川)","name_kana":"しらやま","lat":34.266707,"lng":134.150461,"prefecture":37,"lines":[99803],"attr":"eco","postal_code":"761-0700","address":"木田郡三木町白山９６７-５","next":[9980316,1180317,1180211,9980314,1180318],"voronoi":{"lat":34.161185,"lng":134.152586,"delta_lat":[0,133608,1548,-134670,-2199],"delta_lng":[0,896,-1793,-38701,10959]}},
    {"code":9980313,"id":"59f4f0","name":"平木","name_kana":"ひらぎ","lat":34.272134,"lng":134.131327,"prefecture":37,"lines":[99803],"attr":"eco","postal_code":"761-0702","address":"木田郡三木町平木１１３-２","next":[9980415,9980310,1180318,9980311,9980314,9980312],"voronoi":{"lat":34.302688,"lng":134.140842,"delta_lat":[0,360,-880,-139323,946,125958],"delta_lng":[0,308,1477,-38276,-8644,37869]}},
    {"code":9980306,"left":9980305,"right":9980308,"id":"85c958","name":"木太東口","name_kana":"きたひがしぐち","lat":34.319718,"lng":134.07957,"prefecture":37,"lines":[99803],"attr":"heat","postal_code":"760-0080","address":"高松市木太町４００７-７","next":[1180206,9980406,1180205,9980305,9980307],"voronoi":{"lat":34.309583,"lng":134.069431,"delta_lat":[0,16264,-419,-1855,-1291],"delta_lng":[0,9365,16034,2152,740]}},
    {"code":9980305,"left":9980205,"right":9980204,"id":"54a939","name":"林道","name_kana":"はやしみち","lat":34.32344,"lng":134.073106,"prefecture":37,"lines":[99803],"attr":"cool","postal_code":"760-0080","address":"高松市木太町１６０９-２","next":[1180205,9980206,9980204,9980403,9980307,9980404,9980306,9980205,9980304],"voronoi":{"lat":34.332191,"lng":134.069799,"delta_lat":[0,48,-6392,-16264,-3966,1038,15544,246,9009],"delta_lng":[0,998,7998,-9365,-4853,-935,-2448,57,7109]}},
    {"code":9980205,"left":9980206,"id":"b1828f","name":"三条(香川)","name_kana":"さんじょう","lat":34.319718,"lng":134.049478,"prefecture":37,"lines":[99802],"attr":"heat","postal_code":"761-8064","address":"高松市上之町２-１２４４-３","next":[1180203,9980204,9980206,9980305],"voronoi":{"lat":34.313801,"lng":134.021481,"delta_lat":[0,11681,-3282,-15544],"delta_lng":[0,21350,18364,2448]}},
    {"code":9980206,"id":"5586f0","name":"太田(香川)","name_kana":"おおた","lat":34.298989,"lng":134.045965,"prefecture":37,"lines":[99802],"attr":"heat","postal_code":"761-8074","address":"高松市太田上町７０５-６","next":[9980305,1180203,9980208,1180603,9980207,9980209,9980307,9980205],"voronoi":{"lat":34.305618,"lng":134.064578,"delta_lat":[0,-20137,7498,3611,15538,1570,103,-7145],"delta_lng":[0,6096,-35203,-5014,-10597,797,824,42162]}},
    {"code":9980204,"id":"96bc75","name":"栗林公園","name_kana":"りつりんこうえん","lat":34.328586,"lng":134.051063,"prefecture":37,"lines":[99802],"attr":"heat","postal_code":"760-0073","address":"高松市栗林町３-８３０","next":[1180204,9980305,9980205,9980304,1180203],"voronoi":{"lat":34.325643,"lng":134.059112,"delta_lat":[0,-3198,-246,3282,8163],"delta_lng":[0,2140,-57,-18364,4812]}},
    {"code":9980308,"left":9980309,"right":9980307,"id":"54da35","name":"水田","name_kana":"みずた","lat":34.303056,"lng":134.092699,"prefecture":37,"lines":[99803],"attr":"heat","postal_code":"761-0312","address":"高松市東山崎町５８-２","next":[1180206,9980309,9980307,9980207],"voronoi":{"lat":34.285441,"lng":134.0707,"delta_lat":[0,35074,-4358,-50707],"delta_lng":[0,28852,8926,-29859]}},
    {"code":9980309,"id":"7a828f","name":"西前田","name_kana":"にしまえだ","lat":34.296004,"lng":134.104675,"prefecture":37,"lines":[99803],"attr":"heat","postal_code":"761-0322","address":"高松市前田東町１０４７-２","next":[9980411,9980308,9980207,9980310,1180206,1180207],"voronoi":{"lat":34.312032,"lng":134.128239,"delta_lat":[0,-49004,2422,50707,-1719,-802],"delta_lng":[0,-49122,-499,29859,15785,2170]}},
    {"code":9980307,"id":"c6c229","name":"元山(香川)","name_kana":"もとやま","lat":34.310424,"lng":134.083742,"prefecture":37,"lines":[99803],"attr":"heat","postal_code":"761-0311","address":"高松市元山町９７４-２","next":[9980305,9980206,1180206,9980308,9980207,9980306],"voronoi":{"lat":34.320514,"lng":134.099551,"delta_lat":[0,-35074,40,20137,3966,12699],"delta_lng":[0,-28852,-26,-6096,4853,28291]}},
    {"code":1180204,"left":1180202,"right":9980405,"id":"1ec4a8","name":"栗林","name_kana":"りつりん","lat":34.332181,"lng":134.053571,"prefecture":37,"lines":[11802],"attr":"cool","postal_code":"760-0071","address":"高松市藤塚町３丁目","next":[9980204,9980203,1180203,9980304],"voronoi":{"lat":34.335902,"lng":134.055586,"delta_lat":[0,-1218,-1039,-8001],"delta_lng":[0,-7770,-174,11469]}},
    {"code":1180202,"left":1171604,"right":1171603,"id":"dfb06d","name":"昭和町(香川)","name_kana":"しょうわちょう","lat":34.343882,"lng":134.032141,"prefecture":37,"lines":[11802],"attr":"cool","postal_code":"760-0014","address":"高松市昭和町１丁目","next":[1180203,1180201,1180602],"voronoi":{"lat":34.343381,"lng":134.041324,"delta_lat":[0,60789,-78544],"delta_lng":[0,-28456,10185]}},
    {"code":1171604,"left":1171608,"right":9980203,"id":"2facd0","name":"安芸幸崎","name_kana":"あきさいざき","lat":34.338165,"lng":133.040096,"prefecture":34,"lines":[11716],"attr":"cool","postal_code":"729-2252","address":"三原市幸崎町能地","next":[1171605,100310,1180642,1171603,1180643,1161102,1180640],"voronoi":{"lat":34.384307,"lng":133.039835,"delta_lat":[0,4275,-13956,-160816,-30298,-10516,-148],"delta_lng":[0,-6203,-18909,4201,102238,62708,10560]}},
    {"code":1171608,"left":1171605,"right":1171607,"id":"a99429","name":"竹原","name_kana":"たけはら","lat":34.33945,"lng":132.909705,"prefecture":34,"lines":[11716],"attr":"cool","postal_code":"725-0026","address":"竹原市中央一丁目","next":[1161103,1161102,1171609,1161105,1171607],"voronoi":{"lat":34.38587,"lng":132.863802,"delta_lat":[0,16324,5035,-7180,-171647],"delta_lng":[0,21829,33358,6487,5814]}},
    {"code":1171605,"left":1171606,"id":"d1c99c","name":"忠海","name_kana":"ただのうみ","lat":34.33689,"lng":132.991289,"prefecture":34,"lines":[11716],"attr":"cool","postal_code":"729-2311","address":"竹原市忠海町徳浜","next":[1171604,1161102,1171606,1180643],"voronoi":{"lat":34.218094,"lng":132.973175,"delta_lat":[0,154553,1979,-160816],"delta_lng":[0,4938,36611,4201]}},
    {"code":1171606,"id":"a58103","name":"安芸長浜","name_kana":"あきながはま","lat":34.337804,"lng":132.962681,"prefecture":34,"lines":[11716],"attr":"cool","postal_code":"729-2311","address":"竹原市忠海町西長浜","next":[1161102,1180643,1180644,1171605,1171607],"voronoi":{"lat":34.372648,"lng":132.978113,"delta_lat":[0,-154553,-786,731,160668],"delta_lng":[0,-4938,-30178,-8899,26380]}},
    {"code":1171607,"id":"e4ea48","name":"大乗","name_kana":"おおのり","lat":34.340656,"lng":132.945311,"prefecture":34,"lines":[11716],"attr":"cool","postal_code":"729-2313","address":"竹原市高崎町","next":[1180644,1161102,1171609,1171608,1171606],"voronoi":{"lat":34.400049,"lng":132.925476,"delta_lat":[0,-171647,-10360,-2,160668],"delta_lng":[0,5814,2610,198,26380]}},
    {"code":9980203,"left":1180203,"right":1180602,"id":"f7d4e0","name":"瓦町","name_kana":"かわらまち","lat":34.338827,"lng":134.052529,"prefecture":37,"lines":[99802,99803,99804],"attr":"cool","postal_code":"760-0054","address":"高松市常磐町１-３-１","next":[9980202,1180204,1180203,9980402,9980304,1180201],"voronoi":{"lat":34.342142,"lng":134.054802,"delta_lat":[0,-4468,-1772,-1218,7666,1550],"delta_lng":[0,1965,-1181,-7770,-3242,3239]}},
    {"code":1180203,"id":"922d86","name":"栗林公園北口","name_kana":"りつりんこうえんきたぐち","lat":34.334188,"lng":134.041561,"prefecture":37,"lines":[11802],"attr":"cool","postal_code":"760-0008","address":"高松市中野町","next":[9980205,1180202,9980206,1180204,9980203,1180602,9980204,1180201,1180603],"voronoi":{"lat":34.313801,"lng":134.021481,"delta_lat":[0,11681,8163,1039,7666,1032,-17755,-11594,-335],"delta_lng":[0,21350,4812,174,-3242,-3251,-18271,-2457,61]}},
    {"code":1180602,"id":"60946c","name":"香西","name_kana":"こうざい","lat":34.34096,"lng":134.009609,"prefecture":37,"lines":[11806],"attr":"heat","postal_code":"760-0093","address":"高松市鶴市町","next":[1180603,1170915,1180201,1180203,1180202],"voronoi":{"lat":34.404171,"lng":134.012867,"delta_lat":[0,22958,-26070,-87026,11594],"delta_lng":[0,-6043,-71853,85624,2457]}},
    {"code":1171603,"left":100311,"right":9980201,"id":"610656","name":"須波","name_kana":"すなみ","lat":34.370061,"lng":133.083724,"prefecture":34,"lines":[11716],"attr":"cool","postal_code":"723-0031","address":"三原市須波町","next":[100310,1180640,1161019,1161018,1171604,1180630],"voronoi":{"lat":34.171285,"lng":133.206044,"delta_lat":[0,1563,211459,1102,-64418,-149149],"delta_lng":[0,-11614,-154595,49662,69970,47500]}},
    {"code":100311,"left":1171628,"right":1161111,"id":"9046b9","name":"東広島","name_kana":"ひがしひろしま","lat":34.3893,"lng":132.759702,"prefecture":34,"lines":[1003],"attr":"cool","postal_code":"739-0026","address":"広島県東広島市三永１丁目４","next":[1161131,1171611,1161105,1171610,1171612,1161107,1161106,1161108],"voronoi":{"lat":34.398254,"lng":132.719574,"delta_lat":[0,20006,-17209,-20079,-33106,-11532,12465,30582],"delta_lng":[0,53324,34267,14869,-40472,-27506,-83940,23972]}},
    {"code":1171628,"left":1161112,"id":"b17648","name":"矢野","name_kana":"やの","lat":34.352081,"lng":132.531931,"prefecture":34,"lines":[11716],"attr":"heat","postal_code":"736-0085","address":"広島市安芸区矢野西１丁目","next":[1161113,1171627,1161111,1171625,1171624,1171618,1171623,1161112,1171619],"voronoi":{"lat":34.307251,"lng":132.581971,"delta_lat":[0,5107,3953,542,41347,2818,2869,-43423,-10526],"delta_lng":[0,-28970,-12528,-1057,-26230,2688,41333,54050,-18030]}},
    {"code":1161112,"id":"e5e7dd","name":"海田市","name_kana":"かいたいち","lat":34.372089,"lng":132.530542,"prefecture":34,"lines":[11611,11716],"attr":"heat","postal_code":"736-0068","address":"安芸郡海田町新町","next":[1161113,1171445,1161111,1161114,1171628],"voronoi":{"lat":34.361019,"lng":132.515875,"delta_lat":[0,34103,949,11150,-43333],"delta_lng":[0,6368,527,9263,25175]}},
    {"code":1161111,"id":"771a90","name":"安芸中野","name_kana":"あきなかの","lat":34.391115,"lng":132.563291,"prefecture":34,"lines":[11611],"attr":"cool","postal_code":"739-0321","address":"広島市安芸区中野２丁目","next":[1171444,1161112,1171445,1171439,1171628,1171440,9970803,1171618,1161110],"voronoi":{"lat":34.320464,"lng":132.611257,"delta_lat":[0,43423,43333,18215,7616,280,18,-219,-108677],"delta_lng":[0,-54050,-25175,2281,4977,861,2281,328,85469]}},
    {"code":9980201,"left":1180201,"right":1161019,"id":"6e6c73","name":"高松築港","name_kana":"たかまつちっこう","lat":34.35079,"lng":134.049507,"prefecture":37,"lines":[99802,99803],"attr":"cool","postal_code":"760-0000","address":"高松市多玉藻町９７-２","next":[9980405,9980202,1180201,9980404,9980409,1170915,9980406],"voronoi":{"lat":34.48681,"lng":134.097815,"delta_lat":[0,-33886,-108317,22463,21921,33772,33753],"delta_lng":[0,-51021,1452,21498,9223,9739,6530]}},
    {"code":1180201,"id":"a3a37a","name":"高松(香川)","name_kana":"たかまつ","lat":34.350754,"lng":134.046821,"prefecture":37,"lines":[11802,11806],"attr":"cool","postal_code":"760-0011","address":"高松市浜ノ町","next":[1170915,9980202,9980201,1180202,1180602,1180203,9980203],"voronoi":{"lat":34.342349,"lng":134.044574,"delta_lat":[0,1032,60789,22958,25796,-108317,-708],"delta_lng":[0,-3251,-28456,-6043,39970,1452,-433]}},
    {"code":1161019,"id":"df3be8","name":"糸崎","name_kana":"いとざき","lat":34.392429,"lng":133.104317,"prefecture":34,"lines":[11610,11716],"attr":"eco","postal_code":"729-0324","address":"三原市糸崎町","next":[100309,1171603,100310,1161018],"voronoi":{"lat":34.385409,"lng":133.089498,"delta_lat":[0,84687,-57298,-91807],"delta_lng":[0,32082,25037,12851]}},
    {"code":9980405,"left":1180208,"right":9980407,"id":"d5f984","name":"春日川","name_kana":"かすががわ","lat":34.340969,"lng":134.083566,"prefecture":37,"lines":[99804],"attr":"eco","postal_code":"760-0080","address":"高松市木太町２７０８","next":[9980201,9980406,1180205,9980404],"voronoi":{"lat":34.422764,"lng":134.088706,"delta_lat":[0,-90138,5403,50963],"delta_lng":[0,2421,-13286,1126]}},
    {"code":1180208,"left":9980403,"right":9980412,"id":"63ca53","name":"八栗口","name_kana":"やくりぐち","lat":34.340419,"lng":134.134682,"prefecture":37,"lines":[11802],"attr":"cool","postal_code":"761-0122","address":"高松市牟礼町大町","next":[9980410,1180207,9980411],"voronoi":{"lat":34.313966,"lng":134.126496,"delta_lat":[0,25869,3176],"delta_lng":[0,1480,11954]}},
    {"code":9980403,"left":1180206,"right":9980408,"id":"81ab41","name":"松島二丁目","name_kana":"まつしまにちょうめ","lat":34.339986,"lng":134.064626,"prefecture":37,"lines":[99804],"attr":"eco","postal_code":"760-0067","address":"高松市松福町２-１５-２","next":[9980305,9980304,9980402,9980404,9980202],"voronoi":{"lat":34.351697,"lng":134.064676,"delta_lat":[0,-13636,-6607,737,22093],"delta_lng":[0,-3712,7397,1439,-3572]}},
    {"code":1180206,"left":9980304,"id":"f5287a","name":"屋島","name_kana":"やしま","lat":34.336655,"lng":134.109102,"prefecture":37,"lines":[11802],"attr":"cool","postal_code":"761-0104","address":"高松市高松町帰来","next":[9980306,9980408,9980308,1180207,9980307,9980406,9980309,9980407],"voronoi":{"lat":34.335624,"lng":134.1022,"delta_lat":[0,-12050,-1291,-1768,-4358,-1719,19199,6542],"delta_lng":[0,-5219,740,1830,8926,15785,-7075,-8209]}},
    {"code":9980304,"id":"0a7754","name":"花園(香川)","name_kana":"はなぞの","lat":34.334206,"lng":134.059463,"prefecture":37,"lines":[99803],"attr":"cool","postal_code":"760-0072","address":"高松市花園町１-１３１１-１０","next":[9980403,9980402,9980204,9980203,1180204,9980305],"voronoi":{"lat":34.322445,"lng":134.061252,"delta_lat":[0,3198,10258,1772,388,-6607],"delta_lng":[0,-2140,-3525,1181,4196,7397]}},
    {"code":9980408,"id":"715601","name":"古高松","name_kana":"ふるたかまつ","lat":34.340844,"lng":134.11244,"prefecture":37,"lines":[99804],"attr":"cool","postal_code":"761-0104","address":"高松市高松町１５-２","next":[1180206,1180207,9980409,9980407],"voronoi":{"lat":34.340178,"lng":134.108978,"delta_lat":[0,-6542,10840,14878],"delta_lng":[0,8209,-407,-5562]}},
    {"code":9980412,"left":1180209,"right":9980411,"id":"419cba","name":"八栗新道","name_kana":"やくりしんみち","lat":34.336705,"lng":134.147295,"prefecture":37,"lines":[99804],"attr":"cool","postal_code":"761-0122","address":"高松市牟礼町大町１３８９-７","next":[9980410,9980411,1180209,9980413],"voronoi":{"lat":34.341669,"lng":134.152008,"delta_lat":[0,-9105,18468,24523],"delta_lng":[0,-8155,1952,11048]}},
    {"code":1180209,"id":"c4ed09","name":"讃岐牟礼","name_kana":"さぬきむれ","lat":34.336439,"lng":134.147592,"prefecture":37,"lines":[11802],"attr":"cool","postal_code":"761-0122","address":"高松市牟礼町大町","next":[9980415,9980412,9980411,9980413,9980414],"voronoi":{"lat":34.341669,"lng":134.152008,"delta_lat":[0,-9105,-25943,10037,10633],"delta_lng":[0,-8155,-3718,6267,3976]}},
    {"code":9980411,"id":"e4d9a2","name":"大町(香川)","name_kana":"おおまち","lat":34.337333,"lng":134.141354,"prefecture":37,"lines":[99804],"attr":"cool","postal_code":"761-0122","address":"高松市牟礼町大町１５３２-５","next":[9980310,9980309,9980415,1180207,9980410,9980412,1180208,1180209],"voronoi":{"lat":34.351032,"lng":134.145806,"delta_lat":[0,-8021,-29045,-330,-1604,-6728,1317,25943],"delta_lng":[0,-5875,-13434,-64,1807,11251,645,3718]}},
    {"code":9980407,"left":9980402,"right":9980410,"id":"79f436","name":"琴電屋島","name_kana":"ことでんやしま","lat":34.341624,"lng":134.105763,"prefecture":37,"lines":[99804],"attr":"cool","postal_code":"761-0112","address":"高松市屋島中町２７０-１","next":[9980408,9980409,9980406,1180206],"voronoi":{"lat":34.359354,"lng":134.111218,"delta_lat":[0,68944,-92675,4555],"delta_lng":[0,-12229,3211,6778]}},
    {"code":9980402,"left":9980406,"right":9980202,"id":"9ae8ee","name":"今橋","name_kana":"いまばし","lat":34.341577,"lng":134.058782,"prefecture":37,"lines":[99804],"attr":"eco","postal_code":"760-0068","address":"高松市松島町１-３-２１","next":[9980202,9980304,9980203,9980403],"voronoi":{"lat":34.338062,"lng":134.060964,"delta_lat":[0,-388,4468,9556],"delta_lng":[0,-4196,-1965,9873]}},
    {"code":9980406,"left":9980404,"id":"01ffc9","name":"潟元","name_kana":"かたもと","lat":34.341363,"lng":134.098231,"prefecture":37,"lines":[99804],"attr":"eco","postal_code":"761-0113","address":"高松市屋島西町１７２３-５","next":[9980306,9980405,9980409,1180206,9980407,1180205,9980201],"voronoi":{"lat":34.422764,"lng":134.088706,"delta_lat":[0,-90138,-7197,-1855,12050,92675,28218],"delta_lng":[0,2421,3702,2152,5219,-3211,-3753]}},
    {"code":9980404,"id":"1ec8a1","name":"沖松島","name_kana":"おきまつしま","lat":34.341219,"lng":134.072253,"prefecture":37,"lines":[99804],"attr":"eco","postal_code":"760-0066","address":"高松市福岡町４-３２-１","next":[9980202,1180205,9980201,9980305,9980405,9980403],"voronoi":{"lat":34.354285,"lng":134.066228,"delta_lat":[0,12786,21921,-50963,-5789,-48],"delta_lng":[0,3517,9223,-1126,-7044,-998]}},
    {"code":9980202,"id":"ae7727","name":"片原町(香川)","name_kana":"かたはらまち","lat":34.346138,"lng":134.054368,"prefecture":37,"lines":[99802,99803],"attr":"cool","postal_code":"760-0035","address":"高松市鶴屋町９-１","next":[9980203,9980201,9980402,1180201,9980404,9980403],"voronoi":{"lat":34.367071,"lng":134.069744,"delta_lat":[0,-22463,-708,-1758,9556,2587],"delta_lng":[0,-21498,-433,6989,9873,1552]}},
    {"code":9980410,"left":1180207,"right":9980409,"id":"a83b5e","name":"六万寺","name_kana":"ろくまんじ","lat":34.342655,"lng":134.134088,"prefecture":37,"lines":[99804],"attr":"cool","postal_code":"761-0121","address":"高松市牟礼町牟礼１０９７-２","next":[9980412,1180208,9980411,1163115,9980409,1180207,9980413],"voronoi":{"lat":34.511332,"lng":134.156007,"delta_lat":[0,-170294,-1203,3176,8021,24523,142201],"delta_lng":[0,-28170,140,11954,5875,11048,47765]}},
    {"code":1180207,"id":"f207bf","name":"古高松南","name_kana":"ふるたかまつみなみ","lat":34.34118,"lng":134.121381,"prefecture":37,"lines":[11802],"attr":"cool","postal_code":"761-0104","address":"高松市高松町","next":[9980411,9980409,9980408,1180206,1180208,9980410,9980309],"voronoi":{"lat":34.313966,"lng":134.126496,"delta_lat":[0,25869,1203,3439,-10840,-19199,-802],"delta_lng":[0,1480,-140,-11056,407,7075,2170]}},
    {"code":9980409,"id":"79097f","name":"八栗","name_kana":"やくり","lat":34.344582,"lng":134.122439,"prefecture":37,"lines":[99804],"attr":"cool","postal_code":"761-0121","address":"高松市牟礼町牟礼２２１６-２","next":[1180207,9980410,9980201,1163115,9980406,9980408,9980407,1170915,1163116],"voronoi":{"lat":34.505993,"lng":134.11492,"delta_lat":[0,-19183,-30294,-28218,-68944,-14878,-3439,170294,-1998],"delta_lng":[0,-17105,-2579,3753,12229,5562,11056,28170,-20604]}}
  ]
}