{
  "name":"segment58",
  "root":9911009,
  "east":141.465907,
  "west":140.998611,
  "south":40.171061,
  "north":43.068612,
  "station_size":155,
  "node_list":[
    {"code":9911009,"left":1120307,"right":9910417,"id":"a73179","name":"藤の沢","name_kana":"ふじのさわ","closed":true,"lat":42.9615,"lng":141.307889,"prefecture":1,"lines":[99110],"postal_code":"061-2282","address":"北海道札幌市南区藤野２条２丁目１-２４","open_date":"1918-10-17","closed_date":"1969-11-01","next":[1110430,9911010,9910411,1110429,9911008,9911014],"voronoi":{"lat":42.755065,"lng":141.310151,"delta_lat":[0,18055,227474,2591,-238345,-12674],"delta_lng":[0,63097,-61120,-6010,-19369,804]},"impl":false},
    {"code":1120307,"left":9920410,"right":9922402,"id":"99da67","name":"近川","name_kana":"ちかがわ","lat":41.191687,"lng":141.279021,"prefecture":2,"lines":[11203],"attr":"eco","postal_code":"035-0011","address":"むつ市大字奥内","next":[1120306,1111118,1120611,1120308,9922406,1111120,1111126,1120610,1111115,9922404],"voronoi":{"lat":41.338084,"lng":141.419025,"delta_lat":[0,-173322,-35544,48467,83676,5555,62684,211587,46827,-97213],"delta_lng":[0,-210594,818465,101075,169461,-3548,-51379,-186768,-49577,-244566]},"impl":true},
    {"code":9920410,"left":9922004,"right":9920407,"id":"65c62b","name":"ひがし野団地","name_kana":"ひがしのだんち","closed":true,"lat":40.626624,"lng":141.223714,"prefecture":2,"lines":[99204],"attr":"unknown","postal_code":"034-0001","address":"十和田市大字三本木字下平６０","closed_date":"2012-04-01","next":[9920409,9920411,9922011],"voronoi":{"lat":40.578944,"lng":141.232671,"delta_lat":[0,91780,11733],"delta_lng":[0,-27357,14031]},"impl":true},
    {"code":9922004,"left":9922009,"right":1120302,"id":"ecb1c2","name":"坪","name_kana":"つぼ","closed":true,"lat":40.77735,"lng":141.14682,"prefecture":2,"lines":[99220],"attr":"unknown","postal_code":"039-2731","address":"青森県上北郡七戸町字後平１２６−２４","open_date":"1962-10-20","closed_date":"2002-08-01","next":[9922002,9922003,9922005],"voronoi":{"lat":40.763401,"lng":141.074431,"delta_lat":[0,25964,-12766],"delta_lng":[0,55294,47334]},"impl":true},
    {"code":9922009,"left":9922006,"right":9922010,"id":"137152","name":"営農大学校前","name_kana":"えいのうだいがっこうまえ","closed":true,"lat":40.721156,"lng":141.159019,"prefecture":2,"lines":[99220],"attr":"unknown","postal_code":"039-2501","address":"青森県上北郡七戸町字荒熊内６７−５５２","open_date":"1962-10-20","closed_date":"2002-08-01","next":[100422,9922008,9922010],"voronoi":{"lat":40.730664,"lng":141.15376,"delta_lat":[0,-19262,13741],"delta_lng":[0,5199,11611]},"impl":true},
    {"code":9922006,"left":9922007,"right":9922005,"id":"e4ce5f","name":"道ノ上","name_kana":"みちのかみ","closed":true,"lat":40.751259,"lng":141.152704,"prefecture":2,"lines":[99220],"attr":"unknown","postal_code":"039-2828","address":"青森県上北郡七戸町字森ヶ沢１９２−７","open_date":"1962-10-20","closed_date":"2002-08-01","next":[100422,9922007,9922005,1120108],"voronoi":{"lat":40.76842,"lng":141.181606,"delta_lat":[0,-37248,3506,29157],"delta_lng":[0,-134142,85177,51174]},"impl":true},
    {"code":9922007,"left":100422,"id":"881f4d","name":"天間林","name_kana":"てんまばやし","closed":true,"lat":40.743482,"lng":141.157135,"prefecture":2,"lines":[99220],"attr":"unknown","postal_code":"039-2827","address":"青森県上北郡七戸町字森ノ上１３１−９","open_date":"1962-10-20","closed_date":"2002-08-01","next":[9922008,100422,1120108,9922006],"voronoi":{"lat":40.734677,"lng":141.132641,"delta_lat":[0,-2470,27604,4023],"delta_lng":[0,18650,35175,-2651]},"impl":true},
    {"code":100422,"id":"bd81c1","name":"七戸十和田","name_kana":"しちのへとわだ","lat":40.719801,"lng":141.153999,"prefecture":2,"lines":[1004],"attr":"cool","postal_code":"039-2501","address":"青森県上北郡七戸町字荒熊内","next":[9922010,9922002,9922011,9922008,9922006,9922007,9922005,1120118,9922009],"voronoi":{"lat":40.730664,"lng":141.15376,"delta_lat":[0,1543,2470,-3506,-9856,-1374,-123186,110168,4479],"delta_lng":[0,-2468,-18650,-85177,-79469,-5493,-34072,228464,2064]},"impl":true},
    {"code":9922005,"id":"f7b136","name":"坪川","name_kana":"つぼがわ","closed":true,"lat":40.768221,"lng":141.147994,"prefecture":2,"lines":[99220],"attr":"unknown","postal_code":"039-2733","address":"青森県上北郡七戸町字天間舘前川原３８","open_date":"1963-04-01","closed_date":"2002-08-01","next":[9922002,100422,9922006,9922003,1120108,9922004],"voronoi":{"lat":40.776255,"lng":141.180148,"delta_lat":[0,-7836,-37248,-9856,42085,13198],"delta_lng":[0,1459,-134142,-79469,106435,102628]},"impl":true},
    {"code":9922010,"left":9920411,"right":9922008,"id":"ff4bc5","name":"盛田牧場前","name_kana":"もりたぼくじょうまえ","closed":true,"lat":40.71309,"lng":141.168565,"prefecture":2,"lines":[99220],"attr":"unknown","postal_code":"039-2504","address":"青森県上北郡七戸町字寒水６８−１","open_date":"1964-04-11","closed_date":"2002-08-01","next":[100422,1120107,9922011,1120108,9922009,9922008],"voronoi":{"lat":40.730628,"lng":141.215114,"delta_lat":[0,-37320,13615,4479,13741,8814],"delta_lng":[0,7719,-65938,2064,11611,39510]},"impl":true},
    {"code":9920411,"left":9922011,"id":"e11098","name":"十和田市","name_kana":"とわだし","closed":true,"lat":40.623747,"lng":141.214062,"prefecture":2,"lines":[99204],"attr":"unknown","postal_code":"034-0012","address":"十和田市東一番町７-２７","closed_date":"2012-04-01","next":[9922011,9922811,9920410,9920603,9922810,9920409,9920602],"voronoi":{"lat":40.445956,"lng":140.997622,"delta_lat":[0,12632,47612,164523,-91780,-64568,-8525],"delta_lng":[0,-8087,-29494,245273,27357,15256,-19665]},"impl":true},
    {"code":9922011,"id":"bc9d10","name":"七戸","name_kana":"しちのへ","closed":true,"lat":40.696639,"lng":141.165168,"prefecture":2,"lines":[99220],"attr":"unknown","postal_code":"039-2512","address":"青森県上北郡七戸町字笊田４８−１","open_date":"1962-10-20","closed_date":"2002-08-01","next":[1120118,9920408,9920411,100422,9922810,1120107,9922010,9920409,9920410],"voronoi":{"lat":40.670724,"lng":141.205314,"delta_lat":[0,-164523,51582,38973,110168,-13615,-5517,-2025,-3310],"delta_lng":[0,-245273,-44521,12910,228464,65938,2013,-1921,-3579]},"impl":true},
    {"code":9922008,"id":"2156da","name":"中野(青森)","original_name":"中野","name_kana":"なかの","closed":true,"lat":40.735203,"lng":141.163632,"prefecture":2,"lines":[99220],"attr":"unknown","postal_code":"039-2814","address":"青森県上北郡七戸町字道ノ下","open_date":"1962-10-20","closed_date":"2002-08-01","next":[1120108,100422,9922007,9922009,9922010],"voronoi":{"lat":40.725144,"lng":141.170569,"delta_lat":[0,5521,1543,27604,-25854],"delta_lng":[0,-16810,-2468,35175,23613]},"impl":true},
    {"code":1120302,"left":1120111,"right":1120109,"id":"e397c8","name":"北野辺地","name_kana":"きたのへじ","lat":40.871077,"lng":141.134115,"prefecture":2,"lines":[11203],"attr":"cool","postal_code":"039-3131","address":"上北郡野辺地町大字野辺地","next":[1120303,1120109,1120110,1120111],"voronoi":{"lat":40.851923,"lng":141.193244,"delta_lat":[0,-11664,45033,52135],"delta_lng":[0,-41292,-49450,24273]},"impl":true},
    {"code":1120111,"left":9922002,"right":1120112,"id":"6ed6e5","name":"狩場沢","name_kana":"かりばさわ","lat":40.900335,"lng":141.071274,"prefecture":2,"lines":[11201,99206],"attr":"cool","postal_code":"039-3343","address":"東津軽郡平内町大字狩場沢","next":[1120110,1120303,1120304,9922002,1120112,1120302],"voronoi":{"lat":41.021432,"lng":141.117082,"delta_lat":[0,15854,-258131,28403,77733,52135],"delta_lng":[0,-11008,-118845,42583,72690,24273]},"impl":true},
    {"code":9922002,"left":1120110,"id":"70fc8e","name":"西千曳","name_kana":"にしちびき","closed":true,"lat":40.810193,"lng":141.131398,"prefecture":2,"lines":[99220],"attr":"unknown","postal_code":"039-2685","address":"青森県上北郡東北町字家ノ下タ４１","open_date":"1968-08-05","closed_date":"2002-08-01","next":[1120118,9922004,100422,9922005,1120116,1120115,1120114,1120112,1120111,1120109,9922003,1120110],"voronoi":{"lat":40.799896,"lng":141.140198,"delta_lat":[0,-10532,-25964,-42085,-1374,8063,14398,11793,12251,12709,28403,31620],"delta_lng":[0,-10473,-55294,-106435,-5493,194,1646,3540,6059,13287,42583,120502]},"impl":true},
    {"code":1120110,"id":"83ffd8","name":"野辺地","name_kana":"のへじ","lat":40.855142,"lng":141.119603,"prefecture":2,"lines":[11201,11203,99206,99220],"attr":"cool","postal_code":"039-3131","address":"上北郡野辺地町大字野辺地","next":[1120111,1120302,1120109,9922002],"voronoi":{"lat":40.807558,"lng":141.029812,"delta_lat":[0,77733,-45033,-1080],"delta_lng":[0,72690,49450,-1638]},"impl":true},
    {"code":1120112,"id":"1d400d","name":"清水川","name_kana":"しみずがわ","lat":40.921801,"lng":141.02465,"prefecture":2,"lines":[11201,99206],"attr":"cool","postal_code":"039-3332","address":"東津軽郡平内町大字清水川","next":[1120114,1120304,1120305,9922002,1120311,1120113,1120111],"voronoi":{"lat":41.061903,"lng":141.094954,"delta_lat":[0,53469,16624,-348637,-16912,12709,258131],"delta_lng":[0,-39130,-43470,-38968,556,13287,118845]},"impl":true},
    {"code":1120109,"left":1120108,"right":1120303,"id":"df8dce","name":"千曳","name_kana":"ちびき","lat":40.804662,"lng":141.152876,"prefecture":2,"lines":[11201,99206],"attr":"eco","postal_code":"039-2683","address":"上北郡東北町字大平","next":[1120303,9922003,1120108,1120302,1120110,9922002],"voronoi":{"lat":40.840258,"lng":141.151951,"delta_lat":[0,11664,-4035,-55377,7386,39282],"delta_lng":[0,41292,12119,-22399,-42766,10116]},"impl":true},
    {"code":1120108,"left":9922003,"id":"6f9906","name":"乙供","name_kana":"おっとも","lat":40.780328,"lng":141.213039,"prefecture":2,"lines":[11201,99206],"attr":"heat","postal_code":"039-2661","address":"上北郡東北町字上笹橋","next":[1120303,9922008,1120109,9922003,9922010,9922007,1120107,9922005,9922006],"voronoi":{"lat":40.76842,"lng":141.181606,"delta_lat":[0,7836,16255,55377,24860,-142119,3329,25854,4023],"delta_lng":[0,-1459,2816,22399,139716,-129965,-5034,-23613,-2651]},"impl":true},
    {"code":9922003,"id":"63380e","name":"後平","name_kana":"うしろたい","closed":true,"lat":40.791154,"lng":141.150543,"prefecture":2,"lines":[99220],"attr":"unknown","postal_code":"039-2731","address":"青森県上北郡七戸町字後平１５０−１１０","open_date":"1963-04-01","closed_date":"2002-08-01","next":[9922004,1120109,1120108,9922002,9922005],"voronoi":{"lat":40.79251,"lng":141.182964,"delta_lat":[0,7386,-10532,-12766,-343],"delta_lng":[0,-42766,-10473,47334,3089]},"impl":true},
    {"code":1120303,"id":"bb8b48","name":"有戸","name_kana":"ありと","lat":40.913949,"lng":141.189264,"prefecture":2,"lines":[11203],"attr":"cool","postal_code":"039-3108","address":"上北郡野辺地町大字有戸","next":[1120108,1120109,1120302,1120304,1120111,1120107],"voronoi":{"lat":41.021432,"lng":141.117082,"delta_lat":[0,-84006,-85504,-4035,24860,12268],"delta_lng":[0,9693,66469,12119,139716,29390]},"impl":true},
    {"code":9920407,"left":9920518,"right":1120306,"id":"cd518f","name":"高清水","name_kana":"たかしず","closed":true,"lat":40.635,"lng":141.259046,"prefecture":2,"lines":[99204],"attr":"unknown","postal_code":"034-0041","address":"十和田市大字相坂字高清水７７-３","closed_date":"2012-04-01","next":[9920604,1120107,9920406,9920408],"voronoi":{"lat":40.534143,"lng":141.286249,"delta_lat":[0,150430,1147,-155922],"delta_lng":[0,-34145,-19532,44469]},"impl":true},
    {"code":9920518,"left":9920409,"right":9920517,"id":"f6e35e","name":"目時","name_kana":"めとき","lat":40.351908,"lng":141.289504,"prefecture":2,"lines":[99205,99206,11233],"attr":"heat","postal_code":"039-0113","address":"三戸郡三戸町大字目時字村中１２番地","next":[9920517,9920603,9920602,9920516],"voronoi":{"lat":40.368811,"lng":141.357915,"delta_lat":[0,13144,-67542,3323],"delta_lng":[0,-54840,-182637,136999]},"impl":true},
    {"code":9920409,"left":100420,"right":9920408,"id":"5e528f","name":"工業高校前","name_kana":"こうぎょうこうこうまえ","closed":true,"lat":40.627338,"lng":141.22926,"prefecture":2,"lines":[99204],"attr":"unknown","postal_code":"034-0001","address":"十和田市大字三本木字下平２１５","closed_date":"2012-04-01","next":[9920408,9920410,9920603,9922011,9920411],"voronoi":{"lat":40.578944,"lng":141.232671,"delta_lat":[0,103513,3310,-169710,-1681],"delta_lng":[0,-13326,3579,29744,-4741]},"impl":true},
    {"code":100420,"left":9920602,"id":"c953e7","name":"二戸","name_kana":"にのへ","lat":40.25997,"lng":141.286211,"prefecture":3,"lines":[1004,99205,11233],"attr":"cool","postal_code":"028-6103","address":"二戸市石切所","next":[9920512,9920602,1121210,1121211,9920516,9920514],"voronoi":{"lat":40.310315,"lng":141.095084,"delta_lat":[0,-1169,-45588,-47252,-6809,45299],"delta_lng":[0,-12233,26835,32354,36144,201592]},"impl":true},
    {"code":9920602,"id":"e89816","name":"三戸","name_kana":"さんのへ","lat":40.395941,"lng":141.27322,"prefecture":2,"lines":[99206,11233],"attr":"heat","postal_code":"039-0103","address":"三戸郡南部町大字大向","next":[100420,9920603,1121211,9920516,9920518,9922811,9920411,1121212],"voronoi":{"lat":40.309147,"lng":141.08285,"delta_lat":[0,1169,4097,67542,123896,-59894,-43104,-77526],"delta_lng":[0,12233,25355,182637,-74813,-230640,5890,60370]},"impl":true},
    {"code":9920408,"id":"6178ce","name":"北里大学前","name_kana":"きたさとだいがくまえ","closed":true,"lat":40.628666,"lng":141.236837,"prefecture":2,"lines":[99204],"attr":"unknown","postal_code":"034-0001","address":"十和田市大字三本木字前谷地","closed_date":"2012-04-01","next":[9920409,1120107,9922011,9920603,9920407,9920604],"voronoi":{"lat":40.68572,"lng":141.232573,"delta_lat":[0,2071,-2025,-169710,1265,12477],"delta_lng":[0,-7727,-1921,29744,3991,20382]},"impl":true},
    {"code":9920517,"left":9920514,"right":9920603,"id":"2cbd3c","name":"金田一温泉","name_kana":"きんたいちおんせん","lat":40.323503,"lng":141.303943,"prefecture":3,"lines":[99205,11233],"attr":"cool","postal_code":"028-5711","address":"二戸市金田一字水梨１４番地","next":[1120614,1120616,9920603,9920518,9920514,9920516,9920606,9920604,1120623,1120613,1120612],"voronoi":{"lat":40.280869,"lng":141.524817,"delta_lat":[0,-8585,-3879,-14626,5438,58519,51075,-136,-16463,-64737,-1784],"delta_lng":[0,3170,1001,-1990,-94527,-175034,100478,18969,48213,96905,817]},"impl":true},
    {"code":9920514,"left":9920516,"id":"3055a3","name":"一戸","name_kana":"いちのへ","lat":40.210092,"lng":141.297419,"prefecture":3,"lines":[99205,11233],"attr":"cool","postal_code":"028-5301","address":"二戸郡一戸町西法寺字稲荷","next":[9920516,9920512,9920517,1120623,100420,9920513],"voronoi":{"lat":40.177546,"lng":141.253277,"delta_lat":[0,31951,45299,4420,-5438,-3776],"delta_lng":[0,-75094,201592,52696,94527,419]},"impl":true},
    {"code":9920516,"id":"3d6b1c","name":"斗米","name_kana":"とまい","lat":40.285158,"lng":141.291123,"prefecture":3,"lines":[99205,11233],"attr":"cool","postal_code":"028-6104","address":"二戸市米沢字沢内１７６番地","next":[9920514,100420,9920517,9920602,9920518],"voronoi":{"lat":40.314413,"lng":141.120438,"delta_lat":[0,-4097,-55519,4420,58519],"delta_lng":[0,-25355,284692,52696,-175034]},"impl":true},
    {"code":9920603,"id":"dfed70","name":"諏訪ノ平","name_kana":"すわのたいら","lat":40.414889,"lng":141.304599,"prefecture":2,"lines":[99206,11233],"attr":"heat","postal_code":"039-0101","address":"三戸郡南部町大字玉掛","next":[9920602,9920408,9920604,9920517,9920518,9920411,9920409],"voronoi":{"lat":40.514375,"lng":141.247928,"delta_lat":[0,-8525,-123896,-13144,-136,148647,-1265],"delta_lng":[0,-19665,74813,54840,18969,-120225,-3991]},"impl":true},
    {"code":1120306,"left":1120304,"right":9920404,"id":"dc6df6","name":"有畑","name_kana":"ありはた","lat":41.131818,"lng":141.276421,"prefecture":2,"lines":[11203],"attr":"eco","postal_code":"039-4106","address":"上北郡横浜町字有畑","next":[1120307,1120308,1120105,1120607,1120610,1120609,1120304,1120305],"voronoi":{"lat":41.157072,"lng":141.181772,"delta_lat":[0,7689,-35544,-24260,-123729,-15976,-3480,86651],"delta_lng":[0,26659,818465,-45806,-240965,-34513,-20884,-318476]},"impl":true},
    {"code":1120304,"left":9920406,"right":1120305,"id":"774fed","name":"吹越","name_kana":"ふっこし","lat":41.022038,"lng":141.246552,"prefecture":2,"lines":[11203],"attr":"cool","postal_code":"039-4153","address":"上北郡横浜町字吹越","next":[1120106,1120305,1120112,1120303,1120107,1120111,1120105,1120306],"voronoi":{"lat":41.048423,"lng":141.366252,"delta_lat":[0,13479,-24616,-15854,-136417,1054,16982,58721],"delta_lng":[0,-271299,11120,11008,257387,16698,99698,193864]},"impl":true},
    {"code":9920406,"left":1120107,"id":"7880b7","name":"三農校前","name_kana":"さんのうこうまえ","closed":true,"lat":40.636861,"lng":141.267245,"prefecture":2,"lines":[99204],"attr":"unknown","postal_code":"039-2372","address":"上北郡六戸町大字折茂字今熊２４７","closed_date":"2012-04-01","next":[9920604,1120107,1120106,9920407,9920405],"voronoi":{"lat":40.678649,"lng":141.271627,"delta_lat":[0,6074,-149,-150430,420],"delta_lng":[0,-13659,-5864,34145,993]},"impl":true},
    {"code":1120107,"id":"3fb643","name":"上北町","name_kana":"かみきたちょう","lat":40.732993,"lng":141.264801,"prefecture":2,"lines":[11201,99206],"attr":"heat","postal_code":"039-2401","address":"上北郡東北町上野","next":[1120106,9922010,9920408,9922011,9920406,1120303,1120304,9920407,1120108],"voronoi":{"lat":40.730628,"lng":141.215114,"delta_lat":[0,-37320,-5517,-2071,-1147,149,201347,-1054,-12268],"delta_lng":[0,7719,2013,7727,19532,5864,133198,-16698,-29390]},"impl":true},
    {"code":1120305,"id":"66f962","name":"陸奥横浜","name_kana":"むつよこはま","lat":41.086544,"lng":141.249757,"prefecture":2,"lines":[11203],"attr":"cool","postal_code":"039-4133","address":"上北郡横浜町字舘の後","next":[1120311,1120308,1120304,1120112,1120306],"voronoi":{"lat":41.061903,"lng":141.094954,"delta_lat":[0,53469,41377,324,-108649],"delta_lng":[0,-39130,91139,34810,184480]},"impl":true},
    {"code":9920404,"left":9920405,"right":1120106,"id":"5b78d1","name":"七百","name_kana":"しちひゃく","closed":true,"lat":40.643631,"lng":141.305855,"prefecture":2,"lines":[99204],"attr":"unknown","postal_code":"033-0071","address":"上北郡六戸町大字犬落瀬字権現沢１４-６６","closed_date":"2012-04-01","next":[9920405,1120106,9920403],"voronoi":{"lat":40.675342,"lng":141.287453,"delta_lat":[0,-99244,101784],"delta_lng":[0,22978,4455]},"impl":true},
    {"code":9920405,"id":"df9aea","name":"古里(青森)","original_name":"古里","name_kana":"ふるさと","closed":true,"lat":40.63877,"lng":141.28486,"prefecture":2,"lines":[99204],"attr":"unknown","postal_code":"039-2372","address":"上北郡六戸町大字折茂字古里","closed_date":"2012-04-01","next":[9920404,1120106,9920605,9920403,9920604,9920406],"voronoi":{"lat":40.678649,"lng":141.271627,"delta_lat":[0,-3306,-99244,-31516,-3312,-6707],"delta_lng":[0,15825,22978,3677,-6320,-20545]},"impl":true},
    {"code":1120106,"id":"07661e","name":"小川原","name_kana":"こがわら","lat":40.709893,"lng":141.29972,"prefecture":2,"lines":[11201,99206],"attr":"heat","postal_code":"039-2402","address":"上北郡東北町大浦","next":[1120304,1120107,9920404,1120105,9920405,9920406,9920403],"voronoi":{"lat":40.677882,"lng":141.314885,"delta_lat":[0,-2540,3306,6074,201347,16982,-223871],"delta_lng":[0,-27433,-15825,-13659,133198,99698,-171874]},"impl":true},
    {"code":9922402,"left":1110424,"right":1110428,"id":"fba7f1","name":"海老川","name_kana":"えびかわ","closed":true,"lat":41.285611,"lng":141.203694,"prefecture":2,"lines":[10202,99224],"postal_code":"035-0052","address":"青森県むつ市昭和町８","open_date":"1966-12-15","closed_date":"2001-04-01","next":[9922403,1120310,1120309,9922404],"voronoi":{"lat":41.280592,"lng":141.218712,"delta_lat":[0,-6331,39803,-475],"delta_lng":[0,-19944,-7875,1707]},"impl":false},
    {"code":1110424,"left":1110423,"right":1010209,"id":"518f33","name":"登別","name_kana":"のぼりべつ","lat":42.45207,"lng":141.180931,"prefecture":1,"lines":[11104],"attr":"cool","postal_code":"059-0466","address":"登別市登別港町１丁目","next":[1110422,1010208,1110425,1110423,1010205],"voronoi":{"lat":42.545955,"lng":141.127305,"delta_lat":[0,-320177,-107740,455884,-2947],"delta_lng":[0,134617,61871,-168482,-6431]},"impl":true},
    {"code":1110423,"left":1110421,"right":9922407,"id":"b29507","name":"富浦(北海道)","original_name":"富浦","name_kana":"とみうら","lat":42.441957,"lng":141.156878,"prefecture":1,"lines":[11104],"attr":"cool","postal_code":"059-0462","address":"登別市富浦町１丁目","next":[1010205,1110422,1110424],"voronoi":{"lat":42.504112,"lng":141.081315,"delta_lat":[0,41843,-320177],"delta_lng":[0,45990,134617]},"impl":true},
    {"code":1110421,"left":1110420,"right":1110422,"id":"a75a5f","name":"鷲別","name_kana":"わしべつ","lat":42.35953,"lng":141.042759,"prefecture":1,"lines":[11104],"attr":"cool","postal_code":"059-0034","address":"登別市鷲別町２丁目","next":[1110417,1110420,9922408,1110415,1110422,1110425],"voronoi":{"lat":41.96521,"lng":141.401645,"delta_lat":[0,504481,-75228,-212881,-268615,8967],"delta_lng":[0,-392834,918,132250,215107,70968]},"impl":true},
    {"code":1110420,"left":1110419,"id":"4a7a46","name":"東室蘭","name_kana":"ひがしむろらん","lat":42.349374,"lng":141.026411,"prefecture":1,"lines":[11104],"attr":"cool","postal_code":"050-0083","address":"室蘭市東町２丁目","next":[1110421,1110417,1110419,1110415],"voronoi":{"lat":42.181582,"lng":141.141979,"delta_lat":[0,40629,136781,35471],"delta_lng":[0,-35812,-103235,6797]},"impl":true},
    {"code":1110419,"id":"5185ab","name":"輪西","name_kana":"わにし","lat":42.333775,"lng":141.005743,"prefecture":1,"lines":[11104],"attr":"cool","postal_code":"050-0087","address":"室蘭市仲町","next":[1110417,1110418,1110415,1110420],"voronoi":{"lat":42.358991,"lng":141.002932,"delta_lat":[0,-11031,-29049,-96701],"delta_lng":[0,-9769,11660,101344]},"impl":true},
    {"code":1110422,"id":"be5dfb","name":"幌別","name_kana":"ほろべつ","lat":42.409782,"lng":141.107293,"prefecture":1,"lines":[11104],"attr":"cool","postal_code":"059-0013","address":"登別市幌別町３丁目","next":[1110424,1110425,1010205,1110421,1110423,1110415],"voronoi":{"lat":42.470579,"lng":141.008461,"delta_lat":[0,33533,-278334,-107740,-152828,504481],"delta_lng":[0,72855,180607,61871,77851,-392834]},"impl":true},
    {"code":9922407,"left":1120310,"right":9922408,"id":"bffab3","name":"正津川","name_kana":"しょうづかわ","closed":true,"lat":41.3905,"lng":141.184111,"prefecture":2,"lines":[10202,99224],"postal_code":"039-4402","address":"青森県むつ市大畑町正津川平８７−１０","open_date":"1939-12-06","closed_date":"2001-04-01","next":[9922408,1110425,9922405,1120311,9922406],"voronoi":{"lat":41.360425,"lng":141.179918,"delta_lat":[0,-20748,1946,578018,-1692],"delta_lng":[0,-27962,-9593,333107,58640]},"impl":false},
    {"code":1120310,"left":1120311,"id":"ea13e3","name":"下北","name_kana":"しもきた","lat":41.28288,"lng":141.18989,"prefecture":2,"lines":[11203,10202,99224],"attr":"heat","postal_code":"035-0061","address":"むつ市下北町","next":[1120309,9922404,9922402,1120311],"voronoi":{"lat":41.27426,"lng":141.198768,"delta_lat":[0,39803,10311,-75892],"delta_lng":[0,-7875,-18918,6845]},"impl":true},
    {"code":1120311,"id":"fc9bd8","name":"大湊","name_kana":"おおみなと","lat":41.280344,"lng":141.161772,"prefecture":2,"lines":[11203],"attr":"heat","postal_code":"035-0084","address":"むつ市大湊新町","next":[9922405,1120305,9922408,1120113,9922407,1120112,1120308,1120309,9922404,1120511,1120310],"voronoi":{"lat":41.180069,"lng":141.160819,"delta_lat":[0,-23321,-41377,16624,79812,135056,-5240,-1946,-9009,-6294,-75892],"delta_lng":[0,-13857,-91139,-43470,-134661,-62968,327639,9593,14105,5913,6845]},"impl":true},
    {"code":9922408,"id":"d1ef11","name":"大畑(青森)","original_name":"大畑","name_kana":"おおはた","closed":true,"lat":41.40225,"lng":141.163722,"prefecture":2,"lines":[10202,99224],"postal_code":"039-4401","address":"青森県むつ市大畑町庚申堂６０","open_date":"1939-12-06","closed_date":"2001-04-01","next":[1120515,1110425,9922407,9910523,9910501,1110421,1120311,1110417,1120511],"voronoi":{"lat":41.341623,"lng":141.142363,"delta_lat":[0,578018,2292,-8967,-12850,-421461,-85303,-39201,-7288],"delta_lng":[0,333107,-47417,-70968,-67690,-427101,-66941,14282,5089]},"impl":false},
    {"code":1010209,"left":1010207,"right":9911019,"id":"5f6d8d","name":"尾路遠","name_kana":"おろえん","closed":true,"lat":42.715278,"lng":141.049167,"prefecture":1,"lines":[10102],"postal_code":"044-0442","address":"北海道伊達市大滝区宮城町清原喜茂別線","open_date":"1941-10-12","next":[1010216,9911015,9911020,9911014,1010210,1010211,1010207,1010208],"voronoi":{"lat":42.678676,"lng":141.043103,"delta_lat":[0,1285,132203,24198,9860,-44020,-4267,-5661],"delta_lng":[0,-27444,43539,16064,16246,96049,5853,7144]},"impl":false},
    {"code":1010207,"left":1010205,"right":1010210,"id":"f02d75","name":"優徳","name_kana":"ゆうとく","closed":true,"lat":42.641667,"lng":141.045722,"prefecture":1,"lines":[10102],"postal_code":"052-0317","address":"北海道伊達市大滝区優徳町８６−１７","open_date":"1940-12-15","closed_date":"1986-11-01","next":[1010205,1010210,1010208,1010209,1010206],"voronoi":{"lat":42.580493,"lng":141.133189,"delta_lat":[0,98182,1285,-6250,-67663],"delta_lng":[0,-90086,-27444,-15023,57257]},"impl":false},
    {"code":1010205,"left":1010206,"id":"8c6d23","name":"蟠渓","name_kana":"ばんけい","closed":true,"lat":42.585194,"lng":141.026556,"prefecture":1,"lines":[10102],"postal_code":"052-0113","address":"北海道有珠郡壮瞥町字蟠溪１８−１１","open_date":"1940-12-15","closed_date":"1986-11-01","next":[1110412,1010207,1110415,1010204,1010206,1110423,1110422,1010208,1110424],"voronoi":{"lat":42.580493,"lng":141.133189,"delta_lat":[0,25554,-3129,-127658,-4009,-673,33533,41843,25020],"delta_lng":[0,-75296,-68198,10646,5010,3110,72855,45990,21575]},"impl":false},
    {"code":1010206,"id":"f38ba9","name":"北湯沢","name_kana":"きたゆざわ","closed":true,"lat":42.623944,"lng":141.024778,"prefecture":1,"lines":[10102],"postal_code":"052-0316","address":"北海道伊達市大滝区北湯沢温泉町３００","open_date":"1940-12-15","closed_date":"1986-11-01","next":[1010205,1010210,1010204,1010207],"voronoi":{"lat":42.673711,"lng":141.000635,"delta_lat":[0,-7537,-63255,3129],"delta_lng":[0,-52136,41195,68198]},"impl":false},
    {"code":1010210,"id":"3b9442","name":"御園","name_kana":"みその","closed":true,"lat":42.728278,"lng":141.009694,"prefecture":1,"lines":[10102],"postal_code":"044-0454","address":"北海道虻田郡喜茂別町字金山２","open_date":"1941-10-12","closed_date":"1986-11-01","next":[1010207,1010211,1010206,1010209,1010204],"voronoi":{"lat":42.673711,"lng":141.000635,"delta_lat":[0,6250,132203,-135538,-10452],"delta_lng":[0,15023,43539,-139843,29145]},"impl":false},
    {"code":9911019,"left":9911020,"right":9911018,"id":"18b06f","name":"白糸の滝","name_kana":"しらいとのたき","closed":true,"lat":42.968694,"lng":141.17025,"prefecture":1,"lines":[99110],"postal_code":"061-2302","address":"北海道札幌市南区定山渓温泉東２丁目１０３","open_date":"1933-01-07","closed_date":"1969-11-01","next":[9911020,1110305,9911018,1110306],"voronoi":{"lat":43.055157,"lng":141.150049,"delta_lat":[0,-2522,-105334,107332],"delta_lng":[0,-42437,71980,-25455]},"impl":false},
    {"code":9911020,"left":1010208,"id":"3fb921","name":"定山渓","name_kana":"じょうざんけい","closed":true,"lat":42.963778,"lng":141.163056,"prefecture":1,"lines":[99110],"postal_code":"061-2302","address":"北海道札幌市南区定山渓温泉東４丁目３１５−１","open_date":"1918-10-18","closed_date":"1969-11-01","next":[1110303,1010216,1110304,9911019,9911015,9911018,1010209,1110305],"voronoi":{"lat":42.9473,"lng":141.179593,"delta_lat":[0,-30526,-114573,44020,174116,11183,20521,593],"delta_lng":[0,13654,-5690,-96049,-79532,18107,44111,33419]},"impl":false},
    {"code":1010208,"id":"27d8fd","name":"新大滝","name_kana":"しんおおたき","closed":true,"lat":42.672889,"lng":141.07975,"prefecture":1,"lines":[10102],"postal_code":"052-0301","address":"北海道伊達市大滝区本町１０３−１９","open_date":"1940-12-15","closed_date":"1986-11-01","next":[1110425,1110424,1110429,1010207,1110426,1110427,1110428,1010205,1010209,9911014],"voronoi":{"lat":42.792274,"lng":141.200554,"delta_lat":[0,-113598,-98182,-9519,2947,10797,29829,24357,38167,71939],"delta_lng":[0,-157451,90086,15692,6431,16609,29730,19322,25592,30323]},"impl":false},
    {"code":9911018,"id":"d65c43","name":"錦橋","name_kana":"にしきばし","closed":true,"lat":42.970611,"lng":141.178333,"prefecture":1,"lines":[99110],"postal_code":"061-2302","address":"北海道札幌市南区定山渓温泉東１丁目４３","open_date":"1928-06-07","closed_date":"1969-11-01","next":[1110306,9911017,9911020,1110308,9911015,9911019],"voronoi":{"lat":43.054633,"lng":141.154137,"delta_lat":[0,-3115,-137,-133353,-1253,30526],"delta_lng":[0,38876,486,0,-253,-13654]},"impl":false},
    {"code":1110428,"left":9922404,"right":9911013,"id":"504b3c","name":"萩野","name_kana":"はぎの","lat":42.521159,"lng":141.30603,"prefecture":1,"lines":[11104],"attr":"heat","postal_code":"059-0922","address":"白老郡白老町字萩野","next":[1110427,1110430,1110429,1010208,1111106],"voronoi":{"lat":41.990812,"lng":141.650427,"delta_lat":[0,215803,470456,-38167,-712151],"delta_lng":[0,-111430,-292433,-25592,432369]},"impl":true},
    {"code":9922404,"left":9922406,"right":1110426,"id":"a5b023","name":"樺山","name_kana":"かばやま","closed":true,"lat":41.331806,"lng":141.216556,"prefecture":2,"lines":[10202,99224],"postal_code":"035-0021","address":"青森県むつ市大字田名部下平２７−２","open_date":"1939-12-06","closed_date":"2001-04-01","next":[9922403,1120308,1120310,9922402,1120307,9922405,1120311,9922406],"voronoi":{"lat":41.447823,"lng":141.588095,"delta_lat":[0,-117155,-6294,-10311,-475,3212,21283,152717],"delta_lng":[0,-422033,5913,18918,1707,157684,68742,342569]},"impl":false},
    {"code":9922406,"left":9922405,"right":1110425,"id":"cb04d6","name":"川代","name_kana":"かわだい","closed":true,"lat":41.377,"lng":141.205361,"prefecture":2,"lines":[10202,99224],"postal_code":"035-0022","address":"青森県むつ市大字関根川代７−７","open_date":"1939-12-06","closed_date":"2001-04-01","next":[1111108,1120307,1111114,1110425,1110427,1110426,9922405,9922407,1111113,1111106,1111115,9922404],"voronoi":{"lat":41.447823,"lng":141.588095,"delta_lat":[0,-87398,557524,-468,-2798,-783,-13624,-136119,-57149,-79187,-39808,-97213],"delta_lng":[0,-408176,354192,52338,56725,10969,21604,173300,53694,70350,33070,-244566]},"impl":false},
    {"code":9922405,"left":1120309,"id":"2db41f","name":"陸奥関根","name_kana":"むつせきね","closed":true,"lat":41.355722,"lng":141.209917,"prefecture":2,"lines":[10202,99224],"postal_code":"035-0022","address":"青森県むつ市大字関根北関根２７６","open_date":"1939-12-06","closed_date":"2001-04-01","next":[1120311,9922407,9922406,9922404],"voronoi":{"lat":41.360425,"lng":141.179918,"delta_lat":[0,-20748,-9009,117155],"delta_lng":[0,-27962,14105,422033]},"impl":false},
    {"code":1120309,"id":"69b1b2","name":"赤川","name_kana":"あかがわ","lat":41.267829,"lng":141.209339,"prefecture":2,"lines":[11203],"attr":"heat","postal_code":"035-0044","address":"むつ市赤川町","next":[1120308,9922403,1120310,9922402,1120311],"voronoi":{"lat":41.180069,"lng":141.160819,"delta_lat":[0,91302,9220,-6331,-25778],"delta_lng":[0,91027,-33135,-19944,-19948]},"impl":true},
    {"code":1110425,"id":"6ccddf","name":"虎杖浜","name_kana":"こじょうはま","lat":42.464695,"lng":141.215092,"prefecture":1,"lines":[11104],"attr":"heat","postal_code":"059-0641","address":"白老郡白老町字虎杖浜","next":[9922408,1010208,9922407,9922406,1110424,1110422,1110426,1110421],"voronoi":{"lat":41.919641,"lng":141.47547,"delta_lat":[0,-1692,-468,667237,-10797,-455884,-152828,-43276],"delta_lng":[0,58640,52338,-414528,-16609,168482,77851,26409]},"impl":true},
    {"code":1110426,"left":1120308,"right":1110427,"id":"ed0a83","name":"竹浦","name_kana":"たけうら","lat":42.49284,"lng":141.260395,"prefecture":1,"lines":[11104],"attr":"heat","postal_code":"059-0642","address":"白老郡白老町字竹浦","next":[1110425,9922406,1010208,1110427],"voronoi":{"lat":42.614547,"lng":141.201651,"delta_lat":[0,-29829,-667237,-2798],"delta_lng":[0,-29730,414528,56725]},"impl":true},
    {"code":1120308,"left":9922403,"id":"5296a3","name":"金谷沢","name_kana":"かなやさわ","lat":41.228854,"lng":141.248432,"prefecture":2,"lines":[11203],"attr":"eco","postal_code":"035-0011","address":"むつ市大字奥内","next":[1120309,1120306,1120307,1120305,9922404,1120311,9922403],"voronoi":{"lat":41.338084,"lng":141.419025,"delta_lat":[0,-173322,-7689,-324,23321,91302,45429],"delta_lng":[0,-210594,-26659,-34810,13857,91027,98437]},"impl":true},
    {"code":9922403,"id":"2e35a2","name":"田名部","name_kana":"たなぶ","closed":true,"lat":41.296361,"lng":141.217278,"prefecture":2,"lines":[10202,99224],"postal_code":"035-0034","address":"青森県むつ市田名部町１０","open_date":"1939-12-06","closed_date":"2001-04-01","next":[9922404,1120309,9922402,1120308],"voronoi":{"lat":41.271372,"lng":141.251846,"delta_lat":[0,9220,32997,3212],"delta_lng":[0,-33135,-26112,157684]},"impl":false},
    {"code":1110427,"id":"4d5eeb","name":"北吉原","name_kana":"きたよしはら","lat":42.509119,"lng":141.286199,"prefecture":1,"lines":[11104],"attr":"heat","postal_code":"059-0923","address":"白老郡白老町字北吉原","next":[1110428,9922406,1010208,1110426,1111106],"voronoi":{"lat":41.914684,"lng":141.643174,"delta_lat":[0,699864,24357,-712151,-12853],"delta_lng":[0,-441523,19322,432369,801]},"impl":true},
    {"code":9911013,"left":9911016,"right":9911011,"id":"a7e650","name":"簾舞","name_kana":"みすまい","closed":true,"lat":42.963778,"lng":141.259361,"prefecture":1,"lines":[99110],"postal_code":"061-2272","address":"北海道札幌市南区簾舞５６１−２","open_date":"1918-10-18","closed_date":"1969-11-01","next":[9911015,9911016,9911012,9910102,9911014,9911011,9910101],"voronoi":{"lat":43.03022,"lng":141.244529,"delta_lat":[0,-41344,-3233,-81877,3387,119698,3239],"delta_lng":[0,-3615,331,28980,135,-12156,-12755]},"impl":false},
    {"code":9911016,"left":9911014,"right":9911017,"id":"e073a2","name":"小金湯","name_kana":"こがねゆ","closed":true,"lat":42.967361,"lng":141.218389,"prefecture":1,"lines":[99110],"postal_code":"061-2274","address":"北海道札幌市南区小金湯６２９−１７","open_date":"1936-10-20","closed_date":"1969-11-01","next":[9911013,9910101,9911017,9911015],"voronoi":{"lat":43.03022,"lng":141.244529,"delta_lat":[0,4351,-100566,54871],"delta_lng":[0,-9076,-33618,39079]},"impl":false},
    {"code":9911014,"left":9911015,"id":"28da19","name":"豊滝","name_kana":"とよたき","closed":true,"lat":42.95725,"lng":141.240917,"prefecture":1,"lines":[99110],"postal_code":"061-2273","address":"北海道札幌市南区豊滝４２０−２８","open_date":"1948-01-11","closed_date":"1969-11-01","next":[9911011,1110429,1010209,9911013,9911010,9911009,9911015,1010208],"voronoi":{"lat":42.792274,"lng":141.200554,"delta_lat":[0,5661,187709,-81877,-126478,-12448,-12674,-3156],"delta_lng":[0,-7144,47835,28980,15408,1116,804,-10665]},"impl":false},
    {"code":9911015,"id":"eefd1f","name":"滝の沢","name_kana":"たきのさわ","closed":true,"lat":42.960556,"lng":141.227944,"prefecture":1,"lines":[99110],"postal_code":"061-2274","address":"北海道札幌市南区小金湯３８９","closed_date":"1969-11-01","next":[9911013,9911017,1010209,9911020,9911018,9911014,9911016],"voronoi":{"lat":42.985643,"lng":141.241245,"delta_lat":[0,-187709,4267,114573,1253,15978,54871],"delta_lng":[0,-47835,-5853,5690,253,8335,39079]},"impl":false},
    {"code":9911017,"id":"df0ee5","name":"一の沢","name_kana":"いちのさわ","closed":true,"lat":42.970611,"lng":141.208667,"prefecture":1,"lines":[99110],"postal_code":"061-2274","address":"北海道札幌市南区小金湯６４９","open_date":"1926-08-15","closed_date":"1969-11-01","next":[9911018,1110310,1110309,9911015,1110308,9910101,9911016],"voronoi":{"lat":43.049127,"lng":141.210094,"delta_lat":[0,267,904,1083,-133353,15978,100566],"delta_lng":[0,-779,-3852,-11963,0,8335,33618]},"impl":false},
    {"code":9911011,"left":9911010,"right":9911012,"id":"6d28a9","name":"下藤野","name_kana":"しもふじの","closed":true,"lat":42.962722,"lng":141.285833,"prefecture":1,"lines":[99110],"postal_code":"061-2282","address":"北海道札幌市南区藤野２条９丁目４-８","open_date":"1948-01-01","closed_date":"1969-11-01","next":[9911014,9911010,9911012,9910106,9910411,9911013],"voronoi":{"lat":42.903766,"lng":141.270224,"delta_lat":[0,-126478,233405,3121,1659,-108320],"delta_lng":[0,15408,7691,-4084,-4663,-14217]},"impl":false},
    {"code":9911010,"id":"5ac232","name":"十五島公園","name_kana":"じゅうごしまこうえん","closed":true,"lat":42.962333,"lng":141.297639,"prefecture":1,"lines":[99110],"postal_code":"061-2282","address":"北海道札幌市南区藤野２条６丁目２-１","open_date":"1959-06-21","closed_date":"1969-11-01","next":[9911009,9911011,9910411,9911014],"voronoi":{"lat":43.003186,"lng":141.306118,"delta_lat":[0,7508,-233405,-12448],"delta_lng":[0,-12794,-7691,1116]},"impl":false},
    {"code":9911012,"id":"108a33","name":"東簾舞","name_kana":"ひがしみすまい","closed":true,"lat":42.964833,"lng":141.26975,"prefecture":1,"lines":[99110],"postal_code":"061-2261","address":"北海道札幌市南区簾舞１条１丁目１-３８","open_date":"1951-11-01","closed_date":"1969-11-01","next":[9911013,9910102,9911011,9910106,9910105],"voronoi":{"lat":43.025939,"lng":141.263657,"delta_lat":[0,913,-119698,108320,4925],"delta_lng":[0,-5453,12156,14217,-9101]},"impl":false},
    {"code":9910417,"left":9911005,"right":9910424,"id":"722998","name":"静修学園前","name_kana":"せいしゅうがくえんまえ","lat":43.038329,"lng":141.351063,"prefecture":1,"lines":[99104],"attr":"heat","postal_code":"064-0916","address":"札幌市中央区南１６条西６","next":[9910416,9910413,9910210,9910414,9910418,9910409],"voronoi":{"lat":43.036071,"lng":141.3459,"delta_lat":[0,-168,991,3281,-993,-1341],"delta_lng":[0,445,7964,-1186,-9311,130]},"impl":true},
    {"code":9911005,"left":9910215,"right":9910213,"id":"b730c8","name":"慈恵学園","name_kana":"じけいがくえん","closed":true,"lat":43.009456,"lng":141.365581,"prefecture":1,"lines":[99110],"postal_code":"005-0004","address":"北海道札幌市南区澄川４条６丁目１-１","open_date":"1959-04-01","closed_date":"1969-11-01","next":[9910215,9910314,9910214,9911006,9910413,9910414],"voronoi":{"lat":43.012479,"lng":141.347332,"delta_lat":[0,-290,-486,-9487,6212,8034],"delta_lng":[0,-288,1337,40281,-2013,-34373]},"impl":false},
    {"code":9910215,"left":1120105,"right":9910413,"id":"f4149c","name":"自衛隊前","name_kana":"じえいたいまえ","lat":43.006038,"lng":141.364776,"prefecture":1,"lines":[99102],"attr":"eco","postal_code":"005-0004","address":"札幌市南区澄川４条７","next":[9911005,9911006,9910314],"voronoi":{"lat":43.011703,"lng":141.34838,"delta_lat":[0,-9487,-12434],"delta_lng":[0,40281,5055]},"impl":true},
    {"code":1120105,"left":9920402,"right":9910216,"id":"69a9b3","name":"三沢(青森)","original_name":"三沢","name_kana":"みさわ","lat":40.668498,"lng":141.353638,"prefecture":2,"lines":[11201,99204,99206],"attr":"eco","postal_code":"033-0000","address":"三沢市犬落瀬","next":[1120106,1120306,1120607,9920402,9920403,1120103,1120104,1120304],"voronoi":{"lat":40.965253,"lng":141.705613,"delta_lat":[0,-203899,-62928,-48423,19659,9519,223871,58721],"delta_lng":[0,-140072,-88657,-112586,-37888,-7419,171874,193864]},"impl":true},
    {"code":9920402,"left":9920604,"right":9911008,"id":"b47024","name":"大曲(青森)","original_name":"大曲","name_kana":"おおまがり","closed":true,"lat":40.648069,"lng":141.343038,"prefecture":2,"lines":[99204],"attr":"unknown","postal_code":"033-0071","address":"上北郡六戸町大字犬落瀬字柳沢９０-２８","closed_date":"2012-04-01","next":[1120105,9920403,1120104],"voronoi":{"lat":40.613229,"lng":141.339393,"delta_lat":[0,56432,-19659],"delta_lng":[0,-12984,37888]},"impl":true},
    {"code":9920604,"left":9920403,"id":"aaba87","name":"剣吉","name_kana":"けんよし","lat":40.449025,"lng":141.346805,"prefecture":2,"lines":[99206,11233],"attr":"heat","postal_code":"039-0612","address":"三戸郡南部町剣吉","next":[9920407,9920406,9920603,9920606,9920605,9920517,9920408,9920405],"voronoi":{"lat":40.368694,"lng":141.417734,"delta_lat":[0,-16483,16463,148647,12477,4345,420,6707],"delta_lng":[0,7363,-48213,-120225,20382,9208,993,20545]},"impl":true},
    {"code":9920403,"id":"8780df","name":"柳沢","name_kana":"やなぎさわ","closed":true,"lat":40.642973,"lng":141.320889,"prefecture":2,"lines":[99204],"attr":"unknown","postal_code":"033-0071","address":"上北郡六戸町大字犬落瀬字柳沢","closed_date":"2012-04-01","next":[1120104,1120105,9920402,9920404,1120106,9920405,9920605],"voronoi":{"lat":40.613229,"lng":141.339393,"delta_lat":[0,56432,9519,-1298,-101784,-31516,2230],"delta_lng":[0,-12984,-7419,-4105,-4455,3677,7268]},"impl":true},
    {"code":9911008,"id":"de2c20","name":"石切山","name_kana":"いしきりやま","closed":true,"lat":42.968889,"lng":141.335389,"prefecture":1,"lines":[99110],"postal_code":"005-0841","address":"北海道札幌市南区石山１条３丁目１-３０","open_date":"1918-10-18","closed_date":"1969-11-01","next":[9911007,1110911,1110431,9910411,9911009,9910216,1110910,1110430],"voronoi":{"lat":42.77312,"lng":141.373248,"delta_lat":[0,227474,-570,-5897,-120314,-80001,-7386,-10014],"delta_lng":[0,-61120,15553,5676,104391,-22151,-2527,-24163]},"impl":false},
    {"code":9910216,"left":1110429,"right":9911006,"id":"6942f5","name":"真駒内","name_kana":"まこまない","lat":42.991134,"lng":141.358499,"prefecture":1,"lines":[99102],"attr":"eco","postal_code":"005-0008","address":"札幌市南区真駒内１７","next":[9910411,9911006,9910412,9911008,9911007],"voronoi":{"lat":42.994127,"lng":141.333356,"delta_lat":[0,5897,5671,11,-21789],"delta_lng":[0,-5676,10709,23,54361]},"impl":true},
    {"code":1110429,"left":9911007,"id":"123518","name":"白老","name_kana":"しらおい","lat":42.55474,"lng":141.360054,"prefecture":1,"lines":[11104],"attr":"heat","postal_code":"059-0904","address":"白老郡白老町東町１丁目","next":[9911014,1010208,1110428,9911009,1110430],"voronoi":{"lat":42.677071,"lng":141.246565,"delta_lat":[0,71939,3156,2899,-548450],"delta_lng":[0,30323,10665,22598,228847]},"impl":true},
    {"code":9911007,"id":"58be7b","name":"緑ヶ丘","name_kana":"みどりがおか","closed":true,"lat":42.988556,"lng":141.358056,"prefecture":1,"lines":[99110],"postal_code":"005-0015","address":"北海道札幌市南区真駒内泉町４丁目１-１","open_date":"1961-04-15","closed_date":"1969-11-01","next":[9911008,9911006,9910314,1110918,1110914,1110911,9910216],"voronoi":{"lat":42.994127,"lng":141.333356,"delta_lat":[0,-120314,20327,29917,2679,55555,1626],"delta_lng":[0,104391,8065,-6393,-1330,-40777,-4539]},"impl":false},
    {"code":9911006,"id":"7887bf","name":"真駒内(定山渓鉄道線)","original_name":"真駒内","name_kana":"まこまない","closed":true,"lat":43.002371,"lng":141.363003,"prefecture":1,"lines":[99110],"postal_code":"005-0861","address":"北海道札幌市南区真駒内６１１−１","open_date":"1920-04-01","closed_date":"1969-11-01","next":[9910413,9910412,9910215,9911007,9910216,9911005,9910314],"voronoi":{"lat":42.983917,"lng":141.392774,"delta_lat":[0,21789,4141,2342,-486,-21921,-7491],"delta_lng":[0,-54361,5107,3524,1337,45336,3596]},"impl":false},
    {"code":9910413,"left":9910410,"right":9910416,"id":"586cbb","name":"石山通","name_kana":"いしやまどおり","lat":43.030706,"lng":141.344175,"prefecture":1,"lines":[99104],"attr":"cool","postal_code":"064-0922","address":"札幌市中央区南２２条西１０","next":[9910412,9911006,9910409,9910410,9910417,9910414,9911005],"voronoi":{"lat":43.036071,"lng":141.3459,"delta_lat":[0,1770,-1832,-1051,-25110,2342,290],"delta_lng":[0,-1958,-1567,-452,1597,3524,288]},"impl":true},
    {"code":9910410,"left":9910412,"right":9910409,"id":"ad5a53","name":"ロープウェイ入口","name_kana":"ろーぷうぇいいりぐち","lat":43.03367,"lng":141.337287,"prefecture":1,"lines":[99104],"attr":"cool","postal_code":"064-0919","address":"札幌市中央区南１９条西１５","next":[9910413,9910106,9910409,9910411,9910412],"voronoi":{"lat":43.036008,"lng":141.342375,"delta_lat":[0,-3800,-3322,3377,2694],"delta_lng":[0,-29067,-3952,29621,2946]},"impl":true},
    {"code":9910412,"left":9910411,"id":"6c78ae","name":"中央図書館前","name_kana":"ちゅうおうとしょかんまえ","lat":43.030455,"lng":141.340227,"prefecture":1,"lines":[99104],"attr":"cool","postal_code":"064-0922","address":"札幌市中央区南２２条西１３","next":[9910413,9911006,9910411,9910216,9910410],"voronoi":{"lat":43.009847,"lng":141.343519,"delta_lat":[0,-4141,-11,26568,2694],"delta_lng":[0,-5107,-23,587,2946]},"impl":true},
    {"code":9910411,"id":"d823fa","name":"電車事業所前","name_kana":"でんしゃじぎょうしょまえ","lat":43.030512,"lng":141.337647,"prefecture":1,"lines":[99104],"attr":"cool","postal_code":"064-0921","address":"札幌市中央区南２１条西１５","next":[9910216,9911009,9910412,9910106,9911010,9911008,9911011,9910410],"voronoi":{"lat":43.028886,"lng":141.309356,"delta_lat":[0,-15072,-3121,-7508,-2591,-570,5671,26568],"delta_lng":[0,-20116,4084,12794,6010,15553,10709,587]},"impl":true},
    {"code":9910409,"id":"7e539c","name":"西線１６条","name_kana":"にしせんじゅうろくじょう","lat":43.03696,"lng":141.336857,"prefecture":1,"lines":[99104],"attr":"cool","postal_code":"064-0917","address":"札幌市中央区南１７条西１５","next":[9910413,9910418,9910410,9910408,9910417,9910106],"voronoi":{"lat":43.032209,"lng":141.313307,"delta_lat":[0,3800,1832,1341,404,-3612],"delta_lng":[0,29067,1567,-130,-133,-26475]},"impl":true},
    {"code":9910416,"left":9910415,"right":9910211,"id":"9d8ded","name":"山鼻１９条","name_kana":"やまはなじゅうくじょう","lat":43.034706,"lng":141.351514,"prefecture":1,"lines":[99104],"attr":"heat","postal_code":"064-0918","address":"札幌市中央区南１８条西６","next":[9910417,9910414,9910211,9910415,9910210],"voronoi":{"lat":43.034069,"lng":141.356838,"delta_lat":[0,-880,2713,991,-1783],"delta_lng":[0,-7364,-3129,7964,2189]},"impl":true},
    {"code":9910415,"left":9910414,"id":"5553c9","name":"幌南小学校前","name_kana":"こうなんしょうがっこうまえ","lat":43.032196,"lng":141.351814,"prefecture":1,"lines":[99104],"attr":"heat","postal_code":"064-0921","address":"札幌市中央区南２１条西６","next":[9910213,9910414,9910211,9910416,9910214],"voronoi":{"lat":43.027353,"lng":141.360991,"delta_lat":[0,6716,-880,-13934,6177],"delta_lng":[0,-4154,-7364,4871,6120]},"impl":true},
    {"code":9910414,"id":"06b531","name":"東屯田通","name_kana":"ひがしとんでんどおり","lat":43.030954,"lng":141.348261,"prefecture":1,"lines":[99104],"attr":"heat","postal_code":"064-0922","address":"札幌市中央区南２２条西８","next":[9910415,9910214,9910416,9910417,9910413,9911005],"voronoi":{"lat":43.012479,"lng":141.347332,"delta_lat":[0,23591,-168,-2713,-13934,-2793],"delta_lng":[0,-1432,445,3129,4871,-2069]},"impl":true},
    {"code":9910211,"id":"92821d","name":"中の島","name_kana":"なかのしま","lat":43.037727,"lng":141.360758,"prefecture":1,"lines":[99102],"attr":"eco","postal_code":"062-0921","address":"札幌市豊平区中の島１条１","next":[9910213,9910210,9910209,9910310,9910416,9910415,9910212],"voronoi":{"lat":43.04534,"lng":141.361713,"delta_lat":[0,-203,-10026,-1041,-6716,268,13532],"delta_lng":[0,-389,-4827,340,4154,275,5330]},"impl":true},
    {"code":9910213,"left":9920606,"right":9910116,"id":"bbe971","name":"南平岸","name_kana":"みなみひらぎし","lat":43.026842,"lng":141.371355,"prefecture":1,"lines":[99102],"attr":"eco","postal_code":"062-0934","address":"札幌市豊平区平岸４条１３","next":[9910311,9910415,9910312,9910211,9910214,9910313,9910212,9910314],"voronoi":{"lat":43.015199,"lng":141.385745,"delta_lat":[0,10233,1921,268,5698,-165,-11013,-6702],"delta_lng":[0,-25280,527,275,15781,477,7261,999]},"impl":true},
    {"code":9920606,"left":9910214,"right":1120103,"id":"da03f9","name":"北高岩","name_kana":"きたたかいわ","lat":40.475126,"lng":141.405233,"prefecture":2,"lines":[99206,11233],"attr":"heat","postal_code":"039-1108","address":"八戸市大字上野","next":[9920605,100421,1120603,9920604,9920517,1120612,1120604],"voronoi":{"lat":40.349623,"lng":141.518982,"delta_lat":[0,104780,70881,-156590,-16483,-64737,55391],"delta_lng":[0,-51632,-91951,42336,7363,96905,-207]},"impl":true},
    {"code":9910214,"left":9920605,"right":9910314,"id":"100e8b","name":"澄川","name_kana":"すみかわ","lat":43.016845,"lng":141.367308,"prefecture":1,"lines":[99102,99110],"attr":"eco","postal_code":"005-0004","address":"札幌市南区澄川４条２","next":[9910213,9911005,9910414,9910314,9910415],"voronoi":{"lat":43.015199,"lng":141.385745,"delta_lat":[0,-6771,8034,2793,6177],"delta_lng":[0,904,-34373,2069,6120]},"impl":true},
    {"code":9920605,"left":1120104,"id":"bd0687","name":"苫米地","name_kana":"とまべち","lat":40.466926,"lng":141.374903,"prefecture":2,"lines":[99206,11233],"attr":"heat","postal_code":"039-0802","address":"三戸郡南部町苫米地","next":[9920606,100421,1120104,9920405,9920604,1120103,9920403],"voronoi":{"lat":40.546922,"lng":141.325328,"delta_lat":[0,-11173,-10465,-156590,172576,3312,2230],"delta_lng":[0,42255,7816,42336,-109947,6320,7268]},"impl":true},
    {"code":1120104,"id":"fa8693","name":"向山","name_kana":"むかいやま","lat":40.629544,"lng":141.370392,"prefecture":2,"lines":[11201,99206],"attr":"eco","postal_code":"039-2251","address":"上北郡おいらせ町向山","next":[9920605,9920403,9920402,1120105,1120103],"voronoi":{"lat":40.650003,"lng":141.364297,"delta_lat":[0,-36773,-66417,110,151503],"delta_lng":[0,-24904,-18018,3952,151556]},"impl":true},
    {"code":9910314,"id":"01d439","name":"福住","name_kana":"ふくずみ","lat":43.021621,"lng":141.403105,"prefecture":1,"lines":[99103],"attr":"heat","postal_code":"062-0051","address":"札幌市豊平区月寒東１条１３","next":[9910115,9910114,9911005,9911007,9910313,9910213,9910214,1110919,9911006,9910215,1110918],"voronoi":{"lat":42.982292,"lng":141.397313,"delta_lat":[0,7491,12434,6212,6771,240,15609,-21,-2943,-11468,-89880],"delta_lng":[0,-3596,-5055,-2013,-904,40,20377,905,6281,8289,16453]},"impl":true},
    {"code":1120103,"left":1120102,"right":1110430,"id":"bc8d8c","name":"下田","name_kana":"しもだ","lat":40.591958,"lng":141.407965,"prefecture":2,"lines":[11201,99206],"attr":"eco","postal_code":"039-2124","address":"上北郡おいらせ町境田","next":[1120102,9920605,1120105,1120607,1120104,100421],"voronoi":{"lat":40.707982,"lng":141.543123,"delta_lat":[0,53371,-62928,-151503,-11173,6809],"delta_lng":[0,22417,-88657,-151556,42255,23945]},"impl":true},
    {"code":1120102,"left":100421,"id":"3abac9","name":"陸奥市川","name_kana":"むついちかわ","lat":40.563235,"lng":141.439308,"prefecture":2,"lines":[11201,99206],"attr":"eco","postal_code":"039-2241","address":"八戸市市川町","next":[1120607,1120605,1120602,1120604,1120103,100421,1120603],"voronoi":{"lat":40.584861,"lng":141.502247,"delta_lat":[0,34531,88591,-165424,-7233,29371,5804],"delta_lng":[0,15590,25287,-151596,50051,46130,5509]},"impl":true},
    {"code":100421,"id":"614352","name":"八戸","name_kana":"はちのへ","lat":40.5092,"lng":141.431499,"prefecture":2,"lines":[1004,11201,11206,99206,11233],"attr":"eco","postal_code":"039-1101","address":"八戸市尻内町","next":[9920605,9920606,1120603,1120602,1120102,1120103],"voronoi":{"lat":40.535749,"lng":141.367582,"delta_lat":[0,-10465,-70881,13167,67755,7233],"delta_lng":[0,7816,91951,-1629,-24142,-50051]},"impl":true},
    {"code":1110430,"id":"829ff5","name":"社台","name_kana":"しゃだい","lat":42.578682,"lng":141.417433,"prefecture":1,"lines":[11104],"attr":"heat","postal_code":"059-0901","address":"白老郡白老町字社台","next":[9911009,1110428,1110431,1111106,9911008,1110429],"voronoi":{"lat":42.755065,"lng":141.310151,"delta_lat":[0,18055,3292,-768897,-16703,215803],"delta_lng":[0,63097,15659,262421,-900,-111430]},"impl":true},
    {"code":9910116,"left":9910115,"right":9910117,"id":"12b8b8","name":"南郷１８丁目","name_kana":"なんごうじゅうはっちょうめ","lat":43.030229,"lng":141.435196,"prefecture":1,"lines":[99101],"attr":"cool","postal_code":"003-0022","address":"札幌市白石区南郷通１８","next":[1110916,9910115,1110918,9910117],"voronoi":{"lat":43.036477,"lng":141.445003,"delta_lat":[0,-19593,22501,-2206],"delta_lng":[0,-23221,9999,13310]},"impl":true},
    {"code":9910115,"left":9910313,"right":9910312,"id":"43c5b3","name":"南郷１３丁目","name_kana":"なんごうじゅうさんちょうめ","lat":43.035783,"lng":141.422697,"prefecture":1,"lines":[99101],"attr":"cool","postal_code":"003-0022","address":"札幌市白石区南郷通１３","next":[9910314,9910114,1110918,9910116,1110317,1110916],"voronoi":{"lat":43.048566,"lng":141.425067,"delta_lat":[0,-2162,-18320,-11468,268,22501],"delta_lng":[0,-4503,-7216,8289,146,9999]},"impl":true},
    {"code":9910313,"left":9910212,"id":"1c0497","name":"月寒中央","name_kana":"つきさむちゅうおう","lat":43.030553,"lng":141.396263,"prefecture":1,"lines":[99103],"attr":"heat","postal_code":"062-0020","address":"札幌市豊平区月寒中央通７","next":[1110919,9910314,9910213,9910113,9910312],"voronoi":{"lat":43.038314,"lng":141.396141,"delta_lat":[0,-7266,-15609,6702,16170],"delta_lng":[0,10020,-20377,-999,8903]},"impl":true},
    {"code":9910212,"id":"9dea21","name":"平岸(札幌市交通局)","original_name":"平岸","name_kana":"ひらぎし","lat":43.034666,"lng":141.36853,"prefecture":1,"lines":[99102],"attr":"eco","postal_code":"062-0932","address":"札幌市豊平区平岸2条7丁目","next":[9910311,9910310,9910213,9910211],"voronoi":{"lat":43.041,"lng":141.370111,"delta_lat":[0,-7680,-5698,13532],"delta_lng":[0,6936,-15781,5330]},"impl":true},
    {"code":9910312,"id":"c215f5","name":"美園","name_kana":"みその","lat":43.036338,"lng":141.385756,"prefecture":1,"lines":[99103],"attr":"heat","postal_code":"062-0007","address":"札幌市豊平区美園７条７","next":[9910213,9910112,9910311,9910113,9910313],"voronoi":{"lat":43.044136,"lng":141.388278,"delta_lat":[0,-230,-10752,-11013,16170],"delta_lng":[0,-4208,-6546,7261,8903]},"impl":true},
    {"code":9910117,"left":1110918,"right":9910118,"id":"7327cf","name":"大谷地","name_kana":"おおやち","lat":43.028008,"lng":141.452972,"prefecture":1,"lines":[99101],"attr":"cool","postal_code":"004-0041","address":"札幌市厚別区大谷地東３","next":[9910118,1110914,1110916,9910116,1110318,1110918],"voronoi":{"lat":43.036477,"lng":141.445003,"delta_lat":[0,702,4291,-3405,-28062,-58594],"delta_lng":[0,88,5417,5448,10024,-20185]},"impl":true},
    {"code":1110918,"id":"7bc79e","name":"大谷地(国鉄)","original_name":"大谷地","name_kana":"おおやち","closed":true,"lat":43.027861,"lng":141.437194,"prefecture":1,"lines":[11109],"postal_code":"003-0022","address":"北海道札幌市白石区南郷通２０南１-４６ヴィラエターナル","open_date":"1926-08-21","closed_date":"1973-09-10","next":[9910115,1110914,9910116,9911007,9910314,9910117],"voronoi":{"lat":42.924057,"lng":141.43942,"delta_lat":[0,2679,89880,268,19593,-85068],"delta_lng":[0,-1330,-16453,146,23221,792]},"impl":false},
    {"code":9910118,"id":"01812f","name":"ひばりが丘","name_kana":"ひばりがおか","lat":43.032175,"lng":141.464638,"prefecture":1,"lines":[99101],"attr":"cool","postal_code":"004-0022","address":"札幌市厚別区厚別南１","next":[1110915,1110318,9910117,1110914],"voronoi":{"lat":43.010004,"lng":141.46598,"delta_lat":[0,28062,710,-13254],"delta_lng":[0,-10024,9730,11240]},"impl":true},
    {"code":9910424,"left":9910106,"right":9910209,"id":"a71c59","name":"狸小路","name_kana":"たぬきこうじ","lat":43.05727894,"lng":141.3529274,"prefecture":1,"lines":[99104],"attr":"eco","postal_code":"060-0062","address":"北海道札幌市中央区","open_date":"2015-12-20","next":[9910110,9910208,9910401,9910422,9910109,9910309],"voronoi":{"lat":43.057037,"lng":141.355402,"delta_lat":[0,-966,1014,1957,297,-66],"delta_lng":[0,-4390,-570,4080,2144,35]},"impl":true},
    {"code":9910106,"left":9910422,"right":9910108,"id":"b4b3a5","name":"円山公園","name_kana":"まるやまこうえん","lat":43.055582,"lng":141.318863,"prefecture":1,"lines":[99101],"attr":"cool","postal_code":"064-0801","address":"札幌市中央区南１条西２５","next":[9910408,9910107,9910105,9910410,9910411,9910407,9911011,9911012,9910406,9910409],"voronoi":{"lat":43.040987,"lng":141.321575,"delta_lat":[0,3094,4462,15579,-43724,-4925,-1659,15072,3322,3765],"delta_lng":[0,1976,2077,-2178,-47975,9101,4663,20116,3952,3896]},"impl":true},
    {"code":9910422,"left":9910406,"right":9910420,"id":"1532c6","name":"資生館小学校前","name_kana":"しせいかんしょうがっこうまえ","lat":43.055063,"lng":141.348984,"prefecture":1,"lines":[99104],"attr":"eco","postal_code":"064-0804","address":"札幌市中央区南４条西６","next":[9910403,9910421,9910424,9910401,9910402,9910208],"voronoi":{"lat":43.052545,"lng":141.343873,"delta_lat":[0,818,4758,-1035,-1014,-2556],"delta_lng":[0,231,5081,1256,570,429]},"impl":true},
    {"code":9910406,"left":9910408,"right":9910405,"id":"77697c","name":"西線９条旭山公園通","name_kana":"にしせんくじょうあさひやまこうえんどおり","lat":43.047897,"lng":141.33537,"prefecture":1,"lines":[99104],"attr":"cool","postal_code":"064-0809","address":"札幌市中央区南９条西１５","next":[9910405,9910420,9910407,9910107,9910421,9910106],"voronoi":{"lat":43.048892,"lng":141.326254,"delta_lat":[0,1308,-895,-1767,-3456,4462],"delta_lng":[0,16021,223,89,-19035,2077]},"impl":true},
    {"code":9910408,"left":9910407,"id":"b94876","name":"西線１４条","name_kana":"にしせんじゅうよじょう","lat":43.040288,"lng":141.336403,"prefecture":1,"lines":[99104],"attr":"cool","postal_code":"064-0914","address":"札幌市中央区南１４条西１５","next":[9910106,9910419,9910409,9910418,9910407],"voronoi":{"lat":43.042819,"lng":141.343395,"delta_lat":[0,-3233,-3612,5014,2209],"delta_lng":[0,284,-26475,4372,21673]},"impl":true},
    {"code":9910407,"id":"a23ce6","name":"西線１１条","name_kana":"にしせんじゅういちじょう","lat":43.044664,"lng":141.335957,"prefecture":1,"lines":[99104],"attr":"cool","postal_code":"064-0811","address":"札幌市中央区南１１条西１５","next":[9910420,9910106,9910406,9910419,9910408],"voronoi":{"lat":43.040987,"lng":141.321575,"delta_lat":[0,3094,3456,-1661,-2680],"delta_lng":[0,1976,19035,477,185]},"impl":true},
    {"code":9910405,"id":"2c21a0","name":"西線６条","name_kana":"にしせんろくじょう","lat":43.051352,"lng":141.335088,"prefecture":1,"lines":[99104],"attr":"cool","postal_code":"064-0806","address":"札幌市中央区南６条西１５","next":[9910404,9910421,9910406,9910107,9910403],"voronoi":{"lat":43.0502,"lng":141.342275,"delta_lat":[0,-1308,4978,-81,-3548],"delta_lng":[0,-16021,5928,6382,3711]},"impl":true},
    {"code":9910420,"left":9910418,"right":9910421,"id":"87518c","name":"山鼻９条","name_kana":"やまはなくじょう","lat":43.04862,"lng":141.34973,"prefecture":1,"lines":[99104],"attr":"eco","postal_code":"064-0809","address":"札幌市中央区南９条西６","next":[9910407,9910406,9910421,9910419,9910209],"voronoi":{"lat":43.050272,"lng":141.352242,"delta_lat":[0,-968,-1767,-1661,1692],"delta_lng":[0,-9744,89,477,9320]},"impl":true},
    {"code":9910418,"left":9910419,"id":"7d4d02","name":"行啓通","name_kana":"ぎょうけいどおり","lat":43.041544,"lng":141.35072,"prefecture":1,"lines":[99104],"attr":"heat","postal_code":"064-0914","address":"札幌市中央区南１４条西６","next":[9910210,9910419,9910409,9910408,9910417],"voronoi":{"lat":43.044006,"lng":141.354214,"delta_lat":[0,-1188,-3233,-404,993],"delta_lng":[0,-10819,284,133,9311]},"impl":true},
    {"code":9910419,"id":"cca2d5","name":"中島公園通","name_kana":"なかじまこうえんどおり","lat":43.045652,"lng":141.350269,"prefecture":1,"lines":[99104],"attr":"heat","postal_code":"064-0811","address":"札幌市中央区南１１条西６","next":[9910209,9910418,9910408,9910210,9910407,9910420],"voronoi":{"lat":43.044394,"lng":141.354599,"delta_lat":[0,-388,-1188,378,2680,1692],"delta_lng":[0,-385,-10819,-146,-185,9320]},"impl":true},
    {"code":9910421,"id":"5137c9","name":"東本願寺前","name_kana":"ひがしほんがんじまえ","lat":43.051398,"lng":141.349454,"prefecture":1,"lines":[99104],"attr":"eco","postal_code":"064-0807","address":"札幌市中央区南７条西６","next":[9910422,9910405,9910403,9910208,9910406,9910420,9910209],"voronoi":{"lat":43.050272,"lng":141.352242,"delta_lat":[0,-968,895,41,2304,971,-1422],"delta_lng":[0,-9744,-223,0,1599,7567,1638]},"impl":true},
    {"code":9910108,"left":9910403,"right":9910109,"id":"bdd430","name":"西１１丁目","name_kana":"にしじゅういっちょうめ","lat":43.058557,"lng":141.341036,"prefecture":1,"lines":[99101],"attr":"cool","postal_code":"060-0042","address":"札幌市中央区大通西１１","next":[9910403,9910206,9910404,9910402,1110314],"voronoi":{"lat":43.063963,"lng":141.335604,"delta_lat":[0,-5471,-946,6784,3637],"delta_lng":[0,2086,5820,583,-3067]},"impl":true},
    {"code":9910403,"left":9910404,"right":9910105,"id":"63c662","name":"中央区役所前","name_kana":"ちゅうおうくやくしょまえ","lat":43.05737,"lng":141.340843,"prefecture":1,"lines":[99104],"attr":"cool","postal_code":"060-0061","address":"札幌市中央区南１条西１１","next":[9910422,9910108,9910404,9910421,9910402,9910405],"voronoi":{"lat":43.052545,"lng":141.343873,"delta_lat":[0,818,4183,946,-4703,-3548],"delta_lng":[0,231,-594,-5820,873,3711]},"impl":true},
    {"code":9910404,"left":9910107,"id":"d75e26","name":"西１５丁目","name_kana":"にしじゅうごちょうめ","lat":43.056313,"lng":141.335151,"prefecture":1,"lines":[99104],"attr":"cool","postal_code":"060-0061","address":"札幌市中央区南１条西１５","next":[9910405,9910403,9910108,1110314,9910107],"voronoi":{"lat":43.05387,"lng":141.332181,"delta_lat":[0,-81,4703,5471,-376],"delta_lng":[0,6382,-873,-2086,-1744]},"impl":true},
    {"code":9910107,"id":"09d0ad","name":"西１８丁目","name_kana":"にしじゅうはっちょうめ","lat":43.057168,"lng":141.330204,"prefecture":1,"lines":[99101],"attr":"cool","postal_code":"060-0042","address":"札幌市中央区大通西１８","next":[9910106,9910405,1110314,9910406,9910105,9910404],"voronoi":{"lat":43.064968,"lng":141.323621,"delta_lat":[0,-845,-15579,348,4978,9717],"delta_lng":[0,-171,2178,625,5928,1679]},"impl":true},
    {"code":9910105,"id":"aee31e","name":"西２８丁目","name_kana":"にしにじゅうはっちょうめ","lat":43.060345,"lng":141.314522,"prefecture":1,"lines":[99101],"attr":"cool","postal_code":"064-0824","address":"札幌市中央区北４条西２８","next":[9910106,9910104,9910102,9911012,9910103,9910107,1110314],"voronoi":{"lat":43.065669,"lng":141.323205,"delta_lat":[0,-818,-12354,-26559,-5540,43724,845],"delta_lng":[0,-18825,-18191,-22532,11819,47975,171]},"impl":true},
    {"code":9910109,"left":9910401,"right":9910206,"id":"8933d6","name":"大通","name_kana":"おおどおり","lat":43.060307,"lng":141.352508,"prefecture":1,"lines":[99101,99102,99103],"attr":"cool","postal_code":"060-0042","address":"札幌市中央区大通西２","next":[9910402,9910110,9910424,9910206,9910401],"voronoi":{"lat":43.05934,"lng":141.356665,"delta_lat":[0,5667,-2802,-1715,-1447],"delta_lng":[0,-684,-7691,587,5644]},"impl":true},
    {"code":9910401,"left":9910402,"id":"7d8767","name":"西４丁目","name_kana":"にしよんちょうめ","lat":43.0589036,"lng":141.3521482,"prefecture":1,"lines":[99104],"attr":"cool","postal_code":"060-0061","address":"札幌市中央区南１条西４","next":[9910402,9910424,9910422,9910109],"voronoi":{"lat":43.06049,"lng":141.348877,"delta_lat":[0,-2369,-1035,1957],"delta_lng":[0,308,1256,4080]},"impl":true},
    {"code":9910402,"id":"e8a943","name":"西８丁目","name_kana":"にしはっちょうめ","lat":43.05812,"lng":141.346121,"prefecture":1,"lines":[99104],"attr":"cool","postal_code":"060-0061","address":"札幌市中央区南１条西８","next":[9910109,9910401,9910206,9910403,9910422,9910108],"voronoi":{"lat":43.062204,"lng":141.34829,"delta_lat":[0,-1715,-2369,-4758,4183,6784],"delta_lng":[0,587,308,-5081,-594,583]},"impl":true},
    {"code":9910206,"id":"d51f40","name":"さっぽろ","name_kana":"さっぽろ","lat":43.06637,"lng":141.350299,"prefecture":1,"lines":[99102,99103],"attr":"heat","postal_code":"060-0004","address":"札幌市中央区北４条西４","next":[1110314,9910402,9910108,1110315,9910110,9910109,9910205],"voronoi":{"lat":43.066224,"lng":141.356592,"delta_lat":[0,-1217,-2802,2125,3637,811,342],"delta_lng":[0,-610,-7691,-4197,-3067,194,1528]},"impl":true},
    {"code":9910209,"left":9910113,"right":1110316,"id":"361fe9","name":"中島公園","name_kana":"なかじまこうえん","lat":43.048892,"lng":141.354913,"prefecture":1,"lines":[99102],"attr":"eco","postal_code":"064-0809","address":"札幌市中央区南９条西４","next":[9910419,9910208,9910211,9910210,9910309,9910310,9910421,9910420],"voronoi":{"lat":43.044394,"lng":141.354599,"delta_lat":[0,742,203,4625,2448,-319,-1821,-2704],"delta_lng":[0,6726,389,471,-7780,-1326,-837,142]},"impl":true},
    {"code":9910113,"left":9910310,"right":1110318,"id":"595823","name":"白石(札幌市交通局)","original_name":"白石","name_kana":"しろいし","lat":43.046076,"lng":141.396242,"prefecture":1,"lines":[99101],"attr":"cool","postal_code":"003-0002","address":"札幌市白石区東札幌2条6丁目","next":[9910112,1110919,1110317,1110920,9910312,9910313],"voronoi":{"lat":43.038311,"lng":141.393688,"delta_lat":[0,5825,12140,6252,-12327,-11887],"delta_lng":[0,-5410,5939,4675,6131,-8882]},"impl":true},
    {"code":9910310,"left":9910311,"right":9911003,"id":"82a0d4","name":"学園前(北海道)","original_name":"学園前","name_kana":"がくえんまえ","lat":43.047448,"lng":141.36909,"prefecture":1,"lines":[99103],"attr":"heat","postal_code":"062-0906","address":"札幌市豊平区豊平６条６","next":[9911003,9910212,9910110,9910309,9910111,9910311,9910211,9910209],"voronoi":{"lat":43.054473,"lng":141.364967,"delta_lat":[0,23,-2522,-7371,-3604,154,4186,4625],"delta_lng":[0,37,6792,974,-2658,-3515,-4883,471]},"impl":true},
    {"code":9910311,"left":9910210,"id":"f2d480","name":"豊平公園","name_kana":"とよひらこうえん","lat":43.041929,"lng":141.376573,"prefecture":1,"lines":[99103],"attr":"heat","postal_code":"062-0905","address":"札幌市豊平区豊平５条１３","next":[9910213,9910212,9911003,9910310,9910312,9910112],"voronoi":{"lat":43.045984,"lng":141.381661,"delta_lat":[0,-1381,-3604,-7680,-165,10752],"delta_lng":[0,-8891,-2658,6936,477,6546]},"impl":true},
    {"code":9910210,"id":"d553e7","name":"幌平橋","name_kana":"ほろひらばし","lat":43.040073,"lng":141.355886,"prefecture":1,"lines":[99102],"attr":"eco","postal_code":"064-0915","address":"札幌市中央区南１５条西４","next":[9910418,9910211,9910209,9910417,9910419,9910416],"voronoi":{"lat":43.036893,"lng":141.354309,"delta_lat":[0,3281,3832,388,742,-10026],"delta_lng":[0,-1186,1091,385,6726,-4827]},"impl":true},
    {"code":9911003,"id":"78e308","name":"豊平","name_kana":"とよひら","closed":true,"lat":43.048306,"lng":141.375583,"prefecture":1,"lines":[99110],"postal_code":"062-0904","address":"北海道札幌市豊平区豊平４条９丁目１-１","open_date":"1918-10-18","closed_date":"1969-11-01","next":[9910310,9910111,9910311,1110920,9910112],"voronoi":{"lat":43.052079,"lng":141.379502,"delta_lat":[0,1883,-1987,-7371,1381],"delta_lng":[0,-1599,-6108,974,8891]},"impl":false},
    {"code":1110318,"left":9910114,"right":1110916,"id":"11bbb0","name":"厚別","name_kana":"あつべつ","lat":43.045154,"lng":141.46369,"prefecture":1,"lines":[11103],"attr":"eco","postal_code":"004-0055","address":"札幌市厚別区厚別中央５条４丁目","next":[1110915,1110319,9910118,9910119,9910117,1110916],"voronoi":{"lat":43.041471,"lng":141.450509,"delta_lat":[0,-3405,710,5512,5411,31159],"delta_lng":[0,5448,9730,4078,3455,-19961]},"impl":true},
    {"code":9910114,"left":1110919,"id":"0d316b","name":"南郷７丁目","name_kana":"なんごうななちょうめ","lat":43.040091,"lng":141.411759,"prefecture":1,"lines":[99101],"attr":"cool","postal_code":"003-0022","address":"札幌市白石区南郷通７","next":[1110317,9910115,9910314,1110919],"voronoi":{"lat":43.046405,"lng":141.420563,"delta_lat":[0,-18320,2943,16951],"delta_lng":[0,-7216,-6281,1075]},"impl":true},
    {"code":1110919,"id":"d05c75","name":"月寒","name_kana":"つきさっぷ","closed":true,"lat":43.040611,"lng":141.403556,"prefecture":1,"lines":[11109],"postal_code":"003-0021","address":"北海道札幌市白石区栄通５丁目１０-４","open_date":"1926-08-21","closed_date":"1976-10-01","next":[9910113,9910313,9910314,9910114,1110317],"voronoi":{"lat":43.031027,"lng":141.407066,"delta_lat":[0,21,7266,11887,-2223],"delta_lng":[0,-905,-10020,8882,3118]},"impl":false},
    {"code":1110916,"id":"fbb3c1","name":"平和","name_kana":"へいわ","lat":43.04695,"lng":141.437967,"prefecture":1,"lines":[11109],"attr":"cool","postal_code":"003-0029","address":"札幌市白石区平和通１６丁目北","next":[9910116,1110317,1110320,9910117,1111211,1110319,1110318,9910115],"voronoi":{"lat":43.037179,"lng":141.445091,"delta_lat":[0,4291,39387,23787,3914,-501,-59491,-9181],"delta_lng":[0,5417,2750,-5214,-1689,-2321,-18968,6715]},"impl":true},
    {"code":1110316,"left":9910111,"right":1110317,"id":"280d07","name":"苗穂","name_kana":"なえぼ","lat":43.068262,"lng":141.373477,"prefecture":1,"lines":[11103,11109],"attr":"eco","postal_code":"060-0033","address":"札幌市中央区北３条東１３丁目","next":[9910305,9910110,9910304,1110920,9910111],"voronoi":{"lat":43.06308,"lng":141.367881,"delta_lat":[0,6158,6180,-1823,-11313],"delta_lng":[0,-3312,7051,21738,-14086]},"impl":true},
    {"code":9910111,"left":9910309,"right":9910110,"id":"48e341","name":"菊水","name_kana":"きくすい","lat":43.057169,"lng":141.3727,"prefecture":1,"lines":[99101],"attr":"cool","postal_code":"003-0802","address":"札幌市白石区菊水２条２","next":[9910110,9911003,9910310,1110920,1110316],"voronoi":{"lat":43.053961,"lng":141.377904,"delta_lat":[0,-1987,2522,8584,-798],"delta_lng":[0,-6108,-6792,2878,11391]},"impl":true},
    {"code":9910309,"left":9910208,"id":"140eea","name":"豊水すすきの","name_kana":"ほうすいすすきの","lat":43.055008,"lng":141.356838,"prefecture":1,"lines":[99103],"attr":"heat","postal_code":"064-0806","address":"札幌市中央区南６条西２","next":[9910310,9910110,9910424,9910208,9910209],"voronoi":{"lat":43.054473,"lng":141.364967,"delta_lat":[0,4800,-2236,-4625,-2448],"delta_lng":[0,-8266,-1299,-997,7780]},"impl":true},
    {"code":9910208,"id":"189aa3","name":"すすきの","name_kana":"すすきの","lat":43.05578,"lng":141.353257,"prefecture":1,"lines":[99102,99104],"attr":"eco","postal_code":"064-0804","address":"札幌市中央区南４条西４","next":[9910209,9910424,9910421,9910309,9910422],"voronoi":{"lat":43.052094,"lng":141.353078,"delta_lat":[0,319,4625,-966,-2556],"delta_lng":[0,1326,997,-4390,429]},"impl":true},
    {"code":9910110,"id":"9ec4de","name":"バスセンター前","name_kana":"ばすせんたーまえ","lat":43.061268,"lng":141.360473,"prefecture":1,"lines":[99101],"attr":"cool","postal_code":"060-0051","address":"札幌市中央区南１条東４","next":[9910305,9910111,9910424,9910310,1110316,1110315,9910309,9910109,9910206,9910306],"voronoi":{"lat":43.069238,"lng":141.364569,"delta_lat":[0,-6158,-8584,-23,4800,66,5667,1217,3395,582],"delta_lng":[0,3312,-2878,-37,-8266,-35,-684,610,2569,1617]},"impl":true},
    {"code":1110317,"left":9910112,"right":1110920,"id":"e3ad39","name":"白石(JR)","original_name":"白石","name_kana":"しろいし","lat":43.054715,"lng":141.413612,"prefecture":1,"lines":[11103,11109,99110],"attr":"eco","postal_code":"003-0029","address":"札幌市白石区平和通3丁目北6","open_date":"1903-04-21","next":[9910303,9910114,1110920,1110916,9910113,9910304,9910115,1111210,1110919,1111211],"voronoi":{"lat":43.048566,"lng":141.425067,"delta_lat":[0,-2162,1574,2223,12327,13061,23272,8837,301,58],"delta_lng":[0,-4503,-12422,-3118,-6131,271,16394,8337,1995,18145]},"impl":true},
    {"code":9910112,"id":"66cd4e","name":"東札幌","name_kana":"ひがしさっぽろ","lat":43.051614,"lng":141.384922,"prefecture":1,"lines":[99101],"attr":"cool","postal_code":"003-0002","address":"札幌市白石区東札幌２条２","next":[9910113,9910312,1110920,9911003,9910311],"voronoi":{"lat":43.044136,"lng":141.388278,"delta_lat":[0,12140,-4198,-6094,-2078],"delta_lng":[0,5939,-14715,2158,2410]},"impl":true},
    {"code":1110920,"id":"d5ac3f","name":"東札幌(国鉄)","original_name":"東札幌","name_kana":"ひがしさっぽろ","closed":true,"lat":43.055333,"lng":141.383861,"prefecture":1,"lines":[11109,99110],"postal_code":"003-0004","address":"北海道札幌市白石区東札幌３条１丁目１-１","open_date":"1926-08-21","closed_date":"1986-11-01","next":[1110317,9910113,9910112,9910111,9911003,1110316,9910304],"voronoi":{"lat":43.073596,"lng":141.393359,"delta_lat":[0,-11313,-8321,-1883,4198,6252,13061],"delta_lng":[0,-14086,-1369,1599,14715,4675,271]},"impl":false}
  ]
}