{
  "name":"segment55",
  "root":1121010,
  "east":140.998611,
  "west":140.497616,
  "south":38.244861,
  "north":40.555824,
  "station_size":155,
  "node_list":[
    {"code":1121010,"left":9920925,"right":1123149,"id":"208f17","name":"ほっとゆだ","name_kana":"ほっとゆだ","lat":39.314493,"lng":140.775647,"prefecture":3,"lines":[11210],"attr":"cool","postal_code":"029-5512","address":"和賀郡西和賀町川尻４０地割","next":[1121108,1121008,1121106,1121009,1121109,1121011],"voronoi":{"lat":39.468083,"lng":140.70047,"delta_lat":[0,30593,11430,-13635,-56907,-206671],"delta_lng":[0,63581,48358,38408,-2538,-65710]},"impl":true},
    {"code":9920925,"left":1121016,"right":1120254,"id":"b3cd4c","name":"羽後長戸呂","name_kana":"うごながとろ","lat":39.727689,"lng":140.565383,"prefecture":5,"lines":[99209,10208],"attr":"cool","postal_code":"014-0602","address":"仙北市西木町桧木内","open_date":"1970-11-01","next":[9920924,9920922,9920926,9920917],"voronoi":{"lat":39.770588,"lng":140.554967,"delta_lat":[0,-77708,61336,39283],"delta_lng":[0,51227,-194999,61809]},"impl":true},
    {"code":1121016,"left":1120219,"right":1121012,"id":"0ee4bd","name":"矢美津","name_kana":"やびつ","lat":39.291283,"lng":140.592099,"prefecture":5,"lines":[11210],"attr":"cool","postal_code":"019-1109","address":"横手市山内大沢","next":[1121014,1121015,1120216,1120217],"voronoi":{"lat":39.294175,"lng":140.610249,"delta_lat":[0,-46917,43455,65996],"delta_lng":[0,-23022,-16929,39272]},"impl":true},
    {"code":1120219,"left":1120215,"right":9920926,"id":"ed5f13","name":"飯詰","name_kana":"いいづめ","lat":39.406013,"lng":140.515378,"prefecture":5,"lines":[11202],"attr":"heat","postal_code":"019-1236","address":"仙北郡美郷町上深井","next":[1120218,1121115,1121114,9922101,1121116,1120220],"voronoi":{"lat":39.40469,"lng":140.445449,"delta_lat":[0,-46165,91058,6631,-1479,-3599],"delta_lng":[0,33337,162669,-60758,-40442,-17246]},"impl":true},
    {"code":1120215,"left":1120214,"right":1120216,"id":"15e6af","name":"醍醐(秋田)","original_name":"醍醐","name_kana":"だいご","lat":39.248716,"lng":140.53853,"prefecture":5,"lines":[11202],"attr":"heat","postal_code":"013-0102","address":"横手市平鹿町醍醐","next":[1120214,1120216,9922102,1121015],"voronoi":{"lat":39.239715,"lng":140.587419,"delta_lat":[0,47248,-33235,-48891],"delta_lng":[0,-85300,-11934,109937]},"impl":true},
    {"code":1120214,"left":1122120,"right":1120218,"id":"3d5a3a","name":"十文字","name_kana":"じゅうもんじ","lat":39.221186,"lng":140.526287,"prefecture":5,"lines":[11202],"attr":"heat","postal_code":"019-0527","address":"横手市十文字町字大道東","next":[1120213,1120210,9922102,1120211,1120215,1121012,1121015],"voronoi":{"lat":39.204838,"lng":140.600123,"delta_lat":[0,48891,-11600,-100727,-28927,-5309,7012],"delta_lng":[0,-109937,-9001,101543,61319,13868,-2227]},"impl":true},
    {"code":1122120,"left":1120213,"id":"327d0a","name":"最上","name_kana":"もがみ","lat":38.755959,"lng":140.517712,"prefecture":6,"lines":[11221],"attr":"heat","postal_code":"999-6101","address":"最上郡最上町大字向町","next":[1122119,1120209,1122118,1122117,1122121,9923102],"voronoi":{"lat":38.685371,"lng":140.494732,"delta_lat":[0,168271,82816,-15522,-253270,-3750],"delta_lng":[0,93780,17809,-72131,-59592,4954]},"impl":true},
    {"code":1120213,"id":"799ed0","name":"下湯沢","name_kana":"しもゆざわ","lat":39.197196,"lng":140.50249,"prefecture":5,"lines":[11202],"attr":"heat","postal_code":"012-0802","address":"湯沢市成沢","next":[1120214,9922201,9922102,1120211,1120212,9922202],"voronoi":{"lat":39.233919,"lng":140.468214,"delta_lat":[0,8209,-100727,2111,44750,8309],"delta_lng":[0,12971,101543,-7717,-97579,-7203]},"impl":true},
    {"code":1120218,"id":"53ed99","name":"後三年","name_kana":"ごさんねん","lat":39.364891,"lng":140.538397,"prefecture":5,"lines":[11202],"attr":"heat","postal_code":"019-1234","address":"仙北郡美郷町飯詰","next":[1120219,1120217,1121013,1121114,1121014,9922102,9922101],"voronoi":{"lat":39.358526,"lng":140.478785,"delta_lat":[0,91058,2222,-68234,-21258,-44975,15354],"delta_lng":[0,162669,32210,-45292,-17282,-111900,-14588]},"impl":true},
    {"code":1120216,"left":1122118,"right":1120217,"id":"acb773","name":"柳田(秋田)","original_name":"柳田","name_kana":"やなぎた","lat":39.276385,"lng":140.553856,"prefecture":5,"lines":[11202],"attr":"heat","postal_code":"013-0054","address":"横手市柳田","next":[9922102,1121015,1120217,1121016,1120215],"voronoi":{"lat":39.286963,"lng":140.502119,"delta_lat":[0,16832,-13083,-43455,-7542],"delta_lng":[0,683,67495,16929,193]},"impl":true},
    {"code":1122118,"left":1122119,"id":"691373","name":"赤倉温泉","name_kana":"あかくらおんせん","lat":38.730535,"lng":140.553647,"prefecture":6,"lines":[11221],"attr":"heat","postal_code":"999-6105","address":"最上郡最上町富澤","next":[1122117,9923102,1121630,1122119,1122120,1121714],"voronoi":{"lat":38.530347,"lng":140.594904,"delta_lat":[0,10011,123558,21455,81668,-236162],"delta_lng":[0,-11240,-104111,15180,85697,19748]},"impl":true},
    {"code":1122119,"id":"bfcbd9","name":"立小路","name_kana":"たちこうじ","lat":38.742045,"lng":140.542678,"prefecture":6,"lines":[11221],"attr":"heat","postal_code":"999-6100","address":"最上郡最上町立小路","next":[1122117,1122120,1122118],"voronoi":{"lat":38.853642,"lng":140.588513,"delta_lat":[0,-168271,81668],"delta_lng":[0,-93780,85697]},"impl":true},
    {"code":1120217,"id":"546d5a","name":"横手","name_kana":"よこて","lat":39.310146,"lng":140.5604,"prefecture":5,"lines":[11202,11210],"attr":"heat","postal_code":"013-0036","address":"横手市駅前町","next":[1120218,1121014,1120216,9922102,1121016],"voronoi":{"lat":39.290713,"lng":140.570298,"delta_lat":[0,13083,13543,44975,-5605],"delta_lng":[0,-67495,-3612,111900,-1521]},"impl":true},
    {"code":9920926,"left":1121114,"right":9920928,"id":"b8a474","name":"八津","name_kana":"やつ","lat":39.687701,"lng":140.552805,"prefecture":5,"lines":[99209,10208],"attr":"cool","postal_code":"014-0516","address":"仙北市西木町小山田","open_date":"1970-11-01","next":[9920927,9920917,1120224,1120222,9920924,9920925],"voronoi":{"lat":39.754216,"lng":140.411196,"delta_lat":[0,-1814,-102830,-12386,50226,5468],"delta_lng":[0,-3938,30582,9616,166968,-8229]},"impl":true},
    {"code":1121114,"left":1121115,"right":1121113,"id":"5634b8","name":"鑓見内","name_kana":"やりみない","lat":39.519323,"lng":140.527744,"prefecture":5,"lines":[11211],"attr":"cool","postal_code":"014-0205","address":"大仙市鑓見内","next":[1121013,1121115,1120221,1120219,1121112,1121113,1121011,1120218],"voronoi":{"lat":39.4543,"lng":140.678426,"delta_lat":[0,3988,16472,91888,-6886,-103547,-6631,2222],"delta_lng":[0,4156,-26881,-192976,1666,116306,60758,32210]},"impl":true},
    {"code":1121115,"left":1121116,"id":"ead813","name":"羽後四ツ屋","name_kana":"うごよつや","lat":39.501511,"lng":140.511886,"prefecture":5,"lines":[11211],"attr":"cool","postal_code":"014-0102","address":"大仙市四ツ屋","next":[1121114,1120219,1121116,1120221],"voronoi":{"lat":39.559762,"lng":140.46439,"delta_lat":[0,-103547,-1479,85748],"delta_lng":[0,116306,-40442,-74358]},"impl":true},
    {"code":1121116,"id":"c52b15","name":"北大曲","name_kana":"きたおおまがり","lat":39.48944,"lng":140.497966,"prefecture":5,"lines":[11211],"attr":"eco","postal_code":"014-0102","address":"大仙市四ツ屋","next":[1121115,1120220,1120221,1120219],"voronoi":{"lat":39.451136,"lng":140.523008,"delta_lat":[0,46633,42714,-85748],"delta_lng":[0,-60341,3229,74358]},"impl":true},
    {"code":1121113,"id":"a47cdf","name":"羽後長野","name_kana":"うごながの","lat":39.546003,"lng":140.540448,"prefecture":5,"lines":[11211],"attr":"cool","postal_code":"014-0207","address":"大仙市長野","next":[1120221,1121114,9920927,1120222,1121112],"voronoi":{"lat":39.616332,"lng":140.472921,"delta_lat":[0,3349,-39727,-13307,-91888],"delta_lng":[0,-15783,-389,5976,192976]},"impl":true},
    {"code":9920928,"left":1121111,"right":9920927,"id":"af08ba","name":"羽後太田","name_kana":"うごおおた","lat":39.627304,"lng":140.574249,"prefecture":5,"lines":[99209,10208],"attr":"cool","postal_code":"014-1116","address":"仙北市田沢湖角館東前郷","open_date":"1970-11-01","next":[1121109,1121111,1121110,9920927],"voronoi":{"lat":39.615229,"lng":140.510206,"delta_lat":[0,-6534,37377,9004],"delta_lng":[0,71306,21132,786]},"impl":true},
    {"code":1121111,"left":1121112,"id":"7013a6","name":"角館","name_kana":"かくのだて","lat":39.591716,"lng":140.570988,"prefecture":5,"lines":[11211,99209,10208],"attr":"heat","postal_code":"014-0373","address":"仙北市角館町岩瀬","next":[1121110,9920928,9920927,1121112],"voronoi":{"lat":39.614407,"lng":140.503726,"delta_lat":[0,822,-6534,-61644],"delta_lng":[0,6481,71306,41516]},"impl":true},
    {"code":1121112,"id":"644e35","name":"鶯野","name_kana":"うぐいすの","lat":39.568536,"lng":140.557901,"prefecture":5,"lines":[11211],"attr":"heat","postal_code":"014-0201","address":"大仙市下鶯野","next":[1121109,1121114,1121110,1121011,9920927,1121113,1121111],"voronoi":{"lat":39.514121,"lng":140.656131,"delta_lat":[0,-48319,-7514,16472,141573,-1926,-67356],"delta_lng":[0,37657,-11207,-26881,-182780,30805,119303]},"impl":true},
    {"code":9920927,"id":"87919d","name":"西明寺","name_kana":"さいみょうじ","lat":39.653175,"lng":140.563191,"prefecture":5,"lines":[99209,10208],"attr":"cool","postal_code":"014-0515","address":"仙北市西木町門屋六本杉","open_date":"1970-11-01","next":[9920926,1121111,1121113,1121112,1121109,1120222,9920928,9920924],"voronoi":{"lat":39.655076,"lng":140.603431,"delta_lat":[0,-39847,-822,1926,3349,17504,50226,-1144],"delta_lng":[0,-93224,-6481,-30805,-15783,-9682,166968,3837]},"impl":true},
    {"code":1121012,"left":1121710,"right":1121013,"id":"190fb5","name":"黒沢(JR)","original_name":"黒沢","name_kana":"くろさわ","lat":39.276243,"lng":140.699619,"prefecture":5,"lines":[11210],"attr":"heat","postal_code":"019-1103","address":"秋田県横手市山内黒沢字蒲坂57","next":[1121015,9922516,1121009,1120210,1121013,1120214,1121011,1122114],"voronoi":{"lat":39.011362,"lng":140.731623,"delta_lat":[0,95803,7012,125901,93753,-139018,-155335,-27579],"delta_lng":[0,-73708,-2227,2824,30057,91842,22054,-63229]},"impl":true},
    {"code":1121710,"left":1122116,"right":1122115,"id":"2232d2","name":"熊ヶ根","name_kana":"くまがね","lat":38.297947,"lng":140.680633,"prefecture":4,"lines":[11217],"attr":"cool","postal_code":"989-3432","address":"仙台市青葉区熊ヶ根字檀の原一番","next":[1121708,1121712,1121709,1122106,9921401],"voronoi":{"lat":38.457911,"lng":140.762148,"delta_lat":[0,25608,-281130,136283,89858],"delta_lng":[0,-33415,-115514,124539,28092]},"impl":true},
    {"code":1122116,"left":1121712,"right":1122117,"id":"5c54ed","name":"中山平温泉","name_kana":"なかやまだいらおんせん","lat":38.726568,"lng":140.668103,"prefecture":4,"lines":[11221],"attr":"heat","postal_code":"989-6832","address":"大崎市鳴子温泉星沼","next":[1122110,1122113,1122106,1122117,1121712,1122115,1121714],"voronoi":{"lat":38.51832,"lng":140.694259,"delta_lat":[0,37289,48469,7796,222966,-304321,-8901],"delta_lng":[0,24335,16896,-719,-77490,-49187,48335]},"impl":true},
    {"code":1121712,"left":1121714,"id":"f33975","name":"作並","name_kana":"さくなみ","lat":38.317738,"lng":140.632467,"prefecture":4,"lines":[11217],"attr":"cool","postal_code":"989-3431","address":"仙台市青葉区作並字相の沢","next":[1121709,1121714,1123132,1122106,1122116,1121710],"voronoi":{"lat":38.51832,"lng":140.694259,"delta_lat":[0,3298,-349275,1026,29020,281130],"delta_lng":[0,-37830,-75235,15568,16457,115514]},"impl":true},
    {"code":1121714,"id":"152864","name":"奥新川","name_kana":"おくにっかわ","lat":38.325953,"lng":140.594329,"prefecture":4,"lines":[11217],"attr":"cool","postal_code":"989-3434","address":"仙台市青葉区新川字岳山","next":[1123132,1121629,1121712,1122117,1122118,1121715,1121630,1122116],"voronoi":{"lat":38.530518,"lng":140.608094,"delta_lat":[0,359,-530,-29621,-6441,-331242,9299,349275],"delta_lng":[0,-7917,-5274,-32432,-4682,-24254,47659,75235]},"impl":true},
    {"code":1122117,"id":"29c842","name":"堺田","name_kana":"さかいだ","lat":38.73549,"lng":140.612902,"prefecture":6,"lines":[11221],"attr":"eco","postal_code":"999-6106","address":"最上郡最上町大字堺田","next":[1122118,1122119,1121714,1122116,1122120,1122115,1120209],"voronoi":{"lat":38.936458,"lng":140.606321,"delta_lat":[0,-82816,-86603,-236162,-359,304321,122160],"delta_lng":[0,-17809,-8083,19748,7917,49187,-9133]},"impl":true},
    {"code":1122115,"left":1121708,"right":1122114,"id":"44f4d5","name":"鳴子温泉","name_kana":"なるこおんせん","lat":38.743193,"lng":140.715939,"prefecture":4,"lines":[11221],"attr":"heat","postal_code":"989-6823","address":"大崎市鳴子温泉湯元","next":[1122114,1122116,1122117,1122113,1120209,1120210],"voronoi":{"lat":38.615496,"lng":140.735135,"delta_lat":[0,-3623,222966,122160,1011,38136],"delta_lng":[0,-363,-77490,-9133,1227,60291]},"impl":true},
    {"code":1121708,"left":1121709,"id":"c688df","name":"愛子","name_kana":"あやし","lat":38.272661,"lng":140.761517,"prefecture":4,"lines":[11217],"attr":"heat","postal_code":"989-3124","address":"仙台市青葉区上愛子上町","next":[1123136,1121710,9921401,1121707,9921801,1121709,1123135],"voronoi":{"lat":38.172026,"lng":140.771248,"delta_lat":[0,17986,223643,14874,-89858,-173863,635],"delta_lng":[0,6558,-5658,-6298,-28092,-16028,23172]},"impl":true},
    {"code":1121709,"id":"3e5ab8","name":"陸前白沢","name_kana":"りくぜんしらさわ","lat":38.278117,"lng":140.702333,"prefecture":4,"lines":[11217],"attr":"heat","postal_code":"989-3124","address":"仙台市青葉区上愛子大道","next":[1121712,1123134,1121710,1121708,1123132,1123133,1123135],"voronoi":{"lat":38.160518,"lng":140.707295,"delta_lat":[0,-4467,53,17264,29020,136283,-173863],"delta_lng":[0,-27244,-1328,-81960,16457,124539,-16028]},"impl":true},
    {"code":1122114,"id":"92e45e","name":"鳴子御殿湯","name_kana":"なるこごてんゆ","lat":38.744612,"lng":140.737148,"prefecture":4,"lines":[11221],"attr":"heat","postal_code":"989-6811","address":"大崎市鳴子温泉字鷲ノ巣","next":[1120210,1122113,1122115,9922516,1121012],"voronoi":{"lat":38.881769,"lng":140.784248,"delta_lat":[0,-266272,380650,15216,537],"delta_lng":[0,-49114,-25468,21956,7613]},"impl":true},
    {"code":1121013,"left":1121110,"right":1121108,"id":"769177","name":"小松川","name_kana":"こまつかわ","lat":39.293403,"lng":140.646094,"prefecture":5,"lines":[11210],"attr":"heat","postal_code":"019-1102","address":"横手市山内小松川","next":[1121114,1120218,1121014,1121012,1121015,1121011],"voronoi":{"lat":39.240078,"lng":140.658511,"delta_lat":[0,34247,109246,68234,2494,-120468],"delta_lng":[0,-19454,-10685,45292,4761,10143]},"impl":true},
    {"code":1121110,"left":1121014,"right":1121109,"id":"7ebf05","name":"生田(秋田)","original_name":"生田","name_kana":"しょうでん","lat":39.612065,"lng":140.601203,"prefecture":5,"lines":[11211],"attr":"heat","postal_code":"014-1114","address":"仙北市田沢湖神代","next":[1121111,1121112,9920928,1121109],"voronoi":{"lat":39.646072,"lng":140.602645,"delta_lat":[0,-37377,-61644,-32930],"delta_lng":[0,-21132,41516,33103]},"impl":true},
    {"code":1121014,"left":1121015,"id":"1e940d","name":"平石","name_kana":"ひらいし","lat":39.291678,"lng":140.628457,"prefecture":5,"lines":[11210],"attr":"heat","postal_code":"019-1108","address":"横手市山内土渕","next":[1121013,1120217,1121016,1120218,1121015],"voronoi":{"lat":39.294175,"lng":140.610249,"delta_lat":[0,62534,5605,21258,-109246],"delta_lng":[0,-679,1521,17282,10685]},"impl":true},
    {"code":1121015,"id":"181757","name":"相野々","name_kana":"あいのの","lat":39.27805,"lng":140.619067,"prefecture":5,"lines":[11210],"attr":"cool","postal_code":"019-1108","address":"横手市山内土渕","next":[1120216,1121012,1121013,1121016,1120214,1121014,1120215],"voronoi":{"lat":39.114178,"lng":140.655687,"delta_lat":[0,125901,34247,19849,-46917,-7542,-34878],"delta_lng":[0,2824,-19454,-28809,-23022,193,12703]},"impl":true},
    {"code":1121109,"id":"aa3d9f","name":"神代(秋田)","original_name":"神代","name_kana":"じんだい","lat":39.622667,"lng":140.627358,"prefecture":5,"lines":[11211],"attr":"heat","postal_code":"014-1113","address":"仙北市田沢湖卒田","next":[1121112,1121108,9920928,1121011,9920927,1121010,9920924,1121110],"voronoi":{"lat":39.465801,"lng":140.693789,"delta_lat":[0,2282,30593,190731,-3140,-31192,-9004,-131951],"delta_lng":[0,6681,63581,-135504,-10286,-14830,-786,53487]},"impl":true},
    {"code":1121108,"left":1121011,"right":1121107,"id":"39aecd","name":"刺巻","name_kana":"さしまき","lat":39.668563,"lng":140.69196,"prefecture":5,"lines":[11211],"attr":"heat","postal_code":"014-1202","address":"仙北市田沢湖刺巻","next":[1121010,1121109,1121106,9920924,9920923,1121107],"voronoi":{"lat":39.729993,"lng":140.659074,"delta_lat":[0,-915,-39671,-190731,11430,80221],"delta_lng":[0,-1051,-29476,135504,48358,-6167]},"impl":true},
    {"code":1121011,"id":"a74bba","name":"ゆだ高原","name_kana":"ゆだこうげん","lat":39.301074,"lng":140.737205,"prefecture":3,"lines":[11210],"attr":"cool","postal_code":"029-5523","address":"和賀郡西和賀町白木野６７地割","next":[1121112,1121109,1121009,1121114,1121013,1121012,1121010],"voronoi":{"lat":39.194813,"lng":140.78041,"delta_lat":[0,139018,120468,3988,7514,2282,-235190],"delta_lng":[0,-91842,-10143,4156,11207,6681,82099]},"impl":true},
    {"code":1121107,"id":"5818fd","name":"田沢湖","name_kana":"たざわこ","lat":39.700363,"lng":140.722139,"prefecture":5,"lines":[11211],"attr":"heat","postal_code":"014-1201","address":"仙北市田沢湖生保内","next":[9920920,9920923,9922601,9920921,1121106,1121108],"voronoi":{"lat":39.729993,"lng":140.659074,"delta_lat":[0,117006,3241,41304,-56024,-245193],"delta_lng":[0,69290,2728,46519,48835,-20204]},"impl":true},
    {"code":1120254,"left":9922802,"right":9922804,"id":"d43382","name":"長峰","name_kana":"ながみね","lat":40.516072,"lng":140.603069,"prefecture":2,"lines":[11202],"attr":"heat","postal_code":"038-0202","address":"南津軽郡大鰐町大字長峰","next":[9920301,9920206,1120255,9920608,1120253,9920212,9920208],"voronoi":{"lat":40.599938,"lng":140.792103,"delta_lat":[0,-4570,-115412,48141,27789,17237,16531],"delta_lng":[0,7925,-220913,7281,4407,28292,59873]},"impl":true},
    {"code":9922802,"left":9920920,"right":9920303,"id":"cd6996","name":"岱野","name_kana":"たいの","closed":true,"lat":40.291936,"lng":140.58845,"prefecture":5,"lines":[99228],"postal_code":"017-0031","address":"秋田県大館市上代野稲荷台１−４","open_date":"1909-05-07","closed_date":"1994-10-01","next":[1121225,9922803,1120249,1120250,1121226,9922902],"voronoi":{"lat":40.302359,"lng":140.570751,"delta_lat":[0,-26300,-17148,-1875,57453,1440],"delta_lng":[0,3086,13192,7360,3296,-20730]},"impl":false},
    {"code":9920920,"left":1121226,"right":9920922,"id":"56c493","name":"戸沢","name_kana":"とざわ","lat":39.859084,"lng":140.581208,"prefecture":5,"lines":[99209],"attr":"heat","postal_code":"014-0601","address":"仙北市西木町上桧木内","open_date":"1989-04-01","next":[9920921,1121107,9922601,9920918,1121215,9920919,1121214],"voronoi":{"lat":39.971606,"lng":140.730189,"delta_lat":[0,48135,-161394,-27692,19586,41304,39452],"delta_lng":[0,-61179,-149110,-15840,227031,46519,-6151]},"impl":true},
    {"code":1121226,"left":1121225,"right":1120249,"id":"c0ee95","name":"東大館","name_kana":"ひがしおおだて","lat":40.266005,"lng":140.554745,"prefecture":5,"lines":[11212],"attr":"eco","postal_code":"017-0846","address":"大館市常盤木町","next":[1120249,1120248,1121225,9922802],"voronoi":{"lat":40.225383,"lng":140.517483,"delta_lat":[0,53220,-2543,-17148],"delta_lng":[0,9526,46829,13192]},"impl":true},
    {"code":1121225,"left":9920919,"id":"530ffb","name":"扇田","name_kana":"おうぎた","lat":40.229235,"lng":140.572472,"prefecture":5,"lines":[11212],"attr":"eco","postal_code":"018-5701","address":"大館市比内町扇田","next":[9920908,9922803,1121224,9922802,9920909,1120248,1121226],"voronoi":{"lat":40.225383,"lng":140.517483,"delta_lat":[0,-49608,-94745,-767,166673,10101,1875],"delta_lng":[0,-30853,78190,832,48359,-19621,-7360]},"impl":true},
    {"code":9920919,"id":"0dcaf9","name":"阿仁マタギ","name_kana":"あにまたぎ","lat":39.91952,"lng":140.515793,"prefecture":5,"lines":[99209],"attr":"heat","postal_code":"018-4732","address":"北秋田市阿仁中村","open_date":"1989-04-01","next":[9920912,1121215,9920914,9920909,1121224,9920918,9920920],"voronoi":{"lat":39.858346,"lng":140.519901,"delta_lat":[0,126858,15272,8225,56892,-36987,-8866],"delta_lng":[0,-38313,5759,5850,82268,86687,6859]},"impl":true},
    {"code":1120249,"id":"144582","name":"大館","name_kana":"おおだて","lat":40.288122,"lng":140.555946,"prefecture":5,"lines":[11202,11212,99228,99229],"attr":"cool","postal_code":"017-0044","address":"大館市御成町１丁目","next":[1121226,9922802,1120248,9922902],"voronoi":{"lat":40.291976,"lng":140.524368,"delta_lat":[0,-13373,-2543,26300],"delta_lng":[0,2641,46829,-3086]},"impl":true},
    {"code":9920922,"left":9920923,"right":9920921,"id":"506a77","name":"左通","name_kana":"さどおり","lat":39.801867,"lng":140.586118,"prefecture":5,"lines":[99209],"attr":"heat","postal_code":"014-0601","address":"仙北市西木町上桧木内","open_date":"1989-04-01","next":[9920917,9920924,9920923,9920921,9920925],"voronoi":{"lat":39.793498,"lng":140.473005,"delta_lat":[0,6275,14128,-42471,-843],"delta_lng":[0,4853,167363,-78577,-11676]},"impl":true},
    {"code":9920923,"left":9920924,"id":"6c4027","name":"羽後中里","name_kana":"うごなかざと","lat":39.771049,"lng":140.602775,"prefecture":5,"lines":[99209],"attr":"heat","postal_code":"014-0602","address":"仙北市西木町桧木内","open_date":"1989-04-01","next":[1121107,9920924,9920922,9920921,1121108],"voronoi":{"lat":39.847,"lng":140.728364,"delta_lat":[0,-33098,-42471,-42352,915],"delta_lng":[0,-83143,-78577,91379,1051]},"impl":true},
    {"code":9920924,"id":"830792","name":"松葉","name_kana":"まつば","lat":39.744107,"lng":140.590288,"prefecture":5,"lines":[99209,10208],"attr":"cool","postal_code":"014-0602","address":"仙北市西木町桧木内","open_date":"1970-11-01","next":[9920922,9920925,9920923,1121108,1121109,9920926,9920927],"voronoi":{"lat":39.687412,"lng":140.614423,"delta_lat":[0,5468,77708,843,-42352,-39671,-3140],"delta_lng":[0,-8229,-51227,11676,91379,-29476,-10286]},"impl":true},
    {"code":9920921,"id":"29a5a6","name":"上桧木内","name_kana":"かみひのきない","lat":39.815858,"lng":140.584937,"prefecture":5,"lines":[99209],"attr":"heat","postal_code":"014-0601","address":"仙北市西木町上桧木内","open_date":"1989-04-01","next":[9920920,9920917,9920922,1121107,9920923,9920918],"voronoi":{"lat":39.85024,"lng":140.731092,"delta_lat":[0,-3241,-33098,-14128,14490,16391],"delta_lng":[0,-2728,-83143,-167363,9772,16431]},"impl":true},
    {"code":9920303,"left":9920304,"right":9920301,"id":"55f38c","name":"鯖石","name_kana":"さばいし","lat":40.53561,"lng":140.5527,"prefecture":2,"lines":[99203],"attr":"heat","postal_code":"038-0200","address":"南津軽郡大鰐町大字小金崎字桜ノ木３-４","next":[9920305,9920306,9920307,9920301,9920304,9920302],"voronoi":{"lat":40.510494,"lng":140.512331,"delta_lat":[0,2448,14212,6991,13849,-12289],"delta_lng":[0,1501,11383,9448,43925,-12000]},"impl":true},
    {"code":9920304,"left":9922902,"right":9920305,"id":"8366c8","name":"石川プール前","name_kana":"いしかわぷーるまえ","lat":40.543292,"lng":140.550278,"prefecture":2,"lines":[99203],"attr":"heat","postal_code":"036-8123","address":"弘前市大字小金崎字村元６０-５","next":[9920206,9920305,9920303,9920301],"voronoi":{"lat":40.547995,"lng":140.578587,"delta_lat":[0,-13849,29015,-7479],"delta_lng":[0,-43925,24906,28995]},"impl":true},
    {"code":9922902,"left":9922903,"id":"14930e","name":"松峯","name_kana":"まつみね","closed":true,"lat":40.308925,"lng":140.551289,"prefecture":5,"lines":[99229],"postal_code":"017-0051","address":"秋田県大館市松峰西松峰１","open_date":"1973-11-01","closed_date":"1985-04-01","next":[1120250,1120249,9922903,9922802,1120248],"voronoi":{"lat":40.303351,"lng":140.517601,"delta_lat":[0,20620,-8042,-13570,-10384],"delta_lng":[0,53541,5813,-6204,-46384]},"impl":false},
    {"code":9922903,"id":"01920a","name":"花岡(秋田)","original_name":"花岡","name_kana":"はなおか","closed":true,"lat":40.321814,"lng":140.546325,"prefecture":5,"lines":[99229],"postal_code":"017-0005","address":"秋田県大館市花岡町堤沢４２","open_date":"1916-01-26","closed_date":"1985-04-01","next":[1120247,9920308,9920302,9920309,9922902,1120251,1120248,1120250],"voronoi":{"lat":40.38129,"lng":140.550546,"delta_lat":[0,45431,1835,-3243,-2903,-59086,-59972,20620],"delta_lng":[0,-57199,-33211,-15735,-11806,30214,54792,53541]},"impl":false},
    {"code":9920305,"id":"e5a0ce","name":"石川(弘南鉄道)","original_name":"石川","name_kana":"いしかわ","lat":40.550967,"lng":140.541337,"prefecture":2,"lines":[99203],"attr":"heat","postal_code":"036-8124","address":"青森県弘前市大字石川字大仏下36","next":[9920303,9920205,9920304,1120256,9920306,9920206],"voronoi":{"lat":40.56883,"lng":140.549767,"delta_lat":[0,-510,-27350,-13816,6991,29015],"delta_lng":[0,-6408,-13309,-4835,9448,24906]},"impl":true},
    {"code":9920301,"left":1120250,"right":9920302,"id":"72cea4","name":"大鰐","name_kana":"おおわに","lat":40.52182,"lng":140.566822,"prefecture":2,"lines":[99203],"attr":"heat","postal_code":"038-0211","address":"南津軽郡大鰐町大字大鰐字前田３４-８","next":[9920302,1120254,1120255,9920303,9920206,9920304],"voronoi":{"lat":40.555886,"lng":140.590803,"delta_lat":[0,-27789,-8402,16011,12289,7687],"delta_lng":[0,-4407,-25570,5761,12000,9976]},"impl":true},
    {"code":1120250,"left":1120255,"id":"a158e9","name":"白沢(秋田)","original_name":"白沢","name_kana":"しらさわ","lat":40.338103,"lng":140.591657,"prefecture":5,"lines":[11202],"attr":"cool","postal_code":"017-0002","address":"大館市白沢","next":[9922805,9922902,9922806,1120251,9922804,9922802,9922803,9922903],"voronoi":{"lat":40.315929,"lng":140.576955,"delta_lat":[0,-1440,5565,1007,31541,3510,25177,-57318],"delta_lng":[0,20730,20753,1003,25524,1999,-96418,20596]},"impl":true},
    {"code":1120255,"id":"66169a","name":"大鰐温泉","name_kana":"おおわにおんせん","lat":40.52154,"lng":140.566914,"prefecture":2,"lines":[11202],"attr":"heat","postal_code":"038-0211","address":"南津軽郡大鰐町大字大鰐字前田","next":[1120253,9920301,1120254,9920302,1120251],"voronoi":{"lat":40.479955,"lng":140.579116,"delta_lat":[0,48141,-8402,-78231,8431],"delta_lng":[0,7281,-25570,-30214,25468]},"impl":true},
    {"code":9920302,"id":"4f91e1","name":"宿川原","name_kana":"しゅくがわら","lat":40.525153,"lng":140.557559,"prefecture":2,"lines":[99203],"attr":"heat","postal_code":"038-0231","address":"南津軽郡大鰐町大字宿川原川崎１３５-１３","next":[1120251,9920301,1120255,9922903,9920308,9920307,9920303],"voronoi":{"lat":40.510494,"lng":140.512331,"delta_lat":[0,-19564,-62375,-1835,14743,78231,16011],"delta_lng":[0,-15546,-36648,33211,37265,30214,5761]},"impl":true},
    {"code":9922804,"left":9922808,"right":9922806,"id":"165e94","name":"小雪沢","name_kana":"こゆきざわ","closed":true,"lat":40.293344,"lng":140.636592,"prefecture":5,"lines":[99228],"postal_code":"017-0021","address":"秋田県大館市雪沢大滝","open_date":"1915-10-20","closed_date":"1961-10-01","next":[9922806,1121224,9922807,1121223,1120250,9922805,9922803],"voronoi":{"lat":40.320055,"lng":140.618439,"delta_lat":[0,1007,-43550,-4304,-19995,-1321,-878],"delta_lng":[0,1003,33603,1121,-3275,-3303,-24200]},"impl":false},
    {"code":9922808,"left":9922807,"right":1121222,"id":"001c05","name":"茂内","name_kana":"しげない","closed":true,"lat":40.291467,"lng":140.689211,"prefecture":5,"lines":[99228],"postal_code":"017-0021","address":"秋田県大館市雪沢上谷地１０８","open_date":"1909-05-07","closed_date":"2009-04-01","next":[1121222,9922809,9922807,9922806],"voronoi":{"lat":40.304778,"lng":140.676955,"delta_lat":[0,-43663,1149,66591],"delta_lng":[0,17444,17227,-28236]},"impl":false},
    {"code":9922807,"left":1121223,"right":9922803,"id":"29ede7","name":"深沢","name_kana":"ふかさわ","closed":true,"lat":40.286686,"lng":140.677244,"prefecture":5,"lines":[99228],"postal_code":"017-0021","address":"秋田県大館市雪沢楢木岱","open_date":"1971-11-10","closed_date":"1994-10-01","next":[1121222,9922808,9922804,9922806,1121223],"voronoi":{"lat":40.261115,"lng":140.694399,"delta_lat":[0,43663,-31570,-19995,-1367],"delta_lng":[0,-17444,-22789,-3275,10957]},"impl":false},
    {"code":1121223,"left":1121224,"id":"bb2b3e","name":"十二所","name_kana":"じゅうにしょ","lat":40.21429,"lng":140.668211,"prefecture":5,"lines":[11212],"attr":"heat","postal_code":"018-5601","address":"大館市十二所","next":[1121224,9922804,1121216,1121221,9922807,1121222],"voronoi":{"lat":40.251846,"lng":140.661847,"delta_lat":[0,1367,-1321,-186180,65862,70652],"delta_lng":[0,-10957,-3303,29562,29294,-12834]},"impl":true},
    {"code":1121224,"id":"7515ac","name":"大滝温泉","name_kana":"おおたきおんせん","lat":40.209751,"lng":140.639625,"prefecture":5,"lines":[11212],"attr":"heat","postal_code":"018-5601","address":"大館市十二所上川代","next":[9920909,9922804,1121223,1121225,1121215,1121216,9920919,9922803],"voronoi":{"lat":40.246936,"lng":140.614011,"delta_lat":[0,-166673,-14669,-36987,36410,695,186180,-878],"delta_lng":[0,-48359,9813,86687,14767,231,-29562,-24200]},"impl":true},
    {"code":9922803,"id":"7382bc","name":"東岱野","name_kana":"ひがしたいの","closed":true,"lat":40.291028,"lng":140.604281,"prefecture":5,"lines":[99228],"postal_code":"017-0024","address":"秋田県大館市大茂内上瘤木台６３−２","open_date":"1970-11-01","closed_date":"1994-10-01","next":[1121225,9922802,1120250,9922804,1121224],"voronoi":{"lat":40.320055,"lng":140.618439,"delta_lat":[0,-5565,-57453,-10101,4078],"delta_lng":[0,-20753,-3296,19621,9377]},"impl":false},
    {"code":1121222,"left":1121220,"right":1121219,"id":"a25ab4","name":"沢尻","name_kana":"さわじり","lat":40.230342,"lng":140.693288,"prefecture":5,"lines":[11212],"attr":"heat","postal_code":"018-5601","address":"大館市十二所","next":[9922808,1121220,9922807,1121221,9922809,1121223],"voronoi":{"lat":40.251846,"lng":140.661847,"delta_lat":[0,9269,1149,-764,-3896,-55378],"delta_lng":[0,32551,17227,4040,-49,-22007]},"impl":true},
    {"code":1121220,"left":1121221,"id":"bac422","name":"末広","name_kana":"すえひろ","lat":40.229788,"lng":140.737251,"prefecture":5,"lines":[11212],"attr":"heat","postal_code":"018-5337","address":"鹿角市十和田末広","next":[1121222,1121219,1121218,1121221,1121217,9922809],"voronoi":{"lat":40.232004,"lng":140.762563,"delta_lat":[0,-20813,-28432,74845,3896,7897],"delta_lng":[0,395,-24568,-22774,49,17532]},"impl":true},
    {"code":1121221,"id":"2861ef","name":"土深井","name_kana":"どぶかい","lat":40.222452,"lng":140.713142,"prefecture":5,"lines":[11212],"attr":"heat","postal_code":"018-5337","address":"鹿角市十和田末広土深井字下向","next":[1121217,1121222,1121223,1121220,1121216],"voronoi":{"lat":40.182759,"lng":140.738391,"delta_lat":[0,74845,-55378,-70652,24051],"delta_lng":[0,-22774,-22007,12834,19125]},"impl":true},
    {"code":1121219,"id":"503abe","name":"十和田南","name_kana":"とわだみなみ","lat":40.256069,"lng":140.770716,"prefecture":5,"lines":[11212],"attr":"heat","postal_code":"018-5336","address":"鹿角市十和田錦木","next":[1121218,1121220,9922811,9922809],"voronoi":{"lat":40.269397,"lng":140.733197,"delta_lat":[0,-37393,131229,-78875],"delta_lng":[0,29366,192884,-212367]},"impl":true},
    {"code":9922806,"left":1120252,"right":9922811,"id":"ce142a","name":"新沢","name_kana":"しんさわ","closed":true,"lat":40.299356,"lng":140.659692,"prefecture":5,"lines":[99228],"postal_code":"017-0021","address":"秋田県大館市雪沢雪沢３３−１","open_date":"1927-12-25","closed_date":"1994-10-01","next":[9922804,9922808,9922809,1120250,1120251,9922805,9922807,9922810],"voronoi":{"lat":40.372619,"lng":140.67845,"delta_lat":[0,-16507,-3510,-75091,-4304,31570,24077,29889],"delta_lng":[0,-31485,-1999,8079,1121,22789,6435,435]},"impl":false},
    {"code":1120252,"left":9922805,"right":1120253,"id":"820a63","name":"津軽湯の沢","name_kana":"つがるゆのさわ","lat":40.441879,"lng":140.632055,"prefecture":2,"lines":[11202],"attr":"heat","postal_code":"038-0101","address":"平川市碇ケ関","next":[9922810,1120253,1120251],"voronoi":{"lat":40.507564,"lng":140.809207,"delta_lat":[0,-60972,-62873],"delta_lng":[0,-235395,110243]},"impl":true},
    {"code":9922805,"left":1120251,"id":"b56061","name":"雪沢温泉","name_kana":"ゆきさわおんせん","closed":true,"lat":40.297442,"lng":140.641903,"prefecture":5,"lines":[99228],"postal_code":"017-0021","address":"秋田県大館市雪沢下谷地８−１","open_date":"1954-08-01","closed_date":"1994-10-01","next":[1120250,9922806,9922804],"voronoi":{"lat":40.321061,"lng":140.619442,"delta_lat":[0,31541,-75091],"delta_lng":[0,25524,8079]},"impl":false},
    {"code":1120251,"id":"6590ce","name":"陣場","name_kana":"じんば","lat":40.398864,"lng":140.607523,"prefecture":5,"lines":[11202],"attr":"cool","postal_code":"017-0001","address":"大館市大字長走","next":[9920302,9922806,1120250,1120255,9922810,1120253,9922903,1120252],"voronoi":{"lat":40.372619,"lng":140.67845,"delta_lat":[0,-16507,25177,45431,14743,8431,-3302,-62873],"delta_lng":[0,-31485,-96418,-57199,37265,25468,17732,110243]},"impl":true},
    {"code":1120253,"id":"c59a00","name":"碇ヶ関","name_kana":"いかりがせき","lat":40.478988,"lng":140.622443,"prefecture":2,"lines":[11202],"attr":"heat","postal_code":"038-0101","address":"青森県平川市碇ヶ関高田13","next":[1120119,1120255,9922810,9920608,1120252,1120254,1120251],"voronoi":{"lat":40.449894,"lng":140.55608,"delta_lat":[0,30061,115412,-33566,-652,-53585,-60972],"delta_lng":[0,23035,220913,74287,1354,-66462,-235395]},"impl":true},
    {"code":9922811,"left":9922809,"right":9922810,"id":"be54b1","name":"小坂","name_kana":"こさか","closed":true,"lat":40.323828,"lng":140.74555,"prefecture":5,"lines":[99228],"postal_code":"017-0202","address":"秋田県鹿角郡小坂町小坂鉱山古川２０","open_date":"1909-05-07","closed_date":"2009-04-01","next":[9920411,9922809,1121219,1121212,9922810,9920602,1121218],"voronoi":{"lat":40.363232,"lng":140.955448,"delta_lat":[0,-78875,31942,142289,-12632,-43104,-30693],"delta_lng":[0,-212367,-20423,266878,8087,5890,-28464]},"impl":false},
    {"code":9922809,"id":"739fbe","name":"篭谷","name_kana":"かごや","closed":true,"lat":40.298678,"lng":140.706217,"prefecture":5,"lines":[99228],"postal_code":"017-0021","address":"秋田県大館市雪沢２０−３","open_date":"1956-02-01","closed_date":"1994-10-01","next":[9922808,1121222,9922810,9922811,9922806,1121219,1121220],"voronoi":{"lat":40.284358,"lng":140.743081,"delta_lat":[0,31942,42444,-29889,-66591,-764,7897],"delta_lng":[0,-20423,-38833,-435,28236,4040,17532]},"impl":false},
    {"code":9922810,"id":"a7d3c2","name":"古館(秋田)","original_name":"古館","name_kana":"ふるだて","closed":true,"lat":40.331111,"lng":140.741667,"prefecture":5,"lines":[99228],"postal_code":"017-0202","address":"秋田県鹿角郡小坂町小坂鉱山古館１−１１","open_date":"1985-10-01","closed_date":"1994-10-01","next":[1120119,9922809,1120252,9922011,1120253,1120118,9922811,1120251,9920411,9922806],"voronoi":{"lat":40.372619,"lng":140.67845,"delta_lat":[0,11100,123845,53585,-3363,-4,-51582,-47612,-142289,42444],"delta_lng":[0,5606,125152,66462,39823,28,44521,29494,-266878,-38833]},"impl":false},
    {"code":1123149,"left":100411,"right":1121106,"id":"9e8356","name":"国府多賀城","name_kana":"こくふたがじょう","lat":38.300933,"lng":140.99411,"prefecture":4,"lines":[11231,11232],"attr":"heat","postal_code":"985-0861","address":"多賀城市浮島一丁目１-２６６","next":[1123147,1123146,1122211,1123150,1123148,1122210],"voronoi":{"lat":38.291868,"lng":140.987397,"delta_lat":[0,20096,2644,2525,-15696,-12382],"delta_lng":[0,-1812,1984,7622,8786,-10196]},"impl":true},
    {"code":100411,"left":9921409,"right":1122209,"id":"2c0bce","name":"仙台(JR)","original_name":"仙台","name_kana":"せんだい","lat":38.260027,"lng":140.882158,"prefecture":4,"lines":[1004,11231,11217,11222,11230,11232],"attr":"eco","postal_code":"980-0021","address":"仙台市青葉区中央一丁目1-1","next":[9921409,1121702,9921411,1122201,9921410,9921808],"voronoi":{"lat":38.255823,"lng":140.882448,"delta_lat":[0,165,7082,4611,1508,-1476],"delta_lng":[0,-1181,-400,914,691,5457]},"impl":true},
    {"code":9921409,"left":9921806,"right":1121704,"id":"45ffed","name":"広瀬通","name_kana":"ひろせどおり","lat":38.262971,"lng":140.875736,"prefecture":4,"lines":[99214],"attr":"eco","postal_code":"980-0021","address":"仙台市青葉区中央２-１０-２２","next":[9921408,100411,1122201,1121702,9921806],"voronoi":{"lat":38.263098,"lng":140.872359,"delta_lat":[0,8810,-2719,-1508,-7921],"delta_lng":[0,6608,3505,-691,-6336]},"impl":true},
    {"code":9921806,"left":9921804,"right":9921410,"id":"fd912a","name":"青葉通一番町","name_kana":"あおばどおりいちばんちょう","lat":38.259722,"lng":140.872222,"prefecture":4,"lines":[99218],"attr":"heat","postal_code":"980-0811","address":"仙台市青葉区一番町","open_date":"2015-12-06","next":[9921408,1122201,9921411,9921409,9921805],"voronoi":{"lat":38.262463,"lng":140.867868,"delta_lat":[0,635,-3338,-4465,-7584],"delta_lng":[0,4492,3086,729,-6781]},"impl":true},
    {"code":9921804,"left":9921805,"right":9921803,"id":"8aed1d","name":"国際センター(宮城)","original_name":"国際センター","name_kana":"こくさいせんたー","lat":38.260167,"lng":140.856944,"prefecture":4,"lines":[99218],"attr":"heat","postal_code":"980-0854","address":"仙台市青葉区川内中ノ瀬町","open_date":"2015-12-06","next":[9921801,9921407,1121704,9921805,9921803],"voronoi":{"lat":38.249419,"lng":140.852859,"delta_lat":[0,-4025,21858,5776,-418],"delta_lng":[0,5196,3867,-5702,-2061]},"impl":true},
    {"code":9921805,"left":9921802,"id":"b3f6e4","name":"大町西公園","name_kana":"おおまちにしこうえん","lat":38.258889,"lng":140.864167,"prefecture":4,"lines":[99218],"attr":"heat","postal_code":"980-0804","address":"仙台市青葉区大町","open_date":"2015-12-06","next":[9921412,9921407,9921416,9921801,9921411,9921408,9921806,9921804],"voronoi":{"lat":38.245393,"lng":140.858055,"delta_lat":[0,-6309,495,7196,936,14752,4208,580],"delta_lng":[0,4911,1366,4672,390,-1526,-4379,-1567]},"impl":true},
    {"code":9921802,"id":"6bc2b2","name":"青葉山","name_kana":"あおばやま","lat":38.254972,"lng":140.835222,"prefecture":4,"lines":[99218],"attr":"heat","postal_code":"981-0945","address":"仙台市青葉区荒巻","open_date":"2015-12-06","next":[1121705,9921803,1121707,9921801,1121706],"voronoi":{"lat":38.265346,"lng":140.839746,"delta_lat":[0,-12902,-34355,7954,38369],"delta_lng":[0,4875,-50778,3229,31924]},"impl":true},
    {"code":9921803,"id":"3dd2dc","name":"川内(宮城)","original_name":"川内","name_kana":"かわうち","lat":38.260556,"lng":140.85,"prefecture":4,"lines":[99218],"attr":"heat","postal_code":"980-0861","address":"仙台市青葉区川内元支倉","open_date":"2015-12-06","next":[9921802,9921801,1121705,1121722,1121704,9921804],"voronoi":{"lat":38.272743,"lng":140.852412,"delta_lat":[0,-3382,-4015,-12902,-3025,23191],"delta_lng":[0,-9203,-3462,4875,8237,1300]},"impl":true},
    {"code":9921410,"left":9921412,"right":1122201,"id":"65dec4","name":"仙台(仙台市交通局)","original_name":"仙台","name_kana":"せんだい","lat":38.259901,"lng":140.879928,"prefecture":4,"lines":[99214,99218],"attr":"eco","postal_code":"980-0021","address":"仙台市青葉区中央一丁目10-10","open_date":"2015-12-06","next":[1122201,9921411,100411],"voronoi":{"lat":38.255306,"lng":140.876211,"delta_lat":[0,7765,-7082],"delta_lng":[0,4657,400]},"impl":true},
    {"code":9921412,"left":9921411,"id":"51bc62","name":"愛宕橋","name_kana":"あたごばし","lat":38.24729,"lng":140.882036,"prefecture":4,"lines":[99214],"attr":"eco","postal_code":"984-0065","address":"仙台市若林区土樋１-１１-１０","next":[9921805,9921413,9921809,9921416,9921414,9921411],"voronoi":{"lat":38.24727,"lng":140.888215,"delta_lat":[0,-9269,-1096,2674,7196,4022],"delta_lng":[0,-10106,-2698,-11080,4672,17989]},"impl":true},
    {"code":9921411,"id":"4874d9","name":"五橋","name_kana":"いつつばし","lat":38.251861,"lng":140.881014,"prefecture":4,"lines":[99214],"attr":"eco","postal_code":"980-0022","address":"仙台市青葉区五橋２-１-１０","next":[1122201,100411,9921410,9921809,9921808,9921805,9921806,9921412],"voronoi":{"lat":38.246776,"lng":140.869003,"delta_lat":[0,936,7584,10,683,-165,-3456,-1570],"delta_lng":[0,390,6781,36,5057,1181,4641,-97]},"impl":true},
    {"code":1122201,"id":"73f4d2","name":"あおば通","name_kana":"あおばどおり","lat":38.260749,"lng":140.878514,"prefecture":4,"lines":[11222],"attr":"eco","postal_code":"980-0021","address":"仙台市青葉区中央３丁目２番１号","next":[9921410,9921411,9921409,100411,9921806],"voronoi":{"lat":38.255306,"lng":140.876211,"delta_lat":[0,7765,4611,-7921,-4465],"delta_lng":[0,4657,914,-6336,729]},"impl":true},
    {"code":1121704,"left":1121705,"right":1121703,"id":"1038bd","name":"北山(宮城)","original_name":"北山","name_kana":"きたやま","lat":38.285154,"lng":140.851876,"prefecture":4,"lines":[11217],"attr":"eco","postal_code":"981-0931","address":"仙台市青葉区北山２","next":[9921407,1121722,1121703,9921804,9921401,9921402,9921803,9921405],"voronoi":{"lat":38.304874,"lng":140.862912,"delta_lat":[0,5504,30989,-68624,-133,418,4675,20329],"delta_lng":[0,-4749,-40732,34980,1747,2061,3540,4018]},"impl":true},
    {"code":1121705,"left":1121706,"right":1121722,"id":"060d3a","name":"国見(宮城)","original_name":"国見","name_kana":"くにみ","lat":38.274783,"lng":140.8335,"prefecture":4,"lines":[11217],"attr":"eco","postal_code":"981-0945","address":"仙台市青葉区荒巻字坊主門","next":[9921802,1121722,1121706,9921803,1121707],"voronoi":{"lat":38.264411,"lng":140.828997,"delta_lat":[0,934,4015,53432,-12196],"delta_lng":[0,10750,3462,-33079,393]},"impl":true},
    {"code":1121706,"left":1121707,"id":"ddae9d","name":"葛岡","name_kana":"くずおか","lat":38.268816,"lng":140.818583,"prefecture":4,"lines":[11217],"attr":"eco","postal_code":"989-3121","address":"仙台市青葉区郷六字葛岡下","next":[1121707,1121705,9921802],"voronoi":{"lat":38.226042,"lng":140.797073,"delta_lat":[0,84554,-46185],"delta_lng":[0,13450,18474]},"impl":true},
    {"code":1121707,"id":"c74188","name":"陸前落合","name_kana":"りくぜんおちあい","lat":38.273379,"lng":140.789896,"prefecture":4,"lines":[11217],"attr":"heat","postal_code":"989-3125","address":"仙台市青葉区下愛子森下","next":[1121706,9921401,1121708,9921802,9921801,1121722,1121705],"voronoi":{"lat":38.322793,"lng":140.81013,"delta_lat":[0,28509,62354,-223643,28076,7954,84554],"delta_lng":[0,-3829,-34152,5658,16037,3229,13450]},"impl":true},
    {"code":1121722,"id":"723ac3","name":"東北福祉大前","name_kana":"とうほくふくしだいまえ","lat":38.280468,"lng":140.842683,"prefecture":4,"lines":[11217],"attr":"eco","postal_code":"981-0943","address":"仙台市青葉区国見１丁目２２２番地５号","next":[1121704,1121705,9921401,9921803,1121707],"voronoi":{"lat":38.351302,"lng":140.806301,"delta_lat":[0,-9935,-68624,-3382,53432],"delta_lng":[0,11131,34980,-9203,-33079]},"impl":true},
    {"code":1121703,"left":9921408,"right":9921405,"id":"19539a","name":"北仙台","name_kana":"きたせんだい","lat":38.281594,"lng":140.869885,"prefecture":4,"lines":[11217,99214],"attr":"eco","postal_code":"981-0913","address":"仙台市青葉区昭和町","next":[9921407,9921405,1121704,1121702],"voronoi":{"lat":38.298031,"lng":140.863778,"delta_lat":[0,-20329,-1530,3604],"delta_lng":[0,-4018,17760,922]},"impl":true},
    {"code":9921408,"left":9921407,"id":"e780d0","name":"勾当台公園","name_kana":"こうとうだいこうえん","lat":38.266304,"lng":140.871292,"prefecture":4,"lines":[99214],"attr":"heat","postal_code":"980-0014","address":"仙台市青葉区本町３-９-２","next":[9921409,9921806,1121702,9921407,9921805],"voronoi":{"lat":38.263098,"lng":140.872359,"delta_lat":[0,8810,519,-5756,-4208],"delta_lng":[0,6608,-367,-15112,4379]},"impl":true},
    {"code":9921407,"id":"e1e0c9","name":"北四番丁","name_kana":"きたよばんちょう","lat":38.272137,"lng":140.86907,"prefecture":4,"lines":[99214],"attr":"heat","postal_code":"980-0802","address":"仙台市青葉区二日町１３-２２","next":[9921805,1121703,1121704,9921804,1121702,9921408],"voronoi":{"lat":38.276172,"lng":140.87752,"delta_lat":[0,1530,-4675,-5776,-580,5756],"delta_lng":[0,-17760,-3540,5702,1567,15112]},"impl":true},
    {"code":9921405,"id":"37c4df","name":"台原","name_kana":"だいのはら","lat":38.288524,"lng":140.878512,"prefecture":4,"lines":[99214],"attr":"heat","postal_code":"981-0903","address":"仙台市青葉区台原森林公園１-１","next":[9921402,1121703,1121702,9921404,1121704],"voronoi":{"lat":38.304874,"lng":140.862912,"delta_lat":[0,-155,-17784,-7158,18255],"delta_lng":[0,684,24549,-9704,-14664]},"impl":true},
    {"code":1122209,"left":9921810,"right":1123145,"id":"ea4799","name":"陸前高砂","name_kana":"りくぜんたかさご","lat":38.27344,"lng":140.967607,"prefecture":4,"lines":[11222],"attr":"eco","postal_code":"983-0005","address":"仙台市宮城野区福室前田","next":[1123148,1123145,1122210,1122208,9921813],"voronoi":{"lat":38.257733,"lng":140.960241,"delta_lat":[0,31395,483,-2617,-51583],"delta_lng":[0,5124,1017,5918,21524]},"impl":true},
    {"code":9921810,"left":1122203,"right":1122205,"id":"ee8d3a","name":"薬師堂(宮城)","original_name":"薬師堂","name_kana":"やくしどう","lat":38.249583,"lng":140.906111,"prefecture":4,"lines":[99218],"attr":"eco","postal_code":"984-0042","address":"仙台市若林区大和町","open_date":"2015-12-06","next":[9921413,1122204,9921811,1122203,9921809,9921414,1123142],"voronoi":{"lat":38.255955,"lng":140.912759,"delta_lat":[0,-1012,-619,-12601,-4688,-11110,-6791],"delta_lng":[0,-12248,-461,-1475,2157,9203,7689]},"impl":true},
    {"code":1122203,"left":9921809,"right":1122204,"id":"d63fde","name":"榴ヶ岡","name_kana":"つつじがおか","lat":38.258792,"lng":140.893782,"prefecture":4,"lines":[11222],"attr":"eco","postal_code":"983-0852","address":"仙台市宮城野区榴岡五丁目11-1","next":[9921808,9921809,9921810,1121702,1122204],"voronoi":{"lat":38.270648,"lng":140.897255,"delta_lat":[0,-3005,-12369,-950,619],"delta_lng":[0,-7971,714,10052,461]},"impl":true},
    {"code":9921809,"left":9921808,"id":"86490b","name":"連坊","name_kana":"れんぼう","lat":38.251111,"lng":140.893056,"prefecture":4,"lines":[99218],"attr":"eco","postal_code":"984-0052","address":"仙台市若林区連坊","open_date":"2015-12-06","next":[9921808,9921413,9921412,9921411,1122203,9921810],"voronoi":{"lat":38.241723,"lng":140.898574,"delta_lat":[0,5547,3527,1570,2907,-950],"delta_lng":[0,-10359,-1223,97,2908,10052]},"impl":true},
    {"code":9921808,"id":"c783db","name":"宮城野通","name_kana":"みやぎのどおり","lat":38.258333,"lng":140.885833,"prefecture":4,"lines":[99218],"attr":"eco","postal_code":"983-0852","address":"仙台市宮城野区榴岡","open_date":"2015-12-06","next":[1122203,9921809,1121702,9921411,100411],"voronoi":{"lat":38.267643,"lng":140.889283,"delta_lat":[0,-12369,-2907,3456,11890],"delta_lng":[0,714,-2908,-4641,5481]},"impl":true},
    {"code":1122204,"id":"044341","name":"宮城野原","name_kana":"みやぎのはら","lat":38.26115,"lng":140.905155,"prefecture":4,"lines":[11222],"attr":"eco","postal_code":"983-0045","address":"仙台市宮城野区宮城野２丁目","next":[1122205,9921810,9921811,1121702,1122203],"voronoi":{"lat":38.270648,"lng":140.897255,"delta_lat":[0,2474,-15896,-1271,-1012],"delta_lng":[0,2175,14109,-780,-12248]},"impl":true},
    {"code":1122205,"left":9921812,"right":1122206,"id":"b10b30","name":"陸前原ノ町","name_kana":"りくぜんはらのまち","lat":38.266017,"lng":140.910638,"prefecture":4,"lines":[11222],"attr":"eco","postal_code":"983-0842","address":"仙台市宮城野区五輪２","next":[9921811,1122204,1121702,1122206,1123144],"voronoi":{"lat":38.282014,"lng":140.903627,"delta_lat":[0,-8892,-15896,2599,13975],"delta_lng":[0,-4198,14109,3694,-4594]},"impl":true},
    {"code":9921812,"left":9921811,"id":"f17d35","name":"六丁の目","name_kana":"ろくちょうのめ","lat":38.250972,"lng":140.935556,"prefecture":4,"lines":[99218],"attr":"cool","postal_code":"984-0011","address":"仙台市若林区六丁の目西町","open_date":"2015-12-06","next":[1122206,9921811,1122207,1122208,9921813],"voronoi":{"lat":38.215349,"lng":140.926839,"delta_lat":[0,45773,1064,87,-762],"delta_lng":[0,1729,1131,17942,806]},"impl":true},
    {"code":9921811,"id":"9ec0e7","name":"卸町(宮城)","original_name":"卸町","name_kana":"おろしまち","lat":38.251528,"lng":140.920833,"prefecture":4,"lines":[99218],"attr":"cool","postal_code":"984-0015","address":"仙台市若林区卸町","open_date":"2015-12-06","next":[1122205,1123141,1122206,1123142,9921810,9921812,1122204,9921813],"voronoi":{"lat":38.209105,"lng":140.92534,"delta_lat":[0,2842,7188,36821,1271,2599,1296,-45773],"delta_lng":[0,-2616,-5101,-4865,780,3694,11335,-1729]},"impl":true},
    {"code":1122206,"id":"2a36fa","name":"苦竹","name_kana":"にがたけ","lat":38.268722,"lng":140.918867,"prefecture":4,"lines":[11222],"attr":"eco","postal_code":"983-0036","address":"仙台市宮城野区苦竹１丁目","next":[9921812,9921811,1123144,1122205,1122207],"voronoi":{"lat":38.27132,"lng":140.92709,"delta_lat":[0,2480,-13975,1296,1064],"delta_lng":[0,-14452,4594,11335,1131]},"impl":true},
    {"code":1123145,"left":1121702,"right":1122210,"id":"a47995","name":"岩切","name_kana":"いわきり","lat":38.300773,"lng":140.954617,"prefecture":4,"lines":[11231,11232],"attr":"eco","postal_code":"983-0821","address":"仙台市宮城野区岩切字洞ノ口","next":[1122209,1123144,9921403,1123148,9921401,1122207,1123146,1122208,9921402],"voronoi":{"lat":38.316266,"lng":140.920947,"delta_lat":[0,-4070,-15993,-9797,2723,483,15421,42635,-16674],"delta_lng":[0,-142,11275,13960,19325,1017,746,-38593,-5058]},"impl":true},
    {"code":1121702,"left":1122207,"right":9921404,"id":"fd99a6","name":"東照宮","name_kana":"とうしょうぐう","lat":38.277262,"lng":140.88682,"prefecture":4,"lines":[11217],"attr":"eco","postal_code":"980-0004","address":"仙台市青葉区宮町５","next":[100411,1122205,9921808,9921408,1123144,9921404,1122204,9921405,9921407,9921409,1122203,1121703],"voronoi":{"lat":38.276172,"lng":140.87752,"delta_lat":[0,-3745,-519,-2719,-1476,-70,3005,2474,8892,7642,-2722,-7158],"delta_lng":[0,1081,367,3505,5457,1354,7971,2175,4198,171,-15653,-9704]},"impl":true},
    {"code":1122207,"left":1123144,"id":"b6b17b","name":"小鶴新田","name_kana":"こづるしんでん","lat":38.273455,"lng":140.935446,"prefecture":4,"lines":[11222],"attr":"eco","postal_code":"983-0036","address":"仙台市宮城野区原町苦竹字北谷地４７","next":[1123144,9921812,1122206,1123145,1122208],"voronoi":{"lat":38.262185,"lng":140.929698,"delta_lat":[0,9135,24882,-9797,-24133],"delta_lng":[0,-2608,4990,13960,1600]},"impl":true},
    {"code":1123144,"id":"e1152e","name":"東仙台","name_kana":"ひがしせんだい","lat":38.276512,"lng":140.920204,"prefecture":4,"lines":[11231,11232],"attr":"eco","postal_code":"983-0833","address":"仙台市宮城野区東仙台１丁目","next":[1122207,9921403,1121702,1123145,1122206,1122205,9921404],"voronoi":{"lat":38.289656,"lng":140.903799,"delta_lat":[0,-7642,-8214,-2480,24882,15993,-19926],"delta_lng":[0,-171,9011,14452,4990,-11275,-15643]},"impl":true},
    {"code":9921404,"id":"0d3511","name":"旭ヶ丘(宮城)","original_name":"旭ヶ丘","name_kana":"あさひがおか","lat":38.295593,"lng":140.883633,"prefecture":4,"lines":[99214],"attr":"heat","postal_code":"981-0904","address":"仙台市青葉区旭ケ丘三丁目25-15先","next":[9921402,1121702,1123144,9921405,9921403],"voronoi":{"lat":38.289656,"lng":140.903799,"delta_lat":[0,-2722,17784,-153,-12296],"delta_lng":[0,-15653,-24549,6567,34999]},"impl":true},
    {"code":1122210,"left":1122208,"right":1123148,"id":"fe39ce","name":"中野栄","name_kana":"なかのさかえ","lat":38.280796,"lng":140.985236,"prefecture":4,"lines":[11222],"attr":"eco","postal_code":"983-0011","address":"仙台市宮城野区栄４","next":[1123148,1122209,9921813,1122211,1123149],"voronoi":{"lat":38.170051,"lng":141.057953,"delta_lat":[0,65361,51583,4873,-2813],"delta_lng":[0,-64129,-21524,15096,6384]},"impl":true},
    {"code":1122208,"id":"910c1b","name":"福田町","name_kana":"ふくだまち","lat":38.274967,"lng":140.958252,"prefecture":4,"lines":[11222],"attr":"eco","postal_code":"983-0023","address":"仙台市宮城野区福田町１","next":[9921813,1122209,9921812,1123145,1122207],"voronoi":{"lat":38.26151,"lng":140.948447,"delta_lat":[0,-3777,31395,-2723,-24133],"delta_lng":[0,11795,5124,-19325,1600]},"impl":true},
    {"code":1123148,"id":"6e94f9","name":"陸前山王","name_kana":"りくぜんさんのう","lat":38.299586,"lng":140.97917,"prefecture":4,"lines":[11231,11232],"attr":"eco","postal_code":"985-0852","address":"多賀城市山王字干刈田","next":[1122209,1122210,1123145,1123149,1123146],"voronoi":{"lat":38.305033,"lng":140.967128,"delta_lat":[0,-15421,-2617,4873,20096],"delta_lng":[0,-746,5918,15096,-1812]},"impl":true},
    {"code":1121106,"left":1122112,"right":1121007,"id":"ca950a","name":"赤渕","name_kana":"あかぶち","lat":39.685112,"lng":140.907222,"prefecture":3,"lines":[11211],"attr":"cool","postal_code":"020-0581","address":"岩手郡雫石町大字御明神","next":[1121105,1121108,1121008,1121006,1121010,1121104,9922601,1121107,1123177],"voronoi":{"lat":39.498116,"lng":140.945079,"delta_lat":[0,-1116,-528,13635,80221,245193,-20242,-218980,-91742],"delta_lng":[0,-6462,-87800,-38408,-6167,20204,70721,49385,5613]},"impl":true},
    {"code":1122112,"left":9921402,"right":1121215,"id":"286d24","name":"池月","name_kana":"いけづき","lat":38.708948,"lng":140.835732,"prefecture":4,"lines":[11221],"attr":"cool","postal_code":"989-6405","address":"大崎市岩出山池月字下宮白山","next":[1122113,1122110,1122111,9922516],"voronoi":{"lat":38.655384,"lng":140.800203,"delta_lat":[0,-20399,146646,-45432],"delta_lng":[0,-36131,72488,60803]},"impl":true},
    {"code":9921402,"left":1122110,"right":1122107,"id":"c28ff4","name":"八乙女","name_kana":"やおとめ","lat":38.312899,"lng":140.884037,"prefecture":4,"lines":[99214],"attr":"heat","postal_code":"981-3135","address":"仙台市泉区八乙女中央１-４-１０","next":[9921405,9921404,9921403,1121704,9921401,1123145],"voronoi":{"lat":38.310378,"lng":140.858164,"delta_lat":[0,-5504,-155,-153,11700,14728],"delta_lng":[0,4749,684,6567,50784,2530]},"impl":true},
    {"code":1122110,"left":9921401,"right":1122111,"id":"1d50d8","name":"有備館","name_kana":"ゆうびかん","lat":38.658135,"lng":140.86442,"prefecture":4,"lines":[11221],"attr":"cool","postal_code":"989-6433","address":"大崎市岩出山上川原町９-１","next":[1122116,1122112,1122106,1122109,1122113,1122111],"voronoi":{"lat":38.594885,"lng":140.819869,"delta_lat":[0,-39277,48469,30908,20399,18725],"delta_lng":[0,-101274,16896,28582,36131,82701]},"impl":true},
    {"code":9921401,"left":1122109,"id":"b9180c","name":"泉中央","name_kana":"いずみちゅうおう","lat":38.323167,"lng":140.880796,"prefecture":4,"lines":[99214],"attr":"heat","postal_code":"981-3133","address":"仙台市泉区泉中央１-７-１","next":[1122105,1121707,1122106,1121708,1121722,1123145,1121704,1123147,9921402,1123146,1121710],"voronoi":{"lat":38.457911,"lng":140.762148,"delta_lat":[0,-7845,-5998,-73702,-22698,-16674,-20616,30989,9935,62354,14874],"delta_lng":[0,136852,26563,4482,-1510,-5058,-65314,-40732,-11131,-34152,-6298]},"impl":true},
    {"code":1122109,"id":"120926","name":"岩出山","name_kana":"いわでやま","lat":38.652508,"lng":140.871492,"prefecture":4,"lines":[11221],"attr":"cool","postal_code":"989-6415","address":"大崎市岩出山字東川原","next":[1122106,1122107,1122110,1122111,1122108,9922515],"voronoi":{"lat":38.707951,"lng":140.961048,"delta_lat":[0,-33842,-79224,1260,1352,109892],"delta_lng":[0,-78144,-63036,3913,2483,136393]},"impl":true},
    {"code":1122111,"id":"830238","name":"上野目","name_kana":"かみのめ","lat":38.680563,"lng":140.859342,"prefecture":4,"lines":[11221],"attr":"cool","postal_code":"989-6404","address":"大崎市岩出山下一栗字熊野堂","next":[1122112,9922515,1122110,1122109,9922516],"voronoi":{"lat":38.707951,"lng":140.961048,"delta_lat":[0,-33842,-18725,80815,-13603],"delta_lng":[0,-78144,-82701,97160,35683]},"impl":true},
    {"code":1122107,"left":1122106,"right":1122108,"id":"08ff71","name":"東大崎","name_kana":"ひがしおおさき","lat":38.605627,"lng":140.897015,"prefecture":4,"lines":[11221],"attr":"eco","postal_code":"989-6227","address":"大崎市古川大崎伏見余在下","next":[1122106,100412,1122109,1122105,1122108],"voronoi":{"lat":38.597497,"lng":140.826265,"delta_lat":[0,-1352,-5517,44437,1705],"delta_lng":[0,-2483,94578,36758,829]},"impl":true},
    {"code":1122106,"left":9921403,"id":"80da01","name":"西古川","name_kana":"にしふるかわ","lat":38.578214,"lng":140.895416,"prefecture":4,"lines":[11221],"attr":"eco","postal_code":"989-6214","address":"大崎市古川新堀字旭町","next":[1122116,1122107,1122109,1121712,1122110,9921401,1121710,1122105],"voronoi":{"lat":38.450066,"lng":140.899,"delta_lat":[0,7845,25608,34801,37289,39277,1260,-5517],"delta_lng":[0,-136852,-33415,-34474,24335,101274,3913,94578]},"impl":true},
    {"code":9921403,"id":"e543d4","name":"黒松(宮城)","original_name":"黒松","name_kana":"くろまつ","lat":38.303142,"lng":140.886285,"prefecture":4,"lines":[99214],"attr":"heat","postal_code":"981-8004","address":"仙台市泉区旭丘堤２-２２-１","next":[1123144,1123145,9921402,9921404],"voronoi":{"lat":38.312195,"lng":140.920806,"delta_lat":[0,4070,-11700,-12296],"delta_lng":[0,142,-50784,34999]},"impl":true},
    {"code":1122108,"id":"39a911","name":"西大崎","name_kana":"にしおおさき","lat":38.629986,"lng":140.889638,"prefecture":4,"lines":[11221],"attr":"eco","postal_code":"989-6412","address":"大崎市岩出山下野目字小泉","next":[9922515,100412,1122107,1123158,1122109,100413],"voronoi":{"lat":38.666699,"lng":140.978437,"delta_lat":[0,-29928,-39273,109892,-1494,-5906],"delta_lng":[0,-22491,-129682,136393,7369,3862]},"impl":true},
    {"code":1121215,"left":1121217,"right":1121213,"id":"d9024f","name":"八幡平","name_kana":"はちまんたい","lat":40.142881,"lng":140.804496,"prefecture":5,"lines":[11212],"attr":"cool","postal_code":"018-5141","address":"鹿角市八幡平小山","next":[1121214,9920919,1121224,9920920,1121216],"voronoi":{"lat":40.065016,"lng":140.676918,"delta_lat":[0,-36410,-8866,-48135,218777],"delta_lng":[0,-14767,6859,61179,125272]},"impl":true},
    {"code":1121217,"left":1121216,"right":1121218,"id":"02e227","name":"鹿角花輪","name_kana":"かづのはなわ","lat":40.188453,"lng":140.785088,"prefecture":5,"lines":[11212],"attr":"heat","postal_code":"018-5201","address":"鹿角市花輪下中島","next":[1121221,1121218,1121220,1121216,1121214],"voronoi":{"lat":40.192569,"lng":140.857152,"delta_lat":[0,-36945,27134,28432,-7269],"delta_lng":[0,-131584,12822,24568,107780]},"impl":true},
    {"code":1121216,"left":1122113,"id":"b28aee","name":"陸中大里","name_kana":"りくちゅうおおさと","lat":40.158574,"lng":140.793477,"prefecture":5,"lines":[11212],"attr":"cool","postal_code":"018-5141","address":"鹿角市八幡平長田","next":[1121214,1121223,1121224,1121217,1121221,1121215],"voronoi":{"lat":40.192569,"lng":140.857152,"delta_lat":[0,-36945,-24051,-65862,-695,125366],"delta_lng":[0,-131584,-19125,-29294,-231,178543]},"impl":true},
    {"code":1122113,"id":"873f6e","name":"川渡温泉","name_kana":"かわたびおんせん","lat":38.736834,"lng":140.779317,"prefecture":4,"lines":[11221],"attr":"heat","postal_code":"989-6712","address":"大崎市鳴子温泉字田中","next":[1122112,1122114,1122116,9922516,1122110,1122115],"voronoi":{"lat":38.611873,"lng":140.734771,"delta_lat":[0,-7796,30908,146646,100137,-266272],"delta_lng":[0,719,28582,72488,-52312,-49114]},"impl":true},
    {"code":1121218,"id":"37be79","name":"柴平","name_kana":"しばひら","lat":40.230751,"lng":140.787941,"prefecture":5,"lines":[11212],"attr":"heat","postal_code":"018-5201","address":"鹿角市花輪鶴田","next":[1121219,1121217,1121213,1121214,1121220,9922811,1121212],"voronoi":{"lat":40.211081,"lng":140.881118,"delta_lat":[0,-5153,-2006,7269,20813,131229,8927],"delta_lng":[0,-6227,-4153,-107780,-395,192884,19601]},"impl":true},
    {"code":1121213,"left":9922516,"right":1121214,"id":"59b189","name":"兄畑","name_kana":"あにはた","lat":40.115869,"lng":140.88302,"prefecture":3,"lines":[11212],"attr":"eco","postal_code":"028-7625","address":"八幡平市沖ノ平","next":[9922601,1121207,1121218,1121208,1121212,1121214],"voronoi":{"lat":39.976505,"lng":140.83991,"delta_lat":[0,16979,51573,24290,141734,-5153],"delta_lng":[0,36250,46634,13540,-55215,-6227]},"impl":true},
    {"code":9922516,"left":1121009,"id":"daaa6c","name":"細倉マインパーク前","name_kana":"ほそくらまいんぱーくまえ","closed":true,"lat":38.803028,"lng":140.906028,"prefecture":4,"lines":[99225],"postal_code":"989-5402","address":"宮城県栗原市鶯沢南郷原１２","open_date":"1942-12-01","closed_date":"2007-04-01","next":[1122113,1121012,1121009,1122112,1122114,9922514,9922515,1122111],"voronoi":{"lat":38.855385,"lng":140.905243,"delta_lat":[0,184303,-210,-27579,-130131,-100137,-45432,-13603],"delta_lng":[0,-101319,-1459,-63229,45013,52312,60803,35683]},"impl":false},
    {"code":1121009,"id":"acc4fa","name":"ゆだ錦秋湖","name_kana":"ゆだきんしゅうこ","lat":39.295513,"lng":140.835343,"prefecture":3,"lines":[11210],"attr":"cool","postal_code":"029-5513","address":"和賀郡西和賀町耳取４９地割","next":[9922516,1123169,1121011,9922514,1121012,1121007,1121008,1121010],"voronoi":{"lat":39.232893,"lng":140.782568,"delta_lat":[0,-38080,-155335,210,19696,13230,137690,229260],"delta_lng":[0,-2158,22054,1459,81229,11225,-7870,-40229]},"impl":true},
    {"code":1121214,"id":"5d3254","name":"湯瀬温泉","name_kana":"ゆぜおんせん","lat":40.122384,"lng":140.840292,"prefecture":5,"lines":[11212],"attr":"cool","postal_code":"018-5141","address":"鹿角市八幡平湯瀬","next":[1121215,9922601,1121216,1121218,1121217,9920920,1121213],"voronoi":{"lat":39.976505,"lng":140.83991,"delta_lat":[0,-45508,40609,218777,2187,11352,2006],"delta_lng":[0,-68450,-41270,125272,1691,13586,4153]},"impl":true},
    {"code":1121007,"left":1123146,"right":9922601,"id":"7c1355","name":"岩沢","name_kana":"いわさわ","lat":39.301016,"lng":140.931616,"prefecture":3,"lines":[11210],"attr":"eco","postal_code":"024-0325","address":"北上市和賀町岩沢","next":[1123169,1121006,1123172,1121009,1121008,1123173],"voronoi":{"lat":39.362656,"lng":140.940186,"delta_lat":[0,-152351,-137690,35918,25048,46284],"delta_lng":[0,-51678,7870,46569,14011,20389]},"impl":true},
    {"code":1123146,"left":9922515,"right":9922512,"id":"a8faa3","name":"新利府","name_kana":"しんりふ","lat":38.317059,"lng":140.972609,"prefecture":4,"lines":[11231],"attr":"heat","postal_code":"981-0100","address":"宮城郡利府町字谷地脇","next":[1123147,1123149,1123145,9921401,1123148],"voronoi":{"lat":38.305033,"lng":140.967128,"delta_lat":[0,42635,22698,-55758,-2644],"delta_lng":[0,-38593,1510,57523,-1984]},"impl":true},
    {"code":9922515,"left":100412,"right":9922514,"id":"a87041","name":"鶯沢工業高校前","name_kana":"うぐいすざわこうぎょうこうこうまえ","closed":true,"lat":38.807111,"lng":140.925528,"prefecture":4,"lines":[99225],"postal_code":"989-5402","address":"宮城県栗原市鶯沢南郷上新反田２７","open_date":"1952-04-01","closed_date":"2007-04-01","next":[1122108,1122111,9922514,100413,9922516,9922513,1122109],"voronoi":{"lat":38.705896,"lng":140.970026,"delta_lat":[0,10599,79353,59538,-132789,-14645,-562],"delta_lng":[0,4203,-19441,-49546,27804,28002,1609]},"impl":false},
    {"code":100412,"left":1122105,"id":"b1d78f","name":"古川","name_kana":"ふるかわ","lat":38.571192,"lng":140.967876,"prefecture":4,"lines":[1004,11221],"attr":"eco","postal_code":"989-6162","address":"大崎市古川駅前大通り１丁目","next":[1122105,1123157,1122108,1122107,1123147,1122103,1123152,1123158],"voronoi":{"lat":38.641075,"lng":140.997609,"delta_lat":[0,-187336,-5032,-376,186735,1705,29928,-23433],"delta_lng":[0,-35834,-9005,-5429,7776,829,22491,18569]},"impl":true},
    {"code":1122105,"id":"40b223","name":"塚目","name_kana":"つかのめ","lat":38.572474,"lng":140.937093,"prefecture":4,"lines":[11221],"attr":"eco","postal_code":"989-6225","address":"大崎市古川塚目字金皿","next":[100412,9921401,1123147,1122107,1122106],"voronoi":{"lat":38.450066,"lng":140.899,"delta_lat":[0,-5998,4263,186735,-44437],"delta_lng":[0,26563,21778,7776,-36758]},"impl":true},
    {"code":9922514,"id":"da7731","name":"鶯沢","name_kana":"うぐいすざわ","closed":true,"lat":38.826667,"lng":140.949028,"prefecture":4,"lines":[99225],"postal_code":"989-5403","address":"宮城県栗原市鶯沢北郷寺原６８","open_date":"1942-12-01","closed_date":"2007-04-01","next":[1123169,9922511,1121009,9922512,9922513,1123168,9922515,9922516],"voronoi":{"lat":39.039688,"lng":140.803923,"delta_lat":[0,19696,-9826,-65130,-132802,-5928,-49851,59538],"delta_lng":[0,81229,12311,62239,9128,-298,-13744,-49546]},"impl":false},
    {"code":9922512,"left":1123147,"right":9922511,"id":"aaac7c","name":"栗原田町","name_kana":"くりはらたまち","closed":true,"lat":38.824806,"lng":140.986028,"prefecture":4,"lines":[99225],"postal_code":"989-5351","address":"宮城県栗原市栗駒中野田町裏１","open_date":"1951-11-01","closed_date":"2007-04-01","next":[9922510,9922514,9922511,9922508,9922513],"voronoi":{"lat":38.845698,"lng":140.968532,"delta_lat":[0,5928,-39910,-23793,-12442],"delta_lng":[0,298,32876,4837,-1599]},"impl":false},
    {"code":1123147,"left":9922513,"id":"258b8d","name":"利府","name_kana":"りふ","lat":38.329483,"lng":140.984652,"prefecture":4,"lines":[11231],"attr":"heat","postal_code":"981-0103","address":"宮城郡利府町森郷柱田","next":[1123149,1122214,1122215,1122105,100412,1123146,1123152,9921401,1123150,1122216],"voronoi":{"lat":38.406269,"lng":140.988628,"delta_lat":[0,42437,-376,-4263,-73702,-55758,2525,13047,12141,6647],"delta_lng":[0,-35857,-5429,-21778,4482,57523,7622,10421,3778,553]},"impl":true},
    {"code":9922513,"id":"76ac4e","name":"尾松","name_kana":"おまつ","closed":true,"lat":38.819361,"lng":140.975528,"prefecture":4,"lines":[99225],"postal_code":"989-5341","address":"宮城県栗原市栗駒稲屋敷上ノ山１７","open_date":"1942-12-01","closed_date":"2007-04-01","next":[100413,9922508,9922514,9922515,9922512],"voronoi":{"lat":38.845698,"lng":140.968532,"delta_lat":[0,-49851,-79353,41715,17272],"delta_lng":[0,-13744,19441,30444,271]},"impl":false},
    {"code":9922511,"id":"44b2a7","name":"栗駒","name_kana":"くりこま","closed":true,"lat":38.829611,"lng":140.991861,"prefecture":4,"lines":[99225],"postal_code":"989-5301","address":"宮城県栗原市栗駒岩ケ崎上町裏５６−２","open_date":"1922-12-17","closed_date":"2007-04-01","next":[1123168,9922510,9922514,9922512],"voronoi":{"lat":38.851626,"lng":140.96883,"delta_lat":[0,132802,-31782,-140930],"delta_lng":[0,-9128,39959,2045]},"impl":false},
    {"code":9922601,"left":1121105,"right":1121104,"id":"857cb4","name":"東八幡平","name_kana":"ひがしはちまんたい","closed":true,"lat":39.920409,"lng":140.974573,"prefecture":3,"lines":[99226],"postal_code":"028-7303","address":"岩手県八幡平市柏台１丁目２-２８","open_date":"1948-03-15","closed_date":"1972-10-10","next":[1121213,1121206,1121214,1121103,1121207,9920920,1121105,1121107,1121106,9922602],"voronoi":{"lat":39.806387,"lng":140.963083,"delta_lat":[0,8891,20242,56024,39452,45508,16979,-29385,-21363,-124295],"delta_lng":[0,-65916,-70721,-48835,-6151,68450,36250,119503,15047,3083]},"impl":false},
    {"code":1121105,"left":1121006,"right":1121212,"id":"741886","name":"春木場","name_kana":"はるきば","lat":39.693396,"lng":140.943954,"prefecture":3,"lines":[11211],"attr":"cool","postal_code":"020-0583","address":"岩手郡雫石町大字上野","next":[1121106,1121104,9922601,1121103],"voronoi":{"lat":39.806387,"lng":140.963083,"delta_lat":[0,8891,-218980,175146],"delta_lng":[0,-65916,49385,23605]},"impl":true},
    {"code":1121006,"left":1121008,"id":"9af388","name":"横川目","name_kana":"よこかわめ","lat":39.309255,"lng":140.972143,"prefecture":3,"lines":[11210],"attr":"eco","postal_code":"024-0331","address":"北上市和賀町横川目","next":[1121007,1123176,1121005,1123173,1121106,1123177,1121008],"voronoi":{"lat":39.179865,"lng":140.977347,"delta_lat":[0,334,253058,36633,28226,-1116,-134344],"delta_lng":[0,217,13958,-22228,-24215,-6462,1569]},"impl":true},
    {"code":1121008,"id":"baee70","name":"和賀仙人","name_kana":"わかせんにん","lat":39.308523,"lng":140.909485,"prefecture":3,"lines":[11210],"attr":"eco","postal_code":"024-0326","address":"北上市和賀町仙人","next":[1121106,1121009,1121010,1121007,1121006],"voronoi":{"lat":39.210305,"lng":140.888507,"delta_lat":[0,229260,56907,528,-134344],"delta_lng":[0,-40229,2538,87800,1569]},"impl":true},
    {"code":1121212,"id":"032c0f","name":"田山","name_kana":"たやま","lat":40.139674,"lng":140.944126,"prefecture":3,"lines":[11212],"attr":"eco","postal_code":"028-7615","address":"八幡平市石名坂","next":[1121211,9922811,1121209,1121208,1121213,1121218,9920602],"voronoi":{"lat":40.402852,"lng":141.003513,"delta_lat":[0,-30693,-161079,-141734,20135,12309,223536],"delta_lng":[0,-28464,-93930,55215,30705,10152,86692]},"impl":true},
    {"code":1121104,"left":1121005,"right":1121207,"id":"ed6e55","name":"雫石","name_kana":"しずくいし","lat":39.689244,"lng":140.974762,"prefecture":3,"lines":[11211],"attr":"eco","postal_code":"020-0524","address":"岩手郡雫石町寺の下","next":[1123182,1123181,1123178,1123177,1121105,1121106,1121103],"voronoi":{"lat":39.771444,"lng":140.970156,"delta_lat":[0,-175146,-91742,21892,21328,25283,28673],"delta_lng":[0,-23605,5613,35317,24578,15242,12549]},"impl":true},
    {"code":1121005,"id":"9efcf3","name":"立川目","name_kana":"たてかわめ","lat":39.307876,"lng":140.997144,"prefecture":3,"lines":[11210],"attr":"heat","postal_code":"024-0332","address":"北上市和賀町竪川目","next":[1123173,1121006,1121004,1123176],"voronoi":{"lat":39.433257,"lng":140.991521,"delta_lat":[0,-253058,32791,168248],"delta_lng":[0,-13958,26106,27014]},"impl":true},
    {"code":1121207,"id":"36c997","name":"安比高原","name_kana":"あっぴこうげん","lat":40.012587,"lng":140.997239,"prefecture":3,"lines":[11212],"attr":"heat","postal_code":"028-7305","address":"八幡平市松尾前森官有地","next":[1121213,9922601,1121206,1121208],"voronoi":{"lat":39.964099,"lng":140.995663,"delta_lat":[0,29385,51573,-23568],"delta_lng":[0,-119503,46634,126178]},"impl":true}
  ]
}