{
  "name":"segment46",
  "root":2100409,
  "east":139.916031,
  "west":139.617796,
  "south":35.778989,
  "north":36.642513,
  "station_size":155,
  "node_list":[
    {"code":2100409,"left":1131908,"right":2100225,"id":"de1b7a","name":"八木崎","name_kana":"やぎさき","lat":35.978376,"lng":139.741785,"prefecture":11,"lines":[21004],"attr":"eco","postal_code":"344-0061","address":"春日部市大字粕壁６９４６","next":[2100408,2100227,2100228,2100226],"voronoi":{"lat":35.983897,"lng":139.746306,"delta_lat":[0,4002,-31830,7625],"delta_lng":[0,-22068,20908,4448]},"impl":true},
    {"code":1131908,"left":9930325,"right":2100406,"id":"9d43b3","name":"東大宮","name_kana":"ひがしおおみや","lat":35.948751,"lng":139.640291,"prefecture":11,"lines":[11319],"attr":"heat","postal_code":"337-0051","address":"さいたま市見沼区東大宮４丁目","next":[2100405,9932106,1131909,9932104,9932108,1131907,9932107,2100404,9932105],"voronoi":{"lat":35.944226,"lng":139.629575,"delta_lat":[0,-718,-6091,5879,16049,7731,-1628,-7508,-6397],"delta_lng":[0,198,12520,11157,7686,-19758,-2170,-6478,-2737]},"impl":true},
    {"code":9930325,"left":1132117,"right":9930703,"id":"75a04c","name":"高島平","name_kana":"たかしまだいら","lat":35.789056,"lng":139.661216,"prefecture":13,"lines":[99303],"attr":"cool","postal_code":"175-0082","address":"板橋区高島平８-２-１","next":[9930324,1132111,2100108,9930326,1132112],"voronoi":{"lat":35.80486,"lng":139.660233,"delta_lat":[0,-26190,374,19768,5016],"delta_lng":[0,-4275,10182,3202,-5566]},"impl":true},
    {"code":1132117,"left":1133204,"right":1131907,"id":"cad3d9","name":"与野本町","name_kana":"よのほんまち","lat":35.880968,"lng":139.626075,"prefecture":11,"lines":[11321],"attr":"eco","postal_code":"338-0003","address":"さいたま市中央区本町東２丁目","next":[1132116,1132211,2100116,2100115,1132203,100403,1133203,1132118,1130509],"voronoi":{"lat":35.876323,"lng":139.634254,"delta_lat":[0,8298,7327,-743,-8944,-8706,-1550,-11083,146],"delta_lng":[0,-2184,-29087,-9344,-7996,-5136,880,8701,3285]},"impl":true},
    {"code":1133204,"left":1132115,"right":1130510,"id":"d5f340","name":"北浦和","name_kana":"きたうらわ","lat":35.872053,"lng":139.645951,"prefecture":11,"lines":[11332],"attr":"heat","postal_code":"330-0074","address":"さいたま市浦和区北浦和３丁目","next":[1130512,1132115,1131904,1132116,2100405,1133203],"voronoi":{"lat":35.875087,"lng":139.636882,"delta_lat":[0,-11598,-2630,26082,10092,578],"delta_lng":[0,3594,5690,31688,1372,-1863]},"impl":true},
    {"code":1132115,"left":9930327,"right":1132116,"id":"acd2af","name":"中浦和","name_kana":"なかうらわ","lat":35.853769,"lng":139.6375,"prefecture":11,"lines":[11321],"attr":"eco","postal_code":"336-0031","address":"さいたま市南区鹿手袋１丁目","next":[1130509,1130510,1133204,1131904,1132116],"voronoi":{"lat":35.856402,"lng":139.62528,"delta_lat":[0,-12928,12637,4748,2630],"delta_lng":[0,12713,9317,-1144,-5690]},"impl":true},
    {"code":9930327,"left":1130509,"id":"4f2bdb","name":"西高島平","name_kana":"にしたかしまだいら","lat":35.791833,"lng":139.64594,"prefecture":13,"lines":[99303],"attr":"cool","postal_code":"175-0082","address":"板橋区高島平６-１","next":[9930326,1132112,1132113,1130509,2100111,2100109,2100110],"voronoi":{"lat":35.780995,"lng":139.648132,"delta_lat":[0,27568,1518,7310,-2909,-19776,-13358],"delta_lng":[0,5437,-1660,-16790,-8346,1963,14245]},"impl":true},
    {"code":1130509,"id":"71ae8c","name":"西浦和","name_kana":"にしうらわ","lat":35.844139,"lng":139.627707,"prefecture":11,"lines":[11305],"attr":"heat","postal_code":"338-0837","address":"さいたま市桜区田島５丁目","next":[1132115,1130508,1132113,2100115,2100112,1130510,2100111,9930327,1132116,2100114,1132117],"voronoi":{"lat":35.856402,"lng":139.62528,"delta_lat":[0,-12928,-17336,-8746,-2909,1283,4524,25384,14077,1172,146],"delta_lng":[0,12713,1632,-4505,-8346,-4673,-7831,-18016,-5927,-239,3285]},"impl":true},
    {"code":1132116,"id":"af3fb6","name":"南与野","name_kana":"みなみよの","lat":35.867456,"lng":139.631117,"prefecture":11,"lines":[11321],"attr":"eco","postal_code":"338-0013","address":"さいたま市中央区鈴谷２丁目","next":[1132117,1130509,1133203,1133204,1132115],"voronoi":{"lat":35.856402,"lng":139.62528,"delta_lat":[0,4667,15255,-1237,-11598],"delta_lng":[0,-31907,40881,2628,3594]},"impl":true},
    {"code":1130510,"left":1132113,"right":1131904,"id":"1d1073","name":"武蔵浦和","name_kana":"むさしうらわ","lat":35.846047,"lng":139.647974,"prefecture":11,"lines":[11305,11321],"attr":"heat","postal_code":"336-0021","address":"さいたま市南区別所七丁目12-1","open_date":"1985-09-30","next":[1132115,1131904,1130511,1130509,1132113],"voronoi":{"lat":35.826138,"lng":139.639625,"delta_lat":[0,17336,12637,-8188,-8343],"delta_lng":[0,-1632,9317,11159,631]},"impl":true},
    {"code":1132113,"left":9930326,"id":"89d42c","name":"北戸田","name_kana":"きたとだ","lat":35.826883,"lng":139.661201,"prefecture":11,"lines":[11321],"attr":"heat","postal_code":"335-0021","address":"戸田市新曽字芦原","next":[1132112,1133207,1130509,1130511,9930327,1130510],"voronoi":{"lat":35.826138,"lng":139.639625,"delta_lat":[0,-8746,-7310,21476,1740,6282],"delta_lng":[0,-4505,16790,23717,-64,-16463]},"impl":true},
    {"code":9930326,"id":"c894af","name":"新高島平","name_kana":"しんたかしまだいら","lat":35.790189,"lng":139.654275,"prefecture":13,"lines":[99303],"attr":"cool","postal_code":"175-0082","address":"板橋区高島平７-１","next":[9930327,2100108,1132112,9930325,2100109],"voronoi":{"lat":35.780995,"lng":139.648132,"delta_lat":[0,27568,-3703,-26190,-660],"delta_lng":[0,5437,6663,-4275,-1843]},"impl":true},
    {"code":1131904,"id":"09f3a7","name":"浦和","name_kana":"うらわ","lat":35.858496,"lng":139.657109,"prefecture":11,"lines":[11319,11323,11332,11333],"attr":"heat","postal_code":"330-0063","address":"さいたま市浦和区高砂１丁目","next":[1130511,1130510,1132115,1133204,1130512],"voronoi":{"lat":35.88694,"lng":139.677854,"delta_lat":[0,-26082,-4748,-8188,23494],"delta_lng":[0,-31688,1144,11159,21209]},"impl":true},
    {"code":1131907,"left":2100402,"right":2100403,"id":"e705d3","name":"土呂","name_kana":"とろ","lat":35.931997,"lng":139.63214,"prefecture":11,"lines":[11319],"attr":"heat","postal_code":"331-0804","address":"さいたま市北区土呂町１丁目","next":[9932104,9932103,1131908,2100404,2100403,9932102],"voronoi":{"lat":35.928398,"lng":139.623117,"delta_lat":[0,9190,5921,-6091,-8762,-1558],"delta_lng":[0,2190,4465,12520,-1258,-16854]},"impl":true},
    {"code":2100402,"left":1132118,"right":9932104,"id":"ab1df5","name":"北大宮","name_kana":"きたおおみや","lat":35.91716,"lng":139.624726,"prefecture":11,"lines":[21004],"attr":"heat","postal_code":"330-0801","address":"さいたま市大宮区土手町３-２８５","next":[9932102,2100403,100403],"voronoi":{"lat":35.912182,"lng":139.618328,"delta_lat":[0,13673,-14811],"delta_lng":[0,6138,11919]},"impl":true},
    {"code":1132118,"left":100403,"id":"369717","name":"北与野","name_kana":"きたよの","lat":35.890678,"lng":139.628521,"prefecture":11,"lines":[11321],"attr":"cool","postal_code":"338-0001","address":"さいたま市中央区上落合","next":[1131905,1132117,1133203,100403],"voronoi":{"lat":35.887726,"lng":139.633916,"delta_lat":[0,-3104,7327,6805],"delta_lng":[0,-1847,-29087,23992]},"impl":true},
    {"code":100403,"id":"d73fff","name":"大宮(埼玉)","original_name":"大宮","name_kana":"おおみや","lat":35.906439,"lng":139.62405,"prefecture":11,"lines":[1004,1005,11319,11321,11322,11323,11328,11332,11333,21004,99321],"attr":"heat","postal_code":"330-0853","address":"さいたま市大宮区錦町","next":[1132211,2100403,9932102,1132117,2100402,1132118,1131905],"voronoi":{"lat":35.898754,"lng":139.626974,"delta_lat":[0,-6805,-743,11713,9263,-1138,-2075],"delta_lng":[0,-23992,-9344,4202,20487,18057,4055]},"impl":true},
    {"code":9932104,"id":"411ae8","name":"東宮原","name_kana":"ひがしみやはら","lat":35.94262,"lng":139.618054,"prefecture":11,"lines":[99321],"attr":"cool","postal_code":"331-0812","address":"さいたま市北区宮原町２-１０９-７","next":[9932105,1131907,1132307,9932103,1131908],"voronoi":{"lat":35.937588,"lng":139.625308,"delta_lat":[0,2184,7775,-3320,-718],"delta_lng":[0,-11095,-2137,17499,198]},"impl":true},
    {"code":2100403,"left":1133203,"right":2100404,"id":"569e2f","name":"大宮公園","name_kana":"おおみやこうえん","lat":35.92374,"lng":139.632903,"prefecture":11,"lines":[21004],"attr":"heat","postal_code":"330-0805","address":"さいたま市大宮区寿能町１-１７２","next":[1131905,100403,2100402,2100404,1131907,9932102],"voronoi":{"lat":35.911043,"lng":139.636384,"delta_lat":[0,-2075,156,19531,-1558,-1243],"delta_lng":[0,4055,6828,-6233,-16854,285]},"impl":true},
    {"code":1133203,"left":1131905,"id":"62b1e3","name":"与野","name_kana":"よの","lat":35.884393,"lng":139.639085,"prefecture":11,"lines":[11332],"attr":"heat","postal_code":"330-0071","address":"さいたま市浦和区上木崎１丁目","next":[2100404,2100405,1132117,1131905,1132116,1132118,1133204],"voronoi":{"lat":35.875087,"lng":139.636882,"delta_lat":[0,1237,8298,3104,15242,-3404,-1953],"delta_lng":[0,-2628,-2184,1847,26264,13396,3786]},"impl":true},
    {"code":1131905,"id":"adcea8","name":"さいたま新都心","name_kana":"さいたましんとしん","lat":35.893867,"lng":139.633587,"prefecture":11,"lines":[11319,11323,11332],"attr":"heat","postal_code":"330-0843","address":"さいたま市大宮区吉敷町４丁目５７番地３","next":[2100403,2100404,1132118,1133203,100403],"voronoi":{"lat":35.909125,"lng":139.647267,"delta_lat":[0,-6157,-15242,11028,10215],"delta_lng":[0,12913,-26264,-6942,13465]},"impl":true},
    {"code":2100404,"id":"5a06b5","name":"大和田(埼玉)","original_name":"大和田","name_kana":"おおわだ","lat":35.929359,"lng":139.65051,"prefecture":11,"lines":[21004],"attr":"heat","postal_code":"337-0053","address":"さいたま市見沼区大和田町２-１７７４","next":[1133203,1131905,2100405,2100403,1131908,1131907],"voronoi":{"lat":35.928655,"lng":139.641035,"delta_lat":[0,-19531,-6157,-3404,43733,-5879],"delta_lng":[0,6233,12913,13396,-20127,-11157]},"impl":true},
    {"code":9930703,"left":1133208,"right":1130512,"id":"c99a67","name":"南鳩ヶ谷","name_kana":"みなみはとがや","lat":35.816839,"lng":139.736059,"prefecture":11,"lines":[99307],"attr":"cool","postal_code":"334-0013","address":"埼玉県川口市南鳩ヶ谷五丁目","next":[9934212,1133208,9930702,9930704,9934213,1133209],"voronoi":{"lat":35.802332,"lng":139.75016,"delta_lat":[0,8986,12648,-223,-6146,-6227],"delta_lng":[0,2940,837,-34067,257,5015]},"impl":true},
    {"code":1133208,"left":1132110,"right":9930702,"id":"c34b3f","name":"西川口","name_kana":"にしかわぐち","lat":35.815514,"lng":139.704312,"prefecture":11,"lines":[11332],"attr":"eco","postal_code":"332-0034","address":"川口市並木町２丁目","next":[9930703,1132110,1133209,9930704,1133207,1132111,1132109],"voronoi":{"lat":35.801117,"lng":139.702032,"delta_lat":[0,4859,8156,24682,-15070,-6146,-16429],"delta_lng":[0,-9104,-2376,22012,7305,257,-17035]},"impl":true},
    {"code":1132110,"left":9930323,"right":1132111,"id":"4ae898","name":"浮間舟渡","name_kana":"うきまふなど","lat":35.791209,"lng":139.691341,"prefecture":13,"lines":[11321],"attr":"eco","postal_code":"115-0051","address":"北区浮間４丁目","next":[9930322,9930321,1132109,9930323,1133208,9930324,1132111],"voronoi":{"lat":35.796482,"lng":139.680863,"delta_lat":[0,-1735,-9677,-2008,1395,16660,4859],"delta_lng":[0,422,5387,5134,5348,4879,-9104]},"impl":true},
    {"code":9930323,"left":9930324,"id":"750145","name":"蓮根","name_kana":"はすね","lat":35.784335,"lng":139.678993,"prefecture":13,"lines":[99303],"attr":"cool","postal_code":"174-0046","address":"板橋区蓮根２-３１-３０","next":[1132110,9930324,2100108,2100107,9930322],"voronoi":{"lat":35.774202,"lng":139.675804,"delta_lat":[0,450,1058,19037,-9677],"delta_lng":[0,-3613,-971,10065,5387]},"impl":true},
    {"code":9930324,"id":"99c624","name":"西台","name_kana":"にしだい","lat":35.78699,"lng":139.673971,"prefecture":13,"lines":[99303],"attr":"cool","postal_code":"175-0082","address":"板橋区高島平９-１-１","next":[9930325,1132111,9930323,2100108,1132110],"voronoi":{"lat":35.775709,"lng":139.67122,"delta_lat":[0,3335,19768,-2331,-1735],"delta_lng":[0,-5080,3202,11521,422]},"impl":true},
    {"code":1132111,"id":"782052","name":"戸田公園","name_kana":"とだこうえん","lat":35.807906,"lng":139.678203,"prefecture":11,"lines":[11321],"attr":"heat","postal_code":"335-0023","address":"戸田市本町４丁目","next":[1132112,9930324,9930325,1133207,1132110,1133208],"voronoi":{"lat":35.796482,"lng":139.680863,"delta_lat":[0,2331,5016,15761,-5458,-8156],"delta_lng":[0,-11521,-5566,17771,9006,2376]},"impl":true},
    {"code":9930702,"left":2800901,"right":1133209,"id":"a5093f","name":"川口元郷","name_kana":"かわぐちもとごう","lat":35.800187,"lng":139.730043,"prefecture":11,"lines":[99307],"attr":"cool","postal_code":"332-0011","address":"川口市元郷１-２-１５","next":[2800902,9934210,1133209,9930703,9934212,9934211,2800901],"voronoi":{"lat":35.791109,"lng":139.749081,"delta_lat":[0,1779,7921,1524,9038,-17988,-4266],"delta_lng":[0,508,781,-210,-25018,-2407,9011]},"impl":true},
    {"code":2800901,"left":1132109,"id":"146fbb","name":"赤羽岩淵","name_kana":"あかばねいわぶち","lat":35.783417,"lng":139.722103,"prefecture":13,"lines":[28009,99307],"attr":"cool","postal_code":"115-0045","address":"北区赤羽１-５２-８","next":[2800902,1132109,1131903,1133209,9930702],"voronoi":{"lat":35.793383,"lng":139.722735,"delta_lat":[0,-1872,-9000,-2935,9541],"delta_lng":[0,-7460,-1969,13469,4971]},"impl":true},
    {"code":1132109,"id":"e34b0d","name":"北赤羽","name_kana":"きたあかばね","lat":35.787007,"lng":139.70569,"prefecture":13,"lines":[11321],"attr":"eco","postal_code":"115-0052","address":"北区赤羽北２丁目","next":[1132110,1133209,2800901,9930321,1131903,9930320,1133208],"voronoi":{"lat":35.79151,"lng":139.715274,"delta_lat":[0,-9000,-5712,1020,6638,16660,52],"delta_lng":[0,-1969,-3366,-5523,-7263,4879,1059]},"impl":true},
    {"code":1133209,"id":"db561a","name":"川口","name_kana":"かわぐち","lat":35.801869,"lng":139.717472,"prefecture":11,"lines":[11332],"attr":"eco","postal_code":"332-0017","address":"川口市栄町３丁目","next":[9930702,1132109,1133208,9930703,2800901],"voronoi":{"lat":35.811371,"lng":139.725141,"delta_lat":[0,6227,-16429,-9658,1872],"delta_lng":[0,-5015,-17035,12183,7460]},"impl":true},
    {"code":1130512,"left":1130511,"right":9930705,"id":"752f9d","name":"東浦和","name_kana":"ひがしうらわ","lat":35.864079,"lng":139.704627,"prefecture":11,"lines":[11305],"attr":"heat","postal_code":"336-0922","address":"さいたま市緑区大牧","next":[1133204,9930705,1130513,1130511,2100405,9930704,9930708,1133207,1131904],"voronoi":{"lat":35.88694,"lng":139.677854,"delta_lat":[0,10092,4377,-28101,-11434,-21147,-631,8852,22468],"delta_lng":[0,1372,8192,35908,3236,-13410,-669,-22406,-10399]},"impl":true},
    {"code":1130511,"left":1133207,"right":2100405,"id":"3d56d8","name":"南浦和","name_kana":"みなみうらわ","lat":35.847648,"lng":139.669125,"prefecture":11,"lines":[11305,11332],"attr":"heat","postal_code":"336-0017","address":"さいたま市南区南浦和２丁目","next":[1133207,1131904,1130510,1130512,1132113],"voronoi":{"lat":35.848949,"lng":139.690076,"delta_lat":[0,22468,-23494,-8343,-6282],"delta_lng":[0,-10399,-21209,631,16463]},"impl":true},
    {"code":1133207,"left":1132112,"id":"22782b","name":"蕨","name_kana":"わらび","lat":35.827959,"lng":139.690357,"prefecture":11,"lines":[11332],"attr":"cool","postal_code":"335-0004","address":"蕨市中央１丁目","next":[1130511,9930704,1132113,1132111,1132112,1133208,1130512],"voronoi":{"lat":35.838814,"lng":139.712564,"delta_lat":[0,-24682,5458,11968,1740,15651,-8852],"delta_lng":[0,-22012,-9006,-5920,-64,14514,22406]},"impl":true},
    {"code":1132112,"id":"818627","name":"戸田(埼玉)","original_name":"戸田","name_kana":"とだ","lat":35.817665,"lng":139.669548,"prefecture":11,"lines":[11321],"attr":"heat","postal_code":"335-0021","address":"戸田市新曽字柳原","next":[1132113,1132111,9930326,9930327,1133207,9930325],"voronoi":{"lat":35.80486,"lng":139.660233,"delta_lat":[0,3703,1518,21476,-11968,-15761],"delta_lng":[0,-6663,-1660,23717,5920,-17771]},"impl":true},
    {"code":2100405,"id":"d1efb3","name":"七里","name_kana":"ななさと","lat":35.936464,"lng":139.665948,"prefecture":11,"lines":[21004],"attr":"cool","postal_code":"337-0017","address":"さいたま市見沼区風渡野６０３","next":[1131908,2100404,9930708,1133203,1130512,1133204,1131909,2100406],"voronoi":{"lat":35.90141,"lng":139.687417,"delta_lat":[0,-4377,578,1953,43733,16049,2607,-49387],"delta_lng":[0,-8192,-1863,-3786,-20127,7686,9034,24966]},"impl":true},
    {"code":9930705,"left":9930704,"right":9930708,"id":"289735","name":"新井宿","name_kana":"あらいじゅく","lat":35.842974,"lng":139.737908,"prefecture":11,"lines":[99307],"attr":"heat","postal_code":"333-0826","address":"川口市新井宿１５-３","next":[1130512,1130513,9930704,9930706,9934213],"voronoi":{"lat":35.833478,"lng":139.758402,"delta_lat":[0,7250,21147,-1947,-23796],"delta_lng":[0,-45251,13410,10166,23974]},"impl":true},
    {"code":9930704,"id":"64cce0","name":"鳩ヶ谷","name_kana":"はとがや","lat":35.830859,"lng":139.735967,"prefecture":11,"lines":[99307],"attr":"cool","postal_code":"334-0005","address":"埼玉県川口市大字里1650-1","next":[1133207,9930703,9934213,1133208,1130512,9930705],"voronoi":{"lat":35.840727,"lng":139.713151,"delta_lat":[0,-631,-1283,-15070,223,9511],"delta_lng":[0,-669,82,7305,34067,4466]},"impl":true},
    {"code":9930708,"id":"b27bb4","name":"浦和美園","name_kana":"うらわみその","lat":35.893677,"lng":139.72779,"prefecture":11,"lines":[99307],"attr":"eco","postal_code":"336-0963","address":"さいたま市緑区大門字宮下３８８８","next":[2100224,2100408,2100405,2100222,1130513,2100406,2100407,1130512,2100223],"voronoi":{"lat":35.900026,"lng":139.753541,"delta_lat":[0,-26717,28101,11156,16319,2059,129,-10051,-10527],"delta_lng":[0,-30215,-35908,7718,26684,9187,5393,9076,6452]},"impl":true},
    {"code":2100406,"left":1131912,"right":1131915,"id":"c33781","name":"岩槻","name_kana":"いわつき","lat":35.950239,"lng":139.693197,"prefecture":11,"lines":[21004],"attr":"cool","postal_code":"339-0057","address":"さいたま市岩槻区本町","next":[2100407,9930708,1131909,2100405],"voronoi":{"lat":35.961952,"lng":139.670169,"delta_lat":[0,19855,-52923,-16319],"delta_lng":[0,15335,36315,-26684]},"impl":true},
    {"code":1131912,"left":9932108,"right":1134117,"id":"906b3a","name":"久喜","name_kana":"くき","lat":36.065684,"lng":139.67727,"prefecture":11,"lines":[11319,21002],"attr":"eco","postal_code":"346-0003","address":"久喜市中央２丁目","next":[1131913,2100233,2100302,2100303,1131911,2100231],"voronoi":{"lat":36.049968,"lng":139.686309,"delta_lat":[0,9831,18895,-2428,-13082,-4342],"delta_lng":[0,-51054,28424,30989,2992,-1647]},"impl":true},
    {"code":9932108,"left":9932107,"right":1131910,"id":"2d4ee8","name":"沼南","name_kana":"しょうなん","lat":35.971165,"lng":139.623481,"prefecture":11,"lines":[99321],"attr":"heat","postal_code":"362-0021","address":"上尾市大字原市２１３５-１０","next":[9932109,1131909,1131908,9932107,1132308],"voronoi":{"lat":35.973396,"lng":139.639214,"delta_lat":[0,-6320,-1628,4475,8107],"delta_lng":[0,2163,-2170,-33413,545]},"impl":true},
    {"code":9932107,"left":9932106,"right":9932110,"id":"06e3fa","name":"原市","name_kana":"はらいち","lat":35.964072,"lng":139.622531,"prefecture":11,"lines":[99321],"attr":"cool","postal_code":"362-0021","address":"上尾市大字原市５１２-１","next":[1132308,9932108,1131908,9932106],"voronoi":{"lat":35.964701,"lng":139.604347,"delta_lat":[0,5223,-4475,-7508],"delta_lng":[0,1447,33413,-6478]},"impl":true},
    {"code":9932106,"left":9932105,"id":"e55f86","name":"吉野原","name_kana":"よしのはら","lat":35.957065,"lng":139.620862,"prefecture":11,"lines":[99321],"attr":"cool","postal_code":"331-0811","address":"さいたま市北区吉野町１-４０４-２","next":[1132308,1131908,9932105,9932107,1132307],"voronoi":{"lat":35.958227,"lng":139.601062,"delta_lat":[0,6474,-6760,-6397,5379],"delta_lng":[0,3286,28382,-2737,-27009]},"impl":true},
    {"code":9932105,"id":"71dbcf","name":"今羽","name_kana":"こんば","lat":35.949941,"lng":139.619443,"prefecture":11,"lines":[99321],"attr":"cool","postal_code":"331-0811","address":"さいたま市北区吉野町１-２５-１","next":[1132307,9932104,9932106,1131908],"voronoi":{"lat":35.956923,"lng":139.602983,"delta_lat":[0,-9376,-3320,7317],"delta_lng":[0,9092,17499,418]},"impl":true},
    {"code":9932110,"id":"c9d7b3","name":"志久","name_kana":"しく","lat":35.991099,"lng":139.62228,"prefecture":11,"lines":[99321],"attr":"heat","postal_code":"362-0806","address":"北足立郡伊奈町大字小室４８３５","next":[1131909,1132308,9932109,9932111,1131910],"voronoi":{"lat":36.008939,"lng":139.64185,"delta_lat":[0,-23445,-3858,7105,16849],"delta_lng":[0,-38146,2004,32758,5387]},"impl":true},
    {"code":1131910,"left":1131909,"right":1131911,"id":"7dd206","name":"白岡","name_kana":"しらおか","lat":36.01774,"lng":139.666826,"prefecture":11,"lines":[11319],"attr":"cool","postal_code":"349-0217","address":"埼玉県白岡市小久喜1213","next":[1131909,2100230,2100407,9932112,9932111,9932110,2100231,1131911],"voronoi":{"lat":36.037289,"lng":139.633281,"delta_lat":[0,-9673,-18677,-3349,-16600,9774,6837,18229],"delta_lng":[0,1733,6836,2003,43836,11735,-781,-11587]},"impl":true},
    {"code":1131909,"left":9932109,"id":"0bcaf9","name":"蓮田","name_kana":"はすだ","lat":35.981272,"lng":139.653016,"prefecture":11,"lines":[11319],"attr":"heat","postal_code":"349-0123","address":"蓮田市本町","next":[1131910,9932110,9932108,1131908,2100406,2100407,2100405,9932109],"voronoi":{"lat":35.988741,"lng":139.638465,"delta_lat":[0,16849,-16600,-7183,-19855,-2607,7731,6320],"delta_lng":[0,5387,43836,-2184,-15335,-9034,-19758,-2163]},"impl":true},
    {"code":9932109,"id":"cf68fd","name":"丸山(埼玉)","original_name":"丸山","name_kana":"まるやま","lat":35.97989,"lng":139.624711,"prefecture":11,"lines":[99321],"attr":"heat","postal_code":"362-0806","address":"北足立郡伊奈町大字小室２８９-１","next":[9932108,9932110,1132308,1131909],"voronoi":{"lat":35.988741,"lng":139.638465,"delta_lat":[0,-7105,-3606,-4634],"delta_lng":[0,-32758,632,32875]},"impl":true},
    {"code":1131911,"id":"0ccf9a","name":"新白岡","name_kana":"しんしらおか","lat":36.038732,"lng":139.67208,"prefecture":11,"lines":[11319],"attr":"cool","postal_code":"349-0211","address":"埼玉県白岡市野牛1107-4","next":[9932112,9932113,2100231,1131912,2100233,1131910],"voronoi":{"lat":36.049968,"lng":139.686309,"delta_lat":[0,9831,-2565,-13539,-6405,-13459],"delta_lng":[0,-51054,-9752,4607,3170,53775]},"impl":true},
    {"code":1134117,"left":2100308,"right":2100307,"id":"78a7d5","name":"岩舟","name_kana":"いわふね","lat":36.326561,"lng":139.657955,"prefecture":9,"lines":[11341],"attr":"heat","postal_code":"329-4307","address":"下都賀郡岩舟町大字静","next":[2101007,2101010,1134116,1134118,2100310,2101009,2101004,2101006,2100309],"voronoi":{"lat":36.29632,"lng":139.621872,"delta_lat":[0,2442,19071,21385,7863,14808,17020,-42251,-46924],"delta_lng":[0,-607,-2385,525,1906,11744,24921,19083,-17527]},"impl":true},
    {"code":2100308,"left":2100233,"right":2100309,"id":"46e873","name":"板倉東洋大前","name_kana":"いたくらとうようだいまえ","lat":36.222404,"lng":139.648493,"prefecture":10,"lines":[21003],"attr":"cool","postal_code":"374-0112","address":"邑楽郡板倉町朝日野１丁目","next":[1131916,2100307,2100239,2100309,2100238,2101002,2100236],"voronoi":{"lat":36.203421,"lng":139.588866,"delta_lat":[0,12273,11988,6294,8861,-2392,-59558],"delta_lng":[0,-1371,387,2235,100034,209,-83569]},"impl":true},
    {"code":2100233,"left":2100234,"id":"62f11a","name":"鷲宮","name_kana":"わしのみや","lat":36.09626,"lng":139.656945,"prefecture":11,"lines":[21002],"attr":"cool","postal_code":"340-0216","address":"埼玉県久喜市鷲宮中央一丁目1-17","next":[1131914,1131912,2100234,1131911,9932113,1131913],"voronoi":{"lat":36.078693,"lng":139.66368,"delta_lat":[0,-18895,-2565,3438,69329,-13286],"delta_lng":[0,-28424,-9752,-4947,40346,14486]},"impl":true},
    {"code":2100234,"id":"85d2b3","name":"花崎","name_kana":"はなさき","lat":36.109891,"lng":139.633522,"prefecture":11,"lines":[21002],"attr":"cool","postal_code":"347-0032","address":"加須市花崎","next":[9932113,2100233,2100307,1131914,2100235],"voronoi":{"lat":36.068589,"lng":139.598028,"delta_lat":[0,-7918,69329,27793,4864],"delta_lng":[0,22528,40346,-12353,-18037]},"impl":true},
    {"code":2100309,"id":"031f18","name":"藤岡","name_kana":"ふじおか","lat":36.255628,"lng":139.64555,"prefecture":9,"lines":[21003],"attr":"heat","postal_code":"323-1104","address":"栃木県栃木市藤岡町藤岡5078-2","next":[2101003,2100310,2101002,1131916,2100308,1134117,2101004],"voronoi":{"lat":36.289734,"lng":139.659531,"delta_lat":[0,-24024,-22874,-8861,4278,35780,22287],"delta_lng":[0,37203,-6583,-100034,245,15358,16151]},"impl":true},
    {"code":2100307,"left":2100306,"right":2100310,"id":"4fcc89","name":"柳生","name_kana":"やぎゅう","lat":36.206756,"lng":139.659645,"prefecture":11,"lines":[21003],"attr":"heat","postal_code":"349-1202","address":"北埼玉郡北川辺町小野袋字仕出","next":[2100236,2100235,1131914,2100308,1131916,2100234,2100306],"voronoi":{"lat":36.240445,"lng":139.690361,"delta_lat":[0,-59558,-153,-18076,-4864,2045,75840],"delta_lng":[0,-83569,85,23636,18037,4139,39146]},"impl":true},
    {"code":2100306,"left":1131913,"id":"5d0856","name":"新古河","name_kana":"しんこが","lat":36.192686,"lng":139.686904,"prefecture":11,"lines":[21003],"attr":"heat","postal_code":"349-1205","address":"埼玉県加須市向古河732","next":[1131914,1131915,1131916,2100307],"voronoi":{"lat":36.159838,"lng":139.652689,"delta_lat":[0,6208,64866,4766],"delta_lng":[0,47661,-4801,-3714]},"impl":true},
    {"code":1131913,"id":"1f0ecd","name":"東鷲宮","name_kana":"ひがしわしのみや","lat":36.089428,"lng":139.67913,"prefecture":11,"lines":[11319],"attr":"eco","postal_code":"340-0206","address":"埼玉県久喜市西大輪326","next":[1131912,1131914,2100304,2100303,2100233],"voronoi":{"lat":36.078693,"lng":139.66368,"delta_lat":[0,-2428,16856,19564,4029],"delta_lng":[0,30989,7123,-13705,-12698]},"impl":true},
    {"code":2100310,"id":"7add4b","name":"静和","name_kana":"しずわ","lat":36.31651,"lng":139.684864,"prefecture":9,"lines":[21003],"attr":"heat","postal_code":"329-4304","address":"下都賀郡岩舟町大字静和","next":[1131916,2100309,1131917,1134117,1134118,2100311],"voronoi":{"lat":36.331704,"lng":139.688167,"delta_lat":[0,4954,-46924,-24024,10016,22987],"delta_lng":[0,-11109,-17527,37203,17384,17684]},"impl":true},
    {"code":1131915,"left":2100302,"right":1134119,"id":"a0a3b3","name":"古河","name_kana":"こが","lat":36.194375,"lng":139.709726,"prefecture":8,"lines":[11319],"attr":"eco","postal_code":"306-0023","address":"古河市本町１丁目","next":[1131914,2100306,2100304,1131916],"voronoi":{"lat":36.230913,"lng":139.695548,"delta_lat":[0,-64866,-11072,2379],"delta_lng":[0,4801,40960,58940]},"impl":true},
    {"code":2100302,"left":2100304,"right":2100230,"id":"ae0964","name":"杉戸高野台","name_kana":"すぎとたかのだい","lat":36.051536,"lng":139.714582,"prefecture":11,"lines":[21003],"attr":"eco","postal_code":"345-0047","address":"北葛飾郡杉戸町高野台東１丁目","next":[2100303,1131912,2100230,2100231],"voronoi":{"lat":36.058842,"lng":139.696014,"delta_lat":[0,4342,-1177,-25952],"delta_lng":[0,1647,75412,-56736]},"impl":true},
    {"code":2100304,"left":2100407,"right":1131914,"id":"3c4cdb","name":"南栗橋","name_kana":"みなみくりはし","lat":36.113157,"lng":139.713004,"prefecture":11,"lines":[21003],"attr":"cool","postal_code":"349-1112","address":"埼玉県久喜市南栗橋一丁目20","next":[1131916,9931817,1131913,1131914,1131915,2100413,2100303,9931819],"voronoi":{"lat":36.108766,"lng":139.842835,"delta_lat":[0,-9132,-6512,19564,42289,2379,-7025,-6379],"delta_lng":[0,-10125,-130918,-13705,53223,58940,37771,1755]},"impl":true},
    {"code":2100407,"left":2100231,"id":"68f598","name":"東岩槻","name_kana":"ひがしいわつき","lat":35.963273,"lng":139.712192,"prefecture":11,"lines":[21004],"attr":"cool","postal_code":"339-0005","address":"さいたま市岩槻区東岩槻１-１２-１","next":[2100406,2100229,1131910,2100230,9930708,1131909,2100408],"voronoi":{"lat":35.994224,"lng":139.709295,"delta_lat":[0,3463,1078,-9774,-7183,-52923,2059],"delta_lng":[0,-5374,-4497,-11735,-2184,36315,9187]},"impl":true},
    {"code":2100231,"id":"2ba3e8","name":"和戸","name_kana":"わど","lat":36.039562,"lng":139.701156,"prefecture":11,"lines":[21002],"attr":"heat","postal_code":"345-0836","address":"南埼玉郡宮代町和戸１丁目","next":[2100230,1131911,1131912,1131910,2100302],"voronoi":{"lat":36.058842,"lng":139.696014,"delta_lat":[0,-8874,-26137,-18229,30453],"delta_lng":[0,-9704,746,11587,17694]},"impl":true},
    {"code":1131914,"id":"1ec168","name":"栗橋","name_kana":"くりはし","lat":36.136852,"lng":139.694177,"prefecture":11,"lines":[11319,21003],"attr":"eco","postal_code":"349-1121","address":"埼玉県久喜市栗橋北一丁目1-1","next":[2100233,1131915,2100306,1131913,2100307,2100304,2100234],"voronoi":{"lat":36.116714,"lng":139.675388,"delta_lat":[0,-4029,42289,11072,-6208,-2045,-27793],"delta_lng":[0,12698,53223,-40960,-47661,-4139,12353]},"impl":true},
    {"code":2100230,"left":2100229,"right":2100303,"id":"abcde2","name":"東武動物公園","name_kana":"とうぶどうぶつこうえん","lat":36.024604,"lng":139.726901,"prefecture":11,"lines":[21002,21003],"attr":"heat","postal_code":"345-0801","address":"南埼玉郡宮代町大字百間２丁目","next":[1131910,2100231,2100412,2100303,2100407,2100229,2100302],"voronoi":{"lat":36.036055,"lng":139.716336,"delta_lat":[0,-30453,-6837,-1078,51916,19822,-7418],"delta_lng":[0,-17694,781,4497,89166,10795,-30809]},"impl":true},
    {"code":2100229,"left":2100408,"id":"3aa3a0","name":"姫宮","name_kana":"ひめみや","lat":36.004384,"lng":139.738674,"prefecture":11,"lines":[21002],"attr":"heat","postal_code":"345-0804","address":"南埼玉郡宮代町川端１丁目","next":[2100228,2100407,2100408,2100230,2100412,2100411],"voronoi":{"lat":36.049603,"lng":139.793086,"delta_lat":[0,-51916,-3463,-4330,17936,40374],"delta_lng":[0,-89166,5374,12436,46129,24743]},"impl":true},
    {"code":2100408,"id":"159fda","name":"豊春","name_kana":"とよはる","lat":35.968014,"lng":139.72601,"prefecture":11,"lines":[21004],"attr":"eco","postal_code":"344-0046","address":"春日部市大字上蛭田１３６-１","next":[2100409,9930708,2100229,2100225,2100228,2100226,2100407,2100224],"voronoi":{"lat":35.931073,"lng":139.7364,"delta_lat":[0,-129,63280,-4330,-1994,-31830,-6561,-17168],"delta_lng":[0,-5393,-21712,12436,2508,20908,-636,-7269]},"impl":true},
    {"code":2100303,"id":"27beb2","name":"幸手","name_kana":"さって","lat":36.074297,"lng":139.714937,"prefecture":11,"lines":[21003],"attr":"eco","postal_code":"340-0115","address":"幸手市中１丁目","next":[2100413,2100302,1131913,2100412,2100230,1131912,2100304],"voronoi":{"lat":36.093121,"lng":139.701791,"delta_lat":[0,-16856,-13082,-1177,7418,22337,7872],"delta_lng":[0,-7123,2992,75412,30809,22531,6297]},"impl":true},
    {"code":1134119,"left":2100321,"right":2100314,"id":"44db1b","name":"栃木","name_kana":"とちぎ","lat":36.371912,"lng":139.731037,"prefecture":9,"lines":[11341,21003,21008],"attr":"heat","postal_code":"328-0041","address":"栃木市河合町１丁目","next":[1134120,2101010,2100313,2100311,2100314,1134118],"voronoi":{"lat":36.331465,"lng":139.743542,"delta_lat":[0,36034,29226,10221,-561,-50437],"delta_lng":[0,15026,-47289,-36453,-120,41214]},"impl":true},
    {"code":2100321,"left":2100311,"right":1134004,"id":"682b21","name":"板荷","name_kana":"いたが","lat":36.619476,"lng":139.707739,"prefecture":9,"lines":[21003],"attr":"cool","postal_code":"321-1111","address":"鹿沼市板荷","next":[9931218,2100322,1134007,9931217,2100318,1134004,2100320,2100326,2101010],"voronoi":{"lat":36.547779,"lng":139.570622,"delta_lat":[0,74561,2487,801,27313,-17734,-25548,-60173,-18871],"delta_lng":[0,6418,328,1173,40823,92377,23255,-77794,-47990]},"impl":true},
    {"code":2100311,"left":1134118,"id":"edb5dd","name":"新大平下","name_kana":"しんおおひらした","lat":36.339024,"lng":139.701886,"prefecture":9,"lines":[21003],"attr":"heat","postal_code":"329-4404","address":"栃木県栃木市大平町富田571-2","next":[1134118,1134120,1134119,1131917,2100310],"voronoi":{"lat":36.331704,"lng":139.688167,"delta_lat":[0,24243,-24483,-21780,-10971],"delta_lng":[0,27753,27622,3305,-15045]},"impl":true},
    {"code":1134118,"id":"f25153","name":"大平下","name_kana":"おおひらした","lat":36.344315,"lng":139.697264,"prefecture":9,"lines":[11341],"attr":"heat","postal_code":"329-4404","address":"栃木県栃木市大平町富田","next":[2101010,2100311,1134117,2100310,1134119],"voronoi":{"lat":36.331704,"lng":139.688167,"delta_lat":[0,4954,42251,27475,-50437],"delta_lng":[0,-11109,-19083,16731,41214]},"impl":true},
    {"code":1134004,"id":"d63f0f","name":"文挟","name_kana":"ふばさみ","lat":36.637716,"lng":139.727778,"prefecture":9,"lines":[11340],"attr":"heat","postal_code":"321-1106","address":"日光市小倉","next":[1134005,2100812,2100320,1134003,2100321,2100322],"voronoi":{"lat":36.652489,"lng":139.831788,"delta_lat":[0,-3151,-34473,-5206,25548,26185],"delta_lng":[0,-1617,-65152,-30024,-23255,25541]},"impl":true},
    {"code":2100314,"left":1131916,"right":2100320,"id":"8a2c56","name":"合戦場","name_kana":"かっせんば","lat":36.407647,"lng":139.741057,"prefecture":9,"lines":[21003],"attr":"heat","postal_code":"328-0113","address":"栃木県栃木市都賀町合戦場513","next":[2101010,2100803,2100315,1134119,2100313],"voronoi":{"lat":36.416221,"lng":139.752982,"delta_lat":[0,22870,-32145,-10221,2395],"delta_lng":[0,-80524,2368,36453,33503]},"impl":true},
    {"code":1131916,"id":"2f43ce","name":"野木","name_kana":"のぎ","lat":36.229963,"lng":139.734729,"prefecture":9,"lines":[11319],"attr":"heat","postal_code":"329-0111","address":"下都賀郡野木町大字丸林","next":[2100304,2100310,9931819,2100308,2100307,2100306,1131915,2100309,1131917],"voronoi":{"lat":36.275726,"lng":139.714118,"delta_lat":[0,-10016,-22874,-2392,-4766,-4766,-73559,-7025,7313],"delta_lng":[0,-17384,-6583,209,1474,3714,104701,37771,1517]},"impl":true},
    {"code":2100320,"id":"0b942b","name":"北鹿沼","name_kana":"きたかぬま","lat":36.580811,"lng":139.737646,"prefecture":9,"lines":[21003],"attr":"cool","postal_code":"322-0072","address":"鹿沼市玉田町","next":[1134004,2100319,1134003,2100321,2100318],"voronoi":{"lat":36.549487,"lng":139.657202,"delta_lat":[0,60173,5206,-43799,-19194],"delta_lng":[0,77794,30024,-16591,-64067]},"impl":true},
    {"code":2100225,"left":9930907,"right":2100807,"id":"f66924","name":"武里","name_kana":"たけさと","lat":35.949102,"lng":139.770675,"prefecture":11,"lines":[21002],"attr":"eco","postal_code":"344-0021","address":"春日部市大字大場","next":[2100408,2100412,2100224,2100411,2100226],"voronoi":{"lat":35.960244,"lng":139.793135,"delta_lat":[0,-9579,-18324,17168,12372],"delta_lng":[0,8046,-63939,7269,41697]},"impl":true},
    {"code":9930907,"left":2100218,"right":9933306,"id":"f045d4","name":"六町","name_kana":"ろくちょう","lat":35.784963,"lng":139.821816,"prefecture":13,"lines":[99309],"attr":"heat","postal_code":"121-0073","address":"足立区六町四丁目","next":[9930906,2800501,2100214,2100215,9930908,2100212],"voronoi":{"lat":35.777993,"lng":139.824586,"delta_lat":[0,15408,13974,-9337,-11011,-7376],"delta_lng":[0,11830,-13817,-13759,-3337,3865]},"impl":true},
    {"code":2100218,"left":9934213,"right":2100222,"id":"91017a","name":"新田(埼玉)","original_name":"新田","name_kana":"しんでん","lat":35.854086,"lng":139.795391,"prefecture":11,"lines":[21002],"attr":"eco","postal_code":"340-0052","address":"草加市金明町","next":[9930706,1130525,2100219,9934213,2100217],"voronoi":{"lat":35.838317,"lng":139.776641,"delta_lat":[0,2437,14147,10029,-7787],"delta_lng":[0,-3906,1624,34554,6440]},"impl":true},
    {"code":9934213,"left":9934211,"right":2100216,"id":"5b191b","name":"見沼代親水公園","name_kana":"みぬまだいしんすいこうえん","lat":35.814544,"lng":139.770719,"prefecture":13,"lines":[99342],"attr":"eco","postal_code":"121-0831","address":"足立区舎人２-２１-１３","next":[9934212,9930706,2100214,2100216,9930704,2100218,9930703,2100217,2100215,9930705],"voronoi":{"lat":35.833478,"lng":139.758402,"delta_lat":[0,-9511,-12648,-2232,749,14190,8229,6063,2437,-4623],"delta_lng":[0,-4466,-837,32309,753,-176,-3508,-5837,-3906,-12033]},"impl":true},
    {"code":9934211,"left":9934209,"right":9934212,"id":"d8b089","name":"舎人公園","name_kana":"とねりこうえん","lat":35.79623,"lng":139.770183,"prefecture":13,"lines":[99342],"attr":"eco","postal_code":"121-0837","address":"足立区舎人公園１-１０","next":[2100214,9934210,9934212,9930702],"voronoi":{"lat":35.792887,"lng":139.749588,"delta_lat":[0,-575,8739,-243],"delta_lng":[0,30627,790,-30636]},"impl":true},
    {"code":9934209,"left":9934210,"id":"a3839b","name":"西新井大師西","name_kana":"にしあらいだいしにし","lat":35.781505,"lng":139.770094,"prefecture":13,"lines":[99342],"attr":"eco","postal_code":"123-0872","address":"足立区江北６-３０-２３","next":[2800902,9934208,9934210,2100602],"voronoi":{"lat":35.785005,"lng":139.750846,"delta_lat":[0,-7769,674,7278],"delta_lng":[0,737,23779,1585]},"impl":true},
    {"code":9934210,"id":"1a056c","name":"谷在家","name_kana":"やざいけ","lat":35.788774,"lng":139.770043,"prefecture":13,"lines":[99342],"attr":"eco","postal_code":"123-0863","address":"足立区谷在家３-２０-２３","next":[9930702,9934211,2100602,2100214,2800902,9934209],"voronoi":{"lat":35.785005,"lng":139.750846,"delta_lat":[0,6104,1779,-575,-2461,-4664],"delta_lng":[0,-1765,508,30627,664,-3933]},"impl":true},
    {"code":9934212,"id":"79b305","name":"舎人","name_kana":"とねり","lat":35.8057,"lng":139.770108,"prefecture":13,"lines":[99342],"attr":"eco","postal_code":"121-0831","address":"足立区舎人１-１６-１５","next":[9934213,2100214,9930703,9930702,9934211],"voronoi":{"lat":35.800808,"lng":139.750369,"delta_lat":[0,1524,8986,-2232,-8035],"delta_lng":[0,-210,2940,32309,-4403]},"impl":true},
    {"code":2100216,"left":2100215,"right":2100217,"id":"922e33","name":"草加","name_kana":"そうか","lat":35.828476,"lng":139.803397,"prefecture":11,"lines":[21002],"attr":"eco","postal_code":"340-0015","address":"草加市高砂２丁目","next":[9930908,9934213,2100215,1130526,2100217],"voronoi":{"lat":35.832254,"lng":139.782477,"delta_lat":[0,-8229,-5428,22939,590],"delta_lng":[0,3508,38423,11338,-424]},"impl":true},
    {"code":2100215,"left":2100214,"id":"337612","name":"谷塚","name_kana":"やつか","lat":35.814926,"lng":139.801483,"prefecture":11,"lines":[21002],"attr":"eco","postal_code":"340-0023","address":"草加市谷塚町","next":[9930908,2100214,9930907,2100216,9934213],"voronoi":{"lat":35.798038,"lng":139.80884,"delta_lat":[0,9337,11223,5428,-14190],"delta_lng":[0,13759,1810,-38423,176]},"impl":true},
    {"code":2100214,"id":"1078c4","name":"竹ノ塚","name_kana":"たけのつか","lat":35.794368,"lng":139.790788,"prefecture":13,"lines":[21002],"attr":"eco","postal_code":"121-0813","address":"足立区竹の塚６丁目","next":[9934212,9934211,9934213,2100602,2100213,9934210,9930907,2100212,2100215],"voronoi":{"lat":35.787026,"lng":139.805502,"delta_lat":[0,-1437,331,3931,2461,8739,8035,749,-11798],"delta_lng":[0,-4422,-13588,-6613,-664,790,4403,753,22678]},"impl":true},
    {"code":2100217,"id":"e4d18e","name":"獨協大学前〈草加松原〉","name_kana":"どっきょうだいがくまえ〈そうかまつばら〉","lat":35.84333,"lng":139.800622,"prefecture":11,"lines":[21002],"attr":"eco","postal_code":"340-0041","address":"草加市松原１丁目","next":[1130515,1130526,2100218,9934213,1130525,2100216],"voronoi":{"lat":35.832254,"lng":139.782477,"delta_lat":[0,6063,18826,-11725,-1781,-1511],"delta_lng":[0,-5837,38712,17931,1394,645]},"impl":true},
    {"code":2100222,"left":2100223,"right":1130514,"id":"54b9fe","name":"北越谷","name_kana":"きたこしがや","lat":35.901724,"lng":139.780008,"prefecture":11,"lines":[21002],"attr":"eco","postal_code":"343-0025","address":"越谷市大澤３丁目","next":[2100221,1130525,9930708,2100223,1130513],"voronoi":{"lat":35.907352,"lng":139.812223,"delta_lat":[0,9378,-6236,-10469,-13859],"delta_lng":[0,5692,-65987,1613,10216]},"impl":true},
    {"code":2100223,"left":9930706,"right":2100224,"id":"c613c2","name":"大袋","name_kana":"おおぶくろ","lat":35.92437,"lng":139.777868,"prefecture":11,"lines":[21002],"attr":"eco","postal_code":"343-0032","address":"越谷市大字袋山","next":[2100416,2100415,1130525,2100413,2100222,2100412,9930708,2100224],"voronoi":{"lat":35.938459,"lng":139.81889,"delta_lat":[0,-2426,-3370,-9067,-6866,-6236,10527,20195],"delta_lng":[0,2374,1442,2689,-7481,-65987,-6452,68281]},"impl":true},
    {"code":9930706,"left":1130513,"id":"50a8e7","name":"戸塚安行","name_kana":"とづかあんぎょう","lat":35.858873,"lng":139.753689,"prefecture":11,"lines":[99307],"attr":"heat","postal_code":"333-0808","address":"川口市長蔵新田３３１-１","next":[1130513,2100221,9934213,2100218,2100219,2100220,9930705],"voronoi":{"lat":35.859928,"lng":139.736727,"delta_lat":[0,17369,-1927,-8404,-12064,-14147,-4623],"delta_lng":[0,29615,1698,3785,2533,-1624,-12033]},"impl":true},
    {"code":1130513,"id":"720266","name":"東川口","name_kana":"ひがしかわぐち","lat":35.875246,"lng":139.744087,"prefecture":11,"lines":[11305,99307],"attr":"eco","postal_code":"333-0811","address":"川口市戸塚１丁目","next":[9930706,2100221,9930705,1130512,9930708,2100222],"voronoi":{"lat":35.900026,"lng":139.753541,"delta_lat":[0,-26717,-11434,-1947,17369,8870],"delta_lng":[0,-30215,3236,10166,29615,-2586]},"impl":true},
    {"code":2100224,"id":"cb49d0","name":"せんげん台","name_kana":"せんげんだい","lat":35.935832,"lng":139.774478,"prefecture":11,"lines":[21002],"attr":"eco","postal_code":"343-0042","address":"越谷市千間台東町","next":[2100412,9930708,2100225,2100223,2100408],"voronoi":{"lat":35.950664,"lng":139.80118,"delta_lat":[0,-9448,-20195,10051,1268],"delta_lng":[0,12576,-68281,-9076,842]},"impl":true},
    {"code":1130514,"left":2100219,"right":2100221,"id":"07b1b6","name":"南越谷","name_kana":"みなみこしがや","lat":35.876106,"lng":139.790499,"prefecture":11,"lines":[11305],"attr":"cool","postal_code":"343-0845","address":"越谷市南越谷１丁目","next":[2100221,1130525,2100219,2100220],"voronoi":{"lat":35.879987,"lng":139.783478,"delta_lat":[0,8552,-15110,-1356],"delta_lng":[0,22794,34,-10572]},"impl":true},
    {"code":2100219,"left":2100220,"id":"95d905","name":"蒲生","name_kana":"がもう","lat":35.866851,"lng":139.791686,"prefecture":11,"lines":[21002],"attr":"eco","postal_code":"343-0836","address":"越谷市蒲生寿町","next":[9930706,1130514,2100218,1130525,2100220],"voronoi":{"lat":35.866965,"lng":139.771826,"delta_lat":[0,-12064,10029,8499,-1356],"delta_lng":[0,2533,34554,-2606,-10572]},"impl":true},
    {"code":2100220,"id":"895c3f","name":"新越谷","name_kana":"しんこしがや","lat":35.875186,"lng":139.789905,"prefecture":11,"lines":[21002],"attr":"eco","postal_code":"343-0845","address":"越谷市南越谷１丁目","next":[9930706,2100221,2100219,1130514],"voronoi":{"lat":35.879987,"lng":139.783478,"delta_lat":[0,-4618,-8404,5108],"delta_lng":[0,-15438,3785,23909]},"impl":true},
    {"code":2100221,"id":"ebd9cc","name":"越谷","name_kana":"こしがや","lat":35.887529,"lng":139.786213,"prefecture":11,"lines":[21002],"attr":"eco","postal_code":"343-0816","address":"越谷市弥生町","next":[1130525,1130514,1130513,2100222,9930706,2100220],"voronoi":{"lat":35.88854,"lng":139.806272,"delta_lat":[0,18813,-21186,-8870,-1927,4618],"delta_lng":[0,5950,-48466,2586,1698,15438]},"impl":true},
    {"code":9933306,"left":9933305,"right":2100417,"id":"42de63","name":"流山","name_kana":"ながれやま","lat":35.855771,"lng":139.901766,"prefecture":12,"lines":[99333],"attr":"cool","postal_code":"270-0164","address":"流山市流山１-２６４","next":[2100421,2100420,1130517,9933305,1130516,9930911],"voronoi":{"lat":35.852513,"lng":139.908255,"delta_lat":[0,2529,6917,18460,-1204,-9440],"delta_lng":[0,-17449,-4829,1649,5763,16430]},"impl":true},
    {"code":9933305,"left":9930909,"right":9933304,"id":"c8ca09","name":"平和台(千葉)","original_name":"平和台","name_kana":"へいわだい","lat":35.85123,"lng":139.901108,"prefecture":12,"lines":[99333],"attr":"heat","postal_code":"270-0164","address":"流山市流山４-４８３","next":[1130517,9933304,1130518,9933306,9930911],"voronoi":{"lat":35.852513,"lng":139.908255,"delta_lat":[0,2529,-11809,1967,3783],"delta_lng":[0,-17449,4979,9417,3884]},"impl":true},
    {"code":9930909,"left":1132009,"right":1130517,"id":"43a8ce","name":"三郷中央","name_kana":"みさとちゅうおう","lat":35.824514,"lng":139.878344,"prefecture":11,"lines":[99309],"attr":"heat","postal_code":"341-0032","address":"三郷市谷中","next":[1132009,9930908,1130517,1132010,1130516,1130518,1132011,1132008],"voronoi":{"lat":35.804097,"lng":139.888854,"delta_lat":[0,11020,3285,12955,8817,-4364,-38271,-703],"delta_lng":[0,7988,1082,-6863,-22593,-16556,19073,4910]},"impl":true},
    {"code":1132009,"left":9930908,"id":"fef0df","name":"松戸","name_kana":"まつど","lat":35.784472,"lng":139.900779,"prefecture":12,"lines":[11320,99329],"attr":"cool","postal_code":"271-0092","address":"松戸市松戸","next":[9930909,1132010,9932923,1132008,9934004,9934003],"voronoi":{"lat":35.771445,"lng":139.888374,"delta_lat":[0,25391,7261,-12012,-15648,-5555],"delta_lng":[0,-12479,12959,17866,5183,-8888]},"impl":true},
    {"code":9930908,"id":"416e0b","name":"八潮","name_kana":"やしお","lat":35.807905,"lng":139.845017,"prefecture":11,"lines":[99309],"attr":"heat","postal_code":"340-0822","address":"八潮市大瀬８２６","next":[2800501,9930909,2100216,1130516,1132007,2100215,9930907,1132008,1130526],"voronoi":{"lat":35.841537,"lng":139.835746,"delta_lat":[0,-22939,-11223,-13974,-5926,365,9699,38271,3965],"delta_lng":[0,-11338,-1810,13817,14056,5918,14596,-19073,-8273]},"impl":true},
    {"code":1130517,"id":"0d27aa","name":"三郷(埼玉)","original_name":"三郷","name_kana":"みさと","lat":35.845004,"lng":139.886341,"prefecture":11,"lines":[11305],"attr":"eco","postal_code":"341-0024","address":"三郷市三郷","next":[9933305,9930909,1130518,9933306,1130516],"voronoi":{"lat":35.855041,"lng":139.890805,"delta_lat":[0,-11809,-11876,8817,21785],"delta_lng":[0,4979,-4723,-22593,17508]},"impl":true},
    {"code":9933304,"left":1132010,"right":9930911,"id":"00d840","name":"鰭ヶ崎","name_kana":"ひれがさき","lat":35.840948,"lng":139.911121,"prefecture":12,"lines":[99333],"attr":"heat","postal_code":"270-0161","address":"千葉県流山市大字鰭ケ崎字宮ノ後1438番地3","next":[9933305,9933303,1130518,9930911],"voronoi":{"lat":35.833626,"lng":139.909848,"delta_lat":[0,11574,3783,-3335],"delta_lng":[0,-4646,3884,11058]},"impl":true},
    {"code":1132010,"left":1130518,"id":"1a74da","name":"北松戸","name_kana":"きたまつど","lat":35.800459,"lng":139.911528,"prefecture":12,"lines":[11320],"attr":"cool","postal_code":"271-0064","address":"松戸市上本郷","next":[1132009,9930909,1132011,9932923,9932922],"voronoi":{"lat":35.815117,"lng":139.896843,"delta_lat":[0,-11020,-12012,4772,4985],"delta_lng":[0,-7988,17866,11589,4324]},"impl":true},
    {"code":1130518,"id":"c50197","name":"南流山","name_kana":"みなみながれやま","lat":35.838035,"lng":139.903865,"prefecture":12,"lines":[11305,99309],"attr":"cool","postal_code":"270-0161","address":"流山市大字鰭ケ崎","next":[9933305,1130517,9933302,9930909,9933303,1132011,9933304],"voronoi":{"lat":35.828297,"lng":139.909019,"delta_lat":[0,-6643,-3253,12955,11876,1967,-11574],"delta_lng":[0,-4716,-6379,-6863,4723,9417,4646]},"impl":true},
    {"code":9930911,"id":"425cd2","name":"流山セントラルパーク","name_kana":"ながれやませんとらるぱーく","lat":35.854552,"lng":139.915223,"prefecture":12,"lines":[99309],"attr":"eco","postal_code":"270-0152","address":"流山市前平井","next":[2100421,1132013,2100422,9933303,9933305,2100423,9933304,9933306],"voronoi":{"lat":35.86976,"lng":139.909973,"delta_lat":[0,-11133,-7866,-4575,-539,3335,3530,17262],"delta_lng":[0,18249,3928,-6008,-5998,-11058,-831,1564]},"impl":true},
    {"code":2100417,"left":1130525,"right":2100419,"id":"343645","name":"野田市","name_kana":"のだし","lat":35.943652,"lng":139.870728,"prefecture":12,"lines":[21004],"attr":"heat","postal_code":"278-0037","address":"野田市野田１２８","next":[2100418,2100415,2100416,1130515],"voronoi":{"lat":35.980446,"lng":139.906317,"delta_lat":[0,-5133,-56792,-10918],"delta_lng":[0,-7293,-62470,26550]},"impl":true},
    {"code":1130525,"left":1130516,"right":1130515,"id":"ecd599","name":"越谷レイクタウン","name_kana":"こしがやれいくたうん","lat":35.876177,"lng":139.822101,"prefecture":11,"lines":[11305],"attr":"cool","postal_code":"343-0825","address":"越谷市大成町５丁目","next":[2100221,1130514,2100222,2100218,2100223,1130515,2100219,2100416,2100217],"voronoi":{"lat":35.857144,"lng":139.815352,"delta_lat":[0,7787,8499,15110,18813,9378,6866,-3650,-74528],"delta_lng":[0,-6440,-2606,-34,5950,5692,7481,6320,1568]},"impl":true},
    {"code":1130516,"left":1130526,"id":"e117df","name":"新三郷","name_kana":"しんみさと","lat":35.858667,"lng":139.869341,"prefecture":11,"lines":[11305],"attr":"eco","postal_code":"341-0012","address":"三郷市半田","next":[9930909,9930908,1130517,9933306,2100420,1130526],"voronoi":{"lat":35.839774,"lng":139.843639,"delta_lat":[0,-3965,4364,21785,18460,5036],"delta_lng":[0,8273,16556,17508,1649,-4738]},"impl":true},
    {"code":1130526,"id":"0b85e5","name":"吉川美南","name_kana":"よしかわみなみ","lat":35.868028,"lng":139.858446,"prefecture":11,"lines":[11305],"attr":"eco","postal_code":"342-0000","address":"埼玉県吉川市","open_date":"2012-03-17","next":[2100419,2100420,1130515,2100217,2100418,2100216,1130516,9930908],"voronoi":{"lat":35.841537,"lng":139.835746,"delta_lat":[0,590,1511,59558,-2493,-3122,-12126,-45680],"delta_lng":[0,-424,-645,33481,4853,3040,6836,-39248]},"impl":true},
    {"code":1130515,"id":"ad49bb","name":"吉川","name_kana":"よしかわ","lat":35.87662,"lng":139.843162,"prefecture":11,"lines":[11305],"attr":"eco","postal_code":"342-0045","address":"吉川市木売１-６-１","next":[2100217,1130526,1130525,2100416,2100418,2100417],"voronoi":{"lat":35.918522,"lng":139.836554,"delta_lat":[0,1425,-74528,-1781,59558,4408],"delta_lng":[0,-4838,1568,1394,33481,-5055]},"impl":true},
    {"code":2100419,"left":2100420,"right":2100418,"id":"ed35b9","name":"運河","name_kana":"うんが","lat":35.914392,"lng":139.906063,"prefecture":12,"lines":[21004],"attr":"heat","postal_code":"270-0101","address":"流山市東深井４０５","next":[1130526,9930914,2100420,2100418],"voronoi":{"lat":35.900703,"lng":139.873012,"delta_lat":[0,-3122,14333,42498],"delta_lng":[0,3040,55697,2883]},"impl":true},
    {"code":2100420,"id":"c227f1","name":"江戸川台","name_kana":"えどがわだい","lat":35.897344,"lng":139.91045,"prefecture":12,"lines":[21004],"attr":"heat","postal_code":"270-0111","address":"流山市江戸川台東１-３","next":[9930913,1130526,9933306,2100421,2100419,9930914,1130516],"voronoi":{"lat":35.879214,"lng":139.893388,"delta_lat":[0,21084,8022,3593,-14333,-12126,-5036],"delta_lng":[0,38580,814,-1034,-55697,6836,4738]},"impl":true},
    {"code":2100418,"id":"fd18f2","name":"梅郷","name_kana":"うめさと","lat":35.931575,"lng":139.891086,"prefecture":12,"lines":[21004],"attr":"heat","postal_code":"278-0022","address":"野田市山崎１８９２","next":[9930914,2100417,9931810,9931809,2100415,1130515,2100419,1130526],"voronoi":{"lat":35.954411,"lng":139.934632,"delta_lat":[0,2719,7719,28217,-12620,-72843,-4408,-2493],"delta_lng":[0,846,-2832,-15165,-11164,-43213,5055,4853]},"impl":true},
    {"code":2100807,"left":2100803,"right":1131921,"id":"395542","name":"おもちゃのまち","name_kana":"おもちゃのまち","lat":36.466774,"lng":139.829506,"prefecture":9,"lines":[21008],"attr":"eco","postal_code":"321-0203","address":"下都賀郡壬生町幸町１-２２-１","next":[1131921,1131922,2100316,2100808,2100806],"voronoi":{"lat":36.467146,"lng":139.860692,"delta_lat":[0,57,22884,-17186,-21603],"delta_lng":[0,-32,-71316,105,58291]},"impl":true},
    {"code":2100803,"left":2100226,"right":2100316,"id":"d1f758","name":"野州平川","name_kana":"やしゅうひらかわ","lat":36.401554,"lng":139.753764,"prefecture":9,"lines":[21008],"attr":"cool","postal_code":"328-0011","address":"栃木市大宮町２２９０-１９","next":[2100804,2100313,1134120,2100314,2100315],"voronoi":{"lat":36.379346,"lng":139.773056,"delta_lat":[0,-3018,22792,17101,1245],"delta_lng":[0,-5582,-22691,8200,5472]},"impl":true},
    {"code":2100226,"left":1131917,"right":100404,"id":"724293","name":"一ノ割","name_kana":"いちのわり","lat":35.96412,"lng":139.766219,"prefecture":11,"lines":[21002],"attr":"eco","postal_code":"344-0031","address":"春日部市一ノ割１丁目","next":[2100227,2100408,2100409,2100411,2100225],"voronoi":{"lat":35.949509,"lng":139.744511,"delta_lat":[0,6561,7625,13562,-15376],"delta_lng":[0,636,4448,15616,20997]},"impl":true},
    {"code":1131917,"left":2100227,"right":2100313,"id":"e7e07b","name":"間々田","name_kana":"ままだ","lat":36.257907,"lng":139.761039,"prefecture":9,"lines":[11319],"attr":"heat","postal_code":"329-0214","address":"小山市大字乙女３丁目","next":[1133903,100404,1133902,2100310,9931819,1134120,2100311,1131916],"voronoi":{"lat":36.275726,"lng":139.714118,"delta_lat":[0,22987,10971,-2108,-50086,-66377,-5202,-28270],"delta_lng":[0,17684,15045,9799,60765,30765,1865,-10504]},"impl":true},
    {"code":2100227,"left":2100228,"id":"d9fd31","name":"春日部","name_kana":"かすかべ","lat":35.980095,"lng":139.752345,"prefecture":11,"lines":[21002,21004],"attr":"heat","postal_code":"344-0061","address":"春日部市粕壁１丁目","next":[2100226,2100411,2100409,2100228],"voronoi":{"lat":35.983897,"lng":139.746306,"delta_lat":[0,-20203,13562,21450],"delta_lng":[0,3288,15616,-138]},"impl":true},
    {"code":2100228,"id":"c3510c","name":"北春日部","name_kana":"きたかすかべ","lat":35.990655,"lng":139.744012,"prefecture":11,"lines":[21002],"attr":"heat","postal_code":"344-0052","address":"春日部市大字梅田字堤際","next":[2100229,2100411,2100409,2100408,2100227],"voronoi":{"lat":35.983897,"lng":139.746306,"delta_lat":[0,4002,1994,17936,-9123],"delta_lng":[0,-22068,-2508,46129,-2787]},"impl":true},
    {"code":2100313,"id":"4db48d","name":"新栃木","name_kana":"しんとちぎ","lat":36.390149,"lng":139.742308,"prefecture":9,"lines":[21003,21008],"attr":"heat","postal_code":"328-0012","address":"栃木市平柳町１丁目","next":[2100803,1134120,1134119,2100314],"voronoi":{"lat":36.376327,"lng":139.767473,"delta_lat":[0,-8829,29226,2395],"delta_lng":[0,-8905,-47289,33503]},"impl":true},
    {"code":100404,"left":2100412,"right":1134120,"id":"dec054","name":"小山","name_kana":"おやま","lat":36.312747,"lng":139.806241,"prefecture":9,"lines":[1004,11319,11339,11341],"attr":"heat","postal_code":"323-0025","address":"小山市城山町","next":[1131917,1134120,1131919,1133902],"voronoi":{"lat":36.347539,"lng":139.81747,"delta_lat":[0,-39963,-50086,78489],"delta_lng":[0,-60823,60765,19871]},"impl":true},
    {"code":2100412,"left":2100411,"id":"c0915d","name":"南桜井(埼玉)","original_name":"南桜井","name_kana":"みなみさくらい","lat":35.980441,"lng":139.807988,"prefecture":11,"lines":[21004],"attr":"eco","postal_code":"344-0115","address":"春日部市米島１１８５","next":[2100224,2100411,2100230,2100303,2100229,2100225,2100223,2100413],"voronoi":{"lat":36.069424,"lng":139.803882,"delta_lat":[0,-19822,-1399,-87960,-9579,-9448,-2757,153302],"delta_lng":[0,-10795,-484,532,8046,12576,5134,7522]},"impl":true},
    {"code":2100411,"id":"a98a8b","name":"藤の牛島","name_kana":"ふじのうしじま","lat":35.98026,"lng":139.778038,"prefecture":11,"lines":[21004],"attr":"eco","postal_code":"344-0004","address":"春日部市大字牛島１５７６","next":[2100412,2100227,2100228,2100225,2100229,2100226],"voronoi":{"lat":35.977256,"lng":139.76521,"delta_lat":[0,21450,9123,40374,-87960,1637],"delta_lng":[0,-138,2787,24743,532,-6927]},"impl":true},
    {"code":1134120,"id":"a1ffab","name":"思川","name_kana":"おもいがわ","lat":36.351044,"lng":139.781079,"prefecture":9,"lines":[11341],"attr":"heat","postal_code":"323-0007","address":"小山市大字松沼","next":[1134119,100404,2100804,2100805,2100803,2100313,2100311,1131919,1131917],"voronoi":{"lat":36.309685,"lng":139.746848,"delta_lat":[0,21780,36034,8829,3018,4310,-520,-35596,-39963],"delta_lng":[0,-3305,15026,8905,5582,29244,1554,13616,-60823]},"impl":true},
    {"code":2100316,"left":2100318,"right":2100806,"id":"e5baad","name":"東武金崎","name_kana":"とうぶかなさき","lat":36.466288,"lng":139.749468,"prefecture":9,"lines":[21003],"attr":"cool","postal_code":"322-0601","address":"栃木県栃木市西方町金崎243-2","next":[2100805,2100806,2100317,2101010,2100807,2100808,2100315],"voronoi":{"lat":36.455466,"lng":139.785967,"delta_lat":[0,17435,17186,1168,-13771,-24847,-6364],"delta_lng":[0,3481,-105,-263,-131853,12109,109372]},"impl":true},
    {"code":2100318,"left":2100315,"right":2100319,"id":"666438","name":"樅山","name_kana":"もみやま","lat":36.532667,"lng":139.741875,"prefecture":9,"lines":[21003],"attr":"cool","postal_code":"322-0046","address":"鹿沼市樅山町","next":[1134003,2101010,2100319,2100321,2100317,2100809,2100320],"voronoi":{"lat":36.541458,"lng":139.771593,"delta_lat":[0,-13776,-654,-21205,24793,18871,2386],"delta_lng":[0,25189,-111,-162279,-25180,47990,27160]},"impl":true},
    {"code":2100315,"left":2100317,"id":"94a4dd","name":"家中","name_kana":"いえなか","lat":36.429783,"lng":139.747344,"prefecture":9,"lines":[21003],"attr":"heat","postal_code":"328-0111","address":"栃木県栃木市都賀町家中5897-9","next":[2100804,2100805,2101010,2100803,2100314,2100316],"voronoi":{"lat":36.452636,"lng":139.669336,"delta_lat":[0,-13546,-22870,1245,23497,5310],"delta_lng":[0,3122,80524,5472,19580,674]},"impl":true},
    {"code":2100317,"id":"d16208","name":"楡木","name_kana":"にれぎ","lat":36.507497,"lng":139.745164,"prefecture":9,"lines":[21003],"attr":"cool","postal_code":"322-0526","address":"鹿沼市楡木町","next":[2100316,2100809,2101010,2100808,2100318],"voronoi":{"lat":36.505822,"lng":139.634391,"delta_lat":[0,-28339,13771,32354,3419],"delta_lng":[0,22836,131853,7809,-219]},"impl":true},
    {"code":2100319,"id":"414e86","name":"新鹿沼","name_kana":"しんかぬま","lat":36.556998,"lng":139.74478,"prefecture":9,"lines":[21003],"attr":"cool","postal_code":"322-0044","address":"鹿沼市鳥居跡町","next":[1134003,2100318,2100320],"voronoi":{"lat":36.541458,"lng":139.771593,"delta_lat":[0,10415,19194],"delta_lng":[0,-87231,64067]},"impl":true},
    {"code":2100806,"left":2100805,"right":1134003,"id":"4a0cc1","name":"国谷","name_kana":"くにや","lat":36.451442,"lng":139.823824,"prefecture":9,"lines":[21008],"attr":"eco","postal_code":"321-0214","address":"下都賀郡壬生町大字壬生甲３７８０-８","next":[1131920,2100316,2100805,1131921,2100807],"voronoi":{"lat":36.4729,"lng":139.789448,"delta_lat":[0,-17435,-33225,399,28658],"delta_lng":[0,-3481,51025,728,10019]},"impl":true},
    {"code":2100805,"left":2100804,"id":"74e89d","name":"壬生","name_kana":"みぶ","lat":36.422472,"lng":139.80496,"prefecture":9,"lines":[21008],"attr":"cool","postal_code":"321-0222","address":"下都賀郡壬生町駅東町３-１","next":[2100315,2100316,2100804,1134120,1131919,2100806,1131920],"voronoi":{"lat":36.399017,"lng":139.824322,"delta_lat":[0,-15881,520,57307,5310,9193,-33225],"delta_lng":[0,-20468,-1554,-24265,674,7259,51025]},"impl":true},
    {"code":2100804,"id":"787ada","name":"野州大塚","name_kana":"やしゅうおおつか","lat":36.408759,"lng":139.772574,"prefecture":9,"lines":[21008],"attr":"cool","postal_code":"328-0007","address":"栃木市大塚町１２５８-１０","next":[2100315,2100803,1134120,2100805],"voronoi":{"lat":36.379346,"lng":139.773056,"delta_lat":[0,38120,23497,-57307],"delta_lng":[0,-14601,19580,24265]},"impl":true},
    {"code":1134003,"id":"706bf0","name":"鹿沼","name_kana":"かぬま","lat":36.571222,"lng":139.762961,"prefecture":9,"lines":[11340],"attr":"heat","postal_code":"322-0021","address":"鹿沼市上野町","next":[2100319,2100318,1134002,2100812,1134004,2100320,2100809],"voronoi":{"lat":36.594966,"lng":139.824687,"delta_lat":[0,54372,-34473,-43799,-29609,-13776,15530],"delta_lng":[0,5485,-65152,-16591,23164,25189,10140]},"impl":true},
    {"code":1131921,"left":1131920,"right":2100811,"id":"ee629c","name":"石橋(栃木)","original_name":"石橋","name_kana":"いしばし","lat":36.43651,"lng":139.866536,"prefecture":9,"lines":[11319],"attr":"heat","postal_code":"329-0511","address":"下野市石橋","next":[2100807,1131920,9933005,1131922,9933006,2100806],"voronoi":{"lat":36.467146,"lng":139.860692,"delta_lat":[0,-12475,-47725,-7043,22737,28658],"delta_lng":[0,69609,-10775,-4046,-77759,10019]},"impl":true},
    {"code":1131920,"left":1133902,"right":1133904,"id":"0e2ccd","name":"自治医大","name_kana":"じちいだい","lat":36.39543,"lng":139.854524,"prefecture":9,"lines":[11319],"attr":"heat","postal_code":"329-0414","address":"下野市小金井","next":[1133904,2100806,1131919,1131921,1133905,9933004,9933005,2100805],"voronoi":{"lat":36.399017,"lng":139.824322,"delta_lat":[0,-43469,2597,592,13837,27329,22737,-399],"delta_lng":[0,74246,6947,952,4497,4516,-77759,-728]},"impl":true},
    {"code":1133902,"left":2100414,"right":1131919,"id":"d60790","name":"小田林","name_kana":"おたばやし","lat":36.300775,"lng":139.85353,"prefecture":8,"lines":[11339],"attr":"heat","postal_code":"307-0007","address":"結城市小田林","next":[1131917,1131919,100404,1133903],"voronoi":{"lat":36.335979,"lng":139.837283,"delta_lat":[0,-78489,-66377,149740],"delta_lng":[0,-19871,30765,20881]},"impl":true},
    {"code":2100414,"left":2100413,"id":"26ce94","name":"七光台","name_kana":"ななこうだい","lat":35.970884,"lng":139.852906,"prefecture":12,"lines":[21004],"attr":"heat","postal_code":"278-0042","address":"野田市吉春９３１-５","next":[9931813,9931810,2100413,2100415,9931814,9931815,9931811],"voronoi":{"lat":36.000304,"lng":139.916205,"delta_lat":[0,-48757,113489,-5632,-22527,-6127,-15402],"delta_lng":[0,-83040,49360,6114,17763,3396,5222]},"impl":true},
    {"code":2100413,"id":"523c81","name":"川間","name_kana":"かわま","lat":35.979172,"lng":139.83385,"prefecture":12,"lines":[21004],"attr":"heat","postal_code":"270-0235","address":"野田市尾崎８３２","next":[2100415,2100303,2100414,2100223,9931815,9931817,2100304,2100412],"voronoi":{"lat":35.938459,"lng":139.81889,"delta_lat":[0,-2426,15514,113489,39033,4696,-9132,-7872],"delta_lng":[0,2374,11901,49360,-34297,-5394,-10125,-6297]},"impl":true},
    {"code":1131919,"id":"93d7cd","name":"小金井","name_kana":"こがねい","lat":36.374435,"lng":139.842232,"prefecture":9,"lines":[11319],"attr":"heat","postal_code":"329-0414","address":"下野市小金井","next":[1133903,1131920,100404,1133902,2100805,1134120,1133904],"voronoi":{"lat":36.399017,"lng":139.824322,"delta_lat":[0,-15881,-35596,-11560,4874,6979,7715],"delta_lng":[0,-20468,13616,19813,31775,17311,12199]},"impl":true},
    {"code":1133904,"left":2100416,"right":1133903,"id":"232a09","name":"東結城","name_kana":"ひがしゆうき","lat":36.296554,"lng":139.891485,"prefecture":8,"lines":[11339],"attr":"heat","postal_code":"307-0001","address":"結城市大字結城","next":[1131920,9931819,1133903,1133905,1131919,9931820],"voronoi":{"lat":36.214367,"lng":139.888727,"delta_lat":[0,-8908,142374,7715,2597,-132482],"delta_lng":[0,-13945,11586,12199,6947,-3384]},"impl":true},
    {"code":2100416,"left":2100415,"id":"ec5d87","name":"愛宕(千葉)","original_name":"愛宕","name_kana":"あたご","lat":35.950154,"lng":139.864817,"prefecture":12,"lines":[21004],"attr":"heat","postal_code":"278-0035","address":"野田市中野台１２１７","next":[2100223,1130515,1130525,2100415,2100417],"voronoi":{"lat":35.932664,"lng":139.822706,"delta_lat":[0,-9067,-3650,-1425,56792],"delta_lng":[0,2689,6320,4838,62470]},"impl":true},
    {"code":2100415,"id":"855153","name":"清水公園","name_kana":"しみずこうえん","lat":35.959364,"lng":139.85967,"prefecture":12,"lines":[21004],"attr":"heat","postal_code":"278-0043","address":"野田市清水３７５","next":[2100223,2100413,2100417,2100414,2100418,2100416,9931810],"voronoi":{"lat":36.000304,"lng":139.916205,"delta_lat":[0,-48757,-15514,-3370,42650,5133,12620],"delta_lng":[0,-83040,-11901,1442,76317,7293,11164]},"impl":true},
    {"code":1133903,"id":"924146","name":"結城","name_kana":"ゆうき","lat":36.298056,"lng":139.873028,"prefecture":8,"lines":[11339],"attr":"heat","postal_code":"307-0001","address":"結城市結城","next":[1131917,1133904,1131919,1133902,9931819],"voronoi":{"lat":36.347833,"lng":139.886368,"delta_lat":[0,-6979,-149740,-5202,19547],"delta_lng":[0,-17311,-20881,1865,24741]},"impl":true},
    {"code":2100811,"left":2100810,"right":100405,"id":"3786d1","name":"南宇都宮","name_kana":"みなみうつのみや","lat":36.543783,"lng":139.872017,"prefecture":9,"lines":[21008],"attr":"eco","postal_code":"320-0838","address":"宇都宮市吉野２-８-２３","next":[1134002,2100810,100405,1131922,2100812],"voronoi":{"lat":36.562109,"lng":139.8567,"delta_lat":[0,-25460,-16689,1577,22984],"delta_lng":[0,10539,19122,16418,-13476]},"impl":true},
    {"code":2100810,"left":2100809,"right":1134002,"id":"ff752b","name":"江曽島","name_kana":"えそじま","lat":36.530951,"lng":139.860818,"prefecture":9,"lines":[21008],"attr":"eco","postal_code":"321-0162","address":"栃木県宇都宮市大和2丁目12-31","open_date":"1944-07-01","next":[2100809,2100811,1134002,1131922],"voronoi":{"lat":36.53665,"lng":139.86724,"delta_lat":[0,-6447,-17076,6834],"delta_lng":[0,-23752,27016,15858]},"impl":true},
    {"code":2100809,"left":2100808,"id":"1b7138","name":"西川田","name_kana":"にしかわだ","lat":36.514227,"lng":139.850247,"prefecture":9,"lines":[21008],"attr":"eco","postal_code":"321-0152","address":"宇都宮市西川田町５-１-１７","next":[2100810,2100317,2100808,1131922,1134002,2100318,1134003],"voronoi":{"lat":36.530202,"lng":139.843488,"delta_lat":[0,-17076,-19620,30102,3419,654,15530],"delta_lng":[0,27016,-15054,-58560,-219,111,10140]},"impl":true},
    {"code":2100808,"id":"f8dd0b","name":"安塚","name_kana":"やすづか","lat":36.485678,"lng":139.835572,"prefecture":9,"lines":[21008],"attr":"eco","postal_code":"321-0201","address":"下都賀郡壬生町大字安塚１０５３","next":[2100809,2100316,2100317,2100807,1131922],"voronoi":{"lat":36.490087,"lng":139.789344,"delta_lat":[0,1168,32354,-30102,-26304],"delta_lng":[0,-263,7809,58560,5210]},"impl":true},
    {"code":1134002,"id":"7af4ee","name":"鶴田","name_kana":"つるた","lat":36.538319,"lng":139.858818,"prefecture":9,"lines":[11340],"attr":"heat","postal_code":"321-0151","address":"宇都宮市西川田町","next":[1134003,2100811,2100810,2100809,2100812],"voronoi":{"lat":36.53665,"lng":139.86724,"delta_lat":[0,-6447,13009,51755,-32857],"delta_lng":[0,-23752,-36566,17765,32014]},"impl":true},
    {"code":100405,"left":1131922,"right":2100812,"id":"734a1e","name":"宇都宮","name_kana":"うつのみや","lat":36.559246,"lng":139.898389,"prefecture":9,"lines":[1004,11319,11340],"attr":"heat","postal_code":"321-0965","address":"宇都宮市川向町","next":[1131922,9933008,2100811,1131924,9933007,2100812],"voronoi":{"lat":36.544521,"lng":139.889303,"delta_lat":[0,-22984,-17565,120,15796,96099],"delta_lng":[0,13476,53236,138,15042,-81387]},"impl":true},
    {"code":1131922,"id":"d68719","name":"雀宮","name_kana":"すずめのみや","lat":36.493845,"lng":139.876811,"prefecture":9,"lines":[11319],"attr":"heat","postal_code":"321-0000","address":"宇都宮市雀宮１丁目","next":[9933006,2100807,100405,9933007,2100809,2100810,1131921,2100808,2100811],"voronoi":{"lat":36.519961,"lng":139.886362,"delta_lat":[0,-6834,-19620,-26304,-57,-12475,11611,37691,17565],"delta_lng":[0,-15858,-15054,5210,32,69609,9328,16387,-53236]},"impl":true},
    {"code":2100812,"id":"2a7b4d","name":"東武宇都宮","name_kana":"とうぶうつのみや","lat":36.559373,"lng":139.880427,"prefecture":9,"lines":[21008],"attr":"eco","postal_code":"320-0808","address":"宇都宮市宮園町５-４","next":[1131924,1134004,1131926,1134003,1131927,100405,1134002,2100811,1134005],"voronoi":{"lat":36.669086,"lng":139.848548,"delta_lat":[0,-10138,-42960,-71466,17588,32857,54372,3151,17392],"delta_lng":[0,15185,26076,-505,-32603,-32014,5485,1617,14925]},"impl":true}
  ]
}