{
  "name":"segment59",
  "root":1120708,
  "east":180.0,
  "west":141.465907,
  "south":36.642513,
  "north":42.430507,
  "station_size":155,
  "node_list":[
    {"code":1120708,"left":1120823,"right":1120709,"id":"aa9f56","name":"二升石","name_kana":"にしょういし","closed":true,"lat":39.836739,"lng":141.745741,"prefecture":3,"lines":[11207],"attr":"unknown","postal_code":"027-0507","address":"下閉伊郡岩泉町大字二升石","open_date":"1972-02-06","closed_date":"2014-04-01","next":[9920837,9920840,1120709,1120706,1120707],"voronoi":{"lat":39.903838,"lng":141.666588,"delta_lat":[0,101020,-8444,-20178,-193169],"delta_lng":[0,-49982,62167,59707,39412]},"impl":true},
    {"code":1120823,"left":1122420,"right":1120614,"id":"8ed581","name":"下船渡","name_kana":"しもふなと","closed":true,"lat":39.038329,"lng":141.720865,"prefecture":3,"lines":[11208],"attr":"unknown","postal_code":"022-0002","address":"大船渡市大船渡町字宮ノ前","closed_date":"2020-04-01","next":[9920802,1120822,1120837,9920803,1120838],"voronoi":{"lat":39.032217,"lng":141.762825,"delta_lat":[0,-20990,12438,20991,348],"delta_lng":[0,4295,-38849,-24528,39925]},"impl":true},
    {"code":1122420,"left":1122419,"right":1120820,"id":"fb235f","name":"松岩","name_kana":"まついわ","closed":true,"lat":38.8737,"lng":141.583141,"prefecture":4,"lines":[11224],"attr":"unknown","postal_code":"988-0113","address":"気仙沼市字松崎片浜","closed_date":"2020-04-01","next":[1122426,1120827,1122427,1122425],"voronoi":{"lat":38.866299,"lng":141.562991,"delta_lat":[0,12098,6014,-8257],"delta_lng":[0,9624,95426,15047]},"impl":true},
    {"code":1122419,"left":1122413,"right":1120816,"id":"561f4e","name":"最知","name_kana":"さいち","closed":true,"lat":38.853379,"lng":141.58127,"prefecture":4,"lines":[11224],"attr":"unknown","postal_code":"988-0211","address":"気仙沼市字最知川原","closed_date":"2020-04-01","next":[1122425,1122418,1122427,1122417],"voronoi":{"lat":38.850181,"lng":141.528927,"delta_lat":[0,14542,-22528,6126],"delta_lng":[0,31897,71427,-98175]},"impl":true},
    {"code":1122413,"left":1122414,"right":1122417,"id":"bef2ef","name":"蔵内","name_kana":"くらうち","closed":true,"lat":38.753579,"lng":141.525003,"prefecture":4,"lines":[11224],"attr":"unknown","postal_code":"988-0324","address":"宮城県気仙沼市本吉町歌生116","closed_date":"2020-04-01","next":[1122412,1122411,1122416,1122414,1122417],"voronoi":{"lat":38.766096,"lng":141.571748,"delta_lat":[0,9011,-36071,-977,27176],"delta_lng":[0,-42904,-27275,6561,64858]},"impl":true},
    {"code":1122414,"left":1122411,"right":1122415,"id":"80839f","name":"陸前小泉","name_kana":"りくぜんこいずみ","closed":true,"lat":38.765547,"lng":141.509176,"prefecture":4,"lines":[11224],"attr":"unknown","postal_code":"988-0332","address":"宮城県気仙沼市本吉町下宿38","closed_date":"2020-04-01","next":[1122410,1122411,1122415,1122424,1122413,1122416],"voronoi":{"lat":38.780985,"lng":141.521545,"delta_lat":[0,-25989,-15680,-5262,4983,36071],"delta_lng":[0,-83998,21934,19824,22264,27275]},"impl":true},
    {"code":1122411,"left":1122410,"id":"ca737f","name":"歌津","name_kana":"うたつ","closed":true,"lat":38.718299,"lng":141.519751,"prefecture":4,"lines":[11224],"attr":"unknown","postal_code":"988-0453","address":"本吉郡南三陸町歌津伊里前","closed_date":"2020-04-01","next":[1122414,1122413,1122412,1122410,1122314],"voronoi":{"lat":38.534389,"lng":141.654321,"delta_lat":[0,199664,4983,-977,-337583],"delta_lng":[0,-175016,22264,6561,625914]},"impl":true},
    {"code":1122410,"id":"56448c","name":"清水浜","name_kana":"しずはま","closed":true,"lat":38.691892,"lng":141.489625,"prefecture":4,"lines":[11224],"attr":"unknown","postal_code":"986-0706","address":"本吉郡南三陸町志津川清水浜","closed_date":"2020-04-01","next":[1122414,1122423,1122424,1122314,1122408,1122411],"voronoi":{"lat":38.553277,"lng":141.552945,"delta_lat":[0,43598,107867,34573,-5262,-199664],"delta_lng":[0,-34209,-52065,-7190,19824,175016]},"impl":true},
    {"code":1122415,"id":"1e2013","name":"本吉","name_kana":"もとよし","closed":true,"lat":38.78674,"lng":141.502619,"prefecture":4,"lines":[11224],"attr":"unknown","postal_code":"988-0309","address":"宮城県気仙沼市本吉町津谷松尾79-1","closed_date":"2020-04-01","next":[1120813,1120811,1122414,1120809,1120810,1122416,1122424],"voronoi":{"lat":38.790653,"lng":141.366796,"delta_lat":[0,23565,20410,9740,7249,-70632,-25989],"delta_lng":[0,20734,25117,19652,67581,21664,-83998]},"impl":true},
    {"code":1122417,"left":1122416,"right":1122418,"id":"2f11c2","name":"大谷海岸","name_kana":"おおやかいがん","closed":true,"lat":38.814268,"lng":141.567141,"prefecture":4,"lines":[11224],"attr":"unknown","postal_code":"988-0273","address":"宮城県気仙沼市本吉町三島94-12","closed_date":"2020-04-01","next":[1122412,1122427,1122418,9920803,1122416,1122413,1122419],"voronoi":{"lat":38.850181,"lng":141.528927,"delta_lat":[0,-51,-84033,-861,-273304,29703,326686],"delta_lng":[0,-2566,45387,1240,568055,-30751,-576216]},"impl":true},
    {"code":1122416,"left":1122412,"id":"1d340f","name":"小金沢","name_kana":"こがねざわ","closed":true,"lat":38.796362,"lng":141.533989,"prefecture":4,"lines":[11224],"attr":"unknown","postal_code":"988-0272","address":"宮城県気仙沼市本吉町小金沢","closed_date":"2020-04-01","next":[1122427,1120813,1122413,1122414,1122417,1122415],"voronoi":{"lat":38.851617,"lng":141.49988,"delta_lat":[0,4023,-5510,-84033,9011,5877],"delta_lng":[0,10612,15868,45387,-42904,-7299]},"impl":true},
    {"code":1122412,"id":"ae66ec","name":"陸前港","name_kana":"りくぜんみなと","closed":true,"lat":38.739204,"lng":141.531026,"prefecture":4,"lines":[11224],"attr":"unknown","postal_code":"988-0402","address":"本吉郡南三陸町歌津港","closed_date":"2020-04-01","next":[1122413,1122417,1122314,1122411,9920803],"voronoi":{"lat":38.400477,"lng":142.134044,"delta_lat":[0,337583,27176,-273304,-143929],"delta_lng":[0,-625914,64858,568055,169240]},"impl":true},
    {"code":1122418,"id":"71ab18","name":"陸前階上","name_kana":"りくぜんはしかみ","closed":true,"lat":38.837434,"lng":141.580275,"prefecture":4,"lines":[11224],"attr":"unknown","postal_code":"988-0233","address":"気仙沼市字長磯原","closed_date":"2020-04-01","next":[1122425,1120821,1122417,9920803,1122419],"voronoi":{"lat":38.823512,"lng":141.754318,"delta_lat":[0,-201006,-100871,326686,-6126],"delta_lng":[0,255957,100017,-576216,98175]},"impl":true},
    {"code":1120816,"left":1120814,"right":1120815,"id":"71c9e8","name":"上鹿折","name_kana":"かみししおり","closed":true,"lat":38.960166,"lng":141.566825,"prefecture":4,"lines":[11208],"attr":"unknown","postal_code":"988-0803","address":"気仙沼市字上東側","closed_date":"2020-04-01","next":[1120812,1120828,1120829,1120827,1120813,1120814,1120826,1120817],"voronoi":{"lat":39.006332,"lng":141.499344,"delta_lat":[0,-27255,-38159,-6009,16646,8751,26183,2857],"delta_lng":[0,4937,21795,37983,35323,-218,-13106,-2691]},"impl":true},
    {"code":1120814,"left":1122427,"right":1120813,"id":"954e0e","name":"気仙沼","name_kana":"けせんぬま","lat":38.910031,"lng":141.558893,"prefecture":4,"lines":[11208],"attr":"eco","postal_code":"988-0077","address":"気仙沼市古町","next":[1122422,1120813,1120815,1120826,1120816],"voronoi":{"lat":38.940918,"lng":141.526076,"delta_lat":[0,-49323,16088,25439,1787],"delta_lng":[0,-3917,49070,-6430,-740]},"impl":true},
    {"code":1122427,"left":1122422,"id":"9a7963","name":"気仙沼市立病院","name_kana":"けせんぬましりつびょういん","closed":true,"lat":38.887597,"lng":141.56567,"prefecture":4,"lines":[11224],"attr":"unknown","postal_code":"988-0181","address":"宮城県気仙沼市赤岩杉ノ沢","next":[1122425,1122416,1122420,1122421,1122417,1122426,1120813,1122422,1122419],"voronoi":{"lat":38.866299,"lng":141.562991,"delta_lat":[0,12098,10893,3030,-11510,-25171,-5510,51,14542],"delta_lng":[0,9624,2086,-13152,-41888,-9169,15868,2566,31897]},"impl":true},
    {"code":1122422,"id":"4f2c8b","name":"不動の沢","name_kana":"ふどうのさわ","closed":true,"lat":38.898486,"lng":141.562678,"prefecture":4,"lines":[11224],"attr":"unknown","postal_code":"988-0063","address":"気仙沼市字四反田","closed_date":"2020-04-01","next":[1120814,1122421,1120815,1122427,1120813],"voronoi":{"lat":38.907682,"lng":141.571229,"delta_lat":[0,-1515,-13847,-11510,10784],"delta_lng":[0,1417,-11097,-41888,2498]},"impl":true},
    {"code":1120813,"id":"65dd22","name":"新月","name_kana":"にいつき","lat":38.915598,"lng":141.488796,"prefecture":3,"lines":[11208],"attr":"cool","postal_code":"029-1201","address":"一関市室根町折壁","next":[1122415,1120814,1122416,1122427,1120816,1120811,1120812,1122422],"voronoi":{"lat":38.940918,"lng":141.526076,"delta_lat":[0,38159,-85271,-49438,7249,4023,25171,10784],"delta_lng":[0,-21795,-55747,-16235,67581,10612,9169,2498]},"impl":true},
    {"code":1120815,"left":1122426,"right":1120817,"id":"73f44e","name":"鹿折唐桑","name_kana":"ししおりからくわ","closed":true,"lat":38.91561,"lng":141.580968,"prefecture":4,"lines":[11208],"attr":"unknown","postal_code":"988-0005","address":"気仙沼市新浜町","closed_date":"2020-04-01","next":[1122421,1120814,1122426,1120826,1122422],"voronoi":{"lat":38.900011,"lng":141.582051,"delta_lat":[0,1073,32037,-25439,-1515],"delta_lng":[0,22344,-39596,6430,1417]},"impl":true},
    {"code":1122426,"left":1122421,"id":"8e17cb","name":"赤岩港","name_kana":"あかいわみなと","closed":true,"lat":38.88438,"lng":141.582468,"prefecture":4,"lines":[11224],"attr":"unknown","postal_code":"988-0104","address":"宮城県気仙沼市赤岩五駄鱈","next":[1122421,1122420,1120826,1120815,1120827,1122427],"voronoi":{"lat":38.900011,"lng":141.582051,"delta_lat":[0,1073,-3291,-13382,-6014,10893],"delta_lng":[0,22344,42509,21137,-95426,2086]},"impl":true},
    {"code":1122421,"id":"0182ed","name":"南気仙沼","name_kana":"みなみけせんぬま","closed":true,"lat":38.894765,"lng":141.567321,"prefecture":4,"lines":[11224],"attr":"unknown","postal_code":"988-0024","address":"気仙沼市仲町２丁目","closed_date":"2020-04-01","next":[1122426,1120815,1122427,1122422],"voronoi":{"lat":38.89232,"lng":141.561549,"delta_lat":[0,-3030,10721,6156],"delta_lng":[0,13152,7350,-9405]},"impl":true},
    {"code":1120817,"id":"bc9981","name":"陸前矢作","name_kana":"りくぜんやはぎ","closed":true,"lat":39.022659,"lng":141.579459,"prefecture":3,"lines":[11208],"attr":"unknown","postal_code":"029-2201","address":"陸前高田市矢作町字打越","closed_date":"2020-04-01","next":[1120808,1120829,1120910,1120818,1120917,1120812,1120911,1120816],"voronoi":{"lat":39.017288,"lng":141.598593,"delta_lat":[0,128876,5025,-4461,-18632,-33433,-88332,-16986],"delta_lng":[0,-48281,-75072,-8489,-28693,3449,57838,84023]},"impl":true},
    {"code":1120820,"left":1120830,"right":1120833,"id":"c06aff","name":"脇ノ沢","name_kana":"わきのさわ","closed":true,"lat":39.011886,"lng":141.671756,"prefecture":3,"lines":[11208],"attr":"unknown","postal_code":"029-2206","address":"陸前高田市米崎町字脇の沢","closed_date":"2020-04-01","next":[1120840,1120835,1120837,1120827,1120838,1120834,1120833],"voronoi":{"lat":39.057293,"lng":141.67412,"delta_lat":[0,-1751,-1781,-30083,-45513,8247,32126],"delta_lng":[0,2871,1432,12384,-28414,-10258,4476]},"impl":true},
    {"code":1120830,"left":1120828,"right":1120835,"id":"36c692","name":"奇跡の一本松","name_kana":"きせきのいっぽんまつ","closed":true,"lat":39.007864,"lng":141.627134,"prefecture":3,"lines":[11208],"attr":"unknown","postal_code":"029-2204","address":"岩手県陸前高田市気仙町砂盛２７４−１１","next":[1120833,1120829,1120819,1120828,1120827,1120832],"voronoi":{"lat":38.986763,"lng":141.64995,"delta_lat":[0,-62,10339,17371,-4280,-1411],"delta_lng":[0,-657,-26532,-4761,14434,3400]},"impl":true},
    {"code":1120828,"left":1120826,"right":1120829,"id":"2a8923","name":"長部","name_kana":"おさべ","closed":true,"lat":38.98611,"lng":141.618657,"prefecture":3,"lines":[11208],"attr":"unknown","postal_code":"029-2204","address":"岩手県陸前高田市気仙町水上","next":[1120816,1120827,1120829,1120830],"voronoi":{"lat":38.99704,"lng":141.62276,"delta_lat":[0,-10551,-26183,26395],"delta_lng":[0,-36702,13106,50128]},"impl":true},
    {"code":1120826,"left":1122425,"id":"0e7a43","name":"八幡大橋（東陵高校）","name_kana":"はちまんおおはし（とうりょうこうこう）","closed":true,"lat":38.920964,"lng":141.5853,"prefecture":4,"lines":[11208],"attr":"unknown","postal_code":"988-0811","address":"宮城県気仙沼市東八幡前","next":[1120827,1122426,1120814,1120815,1120816],"voronoi":{"lat":38.897794,"lng":141.646904,"delta_lat":[0,3291,32037,1787,16646],"delta_lng":[0,-42509,-39596,-740,35323]},"impl":true},
    {"code":1122425,"id":"9a173f","name":"岩月","name_kana":"いわつき","closed":true,"lat":38.862282,"lng":141.584078,"prefecture":4,"lines":[11224],"attr":"unknown","postal_code":"988-0202","address":"宮城県気仙沼市岩月台ノ沢","next":[1120827,1122427,1122418,1122419,1120821,1122420],"voronoi":{"lat":38.862828,"lng":141.711066,"delta_lat":[0,-39317,18683,22528,1577,9855],"delta_lng":[0,43252,-122067,-71427,2168,120097]},"impl":true},
    {"code":1120829,"id":"ddeb03","name":"陸前今泉","name_kana":"りくぜんいまいずみ","closed":true,"lat":39.004122,"lng":141.613479,"prefecture":3,"lines":[11208],"attr":"unknown","postal_code":"029-2204","address":"岩手県陸前高田市気仙町愛宕下","next":[1120818,1120830,1120817,1120819,1120816,1120828,1120831],"voronoi":{"lat":39.01441,"lng":141.618,"delta_lat":[0,-17371,-10551,2857,27943,1872,-1776],"delta_lng":[0,4761,-36702,-2691,15225,13972,3396]},"impl":true},
    {"code":1120835,"left":1120821,"right":1120836,"id":"e80a1f","name":"西下","name_kana":"にしした","closed":true,"lat":39.001384,"lng":141.688578,"prefecture":3,"lines":[11208],"attr":"unknown","postal_code":"029-2207","address":"岩手県陸前高田市小友町唐笠松","next":[1120821,1120836,1120820,1120827,1120822,1120837],"voronoi":{"lat":39.023678,"lng":141.690807,"delta_lat":[0,-45513,-7066,29536,11418,8688],"delta_lng":[0,-28414,4901,32608,-699,-5059]},"impl":true},
    {"code":1120821,"left":1120827,"id":"788873","name":"小友","name_kana":"おとも","closed":true,"lat":38.989292,"lng":141.699531,"prefecture":3,"lines":[11208],"attr":"unknown","postal_code":"029-2207","address":"陸前高田市小友町字下新田","closed_date":"2020-04-01","next":[1120835,1122418,1120827,1122425,9920803,1120836],"voronoi":{"lat":38.622506,"lng":142.010275,"delta_lat":[0,201006,39317,108270,29536,-122581],"delta_lng":[0,-255957,-43252,-43772,32608,143333]},"impl":true},
    {"code":1120827,"id":"1c1a6e","name":"唐桑大沢","name_kana":"からくわおおさわ","closed":true,"lat":38.961776,"lng":141.63147,"prefecture":4,"lines":[11208],"attr":"unknown","postal_code":"988-0505","address":"宮城県気仙沼市唐桑町港７４","next":[1122425,1120821,1120820,1122420,1120826,1122426,1120833,1120828,1120816,1120835,1120830],"voronoi":{"lat":38.986701,"lng":141.649293,"delta_lat":[0,-26395,-8751,-53761,-13382,-8257,-13326,108270,7066,8247,351],"delta_lng":[0,-50128,218,47522,21137,15047,27977,-43772,-4901,-10258,-2185]},"impl":true},
    {"code":1120836,"id":"74ae73","name":"碁石海岸口","name_kana":"ごいしかいがんぐち","closed":true,"lat":39.00276,"lng":141.711049,"prefecture":3,"lines":[11208],"attr":"unknown","postal_code":"022-0001","address":"岩手県大船渡市末崎町大田１４２−５６","next":[9920803,1120835,1120821,1120822],"voronoi":{"lat":38.878054,"lng":141.843235,"delta_lat":[0,122581,11418,-14981],"delta_lng":[0,-143333,-699,74272]},"impl":true},
    {"code":1120833,"left":1120831,"right":1120834,"id":"ad4084","name":"高田高校前","name_kana":"たかたこうこうまえ","closed":true,"lat":39.016279,"lng":141.640223,"prefecture":3,"lines":[11208],"attr":"unknown","postal_code":"029-2205","address":"岩手県陸前高田市高田町長砂","next":[1120832,1120830,1120827,1120834,1120820],"voronoi":{"lat":39.021813,"lng":141.634784,"delta_lat":[0,-13094,-21957,-351,32126],"delta_lng":[0,1050,14116,2185,4476]},"impl":true},
    {"code":1120831,"left":1120832,"right":1120818,"id":"fb05df","name":"栃ヶ沢公園","name_kana":"とちがさわこうえん","closed":true,"lat":39.026988,"lng":141.625438,"prefecture":3,"lines":[11208],"attr":"unknown","postal_code":"029-2205","address":"岩手県陸前高田市高田町鳴石","next":[1120818,1120832,1120819,1120829,1120834],"voronoi":{"lat":39.023518,"lng":141.633273,"delta_lat":[0,-2727,-3407,1776,59326],"delta_lng":[0,-6459,-10854,-3396,25743]},"impl":true},
    {"code":1120832,"left":1120819,"id":"1d3745","name":"まちなか陸前高田","name_kana":"まちなかりくぜんたかた","closed":true,"lat":39.015483,"lng":141.630296,"prefecture":3,"lines":[11208],"attr":"unknown","postal_code":"029-2205","address":"岩手県陸前高田市高田町館の沖８５","next":[1120833,1120831,1120834,1120819,1120830],"voronoi":{"lat":39.01013,"lng":141.632434,"delta_lat":[0,10661,2727,-1705,-13094],"delta_lng":[0,-5619,6459,1510,1050]},"impl":true},
    {"code":1120819,"id":"39ceda","name":"陸前高田","name_kana":"りくぜんたかた","closed":true,"lat":39.014919,"lng":141.629226,"prefecture":3,"lines":[11208],"attr":"unknown","postal_code":"029-2205","address":"陸前高田市高田町字並杉","closed_date":"2020-04-01","next":[1120831,1120830,1120829,1120832],"voronoi":{"lat":39.01441,"lng":141.618,"delta_lat":[0,2974,3407,-10661],"delta_lng":[0,-2039,10854,5619]},"impl":true},
    {"code":1120818,"id":"e846ea","name":"竹駒","name_kana":"たけこま","closed":true,"lat":39.033909,"lng":141.609488,"prefecture":3,"lines":[11208],"attr":"unknown","postal_code":"029-2203","address":"陸前高田市竹駒町字十日市場","closed_date":"2020-04-01","next":[1120829,1120831,1120817,9920801,1120834,1120918,1120917],"voronoi":{"lat":39.146164,"lng":141.550311,"delta_lat":[0,-128876,1872,59326,15770,52088,2728],"delta_lng":[0,48281,13972,25743,4125,-26990,-16589]},"impl":true},
    {"code":1120834,"left":1120822,"right":1120837,"id":"bb069d","name":"高田病院","name_kana":"たかたびょういん","closed":true,"lat":39.025507,"lng":141.641608,"prefecture":3,"lines":[11208],"attr":"unknown","postal_code":"029-2206","address":"岩手県陸前高田市米崎町野沢","next":[9920801,1120840,1120832,1120820,1120833,1120831,1120818],"voronoi":{"lat":39.064515,"lng":141.668621,"delta_lat":[0,-7222,-38755,3276,1705,54968,15770],"delta_lng":[0,5499,-17509,-21827,-1510,5034,4125]},"impl":true},
    {"code":1120822,"id":"26c98d","name":"細浦","name_kana":"ほそうら","closed":true,"lat":39.016027,"lng":141.713725,"prefecture":3,"lines":[11208],"attr":"unknown","postal_code":"022-0001","address":"大船渡市末崎町字細浦","closed_date":"2020-04-01","next":[1120823,1120837,9920803,1120835,1120836],"voronoi":{"lat":39.012053,"lng":141.699202,"delta_lat":[0,8688,2924,-12438,-14155],"delta_lng":[0,-5059,34127,38849,6355]},"impl":true},
    {"code":1120837,"id":"9eb660","name":"大船渡丸森","name_kana":"おおふなとまるもり","closed":true,"lat":39.028716,"lng":141.712638,"prefecture":3,"lines":[11208],"attr":"unknown","postal_code":"022-0002","address":"岩手県大船渡市大船渡町丸森","next":[1120822,1120823,1120820,1120838,1120835],"voronoi":{"lat":39.023664,"lng":141.728271,"delta_lat":[0,20991,9105,-30083,-2937],"delta_lng":[0,-24528,-25320,12384,3337]},"impl":true},
    {"code":1120614,"left":1120613,"right":1120703,"id":"ac4420","name":"階上","name_kana":"はしかみ","lat":40.456834,"lng":141.664958,"prefecture":2,"lines":[11206],"attr":"cool","postal_code":"039-1201","address":"三戸郡階上町大字道仏","next":[9920517,1120615,1120616,1120613,1120611],"voronoi":{"lat":40.611972,"lng":141.767969,"delta_lat":[0,-331103,-8585,80485,394346],"delta_lng":[0,-243151,3170,73448,289774]},"impl":true},
    {"code":1120613,"left":1120916,"right":1120607,"id":"245565","name":"大蛇","name_kana":"おおじゃ","lat":40.467251,"lng":141.650773,"prefecture":2,"lines":[11206],"attr":"cool","postal_code":"039-1201","address":"三戸郡階上町大字道仏","next":[1120612,1120614,1120611,9920517],"voronoi":{"lat":40.28569,"lng":141.522819,"delta_lat":[0,233878,92403,-331103],"delta_lng":[0,152517,92632,-243151]},"impl":true},
    {"code":1120916,"left":1120914,"right":1121311,"id":"b2f6b3","name":"岩手上郷","name_kana":"いわてかみごう","lat":39.284658,"lng":141.585834,"prefecture":3,"lines":[11209],"attr":"heat","postal_code":"028-0776","address":"遠野市上郷町板沢","next":[1120915,1120913,1120918,1120917,1120914],"voronoi":{"lat":39.346247,"lng":141.653968,"delta_lat":[0,-53626,-62216,22276,6183],"delta_lng":[0,-26728,-126471,8944,5371]},"impl":true},
    {"code":1120914,"left":1120915,"right":1121309,"id":"ec66ff","name":"遠野","name_kana":"とおの","lat":39.332529,"lng":141.53072,"prefecture":3,"lines":[11209],"attr":"heat","postal_code":"028-0522","address":"遠野市新穀町","next":[1121312,1120913,1120915,1121311,1121309,1120916],"voronoi":{"lat":39.252682,"lng":141.509713,"delta_lat":[0,223391,4570,-14345,-11046,-196387],"delta_lng":[0,-17029,68176,42921,19401,-108098]},"impl":true},
    {"code":1120915,"left":1120913,"id":"0e01de","name":"青笹","name_kana":"あおざさ","lat":39.311482,"lng":141.568957,"prefecture":3,"lines":[11209],"attr":"heat","postal_code":"028-0503","address":"遠野市青笹町青笹","next":[1120918,1120916,1121312,1120920,1120914],"voronoi":{"lat":39.258865,"lng":141.515084,"delta_lat":[0,87383,315,89186,19503],"delta_lng":[0,138884,232,18515,-49533]},"impl":true},
    {"code":1120913,"id":"6d045a","name":"綾織","name_kana":"あやおり","lat":39.328422,"lng":141.476845,"prefecture":3,"lines":[11209],"attr":"cool","postal_code":"028-0531","address":"遠野市綾織町新里","next":[1120914,1121308,1120917,1121309,1120916,1120912,1120908],"voronoi":{"lat":39.481146,"lng":141.449146,"delta_lat":[0,-5074,-223391,-22276,-14719,242527,21582],"delta_lng":[0,43537,17029,-8944,-7896,-58120,3861]},"impl":true},
    {"code":1121309,"id":"f3adfb","name":"平津戸","name_kana":"ひらつと","lat":39.623408,"lng":141.511222,"prefecture":3,"lines":[11213],"attr":"heat","postal_code":"028-2633","address":"岩手県宮古市平津戸","next":[1121308,1120706,1121310,1120913,1120914,1121311],"voronoi":{"lat":39.480642,"lng":141.560859,"delta_lat":[0,-4570,5074,312029,-22229,-196702],"delta_lng":[0,-68176,-43537,52892,24459,39501]},"impl":true},
    {"code":1121311,"left":1120918,"right":1121310,"id":"d1e7c3","name":"箱石","name_kana":"はこいし","lat":39.617115,"lng":141.625829,"prefecture":3,"lines":[11213],"attr":"heat","postal_code":"028-2304","address":"岩手県宮古市箱石","next":[1121312,1120705,1121310,1120914,1120704,1121309],"voronoi":{"lat":39.480642,"lng":141.560859,"delta_lat":[0,-14345,184572,24373,705,-101703],"delta_lng":[0,42921,65338,-17028,-1118,-84974]},"impl":true},
    {"code":1120918,"left":1120917,"id":"8caa10","name":"足ヶ瀬","name_kana":"あしがせ","lat":39.254766,"lng":141.645807,"prefecture":3,"lines":[11209],"attr":"heat","postal_code":"028-0772","address":"岩手県遠野市上郷町細越38","next":[1120915,9920801,1120916,1120917,1120920,1120919,1120818],"voronoi":{"lat":39.149073,"lng":141.598853,"delta_lat":[0,143549,53626,315,-62641,-132308,-5269],"delta_lng":[0,28386,26728,232,22153,-47244,-13666]},"impl":true},
    {"code":1120917,"id":"3d3610","name":"平倉","name_kana":"ひらくら","lat":39.264682,"lng":141.595661,"prefecture":3,"lines":[11209],"attr":"heat","postal_code":"028-0775","address":"遠野市上郷町平倉","next":[1120913,1120817,1120912,1120918,1120911,1120916,1120818],"voronoi":{"lat":39.146164,"lng":141.550311,"delta_lat":[0,5025,63339,1158,14719,62216,-143549],"delta_lng":[0,-75072,17145,488,7896,126471,-28386]},"impl":true},
    {"code":1121310,"id":"774123","name":"川内(岩手)","original_name":"川内","name_kana":"かわうち","lat":39.640744,"lng":141.597548,"prefecture":3,"lines":[11213],"attr":"heat","postal_code":"028-2513","address":"岩手県宮古市川内第6地割48-3","next":[1121309,1121311,1120705,1120706],"voronoi":{"lat":39.770946,"lng":141.526497,"delta_lat":[0,-196702,101703,62223],"delta_lng":[0,39501,84974,-54189]},"impl":true},
    {"code":1120607,"left":1120606,"right":1120610,"id":"7d597a","name":"鮫","name_kana":"さめ","lat":40.530244,"lng":141.554891,"prefecture":2,"lines":[11206],"attr":"heat","postal_code":"031-0841","address":"八戸市大字鮫町","next":[1120609,1120102,1120105,1120606,1120103,1120306,1120605],"voronoi":{"lat":40.499402,"lng":141.56485,"delta_lat":[0,481827,-15976,-203899,-53371,-88591,-74645],"delta_lng":[0,175275,-34513,-140072,-22417,-25287,18892]},"impl":true},
    {"code":1120606,"left":1120604,"right":1120605,"id":"8d8c56","name":"白銀","name_kana":"しろがね","lat":40.522031,"lng":141.541648,"prefecture":2,"lines":[11206],"attr":"eco","postal_code":"031-0821","address":"八戸市大字白銀","next":[1120605,1120610,1120604,1120607,1120609,1120612],"voronoi":{"lat":40.393811,"lng":141.538909,"delta_lat":[0,83069,67866,-45345,-50383,-23767],"delta_lng":[0,-8576,6396,28122,-5367,-5453]},"impl":true},
    {"code":1120604,"left":1120603,"id":"1648ff","name":"小中野","name_kana":"こなかの","lat":40.518767,"lng":141.510032,"prefecture":2,"lines":[11206],"attr":"eco","postal_code":"031-0802","address":"八戸市大字小中野町","next":[1120603,1120612,1120606,1120102,1120605,9920606],"voronoi":{"lat":40.393811,"lng":141.538909,"delta_lat":[0,83069,107980,-14360,-220877,-6758],"delta_lng":[0,-8576,-28086,-9029,25764,2814]},"impl":true},
    {"code":1120603,"id":"9757a8","name":"本八戸","name_kana":"ほんはちのへ","lat":40.516286,"lng":141.488762,"prefecture":2,"lines":[11206],"attr":"eco","postal_code":"031-0075","address":"八戸市内丸１","next":[1120604,100421,9920606,1120602,1120102],"voronoi":{"lat":40.349623,"lng":141.518982,"delta_lat":[0,104780,13167,97126,5804],"delta_lng":[0,-51632,-1629,21988,5509]},"impl":true},
    {"code":1120605,"id":"031c24","name":"陸奥湊","name_kana":"むつみなと","lat":40.52335,"lng":141.527652,"prefecture":2,"lines":[11206],"attr":"eco","postal_code":"031-0812","address":"八戸市大字湊町","next":[1120606,1120102,1120604,1120607],"voronoi":{"lat":40.619391,"lng":141.517837,"delta_lat":[0,-34531,-107980,67866],"delta_lng":[0,-15590,28086,6396]},"impl":true},
    {"code":1120610,"left":1120612,"right":1120609,"id":"6ba42b","name":"種差海岸","name_kana":"たねさしかいがん","lat":40.506951,"lng":141.607367,"prefecture":2,"lines":[11206],"attr":"heat","postal_code":"031-0841","address":"八戸市大字鮫町","next":[1120606,1120611,1120609,1120612,1120306,1120307],"voronoi":{"lat":40.438721,"lng":141.56793,"delta_lat":[0,-13469,23767,655939,24260,48467],"delta_lng":[0,-13900,5453,421607,45806,101075]},"impl":true},
    {"code":1120612,"left":1120611,"id":"e51b3f","name":"金浜","name_kana":"かねはま","lat":40.475994,"lng":141.637366,"prefecture":2,"lines":[11206],"attr":"cool","postal_code":"031-0843","address":"八戸市大字金浜字金浜","next":[1120611,1120613,1120604,1120610,9920517,9920606,1120606],"voronoi":{"lat":40.438721,"lng":141.56793,"delta_lat":[0,80848,-233878,1784,55391,50946,31440],"delta_lng":[0,107406,-152517,-817,-207,17113,15122]},"impl":true},
    {"code":1120611,"id":"b36f24","name":"大久喜","name_kana":"おおくき","lat":40.495135,"lng":141.622958,"prefecture":2,"lines":[11206],"attr":"cool","postal_code":"031-0841","address":"八戸市大字鮫町","next":[1120307,1120612,1120615,1120610,1120613,1111126,1120614],"voronoi":{"lat":40.611972,"lng":141.767969,"delta_lat":[0,-92403,-80848,738964,83676,-16053,-498193],"delta_lng":[0,-92632,-107406,560041,169461,22867,-429090]},"impl":true},
    {"code":1120609,"id":"308c43","name":"陸奥白浜","name_kana":"むつしらはま","lat":40.516636,"lng":141.592299,"prefecture":2,"lines":[11206],"attr":"heat","postal_code":"031-0841","address":"八戸市大字鮫町","next":[1120607,1120606,1120610,1120306],"voronoi":{"lat":40.449018,"lng":141.559484,"delta_lat":[0,50383,481827,123729],"delta_lng":[0,5367,175275,240965]},"impl":true},
    {"code":1120703,"left":1120839,"right":1120617,"id":"5107e6","name":"中里(岩手)","original_name":"中里","name_kana":"なかさと","closed":true,"lat":39.661836,"lng":141.736067,"prefecture":3,"lines":[11207],"attr":"unknown","postal_code":"028-2104","address":"宮古市刈屋","open_date":"1966-10-01","closed_date":"2014-04-01","next":[1120707,1121315,1120709,1120702,1120704,1121312],"voronoi":{"lat":39.639052,"lng":141.69765,"delta_lat":[0,105012,214,-6094,-3482,-115163],"delta_lng":[0,93186,3739,22163,-1101,-94931]},"impl":true},
    {"code":1120839,"left":1120919,"right":9920802,"id":"da3b77","name":"地ノ森","name_kana":"じのもり","closed":true,"lat":39.071676,"lng":141.718181,"prefecture":3,"lines":[11208],"attr":"unknown","postal_code":"022-0002","address":"岩手県大船渡市大船渡町新田３９−１","next":[1120824,9920802,1120840,1120838],"voronoi":{"lat":39.070923,"lng":141.729737,"delta_lat":[0,13868,-28095,864],"delta_lng":[0,1849,-50050,6851]},"impl":true},
    {"code":1120919,"left":1120840,"right":1121312,"id":"a9bc4f","name":"上有住","name_kana":"かみありす","lat":39.242013,"lng":141.681522,"prefecture":3,"lines":[11209],"attr":"heat","postal_code":"029-2501","address":"気仙郡住田町上有住","next":[1120921,9920801,1120918,1120920],"voronoi":{"lat":39.170417,"lng":141.72929,"delta_lat":[0,-18803,132308,-43453],"delta_lng":[0,-100182,47244,45247]},"impl":true},
    {"code":1120840,"left":9920801,"id":"d35679","name":"田茂山","name_kana":"たもやま","closed":true,"lat":39.080179,"lng":141.713408,"prefecture":3,"lines":[11208],"attr":"unknown","postal_code":"022-0003","address":"岩手県大船渡市盛町内ノ目１２−２２","next":[1120820,9920801,1120838,1120834,1120839,9920802],"voronoi":{"lat":39.064515,"lng":141.668621,"delta_lat":[0,-7222,-1751,1155,28095,8429],"delta_lng":[0,5499,2871,4545,50050,3519]},"impl":true},
    {"code":9920801,"id":"30420b","name":"盛","name_kana":"さかり","lat":39.086372,"lng":141.710734,"prefecture":3,"lines":[99208,99219,10205],"attr":"eco","postal_code":"022-0003","address":"大船渡市盛町字東町裏","next":[1120840,9920806,9920802,1120834,1120918,1120921,1120919,1120818],"voronoi":{"lat":39.064515,"lng":141.668621,"delta_lat":[0,28706,31083,42895,3218,-18803,-5269,-52088],"delta_lng":[0,66484,18176,-13340,-10650,-100182,-13666,26990]},"impl":true},
    {"code":1121312,"id":"0f7552","name":"陸中川井","name_kana":"りくちゅうかわい","lat":39.597397,"lng":141.68153,"prefecture":3,"lines":[11213],"attr":"heat","postal_code":"028-2302","address":"岩手県宮古市川井第5地割102-10","next":[1120914,1120915,1121311,1120702,1120704,1120703,1120920,1121313],"voronoi":{"lat":39.615069,"lng":141.72331,"delta_lat":[0,4470,19513,11818,-184572,-11046,-19503,7555],"delta_lng":[0,-2603,-23056,-28532,-65338,19401,49533,64876]},"impl":true},
    {"code":9920802,"left":1120824,"right":1120920,"id":"da0f6d","name":"陸前赤崎","name_kana":"りくぜんあかさき","lat":39.068623,"lng":141.741086,"prefecture":3,"lines":[99208,99219,10205],"attr":"heat","postal_code":"022-0007","address":"大船渡市赤崎町字大洞","next":[1120823,1120838,1120824,9920803,9920801,9920805,1120839,9920806,1120840],"voronoi":{"lat":39.084791,"lng":141.731585,"delta_lat":[0,-13868,-13564,-12356,-12787,47120,32261,12706,-31083],"delta_lng":[0,-1849,3393,10538,19157,11637,-12204,-8977,-18176]},"impl":true},
    {"code":1120824,"left":1120838,"id":"b440f0","name":"大船渡","name_kana":"おおふなと","closed":true,"lat":39.06355,"lng":141.720807,"prefecture":3,"lines":[11208],"attr":"unknown","postal_code":"022-0002","address":"大船渡市大船渡町字茶屋前","closed_date":"2020-04-01","next":[9920802,1120839,1120838],"voronoi":{"lat":39.05756,"lng":141.688386,"delta_lat":[0,13363,-13564],"delta_lng":[0,41350,3393]},"impl":true},
    {"code":1120838,"id":"129dfd","name":"大船渡魚市場前","name_kana":"おおふなとうおいちばまえ","closed":true,"lat":39.05128,"lng":141.720752,"prefecture":3,"lines":[11208],"attr":"unknown","postal_code":"022-0002","address":"岩手県大船渡市大船渡町永沢","next":[9920802,1120840,1120824,1120820,1120837,1120839,1120823],"voronoi":{"lat":39.044656,"lng":141.703743,"delta_lat":[0,9105,1781,1155,864,-201,-12356],"delta_lng":[0,-25320,-1432,4545,6851,44743,10538]},"impl":true},
    {"code":1120920,"id":"81d9c2","name":"陸中大橋","name_kana":"りくちゅうおおはし","lat":39.280451,"lng":141.718436,"prefecture":3,"lines":[11209],"attr":"eco","postal_code":"026-0055","address":"釜石市甲子町","next":[9920813,1120915,1120922,1121313,9920812,1120921,1120918,1120919,1121312],"voronoi":{"lat":39.439836,"lng":141.760525,"delta_lat":[0,-38400,-39022,-50025,-71920,43453,62641,89186,7555],"delta_lng":[0,15880,10701,-14453,-51053,-45247,-22153,18515,64876]},"impl":true},
    {"code":1120617,"left":1120616,"right":1120707,"id":"68975e","name":"種市","name_kana":"たねいち","lat":40.410384,"lng":141.715232,"prefecture":3,"lines":[11206],"attr":"cool","postal_code":"028-7900","address":"九戸郡洋野町種市第２３地割","next":[1120618,1111127,1120615,1120620,1111126,1120616],"voronoi":{"lat":40.324999,"lng":141.619098,"delta_lat":[0,227146,509869,65760,35033,-484141],"delta_lng":[0,342233,645218,-101755,-56959,-493330]},"impl":true},
    {"code":1120616,"left":1120705,"right":1120615,"id":"0d0b52","name":"平内","name_kana":"ひらない","lat":40.42552,"lng":141.699272,"prefecture":3,"lines":[11206],"attr":"cool","postal_code":"028-7900","address":"九戸郡洋野町種市第３６地割","next":[1120614,9920517,1120618,1120617,1120623,1120615],"voronoi":{"lat":40.324999,"lng":141.619098,"delta_lat":[0,-43274,-13321,3879,80485,325898],"delta_lng":[0,-54442,-35668,-1001,73448,353070]},"impl":true},
    {"code":1120705,"left":1120706,"id":"2039bd","name":"押角","name_kana":"おしかど","closed":true,"lat":39.724029,"lng":141.693181,"prefecture":3,"lines":[11207],"attr":"unknown","postal_code":"028-2105","address":"宮古市和井内","open_date":"1944-07-20","closed_date":"2014-04-01","next":[1120707,1120706,1121311,1121310,1120704],"voronoi":{"lat":39.675243,"lng":141.652091,"delta_lat":[0,705,62223,32498,-26330],"delta_lng":[0,-1118,-54189,116381,74282]},"impl":true},
    {"code":1120706,"id":"6bb58c","name":"岩手大川","name_kana":"いわておおかわ","closed":true,"lat":39.800208,"lng":141.671909,"prefecture":3,"lines":[11207],"attr":"unknown","postal_code":"028-2232","address":"下閉伊郡岩泉町大字大川","open_date":"1957-05-16","closed_date":"2014-04-01","next":[1120707,1120705,1121306,1121309,1120708,1121308,9920513,9920510,9920840,1121310],"voronoi":{"lat":39.770946,"lng":141.526497,"delta_lat":[0,22229,15079,110132,74125,39606,-27260,-101020,-133169,-32498],"delta_lng":[0,-24459,-10564,-29456,34806,40333,79448,49982,46577,-116381]},"impl":true},
    {"code":1120615,"id":"5ba0bb","name":"角の浜","name_kana":"かどのはま","lat":40.444478,"lng":141.681773,"prefecture":3,"lines":[11206],"attr":"cool","postal_code":"028-7911","address":"九戸郡洋野町種市第３９地割角浜","next":[1120614,1120611,1120617,1111126,1120616],"voronoi":{"lat":40.352768,"lng":141.601436,"delta_lat":[0,394346,498193,-82500,-484141],"delta_lng":[0,289774,429090,127536,-493330]},"impl":true},
    {"code":1120707,"left":1120704,"right":1120618,"id":"0a35a6","name":"浅内","name_kana":"あさない","closed":true,"lat":39.819482,"lng":141.727016,"prefecture":3,"lines":[11207],"attr":"unknown","postal_code":"028-2231","address":"下閉伊郡岩泉町大字浅内","open_date":"1957-05-16","closed_date":"2014-04-01","next":[1120705,1120703,1120706,1120709,1120708,1120704],"voronoi":{"lat":39.744278,"lng":141.794575,"delta_lat":[0,38789,120771,-133169,-26330,-275],"delta_lng":[0,-16684,-111304,46577,74282,3390]},"impl":true},
    {"code":1120704,"id":"47e1f4","name":"岩手和井内","name_kana":"いわてわいない","closed":true,"lat":39.679905,"lng":141.715705,"prefecture":3,"lines":[11207],"attr":"unknown","postal_code":"028-2105","address":"宮古市和井内","open_date":"1942-06-25","closed_date":"2014-04-01","next":[1121311,1120705,1120707,1121312,1120703],"voronoi":{"lat":39.744338,"lng":141.787447,"delta_lat":[0,-69096,-24373,-11818,105012],"delta_lng":[0,-135356,17028,28532,93186]},"impl":true},
    {"code":1120618,"id":"0791cc","name":"玉川(岩手)","original_name":"玉川","name_kana":"たまがわ","lat":40.380424,"lng":141.735117,"prefecture":3,"lines":[11206],"attr":"cool","postal_code":"028-7900","address":"九戸郡洋野町種市第１３地割","next":[1120617,1120619,1120620,1120616,1120623],"voronoi":{"lat":40.281725,"lng":141.564656,"delta_lat":[0,43274,227146,-5209,-246873],"delta_lng":[0,54442,342233,-5797,-305122]},"impl":true},
    {"code":1120709,"left":1121317,"right":1111115,"id":"ccbdca","name":"岩泉","name_kana":"いわいずみ","closed":true,"lat":39.845044,"lng":141.786446,"prefecture":3,"lines":[11207],"attr":"unknown","postal_code":"027-0501","address":"下閉伊郡岩泉町大字岩泉","open_date":"1972-02-06","closed_date":"2014-04-01","next":[9920832,9920837,1121315,1120708,9920830,9920827,9920836,9920833,9920834,9920831,1120703,1120707],"voronoi":{"lat":39.783066,"lng":141.777892,"delta_lat":[0,193169,-2111,-5282,-48306,-21435,-39516,-43387,-33497,-41828,-2690,6094],"delta_lng":[0,-39412,11823,14960,76193,12975,18231,-585,-6784,-37487,-11067,-22163]},"impl":true},
    {"code":1121317,"left":1120923,"right":9920823,"id":"9b6e64","name":"千徳","name_kana":"せんとく","lat":39.632251,"lng":141.9124,"prefecture":3,"lines":[11213],"attr":"eco","postal_code":"027-0043","address":"宮古市大字千徳町","next":[1121316,9920821,9920826,9920825,9920822],"voronoi":{"lat":39.675876,"lng":141.89806,"delta_lat":[0,7337,-94439,16398,23029],"delta_lng":[0,-13259,3730,33029,8767]},"impl":true},
    {"code":1120923,"left":9920806,"right":1121316,"id":"c2de02","name":"小佐野","name_kana":"こさの","lat":39.264464,"lng":141.836515,"prefecture":3,"lines":[11209],"attr":"eco","postal_code":"026-0052","address":"釜石市小佐野町１","next":[9920809,9920808,9920811,9920812,1120922,1120924],"voronoi":{"lat":39.307629,"lng":141.845103,"delta_lat":[0,6914,33214,-123167,10411,14888],"delta_lng":[0,-5731,-40324,28149,26392,5658]},"impl":true},
    {"code":9920806,"left":1120921,"right":9920808,"id":"e946dc","name":"三陸","name_kana":"さんりく","lat":39.117194,"lng":141.809836,"prefecture":3,"lines":[99208,99219,10205],"attr":"cool","postal_code":"022-0101","address":"大船渡市三陸町越喜来字肥田","next":[9920801,9920802,9920805,1120921,9920804,9920807],"voronoi":{"lat":39.177491,"lng":141.767725,"delta_lat":[0,-10293,-42895,-12706,-11116,2926],"delta_lng":[0,-27785,13340,8977,81028,19125]},"impl":true},
    {"code":1120921,"left":9920805,"right":1120922,"id":"17b022","name":"洞泉","name_kana":"どうせん","lat":39.250671,"lng":141.760388,"prefecture":3,"lines":[11209],"attr":"eco","postal_code":"026-0055","address":"釜石市甲子町","next":[9920807,1120922,1120919,9920801,9920806,1120920],"voronoi":{"lat":39.240468,"lng":141.7216,"delta_lat":[0,-70052,-3218,10293,16490,118407],"delta_lng":[0,7691,10650,27785,21601,-16674]},"impl":true},
    {"code":9920805,"left":9920803,"id":"40c3c3","name":"甫嶺","name_kana":"ほれい","lat":39.093394,"lng":141.806571,"prefecture":3,"lines":[99208,99219,10205],"attr":"heat","postal_code":"022-0101","address":"大船渡市三陸町越喜来字甫嶺","next":[9920803,9920802,9920806,9920804],"voronoi":{"lat":39.111597,"lng":141.762258,"delta_lat":[0,-32261,-3960,25105],"delta_lng":[0,12204,20470,48354]},"impl":true},
    {"code":9920803,"id":"5e598e","name":"綾里","name_kana":"りょうり","lat":39.054318,"lng":141.799012,"prefecture":3,"lines":[99208,99219,10205],"attr":"heat","postal_code":"022-0211","address":"大船渡市三陸町綾里字宮野","next":[1120836,9920805,1122314,9920804,9920802,1120822,1120823,1122412,1122418,1122417,1120821],"voronoi":{"lat":38.521634,"lng":142.110291,"delta_lat":[0,-29703,-143929,-607388,1334762,3960,-47120,-20990,-14155,-119018,-255548],"delta_lng":[0,30751,169240,1039320,-1554671,-20470,-11637,4295,6355,69760,167040]},"impl":true},
    {"code":1120922,"id":"c4cacb","name":"松倉","name_kana":"まつくら","lat":39.256458,"lng":141.801484,"prefecture":3,"lines":[11209],"attr":"eco","postal_code":"026-0055","address":"釜石市甲子町","next":[9920808,1120920,1120921,9920807,1120923,9920812],"voronoi":{"lat":39.362413,"lng":141.787105,"delta_lat":[0,-50025,-118407,4695,25913,123167],"delta_lng":[0,-14453,16674,14172,23699,-28149]},"impl":true},
    {"code":9920808,"left":9920807,"right":9920809,"id":"f810dd","name":"唐丹","name_kana":"とうに","lat":39.201816,"lng":141.86123,"prefecture":3,"lines":[99208,99219],"attr":"eco","postal_code":"026-0121","address":"釜石市唐丹町字片岸","next":[9920807,1120922,1120923,9920804,9920809],"voronoi":{"lat":39.235001,"lng":141.85359,"delta_lat":[0,-10411,-25913,-171102,-65567],"delta_lng":[0,-26392,-23699,349077,186018]},"impl":true},
    {"code":9920807,"left":9920804,"id":"bef61f","name":"吉浜(岩手)","original_name":"吉浜","name_kana":"よしはま","lat":39.151122,"lng":141.836382,"prefecture":3,"lines":[99208,99219,10205],"attr":"cool","postal_code":"022-0102","address":"大船渡市三陸町吉浜字上野","next":[9920808,1120921,9920804,1120922,9920806],"voronoi":{"lat":39.177491,"lng":141.767725,"delta_lat":[0,16490,4695,-171102,75833],"delta_lng":[0,21601,14172,349077,-290165]},"impl":true},
    {"code":9920804,"id":"7aa9de","name":"恋し浜","name_kana":"こいしはま","lat":39.07453,"lng":141.816365,"prefecture":3,"lines":[99208,99219],"attr":"heat","postal_code":"022-0211","address":"岩手県大船渡市三陸町綾里字小石浜","next":[9920809,9920803,9920808,9920816,1122314,1110816,1123004,9920807,9920806,9920805,9933507],"voronoi":{"lat":35.9028,"lng":146.599115,"delta_lat":[0,226642,1611173,1334762,25105,2926,-75833,-65567,-1089571,-1985983,-1189160],"delta_lng":[0,-533603,-2715910,-1554671,48354,19125,290165,186018,2681025,4494737,1324265]},"impl":true},
    {"code":9920809,"id":"21c840","name":"平田(岩手)","original_name":"平田","name_kana":"へいた","lat":39.245686,"lng":141.885923,"prefecture":3,"lines":[99208,99219],"attr":"eco","postal_code":"026-0001","address":"釜石市平田町４地割","next":[1120923,9920804,9920814,1120924,9920816,9920808,9920811],"voronoi":{"lat":38.965756,"lng":142.715556,"delta_lat":[0,-1093320,1089571,272993,14888,25692,-4344],"delta_lng":[0,2304062,-2681025,-485004,5658,53572,84973]},"impl":true},
    {"code":1121316,"left":1121315,"right":9920812,"id":"7e04ba","name":"花原市","name_kana":"けばらいち","lat":39.630233,"lng":141.861308,"prefecture":3,"lines":[11213],"attr":"heat","postal_code":"027-0046","address":"宮古市大字花原市","next":[1121315,9920820,9920819,1121317,9920821,9920827,9920826],"voronoi":{"lat":39.683703,"lng":141.884461,"delta_lat":[0,34932,-162815,9861,20710,2384,94439],"delta_lng":[0,-37901,6474,14918,19058,1522,-3730]},"impl":true},
    {"code":1121315,"left":1120701,"right":1120702,"id":"27b84a","name":"蟇目","name_kana":"ひきめ","lat":39.629341,"lng":141.838876,"prefecture":3,"lines":[11213],"attr":"heat","postal_code":"028-2102","address":"宮古市蟇目","next":[1120709,1121316,1120701,9920819,1120703,1120702,9920827],"voronoi":{"lat":39.555819,"lng":141.853033,"delta_lat":[0,-14097,139558,53421,3482,2690,-22239],"delta_lng":[0,-15608,-30748,8960,1101,11067,18754]},"impl":true},
    {"code":1120701,"left":1121313,"id":"0044bc","name":"茂市","name_kana":"もいち","lat":39.620619,"lng":141.799288,"prefecture":3,"lines":[11207,11213],"attr":"cool","postal_code":"028-2101","address":"宮古市茂市","open_date":"1934-11-06","next":[1121313,1120702,1121315,9920819],"voronoi":{"lat":39.68128,"lng":141.806678,"delta_lat":[0,-54889,-100004,15335],"delta_lng":[0,-30289,50482,10555]},"impl":true},
    {"code":1121313,"id":"928f6b","name":"腹帯","name_kana":"はらたい","lat":39.604539,"lng":141.767434,"prefecture":3,"lines":[11213],"attr":"heat","postal_code":"028-2103","address":"宮古市腹帯","next":[1120701,1120920,9920819,9920813,1121312,1120702],"voronoi":{"lat":39.526387,"lng":141.826871,"delta_lat":[0,-66529,-20023,3468,171765,11323],"delta_lng":[0,-29717,-36629,-22934,-14281,53079]},"impl":true},
    {"code":1120702,"id":"29226a","name":"岩手刈屋","name_kana":"いわてかりや","closed":true,"lat":39.642688,"lng":141.759296,"prefecture":3,"lines":[11207],"attr":"unknown","postal_code":"028-2104","address":"宮古市刈屋","open_date":"1942-06-25","closed_date":"2014-04-01","next":[1121312,1120701,1121315,1120703,1121313],"voronoi":{"lat":39.68128,"lng":141.806678,"delta_lat":[0,53421,-115163,-4470,11323],"delta_lng":[0,8960,-94931,2603,53079]},"impl":true},
    {"code":9920812,"left":9920811,"right":9920813,"id":"122e6a","name":"鵜住居","name_kana":"うのすまい","lat":39.32694,"lng":141.887976,"prefecture":3,"lines":[99208],"attr":"cool","postal_code":"026-0301","address":"釜石市鵜住居町","open_date":"1939-09-17","next":[9920814,1120923,9920813,1120920,1120922,9920811],"voronoi":{"lat":39.314542,"lng":141.839373,"delta_lat":[0,33214,14657,39022,-79736,-1298],"delta_lng":[0,-40324,-11943,-10701,159248,1092]},"impl":true},
    {"code":9920811,"left":1120924,"id":"91e0af","name":"両石","name_kana":"りょういし","lat":39.308062,"lng":141.889112,"prefecture":3,"lines":[99208],"attr":"cool","postal_code":"026-0304","address":"釜石市両石町","open_date":"1951-07-23","next":[9920814,1120924,1120923,9920809,9920812],"voronoi":{"lat":39.271236,"lng":141.997793,"delta_lat":[0,4344,32048,6914,5859],"delta_lng":[0,-84973,-67716,-5731,97372]},"impl":true},
    {"code":1120924,"id":"fb88bc","name":"釜石","name_kana":"かまいし","lat":39.273321,"lng":141.87267,"prefecture":3,"lines":[11209,99208,99219],"attr":"eco","postal_code":"026-0031","address":"釜石市鈴子町","next":[9920811,9920809,1120923],"voronoi":{"lat":39.307629,"lng":141.845103,"delta_lat":[0,-32048,-25692],"delta_lng":[0,67716,-53572]},"impl":true},
    {"code":9920813,"id":"3f97eb","name":"大槌","name_kana":"おおつち","lat":39.356734,"lng":141.902894,"prefecture":3,"lines":[99208],"attr":"cool","postal_code":"028-1116","address":"上閉伊郡大槌町本町","open_date":"1938-04-05","next":[1120920,9920819,9920812,9920818,1121313,9920814,9920815],"voronoi":{"lat":39.440537,"lng":141.860416,"delta_lat":[0,15805,3517,-20023,-38400,-79736,49990],"delta_lng":[0,-34674,-28588,-36629,15880,159248,-17946]},"impl":true},
    {"code":9920823,"left":9920814,"right":9920831,"id":"5d2474","name":"磯鶏","name_kana":"そけい","lat":39.629883,"lng":141.960984,"prefecture":3,"lines":[99208],"attr":"eco","postal_code":"027-0024","address":"宮古市磯鶏石崎13","open_date":"1935-11-17","next":[1121318,9920816,9920829,9920828,9920821,9920826,9920822,9920818],"voronoi":{"lat":39.539259,"lng":142.086694,"delta_lat":[0,52934,37595,36374,12842,-853,-67966,-71297],"delta_lng":[0,-109480,-27287,26045,39913,24364,1137591,-1084626]},"impl":true},
    {"code":9920814,"left":9920820,"right":9920818,"id":"fac18f","name":"吉里吉里","name_kana":"きりきり","lat":39.36957,"lng":141.938648,"prefecture":3,"lines":[99208],"attr":"cool","postal_code":"028-1101","address":"上閉伊郡大槌町吉里吉里","open_date":"1938-04-05","next":[9920812,9920809,9920811,9920813,9920816,9920815],"voronoi":{"lat":39.371689,"lng":141.917706,"delta_lat":[0,-49990,-1298,-49165,-305480,421563],"delta_lng":[0,17946,1092,61048,717764,-736250]},"impl":true},
    {"code":9920820,"left":9920815,"right":9920821,"id":"13d0e8","name":"払川","name_kana":"はらいかわ","lat":39.564417,"lng":141.932833,"prefecture":3,"lines":[99208],"attr":"eco","postal_code":"027-0203","address":"宮古市津軽石第13地割336番3","open_date":"2019-03-23","next":[9920819,1121316,9920821,9920818],"voronoi":{"lat":39.586391,"lng":141.887009,"delta_lat":[0,-20710,-38761,9810],"delta_lng":[0,-19058,144351,52969]},"impl":true},
    {"code":9920815,"left":9920819,"id":"5a4a02","name":"浪板海岸","name_kana":"なみいたかいがん","lat":39.383537,"lng":141.935104,"prefecture":3,"lines":[99208],"attr":"cool","postal_code":"028-1101","address":"上閉伊郡大槌町吉里吉里10","open_date":"1961-12-20","next":[9920818,9920816,9920817,9920814,9920813],"voronoi":{"lat":39.440537,"lng":141.860416,"delta_lat":[0,-6429,-13298,-33490,-15630],"delta_lng":[0,31273,46469,41149,-61600]},"impl":true},
    {"code":9920819,"id":"1eaa39","name":"豊間根","name_kana":"とよまね","lat":39.534274,"lng":141.924739,"prefecture":3,"lines":[99208],"attr":"eco","postal_code":"028-1302","address":"下閉伊郡山田町豊間根","open_date":"1935-11-17","next":[9920820,9920813,1121315,9920818,1121316,1121313,1120701],"voronoi":{"lat":39.555819,"lng":141.853033,"delta_lat":[0,9861,-38761,-70578,3517,66529,15335],"delta_lng":[0,14918,144351,-186561,-28588,29717,10555]},"impl":true},
    {"code":9920821,"id":"d2b9ef","name":"津軽石","name_kana":"つがるいし","lat":39.581507,"lng":141.937594,"prefecture":3,"lines":[99208],"attr":"eco","postal_code":"027-0203","address":"宮古市大字津軽石5-60","open_date":"1935-11-17","next":[9920822,9920818,1121316,1121317,9920823,9920820],"voronoi":{"lat":39.586391,"lng":141.887009,"delta_lat":[0,2384,16398,-12979,-52934,-2530],"delta_lng":[0,1522,33029,55653,109480,-21422]},"impl":true},
    {"code":9920818,"left":9920816,"right":9920822,"id":"03f097","name":"陸中山田","name_kana":"りくちゅうやまだ","lat":39.463449,"lng":141.951533,"prefecture":3,"lines":[99208],"attr":"eco","postal_code":"028-1342","address":"下閉伊郡山田町川向町","open_date":"1935-11-17","next":[9920816,9920821,9920817,9920815,9920819,9920813,9920820,9920823],"voronoi":{"lat":39.539259,"lng":142.086694,"delta_lat":[0,-2530,-9810,-70578,-15805,-6429,48329,56452],"delta_lng":[0,-21422,-52969,-186561,34674,31273,121037,80488]},"impl":true},
    {"code":9920816,"left":9920817,"id":"540970","name":"岩手船越","name_kana":"いわてふなこし","lat":39.431369,"lng":141.974033,"prefecture":3,"lines":[99208],"attr":"cool","postal_code":"028-1371","address":"下閉伊郡山田町船越","open_date":"1936-11-10","next":[9920818,1011517,9920817,9920804,9920829,9920823,9920809,9920815,1110816,1110808,9920814,1110806],"voronoi":{"lat":39.188776,"lng":146.005674,"delta_lat":[0,-3302322,1985983,1093320,421563,33490,61627,56452,71297,45528,-202260,-86551],"delta_lng":[0,3508682,-4494737,-2304062,-736250,-41149,74568,80488,1084626,2055079,433831,113737]},"impl":true},
    {"code":9920817,"id":"c371d7","name":"織笠","name_kana":"おりかさ","lat":39.454055,"lng":141.955284,"prefecture":3,"lines":[99208],"attr":"cool","postal_code":"028-1361","address":"下閉伊郡山田町織笠","open_date":"1936-11-10","next":[9920818,9920816,9920815],"voronoi":{"lat":39.434107,"lng":141.891689,"delta_lat":[0,48329,-61627],"delta_lng":[0,121037,-74568]},"impl":true},
    {"code":9920822,"id":"8610ac","name":"八木沢・宮古短大","name_kana":"やぎさわ・みやこたんだい","lat":39.619304,"lng":141.946409,"prefecture":3,"lines":[99208],"attr":"eco","postal_code":"027-0031","address":"宮古市八木沢第一地割1番3","open_date":"2019-03-23","next":[9920821,1121318,1121317,9920823,9920825],"voronoi":{"lat":39.628202,"lng":141.930327,"delta_lat":[0,-23029,-12979,37595,34],"delta_lng":[0,-8767,55653,-27287,-16272]},"impl":true},
    {"code":9920831,"left":9920826,"right":9920829,"id":"2fd21e","name":"岩泉小本","name_kana":"いわいずみおもと","lat":39.842724,"lng":141.958453,"prefecture":3,"lines":[99207,99208],"attr":"eco","postal_code":"027-0421","address":"下閉伊郡岩泉町小本","next":[9920832,9920830,1120709,1011517,1111130],"voronoi":{"lat":40.099069,"lng":144.395912,"delta_lat":[0,-282870,43387,514899,-39439],"delta_lng":[0,-2523836,585,2002576,92202]},"impl":true},
    {"code":9920826,"left":1121318,"right":9920827,"id":"40b59b","name":"一の渡","name_kana":"いちのわたり","lat":39.686895,"lng":141.94264,"prefecture":3,"lines":[99207,99208,10204],"attr":"eco","postal_code":"027-0097","address":"宮古市崎山","next":[1121317,1121318,9920827,9920828,9920823,9920825,1121316],"voronoi":{"lat":39.675876,"lng":141.89806,"delta_lat":[0,-11895,2181,12842,26330,-21632,-489],"delta_lng":[0,51256,26655,39913,-54006,-77418,341]},"impl":true},
    {"code":1121318,"left":9920825,"id":"805656","name":"宮古","name_kana":"みやこ","lat":39.640287,"lng":141.946454,"prefecture":3,"lines":[11213,99207,99208,10204],"attr":"eco","postal_code":"027-0076","address":"宮古市栄町","open_date":"1934-11-06","next":[9920823,9920822,9920825,9920826],"voronoi":{"lat":39.663981,"lng":141.949317,"delta_lat":[0,-34159,-34,36374],"delta_lng":[0,-15662,16272,26045]},"impl":true},
    {"code":9920825,"id":"b6b836","name":"山口団地","name_kana":"やまぐちだんち","lat":39.64635,"lng":141.933231,"prefecture":3,"lines":[99207,99208],"attr":"eco","postal_code":"027-0063","address":"岩手県宮古市山口三丁目","open_date":"2010-10-16","next":[1121318,1121317,9920822,9920826],"voronoi":{"lat":39.675876,"lng":141.89806,"delta_lat":[0,-47675,1621,34159],"delta_lng":[0,32267,3327,15662]},"impl":true},
    {"code":9920827,"id":"dd1c5e","name":"佐羽根","name_kana":"さばね","lat":39.711131,"lng":141.935868,"prefecture":3,"lines":[99207,99208,10204],"attr":"eco","postal_code":"027-0067","address":"宮古市大字田代","next":[1120709,9920830,1121315,9920826,1121316,9920828],"voronoi":{"lat":39.683703,"lng":141.884461,"delta_lat":[0,34932,22239,41828,-13507,-63860],"delta_lng":[0,-37901,-18754,37487,50470,46116]},"impl":true},
    {"code":9920829,"left":9920828,"right":9920830,"id":"f52e8c","name":"新田老","name_kana":"しんたろう","lat":39.735514,"lng":141.967295,"prefecture":3,"lines":[99208],"attr":"eco","postal_code":"027-0307","address":"岩手県宮古市田老１丁目３-６","next":[9920828,9920816,9920830,9920823,1011517],"voronoi":{"lat":39.958537,"lng":144.655259,"delta_lat":[0,-189266,-91120,-67966,45528],"delta_lng":[0,-2736969,121959,1137591,2055079]},"impl":true},
    {"code":9920828,"id":"03bf08","name":"田老","name_kana":"たろう","lat":39.731848,"lng":141.964556,"prefecture":3,"lines":[99207,99208,10204],"attr":"eco","postal_code":"027-0351","address":"宮古市田老小林","next":[9920829,9920830,9920823,9920826,9920827],"voronoi":{"lat":39.769194,"lng":141.915762,"delta_lat":[0,77,-91120,853,26330],"delta_lng":[0,2527,121959,-24364,-54006]},"impl":true},
    {"code":9920830,"id":"d13f6c","name":"摂待","name_kana":"せったい","lat":39.809453,"lng":141.962182,"prefecture":3,"lines":[99207,99208],"attr":"eco","postal_code":"027-0384","address":"宮古市田老摂待","next":[1011517,9920831,1120709,9920829,9920828,9920827],"voronoi":{"lat":39.782702,"lng":141.865292,"delta_lat":[0,33497,282870,-140531,-189266,-77],"delta_lng":[0,6784,2523836,259346,-2736969,-2527]},"impl":true},
    {"code":1111115,"left":1120625,"right":1111122,"id":"39e888","name":"静内","name_kana":"しずない","lat":42.336559,"lng":142.360402,"prefecture":1,"lines":[11111],"attr":"eco","postal_code":"056-0016","address":"日高郡新ひだか町静内本町５丁目","next":[1011211,1111117,1111114,1111118,1120307,9922406],"voronoi":{"lat":41.627821,"lng":141.97309,"delta_lat":[0,910876,4021,-468229,-533303,46827],"delta_lng":[0,459238,52410,-167071,-261930,-49577]},"impl":true},
    {"code":1120625,"left":9920836,"right":1120622,"id":"083ed1","name":"久慈","name_kana":"くじ","lat":40.190391,"lng":141.770891,"prefecture":3,"lines":[11206,99207,99208,10203],"attr":"heat","postal_code":"028-0061","address":"久慈市中央３","next":[9920513,1120623,9920840,1120624],"voronoi":{"lat":40.225042,"lng":141.759948,"delta_lat":[0,-32139,-92558,68347],"delta_lng":[0,-221143,3863,263818]},"impl":true},
    {"code":9920836,"left":9920839,"right":9920834,"id":"c74f12","name":"堀内","name_kana":"ほりない","lat":40.051895,"lng":141.859481,"prefecture":3,"lines":[99207,99208,10203],"attr":"cool","postal_code":"028-8301","address":"下閉伊郡普代村馬場野","next":[9920839,9920834,1120709,9920838,9920835,9920837],"voronoi":{"lat":40.131431,"lng":141.914454,"delta_lat":[0,38289,-155988,-44889,5282,135883],"delta_lng":[0,60728,-127133,-82786,-14960,136886]},"impl":true},
    {"code":9920839,"left":9920837,"right":9920840,"id":"dfe7dc","name":"陸中野田","name_kana":"りくちゅうのだ","lat":40.116115,"lng":141.81899,"prefecture":3,"lines":[99207,99208,10203],"attr":"heat","postal_code":"028-8201","address":"九戸郡野田村大字野田","next":[9920836,1120624,9920835,9920838,9920840],"voronoi":{"lat":40.097826,"lng":141.789394,"delta_lat":[0,33605,38289,68887,-71285],"delta_lng":[0,125059,60728,89678,-241173]},"impl":true},
    {"code":9920837,"left":9920838,"id":"e6ac89","name":"野田玉川","name_kana":"のだたまがわ","lat":40.082728,"lng":141.828874,"prefecture":3,"lines":[99207,99208,10203],"attr":"cool","postal_code":"028-8202","address":"九戸郡野田村大字玉川","next":[1120708,1120709,9920838,9920840,9920836],"voronoi":{"lat":40.068217,"lng":141.761844,"delta_lat":[0,-71803,-20178,-2111,135883],"delta_lng":[0,-83071,59707,11823,136886]},"impl":true},
    {"code":9920838,"id":"176d79","name":"十府ヶ浦海岸","name_kana":"とふがうらかいがん","lat":40.096834,"lng":141.824171,"prefecture":3,"lines":[99207,99208],"attr":"cool","postal_code":"028-8201","address":"岩手県九戸郡野田村大字野田第10地割中沼10-3","open_date":"2017-03-25","next":[9920837,9920839,9920836,9920840],"voronoi":{"lat":40.068217,"lng":141.761844,"delta_lat":[0,41791,21423,-33605],"delta_lng":[0,125345,27265,-125059]},"impl":true},
    {"code":9920840,"id":"1531a9","name":"陸中宇部","name_kana":"りくちゅううべ","lat":40.132441,"lng":141.785904,"prefecture":3,"lines":[99207,99208,10203],"attr":"heat","postal_code":"028-8111","address":"久慈市宇部町","next":[1120708,9920513,9920837,1120625,1120706,1120624,9920838,9920839],"voronoi":{"lat":40.168693,"lng":141.806486,"delta_lat":[0,-68347,-68228,-27260,-8444,71803,29609,69496],"delta_lng":[0,-263818,-5510,79448,62167,83071,27551,34292]},"impl":true},
    {"code":9920834,"left":9920832,"right":9920835,"id":"c00464","name":"普代","name_kana":"ふだい","lat":40.002492,"lng":141.886269,"prefecture":3,"lines":[99207,99208,10203],"attr":"cool","postal_code":"028-8332","address":"下閉伊郡普代村銅屋","next":[9920836,9920835,1120709,9920833],"voronoi":{"lat":39.920536,"lng":141.841455,"delta_lat":[0,48306,44889,15607],"delta_lng":[0,-76193,82786,149405]},"impl":true},
    {"code":9920832,"left":9920833,"id":"7ca601","name":"島越","name_kana":"しまのこし","lat":39.915737,"lng":141.93968,"prefecture":3,"lines":[99207,99208],"attr":"eco","postal_code":"028-8404","address":"下閉伊郡田野畑村松前沢","next":[1120709,9920833,9920831,1111130],"voronoi":{"lat":40.468932,"lng":143.665521,"delta_lat":[0,-569831,-39516,514899],"delta_lng":[0,-1811090,18231,2002576]},"impl":true},
    {"code":9920833,"id":"c028b0","name":"田野畑","name_kana":"たのはた","lat":39.934276,"lng":141.933847,"prefecture":3,"lines":[99207,99208],"attr":"eco","postal_code":"028-8407","address":"下閉伊郡田野畑村和野","next":[1111130,9920832,9920835,1120709,9920834,1120622],"voronoi":{"lat":40.468932,"lng":143.665521,"delta_lat":[0,-569831,21435,108802,610127,23646],"delta_lng":[0,-1811090,-12975,155998,1182967,60036]},"impl":true},
    {"code":9920835,"id":"f1262a","name":"白井海岸","name_kana":"しらいかいがん","lat":40.032628,"lng":141.883121,"prefecture":3,"lines":[99207,99208],"attr":"cool","postal_code":"028-8311","address":"下閉伊郡普代村白井","next":[1120624,9920834,1120622,9920833,9920839,9920836],"voronoi":{"lat":40.238606,"lng":142.064859,"delta_lat":[0,32154,368705,-610127,-15607,155988],"delta_lng":[0,61731,1053830,-1182967,-149405,127133]},"impl":true},
    {"code":1120622,"left":1120620,"right":1111113,"id":"7dd47f","name":"陸中中野","name_kana":"りくちゅうなかの","lat":40.305165,"lng":141.787768,"prefecture":3,"lines":[11206],"attr":"eco","postal_code":"028-7906","address":"九戸郡洋野町中野","next":[9920835,1120624,1120620,1111130,1120623,1120621,9920833],"voronoi":{"lat":40.899112,"lng":142.865802,"delta_lat":[0,-546334,-57805,-37424,13211,368705,23646],"delta_lng":[0,-1036571,-73906,60265,311001,1053830,60036]},"impl":true},
    {"code":1120620,"left":1120621,"right":1120619,"id":"cad02a","name":"陸中八木","name_kana":"りくちゅうやぎ","lat":40.345485,"lng":141.766517,"prefecture":3,"lines":[11206],"attr":"cool","postal_code":"028-7900","address":"九戸郡洋野町種市第１地割","next":[1111130,1111128,1120618,1120622,1120617,1120619,1120621,1111127],"voronoi":{"lat":40.963937,"lng":142.766996,"delta_lat":[0,-64825,-546334,-33586,227744,5209,509869,-40630],"delta_lng":[0,98806,-1036571,-110741,237045,5797,645218,68358]},"impl":true},
    {"code":1120621,"left":1120623,"id":"b161db","name":"有家","name_kana":"うげ","lat":40.324007,"lng":141.773031,"prefecture":3,"lines":[11206],"attr":"eco","postal_code":"028-7905","address":"九戸郡洋野町有家","next":[1120619,1120620,1120622,1120623],"voronoi":{"lat":40.306375,"lng":141.697999,"delta_lat":[0,12818,33586,-57805],"delta_lng":[0,20491,110741,-73906]},"impl":true},
    {"code":1120623,"id":"36406f","name":"侍浜","name_kana":"さむらいはま","lat":40.261375,"lng":141.760575,"prefecture":3,"lines":[11206],"attr":"eco","postal_code":"028-7801","address":"久慈市侍浜町字堀切","next":[9920513,1120625,9920514,1120618,1120622,9920517,1120619,1120616,1120624,1120621],"voronoi":{"lat":40.306375,"lng":141.697999,"delta_lat":[0,-6311,-18338,-13321,-14626,-3776,-57099,32139,32507,37424],"delta_lng":[0,-47586,-85756,-35668,-1990,419,11387,221143,55642,-60265]},"impl":true},
    {"code":1120619,"id":"604c28","name":"宿戸","name_kana":"しゅくのへ","lat":40.366129,"lng":141.746683,"prefecture":3,"lines":[11206],"attr":"cool","postal_code":"028-7900","address":"九戸郡洋野町種市第７地割","next":[1120618,1120621,1120620,1120623],"voronoi":{"lat":40.300064,"lng":141.650413,"delta_lat":[0,246873,-227744,-12818],"delta_lng":[0,305122,-237045,-20491]},"impl":true},
    {"code":1111113,"left":1111114,"right":1111112,"id":"4192b7","name":"節婦","name_kana":"せっぷ","lat":42.38248,"lng":142.275541,"prefecture":1,"lines":[11111],"attr":"eco","postal_code":"059-2412","address":"新冠郡新冠町字節婦町","next":[1111114,1111108,9922406,1111112,1011211],"voronoi":{"lat":42.540925,"lng":142.391415,"delta_lat":[0,-498184,-278584,-57149,833572],"delta_lng":[0,-406741,-135628,53694,490841]},"impl":true},
    {"code":1111114,"left":1120624,"id":"3fea50","name":"新冠","name_kana":"にいかっぷ","lat":42.360667,"lng":142.312585,"prefecture":1,"lines":[11111],"attr":"eco","postal_code":"059-2400","address":"新冠郡新冠町新冠字本町","next":[1111113,9922406,1111115,1011211],"voronoi":{"lat":41.627821,"lng":141.97309,"delta_lat":[0,79187,833572,-1883],"delta_lng":[0,-70350,490841,38747]},"impl":true},
    {"code":1120624,"id":"404496","name":"陸中夏井","name_kana":"りくちゅうなつい","lat":40.207747,"lng":141.791906,"prefecture":3,"lines":[11206],"attr":"heat","postal_code":"028-0001","address":"久慈市夏井町字大崎","next":[9920835,9920839,1120622,1120625,9920840,1120623],"voronoi":{"lat":40.225042,"lng":141.759948,"delta_lat":[0,-56350,-1371,71285,32154,-13211],"delta_lng":[0,46538,17201,241173,61731,-311001]},"impl":true},
    {"code":1111112,"id":"e4e0ed","name":"大狩部","name_kana":"おおかりべ","lat":42.395695,"lng":142.259355,"prefecture":1,"lines":[11111],"attr":"eco","postal_code":"059-2253","address":"新冠郡新冠町字大狩部","next":[1111111,1111108,1111109,1111113,1011211],"voronoi":{"lat":42.042741,"lng":141.984675,"delta_lat":[0,69207,77737,360635,-9395],"delta_lng":[0,31716,42273,288879,43873]},"impl":true},
    {"code":1111122,"left":1111126,"right":1011515,"id":"29d5d8","name":"本桐","name_kana":"ほんきり","lat":42.248205,"lng":142.630455,"prefecture":1,"lines":[11111],"attr":"cool","postal_code":"059-3231","address":"日高郡新ひだか町三石本桐","next":[1111120,1111121,1111124,1011507,1111123],"voronoi":{"lat":42.532072,"lng":142.828725,"delta_lat":[0,24052,-328949,-83770,187634],"delta_lng":[0,-21385,-208380,1233,133841]},"impl":true},
    {"code":1111126,"left":1111123,"right":1111129,"id":"216605","name":"東町","name_kana":"ひがしちょう","lat":42.156037,"lng":142.788931,"prefecture":1,"lines":[11111],"attr":"heat","postal_code":"057-0005","address":"浦河郡浦河町東町うしお１丁目","next":[1120307,1111123,1120617,1111125,1111127,1120611,1111120,1120615],"voronoi":{"lat":41.127774,"lng":142.504795,"delta_lat":[0,1137822,-442218,-394639,-161824,-5555,-16053,-82500],"delta_lng":[0,341911,-287635,-198705,-66481,3548,22867,127536]},"impl":true},
    {"code":1111123,"left":1111125,"right":1111120,"id":"f980bc","name":"荻伏","name_kana":"おぎふし","lat":42.206136,"lng":142.689432,"prefecture":1,"lines":[11111],"attr":"cool","postal_code":"059-3451","address":"浦河郡浦河町荻伏町","next":[1111124,1111126,1111125,1111120,1111122],"voronoi":{"lat":42.143405,"lng":142.600193,"delta_lat":[0,-714665,394639,300028,207632],"delta_lng":[0,-239827,198705,140694,34269]},"impl":true},
    {"code":1111125,"left":1111124,"id":"5d9ea8","name":"浦河","name_kana":"うらかわ","lat":42.168366,"lng":142.769976,"prefecture":1,"lines":[11111],"attr":"heat","postal_code":"057-0022","address":"浦河郡浦河町昌平町","next":[1111124,1111126,1111123,1111127],"voronoi":{"lat":42.265597,"lng":142.846706,"delta_lat":[0,-442218,300028,184727],"delta_lng":[0,-287635,140694,164095]},"impl":true},
    {"code":1111124,"id":"9d5184","name":"絵笛","name_kana":"えふえ","lat":42.198428,"lng":142.736134,"prefecture":1,"lines":[11111],"attr":"heat","postal_code":"057-0036","address":"浦河郡浦河町絵笛","next":[1111125,1011507,1111127,1111123,1111129,1111122],"voronoi":{"lat":42.331039,"lng":142.734034,"delta_lat":[0,-207632,184727,32184,116574,75180],"delta_lng":[0,-34269,164095,18348,40535,-94018]},"impl":true},
    {"code":1111120,"id":"950f66","name":"日高三石","name_kana":"ひだかみついし","lat":42.247269,"lng":142.566859,"prefecture":1,"lines":[11111],"attr":"cool","postal_code":"059-3107","address":"日高郡新ひだか町三石旭町","next":[1111118,1120307,1111122,1111126,1111123,1111121,1111119],"voronoi":{"lat":42.227175,"lng":142.59896,"delta_lat":[0,-83770,-714665,-161824,62684,912609,53398],"delta_lng":[0,1233,-239827,-66481,-51379,285489,39406]},"impl":true},
    {"code":1111129,"left":1111130,"right":1111127,"id":"bef522","name":"西様似","name_kana":"にしさまに","lat":42.138411,"lng":142.908737,"prefecture":1,"lines":[11111],"attr":"heat","postal_code":"058-0032","address":"様似郡様似町西町","next":[1011508,1111130,1111127,1011512,1111124,1111128,1011507],"voronoi":{"lat":42.429589,"lng":142.981104,"delta_lat":[0,-41290,-304076,170866,85229,116574,-12794],"delta_lng":[0,39412,-117004,-25815,4510,40535,31680]},"impl":true},
    {"code":1111130,"left":1111128,"id":"da4e83","name":"様似","name_kana":"さまに","lat":42.127936,"lng":142.93596,"prefecture":1,"lines":[11111],"attr":"heat","postal_code":"058-0014","address":"様似郡様似町大通１丁目","next":[9920833,1111129,1011515,1120620,1120622,9920832,1111128,1011512,1011517,9920831],"voronoi":{"lat":42.273178,"lng":143.095259,"delta_lat":[0,111867,3253,-304076,-1120285,-64825,-236001,-194179,-94448,-39439],"delta_lng":[0,-71287,-3455,-117004,-136517,98806,374655,425064,209717,92202]},"impl":true},
    {"code":1111128,"id":"6a75f6","name":"鵜苫","name_kana":"うとま","lat":42.134449,"lng":142.882513,"prefecture":1,"lines":[11111],"attr":"heat","postal_code":"058-0033","address":"様似郡様似町鵜苫","next":[1120620,1111127,1111130,1111129],"voronoi":{"lat":42.255089,"lng":142.877698,"delta_lat":[0,-1233704,-57447,1120285],"delta_lng":[0,-202790,92088,136517]},"impl":true},
    {"code":1111127,"id":"969279","name":"日高幌別","name_kana":"ひだかほろべつ","lat":42.142338,"lng":142.834519,"prefecture":1,"lines":[11111],"attr":"heat","postal_code":"057-0002","address":"浦河郡浦河町字西幌別","next":[1111129,1120617,1111124,1111126,1111128,1111125,1120620],"voronoi":{"lat":42.255089,"lng":142.877698,"delta_lat":[0,85229,-32184,-42537,-1137822,-65760,-40630],"delta_lng":[0,4510,-18348,-17154,-341911,101755,68358]},"impl":true},
    {"code":1011515,"left":1111119,"right":1011516,"id":"475c9f","name":"野塚","name_kana":"のづか","closed":true,"lat":42.356222,"lng":143.294194,"prefecture":1,"lines":[10115],"postal_code":"089-2561","address":"北海道広尾郡広尾町字野塚","open_date":"1932-11-05","closed_date":"1987-02-02","next":[1111130,1011517,1011514,1011513,1011512,1011516],"voronoi":{"lat":42.403694,"lng":143.207318,"delta_lat":[0,-536,-18113,-111867,44206,50913],"delta_lng":[0,-56471,-126876,71287,172442,63785]},"impl":false},
    {"code":1111119,"left":1111121,"right":1111117,"id":"6c561d","name":"日高東別","name_kana":"ひだかとうべつ","lat":42.280837,"lng":142.521371,"prefecture":1,"lines":[11111],"attr":"cool","postal_code":"059-2566","address":"日高郡新ひだか町静内東別","next":[1111117,1111118,1011212,1111120,1111121],"voronoi":{"lat":42.295607,"lng":142.5674,"delta_lat":[0,-53398,66706,252425,13249],"delta_lng":[0,-39406,-36648,83964,46449]},"impl":true},
    {"code":1111121,"left":1111118,"id":"864783","name":"蓬栄","name_kana":"ほうえい","lat":42.264636,"lng":142.604517,"prefecture":1,"lines":[11111],"attr":"cool","postal_code":"059-3104","address":"日高郡新ひだか町三石蓬栄","next":[1011507,1110703,1011212,1111122,1110704,1111120,1011213,1111119],"voronoi":{"lat":42.618711,"lng":142.721983,"delta_lat":[0,3242,-7307,-9982,-48540,-328949,68432,278982],"delta_lng":[0,8636,16756,20426,39538,-208380,-31559,54359]},"impl":true},
    {"code":1111118,"id":"801187","name":"春立","name_kana":"はるたち","lat":42.268515,"lng":142.498943,"prefecture":1,"lines":[11111],"attr":"cool","postal_code":"059-2565","address":"日高郡新ひだか町静内春立","next":[1120307,1111120,1111117,1111119,1111115],"voronoi":{"lat":41.541186,"lng":142.055737,"delta_lat":[0,-211587,912609,66706,-234425],"delta_lng":[0,186768,285489,-36648,-173679]},"impl":true},
    {"code":1111117,"id":"f201dc","name":"東静内","name_kana":"ひがししずない","lat":42.304416,"lng":142.450485,"prefecture":1,"lines":[11111],"attr":"cool","postal_code":"059-2561","address":"日高郡新ひだか町東静内","next":[1111119,1111118,1011212,1111115,1011211],"voronoi":{"lat":42.542718,"lng":142.484739,"delta_lat":[0,-468229,234425,252425,-7693],"delta_lng":[0,-167071,173679,83964,-52067]},"impl":true},
    {"code":1011516,"left":1011517,"right":1011514,"id":"33e2d8","name":"新生","name_kana":"しんせい","closed":true,"lat":42.334611,"lng":143.311444,"prefecture":1,"lines":[10115],"postal_code":"089-2561","address":"北海道広尾郡広尾町字野塚１３","open_date":"1960-04-15","closed_date":"1987-02-02","next":[1011514,1110717,1011517,1110720,1011515],"voronoi":{"lat":42.398525,"lng":143.695852,"delta_lat":[0,-56234,-51592,26686,50913],"delta_lng":[0,84049,48718,-560918,63785]},"impl":false},
    {"code":1011517,"id":"d47880","name":"広尾(北海道)","original_name":"広尾","name_kana":"ひろお","closed":true,"lat":42.296083,"lng":143.309611,"prefecture":1,"lines":[10115],"postal_code":"089-2627","address":"北海道広尾郡広尾町丸山通北２丁目１０１","open_date":"1932-11-05","closed_date":"1987-02-02","next":[9920830,9920816,1110806,1011516,1011515,1110720,1110803,9920829,1110804,9920831,1111130],"voronoi":{"lat":40.099069,"lng":144.395912,"delta_lat":[0,-140531,-302824,-202260,1720882,374251,85398,656714,26686,-44206,-1938133],"delta_lng":[0,259346,577660,433831,-891678,-225296,-53153,-668004,-560918,-172442,872181]},"impl":false},
    {"code":1011514,"id":"f094c9","name":"豊似","name_kana":"とよに","closed":true,"lat":42.398222,"lng":143.306167,"prefecture":1,"lines":[10115],"postal_code":"089-2446","address":"北海道広尾郡広尾町字紋別１８−４５","open_date":"1932-11-05","closed_date":"1987-02-02","next":[1011513,1011516,1011515,1011510,1110717],"voronoi":{"lat":42.368298,"lng":143.331485,"delta_lat":[0,35397,86975,140,-92285],"delta_lng":[0,-124167,368335,4110,116088]},"impl":false}
  ]
}