{
  "name":"segment18",
  "root":9963002,
  "east":135.436921,
  "west":-180.0,
  "south":34.685688,
  "north":34.775454,
  "station_size":145,
  "node_list":[
    {"code":9963002,"left":1163112,"right":3500113,"id":"de216a","name":"花隈","name_kana":"はなくま","lat":34.686117,"lng":135.181524,"prefecture":28,"lines":[99630],"attr":"cool","postal_code":"650-0012","address":"神戸市中央区北長狭通６-３-５","next":[9964603,9964604,9964708,9963004],"voronoi":{"lat":34.687638,"lng":135.177537,"delta_lat":[0,3782,-3045,-5047],"delta_lng":[0,-812,6258,-499]}},
    {"code":1163112,"left":1163113,"right":1163103,"id":"8486a9","name":"伊部","name_kana":"いんべ","lat":34.738798,"lng":134.160554,"prefecture":33,"lines":[11631],"attr":"cool","postal_code":"705-0001","address":"備前市伊部","next":[1160911,1163109,1163113,1160910,1163114,1163115,1163111],"voronoi":{"lat":34.633282,"lng":134.196925,"delta_lat":[0,34166,12748,78822,6677,3461,-114666],"delta_lng":[0,-34531,-8032,-21258,5845,26065,31041]}},
    {"code":1163113,"left":1170308,"right":9963727,"id":"351bc1","name":"香登","name_kana":"かがと","lat":34.727737,"lng":134.119542,"prefecture":33,"lines":[11631],"attr":"cool","postal_code":"705-0011","address":"備前市香登西","next":[1160911,1163112,1160912,1163114],"voronoi":{"lat":34.728855,"lng":134.08899,"delta_lat":[0,25842,4320,-78822],"delta_lng":[0,20257,23856,21258]}},
    {"code":1170308,"left":1171307,"right":1170310,"id":"e7bae2","name":"豪渓","name_kana":"ごうけい","lat":34.706299,"lng":133.722604,"prefecture":33,"lines":[11703],"attr":"heat","postal_code":"719-1153","address":"総社市宍粟","next":[1170307,1171510,1171307,1170309,1171309,1170313,1171308],"voronoi":{"lat":34.821059,"lng":133.77488,"delta_lat":[0,24369,-13506,-158377,20419,12394,64690],"delta_lng":[0,-18767,-14899,-45734,43436,12273,18560]}},
    {"code":1171307,"left":1172021,"right":1163114,"id":"4f166e","name":"足守","name_kana":"あしもり","lat":34.698075,"lng":133.802765,"prefecture":33,"lines":[11713],"attr":"heat","postal_code":"701-1357","address":"岡山市福崎","next":[1170308,1171306,1171510,1171512,1171308],"voronoi":{"lat":34.771049,"lng":133.769749,"delta_lat":[0,50011,-47332,-13010,-95590],"delta_lng":[0,5131,70790,7318,-56451]}},
    {"code":1172021,"left":1171308,"right":1172022,"id":"a9b04e","name":"上下","name_kana":"じょうげ","lat":34.694932,"lng":133.117625,"prefecture":34,"lines":[11720],"attr":"cool","postal_code":"729-3431","address":"府中市上下町上下","next":[1172015,1171417,1172022,1171408,1172020],"voronoi":{"lat":34.733698,"lng":133.281379,"delta_lat":[0,75186,-15330,-121546,45443],"delta_lng":[0,-99663,-59615,-29169,171529]}},
    {"code":1171308,"left":1171430,"id":"3de368","name":"服部","name_kana":"はっとり","lat":34.691153,"lng":133.775395,"prefecture":33,"lines":[11713],"attr":"heat","postal_code":"719-1117","address":"総社市北溝手","next":[1161004,1171309,1171306,1170308,1171307],"voronoi":{"lat":34.771049,"lng":133.769749,"delta_lat":[0,-64690,-53116,7773,4112],"delta_lng":[0,-18560,29630,15310,408]}},
    {"code":1171430,"id":"49c9bf","name":"甲立","name_kana":"こうたち","lat":34.692611,"lng":132.759991,"prefecture":34,"lines":[11714],"attr":"heat","postal_code":"739-1101","address":"安芸高田市甲田町高田原","next":[1171428,1170729,1171431,1170728,1161103,1171429],"voronoi":{"lat":34.618228,"lng":132.889077,"delta_lat":[0,-4051,110531,19573,2868,-116313],"delta_lng":[0,-6955,-222521,50881,11709,153149]}},
    {"code":1172022,"id":"74890a","name":"甲奴","name_kana":"こうぬ","lat":34.703642,"lng":133.081331,"prefecture":34,"lines":[11720],"attr":"cool","postal_code":"729-4101","address":"三次市甲奴町本郷","next":[1172021,1172024,1172020,1172023,1172019,1171417],"voronoi":{"lat":34.793024,"lng":133.113516,"delta_lat":[0,-32829,-110803,13148,9467,121546],"delta_lng":[0,-25951,-36560,33541,8385,29169]}},
    {"code":1163114,"left":1160914,"right":1171515,"id":"9e30f7","name":"長船","name_kana":"おさふね","lat":34.699909,"lng":134.098828,"prefecture":33,"lines":[11631],"attr":"cool","postal_code":"701-4265","address":"瀬戸内市長船町福岡","next":[1160912,1163113,1163116,1160914,1163112,1163115,1160913],"voronoi":{"lat":34.728855,"lng":134.08899,"delta_lat":[0,-48660,-12748,22425,9098,682,24752],"delta_lng":[0,65371,8032,-90218,-12473,-4,15039]}},
    {"code":1160914,"left":1171306,"id":"28c7d7","name":"上道(岡山)","name_kana":"じょうとう","lat":34.699466,"lng":134.020569,"prefecture":33,"lines":[11609],"attr":"heat","postal_code":"709-0626","address":"岡山市中尾","next":[1163116,1171514,1163117,1160913,1160915,1163114,1163118],"voronoi":{"lat":34.691843,"lng":134.054301,"delta_lat":[0,7127,682,35737,-20209,-30122,-6713],"delta_lng":[0,5401,-4,-58701,-6304,12834,15965]}},
    {"code":1171306,"id":"f5320a","name":"備中高松","name_kana":"びっちゅうたかまつ","lat":34.68649,"lng":133.822382,"prefecture":33,"lines":[11713],"attr":"heat","postal_code":"701-1335","address":"岡山市高松","next":[1171305,1161004,1171512,1171307,1171308,1171304],"voronoi":{"lat":34.760717,"lng":133.852988,"delta_lat":[0,-95590,-4112,-5979,52127,48752],"delta_lng":[0,-56451,-408,25339,26259,8946]}},
    {"code":1171515,"id":"bfefd5","name":"備前原","name_kana":"びぜんはら","lat":34.704965,"lng":133.944929,"prefecture":33,"lines":[11715],"attr":"heat","postal_code":"701-2154","address":"岡山市原","next":[1171513,1171514,1160916,1171516,1171512,1160919],"voronoi":{"lat":34.692716,"lng":133.938774,"delta_lat":[0,37280,5306,-9067,-26287,-9155],"delta_lng":[0,-43140,28473,21217,16141,-15644]}},
    {"code":1170310,"left":1171429,"right":1171514,"id":"35ed22","name":"美袋","name_kana":"みなぎ","lat":34.719797,"lng":133.654388,"prefecture":33,"lines":[11703],"attr":"heat","postal_code":"719-1311","address":"総社市美袋","next":[1170309,1170312,9970506,9970507,1170311,9970505],"voronoi":{"lat":34.778237,"lng":133.679123,"delta_lat":[0,-16944,-66840,-22857,-2710,2474],"delta_lng":[0,-30810,-54052,32140,8076,32396]}},
    {"code":1171429,"left":1172023,"right":1172025,"id":"a7fc0f","name":"上川立","name_kana":"かみかわたち","lat":34.725373,"lng":132.784873,"prefecture":34,"lines":[11714],"attr":"heat","postal_code":"729-6334","address":"三次市上川立町","next":[1170732,1170730,1171428,1170729,1170731,1171430],"voronoi":{"lat":34.747149,"lng":132.722191,"delta_lat":[0,6265,8186,3436,-40,-134160],"delta_lng":[0,10093,20563,15180,940,106373]}},
    {"code":1172023,"left":1170144,"id":"3dea7f","name":"梶田","name_kana":"かじた","lat":34.711037,"lng":133.058919,"prefecture":34,"lines":[11720],"attr":"cool","postal_code":"729-4105","address":"三次市甲奴町梶田","next":[1172019,1172022,1172024,1172025],"voronoi":{"lat":34.617037,"lng":132.999919,"delta_lat":[0,32356,110803,-54923],"delta_lng":[0,51086,36560,-66148]}},
    {"code":1170144,"id":"e05204","name":"石見津田","name_kana":"いわみつだ","lat":34.722685,"lng":131.864757,"prefecture":32,"lines":[11701],"attr":"cool","postal_code":"699-3671","address":"益田市津田町","next":[1170823,1170142,1170143,1170141,1170145,1170202],"voronoi":{"lat":34.595935,"lng":132.031511,"delta_lat":[0,-1860,17474,101131,73097,-46387],"delta_lng":[0,10769,-13960,-104082,-157365,18147]}},
    {"code":1172025,"id":"f0f624","name":"吉舎","name_kana":"きさ","lat":34.727641,"lng":132.990771,"prefecture":34,"lines":[11720],"attr":"eco","postal_code":"729-4204","address":"三次市吉舎町三玉","next":[1171428,1172019,1172026,1172023,1172024,1171423,1161103],"voronoi":{"lat":34.618329,"lng":132.889397,"delta_lat":[0,32518,52271,67092,-64938,-88236,-31684],"delta_lng":[0,2234,31688,77909,20190,-21498,-25869]}},
    {"code":1171514,"left":1170309,"right":1160913,"id":"5e0323","name":"玉柏","name_kana":"たまがし","lat":34.716965,"lng":133.964472,"prefecture":33,"lines":[11715],"attr":"heat","postal_code":"701-2142","address":"岡山市玉柏","next":[1160914,1160913,1160915,1171515,1160916,1171513],"voronoi":{"lat":34.726235,"lng":133.945324,"delta_lat":[0,-26287,-2049,17281,20209,132],"delta_lng":[0,16141,10314,22914,6304,-30]}},
    {"code":1170309,"id":"f42268","name":"日羽","name_kana":"ひわ","lat":34.715716,"lng":133.689993,"prefecture":33,"lines":[11703],"attr":"heat","postal_code":"719-1316","address":"総社市日羽","next":[1170310,1170313,9970503,1170307,1170308,9970505,9970504,1170312],"voronoi":{"lat":34.831922,"lng":133.741215,"delta_lat":[0,-158377,-2226,-13,-558,611,106877,34620],"delta_lng":[0,-45734,-1956,-42,-24565,-2045,12250,34367]}},
    {"code":1160913,"id":"6c65a5","name":"瀬戸","name_kana":"せと","lat":34.734499,"lng":134.041897,"prefecture":33,"lines":[11609],"attr":"cool","postal_code":"709-0861","address":"岡山市瀬戸町瀬戸","next":[1160912,1171514,1160914,1171513,1171511,1163114],"voronoi":{"lat":34.699653,"lng":134.059699,"delta_lat":[0,35737,132,62118,20691,-93926],"delta_lng":[0,-58701,-30,5125,11004,57641]}},
    {"code":9963727,"left":9964508,"right":9963504,"id":"2de997","name":"播磨町","name_kana":"はりまちょう","lat":34.716574,"lng":134.868159,"prefecture":28,"lines":[99637],"attr":"eco","postal_code":"675-0100","address":"加古郡播磨町野添松の内","next":[1160814,9963726,1160815,9963728],"voronoi":{"lat":34.730938,"lng":134.876204,"delta_lat":[0,-13318,-81464,95174],"delta_lng":[0,2507,-87402,74321]}},
    {"code":9964508,"left":9963725,"right":9964507,"id":"b18f99","name":"西神南","name_kana":"せいしんみなみ","lat":34.699357,"lng":135.030286,"prefecture":28,"lines":[99645],"attr":"cool","postal_code":"651-2242","address":"神戸市西区井吹台東町１","next":[9963507,9964507,9964509,9963506,9963715,1160810,9963716,100303],"voronoi":{"lat":34.689146,"lng":134.992113,"delta_lat":[0,35905,-1176,-7451,-41987,2220,4256,7557],"delta_lng":[0,56087,2502,8911,-43814,-5345,-7961,-10057]}},
    {"code":9963725,"left":1160813,"right":9963726,"id":"8fdd58","name":"東二見","name_kana":"ひがしふたみ","lat":34.700359,"lng":134.887924,"prefecture":28,"lines":[99637],"attr":"eco","postal_code":"674-0092","address":"明石市二見町東二見藤寄","next":[9963724,9963726,1160813,1160814],"voronoi":{"lat":34.710511,"lng":134.886603,"delta_lat":[0,-120307,106794,12875],"delta_lng":[0,-74479,84550,2815]}},
    {"code":1160813,"left":9963724,"id":"038fb1","name":"魚住","name_kana":"うおずみ","lat":34.696401,"lng":134.906028,"prefecture":28,"lines":[11608],"attr":"heat","postal_code":"674-0082","address":"明石市魚住町中尾","next":[1160812,9963723,9963724,1160814,9964205,9964206,9963725,9963722],"voronoi":{"lat":34.738559,"lng":134.94419,"delta_lat":[0,807,288,-29782,-12875,-5946,2573,5122],"delta_lng":[0,-1757,-1021,-41923,-2815,10431,13268,6427]}},
    {"code":9963724,"id":"ecbca5","name":"山陽魚住","name_kana":"さんよううおずみ","lat":34.689252,"lng":134.901953,"prefecture":28,"lines":[99637],"attr":"eco","postal_code":"674-0082","address":"明石市魚住町中尾","next":[1160813,9963726,1180501,9963725,9963723],"voronoi":{"lat":34.432834,"lng":134.757512,"delta_lat":[0,23658,133711,106794,-5946],"delta_lng":[0,-41107,95718,84550,10431]}},
    {"code":9963726,"id":"dc8b1c","name":"西二見","name_kana":"にしふたみ","lat":34.707167,"lng":134.876927,"prefecture":28,"lines":[99637],"attr":"eco","postal_code":"674-0094","address":"明石市二見町西二見池ノ下１４８１-２","next":[9963731,1180501,9963724,9963725,1160814,9963728,9963727],"voronoi":{"lat":34.710511,"lng":134.886603,"delta_lat":[0,-120307,-133711,15911,135660,28092,81464],"delta_lng":[0,-74479,-95718,-31281,81507,24678,87402]}},
    {"code":9964507,"left":9963203,"right":9963204,"id":"c78254","name":"伊川谷","name_kana":"いかわだに","lat":34.68785,"lng":135.041313,"prefecture":28,"lines":[99645],"attr":"eco","postal_code":"651-2109","address":"神戸市西区前開南町１-２-１","next":[9964508,9963506,9963715,1160809,9963714,9964506],"voronoi":{"lat":34.661702,"lng":135.040556,"delta_lat":[0,1692,7914,3128,41987,-938],"delta_lng":[0,-6340,-14499,-3918,43814,1896]}},
    {"code":9963203,"id":"b049d5","name":"丸山(兵庫)","name_kana":"まるやま","lat":34.685913,"lng":135.143993,"prefecture":28,"lines":[99632],"attr":"cool","postal_code":"653-0881","address":"神戸市長田区滝谷町３-９-２","next":[9963702,9963204,9964503,9963009,9963202],"voronoi":{"lat":34.684644,"lng":135.125707,"delta_lat":[0,-7277,-3256,14,17740],"delta_lng":[0,2295,7948,3430,13649]}},
    {"code":9963204,"id":"b6341b","name":"鵯越","name_kana":"ひよどりごえ","lat":34.692576,"lng":135.142232,"prefecture":28,"lines":[99632],"attr":"cool","postal_code":"652-0051","address":"神戸市兵庫区里山町６５１-３","next":[9963504,9963206,9963203,9964604,9963503,9964503,9963102,9963202],"voronoi":{"lat":34.691866,"lng":135.15303,"delta_lat":[0,-7221,18963,896,4408,-2968,-9123,-9],"delta_lng":[0,-27322,-10227,1474,20313,25389,-2249,-5]}},
    {"code":9963504,"left":9963728,"right":9963503,"id":"db655b","name":"藍那","name_kana":"あいな","lat":34.732432,"lng":135.118033,"prefecture":28,"lines":[99635],"attr":"heat","postal_code":"651-1104","address":"神戸市北区山田町藍那清水２６-２","next":[9963503,9963204,9963207,9964503,9964504,9963209,9963208,9963505],"voronoi":{"lat":34.711855,"lng":135.092811,"delta_lat":[0,-7445,-802,896,41159,1076,10532,17090],"delta_lng":[0,16951,5718,1474,15989,-226,-4114,-11163]}},
    {"code":9963728,"left":9964509,"right":1163108,"id":"cc136a","name":"別府(兵庫)","name_kana":"べふ","lat":34.730206,"lng":134.850702,"prefecture":28,"lines":[99637],"attr":"eco","postal_code":"675-0123","address":"加古川市別府町朝日町","next":[1160815,9963729,9963731,9963726,9963727],"voronoi":{"lat":34.636155,"lng":134.79131,"delta_lat":[0,-28092,30906,109882,-17522],"delta_lng":[0,-24678,13914,70295,14790]}},
    {"code":9964509,"left":1160814,"id":"3c68bc","name":"西神中央","name_kana":"せいしんちゅうおう","lat":34.719538,"lng":135.017367,"prefecture":28,"lines":[99645],"attr":"cool","postal_code":"651-2273","address":"神戸市西区糀台５","next":[9963509,9964508,9963508,9964208,9963511,9963507,1160812,100303],"voronoi":{"lat":34.707257,"lng":134.975137,"delta_lat":[0,28672,9451,2398,-5357,-14624,-2747,-35905],"delta_lng":[0,-13800,14959,15445,29260,24695,2503,-56087]}},
    {"code":1160814,"id":"7e7674","name":"土山","name_kana":"つちやま","lat":34.720482,"lng":134.888921,"prefecture":28,"lines":[11608],"attr":"heat","postal_code":"675-0100","address":"加古郡播磨町野添","next":[9964205,9963727,1160815,1163204,1160813,9963726,9963725],"voronoi":{"lat":34.710511,"lng":134.886603,"delta_lat":[0,7109,13318,24285,-3235,-12333,-29782],"delta_lng":[0,-7891,-2507,31317,13402,20488,-41923]}},
    {"code":1163108,"id":"63e9d1","name":"日生","name_kana":"ひなせ","lat":34.735148,"lng":134.276485,"prefecture":33,"lines":[11631],"attr":"eco","postal_code":"701-3202","address":"備前市日生町寒河","next":[1180215,1163107,9980416,1163115,1160908,1163106,1180214,9980413,1163109],"voronoi":{"lat":34.571952,"lng":134.230414,"delta_lat":[0,-46044,-16180,-547,-1919,-110,177984,84632,-275],"delta_lng":[0,16540,53279,2171,30465,20064,-37201,-43613,-17845]}},
    {"code":9963503,"left":9963206,"right":9963502,"id":"9153b6","name":"西鈴蘭台","name_kana":"にしすずらんだい","lat":34.725836,"lng":135.135013,"prefecture":28,"lines":[99635],"attr":"heat","postal_code":"651-1131","address":"神戸市北区北五葉１-１-１","next":[9963504,9963206,9963207,9963204,9963502],"voronoi":{"lat":34.708912,"lng":135.137268,"delta_lat":[0,-4408,41159,-4217,-25266],"delta_lng":[0,-20313,15989,3421,2359]}},
    {"code":9963206,"id":"e68f65","name":"鈴蘭台","name_kana":"すずらんだい","lat":34.723662,"lng":135.145867,"prefecture":28,"lines":[99632,99635],"attr":"cool","postal_code":"651-1111","address":"神戸市北区鈴蘭台北町１-７-１７","next":[9963207,9963503,9963204,100302,9964603,9964604,9963502],"voronoi":{"lat":34.722302,"lng":135.173323,"delta_lat":[0,-8678,-5590,-2090,2968,7268,16161],"delta_lng":[0,-2999,-4818,-2849,-25389,1456,8238]}},
    {"code":9963502,"id":"9c69d5","name":"鈴蘭台西口","name_kana":"すずらんだいにしぐち","lat":34.726356,"lng":135.140582,"prefecture":28,"lines":[99635],"attr":"heat","postal_code":"651-1113","address":"神戸市北区鈴蘭台南町３-１２-１５","next":[9963206,9963207,9963503],"voronoi":{"lat":34.732341,"lng":135.146962,"delta_lat":[0,9105,-25266],"delta_lng":[0,-10597,2359]}},
    {"code":1163103,"left":1163105,"right":9963507,"id":"713bcf","name":"坂越","name_kana":"さこし","lat":34.768679,"lng":134.417244,"prefecture":28,"lines":[11631],"attr":"eco","postal_code":"678-0173","address":"赤穂市浜市","next":[1163102,1163104,9963807,1160906],"voronoi":{"lat":34.707075,"lng":134.510194,"delta_lat":[0,-198357,284367,9544],"delta_lng":[0,21290,-141527,26675]}},
    {"code":1163105,"left":1163110,"right":1170311,"id":"98177e","name":"天和","name_kana":"てんわ","lat":34.749097,"lng":134.351418,"prefecture":28,"lines":[11631],"attr":"heat","postal_code":"678-0256","address":"赤穂市鷆和","next":[1180218,1160906,1163104,1160907,1180215,1160908,1163106],"voronoi":{"lat":34.497961,"lng":134.413234,"delta_lat":[0,145,295878,13783,84,-2169,-300794],"delta_lng":[0,4961,-53426,-25027,-3688,-1582,36789]}},
    {"code":1163110,"left":1171513,"right":1163107,"id":"17582e","name":"備前片上","name_kana":"びぜんかたかみ","lat":34.748295,"lng":134.197006,"prefecture":33,"lines":[11631],"attr":"eco","postal_code":"705-0022","address":"備前市東片上","next":[1160909,1163109,1163111,1160910],"voronoi":{"lat":34.778103,"lng":134.219066,"delta_lat":[0,-73363,75016,2377],"delta_lng":[0,-18317,-18139,2633]}},
    {"code":1171513,"left":1172024,"right":1163111,"id":"13837f","name":"牧山","name_kana":"まきやま","lat":34.741221,"lng":133.960424,"prefecture":33,"lines":[11715],"attr":"heat","postal_code":"701-2143","address":"岡山市下牧","next":[1171515,1160913,1171511,1171512,1171514],"voronoi":{"lat":34.79764,"lng":134.006093,"delta_lat":[0,-18132,-44205,-9067,9286],"delta_lng":[0,-34503,-47482,21217,55643]}},
    {"code":1172024,"left":1171428,"id":"4bf065","name":"備後安田","name_kana":"びんごやすだ","lat":34.741075,"lng":133.033978,"prefecture":34,"lines":[11720],"attr":"cool","postal_code":"729-4203","address":"三次市吉舎町安田","next":[1171418,1172022,1172026,1171417,1172023,1172025,1171420],"voronoi":{"lat":34.807031,"lng":133.061234,"delta_lat":[0,-14007,-32829,-54923,64938,21819,10552],"delta_lng":[0,52282,-25951,-66148,-20190,7171,22647]}},
    {"code":1171428,"id":"a87e5d","name":"志和地","name_kana":"しわち","lat":34.740475,"lng":132.80392,"prefecture":34,"lines":[11714],"attr":"heat","postal_code":"729-6331","address":"三次市下志和地町","next":[1171430,1170732,1171423,1172025,1170733,1171427,1171424,1171429,1161103],"voronoi":{"lat":34.650848,"lng":132.89163,"delta_lat":[0,64071,31071,28559,648,-10201,-134160,-12608,102],"delta_lng":[0,-19692,-12655,-44755,-5037,-40524,106373,13737,319]}},
    {"code":1163111,"id":"82f3fe","name":"西片上","name_kana":"にしかたかみ","lat":34.745193,"lng":134.184177,"prefecture":33,"lines":[11631],"attr":"eco","postal_code":"705-0021","address":"備前市西片上","next":[1163109,1163110,1160910,1163112],"voronoi":{"lat":34.704739,"lng":134.200748,"delta_lat":[0,75016,-10600,-114666],"delta_lng":[0,-18139,-17596,31041]}},
    {"code":1163107,"left":1163109,"right":1163106,"id":"e97825","name":"寒河","name_kana":"そうご","lat":34.746122,"lng":134.29778,"prefecture":33,"lines":[11631],"attr":"eco","postal_code":"701-3202","address":"備前市日生町寒河","next":[1163108,1163106,1160908],"voronoi":{"lat":34.769768,"lng":134.272119,"delta_lat":[0,-84632,100702],"delta_lng":[0,43613,-1661]}},
    {"code":1163109,"id":"9db059","name":"伊里","name_kana":"いり","lat":34.741424,"lng":134.224525,"prefecture":33,"lines":[11631],"attr":"eco","postal_code":"705-0033","address":"備前市穂浪","next":[1160909,1163112,1163110,1163111,1163115,1160908,1163108],"voronoi":{"lat":34.571952,"lng":134.230414,"delta_lat":[0,61329,21208,50250,73363,5113,-13722],"delta_lng":[0,-33490,-870,4694,18317,18199,17010]}},
    {"code":1163106,"id":"e66e22","name":"備前福河","name_kana":"びぜんふくかわ","lat":34.746681,"lng":134.331664,"prefecture":28,"lines":[11631],"attr":"cool","postal_code":"678-0257","address":"赤穂市福浦","next":[1180215,1163108,1163107,1160908,1163105],"voronoi":{"lat":34.805682,"lng":134.334473,"delta_lat":[0,-19844,-100702,-177984,-2264],"delta_lng":[0,-20401,1661,37201,18328]}},
    {"code":1170311,"left":1170142,"right":1160912,"id":"d153ee","name":"備中広瀬","name_kana":"びっちゅうひろせ","lat":34.758552,"lng":133.606464,"prefecture":33,"lines":[11703],"attr":"heat","postal_code":"716-0051","address":"高梁市松山","next":[9970507,1170312,9970509,1170315,1170314,9970508,1170310,9970510],"voronoi":{"lat":34.715917,"lng":133.494308,"delta_lat":[0,-12587,-8878,66840,33424,-7671,-29552,-30175],"delta_lng":[0,30035,69917,54052,-99990,-39200,-69848,36327]}},
    {"code":1170142,"left":1172026,"right":1171423,"id":"7084c5","name":"岡見","name_kana":"おかみ","lat":34.771848,"lng":131.912526,"prefecture":32,"lines":[11701],"attr":"cool","postal_code":"699-3226","address":"浜田市三隅町岡見","next":[1170144,1170141,1170143,1170140,1170139],"voronoi":{"lat":35.242705,"lng":131.612561,"delta_lat":[0,-530026,-101131,313964,189026],"delta_lng":[0,311677,104082,-171454,-138729]}},
    {"code":1172026,"left":1170143,"id":"762899","name":"三良坂","name_kana":"みらさか","lat":34.766186,"lng":132.957578,"prefecture":34,"lines":[11720],"attr":"eco","postal_code":"729-4304","address":"三次市三良坂町三良坂","next":[1171421,1171423,1171420,1172024,1171422,1172025],"voronoi":{"lat":34.703119,"lng":132.923318,"delta_lat":[0,74294,20485,-51,-5817,-21819],"delta_lng":[0,13730,20003,35252,16095,-7171]}},
    {"code":1170143,"id":"ea5455","name":"鎌手","name_kana":"かまて","lat":34.751677,"lng":131.878224,"prefecture":32,"lines":[11701],"attr":"cool","postal_code":"699-3506","address":"益田市西平原町","next":[1170144,1170142,1170139,1170203,1170202],"voronoi":{"lat":34.712679,"lng":131.924238,"delta_lat":[0,530026,247331,-567281,-136979],"delta_lng":[0,-311677,-189354,266942,76724]}},
    {"code":1171423,"id":"b84b59","name":"塩町","name_kana":"しおまち","lat":34.774265,"lng":132.913863,"prefecture":34,"lines":[11714,11720],"attr":"cool","postal_code":"729-6205","address":"三次市塩町","next":[1171428,1172026,1171424,1171422,1172025],"voronoi":{"lat":34.777412,"lng":132.937049,"delta_lat":[0,10985,-73479,-64071,52271],"delta_lng":[0,-22408,-42702,19692,31688]}},
    {"code":1160912,"left":1163104,"right":1171512,"id":"dd7b31","name":"万富","name_kana":"まんとみ","lat":34.758256,"lng":134.080609,"prefecture":33,"lines":[11609],"attr":"cool","postal_code":"709-0841","address":"岡山市瀬戸町万富","next":[1163114,1160913,1163113,1160911,1171511,1171508],"voronoi":{"lat":34.842913,"lng":134.022749,"delta_lat":[0,-24582,-93926,4451,25842,93182],"delta_lng":[0,-5652,57641,14253,20257,-81789]}},
    {"code":1163104,"id":"5a2fc0","name":"播州赤穂","name_kana":"ばんしゅうあこう","lat":34.756601,"lng":134.392976,"prefecture":28,"lines":[11631],"attr":"heat","postal_code":"678-0239","address":"赤穂市加里屋","next":[1160906,9963807,1163105,1180219,1163103,1180218],"voronoi":{"lat":34.498107,"lng":134.418195,"delta_lat":[0,295878,-899,-284367,-15850,-198],"delta_lng":[0,-53426,25188,141527,2471,-11603]}},
    {"code":1171512,"id":"97d245","name":"野々口","name_kana":"ののくち","lat":34.771104,"lng":133.932603,"prefecture":33,"lines":[11715],"attr":"eco","postal_code":"709-2117","address":"岡山市御津野々口","next":[1171516,1171510,1171306,1171511,1171513,1171515,1171304,1171307],"voronoi":{"lat":34.755916,"lng":133.856674,"delta_lat":[0,-25661,-258,5306,44205,5463,-11243,-13010],"delta_lng":[0,34555,4406,28473,47482,-101969,-23950,7318]}},
    {"code":9963507,"left":9963506,"right":9963509,"id":"ceb7a2","name":"栄(兵庫)","name_kana":"さかえ","lat":34.75524,"lng":135.056544,"prefecture":28,"lines":[99635],"attr":"heat","postal_code":"651-2211","address":"神戸市西区押部谷町栄字北万覚２５１-１","next":[9963406,9963506,9963510,9964508,9963209,9963505,9963508,9964509,9963512,9963405],"voronoi":{"lat":34.841545,"lng":135.104579,"delta_lat":[0,-13904,-103766,1176,2747,58418,54736,17922,-13496,-29],"delta_lng":[0,-4859,-49019,-2502,-2503,4643,24574,13168,16400,31]}},
    {"code":9963506,"left":9963730,"right":9963505,"id":"c2d5f8","name":"木幡(兵庫)","name_kana":"こばた","lat":34.748308,"lng":135.071218,"prefecture":28,"lines":[99635],"attr":"heat","postal_code":"651-2222","address":"神戸市西区押部谷町木津字居垣内５４-２","next":[9963507,9964506,9964507,9963505,9964508,9964505],"voronoi":{"lat":34.714565,"lng":135.066057,"delta_lat":[0,921,938,7451,103766,-112650],"delta_lng":[0,-4549,-1896,-8911,49019,-27540]}},
    {"code":9963730,"left":1160815,"right":9963731,"id":"e2bb00","name":"尾上の松","name_kana":"おのえのまつ","lat":34.748576,"lng":134.820794,"prefecture":28,"lines":[99637],"attr":"eco","postal_code":"675-0027","address":"加古川市尾上町今福","next":[9963729,9963731,1160816,1160817],"voronoi":{"lat":34.766216,"lng":134.814507,"delta_lat":[0,-63830,52592,12642],"delta_lng":[0,-11769,30598,-12938]}},
    {"code":1160815,"left":9963729,"id":"8bdcff","name":"東加古川","name_kana":"ひがしかこがわ","lat":34.745857,"lng":134.869244,"prefecture":28,"lines":[11608],"attr":"heat","postal_code":"675-0101","address":"加古川市平岡町新在家","next":[9963728,1160814,1163203,9963729,1163204,1160816,9963727,1163202],"voronoi":{"lat":34.759807,"lng":134.856575,"delta_lat":[0,-8337,-2619,-17522,-392,24285,8336,4048],"delta_lng":[0,-6102,368,14790,10574,31317,-10818,-18981]}},
    {"code":9963729,"id":"49717f","name":"浜の宮","name_kana":"はまのみや","lat":34.74091,"lng":134.83397,"prefecture":28,"lines":[99637],"attr":"eco","postal_code":"675-0022","address":"加古川市尾上町口里","next":[1160816,9963728,9963730,9963731,1160815],"voronoi":{"lat":34.63897,"lng":134.780546,"delta_lat":[0,63417,52592,-3508,-2619],"delta_lng":[0,22193,30598,17136,368]}},
    {"code":9963731,"id":"f76763","name":"高砂(兵庫)","name_kana":"たかさご","lat":34.751978,"lng":134.802343,"prefecture":28,"lines":[99637],"attr":"eco","postal_code":"676-0022","address":"高砂市高砂町浜田町２-１-１","next":[9963726,9963737,1160817,9963730,9963729,9963728,9963736,9963732,1180501,9963738],"voronoi":{"lat":34.484176,"lng":134.65036,"delta_lat":[0,-11772,135660,30906,63417,63830,2226,-161942,-14087,-56942],"delta_lng":[0,34764,81507,13914,22193,11769,-7446,-108648,-6519,-22763]}},
    {"code":9963505,"left":9963207,"right":9963208,"id":"9ef5dc","name":"木津(兵庫)","name_kana":"きづ","lat":34.744106,"lng":135.088406,"prefecture":28,"lines":[99635],"attr":"heat","postal_code":"651-2222","address":"神戸市西区押部谷町木津字勝田９６４-３","next":[9963507,9963506,9964505,9963209,9964504,9963504],"voronoi":{"lat":34.711855,"lng":135.092811,"delta_lat":[0,-335,3471,112650,13904,-67184],"delta_lng":[0,-3439,-17192,27540,4859,12861]}},
    {"code":9963207,"id":"2c6c3c","name":"北鈴蘭台","name_kana":"きたすずらんだい","lat":34.739549,"lng":135.151917,"prefecture":28,"lines":[99632],"attr":"cool","postal_code":"651-1142","address":"神戸市北区甲栄台４-１-１３","next":[9963206,9963504,9963210,9963208,100302,9963503,9963502],"voronoi":{"lat":34.722302,"lng":135.173323,"delta_lat":[0,10839,5221,8377,-1076,-4217,-9105],"delta_lng":[0,8191,-5928,-42868,226,3421,10597]}},
    {"code":9963208,"id":"44694b","name":"山の街","name_kana":"やまのまち","lat":34.746171,"lng":135.153211,"prefecture":28,"lines":[99632],"attr":"cool","postal_code":"651-1221","address":"神戸市北区緑町１-１-１","next":[9963207,9963210,9963209,9963504],"voronoi":{"lat":34.738361,"lng":135.175586,"delta_lat":[0,10507,8402,-10532],"delta_lng":[0,-8955,-38027,4114]}},
    {"code":9963509,"left":1160816,"right":9963209,"id":"cceac2","name":"緑が丘(兵庫)","name_kana":"みどりがおか","lat":34.765108,"lng":135.02571,"prefecture":28,"lines":[99635],"attr":"heat","postal_code":"673-0541","address":"三木市志染町広野字大廻西乙５８２-１４","next":[9964509,9963511,9963510,9963508],"voronoi":{"lat":34.754062,"lng":134.997761,"delta_lat":[0,-6284,-5357,34585],"delta_lng":[0,-6020,29260,21598]}},
    {"code":1160816,"left":9963732,"right":9963510,"id":"e383b7","name":"加古川","name_kana":"かこがわ","lat":34.767666,"lng":134.839447,"prefecture":28,"lines":[11608,11632],"attr":"heat","postal_code":"675-0065","address":"加古川市加古川町篠原町","next":[9963729,9963730,1160817,1163202,1160815],"voronoi":{"lat":34.792734,"lng":134.836162,"delta_lat":[0,-25113,-12642,-3508,8337],"delta_lng":[0,-15763,12938,17136,6102]}},
    {"code":9963732,"left":9963733,"id":"a82855","name":"荒井(兵庫)","name_kana":"あらい","lat":34.757833,"lng":134.793616,"prefecture":28,"lines":[99637],"attr":"eco","postal_code":"676-0016","address":"高砂市荒井町扇町","next":[9963736,1160817,9963734,9963731,9963733,9963735],"voronoi":{"lat":34.743487,"lng":134.763298,"delta_lat":[0,27836,-2881,-161942,115494,11570],"delta_lng":[0,39576,4188,-108648,49381,6898]}},
    {"code":9963733,"id":"b7c5bf","name":"伊保","name_kana":"いほ","lat":34.767171,"lng":134.787048,"prefecture":28,"lines":[99637],"attr":"eco","postal_code":"676-0072","address":"高砂市伊保港町","next":[1160817,9963734,1160818,9963732],"voronoi":{"lat":34.743487,"lng":134.763298,"delta_lat":[0,44465,470,-17099],"delta_lng":[0,26860,714,12002]}},
    {"code":9963510,"id":"940eab","name":"広野ゴルフ場前","name_kana":"ひろのごるふじょうまえ","lat":34.770269,"lng":135.023069,"prefecture":28,"lines":[99635],"attr":"heat","postal_code":"673-0541","address":"三木市志染町広野字宮ノ南乙５７７-１５","next":[9963508,9963507,9963509,9963512,9963511],"voronoi":{"lat":34.754062,"lng":134.997761,"delta_lat":[0,22944,9209,54736,-25720],"delta_lng":[0,44838,7740,24574,-28956]}},
    {"code":9963209,"left":9963508,"right":9963210,"id":"6ed083","name":"箕谷","name_kana":"みのたに","lat":34.756969,"lng":135.155597,"prefecture":28,"lines":[99632],"attr":"cool","postal_code":"651-1102","address":"神戸市北区山田町下谷上字箕谷２７-２","next":[9963212,9963405,9963507,9963404,9963504,9963208,9963210,9963505],"voronoi":{"lat":34.841545,"lng":135.104579,"delta_lat":[0,3804,-5377,-4650,-2507,-83946,8402,17090],"delta_lng":[0,-67,22887,12783,1396,25052,-38027,-11163]}},
    {"code":9963508,"id":"2fc3bb","name":"押部谷","name_kana":"おしべだに","lat":34.756609,"lng":135.03932,"prefecture":28,"lines":[99635],"attr":"heat","postal_code":"651-2213","address":"神戸市西区押部谷町福住字岡本５０１-３","next":[9963510,9964509,9963507,9963509],"voronoi":{"lat":34.786215,"lng":135.05034,"delta_lat":[0,-58418,14624,34585],"delta_lng":[0,-4643,-24695,21598]}},
    {"code":9963210,"id":"3c861b","name":"谷上","name_kana":"たにがみ","lat":34.761691,"lng":135.17142,"prefecture":28,"lines":[99632,99636],"attr":"eco","postal_code":"651-1102","address":"神戸市北区山田町下谷上字明田８-１","next":[9963207,9963208,9963212,9963209,9963211,100302],"voronoi":{"lat":34.812667,"lng":135.155827,"delta_lat":[0,20147,-83946,-10507,-5221,5101],"delta_lng":[0,-14248,25052,8955,5928,11587]}},
    {"code":3500113,"left":3500127,"right":1160306,"id":"515168","name":"鳴尾・武庫川女子大前","name_kana":"なるお・むこがわじょしだいまえ","lat":34.719684,"lng":135.37036,"prefecture":28,"lines":[35001],"attr":"cool","postal_code":"663-8183","address":"西宮市里中町３-１３-１８","open_date":"1905-04-12","next":[3500304,3500303,1160305,3500112,3500302,3500114],"voronoi":{"lat":34.708131,"lng":135.358571,"delta_lat":[0,3539,1048,6299,9159,1404],"delta_lng":[0,11904,1450,5093,1054,-6688]}},
    {"code":3500127,"left":3400115,"right":3500126,"id":"a8d7c5","name":"新在家","name_kana":"しんざいけ","lat":34.710573,"lng":135.240565,"prefecture":28,"lines":[35001],"attr":"eco","postal_code":"657-0861","address":"神戸市灘区新在家北町１-４-１","next":[9964905,9964904,3500126,1160311,3500128],"voronoi":{"lat":34.687238,"lng":135.245557,"delta_lat":[0,7460,20090,-3967,-26503],"delta_lng":[0,4690,-6183,-8773,8087]}},
    {"code":3400115,"left":1160313,"right":3500129,"id":"b99bc9","name":"春日野道(阪急電鉄)","name_kana":"かすがのみち","lat":34.70299,"lng":135.205396,"prefecture":28,"lines":[34001],"attr":"cool","postal_code":"651-0076","address":"神戸市中央区吾妻通一丁目","next":[1160312,3500131,1160313,100302,3400114],"voronoi":{"lat":34.704439,"lng":135.210991,"delta_lat":[0,-7072,3007,17986,-6422],"delta_lng":[0,-9561,-2392,6395,3595]}},
    {"code":1160313,"left":1160314,"right":9963001,"id":"60c77a","name":"三ノ宮","name_kana":"さんのみや","lat":34.694766,"lng":135.195058,"prefecture":28,"lines":[11603],"attr":"eco","postal_code":"651-0097","address":"神戸市中央区布引町","next":[9964802,9964709,3400115,3500131,100302,1160314,9963001,9964603],"voronoi":{"lat":34.695239,"lng":135.189169,"delta_lat":[0,-1278,365,1556,1484,3007,746,-4262],"delta_lng":[0,1320,9572,1914,-546,-2392,-12425,1465]}},
    {"code":1160314,"left":9964709,"right":9964603,"id":"ffc8f3","name":"元町(兵庫)","name_kana":"もとまち","lat":34.689602,"lng":135.187401,"prefecture":28,"lines":[11603,35001,99630],"attr":"eco","postal_code":"650-0014","address":"神戸市中央区元町高架通り","next":[1160313,9964709,9964708,9964603],"voronoi":{"lat":34.695239,"lng":135.189169,"delta_lat":[0,-9838,3017,8439],"delta_lng":[0,-942,-3280,3130]}},
    {"code":9964709,"left":9964708,"id":"74b684","name":"旧居留地・大丸前","name_kana":"きゅうきょりゅうち・だいまるまえ","lat":34.689369,"lng":135.189836,"prefecture":28,"lines":[99647],"attr":"heat","postal_code":"650-0021","address":"神戸市中央区三宮町２","next":[9964803,9964802,1160313,9964708,9963001,1160314,9964710],"voronoi":{"lat":34.691839,"lng":135.192156,"delta_lat":[0,2123,1278,-9838,-6308,4161,2286],"delta_lng":[0,-1667,-1320,-942,3759,2647,7]}},
    {"code":9964708,"id":"435cc4","name":"みなと元町","name_kana":"みなともとまち","lat":34.685875,"lng":135.183973,"prefecture":28,"lines":[99647],"attr":"heat","postal_code":"650-0023","address":"神戸市中央区栄町通４","next":[9963004,9964709,9964603,9964803,9963002,9964707,1160314],"voronoi":{"lat":34.688419,"lng":135.184947,"delta_lat":[0,-44,-5047,-2919,-5256,3941,6308],"delta_lng":[0,-1964,-499,1318,7239,945,-3759]}},
    {"code":9964603,"id":"7603d9","name":"県庁前(兵庫)","name_kana":"けんちょうまえ","lat":34.690916,"lng":135.183859,"prefecture":28,"lines":[99646],"attr":"heat","postal_code":"650-0011","address":"神戸市中央区下山手通５","next":[9963002,9964708,9963206,100302,9964604,1160313,1160314],"voronoi":{"lat":34.70112,"lng":135.186612,"delta_lat":[0,12504,-5590,-16614,-3045,44,8439],"delta_lng":[0,-16289,-4818,11220,6258,1964,3130]}},
    {"code":9963001,"left":9964802,"right":3500131,"id":"3b382f","name":"三宮(神戸三宮)","name_kana":"さんのみや(こうべさんのみや)","lat":34.693507,"lng":135.195106,"prefecture":28,"lines":[34001,35001,99630,99646,99648],"attr":"heat","postal_code":"650-0001","address":"神戸市中央区加納町４-２-１","next":[9964802,9964709,9964710,1160313],"voronoi":{"lat":34.693961,"lng":135.19049,"delta_lat":[0,-2123,1618,870],"delta_lng":[0,1667,7073,832]}},
    {"code":9964802,"left":9964710,"id":"6e49b8","name":"貿易センター","name_kana":"ぼうえきせんたー","lat":34.689339,"lng":135.199469,"prefecture":28,"lines":[99648],"attr":"heat","postal_code":"651-0084","address":"神戸市中央区磯辺通３","next":[1160313,9964709,9964710,9963001,3500131,9964803],"voronoi":{"lat":34.683255,"lng":135.194634,"delta_lat":[0,2286,7916,870,1556,-7099],"delta_lng":[0,7,4589,832,1914,8497]}},
    {"code":9964710,"id":"c46914","name":"三宮・花時計前","name_kana":"さんのみや・はなどけいまえ","lat":34.691618,"lng":135.195538,"prefecture":28,"lines":[99647],"attr":"heat","postal_code":"651-0087","address":"神戸市中央区御幸通８","next":[9964802,9963001,9964709],"voronoi":{"lat":34.693456,"lng":135.19923,"delta_lat":[0,-1618,-6298],"delta_lng":[0,-7073,2484]}},
    {"code":3500131,"id":"fa028b","name":"春日野道(阪神電気鉄道)","name_kana":"かすがのみち","lat":34.699513,"lng":135.207968,"prefecture":28,"lines":[35001],"attr":"heat","postal_code":"651-0091","address":"神戸市中央区若菜通一丁目1","next":[3400115,3500130,1160313,9964802,9964803,9964812,1160312],"voronoi":{"lat":34.688519,"lng":135.219009,"delta_lat":[0,-1099,1363,7099,1484,7072,-2659],"delta_lng":[0,-4277,-4259,-8497,-546,9561,1979]}},
    {"code":3500129,"left":100302,"right":1160317,"id":"06475f","name":"西灘","name_kana":"にしなだ","lat":34.705782,"lng":135.224639,"prefecture":28,"lines":[35001],"attr":"heat","postal_code":"657-0844","address":"神戸市灘区都通５-５-１","next":[9964812,3400114,1160317,3500130,3500128],"voronoi":{"lat":34.706683,"lng":135.22786,"delta_lat":[0,1175,-885,-19185,-2638],"delta_lng":[0,-6421,-665,4933,8493]}},
    {"code":100302,"left":3500130,"right":3400114,"id":"27f8fc","name":"新神戸","name_kana":"しんこうべ","lat":34.706417,"lng":135.195758,"prefecture":28,"lines":[1003,99636,99646],"attr":"heat","postal_code":"650-0001","address":"神戸市中央区加納町１丁目","next":[9963211,9963207,9963206,1160313,9964603,3400115,9963210,3400114],"voronoi":{"lat":34.700373,"lng":135.199037,"delta_lat":[0,746,12504,8678,10839,5101,1163,-21045],"delta_lng":[0,-12425,-16289,2999,8191,11587,8698,3634]}},
    {"code":3500130,"left":1160312,"id":"972720","name":"岩屋(兵庫)","name_kana":"いわや","lat":34.704065,"lng":135.217962,"prefecture":28,"lines":[35001],"attr":"heat","postal_code":"657-0846","address":"神戸市灘区岩屋北町４-１-１","next":[1160312,3500131,3400114,3500129,9964812],"voronoi":{"lat":34.688519,"lng":135.219009,"delta_lat":[0,13260,5265,-71,-19185],"delta_lng":[0,-6039,7049,755,4933]}},
    {"code":1160312,"id":"55a08c","name":"灘","name_kana":"なだ","lat":34.705918,"lng":135.216578,"prefecture":28,"lines":[11603],"attr":"eco","postal_code":"657-0846","address":"神戸市灘区岩屋北町７丁目","next":[3400115,3500130,3400114,3500131],"voronoi":{"lat":34.707044,"lng":135.220018,"delta_lat":[0,4893,-7499,-2659],"delta_lng":[0,-10991,1963,1979]}},
    {"code":3400114,"id":"4ea1c9","name":"王子公園","name_kana":"おうじこうえん","lat":34.710354,"lng":135.218553,"prefecture":28,"lines":[34001],"attr":"heat","postal_code":"657-0838","address":"神戸市灘区王子町１-４-２０","next":[3500129,3400113,1160312,1160317,3500130,9963211,3400115,100302],"voronoi":{"lat":34.711937,"lng":135.209028,"delta_lat":[0,-4893,-71,885,10959,24595,-4008,-21045],"delta_lng":[0,10991,755,665,2795,-14828,-7607,3634]}},
    {"code":1160317,"left":3500128,"right":1160311,"id":"2a9a71","name":"摩耶","name_kana":"まや","lat":34.708667,"lng":135.225167,"prefecture":28,"lines":[11603],"attr":"eco","postal_code":"657-0841","address":"神戸市灘区灘南通六丁目","open_date":"2016-03-26","next":[3400113,3500129,3400114,3500128],"voronoi":{"lat":34.706683,"lng":135.22786,"delta_lat":[0,1175,10959,-4089],"delta_lng":[0,-6421,2795,4987]}},
    {"code":3500128,"id":"1b03c7","name":"大石","name_kana":"おおいし","lat":34.707671,"lng":135.231055,"prefecture":28,"lines":[35001],"attr":"eco","postal_code":"657-0842","address":"神戸市灘区船寺通１-４-２","next":[9964905,9964812,9964811,9964906,3400113,3500127,1160317,1160311,3500129],"voronoi":{"lat":34.683676,"lng":135.23726,"delta_lat":[0,-1769,708,1703,26503,3062,845,-8045,-21533],"delta_lng":[0,4867,427,825,-8087,-2957,-3114,-1361,6340]}},
    {"code":1160311,"id":"33e613","name":"六甲道","name_kana":"ろっこうみち","lat":34.714945,"lng":135.238588,"prefecture":28,"lines":[11603],"attr":"eco","postal_code":"657-0027","address":"神戸市灘区永手町４丁目","next":[3400112,3500126,3500127,3400113,3500128],"voronoi":{"lat":34.713884,"lng":135.232334,"delta_lat":[0,9011,-2758,-5348,-3967],"delta_lng":[0,10568,1996,-834,-8773]}},
    {"code":3500126,"left":9964905,"right":3500111,"id":"0b89e1","name":"石屋川","name_kana":"いしやがわ","lat":34.71327,"lng":135.249329,"prefecture":28,"lines":[35001],"attr":"eco","postal_code":"658-0045","address":"神戸市東灘区御影石町２-２３-１２","next":[3500125,1160311,3400112,3500127,9964904,3500124,9964903],"voronoi":{"lat":34.698727,"lng":135.254482,"delta_lat":[0,-4028,20090,5348,-1414,-15540,-2302],"delta_lng":[0,-4235,-6183,834,6426,3969,-45]}},
    {"code":9964905,"left":3500123,"right":3500303,"id":"53a84a","name":"アイランドセンター","name_kana":"あいらんどせんたー","lat":34.689103,"lng":135.269347,"prefecture":28,"lines":[99649],"attr":"cool","postal_code":"658-0032","address":"神戸市東灘区向洋町中２","next":[9964904,3500128,9964906,3500127,3500121,3500122],"voronoi":{"lat":34.691459,"lng":135.302237,"delta_lat":[0,-8843,1703,2920,7818,-2204],"delta_lng":[0,-59684,825,2179,49113,5446]}},
    {"code":3500123,"left":9964904,"right":3500124,"id":"47308c","name":"魚崎","name_kana":"うおざき","lat":34.71262,"lng":135.26924,"prefecture":28,"lines":[35001,99649],"attr":"eco","postal_code":"658-0026","address":"神戸市東灘区魚崎西町４","next":[1160310,1160309,9964903,3500124,3500122],"voronoi":{"lat":34.710526,"lng":135.265325,"delta_lat":[0,5663,4984,-1510,-12502],"delta_lng":[0,303,4710,2736,4757]}},
    {"code":9964904,"left":9964903,"id":"9bc5e7","name":"アイランド北口","name_kana":"あいらんどきたぐち","lat":34.692853,"lng":135.26875,"prefecture":28,"lines":[99649],"attr":"eco","postal_code":"658-0032","address":"神戸市東灘区向洋町中１","next":[9964905,3500122,9964903,3500127,3500126],"voronoi":{"lat":34.694698,"lng":135.250247,"delta_lat":[0,-7460,7818,5883,-2213],"delta_lng":[0,-4690,49113,-11943,-28245]}},
    {"code":9964903,"id":"a0110e","name":"南魚崎","name_kana":"みなみうおざき","lat":34.706751,"lng":135.267661,"prefecture":28,"lines":[99649],"attr":"eco","postal_code":"658-0026","address":"神戸市東灘区魚崎西町１","next":[9964904,3500124,3500123,3500122,3500126],"voronoi":{"lat":34.698727,"lng":135.254482,"delta_lat":[0,2213,6222,3365,-9646],"delta_lng":[0,28245,-4897,-12506,-10076]}},
    {"code":3500124,"id":"fce6b6","name":"住吉(阪神電気鉄道)","name_kana":"すみよし","lat":34.713025,"lng":135.261655,"prefecture":28,"lines":[35001],"attr":"eco","postal_code":"658-0053","address":"神戸市東灘区住吉宮町五丁目","next":[1160310,3500125,9964903,3500123,3500126],"voronoi":{"lat":34.716382,"lng":135.259432,"delta_lat":[0,-193,-5663,-9646,2302],"delta_lng":[0,6196,-303,-10076,45]}},
    {"code":3500303,"left":3500304,"right":3500302,"id":"8f4cdd","name":"洲先","name_kana":"すざき","lat":34.709046,"lng":135.378049,"prefecture":28,"lines":[35003],"attr":"cool","postal_code":"663-8132","address":"西宮市東鳴尾町２-１７-１０","next":[3500111,3500113,3500304,3500302],"voronoi":{"lat":34.689011,"lng":135.399053,"delta_lat":[0,22658,1048,-4940],"delta_lng":[0,-28577,1450,17506]}},
    {"code":3500304,"id":"78a98f","name":"武庫川団地前","name_kana":"むこがわだんちまえ","lat":34.704894,"lng":135.374757,"prefecture":28,"lines":[35003],"attr":"cool","postal_code":"663-8133","address":"西宮市上田東町４-８３","next":[3500119,1162404,3500113,9962502,3500120,9964906,3500115,3500303,9962101,3500114,3500118,3500111,3500110],"voronoi":{"lat":34.676871,"lng":135.398514,"delta_lat":[0,-33869,-5209,38137,493,11347,419,14192,5750,3539,-22658,-3765,-2786],"delta_lng":[0,-55683,-9183,-7548,161,5116,269,17462,9464,11904,28577,2388,1245]}},
    {"code":3500302,"id":"20d6b4","name":"東鳴尾","name_kana":"ひがしなるお","lat":34.712646,"lng":135.379065,"prefecture":28,"lines":[35003],"attr":"eco","postal_code":"663-8132","address":"西宮市東鳴尾町１-７-１２","next":[3500111,3500303,3500112,3500113],"voronoi":{"lat":34.709002,"lng":135.389039,"delta_lat":[0,-1224,4940,6299],"delta_lng":[0,392,-17506,5093]}},
    {"code":3500111,"left":3500112,"right":3500110,"id":"5f7467","name":"尼崎センタープール前","name_kana":"あまがさきせんたーぷーるまえ","lat":34.71776,"lng":135.395044,"prefecture":28,"lines":[35001],"attr":"cool","postal_code":"660-0082","address":"尼崎市水明町３７３-６","next":[3500303,1160304,3500302,3500110,3500112,3500304],"voronoi":{"lat":34.727355,"lng":135.399362,"delta_lat":[0,2163,-20517,-1224,-18766,-3765],"delta_lng":[0,-9613,-709,392,9621,2388]}},
    {"code":3500112,"left":3500122,"right":1160310,"id":"4a61c0","name":"武庫川","name_kana":"むこがわ","lat":34.718154,"lng":135.383654,"prefecture":28,"lines":[35001,35003],"attr":"cool","postal_code":"663-8131","address":"西宮市武庫川町２-１５","next":[1160304,3500113,1160305,3500302,3500111],"voronoi":{"lat":34.709002,"lng":135.389039,"delta_lat":[0,10015,9159,3808,-2465],"delta_lng":[0,-12021,1054,8623,3053]}},
    {"code":3500122,"left":3500125,"id":"d9ea46","name":"青木","name_kana":"おおぎ","lat":34.71695,"lng":135.28062,"prefecture":28,"lines":[35001],"attr":"eco","postal_code":"658-0014","address":"神戸市東灘区北青木３-２-１","next":[9964904,1160309,9964903,3500123,3500121,9964905],"voronoi":{"lat":34.723714,"lng":135.283911,"delta_lat":[0,-4050,-12502,-6222,-5883,-2204],"delta_lng":[0,-10837,4757,4897,11943,5446]}},
    {"code":3500125,"id":"3dcbf7","name":"御影(阪神電気鉄道)","name_kana":"みかげ","lat":34.714895,"lng":135.25569,"prefecture":28,"lines":[35001],"attr":"eco","postal_code":"658-0046","address":"神戸市東灘区御影本町一丁目","next":[3500126,3400112,3500124,1160310],"voronoi":{"lat":34.720677,"lng":135.25616,"delta_lat":[0,-1955,-15540,13200],"delta_lng":[0,-4835,3969,4138]}},
    {"code":1160310,"id":"e9e90a","name":"住吉(JR)","name_kana":"すみよし","lat":34.719595,"lng":135.261859,"prefecture":28,"lines":[11603,99649],"attr":"eco","postal_code":"658-0051","address":"神戸市東灘区住吉本町一丁目2-9","next":[1160309,3500123,3500124,3400111,3400112,3500125],"voronoi":{"lat":34.720677,"lng":135.25616,"delta_lat":[0,13055,-9070,-3489,-4984,193],"delta_lng":[0,6379,6169,1630,-4710,-6196]}},
    {"code":3500110,"left":3500108,"right":3500109,"id":"61c6ad","name":"出屋敷","name_kana":"でやしき","lat":34.718232,"lng":135.404604,"prefecture":28,"lines":[35001],"attr":"cool","postal_code":"660-0876","address":"尼崎市竹谷町２-３５","next":[1160304,3500109,3500111,1162404,3500304],"voronoi":{"lat":34.685246,"lng":135.401441,"delta_lat":[0,42109,2875,-43228,-4542],"delta_lng":[0,-2079,11222,1368,-9266]}},
    {"code":3500108,"id":"8f7afc","name":"大物","name_kana":"だいもつ","lat":34.716583,"lng":135.425549,"prefecture":28,"lines":[35001,35002],"attr":"cool","postal_code":"660-0823","address":"尼崎市大物町２-１-１","next":[3500107,3500109,3500205,1160303],"voronoi":{"lat":34.713622,"lng":135.432678,"delta_lat":[0,-21158,33759,-3192],"delta_lng":[0,-17508,8402,7910]}},
    {"code":3500109,"id":"d9a1a6","name":"尼崎(阪神電気鉄道)","name_kana":"あまがさき","lat":34.718634,"lng":135.417309,"prefecture":28,"lines":[35001,35002],"attr":"cool","postal_code":"661-0953","address":"兵庫県尼崎市東御園町93","next":[3500205,1162404,3500110,3500108,1160304,1160303],"voronoi":{"lat":34.734891,"lng":135.415639,"delta_lat":[0,-4661,-43228,8,5453,33759],"delta_lng":[0,-5056,1368,32,3187,8402]}},
    {"code":1160306,"left":1160307,"right":1162904,"id":"f33d26","name":"西宮(JR)","name_kana":"にしのみや","lat":34.738985,"lng":135.348703,"prefecture":28,"lines":[11603],"attr":"heat","postal_code":"662-0911","address":"兵庫県西宮市池田町9-3","next":[3500117,3400401,3400402,3400108,3400502],"voronoi":{"lat":34.74871,"lng":135.341134,"delta_lat":[0,-15664,2821,6306,10826],"delta_lng":[0,3044,6851,1929,-9427]}},
    {"code":1160307,"left":3500121,"right":3500118,"id":"77d319","name":"芦屋(JR)","name_kana":"あしや","lat":34.734207,"lng":135.307102,"prefecture":28,"lines":[11603],"attr":"cool","postal_code":"659-0093","address":"兵庫県芦屋市船戸町1-30","next":[3400502,3500120,3400109,3500119,3400110],"voronoi":{"lat":34.747402,"lng":135.31416,"delta_lat":[0,-2336,-16225,3608,20885],"delta_lng":[0,890,-5017,-7089,6899]}},
    {"code":3500121,"left":1160309,"right":1160308,"id":"c3ad12","name":"深江","name_kana":"ふかえ","lat":34.722583,"lng":135.291347,"prefecture":28,"lines":[35001],"attr":"eco","postal_code":"658-0013","address":"神戸市東灘区深江北町４-１-８","next":[9964906,9964905,1160308,3500122,1160309,3500120],"voronoi":{"lat":34.72562,"lng":135.297527,"delta_lat":[0,2231,-4138,-30861,-1394,-7353],"delta_lng":[0,-12441,-1175,16206,2121,13277]}},
    {"code":1160309,"left":3400112,"right":3400111,"id":"fcd389","name":"摂津本山","name_kana":"せっつもとやま","lat":34.726661,"lng":135.27699,"prefecture":28,"lines":[11603],"attr":"cool","postal_code":"658-0072","address":"神戸市東灘区岡本１丁目","next":[3400111,1160310,3500122,3500123,1160308,3500121],"voronoi":{"lat":34.723714,"lng":135.283911,"delta_lat":[0,-4050,1510,3489,6521,-3332],"delta_lng":[0,-10837,-2736,-1630,15544,834]}},
    {"code":3400112,"left":3400113,"id":"39d77b","name":"御影(阪急電鉄)","name_kana":"みかげ","lat":34.724508,"lng":135.251803,"prefecture":28,"lines":[34001],"attr":"heat","postal_code":"658-0065","address":"神戸市東灘区御影山手一丁目","next":[3400113,3500125,1160311,3400111,9963214,3500126,9963213,1160310,9963215,9963217],"voronoi":{"lat":34.761068,"lng":135.237757,"delta_lat":[0,-207,-1279,-1258,-35430,-2758,-1414,1955,13055,28858],"delta_lng":[0,-484,-2085,-1669,9384,1996,6426,4835,6379,-5576]}},
    {"code":3400113,"id":"e490aa","name":"六甲","name_kana":"ろっこう","lat":34.719891,"lng":135.234371,"prefecture":28,"lines":[34001],"attr":"heat","postal_code":"657-0065","address":"神戸市灘区宮山町３-１","next":[3400112,9963211,1160317,3400114,1160311,9963213,3500128,9963212],"voronoi":{"lat":34.758325,"lng":135.233519,"delta_lat":[0,-35430,-9011,845,4089,24595,7475,1571],"delta_lng":[0,9384,-10568,-3114,-4987,-14828,7902,2691]}},
    {"code":3400111,"id":"7c221d","name":"岡本(兵庫)","name_kana":"おかもと","lat":34.729171,"lng":135.275937,"prefecture":28,"lines":[34001],"attr":"heat","postal_code":"658-0072","address":"神戸市東灘区岡本５-１-１","next":[1160309,9963217,3400112,1160310,1160308,3400110],"voronoi":{"lat":34.77123,"lng":135.277136,"delta_lat":[0,-8640,-28858,-9070,6521,22021],"delta_lng":[0,-20174,5576,6169,15544,-1888]}},
    {"code":1160308,"left":3500120,"right":3500119,"id":"dc1e78","name":"甲南山手","name_kana":"こうなんやまて","lat":34.730616,"lng":135.292788,"prefecture":28,"lines":[11603],"attr":"cool","postal_code":"658-0001","address":"神戸市東灘区森北町","next":[3500120,3500121,1160309,3400111,3400110],"voronoi":{"lat":34.753205,"lng":135.282364,"delta_lat":[0,-22021,-3332,-2231,5130],"delta_lng":[0,1888,834,12441,1177]}},
    {"code":3500120,"id":"fe335a","name":"芦屋(阪神電気鉄道)","name_kana":"あしや","lat":34.728052,"lng":135.303969,"prefecture":28,"lines":[35001],"attr":"eco","postal_code":"659-0065","address":"兵庫県芦屋市公光町","next":[1160308,3500119,3500304,1160307,9964906,3400110,3500121],"voronoi":{"lat":34.72562,"lng":135.297527,"delta_lat":[0,5130,1698,-3608,-52418,-493,8176],"delta_lng":[0,1177,4240,7089,16228,-161,-10585]}},
    {"code":3500119,"id":"258df8","name":"打出","name_kana":"うちで","lat":34.731616,"lng":135.315481,"prefecture":28,"lines":[35001],"attr":"cool","postal_code":"659-0028","address":"芦屋市打出小槌町２０-２","next":[3500304,3400109,3500120,1160307,3500118],"voronoi":{"lat":34.737627,"lng":135.321262,"delta_lat":[0,7438,-16225,-52418,11347],"delta_lng":[0,-6213,-5017,16228,5116]}},
    {"code":3500118,"left":3400502,"right":1160316,"id":"9fb29c","name":"香櫨園","name_kana":"こうろえん","lat":34.734344,"lng":135.328929,"prefecture":28,"lines":[35001],"attr":"cool","postal_code":"662-0962","address":"西宮市松下町１-１","next":[3400401,3500115,3500117,1160316,3500304,3500119,3400109],"voronoi":{"lat":34.737627,"lng":135.321262,"delta_lat":[0,-49858,419,24643,4305,17990,3015],"delta_lng":[0,10114,269,6513,442,-5121,-6596]}},
    {"code":3400502,"left":3400109,"right":9963211,"id":"8429ef","name":"苦楽園口","name_kana":"くらくえんぐち","lat":34.750062,"lng":135.328885,"prefecture":28,"lines":[34005],"attr":"cool","postal_code":"662-0074","address":"西宮市石刎町１-２２","next":[1160307,3400404,3400503,3400109,3400110,3400108,3500117,1160306,1160316],"voronoi":{"lat":34.74871,"lng":135.341134,"delta_lat":[0,4289,411,687,3550,-4314,-5932,-1812,411],"delta_lng":[0,2397,61,-165,-35682,2097,4317,20897,2046]}},
    {"code":3400109,"left":3400110,"id":"85f99d","name":"夙川","name_kana":"しゅくがわ","lat":34.742246,"lng":135.328207,"prefecture":28,"lines":[34001,34005],"attr":"eco","postal_code":"662-0063","address":"西宮市相生町２-１","next":[3500119,1160316,3400502,1160307,3500118],"voronoi":{"lat":34.745589,"lng":135.335056,"delta_lat":[0,1812,-2336,-7438,514],"delta_lng":[0,-20897,890,6213,5621]}},
    {"code":3400110,"id":"06de01","name":"芦屋川","name_kana":"あしやがわ","lat":34.736338,"lng":135.300651,"prefecture":28,"lines":[34001],"attr":"eco","postal_code":"659-0083","address":"芦屋市西山町１-１０","next":[9963217,3400503,3400502,1160307,3500120,3400111,1160308],"voronoi":{"lat":34.753205,"lng":135.282364,"delta_lat":[0,18026,9661,-23244,-4314,-20885,-1698],"delta_lng":[0,-5227,11118,19491,2097,-6899,-4240]}},
    {"code":9963211,"id":"9a3f1e","name":"花山","name_kana":"はなやま","lat":34.769648,"lng":135.187308,"prefecture":28,"lines":[99632],"attr":"eco","postal_code":"651-1205","address":"神戸市北区花山台１-１","next":[100302,3400113,9963212,3400114,9963210],"voronoi":{"lat":34.739404,"lng":135.201798,"delta_lat":[0,4008,7475,61780,-74426],"delta_lng":[0,7607,7902,-61481,37274]}},
    {"code":1160316,"left":3500117,"right":3400503,"id":"ae2bd9","name":"さくら夙川","name_kana":"さくらしゅくがわ","lat":34.739079,"lng":135.331093,"prefecture":28,"lines":[11603],"attr":"heat","postal_code":"662-0045","address":"西宮市安井２７９８番地","next":[3400109,3500118,3400502,3500117],"voronoi":{"lat":34.735127,"lng":135.333479,"delta_lat":[0,3015,7448,411],"delta_lng":[0,-6596,8173,2046]}},
    {"code":3500117,"id":"5560a6","name":"西宮(阪神電気鉄道)","name_kana":"にしのみや","lat":34.736858,"lng":135.337759,"prefecture":28,"lines":[35001],"attr":"cool","postal_code":"662-0973","address":"兵庫県西宮市田中町","next":[3400401,1160306,3400502,3500118,1160316],"voronoi":{"lat":34.735127,"lng":135.333479,"delta_lat":[0,-17990,15910,15664,-2710],"delta_lng":[0,5121,5578,-3044,-4032]}},
    {"code":3400503,"id":"60681e","name":"甲陽園","name_kana":"こうようえん","lat":34.760919,"lng":135.329965,"prefecture":28,"lines":[34005],"attr":"cool","postal_code":"662-0016","address":"西宮市甲陽園若江町７-１９","next":[3400110,9963217,3400409,3400502,3400407,1162912,3400406,3400405,3400404,1162911],"voronoi":{"lat":34.78768,"lng":135.299513,"delta_lat":[0,-3040,-3748,-23244,-3550,10079,1937,11028,9819,2406],"delta_lng":[0,-9544,-1714,19491,35682,1367,-379,-5823,-12529,-6537]}},
    {"code":1162904,"left":3500114,"right":3400603,"id":"4a7ab1","name":"塚口(JR)","name_kana":"つかぐち","lat":34.751028,"lng":135.424948,"prefecture":28,"lines":[11629],"attr":"eco","postal_code":"661-0011","address":"兵庫県尼崎市東塚口町一丁目9-1","next":[1160303,1162905,3400105,3400106],"voronoi":{"lat":34.737648,"lng":135.417577,"delta_lat":[0,6744,15410,-2667],"delta_lng":[0,19256,-581,-14824]}},
    {"code":3500114,"left":3400402,"right":1160304,"id":"694540","name":"甲子園","name_kana":"こうしえん","lat":34.723987,"lng":135.363157,"prefecture":28,"lines":[35001],"attr":"cool","postal_code":"663-8177","address":"西宮市甲子園七番町１-１","next":[3400402,3500304,3500113,3500115,1160305],"voronoi":{"lat":34.708131,"lng":135.358571,"delta_lat":[0,-5750,31365,670,-4836],"delta_lng":[0,-9464,14768,1044,6465]}},
    {"code":3400402,"left":3500115,"right":3400108,"id":"55d63b","name":"阪神国道","name_kana":"はんしんこくどう","lat":34.73715,"lng":135.354702,"prefecture":28,"lines":[34004],"attr":"heat","postal_code":"663-8241","address":"西宮市津門大塚町８-１８","next":[3500114,3400401,3400108,1160305,3500115,1160306],"voronoi":{"lat":34.735867,"lng":135.351029,"delta_lat":[0,-3570,1448,670,5153,2605],"delta_lng":[0,5859,6987,1044,-497,-11464]}},
    {"code":3500115,"left":3400401,"id":"be66be","name":"久寿川","name_kana":"くすがわ","lat":34.726975,"lng":135.356811,"prefecture":28,"lines":[35001],"attr":"cool","postal_code":"663-8214","address":"西宮市今津曙町１３-２５","next":[3500304,3500118,3400402,3400401,3500114],"voronoi":{"lat":34.732297,"lng":135.356888,"delta_lat":[0,-19466,-24643,14192,31365],"delta_lng":[0,-18730,-6513,17462,14768]}},
    {"code":3400401,"id":"5a137c","name":"今津(兵庫)","name_kana":"いまづ","lat":34.732015,"lng":135.351573,"prefecture":28,"lines":[34004,35001],"attr":"heat","postal_code":"663-8245","address":"西宮市津門呉羽町１-３７","next":[3500118,3500117,3400402,1160306,3500115],"voronoi":{"lat":34.712831,"lng":135.338158,"delta_lat":[0,4305,15910,2821,-3570],"delta_lng":[0,442,5578,6851,5859]}},
    {"code":3400108,"id":"806b71","name":"西宮北口","name_kana":"にしのみやきたぐち","lat":34.745951,"lng":135.356702,"prefecture":28,"lines":[34001,34004],"attr":"eco","postal_code":"663-8204","address":"西宮市高松町６-２０","next":[3400402,3400404,1160306,3400502,1160305],"voronoi":{"lat":34.753411,"lng":135.343592,"delta_lat":[0,-411,-10826,-2605,10446],"delta_lng":[0,-61,9427,11464,4066]}},
    {"code":1160304,"left":1160303,"right":1160305,"id":"b103eb","name":"立花","name_kana":"たちばな","lat":34.737875,"lng":135.399571,"prefecture":28,"lines":[11603],"attr":"heat","postal_code":"661-0025","address":"尼崎市立花町１丁目","next":[1160305,3500111,3500110,3500112,3400107,3500109,1160303,3400106],"voronoi":{"lat":34.734891,"lng":135.415639,"delta_lat":[0,-4661,-2875,2163,2465,8725,7529,-11832],"delta_lng":[0,-5056,-11222,-9613,-3053,408,17955,10867]}},
    {"code":1160303,"id":"d0b8be","name":"尼崎(JR)","name_kana":"あまがさき","lat":34.731791,"lng":135.431685,"prefecture":28,"lines":[11603,11625,11629],"attr":"eco","postal_code":"660-0808","address":"兵庫県尼崎市潮江一丁目1-1","next":[3500107,1162904,3400105,3400106,1162508,1160304,3500108,3500109],"voronoi":{"lat":34.723031,"lng":135.431482,"delta_lat":[0,5999,9039,6324,-6744,-1243,-1514,-8669],"delta_lng":[0,11334,1726,-7709,-19256,-1652,-286,7933]}},
    {"code":1160305,"id":"2bde48","name":"甲子園口","name_kana":"こうしえんぐち","lat":34.739052,"lng":135.374426,"prefecture":28,"lines":[11603],"attr":"heat","postal_code":"663-8113","address":"西宮市甲子園口２丁目","next":[1160304,3400107,3400404,3500113,3400402,3500112,3500114,3400108],"voronoi":{"lat":34.739569,"lng":135.364422,"delta_lat":[0,-5153,-4836,-1404,3808,8725,16469,-7163],"delta_lng":[0,497,6465,6688,8623,408,-10644,-7971]}},
    {"code":3400603,"left":3400405,"right":1162905,"id":"a6e5fc","name":"新伊丹","name_kana":"しんいたみ","lat":34.772574,"lng":135.415479,"prefecture":28,"lines":[34006],"attr":"cool","postal_code":"664-0856","address":"伊丹市梅ノ木２-４-１","next":[3400602,1162906,3400604,1162905,3400107],"voronoi":{"lat":34.768723,"lng":135.419507,"delta_lat":[0,3746,4625,-5694,-2821],"delta_lng":[0,4467,-6017,-22337,2734]}},
    {"code":3400405,"left":3400107,"right":3400406,"id":"7ec668","name":"甲東園","name_kana":"こうとうえん","lat":34.76676,"lng":135.359757,"prefecture":28,"lines":[34004],"attr":"cool","postal_code":"662-0812","address":"西宮市甲東園１-２０４","next":[3400404,3400107,3400406,3400604,3400503],"voronoi":{"lat":34.759102,"lng":135.376757,"delta_lat":[0,19439,1674,-14101,-1937],"delta_lng":[0,8658,-407,-40593,379]}},
    {"code":3400107,"left":3400404,"id":"338ed5","name":"武庫之荘","name_kana":"むこのそう","lat":34.751587,"lng":135.393821,"prefecture":28,"lines":[34001],"attr":"eco","postal_code":"661-0035","address":"尼崎市武庫之荘１-１-１","next":[3400106,1160305,3400404,3400405,3400602,1160304,3400604,3400603],"voronoi":{"lat":34.758524,"lng":135.40448,"delta_lat":[0,-10287,-7529,16469,1924,19439,-7141,-2821],"delta_lng":[0,578,-17955,-10644,298,8658,10204,2734]}},
    {"code":3400404,"id":"c98c3a","name":"門戸厄神","name_kana":"もんどやくじん","lat":34.757086,"lng":135.358221,"prefecture":28,"lines":[34004],"attr":"heat","postal_code":"663-8004","address":"西宮市下大市東町１-２２","next":[3400405,3400107,1160305,3400502,3400108,3400503],"voronoi":{"lat":34.759102,"lng":135.376757,"delta_lat":[0,-1924,-7163,3396,687,10079],"delta_lng":[0,-298,-7971,-24896,-165,1367]}},
    {"code":3400406,"id":"e574d4","name":"仁川","name_kana":"にがわ","lat":34.775117,"lng":135.356854,"prefecture":28,"lines":[34004],"attr":"cool","postal_code":"662-0000","address":"西宮市仁川北３-３-５","next":[3400407,1162909,3400604,3400503,3400405],"voronoi":{"lat":34.766113,"lng":135.344415,"delta_lat":[0,11028,13020,-2104,-7843],"delta_lng":[0,-5823,40663,5095,658]}},
    {"code":1162905,"left":3400106,"right":3400602,"id":"0f3483","name":"猪名寺","name_kana":"いなでら","lat":34.764086,"lng":135.422598,"prefecture":28,"lines":[11629],"attr":"eco","postal_code":"661-0981","address":"尼崎市猪名寺","next":[3400602,1162906,3400106,9962601,3400105,1162904,3400603],"voronoi":{"lat":34.773282,"lng":135.438736,"delta_lat":[0,-2062,-11417,-2667,1760,9827,3746],"delta_lng":[0,2951,-5435,-14824,-2938,1016,4467]}},
    {"code":3400106,"id":"b09c72","name":"塚口(阪急電鉄)","name_kana":"つかぐち","lat":34.752826,"lng":135.41585,"prefecture":28,"lines":[34001,34006],"attr":"eco","postal_code":"661-0001","address":"兵庫県尼崎市塚口本町一丁目","next":[3400107,3400602,1162905,1160303,1162904,1160304],"voronoi":{"lat":34.737648,"lng":135.417577,"delta_lat":[0,19487,1760,-371,-10287,-11832],"delta_lng":[0,3851,-2938,-14010,578,10867]}},
    {"code":3400602,"id":"5c2bf2","name":"稲野","name_kana":"いなの","lat":34.764817,"lng":135.415532,"prefecture":28,"lines":[34006],"attr":"eco","postal_code":"664-0861","address":"伊丹市稲野町１-５０-１","next":[1162905,3400106,3400603,3400107],"voronoi":{"lat":34.758896,"lng":135.41849,"delta_lat":[0,9827,-144,-10054],"delta_lng":[0,1016,-21153,6127]}}
  ]
}