[{"code":1151041,"station":"新宮","phonetic":"しんぐう","prefecture":30,"lon":135.994099,"lat":33.725119,"lines":[11510,11639],"next":[1163905,1151039,3200802,1163927,1151040,1163903,1163902,1163928,1151038],"voronoi":{"pivot":[135.736670,33.935699],"points":[0,0,-39696,-32889,94,-13432,744,-15146,123295,-87444,135832,-71034,65013,-16804,-32533,60282,-92361,79219]}},
{"code":1163902,"station":"三輪崎","phonetic":"みわさき","prefecture":30,"lon":135.984906,"lat":33.689554,"lines":[11639],"next":[1151040,1151041,1163904,1163903],"voronoi":{"pivot":[135.956938,33.715754],"points":[0,0,65013,-16804,243637,-157750,-279985,131661]}},
{"code":1163903,"station":"紀伊佐野","phonetic":"きいさの","prefecture":30,"lon":135.970447,"lat":33.679891,"lines":[11639],"next":[1163904,1151041,1163902,1163905],"voronoi":{"pivot":[135.985604,33.672861],"points":[0,0,-28665,42893,-135832,71034,125258,-118173]}},
{"code":1163904,"station":"宇久井","phonetic":"うくい","prefecture":30,"lon":135.972302,"lat":33.662751,"lines":[11639],"next":[1163907,1163903,1163909,1151030,3101516,1163905,1163902,1151040],"voronoi":{"pivot":[136.265589,33.541199],"points":[0,0,-279985,131661,-39239,-4246,13490,-25637,87289,-76883,1280743,-802960,-169664,222526,-204994,154543]}},
{"code":1163905,"station":"那智","phonetic":"なち","prefecture":30,"lon":135.936508,"lat":33.643917,"lines":[11639],"next":[1163919,1151041,1163906,1163913,1163907,1163927,1163904,1163903],"voronoi":{"pivot":[135.821106,33.786787],"points":[0,0,-123295,87444,-9206,-90388,26154,-51585,49957,-46037,179922,-48356,15216,5112,-13490,25637]}},
{"code":1163906,"station":"紀伊天満","phonetic":"きいてんま","prefecture":30,"lon":135.934570,"lat":33.636706,"lines":[11639],"next":[1163905,1163908,1163907,1163913],"voronoi":{"pivot":[135.764716,33.686221],"points":[0,0,179922,-48356,-16670,-14079,-154512,54031]}},
{"code":1163907,"station":"紀伊勝浦","phonetic":"きいかつうら","prefecture":30,"lon":135.941811,"lat":33.628133,"lines":[11639],"next":[1163908,1163904,1163905,1163906,1163909],"voronoi":{"pivot":[135.959854,33.642978],"points":[0,0,-15216,-5112,-16670,-14079,22302,-20098,96873,-37594]}},
{"code":1163908,"station":"湯川","phonetic":"ゆかわ","prefecture":30,"lon":135.925080,"lat":33.609568,"lines":[11639],"next":[1163913,1163910,1163907,1163906,1163909,1163911],"voronoi":{"pivot":[135.906125,33.597737],"points":[0,0,44146,5951,-22302,20098,-154512,54031,12935,-14791,99617,-63106]}},
{"code":1163909,"station":"太地","phonetic":"たいじ","prefecture":30,"lon":135.927536,"lat":33.591348,"lines":[11639],"next":[1163904,1163910,1163908,1163907,3101516],"voronoi":{"pivot":[135.906125,33.597737],"points":[0,0,44146,5951,96873,-37594,1280743,-802960,3774,-4692]}},
{"code":1163910,"station":"下里","phonetic":"しもさと","prefecture":30,"lon":135.922100,"lat":33.582115,"lines":[11639],"next":[1163911,1163908,3101516,9950116,1163909,1163912],"voronoi":{"pivot":[138.419563,31.414787],"points":[0,0,-1087902,1343655,-1425536,839295,-20116,2183,256868,-333767,2813155,-3328591]}},
{"code":1163911,"station":"紀伊浦神","phonetic":"きいうらがみ","prefecture":30,"lon":135.893979,"lat":33.560473,"lines":[11639],"next":[1163910,1163912,1163913,1163908],"voronoi":{"pivot":[136.142876,33.266154],"points":[0,0,-337640,364095,-18845,32778,99617,-63106]}},
{"code":1163912,"station":"紀伊田原","phonetic":"きいたはら","prefecture":30,"lon":135.868132,"lat":33.536504,"lines":[11639],"next":[1163911,9950116,1163913,1163910,1163915],"voronoi":{"pivot":[135.885723,33.419613],"points":[0,0,-80487,210635,337640,-364095,2813155,-3328591,686669,-1847791]}},
{"code":1163913,"station":"古座","phonetic":"こざ","prefecture":30,"lon":135.820882,"lat":33.518449,"lines":[11639],"next":[1163908,1163915,1163905,1163911,1163914,1163912,1163906,1163916,1163919],"voronoi":{"pivot":[135.714760,33.732259],"points":[0,0,49957,-46037,8740,-8404,12935,-14791,18845,-32778,80487,-210635,-6366,5827,-120798,140705,-38959,119629]}},
{"code":1163919,"station":"和深","phonetic":"わぶか","prefecture":30,"lon":135.654969,"lat":33.501171,"lines":[11639],"next":[1163905,1163927,1163917,1163916,1163918,1163920,1163913],"voronoi":{"pivot":[135.709051,33.602294],"points":[0,0,-6286,-30750,-94834,-197105,62768,387673,17906,21731,26154,-51585,4841,-46484]}},
{"code":1163920,"station":"江住","phonetic":"えすみ","prefecture":30,"lon":135.603286,"lat":33.509539,"lines":[11639],"next":[1163927,1163918,1163921,1163919],"voronoi":{"pivot":[135.607931,33.374440],"points":[0,0,-307588,-1186986,336150,1540733,34206,33926]}},
{"code":1163921,"station":"見老津","phonetic":"みろづ","prefecture":30,"lon":135.575611,"lat":33.515577,"lines":[11639],"next":[9980103,1163923,1163927,1163920,1163922,9981620,1163918],"voronoi":{"pivot":[134.952747,30.785964],"points":[0,0,-62049,1069048,764,31043,703539,1796592,11372,19269,30121,26270,-336150,-1540733]}}
]