[{"code":1121421,"station":"勝木","phonetic":"がつぎ","prefecture":15,"lon":139.517468,"lat":38.490315,"lines":[11214],"next":[1121915,1121420,1121422,1121423],"voronoi":{"pivot":[139.127501,38.718222],"points":[0,0,595722,-393846,58724,31862,-565967,319376]}},
{"code":1121910,"station":"羽前椿","phonetic":"うぜんつばき","prefecture":6,"lon":139.994293,"lat":38.038636,"lines":[11219],"next":[1121909,1121906,1121907,1121908,1121911],"voronoi":{"pivot":[139.935103,38.077659],"points":[0,0,86666,-37060,2067,-5704,-3398,-14751,-16756,-26783]}},
{"code":1121911,"station":"手ノ子","phonetic":"てのこ","prefecture":6,"lon":139.961264,"lat":38.011766,"lines":[11219],"next":[1121906,1121903,1121904,1121912,1121910,1121909,1121905,1122607],"voronoi":{"pivot":[139.965956,37.889887],"points":[0,0,23994,40093,10776,26782,2955,36598,-68579,84298,-6246,5359,-47085,-246847,36126,-9123]}},
{"code":1121912,"station":"羽前沼沢","phonetic":"うぜんぬまざわ","prefecture":6,"lon":139.872497,"lat":38.028698,"lines":[11219],"next":[1121913,1122608,9921112,1122607,1121909,1121914,1121911],"voronoi":{"pivot":[139.881771,37.836170],"points":[0,0,-73260,786,-17463,4752,21953,121061,89186,198953,11447,-18174,15222,-60531]}},
{"code":1121913,"station":"伊佐領","phonetic":"いさりょう","prefecture":6,"lon":139.822635,"lat":38.051050,"lines":[11219],"next":[1121912,9921113,9921114,9921112,1121915,1121914],"voronoi":{"pivot":[139.902188,38.161723],"points":[0,0,-9408,24978,-25628,56569,-41840,84832,-31650,-221140,19340,-144192]}},
{"code":1121914,"station":"羽前松岡","phonetic":"うぜんまつおか","prefecture":6,"lon":139.780445,"lat":38.045391,"lines":[11219],"next":[1122613,1122608,1121916,1121912,1121915,1121913],"voronoi":{"pivot":[139.793661,38.106961],"points":[0,0,-94743,-178942,-12517,-69418,30605,-14357,74042,-2536,21953,121061]}},
{"code":1121915,"station":"小国","phonetic":"おぐに","prefecture":6,"lon":139.750167,"lat":38.061422,"lines":[11219],"next":[1121421,1121913,1121420,9921114,1121422,1121914,1121916],"voronoi":{"pivot":[139.723222,38.324376],"points":[0,0,58724,31862,29087,14142,14278,-42278,-31650,-221140,-94743,-178942,23061,395521]}},
{"code":1121916,"station":"越後金丸","phonetic":"えちごかなまる","prefecture":15,"lon":139.663521,"lat":38.066474,"lines":[11219],"next":[1121415,1121417,1121917,1122614,1122613,1121914,1121418,1121420,1122615,1121915],"voronoi":{"pivot":[139.698919,37.928019],"points":[0,0,-12517,-69418,-1445,219,-27674,6251,-34038,12221,40950,397427,19052,24870,11264,9637,8806,5839,18663,8475]}},
{"code":1121917,"station":"越後片貝","phonetic":"えちごかたかい","prefecture":15,"lon":139.622390,"lat":38.070712,"lines":[11219],"next":[1121408,1122615,1121415,1121918,1121916],"voronoi":{"pivot":[139.645125,38.254378],"points":[0,0,-110131,-355416,116,-324,88135,-21346,40950,397427]}},
{"code":1121918,"station":"越後下関","phonetic":"えちごしもせき","prefecture":15,"lon":139.560024,"lat":38.090037,"lines":[11219],"next":[1121409,1121917,1121919,1121408,1121415],"voronoi":{"pivot":[139.561652,38.192187],"points":[0,0,-54267,-234322,12264,-31694,15344,-27209,110131,355416]}},
{"code":1121919,"station":"越後大島","phonetic":"えちごおおしま","prefecture":15,"lon":139.518209,"lat":38.099721,"lines":[11219],"next":[1121412,1121410,1121415,1121918,1121413,1121409,1121414,1121411],"voronoi":{"pivot":[139.474039,38.079952],"points":[0,0,10998,40701,38265,45003,37289,26047,1061,485,-54267,-234322,-2951,5147,-27329,65458]}}
]