[{"code":1170222,"station":"長門粟野","phonetic":"ながとあわの","prefecture":35,"lon":130.970175,"lat":34.357431,"lines":[11702],"next":[9970305,1170134,1170123,1170205,1170225,1170223,1170221],"voronoi":{"pivot":[130.961267,34.319664],"points":[0,0,-5254978,10706744,3031550,-5026241,839802,-1478582,171910,-334686,194531,-467542,1065288,-3415159]}},
{"code":1170223,"station":"阿川","phonetic":"あがわ","prefecture":35,"lon":130.925942,"lat":34.335721,"lines":[11702],"next":[1170225,1170224,1190920,1170222,1190222,9991120,1111553,9970305,1190220],"voronoi":{"pivot":[130.948553,34.314633],"points":[0,0,12714,5032,-5254978,10706744,-7374414,12284059,-17076941,16568055,28057213,-38728934,85492,-94673,407390,-313051,313187,-229796]}},
{"code":1170224,"station":"特牛","phonetic":"こっとい","prefecture":35,"lon":130.918870,"lat":34.305979,"lines":[11702],"next":[1170226,1170225,1190217,1170223,1190220],"voronoi":{"pivot":[130.383511,34.319200],"points":[0,0,536067,-40630,28975,36062,-830337,197436,191239,-145833]}},
{"code":1170225,"station":"滝部","phonetic":"たきべ","prefecture":35,"lon":130.946497,"lat":34.283782,"lines":[11702],"next":[1172208,1170227,1170221,1170224,1172204,1170220,1170222,1170223,1170226,1170228],"voronoi":{"pivot":[131.073500,34.239574],"points":[0,0,245,1351,-31498,38624,-32876,24650,-48103,15466,-12714,-5032,-28975,-36062,26383,-26014,48340,-16183,68386,-12677]}},
{"code":1170226,"station":"長門二見","phonetic":"ながとふたみ","prefecture":35,"lon":130.914747,"lat":34.251581,"lines":[11702],"next":[1170224,1190217,1170229,1170231,1170227,1170225,1170232],"voronoi":{"pivot":[130.533837,34.212604],"points":[0,0,-150326,106597,536067,-40630,26383,-26014,-103826,-54919,-33102,-5523,-81537,1791]}},
{"code":1170227,"station":"宇賀本郷","phonetic":"うかほんごう","prefecture":35,"lon":130.927589,"lat":34.227303,"lines":[11702],"next":[1170225,1170226,1170229,1170228],"voronoi":{"pivot":[130.857669,34.197838],"points":[0,0,-15534,-200,103826,54919,48340,-16183]}},
{"code":1170228,"station":"湯玉","phonetic":"ゆたま","prefecture":35,"lon":130.932681,"lat":34.209249,"lines":[11702],"next":[1172204,1161232,1170229,1170225,1170227],"voronoi":{"pivot":[130.857669,34.197838],"points":[0,0,180335,-20105,13210,9380,11473,36584,-68386,12677]}},
{"code":1170229,"station":"小串","phonetic":"こぐし","prefecture":35,"lon":130.928326,"lat":34.170186,"lines":[11702],"next":[1170231,1161232,1170226,1170230,1170228,1170227],"voronoi":{"pivot":[130.842135,34.197637],"points":[0,0,-33102,-5523,24848,-9610,165447,-44368,38676,39596,-180335,20105]}},
{"code":1170230,"station":"川棚温泉","phonetic":"かわたなおんせん","prefecture":35,"lon":130.921817,"lat":34.145914,"lines":[11702],"next":[1170231,1161232,1170229],"voronoi":{"pivot":[130.833882,34.182504],"points":[0,0,141986,-77819,23461,33451]}},
{"code":1170231,"station":"黒井村","phonetic":"くろいむら","prefecture":35,"lon":130.912035,"lat":34.128066,"lines":[11702],"next":[1170232,1170229,1170230,1170226,1161232,1170233],"voronoi":{"pivot":[130.975867,34.104686],"points":[0,0,-141986,77819,-24848,9610,-81537,1791,230013,-101892,11265,-1594]}},
{"code":1170232,"station":"梅ヶ峠","phonetic":"うめがとう","prefecture":35,"lon":130.900253,"lat":34.101469,"lines":[11702],"next":[1170231,1191005,1191004,1170233,1190217,1170226],"voronoi":{"pivot":[130.957510,34.092013],"points":[0,0,-231152,-26190,-161250,115610,-7244,5676,-24026,25494,193659,-18698]}},
{"code":1170233,"station":"吉見","phonetic":"よしみ","prefecture":35,"lon":130.903820,"lat":34.069987,"lines":[11702],"next":[1170234,1191001,1170232,1170231,1170235,1191004,1161232],"voronoi":{"pivot":[130.957510,34.092013],"points":[0,0,-231152,-26190,20726,-17865,54403,-31426,60289,17144,106979,55500,20,1243]}},
{"code":1170234,"station":"福江","phonetic":"ふくえ","prefecture":35,"lon":130.915673,"lat":34.047140,"lines":[11702],"next":[1170235,1161232,1170233,1161233,1161234],"voronoi":{"pivot":[130.971342,34.074557],"points":[0,0,-2587,14619,-106979,-55500,84078,3640,17691,13793]}},
{"code":1170235,"station":"安岡","phonetic":"やすおか","prefecture":35,"lon":130.916635,"lat":34.024921,"lines":[11702],"next":[1190207,1170234,1191001,1170236,1170240,1161234,1170233,1161235],"voronoi":{"pivot":[130.877988,33.993569],"points":[0,0,65451,39814,2415,3934,-84078,-3640,-60289,-17144,23891,-21302,18381,-11302,29101,7190]}},
{"code":1170240,"station":"梶栗郷台地","phonetic":"かじぐりごうだいち","prefecture":35,"lon":130.923600,"lat":34.013471,"lines":[11702],"next":[1170235,1161234,1170236],"voronoi":{"pivot":[130.877988,33.993569],"points":[0,0,65451,39814,-6711,-20959]}},
{"code":1170236,"station":"綾羅木","phonetic":"あやらぎ","prefecture":35,"lon":130.926662,"lat":34.003932,"lines":[11702],"next":[1161234,1170235,1161235,1170240],"voronoi":{"pivot":[130.938282,33.993104],"points":[0,0,-65423,-1986,5128,2450,58740,18855]}},
{"code":1161233,"station":"長府","phonetic":"ちょうふ","prefecture":35,"lon":130.999508,"lat":34.019264,"lines":[11612],"next":[1161234,1161231,1161232,1170234,1172312,9992804],"voronoi":{"pivot":[131.072319,33.949130],"points":[0,0,-25016,73067,-75961,52361,-7797,-23448,15543,-58783,90415,-49591]}},
{"code":1161234,"station":"新下関","phonetic":"しんしものせき","prefecture":35,"lon":130.948021,"lat":34.005651,"lines":[11612,50025],"next":[1170236,1161233,1161235,1170235,1170234,1170240,9992804],"voronoi":{"pivot":[130.963545,34.051110],"points":[0,0,-17691,-13793,-2415,-3934,-6711,-20959,1555,-19319,14193,-12201,26612,11423]}}
]