[
{"code":1180408,"name":"阿波赤石","lon":134.605830,"lat":33.981729,"lines":[11804]},
{"code":1180409,"name":"立江","lon":134.608785,"lat":33.970336,"lines":[11804]},
{"code":1180410,"name":"羽ノ浦","lon":134.626183,"lat":33.957293,"lines":[11804]},
{"code":1180411,"name":"西原","lon":134.644906,"lat":33.948300,"lines":[11804]},
{"code":1180412,"name":"阿波中島","lon":134.664834,"lat":33.941223,"lines":[11804]},
{"code":1180413,"name":"阿南","lon":134.662290,"lat":33.919129,"lines":[11804]},
{"code":1180414,"name":"見能林","lon":134.667015,"lat":33.902984,"lines":[11804]},
{"code":1180415,"name":"阿波橘","lon":134.651281,"lat":33.888472,"lines":[11804]},
{"code":1180416,"name":"桑野","lon":134.613287,"lat":33.874660,"lines":[11804]},
{"code":1180417,"name":"新野","lon":134.600283,"lat":33.846813,"lines":[11804]},
{"code":1180418,"name":"阿波福井","lon":134.605272,"lat":33.824074,"lines":[11804]},
{"code":1180419,"name":"由岐","lon":134.591857,"lat":33.776032,"lines":[11804]},
{"code":1180420,"name":"田井ノ浜","lon":134.584127,"lat":33.772863,"lines":[11804]},
{"code":1180421,"name":"木岐","lon":134.569473,"lat":33.766616,"lines":[11804]},
{"code":1180422,"name":"北河内","lon":134.535280,"lat":33.743286,"lines":[11804]},
{"code":1180423,"name":"日和佐","lon":134.530603,"lat":33.728954,"lines":[11804]}
]
