[
{"code":1190742,"name":"財部","lon":130.991374,"lat":31.728796,"lines":[11907]},
{"code":1190743,"name":"北俣","lon":130.960034,"lat":31.745007,"lines":[11907]},
{"code":1190744,"name":"大隅大川原","lon":130.924355,"lat":31.772767,"lines":[11907]},
{"code":1190745,"name":"北永野田","lon":130.874440,"lat":31.782118,"lines":[11907]},
{"code":1190746,"name":"霧島神宮","lon":130.836939,"lat":31.818181,"lines":[11907]},
{"code":1190747,"name":"国分","lon":130.763447,"lat":31.743657,"lines":[11907]},
{"code":1190748,"name":"隼人","lon":130.740316,"lat":31.743893,"lines":[11907,11926]},
{"code":1190749,"name":"加治木","lon":130.670752,"lat":31.739271,"lines":[11907]},
{"code":1190750,"name":"錦江","lon":130.653300,"lat":31.736910,"lines":[11907]},
{"code":1190751,"name":"帖佐","lon":130.632716,"lat":31.726970,"lines":[11907]},
{"code":1190752,"name":"姶良","lon":130.623259,"lat":31.715246,"lines":[11907]},
{"code":1190753,"name":"重富","lon":130.614080,"lat":31.702717,"lines":[11907]},
{"code":1190754,"name":"竜ケ水","lon":130.604239,"lat":31.647430,"lines":[11907]},
{"code":1190412,"name":"鹿児島","lon":130.564112,"lat":31.602098,"lines":[11907,11904]},
{"code":9992501,"name":"鹿児島駅前","lon":130.562414,"lat":31.601264,"lines":[99925,99926]},
{"code":1190411,"name":"鹿児島中央","lon":130.541789,"lat":31.583727,"lines":[11907,11904,11930]},
{"code":9992611,"name":"鹿児島中央駅前","lon":130.543703,"lat":31.584120,"lines":[99926]},
{"code":1192908,"name":"高原","lon":130.999012,"lat":31.926899,"lines":[11929]},
{"code":1192909,"name":"広原","lon":130.984877,"lat":31.957766,"lines":[11929]},
{"code":1192910,"name":"小林","lon":130.976132,"lat":31.990749,"lines":[11929]},
{"code":1190413,"name":"広木","lon":130.504328,"lat":31.576712,"lines":[11904]},
{"code":1192602,"name":"栗野","lon":130.723663,"lat":31.950575,"lines":[11926]},
{"code":1192603,"name":"大隅横川","lon":130.702825,"lat":31.906487,"lines":[11926]},
{"code":1192604,"name":"植村","lon":130.724065,"lat":31.890175,"lines":[11926]},
{"code":1192605,"name":"霧島温泉","lon":130.734329,"lat":31.868150,"lines":[11926]},
{"code":1192606,"name":"嘉例川","lon":130.723021,"lat":31.826939,"lines":[11926]},
{"code":1192607,"name":"中福良","lon":130.733174,"lat":31.813818,"lines":[11926]},
{"code":1192608,"name":"表木山","lon":130.745324,"lat":31.796176,"lines":[11926]},
{"code":1192609,"name":"日当山","lon":130.749836,"lat":31.763402,"lines":[11926]},
{"code":1193002,"name":"郡元","lon":130.541976,"lat":31.565607,"lines":[11930]},
{"code":9992618,"name":"純心学園前","lon":130.542694,"lat":31.566872,"lines":[99926]},
{"code":1193003,"name":"南鹿児島","lon":130.543714,"lat":31.554786,"lines":[11930]},
{"code":9992518,"name":"南鹿児島駅前","lon":130.544196,"lat":31.555371,"lines":[99925]},
{"code":1193004,"name":"宇宿","lon":130.536458,"lat":31.544234,"lines":[11930]},
{"code":9992521,"name":"脇田","lon":130.537630,"lat":31.544180,"lines":[99925]},
{"code":1193005,"name":"谷山","lon":130.518860,"lat":31.527094,"lines":[11930]},
{"code":1193006,"name":"慈眼寺","lon":130.506212,"lat":31.517286,"lines":[11930]},
{"code":1193007,"name":"坂之上","lon":130.507801,"lat":31.500454,"lines":[11930]},
{"code":9992502,"name":"桜島桟橋","lon":130.560976,"lat":31.599976,"lines":[99925,99926]},
{"code":9992503,"name":"水族館口","lon":130.559539,"lat":31.598980,"lines":[99925,99926]},
{"code":9992504,"name":"市役所前","lon":130.558015,"lat":31.597179,"lines":[99925,99926]},
{"code":9992505,"name":"朝日通","lon":130.557286,"lat":31.594374,"lines":[99925,99926]},
{"code":9992506,"name":"いづろ通","lon":130.557672,"lat":31.591824,"lines":[99925,99926]},
{"code":9992507,"name":"天文館通","lon":130.555075,"lat":31.590691,"lines":[99925,99926]},
{"code":9992508,"name":"高見馬場","lon":130.550977,"lat":31.588726,"lines":[99925,99926]},
{"code":9992509,"name":"甲東中学校前","lon":130.553058,"lat":31.585738,"lines":[99925]},
{"code":9992510,"name":"新屋敷","lon":130.553724,"lat":31.583855,"lines":[99925]},
{"code":9992511,"name":"武之橋","lon":130.554088,"lat":31.579760,"lines":[99925]},
{"code":9992512,"name":"二中通","lon":130.553702,"lat":31.577110,"lines":[99925]},
{"code":9992513,"name":"荒田八幡","lon":130.553015,"lat":31.573618,"lines":[99925]},
{"code":9992514,"name":"騎射場","lon":130.551900,"lat":31.569102,"lines":[99925]},
{"code":9992515,"name":"鴨池","lon":130.549968,"lat":31.564129,"lines":[99925]},
{"code":9992516,"name":"郡元","lon":130.549388,"lat":31.562925,"lines":[99925,99926]},
{"code":9992525,"name":"郡元南","lon":130.548841,"lat":31.562169,"lines":[99925]},
{"code":9992517,"name":"涙橋","lon":130.546707,"lat":31.559266,"lines":[99925]},
{"code":9992519,"name":"二軒茶屋","lon":130.541192,"lat":31.550050,"lines":[99925]},
{"code":9992520,"name":"宇宿一丁目","lon":130.539068,"lat":31.546439,"lines":[99925]},
{"code":9992522,"name":"笹貫","lon":130.534047,"lat":31.539636,"lines":[99925]},
{"code":9992523,"name":"上塩屋","lon":130.528811,"lat":31.534762,"lines":[99925]},
{"code":9992524,"name":"谷山","lon":130.523404,"lat":31.530108,"lines":[99925]},
{"code":9992609,"name":"加治屋町","lon":130.548037,"lat":31.587310,"lines":[99926]},
{"code":9992610,"name":"高見橋","lon":130.545162,"lat":31.585930,"lines":[99926]},
{"code":9992612,"name":"都通","lon":130.543038,"lat":31.580601,"lines":[99926]},
{"code":9992613,"name":"中洲通","lon":130.542587,"lat":31.578581,"lines":[99926]},
{"code":9992614,"name":"市立病院前","lon":130.541836,"lat":31.575812,"lines":[99926]},
{"code":9992615,"name":"神田（交通局前）","lon":130.540613,"lat":31.572932,"lines":[99926]},
{"code":9992616,"name":"唐湊","lon":130.541085,"lat":31.570556,"lines":[99926]},
{"code":9992617,"name":"工学部前","lon":130.541857,"lat":31.568408,"lines":[99926]},
{"code":9992619,"name":"中郡","lon":130.545312,"lat":31.564980,"lines":[99926]}
]
