[
{"code":1123150,"name":"塩釜","lon":141.009564,"lat":38.309584,"lines":[11231]},
{"code":1123151,"name":"松島","lon":141.065982,"lat":38.379892,"lines":[11231]},
{"code":1123152,"name":"愛宕","lon":141.065000,"lat":38.397371,"lines":[11231]},
{"code":1123153,"name":"品井沼","lon":141.082408,"lat":38.431539,"lines":[11231]},
{"code":1123154,"name":"鹿島台","lon":141.097965,"lat":38.474708,"lines":[11231]},
{"code":1122211,"name":"多賀城","lon":141.005375,"lat":38.291656,"lines":[11222]},
{"code":1122212,"name":"下馬","lon":141.014965,"lat":38.305833,"lines":[11222]},
{"code":1122213,"name":"西塩釜","lon":141.018419,"lat":38.311940,"lines":[11222]},
{"code":1122214,"name":"本塩釜","lon":141.022477,"lat":38.317715,"lines":[11222]},
{"code":1122215,"name":"東塩釜","lon":141.031665,"lat":38.325572,"lines":[11222]},
{"code":1122216,"name":"陸前浜田","lon":141.041818,"lat":38.350747,"lines":[11222]},
{"code":1122217,"name":"松島海岸","lon":141.058523,"lat":38.368529,"lines":[11222]},
{"code":1122218,"name":"高城町","lon":141.073440,"lat":38.382731,"lines":[11222]},
{"code":1122219,"name":"手樽","lon":141.092846,"lat":38.387150,"lines":[11222]},
{"code":1122220,"name":"陸前富山","lon":141.107208,"lat":38.386307,"lines":[11222]},
{"code":1122221,"name":"陸前大塚","lon":141.129470,"lat":38.379078,"lines":[11222]},
{"code":1122222,"name":"東名","lon":141.145480,"lat":38.375300,"lines":[11222]},
{"code":1122223,"name":"野蒜","lon":141.157035,"lat":38.379000,"lines":[11222]},
{"code":1122224,"name":"陸前小野","lon":141.174345,"lat":38.396018,"lines":[11222]},
{"code":1122225,"name":"鹿妻","lon":141.190073,"lat":38.403315,"lines":[11222]},
{"code":1122226,"name":"矢本","lon":141.209148,"lat":38.420432,"lines":[11222]},
{"code":1122227,"name":"東矢本","lon":141.222160,"lat":38.427993,"lines":[11222]},
{"code":1122228,"name":"陸前赤井","lon":141.238883,"lat":38.432442,"lines":[11222]},
{"code":1122232,"name":"石巻あゆみ野","lon":141.259444,"lat":38.436111,"lines":[11222]},
{"code":1122229,"name":"蛇田","lon":141.277652,"lat":38.438218,"lines":[11222]},
{"code":1122230,"name":"陸前山下","lon":141.288868,"lat":38.437718,"lines":[11222]},
{"code":1122231,"name":"石巻","lon":141.303553,"lat":38.435380,"lines":[11222,11223]},
{"code":1122305,"name":"佳景山","lon":141.239622,"lat":38.497974,"lines":[11223]},
{"code":1122306,"name":"鹿又","lon":141.283016,"lat":38.485851,"lines":[11223]},
{"code":1122307,"name":"曽波神","lon":141.287848,"lat":38.465993,"lines":[11223]},
{"code":1122309,"name":"陸前稲井","lon":141.334847,"lat":38.445463,"lines":[11223]},
{"code":1122310,"name":"渡波","lon":141.365123,"lat":38.420051,"lines":[11223]},
{"code":1122311,"name":"万石浦","lon":141.368555,"lat":38.428855,"lines":[11223]},
{"code":1122312,"name":"沢田","lon":141.382340,"lat":38.432397,"lines":[11223]},
{"code":1122313,"name":"浦宿","lon":141.421355,"lat":38.436542,"lines":[11223]},
{"code":1122314,"name":"女川","lon":141.444919,"lat":38.446403,"lines":[11223]}
]
