[
{"code":1151014,"name":"川添","lon":136.473218,"lat":34.419739,"lines":[11510]},
{"code":1151015,"name":"三瀬谷","lon":136.409183,"lat":34.394823,"lines":[11510]},
{"code":1151016,"name":"滝原","lon":136.411976,"lat":34.360105,"lines":[11510]},
{"code":1151017,"name":"阿曽","lon":136.411082,"lat":34.331342,"lines":[11510]},
{"code":1151018,"name":"伊勢柏崎","lon":136.395394,"lat":34.299779,"lines":[11510]},
{"code":1151019,"name":"大内山","lon":136.359284,"lat":34.278152,"lines":[11510]},
{"code":1151020,"name":"梅ケ谷","lon":136.356555,"lat":34.258098,"lines":[11510]},
{"code":1151021,"name":"紀伊長島","lon":136.339968,"lat":34.209370,"lines":[11510]},
{"code":1151022,"name":"三野瀬","lon":136.282519,"lat":34.167771,"lines":[11510]},
{"code":1151023,"name":"船津","lon":136.228763,"lat":34.142214,"lines":[11510]},
{"code":1151024,"name":"相賀","lon":136.227099,"lat":34.111943,"lines":[11510]},
{"code":1151025,"name":"尾鷲","lon":136.190168,"lat":34.074304,"lines":[11510]},
{"code":1151026,"name":"大曽根浦","lon":136.222934,"lat":34.061901,"lines":[11510]},
{"code":1151027,"name":"九鬼","lon":136.242703,"lat":34.016026,"lines":[11510]},
{"code":1151028,"name":"三木里","lon":136.202518,"lat":34.001454,"lines":[11510]}
]
