[
{"code":1110321,"name":"野幌","lon":141.529840,"lat":43.092559,"lines":[11103]},
{"code":1110322,"name":"高砂","lon":141.540752,"lat":43.100084,"lines":[11103]},
{"code":1110323,"name":"江別","lon":141.556790,"lat":43.110189,"lines":[11103]},
{"code":1110324,"name":"豊幌","lon":141.624660,"lat":43.136446,"lines":[11103]},
{"code":1110325,"name":"幌向","lon":141.655839,"lat":43.151348,"lines":[11103]},
{"code":1110326,"name":"上幌向","lon":141.715391,"lat":43.181830,"lines":[11103]},
{"code":1110327,"name":"岩見沢","lon":141.759359,"lat":43.204201,"lines":[11103,11105]},
{"code":1110328,"name":"峰延","lon":141.814673,"lat":43.264694,"lines":[11103]},
{"code":1110329,"name":"光珠内","lon":141.844655,"lat":43.292658,"lines":[11103]},
{"code":1110330,"name":"美唄","lon":141.862157,"lat":43.330751,"lines":[11103]},
{"code":1110331,"name":"茶志内","lon":141.873360,"lat":43.369842,"lines":[11103]},
{"code":1110332,"name":"奈井江","lon":141.889115,"lat":43.423718,"lines":[11103]},
{"code":1110333,"name":"豊沼","lon":141.901032,"lat":43.464224,"lines":[11103]},
{"code":1110334,"name":"砂川","lon":141.909642,"lat":43.493468,"lines":[11103]},
{"code":1110509,"name":"由仁","lon":141.785868,"lat":43.012206,"lines":[11105]},
{"code":1110510,"name":"栗山","lon":141.775603,"lat":43.058164,"lines":[11105]},
{"code":1110511,"name":"栗丘","lon":141.744333,"lat":43.085444,"lines":[11105]},
{"code":1110512,"name":"栗沢","lon":141.739743,"lat":43.120367,"lines":[11105]},
{"code":1110513,"name":"志文","lon":141.744443,"lat":43.158903,"lines":[11105]},
{"code":1111011,"name":"鹿ノ谷","lon":141.964476,"lat":43.039447,"lines":[11110]},
{"code":1111012,"name":"夕張","lon":141.967472,"lat":43.050926,"lines":[11110]},
{"code":1111213,"name":"石狩当別","lon":141.513764,"lat":43.222080,"lines":[11112]},
{"code":1111214,"name":"北海道医療大学","lon":141.549950,"lat":43.230925,"lines":[11112]},
{"code":1111215,"name":"石狩金沢","lon":141.569239,"lat":43.245385,"lines":[11112]},
{"code":1111216,"name":"本中小屋","lon":141.591661,"lat":43.280190,"lines":[11112]},
{"code":1111217,"name":"中小屋","lon":141.602341,"lat":43.306846,"lines":[11112]},
{"code":1111218,"name":"月ケ岡","lon":141.618070,"lat":43.324867,"lines":[11112]},
{"code":1111219,"name":"知来乙","lon":141.649123,"lat":43.331545,"lines":[11112]},
{"code":1111220,"name":"石狩月形","lon":141.670193,"lat":43.340869,"lines":[11112]},
{"code":1111221,"name":"豊ケ岡","lon":141.714026,"lat":43.366645,"lines":[11112]},
{"code":1111222,"name":"札比内","lon":141.742762,"lat":43.370926,"lines":[11112]},
{"code":1111223,"name":"晩生内","lon":141.779211,"lat":43.399921,"lines":[11112]},
{"code":1111224,"name":"札的","lon":141.803549,"lat":43.419153,"lines":[11112]},
{"code":1111225,"name":"浦臼","lon":141.817376,"lat":43.430964,"lines":[11112]},
{"code":1111226,"name":"鶴沼","lon":141.840637,"lat":43.457673,"lines":[11112]},
{"code":1111227,"name":"於札内","lon":141.840102,"lat":43.473424,"lines":[11112]},
{"code":1111228,"name":"南下徳富","lon":141.844454,"lat":43.485542,"lines":[11112]}
]
