[
{"code":1110335,"name":"滝川","lon":141.900807,"lat":43.555278,"lines":[11103,11106]},
{"code":1110336,"name":"江部乙","lon":141.935937,"lat":43.627564,"lines":[11103]},
{"code":1110337,"name":"妹背牛","lon":141.966591,"lat":43.690841,"lines":[11103]},
{"code":1110602,"name":"東滝川","lon":141.980310,"lat":43.574037,"lines":[11106]},
{"code":1111229,"name":"下徳富","lon":141.855574,"lat":43.502710,"lines":[11112]},
{"code":1111230,"name":"新十津川","lon":141.874172,"lat":43.545575,"lines":[11112]},
{"code":1111303,"name":"秩父別","lon":141.967757,"lat":43.769099,"lines":[11113]},
{"code":1111304,"name":"北秩父別","lon":141.960915,"lat":43.789375,"lines":[11113]},
{"code":1111305,"name":"石狩沼田","lon":141.934266,"lat":43.810032,"lines":[11113]},
{"code":1111306,"name":"真布","lon":141.906756,"lat":43.832965,"lines":[11113]},
{"code":1111307,"name":"恵比島","lon":141.881440,"lat":43.851296,"lines":[11113]},
{"code":1111308,"name":"峠下","lon":141.818879,"lat":43.850789,"lines":[11113]},
{"code":1111309,"name":"幌糠","lon":141.758418,"lat":43.855521,"lines":[11113]},
{"code":1111310,"name":"藤山","lon":141.720588,"lat":43.887080,"lines":[11113]},
{"code":1111311,"name":"大和田","lon":141.696528,"lat":43.913418,"lines":[11113]},
{"code":1111312,"name":"留萌","lon":141.651433,"lat":43.942848,"lines":[11113]}
]
