[
{"code":1120413,"name":"白神岳登山口","lon":139.950318,"lat":40.513551,"lines":[11204]},
{"code":1120414,"name":"松神","lon":139.946556,"lat":40.534902,"lines":[11204]},
{"code":1120415,"name":"十二湖","lon":139.941986,"lat":40.551539,"lines":[11204]},
{"code":1120416,"name":"陸奥岩崎","lon":139.924183,"lat":40.583333,"lines":[11204]},
{"code":1120417,"name":"陸奥沢辺","lon":139.894991,"lat":40.586175,"lines":[11204]},
{"code":1120418,"name":"ウェスパ椿山","lon":139.871157,"lat":40.592913,"lines":[11204]},
{"code":1120419,"name":"艫作","lon":139.864856,"lat":40.608534,"lines":[11204]},
{"code":1120420,"name":"横磯","lon":139.890910,"lat":40.629891,"lines":[11204]},
{"code":1120421,"name":"深浦","lon":139.929372,"lat":40.650239,"lines":[11204]},
{"code":1120422,"name":"広戸","lon":139.955586,"lat":40.674340,"lines":[11204]},
{"code":1120423,"name":"追良瀬","lon":139.970298,"lat":40.686114,"lines":[11204]},
{"code":1120424,"name":"驫木","lon":139.982954,"lat":40.707218,"lines":[11204]},
{"code":1120425,"name":"風合瀬","lon":139.994320,"lat":40.731826,"lines":[11204]}
]
