{
  "code":11103,
  "id":3,
  "name":"JR函館本線(小樽～旭川)",
  "name_kana":"じぇいあーるはこだてほんせん",
  "station_size":43,
  "company_code":1,
  "closed":false,
  "station_list":[
    {"code":1110219,"id":56,"name":"小樽","original_name":"小樽","name_kana":"おたる","closed":false,"lat":43.197172,"lng":140.993653,"prefecture":1,"numbering":["S15"],"lines":[11102,11103],"attr":"cool","postal_code":"047-0032","address":"小樽市稲穂２丁目","voronoi":{"type":"Feature","geometry":{"type":"Polygon","coordinates":[[[140.953736,43.128967],[141.032164,43.233827],[141.059077,43.291847],[141.152315,43.614535],[140.999861,43.737984],[140.953736,43.128967]]]},"properties":{}}},
    {"code":1110302,"id":57,"name":"南小樽","original_name":"南小樽","name_kana":"みなみおたる","closed":false,"lat":43.186529,"lng":141.007883,"prefecture":1,"numbering":["S14"],"lines":[11103],"attr":"cool","postal_code":"047-0015","address":"小樽市住吉町","voronoi":{"type":"Feature","geometry":{"type":"Polygon","coordinates":[[[140.953736,43.128967],[140.928475,42.996374],[140.959548,42.967752],[141.032164,43.233827],[140.953736,43.128967]]]},"properties":{}}},
    {"code":1110303,"id":58,"name":"小樽築港","original_name":"小樽築港","name_kana":"おたるちっこう","closed":false,"lat":43.180752,"lng":141.029051,"prefecture":1,"numbering":["S13"],"lines":[11103],"attr":"cool","postal_code":"047-0008","address":"小樽市築港","voronoi":{"type":"Feature","geometry":{"type":"Polygon","coordinates":[[[141.016531,42.909856],[140.959548,42.967752],[141.032164,43.233827],[141.059077,43.291847],[141.016531,42.909856]]]},"properties":{}}},
    {"code":1110304,"id":59,"name":"朝里","original_name":"朝里","name_kana":"あさり","closed":false,"lat":43.176868,"lng":141.063923,"prefecture":1,"numbering":["S12"],"lines":[11103],"attr":"cool","postal_code":"047-0151","address":"小樽市朝里１丁目","voronoi":{"type":"Feature","geometry":{"type":"Polygon","coordinates":[[[141.016531,42.909856],[141.02228,42.903205],[141.244507,43.540335],[141.244118,43.551911],[141.152315,43.614535],[141.059077,43.291847],[141.016531,42.909856]]]},"properties":{}}},
    {"code":1110305,"id":60,"name":"銭函","original_name":"銭函","name_kana":"ぜにばこ","closed":false,"lat":43.143403,"lng":141.159868,"prefecture":1,"numbering":["S11"],"lines":[11103],"attr":"cool","postal_code":"047-0261","address":"小樽市銭函２丁目","voronoi":{"type":"Feature","geometry":{"type":"Polygon","coordinates":[[[141.070307,42.820884],[141.02228,42.903205],[141.244507,43.540335],[141.251254,43.49828],[141.253698,43.453841],[141.209115,43.247712],[141.083443,42.838019],[141.070307,42.820884]]]},"properties":{}}},
    {"code":1110306,"id":61,"name":"ほしみ","original_name":"ほしみ","name_kana":"ほしみ","closed":false,"lat":43.13373,"lng":141.191402,"prefecture":1,"numbering":["S10"],"lines":[11103],"attr":"cool","postal_code":"006-0859","address":"札幌市手稲区手稲星置１条９丁目","voronoi":{"type":"Feature","geometry":{"type":"Polygon","coordinates":[[[141.197014,43.073969],[141.209115,43.247712],[141.083443,42.838019],[141.111073,42.870396],[141.187389,43.019947],[141.197014,43.073969]]]},"properties":{}}},
    {"code":1110307,"id":62,"name":"星置","original_name":"星置","name_kana":"ほしおき","closed":false,"lat":43.132375,"lng":141.210856,"prefecture":1,"numbering":["S09"],"lines":[11103],"attr":"cool","postal_code":"006-0851","address":"札幌市手稲区星置１条３丁目","voronoi":{"type":"Feature","geometry":{"type":"Polygon","coordinates":[[[141.273378,43.309456],[141.253698,43.453841],[141.209115,43.247712],[141.197014,43.073969],[141.274675,43.293881],[141.273378,43.309456]]]},"properties":{}}},
    {"code":1110308,"id":63,"name":"稲穂","original_name":"稲穂","name_kana":"いなほ","closed":false,"lat":43.128115,"lng":141.222919,"prefecture":1,"numbering":["S08"],"lines":[11103],"attr":"cool","postal_code":"006-0831","address":"札幌市手稲区曙１条３丁目","voronoi":{"type":"Feature","geometry":{"type":"Polygon","coordinates":[[[141.187389,43.019947],[141.197014,43.073969],[141.274675,43.293881],[141.280177,43.248215],[141.201671,43.040255],[141.187389,43.019947]]]},"properties":{}}},
    {"code":1110309,"id":64,"name":"手稲","original_name":"手稲","name_kana":"ていね","closed":false,"lat":43.120238,"lng":141.243785,"prefecture":1,"numbering":["S07"],"lines":[11103],"attr":"eco","postal_code":"006-0021","address":"札幌市手稲区手稲本町１条４丁目","voronoi":{"type":"Feature","geometry":{"type":"Polygon","coordinates":[[[141.201671,43.040255],[141.280177,43.248215],[141.293156,43.185419],[141.207947,43.047175],[141.201671,43.040255]]]},"properties":{}}},
    {"code":1110310,"id":65,"name":"稲積公園","original_name":"稲積公園","name_kana":"いなづみこうえん","closed":false,"lat":43.112023,"lng":141.257113,"prefecture":1,"numbering":["S06"],"lines":[11103],"attr":"eco","postal_code":"006-0011","address":"札幌市手稲区富丘１条４丁目","voronoi":{"type":"Feature","geometry":{"type":"Polygon","coordinates":[[[141.295345,43.178337],[141.29564,43.152913],[141.260621,43.095064],[141.207947,43.047175],[141.293156,43.185419],[141.295345,43.178337]]]},"properties":{}}},
    {"code":1110311,"id":66,"name":"発寒","original_name":"発寒","name_kana":"はっさむ","closed":false,"lat":43.099819,"lng":141.277273,"prefecture":1,"numbering":["S05"],"lines":[11103],"attr":"eco","postal_code":"063-0829","address":"札幌市西区発寒９条１３丁目","voronoi":{"type":"Feature","geometry":{"type":"Polygon","coordinates":[[[141.301074,43.119347],[141.28604,43.094798],[141.260621,43.095064],[141.29564,43.152913],[141.301299,43.127948],[141.301074,43.119347]]]},"properties":{}}},
    {"code":1110312,"id":67,"name":"発寒中央","original_name":"発寒中央","name_kana":"はっさむちゅうおう","closed":false,"lat":43.089271,"lng":141.294497,"prefecture":1,"numbering":["S04"],"lines":[11103],"attr":"eco","postal_code":"063-0826","address":"札幌市西区発寒十条３丁目","voronoi":{"type":"Feature","geometry":{"type":"Polygon","coordinates":[[[141.301074,43.119347],[141.28604,43.094798],[141.285836,43.089675],[141.297686,43.081525],[141.299324,43.082684],[141.30806,43.097396],[141.301074,43.119347]]]},"properties":{}}},
    {"code":1110313,"id":68,"name":"琴似(JR)","original_name":"琴似","name_kana":"ことに","closed":false,"lat":43.081599,"lng":141.307418,"prefecture":1,"numbering":["S03"],"lines":[11103],"attr":"eco","postal_code":"063-0812","address":"札幌市西区琴似2条2丁目","voronoi":{"type":"Feature","geometry":{"type":"Polygon","coordinates":[[[141.308476,43.096995],[141.315172,43.078501],[141.31053,43.075778],[141.299324,43.082684],[141.30806,43.097396],[141.308476,43.096995]]]},"properties":{}}},
    {"code":1110314,"id":69,"name":"桑園","original_name":"桑園","name_kana":"そうえん","closed":false,"lat":43.070744,"lng":141.332036,"prefecture":1,"numbering":["S02"],"lines":[11103,11112],"attr":"eco","postal_code":"060-0011","address":"札幌市中央区北１１条西１５丁目","voronoi":{"type":"Feature","geometry":{"type":"Polygon","coordinates":[[[141.323205,43.065669],[141.322904,43.076001],[141.332448,43.084148],[141.334413,43.082853],[141.339387,43.07612],[141.34122,43.068777],[141.341026,43.067966],[141.335603,43.063962],[141.333862,43.063586],[141.323621,43.064968],[141.323205,43.065669]]]},"properties":{}}},
    {"code":1110315,"id":70,"name":"札幌","original_name":"札幌","name_kana":"さっぽろ","closed":false,"lat":43.068612,"lng":141.350768,"prefecture":1,"numbering":["01"],"lines":[11103,11109,11112],"attr":"eco","postal_code":"060-0806","address":"札幌市北区北６条西４丁目","voronoi":{"type":"Feature","geometry":{"type":"Polygon","coordinates":[[[141.359161,43.069618],[141.356592,43.066224],[141.342748,43.06912],[141.352585,43.072862],[141.359161,43.069618]]]},"properties":{}}},
    {"code":1110316,"id":71,"name":"苗穂","original_name":"苗穂","name_kana":"なえぼ","closed":false,"lat":43.06826,"lng":141.373471,"prefecture":1,"numbering":["H02"],"lines":[11103,11109],"attr":"eco","postal_code":"060-0033","address":"札幌市中央区北３条東１３丁目","voronoi":{"type":"Feature","geometry":{"type":"Polygon","coordinates":[[[141.364565,43.069239],[141.36788,43.063076],[141.382303,43.062074],[141.397197,43.07232],[141.397506,43.073237],[141.371621,43.075418],[141.364565,43.069239]]]},"properties":{}}},
    {"code":1110317,"id":72,"name":"白石(JR)","original_name":"白石","name_kana":"しろいし","closed":false,"lat":43.054715,"lng":141.413612,"prefecture":1,"numbering":["H03"],"lines":[11103,11109],"attr":"eco","postal_code":"003-0029","address":"札幌市白石区平和通3丁目北6","open_date":"1903-04-21","voronoi":{"type":"Feature","geometry":{"type":"Polygon","coordinates":[[[141.425067,43.048566],[141.420563,43.046405],[141.405994,43.048251],[141.398078,43.064167],[141.397197,43.07232],[141.397506,43.073237],[141.415557,43.098862],[141.423894,43.107698],[141.42589,43.108],[141.444034,43.108057],[141.425067,43.048566]]]},"properties":{}}},
    {"code":1110318,"id":73,"name":"厚別","original_name":"厚別","name_kana":"あつべつ","closed":false,"lat":43.045154,"lng":141.46369,"prefecture":1,"numbering":["A04"],"lines":[11103],"attr":"eco","postal_code":"004-0055","address":"札幌市厚別区厚別中央５条４丁目","voronoi":{"type":"Feature","geometry":{"type":"Polygon","coordinates":[[[141.450509,43.041471],[141.455957,43.038065],[141.465687,43.038776],[141.469764,43.044287],[141.47322,43.049698],[141.453259,43.080857],[141.450509,43.041471]]]},"properties":{}}},
    {"code":1110319,"id":74,"name":"森林公園(北海道)","original_name":"森林公園","name_kana":"しんりんこうえん","closed":false,"lat":43.056456,"lng":141.481332,"prefecture":1,"numbering":["A05"],"lines":[11103],"attr":"eco","postal_code":"004-0071","address":"札幌市厚別区厚別北１条４丁目","voronoi":{"type":"Feature","geometry":{"type":"Polygon","coordinates":[[[141.47322,43.049698],[141.497322,43.038248],[141.513416,43.040639],[141.448044,43.104644],[141.453259,43.080857],[141.47322,43.049698]]]},"properties":{}}},
    {"code":1110320,"id":75,"name":"大麻","original_name":"大麻","name_kana":"おおあさ","closed":false,"lat":43.072382,"lng":141.496925,"prefecture":1,"numbering":["A06"],"lines":[11103],"attr":"eco","postal_code":"069-0854","address":"江別市大麻中町","voronoi":{"type":"Feature","geometry":{"type":"Polygon","coordinates":[[[141.513416,43.040639],[141.448044,43.104644],[141.446356,43.108559],[141.462269,43.123545],[141.481523,43.134444],[141.542023,43.035749],[141.513416,43.040639]]]},"properties":{}}},
    {"code":1110321,"id":76,"name":"野幌","original_name":"野幌","name_kana":"のっぽろ","closed":false,"lat":43.092559,"lng":141.52984,"prefecture":1,"numbering":["A07"],"lines":[11103],"attr":"eco","postal_code":"069-0813","address":"江別市野幌町","voronoi":{"type":"Feature","geometry":{"type":"Polygon","coordinates":[[[141.481523,43.134444],[141.482129,43.135096],[141.498932,43.149053],[141.57183,43.043343],[141.543385,43.034991],[141.542023,43.035749],[141.481523,43.134444]]]},"properties":{}}},
    {"code":1110322,"id":77,"name":"高砂(北海道)","original_name":"高砂","name_kana":"たかさご","closed":false,"lat":43.100084,"lng":141.540752,"prefecture":1,"numbering":["A08"],"lines":[11103],"attr":"eco","postal_code":"067-0074","address":"江別市高砂町","voronoi":{"type":"Feature","geometry":{"type":"Polygon","coordinates":[[[141.515202,43.158415],[141.506128,43.156408],[141.498932,43.149053],[141.57183,43.043343],[141.586047,43.045974],[141.515202,43.158415]]]},"properties":{}}},
    {"code":1110323,"id":78,"name":"江別","original_name":"江別","name_kana":"えべつ","closed":false,"lat":43.110189,"lng":141.55679,"prefecture":1,"numbering":["A09"],"lines":[11103],"attr":"eco","postal_code":"067-0071","address":"江別市萩ケ岡","voronoi":{"type":"Feature","geometry":{"type":"Polygon","coordinates":[[[141.620012,43.047615],[141.586047,43.045974],[141.515202,43.158415],[141.545639,43.170119],[141.57204,43.171615],[141.620012,43.047615]]]},"properties":{}}},
    {"code":1110324,"id":79,"name":"豊幌","original_name":"豊幌","name_kana":"とよほろ","closed":false,"lat":43.136446,"lng":141.62466,"prefecture":1,"numbering":["A10"],"lines":[11103],"attr":"eco","postal_code":"067-0021","address":"江別市豊幌","voronoi":{"type":"Feature","geometry":{"type":"Polygon","coordinates":[[[141.595544,43.1902],[141.57204,43.171615],[141.620012,43.047615],[141.652145,43.035035],[141.671064,43.079426],[141.613703,43.199439],[141.595544,43.1902]]]},"properties":{}}},
    {"code":1110325,"id":80,"name":"幌向","original_name":"幌向","name_kana":"ほろむい","closed":false,"lat":43.151348,"lng":141.655839,"prefecture":1,"numbering":["A11"],"lines":[11103],"attr":"eco","postal_code":"069-0371","address":"岩見沢市幌向南１条３丁目","voronoi":{"type":"Feature","geometry":{"type":"Polygon","coordinates":[[[141.613703,43.199439],[141.671064,43.079426],[141.682746,43.095113],[141.69928,43.139891],[141.652988,43.230333],[141.640491,43.224108],[141.613703,43.199439]]]},"properties":{}}},
    {"code":1110326,"id":81,"name":"上幌向","original_name":"上幌向","name_kana":"かみほろむい","closed":false,"lat":43.18183,"lng":141.715391,"prefecture":1,"numbering":["A12"],"lines":[11103],"attr":"eco","postal_code":"069-0362","address":"岩見沢市上幌向南１条４丁目","voronoi":{"type":"Feature","geometry":{"type":"Polygon","coordinates":[[[141.701367,43.263786],[141.692785,43.261348],[141.669422,43.251007],[141.652988,43.230333],[141.69928,43.139891],[141.708863,43.143688],[141.741458,43.184991],[141.701367,43.263786]]]},"properties":{}}},
    {"code":1110327,"id":82,"name":"岩見沢","original_name":"岩見沢","name_kana":"いわみざわ","closed":false,"lat":43.204201,"lng":141.759359,"prefecture":1,"numbering":["A13"],"lines":[11103,11105],"attr":"eco","postal_code":"068-0034","address":"岩見沢市有明町南","voronoi":{"type":"Feature","geometry":{"type":"Polygon","coordinates":[[[141.870176,43.142606],[141.874879,43.143129],[141.879711,43.149689],[141.732626,43.284181],[141.701367,43.263786],[141.741458,43.184991],[141.870176,43.142606]]]},"properties":{}}},
    {"code":1110328,"id":83,"name":"峰延","original_name":"峰延","name_kana":"みねのぶ","closed":false,"lat":43.264694,"lng":141.814673,"prefecture":1,"numbering":["A14"],"lines":[11103],"attr":"eco","postal_code":"072-0000","address":"美唄市峰延","voronoi":{"type":"Feature","geometry":{"type":"Polygon","coordinates":[[[141.739903,43.291535],[141.787573,43.323804],[141.921866,43.179821],[141.879711,43.149689],[141.732626,43.284181],[141.732814,43.284537],[141.739903,43.291535]]]},"properties":{}}},
    {"code":1110329,"id":84,"name":"光珠内","original_name":"光珠内","name_kana":"こうしゅない","closed":false,"lat":43.292658,"lng":141.844655,"prefecture":1,"numbering":["A15"],"lines":[11103],"attr":"eco","postal_code":"072-0000","address":"美唄市光珠内","voronoi":{"type":"Feature","geometry":{"type":"Polygon","coordinates":[[[141.797876,43.337218],[141.787573,43.323804],[141.921866,43.179821],[142.025666,43.232559],[141.797876,43.337218]]]},"properties":{}}},
    {"code":1110331,"id":85,"name":"美唄","original_name":"美唄","name_kana":"びばい","closed":false,"lat":43.330751,"lng":141.862157,"prefecture":1,"numbering":["A16"],"lines":[11103],"attr":"eco","postal_code":"072-0012","address":"美唄市東一条南２丁目","voronoi":{"type":"Feature","geometry":{"type":"Polygon","coordinates":[[[142.025666,43.232559],[141.797876,43.337218],[141.79831,43.338505],[141.819642,43.364086],[142.092622,43.285853],[142.103495,43.26185],[142.025666,43.232559]]]},"properties":{}}},
    {"code":1110332,"id":86,"name":"茶志内","original_name":"茶志内","name_kana":"ちゃしない","closed":false,"lat":43.369842,"lng":141.87336,"prefecture":1,"numbering":["A17"],"lines":[11103],"attr":"eco","postal_code":"079-0261","address":"美唄市茶志内町","voronoi":{"type":"Feature","geometry":{"type":"Polygon","coordinates":[[[142.092622,43.285853],[141.819642,43.364086],[141.821845,43.370983],[141.8376,43.393288],[141.85105,43.405608],[142.066851,43.342501],[142.077226,43.329566],[142.092622,43.285853]]]},"properties":{}}},
    {"code":1110333,"id":87,"name":"奈井江","original_name":"奈井江","name_kana":"ないえ","closed":false,"lat":43.423718,"lng":141.889115,"prefecture":1,"numbering":["A18"],"lines":[11103],"attr":"eco","postal_code":"079-0313","address":"空知郡奈井江町本町１区","voronoi":{"type":"Feature","geometry":{"type":"Polygon","coordinates":[[[141.85105,43.405608],[141.852862,43.423543],[141.871938,43.450778],[142.030604,43.404097],[142.066851,43.342501],[141.85105,43.405608]]]},"properties":{}}},
    {"code":1110334,"id":88,"name":"豊沼","original_name":"豊沼","name_kana":"とよぬま","closed":false,"lat":43.464224,"lng":141.901032,"prefecture":1,"numbering":["A19"],"lines":[11103],"attr":"eco","postal_code":"073-0138","address":"砂川市豊沼町","voronoi":{"type":"Feature","geometry":{"type":"Polygon","coordinates":[[[141.880565,43.486139],[142.013263,43.44707],[142.030604,43.404097],[141.871938,43.450778],[141.870226,43.466563],[141.870639,43.469298],[141.874112,43.478517],[141.880565,43.486139]]]},"properties":{}}},
    {"code":1110335,"id":89,"name":"砂川","original_name":"砂川","name_kana":"すながわ","closed":false,"lat":43.493468,"lng":141.909642,"prefecture":1,"numbering":["A20"],"lines":[11103],"attr":"eco","postal_code":"073-0152","address":"砂川市東２条北２丁目","voronoi":{"type":"Feature","geometry":{"type":"Polygon","coordinates":[[[141.880565,43.486139],[141.885529,43.51518],[141.897389,43.523253],[141.948601,43.530573],[141.994066,43.490695],[142.013054,43.447893],[142.013263,43.44707],[141.880565,43.486139]]]},"properties":{}}},
    {"code":1110340,"id":90,"name":"滝川","original_name":"滝川","name_kana":"たきかわ","closed":false,"lat":43.555278,"lng":141.900807,"prefecture":1,"numbering":["A21"],"lines":[11103,11106],"attr":"eco","postal_code":"073-0031","address":"滝川市栄町４丁目","voronoi":{"type":"Feature","geometry":{"type":"Polygon","coordinates":[[[141.948601,43.530573],[141.897389,43.523253],[141.862699,43.618477],[141.936299,43.582709],[141.948601,43.530573]]]},"properties":{}}},
    {"code":1110341,"id":91,"name":"江部乙","original_name":"江部乙","name_kana":"えべおつ","closed":false,"lat":43.627564,"lng":141.935937,"prefecture":1,"numbering":["A22"],"lines":[11103],"attr":"heat","postal_code":"079-0462","address":"滝川市江部乙町西町１２丁目","voronoi":{"type":"Feature","geometry":{"type":"Polygon","coordinates":[[[141.8336,43.716204],[141.775547,43.685761],[141.774484,43.684933],[141.862699,43.618477],[141.936299,43.582709],[142.000059,43.635564],[141.8336,43.716204]]]},"properties":{}}},
    {"code":1110342,"id":92,"name":"妹背牛","original_name":"妹背牛","name_kana":"もせうし","closed":false,"lat":43.690841,"lng":141.966591,"prefecture":1,"numbering":["A23"],"lines":[11103],"attr":"heat","postal_code":"079-0500","address":"雨竜郡妹背牛町字妹背牛","voronoi":{"type":"Feature","geometry":{"type":"Polygon","coordinates":[[[141.8336,43.716204],[141.837507,43.719812],[141.879765,43.731272],[141.976405,43.729832],[142.005512,43.70246],[142.030954,43.639193],[142.000059,43.635564],[141.8336,43.716204]]]},"properties":{}}},
    {"code":1110343,"id":93,"name":"深川","original_name":"深川","name_kana":"ふかがわ","closed":false,"lat":43.721021,"lng":142.041642,"prefecture":1,"numbering":["A24"],"lines":[11103,11113],"attr":"heat","postal_code":"074-0001","address":"深川市１条","voronoi":{"type":"Feature","geometry":{"type":"Polygon","coordinates":[[[142.077093,43.794224],[142.005512,43.70246],[142.030954,43.639193],[142.034678,43.637639],[142.097092,43.640283],[142.077093,43.794224]]]},"properties":{}}},
    {"code":1110344,"id":94,"name":"納内","original_name":"納内","name_kana":"おさむない","closed":false,"lat":43.732509,"lng":142.130072,"prefecture":1,"numbering":["A25"],"lines":[11103],"attr":"heat","postal_code":"078-0151","address":"深川市納内町字納内","voronoi":{"type":"Feature","geometry":{"type":"Polygon","coordinates":[[[142.151143,43.976551],[142.123885,43.994129],[142.083728,43.874675],[142.077093,43.794224],[142.097092,43.640283],[142.102621,43.637745],[142.166583,43.63567],[142.165345,43.911253],[142.151143,43.976551]]]},"properties":{}}},
    {"code":1110345,"id":9337,"name":"神居古潭","original_name":"神居古潭","name_kana":"かむいこたん","closed":true,"lat":43.732833,"lng":142.202222,"prefecture":1,"lines":[11103],"attr":"unknown","postal_code":"078-0185","address":"北海道旭川市神居町神居古潭","voronoi":{"type":"Feature","geometry":{"type":"Polygon","coordinates":[[[142.2743,43.618118],[142.27698,43.628247],[142.28047,43.648874],[142.165345,43.911253],[142.166583,43.63567],[142.193281,43.624743],[142.2743,43.618118]]]},"properties":{}}},
    {"code":1110346,"id":95,"name":"伊納","original_name":"伊納","name_kana":"いのう","closed":true,"lat":43.763305,"lng":142.27167,"prefecture":1,"numbering":["A26"],"lines":[11103],"attr":"unknown","postal_code":"070-8052","address":"旭川市江丹別町春日","open_date":"1898-07-16","closed_date":"2021-03-13","voronoi":{"type":"Feature","geometry":{"type":"Polygon","coordinates":[[[142.28047,43.648874],[142.165345,43.911253],[142.151143,43.976551],[142.209761,43.960172],[142.313195,43.745788],[142.30517,43.707758],[142.297609,43.6857],[142.286895,43.660515],[142.28047,43.648874]]]},"properties":{}}},
    {"code":1110347,"id":96,"name":"近文","original_name":"近文","name_kana":"ちかぶみ","closed":false,"lat":43.789193,"lng":142.325327,"prefecture":1,"numbering":["A27"],"lines":[11103],"attr":"heat","postal_code":"070-0821","address":"旭川市近文町１９丁目","voronoi":{"type":"Feature","geometry":{"type":"Polygon","coordinates":[[[142.209761,43.960172],[142.228169,43.957809],[142.254498,43.951899],[142.327213,43.924377],[142.356664,43.902979],[142.36649,43.860055],[142.356692,43.795457],[142.323418,43.753411],[142.313195,43.745788],[142.209761,43.960172]]]},"properties":{}}},
    {"code":1110348,"id":97,"name":"旭川","original_name":"旭川","name_kana":"あさひかわ","closed":false,"lat":43.763492,"lng":142.357803,"prefecture":1,"numbering":["A28"],"lines":[11103,11114,11115,11116],"attr":"heat","postal_code":"070-0030","address":"旭川市宮下通８丁目","voronoi":{"type":"Feature","geometry":{"type":"Polygon","coordinates":[[[142.323418,43.753411],[142.356692,43.795457],[142.366304,43.779909],[142.3671,43.754486],[142.323418,43.753411]]]},"properties":{}}}
  ]
}