{
  "code":11105,
  "id":"96c7b5",
  "name":"JR室蘭本線(苫小牧～岩見沢)",
  "name_kana":"じぇいあーるむろらんほんせん",
  "station_size":14,
  "company_code":1,
  "closed":false,
  "station_list":[
    {"code":1110434,"id":"214559","name":"苫小牧","original_name":"苫小牧","name_kana":"とまこまい","closed":false,"lat":42.639665,"lng":141.596837,"prefecture":1,"numbering":["H18"],"lines":[11104,11105,11109,11111],"attr":"eco","postal_code":"053-0022","address":"苫小牧市表町６丁目","voronoi":{"type":"Feature","geometry":{"type":"Polygon","coordinates":[[[141.580552,42.746704],[141.563833,42.751592],[141.542095,42.754266],[141.651506,42.431302],[141.660814,42.608804],[141.622426,42.722922],[141.580552,42.746704]]]},"properties":{}}},
    {"code":1110502,"id":"c65c99","name":"沼ノ端","original_name":"沼ノ端","name_kana":"ぬまのはた","closed":false,"lat":42.672057,"lng":141.693132,"prefecture":1,"numbering":["H17"],"lines":[11105,11109],"attr":"eco","postal_code":"059-1364","address":"苫小牧市字沼ノ端","voronoi":{"type":"Feature","geometry":{"type":"Polygon","coordinates":[[[141.660814,42.608804],[141.622426,42.722922],[141.678343,42.728881],[141.678822,42.728798],[141.733787,42.673008],[141.660814,42.608804]]]},"properties":{}}},
    {"code":1110503,"id":"50b356","name":"遠浅","original_name":"遠浅","name_kana":"とあさ","closed":false,"lat":42.729533,"lng":141.769568,"prefecture":1,"lines":[11105],"attr":"heat","postal_code":"059-1433","address":"勇払郡安平町遠浅","voronoi":{"type":"Feature","geometry":{"type":"Polygon","coordinates":[[[141.764022,42.782082],[141.738672,42.751281],[141.77691,42.668913],[141.792478,42.66217],[141.839452,42.687989],[141.764022,42.782082]]]},"properties":{}}},
    {"code":1110504,"id":"5413b1","name":"早来","original_name":"早来","name_kana":"はやきた","closed":false,"lat":42.765237,"lng":141.814106,"prefecture":1,"lines":[11105],"attr":"heat","postal_code":"059-1501","address":"勇払郡安平町早来大町","voronoi":{"type":"Feature","geometry":{"type":"Polygon","coordinates":[[[141.983151,42.73937],[141.941793,42.714996],[141.893738,42.695854],[141.839452,42.687989],[141.764022,42.782082],[141.766365,42.801844],[141.968765,42.755458],[141.983151,42.73937]]]},"properties":{}}},
    {"code":1110505,"id":"bb1c03","name":"安平","original_name":"安平","name_kana":"あびら","closed":false,"lat":42.814007,"lng":141.825283,"prefecture":1,"lines":[11105],"attr":"cool","postal_code":"059-1511","address":"勇払郡安平町安平","voronoi":{"type":"Feature","geometry":{"type":"Polygon","coordinates":[[[141.968765,42.755458],[141.766365,42.801844],[141.7577,42.828817],[141.865258,42.855304],[141.874189,42.854597],[141.93023,42.81592],[141.968765,42.755458]]]},"properties":{}}},
    {"code":1110506,"id":"1b2ea5","name":"追分(北海道)","original_name":"追分","name_kana":"おいわけ","closed":false,"lat":42.873316,"lng":141.810678,"prefecture":1,"numbering":["K15"],"lines":[11105,11110],"attr":"cool","postal_code":"059-1931","address":"勇払郡安平町追分中央","voronoi":{"type":"Feature","geometry":{"type":"Polygon","coordinates":[[[141.718103,42.897076],[141.794816,42.907666],[141.865258,42.855304],[141.7577,42.828817],[141.739827,42.847323],[141.721389,42.885537],[141.718103,42.897076]]]},"properties":{}}},
    {"code":1110507,"id":"d4f11f","name":"三川(北海道)","original_name":"三川","name_kana":"みかわ","closed":false,"lat":42.945029,"lng":141.800778,"prefecture":1,"lines":[11105],"attr":"cool","postal_code":"069-1200","address":"夕張郡由仁町三川","voronoi":{"type":"Feature","geometry":{"type":"Polygon","coordinates":[[[141.718103,42.897076],[141.794816,42.907666],[141.854941,42.952073],[141.862254,42.974758],[141.692126,42.936434],[141.701923,42.917674],[141.718103,42.897076]]]},"properties":{}}},
    {"code":1110508,"id":"c5cb7a","name":"古山","original_name":"古山","name_kana":"ふるさん","closed":false,"lat":42.975256,"lng":141.793969,"prefecture":1,"lines":[11105],"attr":"eco","postal_code":"069-1216","address":"夕張郡由仁町字古山","voronoi":{"type":"Feature","geometry":{"type":"Polygon","coordinates":[[[141.862254,42.974758],[141.880225,43.004689],[141.87715,43.012856],[141.678657,42.969338],[141.683389,42.949525],[141.686132,42.94476],[141.692126,42.936434],[141.862254,42.974758]]]},"properties":{}}},
    {"code":1110509,"id":"f483c5","name":"由仁","original_name":"由仁","name_kana":"ゆに","closed":false,"lat":43.012206,"lng":141.785868,"prefecture":1,"lines":[11105],"attr":"eco","postal_code":"069-1216","address":"夕張郡由仁町古山","voronoi":{"type":"Feature","geometry":{"type":"Polygon","coordinates":[[[141.715264,43.020562],[141.674257,42.997306],[141.678256,42.970288],[141.678657,42.969338],[141.87715,43.012856],[141.870681,43.055275],[141.715264,43.020562]]]},"properties":{}}},
    {"code":1110510,"id":"f048cb","name":"栗山","original_name":"栗山","name_kana":"くりやま","closed":false,"lat":43.058164,"lng":141.775603,"prefecture":1,"lines":[11105],"attr":"eco","postal_code":"069-1511","address":"夕張郡栗山町中央３丁目","voronoi":{"type":"Feature","geometry":{"type":"Polygon","coordinates":[[[141.872109,43.069685],[141.870681,43.055275],[141.715264,43.020562],[141.792937,43.109595],[141.827067,43.129271],[141.870176,43.142606],[141.874879,43.143129],[141.872109,43.069685]]]},"properties":{}}},
    {"code":1110511,"id":"d0f285","name":"栗丘","original_name":"栗丘","name_kana":"くりおか","closed":false,"lat":43.085444,"lng":141.744333,"prefecture":1,"lines":[11105],"attr":"eco","postal_code":"068-0134","address":"岩見沢市栗沢町栗丘","voronoi":{"type":"Feature","geometry":{"type":"Polygon","coordinates":[[[141.715264,43.020562],[141.674257,42.997306],[141.652145,43.035035],[141.671064,43.079426],[141.682746,43.095113],[141.792937,43.109595],[141.715264,43.020562]]]},"properties":{}}},
    {"code":1110512,"id":"31ef24","name":"栗沢","original_name":"栗沢","name_kana":"くりさわ","closed":false,"lat":43.120367,"lng":141.739743,"prefecture":1,"lines":[11105],"attr":"eco","postal_code":"068-0127","address":"岩見沢市栗沢町本町","voronoi":{"type":"Feature","geometry":{"type":"Polygon","coordinates":[[[141.827067,43.129271],[141.708863,43.143688],[141.69928,43.139891],[141.682746,43.095113],[141.792937,43.109595],[141.827067,43.129271]]]},"properties":{}}},
    {"code":1110513,"id":"4b68e1","name":"志文","original_name":"志文","name_kana":"しぶん","closed":false,"lat":43.158903,"lng":141.744443,"prefecture":1,"lines":[11105],"attr":"eco","postal_code":"068-0841","address":"岩見沢市志文本町１条４丁目","voronoi":{"type":"Feature","geometry":{"type":"Polygon","coordinates":[[[141.827067,43.129271],[141.708863,43.143688],[141.741458,43.184991],[141.870176,43.142606],[141.827067,43.129271]]]},"properties":{}}},
    {"code":1110327,"id":"b5182e","name":"岩見沢","original_name":"岩見沢","name_kana":"いわみざわ","closed":false,"lat":43.204201,"lng":141.759359,"prefecture":1,"numbering":["A13"],"lines":[11103,11105],"attr":"eco","postal_code":"068-0034","address":"岩見沢市有明町南","voronoi":{"type":"Feature","geometry":{"type":"Polygon","coordinates":[[[141.870176,43.142606],[141.874879,43.143129],[141.879711,43.149689],[141.732626,43.284181],[141.701367,43.263786],[141.741458,43.184991],[141.870176,43.142606]]]},"properties":{}}}
  ]
}