{
  "code":11208,
  "id":"8cbf9c",
  "name":"JR大船渡線(ドラゴンレール大船渡線)",
  "name_kana":"じぇいあーるおおふなとせん",
  "name_formal":"JR大船渡線",
  "station_size":39,
  "company_code":2,
  "closed":false,
  "color":"#F18E44",
  "station_list":[
    {"code":100414,"id":"121ad9","name":"一ノ関","original_name":"一ノ関","name_kana":"いちのせき","closed":false,"lat":38.926514,"lng":141.138177,"prefecture":3,"lines":[1004,11231,11208],"attr":"cool","postal_code":"021-0867","address":"一関市駅前","voronoi":{"type":"Feature","geometry":{"type":"Polygon","coordinates":[[[141.054947,38.918627],[141.146412,38.892054],[141.172267,38.948295],[141.054947,38.918627]]]},"properties":{}}},
    {"code":1120802,"id":"e2b9d9","name":"真滝","original_name":"真滝","name_kana":"またき","closed":false,"lat":38.908239,"lng":141.17793,"prefecture":3,"lines":[11208],"attr":"cool","postal_code":"029-0132","address":"一関市滝沢","voronoi":{"type":"Feature","geometry":{"type":"Polygon","coordinates":[[[141.185439,38.962384],[141.172267,38.948295],[141.146412,38.892054],[141.148559,38.889063],[141.193238,38.871171],[141.219389,38.871898],[141.213041,38.925569],[141.19779,38.951623],[141.185439,38.962384]]]},"properties":{}}},
    {"code":1120803,"id":"698616","name":"陸中門崎","original_name":"陸中門崎","name_kana":"りくちゅうかんざき","closed":false,"lat":38.916908,"lng":141.251226,"prefecture":3,"lines":[11208],"attr":"cool","postal_code":"029-0201","address":"一関市川崎町門崎","voronoi":{"type":"Feature","geometry":{"type":"Polygon","coordinates":[[[141.308893,38.796852],[141.296685,38.941553],[141.213041,38.925569],[141.219389,38.871898],[141.303481,38.800264],[141.308893,38.796852]]]},"properties":{}}},
    {"code":1120804,"id":"f43e4e","name":"岩ノ下","original_name":"岩ノ下","name_kana":"いわのした","closed":false,"lat":38.947699,"lng":141.245342,"prefecture":3,"lines":[11208],"attr":"cool","postal_code":"029-0303","address":"一関市東山町松川","voronoi":{"type":"Feature","geometry":{"type":"Polygon","coordinates":[[[141.296685,38.941553],[141.213041,38.925569],[141.19779,38.951623],[141.258346,38.966581],[141.274808,38.963416],[141.296091,38.951707],[141.298231,38.948349],[141.296685,38.941553]]]},"properties":{}}},
    {"code":1120805,"id":"d8bb5e","name":"陸中松川","original_name":"陸中松川","name_kana":"りくちゅうまつかわ","closed":false,"lat":38.977237,"lng":141.238046,"prefecture":3,"lines":[11208],"attr":"cool","postal_code":"029-0303","address":"一関市東山町松川","voronoi":{"type":"Feature","geometry":{"type":"Polygon","coordinates":[[[141.185439,38.962384],[141.178603,38.990306],[141.180372,39.010189],[141.200552,39.041769],[141.258346,38.966581],[141.19779,38.951623],[141.185439,38.962384]]]},"properties":{}}},
    {"code":1120806,"id":"274007","name":"猊鼻渓","original_name":"猊鼻渓","name_kana":"げいびけい","closed":false,"lat":38.988939,"lng":141.25327,"prefecture":3,"lines":[11208],"attr":"cool","postal_code":"029-0302","address":"一関市東山町長坂","voronoi":{"type":"Feature","geometry":{"type":"Polygon","coordinates":[[[141.230785,39.071166],[141.221004,39.067127],[141.203875,39.048833],[141.200552,39.041769],[141.258346,38.966581],[141.274808,38.963416],[141.230785,39.071166]]]},"properties":{}}},
    {"code":1120807,"id":"b67554","name":"柴宿","original_name":"柴宿","name_kana":"しばじゅく","closed":false,"lat":38.996719,"lng":141.272312,"prefecture":3,"lines":[11208],"attr":"cool","postal_code":"029-0302","address":"一関市東山町長坂","voronoi":{"type":"Feature","geometry":{"type":"Polygon","coordinates":[[[141.296091,38.951707],[141.298358,39.10919],[141.230785,39.071166],[141.274808,38.963416],[141.296091,38.951707]]]},"properties":{}}},
    {"code":1120808,"id":"844c35","name":"摺沢","original_name":"摺沢","name_kana":"すりさわ","closed":false,"lat":38.996016,"lng":141.321156,"prefecture":3,"lines":[11208],"attr":"cool","postal_code":"029-0523","address":"一関市大東町摺沢","voronoi":{"type":"Feature","geometry":{"type":"Polygon","coordinates":[[[141.438058,39.128096],[141.346239,39.151673],[141.298358,39.10919],[141.296091,38.951707],[141.298231,38.948349],[141.35702,38.968573],[141.401786,39.012987],[141.420923,39.046945],[141.441506,39.094664],[141.438058,39.128096]]]},"properties":{}}},
    {"code":1120809,"id":"66ef71","name":"千厩","original_name":"千厩","name_kana":"せんまや","closed":false,"lat":38.924873,"lng":141.34563,"prefecture":3,"lines":[11208],"attr":"cool","postal_code":"029-0803","address":"一関市千厩町千厩","voronoi":{"type":"Feature","geometry":{"type":"Polygon","coordinates":[[[141.296685,38.941553],[141.308893,38.796852],[141.323682,38.777182],[141.336779,38.777564],[141.366796,38.790653],[141.387531,38.814218],[141.35702,38.968573],[141.298231,38.948349],[141.296685,38.941553]]]},"properties":{}}},
    {"code":1120810,"id":"f78890","name":"小梨","original_name":"小梨","name_kana":"こなし","closed":false,"lat":38.932493,"lng":141.38418,"prefecture":3,"lines":[11208],"attr":"cool","postal_code":"029-0801","address":"一関市千厩町清田","voronoi":{"type":"Feature","geometry":{"type":"Polygon","coordinates":[[[141.412647,38.834627],[141.387531,38.814218],[141.35702,38.968573],[141.401786,39.012987],[141.412647,38.834627]]]},"properties":{}}},
    {"code":1120811,"id":"e5ca39","name":"矢越","original_name":"矢越","name_kana":"やごし","closed":false,"lat":38.935224,"lng":141.429029,"prefecture":3,"lines":[11208],"attr":"cool","postal_code":"029-1202","address":"一関市室根町矢越","voronoi":{"type":"Feature","geometry":{"type":"Polygon","coordinates":[[[141.420923,39.046945],[141.401786,39.012987],[141.412647,38.834627],[141.4323,38.844367],[141.448534,38.893806],[141.420923,39.046945]]]},"properties":{}}},
    {"code":1120812,"id":"bf1a90","name":"折壁","original_name":"折壁","name_kana":"おりかべ","closed":false,"lat":38.939428,"lng":141.452346,"prefecture":3,"lines":[11208],"attr":"cool","postal_code":"029-1201","address":"一関市室根町折壁","voronoi":{"type":"Feature","geometry":{"type":"Polygon","coordinates":[[[141.448534,38.893806],[141.420923,39.046945],[141.441506,39.094664],[141.499344,39.006332],[141.504282,38.979076],[141.448534,38.893806]]]},"properties":{}}},
    {"code":1120813,"id":"65dd22","name":"新月","original_name":"新月","name_kana":"にいつき","closed":false,"lat":38.915598,"lng":141.488796,"prefecture":3,"lines":[11208],"attr":"cool","postal_code":"029-1201","address":"一関市室根町折壁","voronoi":{"type":"Feature","geometry":{"type":"Polygon","coordinates":[[[141.526076,38.940918],[141.504282,38.979076],[141.448534,38.893806],[141.4323,38.844367],[141.49988,38.851617],[141.510493,38.855639],[141.519661,38.880811],[141.522159,38.891595],[141.526076,38.940918]]]},"properties":{}}},
    {"code":1120814,"id":"954e0e","name":"気仙沼","original_name":"気仙沼","name_kana":"けせんぬま","closed":false,"lat":38.910031,"lng":141.558893,"prefecture":4,"lines":[11208],"attr":"eco","postal_code":"988-0077","address":"気仙沼市古町","voronoi":{"type":"Feature","geometry":{"type":"Polygon","coordinates":[[[141.526076,38.940918],[141.522159,38.891595],[141.571229,38.907682],[141.5648,38.933121],[141.56406,38.934908],[141.526076,38.940918]]]},"properties":{}}},
    {"code":1120815,"id":"73f44e","name":"鹿折唐桑","original_name":"鹿折唐桑","name_kana":"ししおりからくわ","closed":true,"lat":38.91561,"lng":141.580968,"prefecture":4,"lines":[11208],"attr":"unknown","postal_code":"988-0005","address":"気仙沼市新浜町","closed_date":"2020-04-01","voronoi":{"type":"Feature","geometry":{"type":"Polygon","coordinates":[[[141.582051,38.900011],[141.604395,38.901084],[141.5648,38.933121],[141.571229,38.907682],[141.572647,38.906168],[141.582051,38.900011]]]},"properties":{}}},
    {"code":1120816,"id":"71c9e8","name":"上鹿折","original_name":"上鹿折","name_kana":"かみししおり","closed":true,"lat":38.960166,"lng":141.566825,"prefecture":4,"lines":[11208],"attr":"unknown","postal_code":"988-0803","address":"気仙沼市字上東側","closed_date":"2020-04-01","voronoi":{"type":"Feature","geometry":{"type":"Polygon","coordinates":[[[141.499344,39.006332],[141.504282,38.979076],[141.526076,38.940918],[141.56406,38.934908],[141.599382,38.951555],[141.599164,38.960306],[141.586058,38.986489],[141.583367,38.989345],[141.499344,39.006332]]]},"properties":{}}},
    {"code":1120826,"id":"0e7a43","name":"八幡大橋（東陵高校）","original_name":"八幡大橋（東陵高校）","name_kana":"はちまんおおはし（とうりょうこうこう）","closed":true,"lat":38.920964,"lng":141.5853,"prefecture":4,"lines":[11208],"attr":"unknown","postal_code":"988-0811","address":"宮城県気仙沼市東八幡前","voronoi":{"type":"Feature","geometry":{"type":"Polygon","coordinates":[[[141.646904,38.897794],[141.604395,38.901084],[141.5648,38.933121],[141.56406,38.934908],[141.599382,38.951555],[141.646904,38.897794]]]},"properties":{}}},
    {"code":1120827,"id":"1c1a6e","name":"唐桑大沢","original_name":"唐桑大沢","name_kana":"からくわおおさわ","closed":true,"lat":38.961776,"lng":141.63147,"prefecture":4,"lines":[11208],"attr":"unknown","postal_code":"988-0505","address":"宮城県気仙沼市唐桑町港７４","voronoi":{"type":"Feature","geometry":{"type":"Polygon","coordinates":[[[141.649293,38.986701],[141.599164,38.960306],[141.599382,38.951555],[141.646904,38.897794],[141.668041,38.884411],[141.683088,38.876155],[141.711066,38.862828],[141.667294,38.971098],[141.662393,38.978165],[141.652135,38.986412],[141.64995,38.986763],[141.649293,38.986701]]]},"properties":{}}},
    {"code":1120828,"id":"2a8923","name":"長部","original_name":"長部","name_kana":"おさべ","closed":true,"lat":38.98611,"lng":141.618657,"prefecture":3,"lines":[11208],"attr":"unknown","postal_code":"029-2204","address":"岩手県陸前高田市気仙町水上","voronoi":{"type":"Feature","geometry":{"type":"Polygon","coordinates":[[[141.62276,38.99704],[141.586058,38.986489],[141.599164,38.960306],[141.649293,38.986701],[141.62276,38.99704]]]},"properties":{}}},
    {"code":1120829,"id":"ddeb03","name":"陸前今泉","original_name":"陸前今泉","name_kana":"りくぜんいまいずみ","closed":true,"lat":39.004122,"lng":141.613479,"prefecture":3,"lines":[11208],"attr":"unknown","postal_code":"029-2204","address":"岩手県陸前高田市気仙町愛宕下","voronoi":{"type":"Feature","geometry":{"type":"Polygon","coordinates":[[[141.618,39.01441],[141.62276,38.99704],[141.586058,38.986489],[141.583367,38.989345],[141.598593,39.017288],[141.612565,39.01916],[141.615961,39.017384],[141.618,39.01441]]]},"properties":{}}},
    {"code":1120830,"id":"36c692","name":"奇跡の一本松","original_name":"奇跡の一本松","name_kana":"きせきのいっぽんまつ","closed":true,"lat":39.007864,"lng":141.627134,"prefecture":3,"lines":[11208],"attr":"unknown","postal_code":"029-2204","address":"岩手県陸前高田市気仙町砂盛２７４−１１","voronoi":{"type":"Feature","geometry":{"type":"Polygon","coordinates":[[[141.64995,38.986763],[141.649293,38.986701],[141.62276,38.99704],[141.618,39.01441],[141.632434,39.01013],[141.635834,39.008719],[141.64995,38.986763]]]},"properties":{}}},
    {"code":1120817,"id":"bc9981","name":"陸前矢作","original_name":"陸前矢作","name_kana":"りくぜんやはぎ","closed":true,"lat":39.022659,"lng":141.579459,"prefecture":3,"lines":[11208],"attr":"unknown","postal_code":"029-2201","address":"陸前高田市矢作町字打越","closed_date":"2020-04-01","voronoi":{"type":"Feature","geometry":{"type":"Polygon","coordinates":[[[141.598593,39.017288],[141.550311,39.146164],[141.47524,39.15119],[141.46675,39.146729],[141.438058,39.128096],[141.441506,39.094664],[141.499344,39.006332],[141.583367,38.989345],[141.598593,39.017288]]]},"properties":{}}},
    {"code":1120818,"id":"e846ea","name":"竹駒","original_name":"竹駒","name_kana":"たけこま","closed":true,"lat":39.033909,"lng":141.609488,"prefecture":3,"lines":[11208],"attr":"unknown","postal_code":"029-2203","address":"陸前高田市竹駒町字十日市場","closed_date":"2020-04-01","voronoi":{"type":"Feature","geometry":{"type":"Polygon","coordinates":[[[141.550311,39.146164],[141.598593,39.017288],[141.612565,39.01916],[141.638308,39.078486],[141.642433,39.094257],[141.615442,39.146345],[141.598853,39.149073],[141.550311,39.146164]]]},"properties":{}}},
    {"code":1120831,"id":"fb05df","name":"栃ヶ沢公園","original_name":"栃ヶ沢公園","name_kana":"とちがさわこうえん","closed":true,"lat":39.026988,"lng":141.625438,"prefecture":3,"lines":[11208],"attr":"unknown","postal_code":"029-2205","address":"岩手県陸前高田市高田町鳴石","voronoi":{"type":"Feature","geometry":{"type":"Polygon","coordinates":[[[141.633273,39.023518],[141.626814,39.020791],[141.615961,39.017384],[141.612565,39.01916],[141.638308,39.078486],[141.633273,39.023518]]]},"properties":{}}},
    {"code":1120819,"id":"39ceda","name":"陸前高田","original_name":"陸前高田","name_kana":"りくぜんたかた","closed":true,"lat":39.014919,"lng":141.629226,"prefecture":3,"lines":[11208],"attr":"unknown","postal_code":"029-2205","address":"陸前高田市高田町字並杉","closed_date":"2020-04-01","voronoi":{"type":"Feature","geometry":{"type":"Polygon","coordinates":[[[141.618,39.01441],[141.615961,39.017384],[141.626814,39.020791],[141.632434,39.01013],[141.618,39.01441]]]},"properties":{}}},
    {"code":1120832,"id":"1d3745","name":"まちなか陸前高田","original_name":"まちなか陸前高田","name_kana":"まちなかりくぜんたかた","closed":true,"lat":39.015483,"lng":141.630296,"prefecture":3,"lines":[11208],"attr":"unknown","postal_code":"029-2205","address":"岩手県陸前高田市高田町館の沖８５","voronoi":{"type":"Feature","geometry":{"type":"Polygon","coordinates":[[[141.632434,39.01013],[141.626814,39.020791],[141.633273,39.023518],[141.634784,39.021813],[141.635834,39.008719],[141.632434,39.01013]]]},"properties":{}}},
    {"code":1120833,"id":"ad4084","name":"高田高校前","original_name":"高田高校前","name_kana":"たかたこうこうまえ","closed":true,"lat":39.016279,"lng":141.640223,"prefecture":3,"lines":[11208],"attr":"unknown","postal_code":"029-2205","address":"岩手県陸前高田市高田町長砂","voronoi":{"type":"Feature","geometry":{"type":"Polygon","coordinates":[[[141.634784,39.021813],[141.635834,39.008719],[141.64995,38.986763],[141.652135,38.986412],[141.65661,39.018537],[141.634784,39.021813]]]},"properties":{}}},
    {"code":1120834,"id":"bb069d","name":"高田病院","original_name":"高田病院","name_kana":"たかたびょういん","closed":true,"lat":39.025507,"lng":141.641608,"prefecture":3,"lines":[11208],"attr":"unknown","postal_code":"029-2206","address":"岩手県陸前高田市米崎町野沢","voronoi":{"type":"Feature","geometry":{"type":"Polygon","coordinates":[[[141.668621,39.064515],[141.67412,39.057293],[141.65661,39.018537],[141.634784,39.021813],[141.633273,39.023518],[141.638308,39.078486],[141.642433,39.094257],[141.668621,39.064515]]]},"properties":{}}},
    {"code":1120820,"id":"c06aff","name":"脇ノ沢","original_name":"脇ノ沢","name_kana":"わきのさわ","closed":true,"lat":39.011886,"lng":141.671756,"prefecture":3,"lines":[11208],"attr":"unknown","postal_code":"029-2206","address":"陸前高田市米崎町字脇の沢","closed_date":"2020-04-01","voronoi":{"type":"Feature","geometry":{"type":"Polygon","coordinates":[[[141.67412,39.057293],[141.676991,39.055542],[141.678423,39.053761],[141.690807,39.023678],[141.662393,38.978165],[141.652135,38.986412],[141.65661,39.018537],[141.67412,39.057293]]]},"properties":{}}},
    {"code":1120835,"id":"e80a1f","name":"西下","original_name":"西下","name_kana":"にしした","closed":true,"lat":39.001384,"lng":141.688578,"prefecture":3,"lines":[11208],"attr":"unknown","postal_code":"029-2207","address":"岩手県陸前高田市小友町唐笠松","voronoi":{"type":"Feature","geometry":{"type":"Polygon","coordinates":[[[141.690807,39.023678],[141.662393,38.978165],[141.667294,38.971098],[141.699902,39.000634],[141.699202,39.012053],[141.694143,39.020741],[141.690807,39.023678]]]},"properties":{}}},
    {"code":1120821,"id":"788873","name":"小友","original_name":"小友","name_kana":"おとも","closed":true,"lat":38.989292,"lng":141.699531,"prefecture":3,"lines":[11208],"attr":"unknown","postal_code":"029-2207","address":"陸前高田市小友町字下新田","closed_date":"2020-04-01","voronoi":{"type":"Feature","geometry":{"type":"Polygon","coordinates":[[[142.010275,38.622506],[141.754318,38.823512],[141.711066,38.862828],[141.667294,38.971098],[141.699902,39.000634],[141.843235,38.878054],[142.010275,38.622506]]]},"properties":{}}},
    {"code":1120836,"id":"74ae73","name":"碁石海岸口","original_name":"碁石海岸口","name_kana":"ごいしかいがんぐち","closed":true,"lat":39.00276,"lng":141.711049,"prefecture":3,"lines":[11208],"attr":"unknown","postal_code":"022-0001","address":"岩手県大船渡市末崎町大田１４２−５６","voronoi":{"type":"Feature","geometry":{"type":"Polygon","coordinates":[[[141.843235,38.878054],[141.699902,39.000634],[141.699202,39.012053],[141.773474,38.997072],[141.843235,38.878054]]]},"properties":{}}},
    {"code":1120822,"id":"26c98d","name":"細浦","original_name":"細浦","name_kana":"ほそうら","closed":true,"lat":39.016027,"lng":141.713725,"prefecture":3,"lines":[11208],"attr":"unknown","postal_code":"022-0001","address":"大船渡市末崎町字細浦","closed_date":"2020-04-01","voronoi":{"type":"Feature","geometry":{"type":"Polygon","coordinates":[[[141.699202,39.012053],[141.694143,39.020741],[141.728271,39.023664],[141.767119,39.011227],[141.773474,38.997072],[141.699202,39.012053]]]},"properties":{}}},
    {"code":1120837,"id":"9eb660","name":"大船渡丸森","original_name":"大船渡丸森","name_kana":"おおふなとまるもり","closed":true,"lat":39.028716,"lng":141.712638,"prefecture":3,"lines":[11208],"attr":"unknown","postal_code":"022-0002","address":"岩手県大船渡市大船渡町丸森","voronoi":{"type":"Feature","geometry":{"type":"Polygon","coordinates":[[[141.728271,39.023664],[141.703743,39.044656],[141.678423,39.053761],[141.690807,39.023678],[141.694143,39.020741],[141.728271,39.023664]]]},"properties":{}}},
    {"code":1120823,"id":"8ed581","name":"下船渡","original_name":"下船渡","name_kana":"しもふなと","closed":true,"lat":39.038329,"lng":141.720865,"prefecture":3,"lines":[11208],"attr":"unknown","postal_code":"022-0002","address":"大船渡市大船渡町字宮ノ前","closed_date":"2020-04-01","voronoi":{"type":"Feature","geometry":{"type":"Polygon","coordinates":[[[141.762825,39.032217],[141.767119,39.011227],[141.728271,39.023664],[141.703743,39.044656],[141.743668,39.045004],[141.762825,39.032217]]]},"properties":{}}},
    {"code":1120838,"id":"129dfd","name":"大船渡魚市場前","original_name":"大船渡魚市場前","name_kana":"おおふなとうおいちばまえ","closed":true,"lat":39.05128,"lng":141.720752,"prefecture":3,"lines":[11208],"attr":"unknown","postal_code":"022-0002","address":"岩手県大船渡市大船渡町永沢","voronoi":{"type":"Feature","geometry":{"type":"Polygon","coordinates":[[[141.703743,39.044656],[141.678423,39.053761],[141.676991,39.055542],[141.681535,39.056697],[141.688386,39.05756],[141.73313,39.05736],[141.743668,39.045004],[141.703743,39.044656]]]},"properties":{}}},
    {"code":1120824,"id":"b440f0","name":"大船渡","original_name":"大船渡","name_kana":"おおふなと","closed":true,"lat":39.06355,"lng":141.720807,"prefecture":3,"lines":[11208],"attr":"unknown","postal_code":"022-0002","address":"大船渡市大船渡町字茶屋前","closed_date":"2020-04-01","voronoi":{"type":"Feature","geometry":{"type":"Polygon","coordinates":[[[141.688386,39.05756],[141.729737,39.070923],[141.73313,39.05736],[141.688386,39.05756]]]},"properties":{}}},
    {"code":1120839,"id":"da3b77","name":"地ノ森","original_name":"地ノ森","name_kana":"じのもり","closed":true,"lat":39.071676,"lng":141.718181,"prefecture":3,"lines":[11208],"attr":"unknown","postal_code":"022-0002","address":"岩手県大船渡市大船渡町新田３９−１","voronoi":{"type":"Feature","geometry":{"type":"Polygon","coordinates":[[[141.729737,39.070923],[141.731585,39.084791],[141.681535,39.056697],[141.688386,39.05756],[141.729737,39.070923]]]},"properties":{}}},
    {"code":1120840,"id":"d35679","name":"田茂山","original_name":"田茂山","name_kana":"たもやま","closed":true,"lat":39.080179,"lng":141.713408,"prefecture":3,"lines":[11208],"attr":"unknown","postal_code":"022-0003","address":"岩手県大船渡市盛町内ノ目１２−２２","voronoi":{"type":"Feature","geometry":{"type":"Polygon","coordinates":[[[141.668621,39.064515],[141.67412,39.057293],[141.676991,39.055542],[141.681535,39.056697],[141.731585,39.084791],[141.735105,39.093221],[141.668621,39.064515]]]},"properties":{}}}
  ]
}