{
  "code":11209,
  "id":28,
  "name":"JR釜石線(銀河ドリームライン釜石線)",
  "name_kana":"じぇいあーるかまいしせん",
  "name_formal":"JR釜石線",
  "station_size":24,
  "company_code":2,
  "closed":false,
  "color":"#0073BF",
  "station_list":[
    {"code":1123176,"id":676,"name":"花巻","original_name":"花巻","name_kana":"はなまき","closed":false,"lat":39.393182,"lng":141.110458,"prefecture":3,"lines":[11231,11209],"attr":"cool","postal_code":"025-0092","address":"花巻市大通り","voronoi":{"type":"Feature","geometry":{"type":"Polygon","coordinates":[[[140.969293,39.46989],[140.991521,39.433257],[141.030683,39.381237],[141.061972,39.35716],[141.075086,39.35236],[141.14271,39.361984],[141.117391,39.418483],[140.969293,39.46989]]]},"properties":{}}},
    {"code":1120902,"id":677,"name":"似内","original_name":"似内","name_kana":"にたない","closed":false,"lat":39.406819,"lng":141.140889,"prefecture":3,"lines":[11209],"attr":"cool","postal_code":"025-0007","address":"花巻市上似内","voronoi":{"type":"Feature","geometry":{"type":"Polygon","coordinates":[[[141.117391,39.418483],[141.14271,39.361984],[141.155507,39.358861],[141.157781,39.43344],[141.117391,39.418483]]]},"properties":{}}},
    {"code":100417,"id":678,"name":"新花巻","original_name":"新花巻","name_kana":"しんはなまき","closed":false,"lat":39.405839,"lng":141.17302,"prefecture":3,"lines":[1004,11209],"attr":"cool","postal_code":"025-0011","address":"花巻市矢沢第１０地割","voronoi":{"type":"Feature","geometry":{"type":"Polygon","coordinates":[[[141.173196,39.452455],[141.177387,39.453743],[141.189714,39.360079],[141.182727,39.341579],[141.155507,39.358861],[141.157781,39.43344],[141.173196,39.452455]]]},"properties":{}}},
    {"code":1120904,"id":679,"name":"小山田","original_name":"小山田","name_kana":"おやまだ","closed":false,"lat":39.4086,"lng":141.193999,"prefecture":3,"lines":[11209],"attr":"cool","postal_code":"025-0013","address":"花巻市幸田","voronoi":{"type":"Feature","geometry":{"type":"Polygon","coordinates":[[[141.177387,39.453743],[141.240441,39.48985],[141.281668,39.500419],[141.189714,39.360079],[141.177387,39.453743]]]},"properties":{}}},
    {"code":1120905,"id":680,"name":"土沢","original_name":"土沢","name_kana":"つちざわ","closed":false,"lat":39.383381,"lng":141.232488,"prefecture":3,"lines":[11209],"attr":"cool","postal_code":"028-0114","address":"花巻市東和町土沢","voronoi":{"type":"Feature","geometry":{"type":"Polygon","coordinates":[[[141.182727,39.341579],[141.200888,39.307864],[141.308985,39.471674],[141.319902,39.505183],[141.305632,39.511503],[141.281668,39.500419],[141.189714,39.360079],[141.182727,39.341579]]]},"properties":{}}},
    {"code":1120906,"id":681,"name":"晴山","original_name":"晴山","name_kana":"はるやま","closed":false,"lat":39.366617,"lng":141.257892,"prefecture":3,"lines":[11209],"attr":"cool","postal_code":"028-0113","address":"花巻市東和町東晴山","voronoi":{"type":"Feature","geometry":{"type":"Polygon","coordinates":[[[141.202231,39.303627],[141.200888,39.307864],[141.308985,39.471674],[141.266269,39.242523],[141.234145,39.252567],[141.202231,39.303627]]]},"properties":{}}},
    {"code":1120907,"id":682,"name":"岩根橋","original_name":"岩根橋","name_kana":"いわねばし","closed":false,"lat":39.355264,"lng":141.318795,"prefecture":3,"lines":[11209],"attr":"cool","postal_code":"028-0304","address":"遠野市宮守町下宮守","voronoi":{"type":"Feature","geometry":{"type":"Polygon","coordinates":[[[141.266269,39.242523],[141.274302,39.237546],[141.328002,39.304193],[141.354304,39.501405],[141.319902,39.505183],[141.308985,39.471674],[141.266269,39.242523]]]},"properties":{}}},
    {"code":1120908,"id":683,"name":"宮守","original_name":"宮守","name_kana":"みやもり","closed":false,"lat":39.351066,"lng":141.350271,"prefecture":3,"lines":[11209],"attr":"cool","postal_code":"028-0304","address":"遠野市宮守町下宮守","voronoi":{"type":"Feature","geometry":{"type":"Polygon","coordinates":[[[141.434752,39.458213],[141.413252,39.37588],[141.400687,39.351983],[141.328002,39.304193],[141.354304,39.501405],[141.368143,39.501356],[141.438613,39.479796],[141.434752,39.458213]]]},"properties":{}}},
    {"code":1120909,"id":684,"name":"柏木平","original_name":"柏木平","name_kana":"かしわぎだいら","closed":false,"lat":39.30606,"lng":141.379862,"prefecture":3,"lines":[11209],"attr":"cool","postal_code":"028-0303","address":"遠野市宮守町下鱒沢","voronoi":{"type":"Feature","geometry":{"type":"Polygon","coordinates":[[[141.401463,39.342223],[141.344274,39.154341],[141.274302,39.237546],[141.328002,39.304193],[141.400687,39.351983],[141.401463,39.342223]]]},"properties":{}}},
    {"code":1120910,"id":685,"name":"鱒沢","original_name":"鱒沢","name_kana":"ますざわ","closed":false,"lat":39.300158,"lng":141.399252,"prefecture":3,"lines":[11209],"attr":"cool","postal_code":"028-0303","address":"遠野市宮守町下鱒沢","voronoi":{"type":"Feature","geometry":{"type":"Polygon","coordinates":[[[141.438056,39.128095],[141.46675,39.146728],[141.401463,39.342223],[141.344274,39.154341],[141.346237,39.151673],[141.438056,39.128095]]]},"properties":{}}},
    {"code":1120911,"id":686,"name":"荒谷前","original_name":"荒谷前","name_kana":"あらやまえ","closed":false,"lat":39.309928,"lng":141.428507,"prefecture":3,"lines":[11209],"attr":"cool","postal_code":"028-0302","address":"遠野市宮守町上鱒沢","voronoi":{"type":"Feature","geometry":{"type":"Polygon","coordinates":[[[141.492385,39.214529],[141.413252,39.37588],[141.400687,39.351983],[141.401463,39.342223],[141.46675,39.146728],[141.475239,39.151188],[141.492385,39.214529]]]},"properties":{}}},
    {"code":1120912,"id":687,"name":"岩手二日町","original_name":"岩手二日町","name_kana":"いわてふつかまち","closed":false,"lat":39.323441,"lng":141.45606,"prefecture":3,"lines":[11209],"attr":"cool","postal_code":"028-0532","address":"遠野市綾織町下綾織","voronoi":{"type":"Feature","geometry":{"type":"Polygon","coordinates":[[[141.492385,39.214529],[141.413252,39.37588],[141.434752,39.458213],[141.492872,39.215687],[141.492385,39.214529]]]},"properties":{}}},
    {"code":1120913,"id":688,"name":"綾織","original_name":"綾織","name_kana":"あやおり","closed":false,"lat":39.328422,"lng":141.476845,"prefecture":3,"lines":[11209],"attr":"cool","postal_code":"028-0531","address":"遠野市綾織町新里","voronoi":{"type":"Feature","geometry":{"type":"Polygon","coordinates":[[[141.449146,39.481146],[141.492683,39.476072],[141.509713,39.252682],[141.500768,39.230405],[141.492872,39.215687],[141.434752,39.458213],[141.438613,39.479796],[141.449146,39.481146]]]},"properties":{}}},
    {"code":1120914,"id":689,"name":"遠野","original_name":"遠野","name_kana":"とおの","closed":false,"lat":39.332529,"lng":141.53072,"prefecture":3,"lines":[11209],"attr":"heat","postal_code":"028-0522","address":"遠野市新穀町","voronoi":{"type":"Feature","geometry":{"type":"Polygon","coordinates":[[[141.509713,39.252682],[141.492683,39.476072],[141.560859,39.480642],[141.603781,39.466298],[141.623182,39.455251],[141.515084,39.258865],[141.509713,39.252682]]]},"properties":{}}},
    {"code":1120915,"id":690,"name":"青笹","original_name":"青笹","name_kana":"あおざさ","closed":false,"lat":39.311482,"lng":141.568957,"prefecture":3,"lines":[11209],"attr":"heat","postal_code":"028-0503","address":"遠野市青笹町青笹","voronoi":{"type":"Feature","geometry":{"type":"Polygon","coordinates":[[[141.515084,39.258865],[141.653968,39.346247],[141.6542,39.346562],[141.672715,39.435749],[141.623182,39.455251],[141.515084,39.258865]]]},"properties":{}}},
    {"code":1120916,"id":691,"name":"岩手上郷","original_name":"岩手上郷","name_kana":"いわてかみごう","closed":false,"lat":39.284658,"lng":141.585834,"prefecture":3,"lines":[11209],"attr":"heat","postal_code":"028-0776","address":"遠野市上郷町板沢","voronoi":{"type":"Feature","geometry":{"type":"Polygon","coordinates":[[[141.653968,39.346247],[141.627239,39.292622],[141.500768,39.230405],[141.509713,39.252682],[141.515084,39.258865],[141.653968,39.346247]]]},"properties":{}}},
    {"code":1120917,"id":692,"name":"平倉","original_name":"平倉","name_kana":"ひらくら","closed":false,"lat":39.264682,"lng":141.595661,"prefecture":3,"lines":[11209],"attr":"heat","postal_code":"028-0775","address":"遠野市上郷町平倉","voronoi":{"type":"Feature","geometry":{"type":"Polygon","coordinates":[[[141.598853,39.149072],[141.550294,39.146163],[141.475239,39.151188],[141.492385,39.214529],[141.492872,39.215687],[141.500768,39.230405],[141.627239,39.292622],[141.598853,39.149072]]]},"properties":{}}},
    {"code":1120918,"id":693,"name":"足ヶ瀬","original_name":"足ヶ瀬","name_kana":"あしがせ","closed":false,"lat":39.254766,"lng":141.645807,"prefecture":3,"lines":[11209],"attr":"heat","postal_code":"028-0772","address":"岩手県遠野市上郷町細越38","voronoi":{"type":"Feature","geometry":{"type":"Polygon","coordinates":[[[141.629108,39.151614],[141.615441,39.146344],[141.598853,39.149072],[141.627239,39.292622],[141.653968,39.346247],[141.6542,39.346562],[141.676352,39.283922],[141.629108,39.151614]]]},"properties":{}}},
    {"code":1120919,"id":694,"name":"上有住","original_name":"上有住","name_kana":"かみありす","closed":false,"lat":39.242013,"lng":141.681522,"prefecture":3,"lines":[11209],"attr":"heat","postal_code":"029-2501","address":"気仙郡住田町上有住","voronoi":{"type":"Feature","geometry":{"type":"Polygon","coordinates":[[[141.72929,39.170417],[141.629108,39.151614],[141.676352,39.283922],[141.7216,39.240468],[141.72929,39.170417]]]},"properties":{}}},
    {"code":1120920,"id":695,"name":"陸中大橋","original_name":"陸中大橋","name_kana":"りくちゅうおおはし","closed":false,"lat":39.280451,"lng":141.718436,"prefecture":3,"lines":[11209],"attr":"eco","postal_code":"026-0055","address":"釜石市甲子町","voronoi":{"type":"Feature","geometry":{"type":"Polygon","coordinates":[[[141.760525,39.439836],[141.776405,39.401436],[141.787105,39.362413],[141.772653,39.312388],[141.7216,39.240468],[141.676352,39.283922],[141.6542,39.346562],[141.672715,39.435749],[141.73759,39.443303],[141.760525,39.439836]]]},"properties":{}}},
    {"code":1120921,"id":696,"name":"洞泉","original_name":"洞泉","name_kana":"どうせん","closed":false,"lat":39.250671,"lng":141.760388,"prefecture":3,"lines":[11209],"attr":"eco","postal_code":"026-0055","address":"釜石市甲子町","voronoi":{"type":"Feature","geometry":{"type":"Polygon","coordinates":[[[141.7216,39.240468],[141.72929,39.170417],[141.73994,39.167198],[141.767725,39.177491],[141.789326,39.193981],[141.772653,39.312388],[141.7216,39.240468]]]},"properties":{}}},
    {"code":1120922,"id":697,"name":"松倉","original_name":"松倉","name_kana":"まつくら","closed":false,"lat":39.256458,"lng":141.801484,"prefecture":3,"lines":[11209],"attr":"eco","postal_code":"026-0055","address":"釜石市甲子町","voronoi":{"type":"Feature","geometry":{"type":"Polygon","coordinates":[[[141.787105,39.362413],[141.772653,39.312388],[141.789326,39.193981],[141.803499,39.198677],[141.827198,39.224589],[141.799049,39.347757],[141.787105,39.362413]]]},"properties":{}}},
    {"code":1120923,"id":698,"name":"小佐野","original_name":"小佐野","name_kana":"こさの","closed":false,"lat":39.264464,"lng":141.836515,"prefecture":3,"lines":[11209],"attr":"eco","postal_code":"026-0052","address":"釜石市小佐野町１","voronoi":{"type":"Feature","geometry":{"type":"Polygon","coordinates":[[[141.845103,39.307629],[141.839373,39.314542],[141.799049,39.347757],[141.827198,39.224589],[141.85359,39.235001],[141.859248,39.249889],[141.845103,39.307629]]]},"properties":{}}},
    {"code":1120924,"id":699,"name":"釜石","original_name":"釜石","name_kana":"かまいし","closed":false,"lat":39.273321,"lng":141.87267,"prefecture":3,"lines":[11209,99208,99219],"attr":"eco","postal_code":"026-0031","address":"釜石市鈴子町","voronoi":{"type":"Feature","geometry":{"type":"Polygon","coordinates":[[[141.845103,39.307629],[141.91282,39.27558],[141.859248,39.249889],[141.845103,39.307629]]]},"properties":{}}}
  ]
}