{
  "code":11214,
  "id":"ca35da",
  "name":"JR羽越本線",
  "name_kana":"じぇいあーるうえつほんせん",
  "station_size":60,
  "company_code":2,
  "closed":false,
  "color":"#75C8FF",
  "station_list":[
    {"code":1121401,"id":"6a2a43","name":"新津","original_name":"新津","name_kana":"にいつ","closed":false,"lat":37.800383,"lng":139.121445,"prefecture":15,"lines":[11214,11226,11404],"attr":"cool","postal_code":"956-0864","address":"新潟市秋葉区新津本町１丁目","voronoi":{"type":"Feature","geometry":{"type":"Polygon","coordinates":[[[139.084352,37.795245],[139.126987,37.784167],[139.14435,37.814579],[139.084352,37.795245]]]},"properties":{}}},
    {"code":1121402,"id":"e7d60b","name":"京ヶ瀬","original_name":"京ヶ瀬","name_kana":"きょうがせ","closed":false,"lat":37.817616,"lng":139.178322,"prefecture":15,"lines":[11214],"attr":"cool","postal_code":"959-2134","address":"新潟県阿賀野市小河原453","voronoi":{"type":"Feature","geometry":{"type":"Polygon","coordinates":[[[139.146516,37.832346],[139.152671,37.858569],[139.16125,37.868692],[139.164654,37.869333],[139.177078,37.869351],[139.219387,37.78313],[139.212185,37.779517],[139.16918,37.79325],[139.147663,37.818052],[139.146516,37.832346]]]},"properties":{}}},
    {"code":1121403,"id":"3032ff","name":"水原","original_name":"水原","name_kana":"すいばら","closed":false,"lat":37.836712,"lng":139.217237,"prefecture":15,"lines":[11214],"attr":"cool","postal_code":"959-2002","address":"阿賀野市下条","voronoi":{"type":"Feature","geometry":{"type":"Polygon","coordinates":[[[139.219387,37.78313],[139.177078,37.869351],[139.194763,37.877539],[139.20447,37.877761],[139.275015,37.802909],[139.230952,37.783696],[139.219387,37.78313]]]},"properties":{}}},
    {"code":1121404,"id":"ce0b41","name":"神山","original_name":"神山","name_kana":"かみやま","closed":false,"lat":37.862586,"lng":139.244691,"prefecture":15,"lines":[11214],"attr":"cool","postal_code":"959-1968","address":"阿賀野市榎船渡","voronoi":{"type":"Feature","geometry":{"type":"Polygon","coordinates":[[[139.20447,37.877761],[139.275015,37.802909],[139.281384,37.803712],[139.30182,37.811122],[139.313868,37.818514],[139.239454,37.895846],[139.20447,37.877761]]]},"properties":{}}},
    {"code":1121405,"id":"929311","name":"月岡(新潟)","original_name":"月岡","name_kana":"つきおか","closed":false,"lat":37.889334,"lng":139.272488,"prefecture":15,"lines":[11214],"attr":"cool","postal_code":"959-2335","address":"新発田市大字本田字中谷内","voronoi":{"type":"Feature","geometry":{"type":"Polygon","coordinates":[[[139.273325,37.919605],[139.342786,37.82787],[139.313868,37.818514],[139.239454,37.895846],[139.24426,37.904994],[139.266128,37.919321],[139.273325,37.919605]]]},"properties":{}}},
    {"code":1121406,"id":"5c46f2","name":"中浦","original_name":"中浦","name_kana":"なかうら","closed":false,"lat":37.912202,"lng":139.302689,"prefecture":15,"lines":[11214],"attr":"cool","postal_code":"959-2331","address":"新発田市大字下飯塚","voronoi":{"type":"Feature","geometry":{"type":"Polygon","coordinates":[[[139.342786,37.82787],[139.273325,37.919605],[139.282627,37.927687],[139.320378,37.926695],[139.409226,37.836227],[139.405227,37.834681],[139.342786,37.82787]]]},"properties":{}}},
    {"code":1121407,"id":"b3cded","name":"新発田","original_name":"新発田","name_kana":"しばた","closed":false,"lat":37.94412,"lng":139.335189,"prefecture":15,"lines":[11214,11406],"attr":"cool","postal_code":"957-0055","address":"新発田市諏訪町１丁目","voronoi":{"type":"Feature","geometry":{"type":"Polygon","coordinates":[[[139.316853,37.981962],[139.320378,37.926695],[139.409226,37.836227],[139.448935,37.844024],[139.477276,37.860503],[139.480792,37.863436],[139.316853,37.981962]]]},"properties":{}}},
    {"code":1121408,"id":"9ca017","name":"加治","original_name":"加治","name_kana":"かじ","closed":false,"lat":37.976411,"lng":139.358535,"prefecture":15,"lines":[11214],"attr":"cool","postal_code":"959-2451","address":"新発田市下中","voronoi":{"type":"Feature","geometry":{"type":"Polygon","coordinates":[[[139.300872,38.007606],[139.292645,38.034858],[139.51965,37.926172],[139.534994,37.898962],[139.535109,37.898639],[139.480792,37.863436],[139.316853,37.981962],[139.300872,38.007606]]]},"properties":{}}},
    {"code":1121409,"id":"5fc9cd","name":"金塚","original_name":"金塚","name_kana":"かなづか","closed":false,"lat":38.020178,"lng":139.37949,"prefecture":15,"lines":[11214],"attr":"cool","postal_code":"959-2477","address":"新発田市下小中山","voronoi":{"type":"Feature","geometry":{"type":"Polygon","coordinates":[[[139.292645,38.034858],[139.229187,38.133376],[139.504434,37.963012],[139.507385,37.957866],[139.51965,37.926172],[139.292645,38.034858]]]},"properties":{}}},
    {"code":1121410,"id":"4667ae","name":"中条","original_name":"中条","name_kana":"なかじょう","closed":false,"lat":38.049342,"lng":139.397541,"prefecture":15,"lines":[11214],"attr":"cool","postal_code":"959-2631","address":"胎内市表町","voronoi":{"type":"Feature","geometry":{"type":"Polygon","coordinates":[[[139.158589,38.223685],[139.202515,38.213341],[139.477106,38.02847],[139.504434,37.963012],[139.229187,38.133376],[139.158589,38.223685]]]},"properties":{}}},
    {"code":1121411,"id":"054bb9","name":"平木田","original_name":"平木田","name_kana":"ひらきだ","closed":false,"lat":38.094338,"lng":139.427835,"prefecture":15,"lines":[11214],"attr":"cool","postal_code":"959-2614","address":"胎内市平木田","voronoi":{"type":"Feature","geometry":{"type":"Polygon","coordinates":[[[139.202515,38.213341],[139.477106,38.02847],[139.474039,38.079952],[139.342133,38.175172],[139.252704,38.207053],[139.202515,38.213341]]]},"properties":{}}},
    {"code":1121412,"id":"aa8ef4","name":"坂町","original_name":"坂町","name_kana":"さかまち","closed":false,"lat":38.119277,"lng":139.445838,"prefecture":15,"lines":[11214,11219],"attr":"heat","postal_code":"959-3132","address":"村上市坂町","voronoi":{"type":"Feature","geometry":{"type":"Polygon","coordinates":[[[139.374061,38.168316],[139.342133,38.175172],[139.474039,38.079952],[139.485037,38.120652],[139.374061,38.168316]]]},"properties":{}}},
    {"code":1121413,"id":"b33f8a","name":"平林(新潟)","original_name":"平林","name_kana":"ひらばやし","closed":false,"lat":38.150027,"lng":139.459045,"prefecture":15,"lines":[11214],"attr":"heat","postal_code":"959-3435","address":"村上市宿田","voronoi":{"type":"Feature","geometry":{"type":"Polygon","coordinates":[[[139.374061,38.168316],[139.523302,38.165655],[139.485037,38.120652],[139.374061,38.168316]]]},"properties":{}}},
    {"code":1121414,"id":"797c31","name":"岩船町","original_name":"岩船町","name_kana":"いわふねまち","closed":false,"lat":38.183564,"lng":139.459643,"prefecture":15,"lines":[11214],"attr":"heat","postal_code":"959-3446","address":"村上市小口川","voronoi":{"type":"Feature","geometry":{"type":"Polygon","coordinates":[[[139.523302,38.165655],[139.374061,38.168316],[139.342133,38.175172],[139.252704,38.207053],[139.329017,38.215078],[139.560591,38.191702],[139.523302,38.165655]]]},"properties":{}}},
    {"code":1121415,"id":"62ecab","name":"村上(新潟)","original_name":"村上","name_kana":"むらかみ","closed":false,"lat":38.219851,"lng":139.463306,"prefecture":15,"lines":[11214],"attr":"heat","postal_code":"958-0854","address":"村上市大字田端町","voronoi":{"type":"Feature","geometry":{"type":"Polygon","coordinates":[[[139.664194,38.274719],[139.683246,38.29959],[139.659587,38.296294],[139.329017,38.215078],[139.560591,38.191702],[139.561652,38.192187],[139.645125,38.254378],[139.664194,38.274719]]]},"properties":{}}},
    {"code":1121416,"id":"8310d3","name":"間島","original_name":"間島","name_kana":"まじま","closed":false,"lat":38.273078,"lng":139.450229,"prefecture":15,"lines":[11214],"attr":"heat","postal_code":"958-0005","address":"村上市大字間島","voronoi":{"type":"Feature","geometry":{"type":"Polygon","coordinates":[[[139.202515,38.213341],[139.252704,38.207053],[139.329017,38.215078],[139.659587,38.296294],[139.071379,38.291627],[139.141819,38.233027],[139.158589,38.223685],[139.202515,38.213341]]]},"properties":{}}},
    {"code":1121417,"id":"876403","name":"越後早川","original_name":"越後早川","name_kana":"えちごはやかわ","closed":false,"lat":38.316185,"lng":139.449887,"prefecture":15,"lines":[11214],"attr":"heat","postal_code":"958-0002","address":"村上市大字早川字上境","voronoi":{"type":"Feature","geometry":{"type":"Polygon","coordinates":[[[139.659587,38.296294],[139.683246,38.29959],[139.69451,38.309226],[138.941965,38.423441],[139.039172,38.322489],[139.070663,38.292157],[139.071379,38.291627],[139.659587,38.296294]]]},"properties":{}}},
    {"code":1121418,"id":"f7a7c8","name":"桑川","original_name":"桑川","name_kana":"くわがわ","closed":false,"lat":38.375162,"lng":139.458838,"prefecture":15,"lines":[11214],"attr":"eco","postal_code":"959-3665","address":"村上市桑川","voronoi":{"type":"Feature","geometry":{"type":"Polygon","coordinates":[[[139.623148,38.348986],[138.770432,38.58222],[138.941965,38.423441],[139.69451,38.309226],[139.703317,38.315066],[139.623148,38.348986]]]},"properties":{}}},
    {"code":1121419,"id":"2ab7bf","name":"今川(新潟)","original_name":"今川","name_kana":"いまがわ","closed":false,"lat":38.410081,"lng":139.468389,"prefecture":15,"lines":[11214],"attr":"eco","postal_code":"959-3662","address":"村上市今川","voronoi":{"type":"Feature","geometry":{"type":"Polygon","coordinates":[[[138.092716,39.203591],[138.165465,39.133487],[138.218429,39.083161],[138.547378,38.78248],[138.753359,38.597243],[138.770432,38.58222],[139.623148,38.348986],[138.092716,39.203591]]]},"properties":{}}},
    {"code":1121420,"id":"4b9288","name":"越後寒川","original_name":"越後寒川","name_kana":"えちごかんがわ","closed":false,"lat":38.448689,"lng":139.489948,"prefecture":15,"lines":[11214],"attr":"eco","postal_code":"959-3653","address":"村上市寒川","voronoi":{"type":"Feature","geometry":{"type":"Polygon","coordinates":[[[139.703317,38.315066],[139.72198,38.323541],[139.723222,38.324376],[139.127501,38.718222],[138.152166,39.256208],[137.882464,39.400626],[138.092716,39.203591],[139.623148,38.348986],[139.703317,38.315066]]]},"properties":{}}},
    {"code":1121421,"id":"e830f5","name":"勝木","original_name":"勝木","name_kana":"がつぎ","closed":false,"lat":38.490315,"lng":139.517468,"prefecture":15,"lines":[11214],"attr":"eco","postal_code":"959-3942","address":"村上市勝木","voronoi":{"type":"Feature","geometry":{"type":"Polygon","coordinates":[[[139.127501,38.718222],[139.723222,38.324376],[139.781947,38.356237],[139.215979,38.675613],[139.127501,38.718222]]]},"properties":{}}},
    {"code":1121422,"id":"8309b1","name":"府屋","original_name":"府屋","name_kana":"ふや","closed":false,"lat":38.513324,"lng":139.530452,"prefecture":15,"lines":[11214],"attr":"eco","postal_code":"959-3907","address":"村上市府屋","voronoi":{"type":"Feature","geometry":{"type":"Polygon","coordinates":[[[139.215979,38.675613],[139.781947,38.356237],[139.811034,38.370379],[139.834965,38.405508],[139.215979,38.675613]]]},"properties":{}}},
    {"code":1121423,"id":"86cd3f","name":"鼠ヶ関","original_name":"鼠ヶ関","name_kana":"ねずがせき","closed":false,"lat":38.555433,"lng":139.548827,"prefecture":6,"lines":[11214],"attr":"eco","postal_code":"999-7126","address":"山形県鶴岡市鼠ヶ関乙156-2","voronoi":{"type":"Feature","geometry":{"type":"Polygon","coordinates":[[[139.127501,38.718222],[138.152166,39.256208],[139.792226,38.458692],[139.836539,38.407498],[139.834965,38.405508],[139.215979,38.675613],[139.127501,38.718222]]]},"properties":{}}},
    {"code":1121424,"id":"3c50de","name":"小岩川","original_name":"小岩川","name_kana":"こいわがわ","closed":false,"lat":38.590399,"lng":139.56583,"prefecture":6,"lines":[11214],"attr":"eco","postal_code":"999-7122","address":"鶴岡市小岩川","voronoi":{"type":"Feature","geometry":{"type":"Polygon","coordinates":[[[138.152166,39.256208],[137.882464,39.400626],[137.514791,39.716603],[138.044287,39.600892],[138.38312,39.388319],[139.781031,38.473753],[139.792226,38.458692],[138.152166,39.256208]]]},"properties":{}}},
    {"code":1121425,"id":"70a64d","name":"あつみ温泉","original_name":"あつみ温泉","name_kana":"あつみおんせん","closed":false,"lat":38.624217,"lng":139.587955,"prefecture":6,"lines":[11214],"attr":"eco","postal_code":"999-7205","address":"鶴岡市温海","voronoi":{"type":"Feature","geometry":{"type":"Polygon","coordinates":[[[138.38312,39.388319],[139.689682,38.594186],[139.692173,38.591928],[139.744806,38.531979],[139.781031,38.473753],[138.38312,39.388319]]]},"properties":{}}},
    {"code":1121426,"id":"3628ed","name":"五十川","original_name":"五十川","name_kana":"いらがわ","closed":false,"lat":38.670658,"lng":139.616182,"prefecture":6,"lines":[11214],"attr":"eco","postal_code":"999-7207","address":"鶴岡市五十川","voronoi":{"type":"Feature","geometry":{"type":"Polygon","coordinates":[[[138.38312,39.388319],[138.044287,39.600892],[138.78187,39.459644],[138.868387,39.413575],[139.244999,39.196158],[139.335627,39.140111],[139.689682,38.594186],[138.38312,39.388319]]]},"properties":{}}},
    {"code":1121427,"id":"077540","name":"小波渡","original_name":"小波渡","name_kana":"こばと","closed":false,"lat":38.692484,"lng":139.649836,"prefecture":6,"lines":[11214],"attr":"eco","postal_code":"999-7462","address":"鶴岡市大字小波渡","voronoi":{"type":"Feature","geometry":{"type":"Polygon","coordinates":[[[139.692173,38.591928],[139.589623,38.942503],[139.409152,39.096608],[139.364562,39.123652],[139.335627,39.140111],[139.689682,38.594186],[139.692173,38.591928]]]},"properties":{}}},
    {"code":1121428,"id":"c2ac85","name":"三瀬","original_name":"三瀬","name_kana":"さんぜ","closed":false,"lat":38.699448,"lng":139.673643,"prefecture":6,"lines":[11214],"attr":"eco","postal_code":"999-7463","address":"鶴岡市大字三瀬","voronoi":{"type":"Feature","geometry":{"type":"Polygon","coordinates":[[[139.673662,38.825425],[139.637518,38.905445],[139.589623,38.942503],[139.692173,38.591928],[139.744806,38.531979],[139.673662,38.825425]]]},"properties":{}}},
    {"code":1121429,"id":"423754","name":"羽前水沢","original_name":"羽前水沢","name_kana":"うぜんみずさわ","closed":false,"lat":38.713444,"lng":139.731372,"prefecture":6,"lines":[11214],"attr":"eco","postal_code":"999-7543","address":"鶴岡市大字大広字山崎","voronoi":{"type":"Feature","geometry":{"type":"Polygon","coordinates":[[[139.849895,38.415131],[139.836539,38.407498],[139.792226,38.458692],[139.781031,38.473753],[139.744806,38.531979],[139.673662,38.825425],[139.799443,38.664111],[139.861391,38.422487],[139.849895,38.415131]]]},"properties":{}}},
    {"code":1121430,"id":"807776","name":"羽前大山","original_name":"羽前大山","name_kana":"うぜんおおやま","closed":false,"lat":38.742155,"lng":139.768194,"prefecture":6,"lines":[11214],"attr":"eco","postal_code":"997-1124","address":"鶴岡市大山１丁目","voronoi":{"type":"Feature","geometry":{"type":"Polygon","coordinates":[[[139.637518,38.905445],[139.673662,38.825425],[139.799443,38.664111],[139.804591,38.833255],[139.637518,38.905445]]]},"properties":{}}},
    {"code":1121431,"id":"949d24","name":"鶴岡","original_name":"鶴岡","name_kana":"つるおか","closed":false,"lat":38.74011,"lng":139.83538,"prefecture":6,"lines":[11214],"attr":"eco","postal_code":"997-0015","address":"鶴岡市末広町１丁目","voronoi":{"type":"Feature","geometry":{"type":"Polygon","coordinates":[[[139.861391,38.422487],[139.799443,38.664111],[139.804591,38.833255],[139.815518,38.832618],[139.837561,38.810281],[139.963476,38.551236],[139.96602,38.503116],[139.907199,38.441851],[139.861391,38.422487]]]},"properties":{}}},
    {"code":1121432,"id":"9b51eb","name":"藤島","original_name":"藤島","name_kana":"ふじしま","closed":false,"lat":38.768646,"lng":139.894087,"prefecture":6,"lines":[11214],"attr":"eco","postal_code":"999-7611","address":"鶴岡市上藤島","voronoi":{"type":"Feature","geometry":{"type":"Polygon","coordinates":[[[139.837561,38.810281],[139.932458,38.780036],[139.937259,38.775121],[139.973072,38.65678],[139.963476,38.551236],[139.837561,38.810281]]]},"properties":{}}},
    {"code":1121433,"id":"0ba51b","name":"西袋","original_name":"西袋","name_kana":"にしぶくろ","closed":false,"lat":38.811528,"lng":139.907754,"prefecture":6,"lines":[11214],"attr":"eco","postal_code":"999-7746","address":"東田川郡庄内町西袋","voronoi":{"type":"Feature","geometry":{"type":"Polygon","coordinates":[[[139.837561,38.810281],[139.815518,38.832618],[139.8215,38.835956],[139.825131,38.837177],[139.924197,38.826319],[139.932458,38.780036],[139.837561,38.810281]]]},"properties":{}}},
    {"code":1121434,"id":"5dbdfe","name":"余目","original_name":"余目","name_kana":"あまるめ","closed":false,"lat":38.844321,"lng":139.911348,"prefecture":6,"lines":[11214,11220],"attr":"eco","postal_code":"999-7700","address":"東田川郡庄内町沢田","voronoi":{"type":"Feature","geometry":{"type":"Polygon","coordinates":[[[139.825131,38.837177],[139.924197,38.826319],[139.95211,38.861908],[139.841142,38.84626],[139.825131,38.837177]]]},"properties":{}}},
    {"code":1121435,"id":"1ff423","name":"北余目","original_name":"北余目","name_kana":"きたあまるめ","closed":false,"lat":38.867538,"lng":139.908074,"prefecture":6,"lines":[11214],"attr":"heat","postal_code":"999-7703","address":"東田川郡庄内町平岡","voronoi":{"type":"Feature","geometry":{"type":"Polygon","coordinates":[[[139.95211,38.861908],[139.841142,38.84626],[139.883438,38.880727],[139.980929,38.883296],[139.95211,38.861908]]]},"properties":{}}},
    {"code":1121436,"id":"271905","name":"砂越","original_name":"砂越","name_kana":"さごし","closed":false,"lat":38.895195,"lng":139.907345,"prefecture":6,"lines":[11214],"attr":"heat","postal_code":"999-6701","address":"酒田市砂越","voronoi":{"type":"Feature","geometry":{"type":"Polygon","coordinates":[[[139.929049,38.943731],[139.904556,38.935307],[139.883438,38.880727],[139.980929,38.883296],[140.018614,38.901584],[140.069944,38.957005],[139.929049,38.943731]]]},"properties":{}}},
    {"code":1121437,"id":"1f8fad","name":"東酒田","original_name":"東酒田","name_kana":"ひがしさかた","closed":false,"lat":38.907518,"lng":139.875495,"prefecture":6,"lines":[11214],"attr":"heat","postal_code":"998-0859","address":"酒田市大町","voronoi":{"type":"Feature","geometry":{"type":"Polygon","coordinates":[[[139.8215,38.835956],[139.825131,38.837177],[139.841142,38.84626],[139.883438,38.880727],[139.904556,38.935307],[139.872623,38.938747],[139.8215,38.835956]]]},"properties":{}}},
    {"code":1121438,"id":"9a34b3","name":"酒田","original_name":"酒田","name_kana":"さかた","closed":false,"lat":38.922194,"lng":139.845987,"prefecture":6,"lines":[11214],"attr":"heat","postal_code":"998-0023","address":"酒田市幸町１丁目","voronoi":{"type":"Feature","geometry":{"type":"Polygon","coordinates":[[[139.773472,39.015786],[139.409152,39.096608],[139.589623,38.942503],[139.637518,38.905445],[139.804591,38.833255],[139.815518,38.832618],[139.8215,38.835956],[139.872623,38.938747],[139.773472,39.015786]]]},"properties":{}}},
    {"code":1121439,"id":"05febc","name":"本楯","original_name":"本楯","name_kana":"もとたて","closed":false,"lat":38.968648,"lng":139.882081,"prefecture":6,"lines":[11214],"attr":"heat","postal_code":"999-8134","address":"酒田市大字本楯","voronoi":{"type":"Feature","geometry":{"type":"Polygon","coordinates":[[[139.773472,39.015786],[139.840953,39.017998],[139.85049,39.013343],[139.929049,38.943731],[139.904556,38.935307],[139.872623,38.938747],[139.773472,39.015786]]]},"properties":{}}},
    {"code":1121440,"id":"99186f","name":"南鳥海","original_name":"南鳥海","name_kana":"みなみちょうかい","closed":false,"lat":38.98736,"lng":139.898662,"prefecture":6,"lines":[11214],"attr":"cool","postal_code":"999-8421","address":"酒田市大字米島","voronoi":{"type":"Feature","geometry":{"type":"Polygon","coordinates":[[[139.929049,38.943731],[139.85049,39.013343],[140.077552,38.961716],[140.069944,38.957005],[139.929049,38.943731]]]},"properties":{}}},
    {"code":1121441,"id":"5fe1af","name":"遊佐","original_name":"遊佐","name_kana":"ゆざ","closed":false,"lat":39.015943,"lng":139.905161,"prefecture":6,"lines":[11214],"attr":"cool","postal_code":"999-8301","address":"飽海郡遊佐町大字遊佐町","voronoi":{"type":"Feature","geometry":{"type":"Polygon","coordinates":[[[140.050019,39.092635],[140.011748,39.092034],[139.963637,39.077984],[139.840953,39.017998],[139.85049,39.013343],[140.077552,38.961716],[140.08212,38.964054],[140.09943,39.038741],[140.050019,39.092635]]]},"properties":{}}},
    {"code":1121442,"id":"4dc9a8","name":"吹浦","original_name":"吹浦","name_kana":"ふくら","closed":false,"lat":39.069934,"lng":139.878762,"prefecture":6,"lines":[11214],"attr":"cool","postal_code":"999-8521","address":"飽海郡遊佐町大字吹浦","voronoi":{"type":"Feature","geometry":{"type":"Polygon","coordinates":[[[139.364562,39.123652],[139.409152,39.096608],[139.773472,39.015786],[139.840953,39.017998],[139.963637,39.077984],[139.364562,39.123652]]]},"properties":{}}},
    {"code":1121443,"id":"39a299","name":"女鹿","original_name":"女鹿","name_kana":"めが","closed":false,"lat":39.098807,"lng":139.880963,"prefecture":6,"lines":[11214],"attr":"cool","postal_code":"999-8521","address":"飽海郡遊佐町大字吹浦","voronoi":{"type":"Feature","geometry":{"type":"Polygon","coordinates":[[[139.963637,39.077984],[139.364562,39.123652],[139.335627,39.140111],[139.244999,39.196158],[139.961926,39.108553],[140.011748,39.092034],[139.963637,39.077984]]]},"properties":{}}},
    {"code":1121444,"id":"5622d7","name":"小砂川","original_name":"小砂川","name_kana":"こさがわ","closed":false,"lat":39.137507,"lng":139.885692,"prefecture":5,"lines":[11214],"attr":"eco","postal_code":"018-0143","address":"にかほ市象潟町小砂川","voronoi":{"type":"Feature","geometry":{"type":"Polygon","coordinates":[[[139.83982,39.185369],[138.868387,39.413575],[139.244999,39.196158],[139.961926,39.108553],[139.83982,39.185369]]]},"properties":{}}},
    {"code":1121445,"id":"67c9c8","name":"上浜","original_name":"上浜","name_kana":"かみはま","closed":false,"lat":39.164738,"lng":139.902823,"prefecture":5,"lines":[11214],"attr":"eco","postal_code":"018-0135","address":"にかほ市象潟町洗釜","voronoi":{"type":"Feature","geometry":{"type":"Polygon","coordinates":[[[140.035476,39.145013],[140.050019,39.092635],[140.011748,39.092034],[139.961926,39.108553],[139.83982,39.185369],[140.013475,39.187861],[140.020193,39.184543],[140.035476,39.145013]]]},"properties":{}}},
    {"code":1121446,"id":"cda700","name":"象潟","original_name":"象潟","name_kana":"きさかた","closed":false,"lat":39.2078,"lng":139.902205,"prefecture":5,"lines":[11214],"attr":"eco","postal_code":"018-0112","address":"にかほ市象潟町家の後","voronoi":{"type":"Feature","geometry":{"type":"Polygon","coordinates":[[[138.78187,39.459644],[138.868387,39.413575],[139.83982,39.185369],[140.013475,39.187861],[139.999763,39.198296],[139.223128,39.494564],[138.78187,39.459644]]]},"properties":{}}},
    {"code":1121447,"id":"33a328","name":"金浦","original_name":"金浦","name_kana":"このうら","closed":false,"lat":39.256183,"lng":139.920662,"prefecture":5,"lines":[11214],"attr":"eco","postal_code":"018-0311","address":"にかほ市金浦","voronoi":{"type":"Feature","geometry":{"type":"Polygon","coordinates":[[[139.223128,39.494564],[139.674841,39.546332],[139.765914,39.504004],[139.999763,39.198296],[139.223128,39.494564]]]},"properties":{}}},
    {"code":1121448,"id":"16f85e","name":"仁賀保","original_name":"仁賀保","name_kana":"にかほ","closed":false,"lat":39.28979,"lng":139.964596,"prefecture":5,"lines":[11214],"attr":"eco","postal_code":"018-0402","address":"にかほ市平沢","voronoi":{"type":"Feature","geometry":{"type":"Polygon","coordinates":[[[140.013475,39.187861],[139.999763,39.198296],[139.765914,39.504004],[139.809657,39.488517],[140.026333,39.28619],[140.037228,39.256318],[140.035054,39.241075],[140.020193,39.184543],[140.013475,39.187861]]]},"properties":{}}},
    {"code":1121449,"id":"59e447","name":"西目","original_name":"西目","name_kana":"にしめ","closed":false,"lat":39.347536,"lng":140.018518,"prefecture":5,"lines":[11214],"attr":"eco","postal_code":"018-0604","address":"由利本荘市西目町沼田","voronoi":{"type":"Feature","geometry":{"type":"Polygon","coordinates":[[[140.040764,39.326578],[140.026333,39.28619],[139.809657,39.488517],[139.830545,39.484655],[139.959351,39.445476],[140.005099,39.399993],[140.039171,39.349613],[140.040764,39.326578]]]},"properties":{}}},
    {"code":1121450,"id":"abb69c","name":"羽後本荘","original_name":"羽後本荘","name_kana":"うごほんじょう","closed":false,"lat":39.386877,"lng":140.057632,"prefecture":5,"lines":[11214,99210],"attr":"eco","postal_code":"015-0858","address":"由利本荘市西梵天","voronoi":{"type":"Feature","geometry":{"type":"Polygon","coordinates":[[[140.028014,39.442011],[139.959351,39.445476],[140.005099,39.399993],[140.070438,39.369367],[140.105911,39.371586],[140.124666,39.384284],[140.028014,39.442011]]]},"properties":{}}},
    {"code":1121451,"id":"9cf78e","name":"羽後岩谷","original_name":"羽後岩谷","name_kana":"うごいわや","closed":false,"lat":39.442075,"lng":140.0906,"prefecture":5,"lines":[11214],"attr":"eco","postal_code":"018-0711","address":"由利本荘市岩谷町","voronoi":{"type":"Feature","geometry":{"type":"Polygon","coordinates":[[[140.124666,39.384284],[140.028014,39.442011],[140.061214,39.459678],[140.232103,39.457205],[140.26033,39.404488],[140.164379,39.388084],[140.124666,39.384284]]]},"properties":{}}},
    {"code":1121452,"id":"ffad88","name":"折渡","original_name":"折渡","name_kana":"おりわたり","closed":false,"lat":39.476423,"lng":140.091097,"prefecture":5,"lines":[11214],"attr":"eco","postal_code":"018-1225","address":"由利本荘市岩城上黒川","voronoi":{"type":"Feature","geometry":{"type":"Polygon","coordinates":[[[140.167434,39.554493],[140.164879,39.555237],[140.134565,39.542967],[140.10271,39.526374],[140.061214,39.459678],[140.232103,39.457205],[140.204975,39.527021],[140.167434,39.554493]]]},"properties":{}}},
    {"code":1121453,"id":"cda11d","name":"羽後亀田","original_name":"羽後亀田","name_kana":"うごかめだ","closed":false,"lat":39.493884,"lng":140.063032,"prefecture":5,"lines":[11214],"attr":"heat","postal_code":"015-0032","address":"由利本荘市松ケ崎","voronoi":{"type":"Feature","geometry":{"type":"Polygon","coordinates":[[[139.830545,39.484655],[139.959351,39.445476],[140.028014,39.442011],[140.061214,39.459678],[140.10271,39.526374],[139.830545,39.484655]]]},"properties":{}}},
    {"code":1121454,"id":"8ebf00","name":"岩城みなと","original_name":"岩城みなと","name_kana":"いわきみなと","closed":false,"lat":39.545487,"lng":140.055122,"prefecture":5,"lines":[11214],"attr":"heat","postal_code":"018-1301","address":"由利本荘市岩城内道川","voronoi":{"type":"Feature","geometry":{"type":"Polygon","coordinates":[[[139.674841,39.546332],[139.765914,39.504004],[139.809657,39.488517],[139.830545,39.484655],[140.10271,39.526374],[140.134565,39.542967],[139.750135,39.59218],[139.674841,39.546332]]]},"properties":{}}},
    {"code":1121455,"id":"b5d4e8","name":"道川","original_name":"道川","name_kana":"みちかわ","closed":false,"lat":39.56054,"lng":140.057049,"prefecture":5,"lines":[11214],"attr":"heat","postal_code":"018-1301","address":"由利本荘市岩城内道川","voronoi":{"type":"Feature","geometry":{"type":"Polygon","coordinates":[[[139.750135,39.59218],[139.79872,39.623427],[140.135824,39.580573],[140.164879,39.555237],[140.134565,39.542967],[139.750135,39.59218]]]},"properties":{}}},
    {"code":1121456,"id":"fcf094","name":"下浜","original_name":"下浜","name_kana":"しもはま","closed":false,"lat":39.619678,"lng":140.064567,"prefecture":5,"lines":[11214],"attr":"cool","postal_code":"010-1503","address":"秋田市下浜羽川","voronoi":{"type":"Feature","geometry":{"type":"Polygon","coordinates":[[[139.79872,39.623427],[139.830985,39.649727],[140.109906,39.630574],[140.135824,39.580573],[139.79872,39.623427]]]},"properties":{}}},
    {"code":1121457,"id":"aa0053","name":"桂根","original_name":"桂根","name_kana":"かつらね","closed":false,"lat":39.647566,"lng":140.066482,"prefecture":5,"lines":[11214],"attr":"cool","postal_code":"010-1501","address":"秋田市下浜桂根","voronoi":{"type":"Feature","geometry":{"type":"Polygon","coordinates":[[[139.830985,39.649727],[139.900779,39.713876],[140.015384,39.706519],[140.108177,39.640422],[140.109906,39.630574],[139.830985,39.649727]]]},"properties":{}}},
    {"code":1121458,"id":"bc99f0","name":"新屋(秋田)","original_name":"新屋","name_kana":"あらや","closed":false,"lat":39.677493,"lng":140.087799,"prefecture":5,"lines":[11214],"attr":"cool","postal_code":"010-1637","address":"秋田市新屋扇町","voronoi":{"type":"Feature","geometry":{"type":"Polygon","coordinates":[[[140.11539,39.665942],[140.08454,39.714162],[140.076778,39.717285],[140.015384,39.706519],[140.108177,39.640422],[140.11539,39.665942]]]},"properties":{}}},
    {"code":1121459,"id":"a68760","name":"羽後牛島","original_name":"羽後牛島","name_kana":"うごうしじま","closed":false,"lat":39.695834,"lng":140.116467,"prefecture":5,"lines":[11214],"attr":"cool","postal_code":"010-0063","address":"秋田市牛島西１丁目","voronoi":{"type":"Feature","geometry":{"type":"Polygon","coordinates":[[[140.08454,39.714162],[140.10747,39.716417],[140.146271,39.691438],[140.11539,39.665942],[140.08454,39.714162]]]},"properties":{}}},
    {"code":1120228,"id":"9a0022","name":"秋田","original_name":"秋田","name_kana":"あきた","closed":false,"lat":39.716748,"lng":140.129931,"prefecture":5,"lines":[11202,11214],"attr":"heat","postal_code":"010-0001","address":"秋田市中通７丁目","voronoi":{"type":"Feature","geometry":{"type":"Polygon","coordinates":[[[140.224988,39.752094],[140.257007,39.838519],[140.10747,39.716417],[140.146271,39.691438],[140.188486,39.702878],[140.224988,39.752094]]]},"properties":{}}}
  ]
}