{
  "code":11220,
  "id":39,
  "name":"JR陸羽西線(奥の細道最上川ライン)",
  "name_kana":"じぇいあーるりくうさいせん(おくのほそみちもがみがわらいん)",
  "name_formal":"JR陸羽西線",
  "station_size":10,
  "company_code":2,
  "closed":false,
  "color":"#6FBF7F",
  "station_list":[
    {"code":1120201,"id":487,"name":"新庄","original_name":"新庄","name_kana":"しんじょう","closed":false,"lat":38.76256,"lng":140.306064,"prefecture":6,"lines":[11202,11216,11220,11221],"attr":"eco","postal_code":"996-0024","address":"新庄市多門町","voronoi":{"type":"Feature","geometry":{"type":"Polygon","coordinates":[[[140.349647,38.751642],[140.351771,38.754053],[140.363867,38.775143],[140.364351,38.78261],[140.269289,38.790291],[140.279194,38.734175],[140.349647,38.751642]]]},"properties":{}}},
    {"code":1122002,"id":931,"name":"升形","original_name":"升形","name_kana":"ますかた","closed":false,"lat":38.751646,"lng":140.24423,"prefecture":6,"lines":[11220],"attr":"cool","postal_code":"996-0111","address":"新庄市大字升形字下夕野","voronoi":{"type":"Feature","geometry":{"type":"Polygon","coordinates":[[[140.267735,38.706695],[140.236167,38.668891],[140.221811,38.793698],[140.265253,38.79471],[140.269289,38.790291],[140.279194,38.734175],[140.267735,38.706695]]]},"properties":{}}},
    {"code":1122003,"id":932,"name":"羽前前波","original_name":"羽前前波","name_kana":"うぜんぜんなみ","closed":false,"lat":38.747654,"lng":140.209525,"prefecture":6,"lines":[11220],"attr":"cool","postal_code":"996-0111","address":"新庄市大字升形字前波","voronoi":{"type":"Feature","geometry":{"type":"Polygon","coordinates":[[[140.236167,38.668891],[140.221811,38.793698],[140.167103,38.813791],[140.232743,38.66238],[140.236167,38.668891]]]},"properties":{}}},
    {"code":1122004,"id":933,"name":"津谷","original_name":"津谷","name_kana":"つや","closed":false,"lat":38.737618,"lng":140.186375,"prefecture":6,"lines":[11220],"attr":"cool","postal_code":"999-6311","address":"最上郡戸沢村大字津谷","voronoi":{"type":"Feature","geometry":{"type":"Polygon","coordinates":[[[140.167103,38.813791],[140.165259,38.81483],[140.168364,38.558553],[140.197829,38.56395],[140.232743,38.66238],[140.167103,38.813791]]]},"properties":{}}},
    {"code":1122005,"id":934,"name":"古口","original_name":"古口","name_kana":"ふるくち","closed":false,"lat":38.737129,"lng":140.14602,"prefecture":6,"lines":[11220],"attr":"cool","postal_code":"999-6801","address":"最上郡戸沢村大字古口","voronoi":{"type":"Feature","geometry":{"type":"Polygon","coordinates":[[[140.165259,38.81483],[140.168364,38.558553],[140.165204,38.557598],[140.066423,38.540311],[140.129891,38.848993],[140.165259,38.81483]]]},"properties":{}}},
    {"code":1122006,"id":935,"name":"高屋","original_name":"高屋","name_kana":"たかや","closed":false,"lat":38.752567,"lng":140.070936,"prefecture":6,"lines":[11220],"attr":"eco","postal_code":"999-6401","address":"最上郡戸沢村大字古口字高屋番外地","voronoi":{"type":"Feature","geometry":{"type":"Polygon","coordinates":[[[140.066423,38.540311],[139.96602,38.503116],[139.963476,38.551236],[139.973072,38.65678],[139.991301,38.69854],[140.119636,38.869864],[140.129891,38.848993],[140.066423,38.540311]]]},"properties":{}}},
    {"code":1122007,"id":936,"name":"清川","original_name":"清川","name_kana":"きよかわ","closed":false,"lat":38.790152,"lng":140.020761,"prefecture":6,"lines":[11220],"attr":"eco","postal_code":"999-6606","address":"東田川郡庄内町清川","voronoi":{"type":"Feature","geometry":{"type":"Polygon","coordinates":[[[140.109712,38.917036],[140.119636,38.869864],[139.991301,38.69854],[140.004466,38.863142],[140.018614,38.901584],[140.069944,38.957005],[140.077552,38.961716],[140.08212,38.964054],[140.109712,38.917036]]]},"properties":{}}},
    {"code":1122008,"id":937,"name":"狩川","original_name":"狩川","name_kana":"かりかわ","closed":false,"lat":38.79367,"lng":139.976777,"prefecture":6,"lines":[11220],"attr":"eco","postal_code":"999-6601","address":"東田川郡庄内町狩川","voronoi":{"type":"Feature","geometry":{"type":"Polygon","coordinates":[[[140.004466,38.863142],[139.937259,38.775121],[139.973072,38.65678],[139.991301,38.69854],[140.004466,38.863142]]]},"properties":{}}},
    {"code":1122009,"id":938,"name":"南野","original_name":"南野","name_kana":"みなみの","closed":false,"lat":38.81813,"lng":139.944742,"prefecture":6,"lines":[11220],"attr":"eco","postal_code":"999-7727","address":"東田川郡庄内町南野","voronoi":{"type":"Feature","geometry":{"type":"Polygon","coordinates":[[[140.004466,38.863142],[139.937259,38.775121],[139.932458,38.780036],[139.924197,38.826319],[139.95211,38.861908],[139.980929,38.883296],[140.018614,38.901584],[140.004466,38.863142]]]},"properties":{}}},
    {"code":1121434,"id":818,"name":"余目","original_name":"余目","name_kana":"あまるめ","closed":false,"lat":38.844321,"lng":139.911348,"prefecture":6,"lines":[11214,11220],"attr":"eco","postal_code":"999-7700","address":"東田川郡庄内町沢田","voronoi":{"type":"Feature","geometry":{"type":"Polygon","coordinates":[[[139.825131,38.837177],[139.924197,38.826319],[139.95211,38.861908],[139.841142,38.84626],[139.825131,38.837177]]]},"properties":{}}}
  ]
}