{
  "code":11229,
  "id":"e785de",
  "name":"JR常磐線(取手～いわき)",
  "name_kana":"じぇいあーるじょうばんせん",
  "station_size":35,
  "company_code":2,
  "closed":false,
  "color":"#3333FF",
  "station_list":[
    {"code":1122901,"id":"c5ce9c","name":"取手","original_name":"取手","name_kana":"とりで","closed":false,"lat":35.89553,"lng":140.063004,"prefecture":8,"lines":[11229,11320,99318],"attr":"eco","postal_code":"302-0014","address":"取手市中央町","voronoi":{"type":"Feature","geometry":{"type":"Polygon","coordinates":[[[140.041086,35.8945],[140.051919,35.884222],[140.06342,35.877625],[140.096508,35.89507],[140.089803,35.909867],[140.049457,35.898843],[140.041086,35.8945]]]},"properties":{}}},
    {"code":1122902,"id":"ee4a78","name":"藤代","original_name":"藤代","name_kana":"ふじしろ","closed":false,"lat":35.920565,"lng":140.118251,"prefecture":8,"lines":[11229],"attr":"eco","postal_code":"300-1514","address":"取手市宮和田","voronoi":{"type":"Feature","geometry":{"type":"Polygon","coordinates":[[[140.114532,35.95423],[140.086091,35.966068],[140.080393,35.95998],[140.082042,35.947966],[140.089803,35.909867],[140.096508,35.89507],[140.097407,35.894392],[140.135625,35.887037],[140.136444,35.887206],[140.137194,35.905796],[140.134319,35.912102],[140.114532,35.95423]]]},"properties":{}}},
    {"code":1122903,"id":"bc7e43","name":"龍ケ崎市","original_name":"龍ケ崎市","name_kana":"りゅうがさきし","closed":false,"lat":35.929872,"lng":140.138066,"prefecture":8,"lines":[11229],"attr":"eco","postal_code":"301-0033","address":"龍ケ崎市佐貫町","voronoi":{"type":"Feature","geometry":{"type":"Polygon","coordinates":[[[140.114532,35.95423],[140.143285,35.952349],[140.134319,35.912102],[140.114532,35.95423]]]},"properties":{}}},
    {"code":1122904,"id":"53c75c","name":"牛久","original_name":"牛久","name_kana":"うしく","closed":false,"lat":35.975314,"lng":140.141039,"prefecture":8,"lines":[11229],"attr":"eco","postal_code":"300-1221","address":"牛久市牛久町","voronoi":{"type":"Feature","geometry":{"type":"Polygon","coordinates":[[[140.163276,35.951221],[140.143285,35.952349],[140.114532,35.95423],[140.086091,35.966068],[140.090868,35.990763],[140.106377,36.014692],[140.200237,35.964809],[140.189732,35.958843],[140.163276,35.951221]]]},"properties":{}}},
    {"code":1122905,"id":"69a5cc","name":"ひたち野うしく","original_name":"ひたち野うしく","name_kana":"ひたちのうしく","closed":false,"lat":36.007996,"lng":140.158408,"prefecture":8,"lines":[11229],"attr":"eco","postal_code":"300-1202","address":"牛久市中根町３９５番地２号","voronoi":{"type":"Feature","geometry":{"type":"Polygon","coordinates":[[[140.117307,36.034213],[140.271746,35.982779],[140.275371,35.980325],[140.200237,35.964809],[140.106377,36.014692],[140.109545,36.029232],[140.117307,36.034213]]]},"properties":{}}},
    {"code":1122906,"id":"0c41c5","name":"荒川沖","original_name":"荒川沖","name_kana":"あらかわおき","closed":false,"lat":36.030552,"lng":140.16592,"prefecture":8,"lines":[11229],"attr":"eco","postal_code":"300-0871","address":"土浦市大字荒川沖東２","voronoi":{"type":"Feature","geometry":{"type":"Polygon","coordinates":[[[140.158312,36.077876],[140.117307,36.034213],[140.271746,35.982779],[140.158312,36.077876]]]},"properties":{}}},
    {"code":1122907,"id":"ec441e","name":"土浦","original_name":"土浦","name_kana":"つちうら","closed":false,"lat":36.078644,"lng":140.206238,"prefecture":8,"lines":[11229],"attr":"eco","postal_code":"300-0035","address":"土浦市有明町","voronoi":{"type":"Feature","geometry":{"type":"Polygon","coordinates":[[[140.275371,35.980325],[140.279595,35.979647],[140.318602,36.007056],[140.161867,36.166031],[140.158312,36.077876],[140.271746,35.982779],[140.275371,35.980325]]]},"properties":{}}},
    {"code":1122908,"id":"1ed370","name":"神立","original_name":"神立","name_kana":"かんだつ","closed":false,"lat":36.120424,"lng":140.248615,"prefecture":8,"lines":[11229],"attr":"eco","postal_code":"300-0011","address":"土浦市神立中央","voronoi":{"type":"Feature","geometry":{"type":"Polygon","coordinates":[[[140.254783,36.160089],[140.151037,36.205441],[140.161867,36.166031],[140.318602,36.007056],[140.342346,36.01674],[140.370667,36.03708],[140.254783,36.160089]]]},"properties":{}}},
    {"code":1122909,"id":"d2be36","name":"高浜(茨城)","original_name":"高浜","name_kana":"たかはま","closed":false,"lat":36.163882,"lng":140.294745,"prefecture":8,"lines":[11229],"attr":"eco","postal_code":"315-0044","address":"石岡市北根本","voronoi":{"type":"Feature","geometry":{"type":"Polygon","coordinates":[[[140.399142,36.049346],[140.403335,36.072722],[140.407368,36.154088],[140.401654,36.201506],[140.397634,36.215919],[140.349039,36.211305],[140.254783,36.160089],[140.370667,36.03708],[140.399142,36.049346]]]},"properties":{}}},
    {"code":1122910,"id":"b64f4e","name":"石岡","original_name":"石岡","name_kana":"いしおか","closed":false,"lat":36.191554,"lng":140.279709,"prefecture":8,"lines":[11229],"attr":"eco","postal_code":"315-0014","address":"石岡市国府１","voronoi":{"type":"Feature","geometry":{"type":"Polygon","coordinates":[[[140.151037,36.205441],[140.14365,36.216895],[140.154188,36.225696],[140.16867,36.234068],[140.349039,36.211305],[140.254783,36.160089],[140.151037,36.205441]]]},"properties":{}}},
    {"code":1122911,"id":"d6069e","name":"羽鳥","original_name":"羽鳥","name_kana":"はとり","closed":false,"lat":36.247661,"lng":140.28679,"prefecture":8,"lines":[11229],"attr":"eco","postal_code":"319-0123","address":"小美玉市羽鳥","voronoi":{"type":"Feature","geometry":{"type":"Polygon","coordinates":[[[140.402558,36.264262],[140.360321,36.287038],[140.356668,36.287731],[140.186434,36.251095],[140.16867,36.234068],[140.349039,36.211305],[140.397634,36.215919],[140.402558,36.264262]]]},"properties":{}}},
    {"code":1122912,"id":"d2460d","name":"岩間","original_name":"岩間","name_kana":"いわま","closed":false,"lat":36.295508,"lng":140.276493,"prefecture":8,"lines":[11229],"attr":"eco","postal_code":"319-0202","address":"笠間市下郷","voronoi":{"type":"Feature","geometry":{"type":"Polygon","coordinates":[[[140.236856,36.324754],[140.246836,36.328612],[140.308158,36.313983],[140.356668,36.287731],[140.186434,36.251095],[140.227996,36.317331],[140.236856,36.324754]]]},"properties":{}}},
    {"code":1122913,"id":"11cbb8","name":"友部","original_name":"友部","name_kana":"ともべ","closed":false,"lat":36.350597,"lng":140.306306,"prefecture":8,"lines":[11229,11339],"attr":"eco","postal_code":"309-1735","address":"笠間市友部駅前１番","voronoi":{"type":"Feature","geometry":{"type":"Polygon","coordinates":[[[140.356668,36.287731],[140.360321,36.287038],[140.301228,36.427895],[140.285172,36.385151],[140.308158,36.313983],[140.356668,36.287731]]]},"properties":{}}},
    {"code":1122914,"id":"18378d","name":"内原","original_name":"内原","name_kana":"うちはら","closed":false,"lat":36.370111,"lng":140.35282,"prefecture":8,"lines":[11229],"attr":"eco","postal_code":"319-0315","address":"水戸市内原町","voronoi":{"type":"Feature","geometry":{"type":"Polygon","coordinates":[[[140.402558,36.264262],[140.360321,36.287038],[140.301228,36.427895],[140.302695,36.480867],[140.323371,36.478739],[140.339017,36.473483],[140.369395,36.454419],[140.404471,36.266363],[140.402558,36.264262]]]},"properties":{}}},
    {"code":1122915,"id":"b80311","name":"赤塚","original_name":"赤塚","name_kana":"あかつか","closed":false,"lat":36.381755,"lng":140.415248,"prefecture":8,"lines":[11229],"attr":"eco","postal_code":"311-4141","address":"水戸市赤塚１","voronoi":{"type":"Feature","geometry":{"type":"Polygon","coordinates":[[[140.369395,36.454419],[140.405377,36.447801],[140.436935,36.429628],[140.442983,36.411371],[140.413367,36.271876],[140.404471,36.266363],[140.369395,36.454419]]]},"properties":{}}},
    {"code":1122916,"id":"f2cb3d","name":"偕楽園","original_name":"偕楽園","name_kana":"かいらくえん","closed":false,"lat":36.373041,"lng":140.456292,"prefecture":8,"lines":[11229],"attr":"eco","postal_code":"310-0033","address":"水戸市常磐町字神崎","voronoi":{"type":"Feature","geometry":{"type":"Polygon","coordinates":[[[140.458786,36.297603],[140.467884,36.385026],[140.46511,36.392449],[140.442983,36.411371],[140.413367,36.271876],[140.428967,36.277796],[140.458786,36.297603]]]},"properties":{}}},
    {"code":1122917,"id":"7204b1","name":"水戸","original_name":"水戸","name_kana":"みと","closed":false,"lat":36.370911,"lng":140.47676,"prefecture":8,"lines":[11229,11338,99323],"attr":"eco","postal_code":"310-0015","address":"水戸市宮町１丁目","voronoi":{"type":"Feature","geometry":{"type":"Polygon","coordinates":[[[140.496651,36.367465],[140.467884,36.385026],[140.458786,36.297603],[140.483076,36.309323],[140.496651,36.367465]]]},"properties":{}}},
    {"code":1122918,"id":"7c1f97","name":"勝田","original_name":"勝田","name_kana":"かつた","closed":false,"lat":36.394033,"lng":140.524482,"prefecture":8,"lines":[11229,99315],"attr":"cool","postal_code":"312-0045","address":"ひたちなか市勝田中央","voronoi":{"type":"Feature","geometry":{"type":"Polygon","coordinates":[[[140.532918,36.391151],[140.503953,36.390858],[140.502781,36.395341],[140.505651,36.407109],[140.5162,36.419379],[140.549441,36.404763],[140.532918,36.391151]]]},"properties":{}}},
    {"code":1122919,"id":"2417cf","name":"佐和","original_name":"佐和","name_kana":"さわ","closed":false,"lat":36.430409,"lng":140.540477,"prefecture":8,"lines":[11229],"attr":"cool","postal_code":"312-0062","address":"ひたちなか市大字高場","voronoi":{"type":"Feature","geometry":{"type":"Polygon","coordinates":[[[140.549441,36.404763],[140.5162,36.419379],[140.515979,36.421065],[140.518433,36.443939],[140.520501,36.450425],[140.524792,36.458642],[140.530579,36.46382],[140.530898,36.464034],[140.587089,36.423287],[140.576994,36.407791],[140.563,36.402974],[140.549441,36.404763]]]},"properties":{}}},
    {"code":1122920,"id":"de7b96","name":"東海","original_name":"東海","name_kana":"とうかい","closed":false,"lat":36.465378,"lng":140.565835,"prefecture":8,"lines":[11229],"attr":"cool","postal_code":"319-1111","address":"那珂郡東海村大字舟石川","voronoi":{"type":"Feature","geometry":{"type":"Polygon","coordinates":[[[140.571908,36.512446],[140.629705,36.447553],[140.587089,36.423287],[140.530898,36.464034],[140.536464,36.481112],[140.54874,36.495065],[140.571908,36.512446]]]},"properties":{}}},
    {"code":1122921,"id":"fdb18c","name":"大甕","original_name":"大甕","name_kana":"おおみか","closed":false,"lat":36.513052,"lng":140.619362,"prefecture":8,"lines":[11229],"attr":"cool","postal_code":"319-1221","address":"日立市大みか町２","voronoi":{"type":"Feature","geometry":{"type":"Polygon","coordinates":[[[140.578832,36.548677],[140.755989,36.488315],[140.838224,36.443113],[140.681905,36.444763],[140.629705,36.447553],[140.571908,36.512446],[140.572056,36.51453],[140.578832,36.548677]]]},"properties":{}}},
    {"code":1122922,"id":"801c57","name":"常陸多賀","original_name":"常陸多賀","name_kana":"ひたちたが","closed":false,"lat":36.552145,"lng":140.632682,"prefecture":8,"lines":[11229],"attr":"cool","postal_code":"316-0003","address":"日立市多賀町１","voronoi":{"type":"Feature","geometry":{"type":"Polygon","coordinates":[[[140.578832,36.548677],[140.56123,36.636949],[140.755989,36.488315],[140.578832,36.548677]]]},"properties":{}}},
    {"code":1122923,"id":"eb7f84","name":"日立","original_name":"日立","name_kana":"ひたち","closed":false,"lat":36.590408,"lng":140.661883,"prefecture":8,"lines":[11229],"attr":"cool","postal_code":"317-0073","address":"日立市幸町１","voronoi":{"type":"Feature","geometry":{"type":"Polygon","coordinates":[[[141.452212,36.316187],[140.838224,36.443113],[140.755989,36.488315],[140.56123,36.636949],[140.557357,36.645724],[140.989573,36.520375],[141.452818,36.316326],[141.452212,36.316187]]]},"properties":{}}},
    {"code":1122924,"id":"8ec400","name":"小木津","original_name":"小木津","name_kana":"おぎつ","closed":false,"lat":36.636533,"lng":140.67526,"prefecture":8,"lines":[11229],"attr":"cool","postal_code":"319-1414","address":"日立市日高町１","voronoi":{"type":"Feature","geometry":{"type":"Polygon","coordinates":[[[140.989573,36.520375],[140.557357,36.645724],[140.536308,36.675205],[140.535681,36.689606],[140.537602,36.699015],[140.819827,36.610182],[140.989573,36.520375]]]},"properties":{}}},
    {"code":1122925,"id":"ea3e19","name":"十王","original_name":"十王","name_kana":"じゅうおう","closed":false,"lat":36.671385,"lng":140.68623,"prefecture":8,"lines":[11229],"attr":"heat","postal_code":"319-1304","address":"日立市十王町友部","voronoi":{"type":"Feature","geometry":{"type":"Polygon","coordinates":[[[140.537602,36.699015],[140.541176,36.74348],[140.54515,36.758104],[140.566321,36.786092],[140.576069,36.781011],[140.819827,36.610182],[140.537602,36.699015]]]},"properties":{}}},
    {"code":1122926,"id":"f6eaa1","name":"高萩","original_name":"高萩","name_kana":"たかはぎ","closed":false,"lat":36.714873,"lng":140.716707,"prefecture":8,"lines":[11229],"attr":"heat","postal_code":"318-0034","address":"高萩市大字高萩","voronoi":{"type":"Feature","geometry":{"type":"Polygon","coordinates":[[[141.484895,36.435946],[141.193761,36.571946],[141.0271,36.637147],[140.576069,36.781011],[140.819827,36.610182],[140.989573,36.520375],[141.452818,36.316326],[141.491692,36.321962],[141.644977,36.344565],[141.484895,36.435946]]]},"properties":{}}},
    {"code":1122927,"id":"c469cb","name":"南中郷","original_name":"南中郷","name_kana":"みなみなかごう","closed":false,"lat":36.753501,"lng":140.729028,"prefecture":8,"lines":[11229],"attr":"heat","postal_code":"319-1555","address":"北茨城市中郷町小野矢指","voronoi":{"type":"Feature","geometry":{"type":"Polygon","coordinates":[[[140.566321,36.786092],[140.576069,36.781011],[141.0271,36.637147],[140.587689,36.842039],[140.566321,36.786092]]]},"properties":{}}},
    {"code":1122928,"id":"ff59f8","name":"磯原","original_name":"磯原","name_kana":"いそはら","closed":false,"lat":36.790684,"lng":140.746366,"prefecture":8,"lines":[11229],"attr":"heat","postal_code":"319-1541","address":"北茨城市磯原町磯原","voronoi":{"type":"Feature","geometry":{"type":"Polygon","coordinates":[[[140.614454,36.902741],[140.603775,36.90734],[140.587689,36.842039],[141.0271,36.637147],[141.193761,36.571946],[140.614454,36.902741]]]},"properties":{}}},
    {"code":1122929,"id":"fe8574","name":"大津港","original_name":"大津港","name_kana":"おおつこう","closed":false,"lat":36.846085,"lng":140.778001,"prefecture":8,"lines":[11229],"attr":"heat","postal_code":"319-1704","address":"北茨城市大津町北町","voronoi":{"type":"Feature","geometry":{"type":"Polygon","coordinates":[[[140.614454,36.902741],[140.908531,36.83657],[141.484895,36.435946],[141.193761,36.571946],[140.614454,36.902741]]]},"properties":{}}},
    {"code":1122930,"id":"b77dcb","name":"勿来","original_name":"勿来","name_kana":"なこそ","closed":false,"lat":36.883883,"lng":140.786506,"prefecture":7,"lines":[11229],"attr":"eco","postal_code":"979-0146","address":"いわき市勿来町関田寺下","voronoi":{"type":"Feature","geometry":{"type":"Polygon","coordinates":[[[140.605544,36.952648],[140.603629,36.943052],[140.602917,36.930234],[140.603775,36.90734],[140.614454,36.902741],[140.908531,36.83657],[140.857953,36.884257],[140.605544,36.952648]]]},"properties":{}}},
    {"code":1122931,"id":"72edbb","name":"植田(福島)","original_name":"植田","name_kana":"うえだ","closed":false,"lat":36.920649,"lng":140.796468,"prefecture":7,"lines":[11229],"attr":"eco","postal_code":"974-8261","address":"いわき市植田町金畑","voronoi":{"type":"Feature","geometry":{"type":"Polygon","coordinates":[[[140.605544,36.952648],[140.61175,37.015469],[140.613756,37.020286],[140.625548,37.039181],[140.685679,37.048917],[140.801668,36.977102],[140.857953,36.884257],[140.605544,36.952648]]]},"properties":{}}},
    {"code":1122932,"id":"28f062","name":"泉(JR)","original_name":"泉","name_kana":"いずみ","closed":false,"lat":36.955602,"lng":140.854125,"prefecture":7,"lines":[11229],"attr":"eco","postal_code":"971-8182","address":"福島県いわき市泉町滝尻上谷地30","voronoi":{"type":"Feature","geometry":{"type":"Polygon","coordinates":[[[140.857953,36.884257],[140.801668,36.977102],[140.925824,36.987362],[140.944046,36.98059],[141.27631,36.718967],[141.709099,36.345031],[141.644977,36.344565],[141.484895,36.435946],[140.908531,36.83657],[140.857953,36.884257]]]},"properties":{}}},
    {"code":1122933,"id":"51da2a","name":"湯本","original_name":"湯本","name_kana":"ゆもと","closed":false,"lat":37.006922,"lng":140.849884,"prefecture":7,"lines":[11229],"attr":"heat","postal_code":"972-8321","address":"いわき市常磐湯本町天王崎","voronoi":{"type":"Feature","geometry":{"type":"Polygon","coordinates":[[[140.893361,37.014177],[140.688582,37.050371],[140.685679,37.048917],[140.801668,36.977102],[140.925824,36.987362],[140.893361,37.014177]]]},"properties":{}}},
    {"code":1122934,"id":"e7c171","name":"内郷","original_name":"内郷","name_kana":"うちごう","closed":false,"lat":37.035895,"lng":140.855005,"prefecture":7,"lines":[11229],"attr":"heat","postal_code":"973-8403","address":"いわき市内郷綴町榎下","voronoi":{"type":"Feature","geometry":{"type":"Polygon","coordinates":[[[140.688582,37.050371],[140.747618,37.086786],[140.868046,37.056397],[140.893361,37.014177],[140.688582,37.050371]]]},"properties":{}}},
    {"code":1122801,"id":"5984ad","name":"いわき","original_name":"いわき","name_kana":"いわき","closed":false,"lat":37.058241,"lng":140.892273,"prefecture":7,"lines":[11228,11229,11230],"attr":"heat","postal_code":"970-8026","address":"いわき市平字田町","voronoi":{"type":"Feature","geometry":{"type":"Polygon","coordinates":[[[140.893361,37.014177],[140.868046,37.056397],[140.908998,37.103914],[140.944046,36.98059],[140.925824,36.987362],[140.893361,37.014177]]]},"properties":{}}}
  ]
}