{
  "code":11309,
  "id":59,
  "name":"JR相模線",
  "name_kana":"じぇいあーるさがみせん",
  "station_size":18,
  "company_code":2,
  "closed":false,
  "color":"#009793",
  "station_list":[
    {"code":1130110,"id":1267,"name":"茅ケ崎","original_name":"茅ケ崎","name_kana":"ちがさき","closed":false,"lat":35.330741,"lng":139.407197,"prefecture":14,"lines":[11301,11309],"attr":"cool","postal_code":"253-0043","address":"神奈川県茅ヶ崎市元町1-1","voronoi":{"type":"Feature","geometry":{"type":"Polygon","coordinates":[[[139.396283,35.147364],[139.429967,35.266596],[139.433738,35.290745],[139.427107,35.334083],[139.377754,35.336262],[139.384879,35.20239],[139.396283,35.147364]]]},"properties":{}}},
    {"code":1130902,"id":1411,"name":"北茅ケ崎","original_name":"北茅ケ崎","name_kana":"きたちがさき","closed":false,"lat":35.339167,"lng":139.407569,"prefecture":14,"lines":[11309],"attr":"cool","postal_code":"253-0041","address":"神奈川県茅ヶ崎市茅ヶ崎三丁目3-1","voronoi":{"type":"Feature","geometry":{"type":"Polygon","coordinates":[[[139.377696,35.336555],[139.377754,35.336262],[139.427107,35.334083],[139.428544,35.358567],[139.377696,35.336555]]]},"properties":{}}},
    {"code":1130903,"id":1412,"name":"香川","original_name":"香川","name_kana":"かがわ","closed":false,"lat":35.35655,"lng":139.400044,"prefecture":14,"lines":[11309],"attr":"cool","postal_code":"253-0082","address":"茅ヶ崎市香川","voronoi":{"type":"Feature","geometry":{"type":"Polygon","coordinates":[[[139.377696,35.336555],[139.375224,35.340916],[139.421799,35.39409],[139.422458,35.39446],[139.432288,35.378115],[139.434416,35.372592],[139.428544,35.358567],[139.377696,35.336555]]]},"properties":{}}},
    {"code":1130904,"id":1413,"name":"寒川","original_name":"寒川","name_kana":"さむかわ","closed":false,"lat":35.367579,"lng":139.387452,"prefecture":14,"lines":[11309],"attr":"cool","postal_code":"253-0105","address":"高座郡寒川町岡田","voronoi":{"type":"Feature","geometry":{"type":"Polygon","coordinates":[[[139.415986,35.392183],[139.355421,35.359954],[139.375224,35.340916],[139.421799,35.39409],[139.415986,35.392183]]]},"properties":{}}},
    {"code":1130906,"id":1414,"name":"宮山","original_name":"宮山","name_kana":"みややま","closed":false,"lat":35.382261,"lng":139.379639,"prefecture":14,"lines":[11309],"attr":"cool","postal_code":"253-0106","address":"高座郡寒川町宮山","voronoi":{"type":"Feature","geometry":{"type":"Polygon","coordinates":[[[139.415986,35.392183],[139.347697,35.385709],[139.345518,35.383519],[139.342134,35.367392],[139.355421,35.359954],[139.415986,35.392183]]]},"properties":{}}},
    {"code":1130907,"id":1415,"name":"倉見","original_name":"倉見","name_kana":"くらみ","closed":false,"lat":35.395098,"lng":139.378422,"prefecture":14,"lines":[11309],"attr":"cool","postal_code":"253-0101","address":"高座郡寒川町倉見","voronoi":{"type":"Feature","geometry":{"type":"Polygon","coordinates":[[[139.422458,35.39446],[139.422456,35.394573],[139.359593,35.403828],[139.347697,35.385709],[139.415986,35.392183],[139.421799,35.39409],[139.422458,35.39446]]]},"properties":{}}},
    {"code":1130908,"id":1416,"name":"門沢橋","original_name":"門沢橋","name_kana":"かどさわばし","closed":false,"lat":35.406761,"lng":139.380139,"prefecture":14,"lines":[11309],"attr":"cool","postal_code":"243-0426","address":"海老名市門沢橋","voronoi":{"type":"Feature","geometry":{"type":"Polygon","coordinates":[[[139.423283,35.401526],[139.422456,35.394573],[139.359593,35.403828],[139.361479,35.410079],[139.421612,35.422549],[139.421906,35.421582],[139.423283,35.401526]]]},"properties":{}}},
    {"code":1130909,"id":1417,"name":"社家","original_name":"社家","name_kana":"しゃけ","closed":false,"lat":35.420543,"lng":139.377281,"prefecture":14,"lines":[11309],"attr":"cool","postal_code":"243-0424","address":"海老名市社家","voronoi":{"type":"Feature","geometry":{"type":"Polygon","coordinates":[[[139.401964,35.43075],[139.374265,35.432361],[139.36037,35.422735],[139.361479,35.410079],[139.421612,35.422549],[139.421583,35.422758],[139.419519,35.424482],[139.401964,35.43075]]]},"properties":{}}},
    {"code":1130910,"id":1418,"name":"厚木","original_name":"厚木","name_kana":"あつぎ","closed":false,"lat":35.44375,"lng":139.378631,"prefecture":14,"lines":[11309,25001],"attr":"cool","postal_code":"243-0433","address":"海老名市河原口","voronoi":{"type":"Feature","geometry":{"type":"Polygon","coordinates":[[[139.364093,35.469214],[139.362798,35.469709],[139.374265,35.432361],[139.401964,35.43075],[139.364093,35.469214]]]},"properties":{}}},
    {"code":1130911,"id":1419,"name":"海老名","original_name":"海老名","name_kana":"えびな","closed":false,"lat":35.454282,"lng":139.389328,"prefecture":14,"lines":[11309,25001,29001],"attr":"cool","postal_code":"243-0434","address":"海老名市上郷","voronoi":{"type":"Feature","geometry":{"type":"Polygon","coordinates":[[[139.400326,35.46533],[139.400281,35.465348],[139.364093,35.469214],[139.401964,35.43075],[139.419519,35.424482],[139.400326,35.46533]]]},"properties":{}}},
    {"code":1130912,"id":1420,"name":"入谷(神奈川)","original_name":"入谷","name_kana":"いりや","closed":false,"lat":35.478478,"lng":139.391913,"prefecture":14,"lines":[11309],"attr":"heat","postal_code":"252-0029","address":"神奈川県座間市入谷西五丁目45番1号","voronoi":{"type":"Feature","geometry":{"type":"Polygon","coordinates":[[[139.35777,35.473262],[139.362798,35.469709],[139.364093,35.469214],[139.400281,35.465348],[139.393568,35.487364],[139.35777,35.473262]]]},"properties":{}}},
    {"code":1130913,"id":1421,"name":"相武台下","original_name":"相武台下","name_kana":"そうぶだいした","closed":false,"lat":35.492734,"lng":139.386297,"prefecture":14,"lines":[11309],"attr":"heat","postal_code":"252-0326","address":"相模原市南区新戸1940","voronoi":{"type":"Feature","geometry":{"type":"Polygon","coordinates":[[[139.393859,35.508014],[139.316327,35.490365],[139.35777,35.473262],[139.393568,35.487364],[139.398337,35.492852],[139.393859,35.508014]]]},"properties":{}}},
    {"code":1130914,"id":1422,"name":"下溝","original_name":"下溝","name_kana":"しもみぞ","closed":false,"lat":35.518516,"lng":139.380428,"prefecture":14,"lines":[11309],"attr":"heat","postal_code":"252-0335","address":"相模原市南区下溝1364","voronoi":{"type":"Feature","geometry":{"type":"Polygon","coordinates":[[[139.401715,35.535299],[139.311205,35.491411],[139.316327,35.490365],[139.393859,35.508014],[139.401713,35.519489],[139.402885,35.534092],[139.401715,35.535299]]]},"properties":{}}},
    {"code":1130915,"id":1423,"name":"原当麻","original_name":"原当麻","name_kana":"はらたいま","closed":false,"lat":35.528978,"lng":139.375355,"prefecture":14,"lines":[11309],"attr":"heat","postal_code":"252-0336","address":"相模原市南区当麻1288-1","voronoi":{"type":"Feature","geometry":{"type":"Polygon","coordinates":[[[139.311205,35.491411],[139.308811,35.491707],[139.384901,35.549036],[139.396896,35.543094],[139.401715,35.535299],[139.311205,35.491411]]]},"properties":{}}},
    {"code":1130916,"id":1424,"name":"番田(神奈川)","original_name":"番田","name_kana":"ばんだ","closed":false,"lat":35.545392,"lng":139.362988,"prefecture":14,"lines":[11309],"attr":"heat","postal_code":"252-0243","address":"相模原市中央区上溝378","voronoi":{"type":"Feature","geometry":{"type":"Polygon","coordinates":[[[139.384901,35.549036],[139.383295,35.55124],[139.321559,35.552057],[139.268841,35.536249],[139.26583,35.534718],[139.249146,35.516855],[139.243492,35.503141],[139.249452,35.500051],[139.266764,35.494344],[139.286416,35.491438],[139.308811,35.491707],[139.384901,35.549036]]]},"properties":{}}},
    {"code":1130917,"id":1425,"name":"上溝","original_name":"上溝","name_kana":"かみみぞ","closed":false,"lat":35.557623,"lng":139.36315,"prefecture":14,"lines":[11309],"attr":"eco","postal_code":"252-0243","address":"相模原市中央区上溝七丁目19-13","voronoi":{"type":"Feature","geometry":{"type":"Polygon","coordinates":[[[139.321559,35.552057],[139.362119,35.571034],[139.373579,35.567204],[139.382171,35.554456],[139.383295,35.55124],[139.321559,35.552057]]]},"properties":{}}},
    {"code":1130918,"id":1426,"name":"南橋本","original_name":"南橋本","name_kana":"みなみはしもと","closed":false,"lat":35.58042,"lng":139.352484,"prefecture":14,"lines":[11309],"attr":"eco","postal_code":"252-0253","address":"相模原市中央区南橋本二丁目4-17","voronoi":{"type":"Feature","geometry":{"type":"Polygon","coordinates":[[[139.302819,35.562891],[139.268841,35.536249],[139.321559,35.552057],[139.362119,35.571034],[139.361392,35.590001],[139.357562,35.592596],[139.302819,35.562891]]]},"properties":{}}},
    {"code":1130616,"id":1384,"name":"橋本(神奈川)","original_name":"橋本","name_kana":"はしもと","closed":false,"lat":35.594975,"lng":139.344586,"prefecture":14,"lines":[11306,11309,24002],"attr":"heat","postal_code":"252-0143","address":"神奈川県相模原市緑区橋本六丁目1番25号","voronoi":{"type":"Feature","geometry":{"type":"Polygon","coordinates":[[[139.302819,35.562891],[139.350823,35.61463],[139.357562,35.592596],[139.302819,35.562891]]]},"properties":{}}}
  ]
}