{
  "code":11311,
  "id":60,
  "name":"JR中央本線(東京～塩尻)",
  "name_kana":"じぇいあーるちゅうおうほんせん",
  "station_size":53,
  "company_code":2,
  "closed":false,
  "color":"#0000FF",
  "station_list":[
    {"code":100201,"id":1258,"name":"東京","original_name":"東京","name_kana":"とうきょう","closed":false,"lat":35.681391,"lng":139.766103,"prefecture":13,"lines":[1002,1004,1005,11301,11302,11308,11311,11312,11314,11326,11328,11332,11343,28002],"attr":"heat","postal_code":"100-0005","address":"東京都千代田区丸の内一丁目","open_date":"1914-12-20","voronoi":{"type":"Feature","geometry":{"type":"Polygon","coordinates":[[[139.766725,35.677891],[139.769904,35.680711],[139.769608,35.683913],[139.763811,35.684021],[139.76422,35.678699],[139.766421,35.67785],[139.766725,35.677891]]]},"properties":{}}},
    {"code":1131102,"id":1427,"name":"四ツ谷(四ッ谷)","original_name":"四ツ谷(四ッ谷)","name_kana":"よつや","closed":false,"lat":35.686041,"lng":139.730644,"prefecture":13,"lines":[11311,11312,11313,28002,28009],"attr":"heat","postal_code":"160-0004","address":"東京都新宿区四谷一丁目","voronoi":{"type":"Feature","geometry":{"type":"Polygon","coordinates":[[[139.729094,35.692067],[139.734699,35.686978],[139.732916,35.680871],[139.729443,35.678406],[139.728094,35.679065],[139.724891,35.684348],[139.725497,35.687677],[139.729094,35.692067]]]},"properties":{}}},
    {"code":1130208,"id":1286,"name":"新宿","original_name":"新宿","name_kana":"しんじゅく","closed":false,"lat":35.689729,"lng":139.700464,"prefecture":13,"lines":[11302,11311,11312,11313,11321,11328,11333,24001,25001,28002,99301,99304],"attr":"heat","postal_code":"160-0022","address":"東京都新宿区新宿三丁目38-1","open_date":"1885-03-01","voronoi":{"type":"Feature","geometry":{"type":"Polygon","coordinates":[[[139.696248,35.687559],[139.700731,35.686272],[139.703526,35.686933],[139.702152,35.692377],[139.696536,35.690327],[139.696248,35.687559]]]},"properties":{}}},
    {"code":1131104,"id":1428,"name":"吉祥寺","original_name":"吉祥寺","name_kana":"きちじょうじ","closed":false,"lat":35.703119,"lng":139.579765,"prefecture":13,"lines":[11311,11312,11313,24006],"attr":"heat","postal_code":"180-0003","address":"東京都武蔵野市吉祥寺南町","voronoi":{"type":"Feature","geometry":{"type":"Polygon","coordinates":[[[139.589215,35.71292],[139.583379,35.716083],[139.569791,35.714224],[139.57025,35.693771],[139.589512,35.704859],[139.589215,35.71292]]]},"properties":{}}},
    {"code":1131105,"id":1429,"name":"三鷹","original_name":"三鷹","name_kana":"みたか","closed":false,"lat":35.702683,"lng":139.560325,"prefecture":13,"lines":[11311,11312,11313],"attr":"cool","postal_code":"181-0013","address":"東京都三鷹市下連雀三丁目46-1","open_date":"1930-06-25","voronoi":{"type":"Feature","geometry":{"type":"Polygon","coordinates":[[[139.558161,35.716185],[139.551446,35.714153],[139.552755,35.677238],[139.553359,35.677043],[139.560667,35.677982],[139.567018,35.68008],[139.57025,35.693771],[139.569791,35.714224],[139.568775,35.714881],[139.558161,35.716185]]]},"properties":{}}},
    {"code":1131106,"id":1430,"name":"国分寺","original_name":"国分寺","name_kana":"こくぶんじ","closed":false,"lat":35.700123,"lng":139.480841,"prefecture":13,"lines":[11311,11312,22010,22011],"attr":"cool","postal_code":"185-0012","address":"東京都国分寺市本町二丁目1-23","voronoi":{"type":"Feature","geometry":{"type":"Polygon","coordinates":[[[139.473375,35.701608],[139.473626,35.691767],[139.485894,35.685998],[139.491049,35.685824],[139.494297,35.687317],[139.49327,35.709008],[139.473375,35.701608]]]},"properties":{}}},
    {"code":1130325,"id":1328,"name":"立川","original_name":"立川","name_kana":"たちかわ","closed":false,"lat":35.698202,"lng":139.413704,"prefecture":13,"lines":[11303,11311,11312,11315],"attr":"cool","postal_code":"190-0012","address":"東京都立川市曙町二丁目1-1","voronoi":{"type":"Feature","geometry":{"type":"Polygon","coordinates":[[[139.419325,35.704406],[139.411934,35.697788],[139.418115,35.69442],[139.422535,35.70453],[139.419325,35.704406]]]},"properties":{}}},
    {"code":1131108,"id":1431,"name":"日野(東京)","original_name":"日野","name_kana":"ひの","closed":false,"lat":35.679244,"lng":139.39393,"prefecture":13,"lines":[11311,11312],"attr":"cool","postal_code":"191-0061","address":"日野市大坂上１丁目","voronoi":{"type":"Feature","geometry":{"type":"Polygon","coordinates":[[[139.396819,35.691432],[139.40189,35.683869],[139.400862,35.667896],[139.399526,35.666391],[139.391448,35.66702],[139.3792,35.674735],[139.383323,35.690741],[139.384781,35.691247],[139.396819,35.691432]]]},"properties":{}}},
    {"code":1131109,"id":1432,"name":"豊田","original_name":"豊田","name_kana":"とよだ","closed":false,"lat":35.659502,"lng":139.381495,"prefecture":13,"lines":[11311,11312],"attr":"cool","postal_code":"191-0053","address":"日野市豊田４丁目","voronoi":{"type":"Feature","geometry":{"type":"Polygon","coordinates":[[[139.3792,35.674735],[139.391448,35.66702],[139.384812,35.652906],[139.369703,35.65486],[139.368119,35.656343],[139.37754,35.673914],[139.3792,35.674735]]]},"properties":{}}},
    {"code":1130620,"id":1388,"name":"八王子","original_name":"八王子","name_kana":"はちおうじ","closed":false,"lat":35.655555,"lng":139.338998,"prefecture":13,"lines":[11306,11311,11312,11317],"attr":"eco","postal_code":"192-0083","address":"東京都八王子市旭町1-1","voronoi":{"type":"Feature","geometry":{"type":"Polygon","coordinates":[[[139.325845,35.656727],[139.327165,35.689373],[139.328857,35.689258],[139.344357,35.648839],[139.329089,35.651512],[139.325845,35.656727]]]},"properties":{}}},
    {"code":1131111,"id":1433,"name":"西八王子","original_name":"西八王子","name_kana":"にしはちおうじ","closed":false,"lat":35.656621,"lng":139.31264,"prefecture":13,"lines":[11311,11312],"attr":"eco","postal_code":"193-0835","address":"八王子市千人町２丁目","voronoi":{"type":"Feature","geometry":{"type":"Polygon","coordinates":[[[139.296176,35.691038],[139.292505,35.689705],[139.308521,35.650762],[139.314453,35.648851],[139.325845,35.656727],[139.327165,35.689373],[139.322886,35.691414],[139.296176,35.691038]]]},"properties":{}}},
    {"code":1131112,"id":1434,"name":"高尾(東京)","original_name":"高尾","name_kana":"たかお","closed":false,"lat":35.642026,"lng":139.282288,"prefecture":13,"lines":[11311,11312,24003],"attr":"eco","postal_code":"193-0844","address":"八王子市高尾町","voronoi":{"type":"Feature","geometry":{"type":"Polygon","coordinates":[[[139.249185,35.680622],[139.243629,35.679002],[139.286007,35.624401],[139.288361,35.643927],[139.249185,35.680622]]]},"properties":{}}},
    {"code":1131113,"id":1435,"name":"相模湖","original_name":"相模湖","name_kana":"さがみこ","closed":false,"lat":35.617335,"lng":139.1885,"prefecture":14,"lines":[11311],"attr":"cool","postal_code":"252-0171","address":"相模原市緑区与瀬1395","voronoi":{"type":"Feature","geometry":{"type":"Polygon","coordinates":[[[139.175184,35.495873],[139.167614,35.68878],[139.220739,35.670501],[139.249146,35.516855],[139.243492,35.503141],[139.226096,35.496563],[139.216917,35.495171],[139.175184,35.495873]]]},"properties":{}}},
    {"code":1131114,"id":1436,"name":"藤野","original_name":"藤野","name_kana":"ふじの","closed":false,"lat":35.615918,"lng":139.15239,"prefecture":14,"lines":[11311],"attr":"cool","postal_code":"252-0184","address":"相模原市緑区小渕1698","voronoi":{"type":"Feature","geometry":{"type":"Polygon","coordinates":[[[139.167614,35.68878],[139.175184,35.495873],[139.124179,35.489122],[139.140951,35.706119],[139.167614,35.68878]]]},"properties":{}}},
    {"code":1131115,"id":1437,"name":"上野原","original_name":"上野原","name_kana":"うえのはら","closed":false,"lat":35.618747,"lng":139.115787,"prefecture":19,"lines":[11311],"attr":"cool","postal_code":"409-0113","address":"上野原市新田","voronoi":{"type":"Feature","geometry":{"type":"Polygon","coordinates":[[[139.131648,35.715319],[139.11857,35.715257],[139.08426,35.711868],[139.107497,35.488468],[139.108846,35.488282],[139.119946,35.487936],[139.124179,35.489122],[139.140951,35.706119],[139.131648,35.715319]]]},"properties":{}}},
    {"code":1131116,"id":1438,"name":"四方津","original_name":"四方津","name_kana":"しおつ","closed":false,"lat":35.614252,"lng":139.072572,"prefecture":19,"lines":[11311],"attr":"cool","postal_code":"409-0121","address":"上野原市四方津","voronoi":{"type":"Feature","geometry":{"type":"Polygon","coordinates":[[[139.028419,35.718848],[139.08426,35.711868],[139.107497,35.488468],[139.087063,35.487852],[139.02919,35.710141],[139.028419,35.718848]]]},"properties":{}}},
    {"code":1131117,"id":1439,"name":"梁川(山梨)","original_name":"梁川","name_kana":"やながわ","closed":false,"lat":35.605271,"lng":139.038076,"prefecture":19,"lines":[11311],"attr":"cool","postal_code":"409-0503","address":"大月市梁川町綱の上","voronoi":{"type":"Feature","geometry":{"type":"Polygon","coordinates":[[[139.011188,35.490532],[139.012469,35.485899],[139.075978,35.485941],[139.087063,35.487852],[139.02919,35.710141],[139.011188,35.490532]]]},"properties":{}}},
    {"code":1131118,"id":1440,"name":"鳥沢","original_name":"鳥沢","name_kana":"とりさわ","closed":false,"lat":35.608118,"lng":139.003345,"prefecture":19,"lines":[11311],"attr":"cool","postal_code":"409-0502","address":"大月市富浜町鳥沢","voronoi":{"type":"Feature","geometry":{"type":"Polygon","coordinates":[[[139.028419,35.718848],[139.002283,35.731007],[138.979302,35.562308],[139.011188,35.490532],[139.02919,35.710141],[139.028419,35.718848]]]},"properties":{}}},
    {"code":1131119,"id":1441,"name":"猿橋","original_name":"猿橋","name_kana":"さるはし","closed":false,"lat":35.61288,"lng":138.968388,"prefecture":19,"lines":[11311],"attr":"cool","postal_code":"409-0617","address":"大月市猿橋町殿上","voronoi":{"type":"Feature","geometry":{"type":"Polygon","coordinates":[[[138.957521,35.760298],[138.9553,35.593651],[138.955441,35.592445],[138.961561,35.580751],[138.979302,35.562308],[139.002283,35.731007],[138.957521,35.760298]]]},"properties":{}}},
    {"code":1131120,"id":1442,"name":"大月","original_name":"大月","name_kana":"おおつき","closed":false,"lat":35.613222,"lng":138.942729,"prefecture":19,"lines":[11311,99401],"attr":"heat","postal_code":"401-0013","address":"大月市大月１丁目","voronoi":{"type":"Feature","geometry":{"type":"Polygon","coordinates":[[[138.898062,35.793147],[138.918435,35.791034],[138.957521,35.760298],[138.9553,35.593651],[138.892657,35.667916],[138.876876,35.716855],[138.884166,35.761776],[138.898062,35.793147]]]},"properties":{}}},
    {"code":1131121,"id":1443,"name":"初狩","original_name":"初狩","name_kana":"はつかり","closed":false,"lat":35.594274,"lng":138.883966,"prefecture":19,"lines":[11311],"attr":"heat","postal_code":"401-0021","address":"大月市初狩町下初狩","voronoi":{"type":"Feature","geometry":{"type":"Polygon","coordinates":[[[138.850059,35.571528],[138.874819,35.565884],[138.880843,35.566267],[138.896532,35.576236],[138.90753,35.588752],[138.907948,35.612946],[138.892657,35.667916],[138.876876,35.716855],[138.872161,35.706154],[138.850059,35.571528]]]},"properties":{}}},
    {"code":1131122,"id":1444,"name":"笹子","original_name":"笹子","name_kana":"ささご","closed":false,"lat":35.603921,"lng":138.825205,"prefecture":19,"lines":[11311],"attr":"heat","postal_code":"401-0025","address":"大月市笹子町黒野田","voronoi":{"type":"Feature","geometry":{"type":"Polygon","coordinates":[[[138.841288,35.565616],[138.804033,35.556098],[138.794736,35.556061],[138.785459,35.557245],[138.761449,35.570046],[138.872161,35.706154],[138.850059,35.571528],[138.841288,35.565616]]]},"properties":{}}},
    {"code":1131123,"id":1445,"name":"甲斐大和","original_name":"甲斐大和","name_kana":"かいやまと","closed":false,"lat":35.639364,"lng":138.781632,"prefecture":19,"lines":[11311],"attr":"heat","postal_code":"409-1203","address":"甲州市大和町初鹿野","voronoi":{"type":"Feature","geometry":{"type":"Polygon","coordinates":[[[138.876876,35.716855],[138.872161,35.706154],[138.761449,35.570046],[138.699077,35.575694],[138.700064,35.583653],[138.70038,35.584788],[138.806326,35.706507],[138.884166,35.761776],[138.876876,35.716855]]]},"properties":{}}},
    {"code":1131124,"id":1446,"name":"勝沼ぶどう郷","original_name":"勝沼ぶどう郷","name_kana":"かつぬまぶどうきょう","closed":false,"lat":35.67279,"lng":138.74323,"prefecture":19,"lines":[11311],"attr":"heat","postal_code":"409-1302","address":"甲州市勝沼町菱山","voronoi":{"type":"Feature","geometry":{"type":"Polygon","coordinates":[[[138.70038,35.584788],[138.700649,35.617183],[138.708564,35.656346],[138.723992,35.685165],[138.806326,35.706507],[138.70038,35.584788]]]},"properties":{}}},
    {"code":1131125,"id":1447,"name":"塩山","original_name":"塩山","name_kana":"えんざん","closed":false,"lat":35.705327,"lng":138.734796,"prefecture":19,"lines":[11311],"attr":"heat","postal_code":"404-0042","address":"甲州市塩山上於曽","voronoi":{"type":"Feature","geometry":{"type":"Polygon","coordinates":[[[138.806326,35.706507],[138.884166,35.761776],[138.898062,35.793147],[138.751802,35.933185],[138.661901,35.864267],[138.723992,35.685165],[138.806326,35.706507]]]},"properties":{}}},
    {"code":1131126,"id":1448,"name":"東山梨","original_name":"東山梨","name_kana":"ひがしやまなし","closed":false,"lat":35.694313,"lng":138.703026,"prefecture":19,"lines":[11311],"attr":"eco","postal_code":"405-0011","address":"山梨市三ケ所","voronoi":{"type":"Feature","geometry":{"type":"Polygon","coordinates":[[[138.661901,35.864267],[138.622834,35.839897],[138.708564,35.656346],[138.723992,35.685165],[138.661901,35.864267]]]},"properties":{}}},
    {"code":1131127,"id":1449,"name":"山梨市","original_name":"山梨市","name_kana":"やまなしし","closed":false,"lat":35.684961,"lng":138.683003,"prefecture":19,"lines":[11311],"attr":"eco","postal_code":"405-0018","address":"山梨市上神内川","voronoi":{"type":"Feature","geometry":{"type":"Polygon","coordinates":[[[138.602012,35.828759],[138.60322,35.82107],[138.700649,35.617183],[138.708564,35.656346],[138.622834,35.839897],[138.602012,35.828759]]]},"properties":{}}},
    {"code":1131128,"id":1450,"name":"春日居町","original_name":"春日居町","name_kana":"かすがいちょう","closed":false,"lat":35.673491,"lng":138.659,"prefecture":19,"lines":[11311],"attr":"eco","postal_code":"406-0002","address":"笛吹市春日居町別田","voronoi":{"type":"Feature","geometry":{"type":"Polygon","coordinates":[[[138.70038,35.584788],[138.700649,35.617183],[138.60322,35.82107],[138.607782,35.757295],[138.61931,35.707787],[138.700064,35.583653],[138.70038,35.584788]]]},"properties":{}}},
    {"code":1131129,"id":1451,"name":"石和温泉","original_name":"石和温泉","name_kana":"いさわおんせん","closed":false,"lat":35.657603,"lng":138.634577,"prefecture":19,"lines":[11311],"attr":"eco","postal_code":"406-0021","address":"笛吹市石和町松本","voronoi":{"type":"Feature","geometry":{"type":"Polygon","coordinates":[[[138.61931,35.707787],[138.614465,35.615863],[138.620963,35.589465],[138.639047,35.533826],[138.643117,35.528547],[138.699077,35.575694],[138.700064,35.583653],[138.61931,35.707787]]]},"properties":{}}},
    {"code":1131130,"id":1452,"name":"酒折","original_name":"酒折","name_kana":"さかおり","closed":false,"lat":35.659486,"lng":138.598852,"prefecture":19,"lines":[11311],"attr":"eco","postal_code":"400-0804","address":"甲府市酒折町１丁目","voronoi":{"type":"Feature","geometry":{"type":"Polygon","coordinates":[[[138.593476,35.644186],[138.596013,35.710892],[138.607782,35.757295],[138.61931,35.707787],[138.614465,35.615863],[138.593476,35.644186]]]},"properties":{}}},
    {"code":1131131,"id":1453,"name":"甲府","original_name":"甲府","name_kana":"こうふ","closed":false,"lat":35.667054,"lng":138.569015,"prefecture":19,"lines":[11311,11402],"attr":"eco","postal_code":"400-0031","address":"甲府市丸の内１丁目","voronoi":{"type":"Feature","geometry":{"type":"Polygon","coordinates":[[[138.607782,35.757295],[138.60322,35.82107],[138.602012,35.828759],[138.565426,35.823823],[138.547025,35.75131],[138.543767,35.656591],[138.554973,35.6514],[138.562729,35.651623],[138.568577,35.653674],[138.594809,35.707507],[138.596013,35.710892],[138.607782,35.757295]]]},"properties":{}}},
    {"code":1131132,"id":1454,"name":"竜王","original_name":"竜王","name_kana":"りゅうおう","closed":false,"lat":35.668764,"lng":138.519298,"prefecture":19,"lines":[11311],"attr":"eco","postal_code":"400-0111","address":"甲斐市竜王新町","voronoi":{"type":"Feature","geometry":{"type":"Polygon","coordinates":[[[138.474301,35.629488],[138.476457,35.629797],[138.528456,35.643438],[138.543767,35.656591],[138.547025,35.75131],[138.474301,35.629488]]]},"properties":{}}},
    {"code":1131133,"id":1455,"name":"塩崎","original_name":"塩崎","name_kana":"しおざき","closed":false,"lat":35.687734,"lng":138.487521,"prefecture":19,"lines":[11311],"attr":"eco","postal_code":"400-0105","address":"甲斐市下今井","voronoi":{"type":"Feature","geometry":{"type":"Polygon","coordinates":[[[138.547025,35.75131],[138.474301,35.629488],[138.460603,35.622745],[138.422291,35.621013],[138.42222,35.621021],[138.513584,35.771365],[138.56138,35.824382],[138.565426,35.823823],[138.547025,35.75131]]]},"properties":{}}},
    {"code":1131134,"id":1456,"name":"韮崎","original_name":"韮崎","name_kana":"にらさき","closed":false,"lat":35.709711,"lng":138.451357,"prefecture":19,"lines":[11311],"attr":"eco","postal_code":"407-0015","address":"韮崎市若宮１丁目","voronoi":{"type":"Feature","geometry":{"type":"Polygon","coordinates":[[[138.42222,35.621021],[138.295776,35.60633],[138.374036,35.677285],[138.513584,35.771365],[138.42222,35.621021]]]},"properties":{}}},
    {"code":1131135,"id":1457,"name":"新府","original_name":"新府","name_kana":"しんぷ","closed":false,"lat":35.736802,"lng":138.433093,"prefecture":19,"lines":[11311],"attr":"eco","postal_code":"407-0262","address":"韮崎市中田町中條","voronoi":{"type":"Feature","geometry":{"type":"Polygon","coordinates":[[[138.374036,35.677285],[138.513584,35.771365],[138.56138,35.824382],[138.558344,35.825579],[138.501121,35.826676],[138.466192,35.801524],[138.374036,35.677285]]]},"properties":{}}},
    {"code":1131136,"id":1458,"name":"穴山","original_name":"穴山","name_kana":"あなやま","closed":false,"lat":35.75107,"lng":138.413858,"prefecture":19,"lines":[11311],"attr":"eco","postal_code":"407-0263","address":"韮崎市穴山町","voronoi":{"type":"Feature","geometry":{"type":"Polygon","coordinates":[[[138.214697,35.677352],[138.183471,35.650344],[138.196125,35.579215],[138.295776,35.60633],[138.374036,35.677285],[138.466192,35.801524],[138.214697,35.677352]]]},"properties":{}}},
    {"code":1131137,"id":1459,"name":"日野春","original_name":"日野春","name_kana":"ひのはる","closed":false,"lat":35.79065,"lng":138.394316,"prefecture":19,"lines":[11311],"attr":"eco","postal_code":"408-0024","address":"北杜市長坂町富岡","voronoi":{"type":"Feature","geometry":{"type":"Polygon","coordinates":[[[138.421842,35.840571],[138.487878,35.831035],[138.501121,35.826676],[138.466192,35.801524],[138.214697,35.677352],[138.23046,35.69415],[138.421842,35.840571]]]},"properties":{}}},
    {"code":1131138,"id":1460,"name":"長坂","original_name":"長坂","name_kana":"ながさか","closed":false,"lat":35.827061,"lng":138.366459,"prefecture":19,"lines":[11311],"attr":"eco","postal_code":"408-0021","address":"北杜市長坂町長坂上条","voronoi":{"type":"Feature","geometry":{"type":"Polygon","coordinates":[[[138.394585,35.857554],[138.421842,35.840571],[138.23046,35.69415],[138.345447,35.850946],[138.394585,35.857554]]]},"properties":{}}},
    {"code":1131139,"id":1461,"name":"小淵沢","original_name":"小淵沢","name_kana":"こぶちざわ","closed":false,"lat":35.863808,"lng":138.316351,"prefecture":19,"lines":[11311,11401],"attr":"eco","postal_code":"408-0000","address":"北杜市小淵沢町尾根１０２４","voronoi":{"type":"Feature","geometry":{"type":"Polygon","coordinates":[[[138.23046,35.69415],[138.214697,35.677352],[138.183471,35.650344],[138.181813,35.653552],[138.319903,35.920876],[138.345447,35.850946],[138.23046,35.69415]]]},"properties":{}}},
    {"code":1131140,"id":1462,"name":"信濃境","original_name":"信濃境","name_kana":"しなのさかい","closed":false,"lat":35.884952,"lng":138.275419,"prefecture":20,"lines":[11311],"attr":"heat","postal_code":"399-0101","address":"諏訪郡富士見町境字信濃境","voronoi":{"type":"Feature","geometry":{"type":"Polygon","coordinates":[[[138.139799,35.738173],[138.139908,35.737837],[138.158567,35.692105],[138.158674,35.691894],[138.167597,35.67576],[138.181813,35.653552],[138.319903,35.920876],[138.324456,35.991435],[138.139799,35.738173]]]},"properties":{}}},
    {"code":1131141,"id":1463,"name":"富士見","original_name":"富士見","name_kana":"ふじみ","closed":false,"lat":35.912183,"lng":138.238071,"prefecture":20,"lines":[11311],"attr":"heat","postal_code":"391-0021","address":"諏訪郡富士見町富士見","voronoi":{"type":"Feature","geometry":{"type":"Polygon","coordinates":[[[138.128681,35.781452],[138.135267,35.748099],[138.139799,35.738173],[138.324456,35.991435],[138.332122,36.019924],[138.327199,36.028904],[138.313638,36.050086],[138.128681,35.781452]]]},"properties":{}}},
    {"code":1131142,"id":1464,"name":"すずらんの里","original_name":"すずらんの里","name_kana":"すずらんのさと","closed":false,"lat":35.930288,"lng":138.211775,"prefecture":20,"lines":[11311],"attr":"heat","postal_code":"391-0021","address":"諏訪郡富士見町富士見","voronoi":{"type":"Feature","geometry":{"type":"Polygon","coordinates":[[[138.309849,36.057586],[138.114169,35.83214],[138.115826,35.824731],[138.128681,35.781452],[138.313638,36.050086],[138.309849,36.057586]]]},"properties":{}}},
    {"code":1131143,"id":1465,"name":"青柳","original_name":"青柳","name_kana":"あおやぎ","closed":false,"lat":35.942581,"lng":138.197612,"prefecture":20,"lines":[11311],"attr":"heat","postal_code":"391-0012","address":"長野県茅野市ちの3506","voronoi":{"type":"Feature","geometry":{"type":"Polygon","coordinates":[[[138.114169,35.83214],[138.103403,35.868517],[138.096974,35.900836],[138.300545,36.079027],[138.309849,36.057586],[138.114169,35.83214]]]},"properties":{}}},
    {"code":1131144,"id":1466,"name":"茅野","original_name":"茅野","name_kana":"ちの","closed":false,"lat":35.995062,"lng":138.151674,"prefecture":20,"lines":[11311],"attr":"eco","postal_code":"391-0001","address":"長野県茅野市ちの3506","voronoi":{"type":"Feature","geometry":{"type":"Polygon","coordinates":[[[138.078371,35.937978],[138.0962,35.902182],[138.096974,35.900836],[138.300545,36.079027],[138.293901,36.111157],[138.289329,36.123501],[138.288046,36.126524],[138.077475,35.98207],[138.075453,35.975147],[138.077886,35.939353],[138.078371,35.937978]]]},"properties":{}}},
    {"code":1131145,"id":1467,"name":"上諏訪","original_name":"上諏訪","name_kana":"かみすわ","closed":false,"lat":36.046618,"lng":138.116306,"prefecture":20,"lines":[11311],"attr":"eco","postal_code":"392-0004","address":"諏訪市諏訪１丁目","voronoi":{"type":"Feature","geometry":{"type":"Polygon","coordinates":[[[138.258918,36.175562],[138.230127,36.184738],[138.216038,36.188421],[138.206149,36.189893],[138.077726,36.030933],[138.074108,36.005333],[138.077475,35.98207],[138.288046,36.126524],[138.279735,36.16115],[138.258918,36.175562]]]},"properties":{}}},
    {"code":1131146,"id":1468,"name":"下諏訪","original_name":"下諏訪","name_kana":"しもすわ","closed":false,"lat":36.071948,"lng":138.084953,"prefecture":20,"lines":[11311],"attr":"eco","postal_code":"393-0056","address":"諏訪郡下諏訪町広瀬町","voronoi":{"type":"Feature","geometry":{"type":"Polygon","coordinates":[[[138.115437,36.214725],[138.206149,36.189893],[138.077726,36.030933],[138.042243,36.12386],[138.049675,36.158305],[138.058103,36.166933],[138.115437,36.214725]]]},"properties":{}}},
    {"code":1131147,"id":1469,"name":"岡谷","original_name":"岡谷","name_kana":"おかや","closed":false,"lat":36.056693,"lng":138.045001,"prefecture":20,"lines":[11311],"attr":"eco","postal_code":"394-0028","address":"岡谷市本町１丁目","voronoi":{"type":"Feature","geometry":{"type":"Polygon","coordinates":[[[138.009258,36.068355],[138.042243,36.12386],[138.077726,36.030933],[138.074108,36.005333],[138.009258,36.068355]]]},"properties":{}}},
    {"code":1131148,"id":1470,"name":"みどり湖","original_name":"みどり湖","name_kana":"みどりこ","closed":false,"lat":36.094176,"lng":137.981928,"prefecture":20,"lines":[11311],"attr":"cool","postal_code":"399-0724","address":"塩尻市大字上西条","voronoi":{"type":"Feature","geometry":{"type":"Polygon","coordinates":[[[138.002862,36.064176],[138.009258,36.068355],[138.042243,36.12386],[138.049675,36.158305],[138.033372,36.155056],[138.009298,36.14726],[137.980056,36.129695],[137.950532,36.080021],[137.950897,36.076635],[138.002862,36.064176]]]},"properties":{}}},
    {"code":1131149,"id":1471,"name":"川岸","original_name":"川岸","name_kana":"かわぎし","closed":false,"lat":36.03296,"lng":138.021937,"prefecture":20,"lines":[11311],"attr":"cool","postal_code":"394-0045","address":"岡谷市川岸東３-１５-２５","voronoi":{"type":"Feature","geometry":{"type":"Polygon","coordinates":[[[137.993871,36.031136],[138.002862,36.064176],[138.009258,36.068355],[138.074108,36.005333],[138.077475,35.98207],[138.075453,35.975147],[138.000764,36.013266],[137.993871,36.031136]]]},"properties":{}}},
    {"code":1131150,"id":1472,"name":"辰野","original_name":"辰野","name_kana":"たつの","closed":false,"lat":35.984565,"lng":137.997238,"prefecture":20,"lines":[11311,11414],"attr":"cool","postal_code":"399-0421","address":"上伊那郡辰野町大字辰野","voronoi":{"type":"Feature","geometry":{"type":"Polygon","coordinates":[[[138.075453,35.975147],[138.000764,36.013266],[137.977915,35.993316],[138.023612,35.956348],[138.050232,35.946103],[138.077886,35.939353],[138.075453,35.975147]]]},"properties":{}}},
    {"code":1131151,"id":1473,"name":"信濃川島","original_name":"信濃川島","name_kana":"しなのかわしま","closed":false,"lat":36.013642,"lng":137.97185,"prefecture":20,"lines":[11311],"attr":"cool","postal_code":"399-0400","address":"上伊那郡辰野町川島","voronoi":{"type":"Feature","geometry":{"type":"Polygon","coordinates":[[[137.968633,35.988684],[137.91625,35.974425],[137.916315,35.994259],[137.932178,36.02882],[137.993871,36.031136],[138.000764,36.013266],[137.977915,35.993316],[137.968633,35.988684]]]},"properties":{}}},
    {"code":1131152,"id":1474,"name":"小野(長野)","original_name":"小野","name_kana":"おの","closed":false,"lat":36.04693,"lng":137.9706,"prefecture":20,"lines":[11311],"attr":"cool","postal_code":"399-0601","address":"上伊那郡辰野町小野","voronoi":{"type":"Feature","geometry":{"type":"Polygon","coordinates":[[[137.932826,36.052489],[137.932178,36.02882],[137.993871,36.031136],[138.002862,36.064176],[137.950897,36.076635],[137.932826,36.052489]]]},"properties":{}}},
    {"code":1131153,"id":1475,"name":"塩尻","original_name":"塩尻","name_kana":"しおじり","closed":false,"lat":36.114364,"lng":137.947961,"prefecture":20,"lines":[11311,11411,11412],"attr":"cool","postal_code":"399-0737","address":"塩尻市大門八番町９-１","voronoi":{"type":"Feature","geometry":{"type":"Polygon","coordinates":[[[137.903917,36.133352],[137.950532,36.080021],[137.980056,36.129695],[137.903917,36.133352]]]},"properties":{}}}
  ]
}