{
  "code":11338,
  "id":"0f46c5",
  "name":"JR水郡線",
  "name_kana":"じぇいあーるすいぐんせん",
  "station_size":46,
  "company_code":2,
  "closed":false,
  "color":"#368C44",
  "station_list":[
    {"code":1122917,"id":"7204b1","name":"水戸","original_name":"水戸","name_kana":"みと","closed":false,"lat":36.370911,"lng":140.47676,"prefecture":8,"lines":[11229,11338,99323],"attr":"eco","postal_code":"310-0015","address":"水戸市宮町１丁目","voronoi":{"type":"Feature","geometry":{"type":"Polygon","coordinates":[[[140.496651,36.367465],[140.467884,36.385026],[140.458786,36.297603],[140.483076,36.309323],[140.496651,36.367465]]]},"properties":{}}},
    {"code":1133802,"id":"d63f1a","name":"常陸青柳","original_name":"常陸青柳","name_kana":"ひたちあおやぎ","closed":false,"lat":36.383582,"lng":140.484495,"prefecture":8,"lines":[11338],"attr":"eco","postal_code":"312-0035","address":"ひたちなか市枝川","voronoi":{"type":"Feature","geometry":{"type":"Polygon","coordinates":[[[140.503953,36.390858],[140.502781,36.395341],[140.46511,36.392449],[140.467884,36.385026],[140.496651,36.367465],[140.5052,36.379803],[140.503953,36.390858]]]},"properties":{}}},
    {"code":1133803,"id":"004229","name":"常陸津田","original_name":"常陸津田","name_kana":"ひたちつだ","closed":false,"lat":36.404171,"lng":140.482914,"prefecture":8,"lines":[11338],"attr":"eco","postal_code":"312-0032","address":"ひたちなか市津田","voronoi":{"type":"Feature","geometry":{"type":"Polygon","coordinates":[[[140.436935,36.429628],[140.442983,36.411371],[140.46511,36.392449],[140.502781,36.395341],[140.505651,36.407109],[140.440323,36.430395],[140.436935,36.429628]]]},"properties":{}}},
    {"code":1133804,"id":"d9a918","name":"後台","original_name":"後台","name_kana":"ごだい","closed":false,"lat":36.423767,"lng":140.489899,"prefecture":8,"lines":[11338],"attr":"eco","postal_code":"311-0111","address":"那珂市後台","voronoi":{"type":"Feature","geometry":{"type":"Polygon","coordinates":[[[140.458523,36.438792],[140.440323,36.430395],[140.505651,36.407109],[140.5162,36.419379],[140.515979,36.421065],[140.470013,36.437361],[140.458523,36.438792]]]},"properties":{}}},
    {"code":1133805,"id":"dba81f","name":"下菅谷","original_name":"下菅谷","name_kana":"しもすがや","closed":false,"lat":36.435394,"lng":140.494021,"prefecture":8,"lines":[11338],"attr":"eco","postal_code":"311-0105","address":"那珂市菅谷","voronoi":{"type":"Feature","geometry":{"type":"Polygon","coordinates":[[[140.470013,36.437361],[140.515979,36.421065],[140.518433,36.443939],[140.470013,36.437361]]]},"properties":{}}},
    {"code":1133806,"id":"54af66","name":"中菅谷","original_name":"中菅谷","name_kana":"なかすがや","closed":false,"lat":36.445662,"lng":140.492626,"prefecture":8,"lines":[11338],"attr":"eco","postal_code":"311-0105","address":"那珂市菅谷","voronoi":{"type":"Feature","geometry":{"type":"Polygon","coordinates":[[[140.518433,36.443939],[140.520501,36.450425],[140.471065,36.450593],[140.458523,36.438792],[140.470013,36.437361],[140.518433,36.443939]]]},"properties":{}}},
    {"code":1133807,"id":"cacb9c","name":"上菅谷","original_name":"上菅谷","name_kana":"かみすがや","closed":false,"lat":36.455378,"lng":140.492659,"prefecture":8,"lines":[11338],"attr":"eco","postal_code":"311-0105","address":"那珂市菅谷","voronoi":{"type":"Feature","geometry":{"type":"Polygon","coordinates":[[[140.471065,36.450593],[140.520501,36.450425],[140.524792,36.458642],[140.483827,36.469473],[140.471065,36.450593]]]},"properties":{}}},
    {"code":1133808,"id":"558ac8","name":"南酒出","original_name":"南酒出","name_kana":"みなみさかいで","closed":false,"lat":36.477361,"lng":140.498471,"prefecture":8,"lines":[11338],"attr":"eco","postal_code":"311-0132","address":"那珂市南酒出","voronoi":{"type":"Feature","geometry":{"type":"Polygon","coordinates":[[[140.479892,36.494139],[140.483827,36.469473],[140.524792,36.458642],[140.530579,36.46382],[140.479892,36.494139]]]},"properties":{}}},
    {"code":1133809,"id":"82b36d","name":"額田(茨城)","original_name":"額田","name_kana":"ぬかだ","closed":false,"lat":36.485705,"lng":140.503462,"prefecture":8,"lines":[11338],"attr":"eco","postal_code":"311-0100","address":"那珂市額田南郷","voronoi":{"type":"Feature","geometry":{"type":"Polygon","coordinates":[[[140.47841,36.498154],[140.479892,36.494139],[140.530579,36.46382],[140.530898,36.464034],[140.536464,36.481112],[140.482046,36.514088],[140.47841,36.498154]]]},"properties":{}}},
    {"code":1133810,"id":"f29851","name":"河合","original_name":"河合","name_kana":"かわい","closed":false,"lat":36.508241,"lng":140.517118,"prefecture":8,"lines":[11338],"attr":"eco","postal_code":"313-0046","address":"常陸太田市上河合町","voronoi":{"type":"Feature","geometry":{"type":"Polygon","coordinates":[[[140.492327,36.533691],[140.477934,36.540361],[140.482046,36.514088],[140.536464,36.481112],[140.54874,36.495065],[140.492327,36.533691]]]},"properties":{}}},
    {"code":1133811,"id":"80122e","name":"谷河原","original_name":"谷河原","name_kana":"やがわら","closed":false,"lat":36.519782,"lng":140.52502,"prefecture":8,"lines":[11338],"attr":"eco","postal_code":"313-0042","address":"常陸太田市磯部町","voronoi":{"type":"Feature","geometry":{"type":"Polygon","coordinates":[[[140.492327,36.533691],[140.54874,36.495065],[140.571908,36.512446],[140.572056,36.51453],[140.492327,36.533691]]]},"properties":{}}},
    {"code":1133812,"id":"b10785","name":"常陸太田","original_name":"常陸太田","name_kana":"ひたちおおた","closed":false,"lat":36.531225,"lng":140.52777,"prefecture":8,"lines":[11338],"attr":"eco","postal_code":"313-0013","address":"常陸太田市山下町","voronoi":{"type":"Feature","geometry":{"type":"Polygon","coordinates":[[[140.578832,36.548677],[140.56123,36.636949],[140.557357,36.645724],[140.536308,36.675205],[140.478177,36.596435],[140.472443,36.555937],[140.474753,36.547723],[140.477934,36.540361],[140.492327,36.533691],[140.572056,36.51453],[140.578832,36.548677]]]},"properties":{}}},
    {"code":1133813,"id":"affc75","name":"常陸鴻巣","original_name":"常陸鴻巣","name_kana":"ひたちこうのす","closed":false,"lat":36.472414,"lng":140.467455,"prefecture":8,"lines":[11338],"attr":"eco","postal_code":"311-0133","address":"那珂市鴻巣","voronoi":{"type":"Feature","geometry":{"type":"Polygon","coordinates":[[[140.479892,36.494139],[140.47841,36.498154],[140.412288,36.453839],[140.405377,36.447801],[140.436935,36.429628],[140.440323,36.430395],[140.458523,36.438792],[140.471065,36.450593],[140.483827,36.469473],[140.479892,36.494139]]]},"properties":{}}},
    {"code":1133814,"id":"f22ebe","name":"瓜連","original_name":"瓜連","name_kana":"うりづら","closed":false,"lat":36.497805,"lng":140.450438,"prefecture":8,"lines":[11338],"attr":"eco","postal_code":"319-2102","address":"那珂市瓜連","voronoi":{"type":"Feature","geometry":{"type":"Polygon","coordinates":[[[140.47841,36.498154],[140.412288,36.453839],[140.474753,36.547723],[140.477934,36.540361],[140.482046,36.514088],[140.47841,36.498154]]]},"properties":{}}},
    {"code":1133815,"id":"8b374a","name":"静","original_name":"静","name_kana":"しず","closed":false,"lat":36.506012,"lng":140.438103,"prefecture":8,"lines":[11338],"attr":"heat","postal_code":"319-2107","address":"那珂市下大賀","voronoi":{"type":"Feature","geometry":{"type":"Polygon","coordinates":[[[140.339017,36.473483],[140.369395,36.454419],[140.405377,36.447801],[140.412288,36.453839],[140.474753,36.547723],[140.472443,36.555937],[140.339017,36.473483]]]},"properties":{}}},
    {"code":1133816,"id":"75fc27","name":"常陸大宮","original_name":"常陸大宮","name_kana":"ひたちおおみや","closed":false,"lat":36.547554,"lng":140.412431,"prefecture":8,"lines":[11338],"attr":"heat","postal_code":"319-2200","address":"常陸大宮市南町９６６","voronoi":{"type":"Feature","geometry":{"type":"Polygon","coordinates":[[[140.478177,36.596435],[140.437337,36.590506],[140.405948,36.578502],[140.323371,36.478739],[140.339017,36.473483],[140.472443,36.555937],[140.478177,36.596435]]]},"properties":{}}},
    {"code":1133817,"id":"ceae4b","name":"玉川村","original_name":"玉川村","name_kana":"たまがわむら","closed":false,"lat":36.579088,"lng":140.374334,"prefecture":8,"lines":[11338],"attr":"heat","postal_code":"319-2224","address":"常陸大宮市東野","voronoi":{"type":"Feature","geometry":{"type":"Polygon","coordinates":[[[140.323371,36.478739],[140.302695,36.480867],[140.295225,36.485502],[140.263687,36.611654],[140.272678,36.639275],[140.29502,36.636121],[140.319262,36.629603],[140.405948,36.578502],[140.323371,36.478739]]]},"properties":{}}},
    {"code":1133818,"id":"899ff9","name":"野上原","original_name":"野上原","name_kana":"のがみはら","closed":false,"lat":36.605879,"lng":140.390127,"prefecture":8,"lines":[11338],"attr":"heat","postal_code":"319-3114","address":"常陸大宮市野上","voronoi":{"type":"Feature","geometry":{"type":"Polygon","coordinates":[[[140.319262,36.629603],[140.405948,36.578502],[140.437337,36.590506],[140.376631,36.626554],[140.319262,36.629603]]]},"properties":{}}},
    {"code":1133819,"id":"11bd0f","name":"山方宿","original_name":"山方宿","name_kana":"やまがたじゅく","closed":false,"lat":36.6246,"lng":140.401244,"prefecture":8,"lines":[11338],"attr":"heat","postal_code":"319-3111","address":"常陸大宮市山方","voronoi":{"type":"Feature","geometry":{"type":"Polygon","coordinates":[[[140.536308,36.675205],[140.535681,36.689606],[140.513442,36.684969],[140.376631,36.626554],[140.437337,36.590506],[140.478177,36.596435],[140.536308,36.675205]]]},"properties":{}}},
    {"code":1133820,"id":"e138de","name":"中舟生","original_name":"中舟生","name_kana":"なかふにゅう","closed":false,"lat":36.645683,"lng":140.392242,"prefecture":8,"lines":[11338],"attr":"heat","postal_code":"319-3107","address":"常陸大宮市舟生堂下","voronoi":{"type":"Feature","geometry":{"type":"Polygon","coordinates":[[[140.513442,36.684969],[140.512405,36.684849],[140.29502,36.636121],[140.319262,36.629603],[140.376631,36.626554],[140.513442,36.684969]]]},"properties":{}}},
    {"code":1133821,"id":"7c58cb","name":"下小川","original_name":"下小川","name_kana":"しもおがわ","closed":false,"lat":36.668975,"lng":140.387021,"prefecture":8,"lines":[11338],"attr":"heat","postal_code":"319-3102","address":"常陸大宮市盛金","voronoi":{"type":"Feature","geometry":{"type":"Polygon","coordinates":[[[140.29502,36.636121],[140.272678,36.639275],[140.269812,36.675164],[140.301336,36.680446],[140.512405,36.684849],[140.29502,36.636121]]]},"properties":{}}},
    {"code":1133822,"id":"4aa5ab","name":"西金","original_name":"西金","name_kana":"さいがね","closed":false,"lat":36.69548,"lng":140.386468,"prefecture":8,"lines":[11338],"attr":"cool","postal_code":"319-3362","address":"久慈郡大子町大字西金","voronoi":{"type":"Feature","geometry":{"type":"Polygon","coordinates":[[[140.513442,36.684969],[140.535681,36.689606],[140.537602,36.699015],[140.541176,36.74348],[140.464802,36.734604],[140.301336,36.680446],[140.512405,36.684849],[140.513442,36.684969]]]},"properties":{}}},
    {"code":1133823,"id":"9587a5","name":"上小川","original_name":"上小川","name_kana":"かみおがわ","closed":false,"lat":36.719216,"lng":140.378604,"prefecture":8,"lines":[11338],"attr":"cool","postal_code":"319-3361","address":"久慈郡大子町大字頃藤","voronoi":{"type":"Feature","geometry":{"type":"Polygon","coordinates":[[[140.351373,36.737731],[140.264912,36.691092],[140.269812,36.675164],[140.301336,36.680446],[140.464802,36.734604],[140.351373,36.737731]]]},"properties":{}}},
    {"code":1133824,"id":"cf23b1","name":"袋田","original_name":"袋田","name_kana":"ふくろだ","closed":false,"lat":36.754718,"lng":140.379583,"prefecture":8,"lines":[11338],"attr":"cool","postal_code":"319-3523","address":"久慈郡大子町袋田","voronoi":{"type":"Feature","geometry":{"type":"Polygon","coordinates":[[[140.541176,36.74348],[140.464802,36.734604],[140.351373,36.737731],[140.377739,36.785253],[140.456678,36.790816],[140.460297,36.790219],[140.54515,36.758104],[140.541176,36.74348]]]},"properties":{}}},
    {"code":1133825,"id":"1cacb9","name":"常陸大子","original_name":"常陸大子","name_kana":"ひたちだいご","closed":false,"lat":36.770657,"lng":140.350855,"prefecture":8,"lines":[11338],"attr":"cool","postal_code":"319-3526","address":"久慈郡大子町大字大子","voronoi":{"type":"Feature","geometry":{"type":"Polygon","coordinates":[[[140.17877,36.831401],[140.19656,36.857324],[140.211832,36.875137],[140.377739,36.785253],[140.351373,36.737731],[140.264912,36.691092],[140.17877,36.831401]]]},"properties":{}}},
    {"code":1133826,"id":"7e195e","name":"下野宮","original_name":"下野宮","name_kana":"しものみや","closed":false,"lat":36.815744,"lng":140.375282,"prefecture":8,"lines":[11338],"attr":"cool","postal_code":"319-3555","address":"久慈郡大子町大字下野宮","voronoi":{"type":"Feature","geometry":{"type":"Polygon","coordinates":[[[140.456678,36.790816],[140.377739,36.785253],[140.211832,36.875137],[140.212403,36.876046],[140.244388,36.915535],[140.456678,36.790816]]]},"properties":{}}},
    {"code":1133827,"id":"673006","name":"矢祭山","original_name":"矢祭山","name_kana":"やまつりやま","closed":false,"lat":36.84978,"lng":140.395278,"prefecture":7,"lines":[11338],"attr":"cool","postal_code":"963-5322","address":"東白川郡矢祭町大字内川","voronoi":{"type":"Feature","geometry":{"type":"Polygon","coordinates":[[[140.460297,36.790219],[140.456678,36.790816],[140.244388,36.915535],[140.246355,36.918669],[140.25059,36.923626],[140.275883,36.923891],[140.278931,36.923421],[140.365958,36.891554],[140.3973,36.876441],[140.460297,36.790219]]]},"properties":{}}},
    {"code":1133828,"id":"352ae1","name":"東館","original_name":"東館","name_kana":"ひがしだて","closed":false,"lat":36.870264,"lng":140.423314,"prefecture":7,"lines":[11338],"attr":"cool","postal_code":"963-5118","address":"東白川郡矢祭町大字東舘","voronoi":{"type":"Feature","geometry":{"type":"Polygon","coordinates":[[[140.3973,36.876441],[140.591972,36.92768],[140.602917,36.930234],[140.603775,36.90734],[140.587689,36.842039],[140.566321,36.786092],[140.54515,36.758104],[140.460297,36.790219],[140.3973,36.876441]]]},"properties":{}}},
    {"code":1133829,"id":"989ef2","name":"南石井","original_name":"南石井","name_kana":"みなみいしい","closed":false,"lat":36.894625,"lng":140.416902,"prefecture":7,"lines":[11338],"attr":"cool","postal_code":"963-5202","address":"東白川郡矢祭町下石井","voronoi":{"type":"Feature","geometry":{"type":"Polygon","coordinates":[[[140.591972,36.92768],[140.365958,36.891554],[140.3973,36.876441],[140.591972,36.92768]]]},"properties":{}}},
    {"code":1133830,"id":"3d6303","name":"磐城石井","original_name":"磐城石井","name_kana":"いわきいしい","closed":false,"lat":36.904516,"lng":140.415321,"prefecture":7,"lines":[11338],"attr":"cool","postal_code":"963-5201","address":"東白川郡矢祭町大字中石井","voronoi":{"type":"Feature","geometry":{"type":"Polygon","coordinates":[[[140.603629,36.943052],[140.278931,36.923421],[140.365958,36.891554],[140.591972,36.92768],[140.602917,36.930234],[140.603629,36.943052]]]},"properties":{}}},
    {"code":1133831,"id":"aa6cbe","name":"磐城塙","original_name":"磐城塙","name_kana":"いわきはなわ","closed":false,"lat":36.95862,"lng":140.41205,"prefecture":7,"lines":[11338],"attr":"cool","postal_code":"963-5400","address":"東白川郡塙町宮田","voronoi":{"type":"Feature","geometry":{"type":"Polygon","coordinates":[[[140.494784,37.017669],[140.47971,37.013232],[140.275883,36.923891],[140.278931,36.923421],[140.603629,36.943052],[140.605544,36.952648],[140.61175,37.015469],[140.494784,37.017669]]]},"properties":{}}},
    {"code":1133832,"id":"d778a3","name":"近津","original_name":"近津","name_kana":"ちかつ","closed":false,"lat":37.000487,"lng":140.393699,"prefecture":7,"lines":[11338],"attr":"cool","postal_code":"963-5671","address":"東白川郡棚倉町大字寺山","voronoi":{"type":"Feature","geometry":{"type":"Polygon","coordinates":[[[140.275883,36.923891],[140.25059,36.923626],[140.264488,36.984449],[140.363148,37.010868],[140.47971,37.013232],[140.275883,36.923891]]]},"properties":{}}},
    {"code":1133833,"id":"7278e8","name":"中豊","original_name":"中豊","name_kana":"なかとよ","closed":false,"lat":37.022479,"lng":140.393253,"prefecture":7,"lines":[11338],"attr":"cool","postal_code":"963-5663","address":"東白川郡棚倉町大字流","voronoi":{"type":"Feature","geometry":{"type":"Polygon","coordinates":[[[140.363148,37.010868],[140.414947,37.04703],[140.494784,37.017669],[140.47971,37.013232],[140.363148,37.010868]]]},"properties":{}}},
    {"code":1133834,"id":"28a04b","name":"磐城棚倉","original_name":"磐城棚倉","name_kana":"いわきたなくら","closed":false,"lat":37.035127,"lng":140.384423,"prefecture":7,"lines":[11338],"attr":"cool","postal_code":"963-6131","address":"東白川郡棚倉町大字棚倉","voronoi":{"type":"Feature","geometry":{"type":"Polygon","coordinates":[[[140.27282,37.025861],[140.3162,37.07905],[140.341228,37.096395],[140.414947,37.04703],[140.363148,37.010868],[140.264488,36.984449],[140.266126,37.003334],[140.27282,37.025861]]]},"properties":{}}},
    {"code":1133835,"id":"ed6a92","name":"磐城浅川","original_name":"磐城浅川","name_kana":"いわきあさかわ","closed":false,"lat":37.079787,"lng":140.414329,"prefecture":7,"lines":[11338],"attr":"cool","postal_code":"963-6204","address":"石川郡浅川町大字浅川","voronoi":{"type":"Feature","geometry":{"type":"Polygon","coordinates":[[[140.61175,37.015469],[140.613756,37.020286],[140.478972,37.085942],[140.342939,37.098905],[140.341228,37.096395],[140.414947,37.04703],[140.494784,37.017669],[140.61175,37.015469]]]},"properties":{}}},
    {"code":1133836,"id":"b9d178","name":"里白石","original_name":"里白石","name_kana":"さとしらいし","closed":false,"lat":37.104195,"lng":140.416655,"prefecture":7,"lines":[11338],"attr":"cool","postal_code":"963-6202","address":"石川郡浅川町里白石宿裏","voronoi":{"type":"Feature","geometry":{"type":"Polygon","coordinates":[[[140.342939,37.098905],[140.363034,37.142553],[140.365995,37.142918],[140.406218,37.140475],[140.478972,37.085942],[140.342939,37.098905]]]},"properties":{}}},
    {"code":1133837,"id":"8079e8","name":"磐城石川","original_name":"磐城石川","name_kana":"いわきいしかわ","closed":false,"lat":37.140635,"lng":140.443969,"prefecture":7,"lines":[11338],"attr":"heat","postal_code":"963-7857","address":"石川郡石川町当町","voronoi":{"type":"Feature","geometry":{"type":"Polygon","coordinates":[[[140.406218,37.140475],[140.530034,37.222802],[140.567061,37.170051],[140.619344,37.068444],[140.625548,37.039181],[140.613756,37.020286],[140.478972,37.085942],[140.406218,37.140475]]]},"properties":{}}},
    {"code":1133838,"id":"789927","name":"野木沢","original_name":"野木沢","name_kana":"のぎさわ","closed":false,"lat":37.175224,"lng":140.42097,"prefecture":7,"lines":[11338],"attr":"heat","postal_code":"963-7837","address":"石川郡石川町大字中野","voronoi":{"type":"Feature","geometry":{"type":"Polygon","coordinates":[[[140.530034,37.222802],[140.406218,37.140475],[140.365995,37.142918],[140.436692,37.204268],[140.5002,37.229627],[140.527844,37.227496],[140.530034,37.222802]]]},"properties":{}}},
    {"code":1133839,"id":"d55adb","name":"川辺沖","original_name":"川辺沖","name_kana":"かわべおき","closed":false,"lat":37.192794,"lng":140.405723,"prefecture":7,"lines":[11338],"attr":"heat","postal_code":"963-6313","address":"石川郡玉川村大字川辺","voronoi":{"type":"Feature","geometry":{"type":"Polygon","coordinates":[[[140.365995,37.142918],[140.436692,37.204268],[140.367471,37.202883],[140.359523,37.153427],[140.363034,37.142553],[140.365995,37.142918]]]},"properties":{}}},
    {"code":1133840,"id":"203793","name":"泉郷","original_name":"泉郷","name_kana":"いずみごう","closed":false,"lat":37.214494,"lng":140.405289,"prefecture":7,"lines":[11338],"attr":"heat","postal_code":"963-6312","address":"石川郡玉川村大字小高","voronoi":{"type":"Feature","geometry":{"type":"Polygon","coordinates":[[[140.365884,37.216208],[140.367471,37.202883],[140.436692,37.204268],[140.5002,37.229627],[140.462091,37.241364],[140.382301,37.242699],[140.365884,37.216208]]]},"properties":{}}},
    {"code":1133841,"id":"e77b0e","name":"川東(福島)","original_name":"川東","name_kana":"かわひがし","closed":false,"lat":37.270119,"lng":140.40622,"prefecture":7,"lines":[11338],"attr":"heat","postal_code":"962-0727","address":"須賀川市大字小作田","voronoi":{"type":"Feature","geometry":{"type":"Polygon","coordinates":[[[140.401211,37.298918],[140.374005,37.26812],[140.382301,37.242699],[140.462091,37.241364],[140.401211,37.298918]]]},"properties":{}}},
    {"code":1133842,"id":"9a15e7","name":"小塩江","original_name":"小塩江","name_kana":"おしおえ","closed":false,"lat":37.295533,"lng":140.430246,"prefecture":7,"lines":[11338],"attr":"heat","postal_code":"962-0711","address":"須賀川市大字塩田","voronoi":{"type":"Feature","geometry":{"type":"Polygon","coordinates":[[[140.534738,37.299643],[140.407372,37.305743],[140.401444,37.301746],[140.401211,37.298918],[140.462091,37.241364],[140.5002,37.229627],[140.527844,37.227496],[140.534738,37.299643]]]},"properties":{}}},
    {"code":1133843,"id":"2bf383","name":"谷田川","original_name":"谷田川","name_kana":"やたがわ","closed":false,"lat":37.31372,"lng":140.431117,"prefecture":7,"lines":[11338],"attr":"eco","postal_code":"963-1246","address":"郡山市田村町谷田川","voronoi":{"type":"Feature","geometry":{"type":"Polygon","coordinates":[[[140.534738,37.299643],[140.407372,37.305743],[140.448154,37.364639],[140.509685,37.362275],[140.527595,37.350827],[140.529984,37.348174],[140.534141,37.341389],[140.537844,37.331269],[140.539172,37.323682],[140.534738,37.299643]]]},"properties":{}}},
    {"code":1133844,"id":"4602da","name":"磐城守山","original_name":"磐城守山","name_kana":"いわきもりやま","closed":false,"lat":37.330776,"lng":140.406485,"prefecture":7,"lines":[11338],"attr":"eco","postal_code":"963-1154","address":"郡山市田村町岩作","voronoi":{"type":"Feature","geometry":{"type":"Polygon","coordinates":[[[140.401444,37.301746],[140.377356,37.329024],[140.40299,37.365768],[140.426676,37.371784],[140.448154,37.364639],[140.407372,37.305743],[140.401444,37.301746]]]},"properties":{}}},
    {"code":1123113,"id":"0df19e","name":"安積永盛","original_name":"安積永盛","name_kana":"あさかながもり","closed":false,"lat":37.356967,"lng":140.368943,"prefecture":7,"lines":[11231,11338],"attr":"heat","postal_code":"963-0108","address":"郡山市笹川３丁目","voronoi":{"type":"Feature","geometry":{"type":"Polygon","coordinates":[[[140.266018,37.322986],[140.212962,37.334039],[140.268799,37.378358],[140.274522,37.381282],[140.30173,37.389042],[140.356398,37.38885],[140.40299,37.365768],[140.377356,37.329024],[140.266018,37.322986]]]},"properties":{}}},
    {"code":100408,"id":"4c93d9","name":"郡山(福島)","original_name":"郡山","name_kana":"こおりやま","closed":false,"lat":37.398187,"lng":140.389363,"prefecture":7,"lines":[1004,11231,11225,11228,11338],"attr":"heat","postal_code":"963-8003","address":"郡山市燧田","voronoi":{"type":"Feature","geometry":{"type":"Polygon","coordinates":[[[140.393703,37.4224],[140.356398,37.38885],[140.40299,37.365768],[140.426676,37.371784],[140.406052,37.422664],[140.393703,37.4224]]]},"properties":{}}}
  ]
}