{
  "code":11339,
  "id":87,
  "name":"JR水戸線",
  "name_kana":"じぇいあーるみとせん",
  "station_size":16,
  "company_code":2,
  "closed":false,
  "color":"#3333FF",
  "station_list":[
    {"code":100404,"id":1603,"name":"小山","original_name":"小山","name_kana":"おやま","closed":false,"lat":36.312747,"lng":139.806241,"prefecture":9,"lines":[1004,11319,11339,11341],"attr":"heat","postal_code":"323-0025","address":"小山市城山町","voronoi":{"type":"Feature","geometry":{"type":"Polygon","coordinates":[[[139.81747,36.347539],[139.756646,36.307577],[139.817412,36.25749],[139.837283,36.335979],[139.81747,36.347539]]]},"properties":{}}},
    {"code":1133902,"id":1870,"name":"小田林","original_name":"小田林","name_kana":"おたばやし","closed":false,"lat":36.300775,"lng":139.85353,"prefecture":8,"lines":[11339],"attr":"heat","postal_code":"307-0007","address":"結城市小田林","voronoi":{"type":"Feature","geometry":{"type":"Polygon","coordinates":[[[139.837283,36.335979],[139.817412,36.25749],[139.848176,36.191114],[139.869057,36.340853],[139.837283,36.335979]]]},"properties":{}}},
    {"code":1133903,"id":1871,"name":"結城","original_name":"結城","name_kana":"ゆうき","closed":false,"lat":36.298056,"lng":139.873028,"prefecture":8,"lines":[11339],"attr":"heat","postal_code":"307-0001","address":"結城市結城","voronoi":{"type":"Feature","geometry":{"type":"Polygon","coordinates":[[[139.886368,36.347833],[139.869057,36.340853],[139.848176,36.191114],[139.850041,36.185912],[139.874782,36.205458],[139.886368,36.347833]]]},"properties":{}}},
    {"code":1133904,"id":1872,"name":"東結城","original_name":"東結城","name_kana":"ひがしゆうき","closed":false,"lat":36.296554,"lng":139.891485,"prefecture":8,"lines":[11339],"attr":"heat","postal_code":"307-0001","address":"結城市大字結城","voronoi":{"type":"Feature","geometry":{"type":"Polygon","coordinates":[[[139.888727,36.214367],[139.874782,36.205458],[139.886368,36.347833],[139.898568,36.355548],[139.905515,36.358145],[139.902131,36.225663],[139.888727,36.214367]]]},"properties":{}}},
    {"code":1133905,"id":1873,"name":"川島","original_name":"川島","name_kana":"かわしま","closed":false,"lat":36.295918,"lng":139.916382,"prefecture":8,"lines":[11339],"attr":"heat","postal_code":"308-0856","address":"筑西市伊佐山","voronoi":{"type":"Feature","geometry":{"type":"Polygon","coordinates":[[[139.918134,36.238202],[139.930758,36.269183],[139.921676,36.345418],[139.921274,36.34591],[139.906467,36.358736],[139.905515,36.358145],[139.902131,36.225663],[139.912405,36.231623],[139.913332,36.232387],[139.918134,36.238202]]]},"properties":{}}},
    {"code":1133906,"id":1874,"name":"玉戸","original_name":"玉戸","name_kana":"たまど","closed":false,"lat":36.298547,"lng":139.93845,"prefecture":8,"lines":[11339],"attr":"heat","postal_code":"308-0847","address":"筑西市玉戸","voronoi":{"type":"Feature","geometry":{"type":"Polygon","coordinates":[[[139.930758,36.269183],[139.921676,36.345418],[139.94324,36.328641],[139.958159,36.304192],[139.958928,36.298721],[139.930758,36.269183]]]},"properties":{}}},
    {"code":1133907,"id":1875,"name":"下館","original_name":"下館","name_kana":"しもだて","closed":false,"lat":36.304197,"lng":139.97866,"prefecture":8,"lines":[11339,99318,99330],"attr":"heat","postal_code":"308-0041","address":"茨城県筑西市乙86","voronoi":{"type":"Feature","geometry":{"type":"Polygon","coordinates":[[[139.958159,36.304192],[139.958928,36.298721],[139.991576,36.274887],[140.026021,36.272752],[140.005491,36.324681],[139.958159,36.304192]]]},"properties":{}}},
    {"code":1133908,"id":1876,"name":"新治","original_name":"新治","name_kana":"にいはり","closed":false,"lat":36.328082,"lng":140.039076,"prefecture":8,"lines":[11339],"attr":"heat","postal_code":"309-1106","address":"筑西市新治","voronoi":{"type":"Feature","geometry":{"type":"Polygon","coordinates":[[[140.031442,36.38506],[140.117194,36.217627],[140.108692,36.215151],[140.067812,36.239636],[140.026021,36.272752],[140.005491,36.324681],[140.004596,36.331377],[140.008401,36.351863],[140.013217,36.363016],[140.026332,36.381419],[140.031442,36.38506]]]},"properties":{}}},
    {"code":1133909,"id":1877,"name":"大和(茨城)","original_name":"大和","name_kana":"やまと","closed":false,"lat":36.345567,"lng":140.073216,"prefecture":8,"lines":[11339],"attr":"heat","postal_code":"309-1246","address":"桜川市高森","voronoi":{"type":"Feature","geometry":{"type":"Polygon","coordinates":[[[140.031442,36.38506],[140.117194,36.217627],[140.12642,36.218938],[140.117206,36.285006],[140.072227,36.400704],[140.064694,36.400327],[140.041528,36.395074],[140.035023,36.390167],[140.031442,36.38506]]]},"properties":{}}},
    {"code":1133910,"id":1878,"name":"岩瀬","original_name":"岩瀬","name_kana":"いわせ","closed":false,"lat":36.359377,"lng":140.108739,"prefecture":8,"lines":[11339],"attr":"eco","postal_code":"309-1217","address":"桜川市犬田","voronoi":{"type":"Feature","geometry":{"type":"Polygon","coordinates":[[[140.072227,36.400704],[140.095232,36.410507],[140.133075,36.417892],[140.117206,36.285006],[140.072227,36.400704]]]},"properties":{}}},
    {"code":1133911,"id":1879,"name":"羽黒(茨城)","original_name":"羽黒","name_kana":"はぐろ","closed":false,"lat":36.355292,"lng":140.142947,"prefecture":8,"lines":[11339],"attr":"eco","postal_code":"309-1453","address":"桜川市友部","voronoi":{"type":"Feature","geometry":{"type":"Polygon","coordinates":[[[140.133075,36.417892],[140.117206,36.285006],[140.12642,36.218938],[140.14365,36.216895],[140.154188,36.225696],[140.169933,36.409989],[140.165358,36.434209],[140.133075,36.417892]]]},"properties":{}}},
    {"code":1133912,"id":1880,"name":"福原","original_name":"福原","name_kana":"ふくはら","closed":false,"lat":36.351507,"lng":140.187249,"prefecture":8,"lines":[11339],"attr":"eco","postal_code":"309-1634","address":"笠間市福原","voronoi":{"type":"Feature","geometry":{"type":"Polygon","coordinates":[[[140.186434,36.251095],[140.16867,36.234068],[140.154188,36.225696],[140.169933,36.409989],[140.227996,36.317331],[140.186434,36.251095]]]},"properties":{}}},
    {"code":1133913,"id":1881,"name":"稲田","original_name":"稲田","name_kana":"いなだ","closed":false,"lat":36.368903,"lng":140.21501,"prefecture":8,"lines":[11339],"attr":"eco","postal_code":"309-1635","address":"笠間市稲田","voronoi":{"type":"Feature","geometry":{"type":"Polygon","coordinates":[[[140.165358,36.434209],[140.169933,36.409989],[140.227996,36.317331],[140.236856,36.324754],[140.219772,36.454357],[140.174002,36.444853],[140.173001,36.444485],[140.165358,36.434209]]]},"properties":{}}},
    {"code":1133914,"id":1882,"name":"笠間","original_name":"笠間","name_kana":"かさま","closed":false,"lat":36.373056,"lng":140.246515,"prefecture":8,"lines":[11339],"attr":"cool","postal_code":"309-1626","address":"笠間市下市毛","voronoi":{"type":"Feature","geometry":{"type":"Polygon","coordinates":[[[140.246836,36.328612],[140.236856,36.324754],[140.219772,36.454357],[140.295225,36.485502],[140.302695,36.480867],[140.301228,36.427895],[140.285172,36.385151],[140.246836,36.328612]]]},"properties":{}}},
    {"code":1133915,"id":1883,"name":"宍戸","original_name":"宍戸","name_kana":"ししど","closed":false,"lat":36.344763,"lng":140.288243,"prefecture":8,"lines":[11339],"attr":"cool","postal_code":"309-1738","address":"笠間市大田町","voronoi":{"type":"Feature","geometry":{"type":"Polygon","coordinates":[[[140.285172,36.385151],[140.246836,36.328612],[140.308158,36.313983],[140.285172,36.385151]]]},"properties":{}}},
    {"code":1122913,"id":1133,"name":"友部","original_name":"友部","name_kana":"ともべ","closed":false,"lat":36.350597,"lng":140.306306,"prefecture":8,"lines":[11229,11339],"attr":"eco","postal_code":"309-1735","address":"笠間市友部駅前１番","voronoi":{"type":"Feature","geometry":{"type":"Polygon","coordinates":[[[140.356668,36.287731],[140.360321,36.287038],[140.301228,36.427895],[140.285172,36.385151],[140.308158,36.313983],[140.356668,36.287731]]]},"properties":{}}}
  ]
}