{
  "code":11330,
  "id":"a3fab8",
  "name":"JR久留里線",
  "name_kana":"じぇいあーるくるりせん",
  "station_size":14,
  "company_code":2,
  "closed":false,
  "color":"#00AC97",
  "station_list":[
    {"code":1132511,"id":"3a96a9","name":"木更津","original_name":"木更津","name_kana":"きさらづ","closed":false,"lat":35.381668,"lng":139.92611,"prefecture":12,"lines":[11325,11330],"attr":"cool","postal_code":"292-0831","address":"木更津市富士見１丁目","voronoi":{"type":"Feature","geometry":{"type":"Polygon","coordinates":[[[139.8467,35.416085],[139.872526,35.381935],[139.95994,35.326605],[139.955438,35.345704],[139.932265,35.39741],[139.8467,35.416085]]]},"properties":{}}},
    {"code":1133002,"id":"26608b","name":"祇園(千葉)","original_name":"祇園","name_kana":"ぎおん","closed":false,"lat":35.391528,"lng":139.948111,"prefecture":12,"lines":[11330],"attr":"heat","postal_code":"292-0052","address":"木更津市祇園","voronoi":{"type":"Feature","geometry":{"type":"Polygon","coordinates":[[[139.955438,35.345704],[139.932265,35.39741],[139.953884,35.411548],[139.957469,35.410683],[139.955438,35.345704]]]},"properties":{}}},
    {"code":1133003,"id":"5f45c2","name":"上総清川","original_name":"上総清川","name_kana":"かずさきよかわ","closed":false,"lat":35.390981,"lng":139.965612,"prefecture":12,"lines":[11330],"attr":"heat","postal_code":"292-0036","address":"木更津市菅生","voronoi":{"type":"Feature","geometry":{"type":"Polygon","coordinates":[[[139.957469,35.410683],[139.955438,35.345704],[139.95994,35.326605],[139.971986,35.311923],[139.976865,35.414339],[139.957469,35.410683]]]},"properties":{}}},
    {"code":1133004,"id":"946a1e","name":"東清川","original_name":"東清川","name_kana":"ひがしきよかわ","closed":false,"lat":35.390017,"lng":139.985847,"prefecture":12,"lines":[11330],"attr":"heat","postal_code":"292-0032","address":"木更津市笹子","voronoi":{"type":"Feature","geometry":{"type":"Polygon","coordinates":[[[139.976338,35.304967],[139.971986,35.311923],[139.976865,35.414339],[139.98654,35.420785],[140.006272,35.417629],[139.996237,35.327307],[139.983864,35.312495],[139.976338,35.304967]]]},"properties":{}}},
    {"code":1133005,"id":"f9829e","name":"横田","original_name":"横田","name_kana":"よこた","closed":false,"lat":35.386207,"lng":140.020138,"prefecture":12,"lines":[11330],"attr":"heat","postal_code":"299-0236","address":"袖ケ浦市横田","voronoi":{"type":"Feature","geometry":{"type":"Polygon","coordinates":[[[140.006272,35.417629],[139.996237,35.327307],[140.004314,35.332834],[140.02803,35.359626],[140.028122,35.426044],[140.006272,35.417629]]]},"properties":{}}},
    {"code":1133006,"id":"d214b8","name":"東横田","original_name":"東横田","name_kana":"ひがしよこた","closed":false,"lat":35.386185,"lng":140.035995,"prefecture":12,"lines":[11330],"attr":"heat","postal_code":"299-0236","address":"袖ケ浦市横田","voronoi":{"type":"Feature","geometry":{"type":"Polygon","coordinates":[[[140.02803,35.359626],[140.028122,35.426044],[140.038221,35.432433],[140.062786,35.430904],[140.06342,35.429976],[140.074083,35.407656],[140.038098,35.365885],[140.02803,35.359626]]]},"properties":{}}},
    {"code":1133007,"id":"14225c","name":"馬来田","original_name":"馬来田","name_kana":"まくた","closed":false,"lat":35.36681,"lng":140.058485,"prefecture":12,"lines":[11330],"attr":"heat","postal_code":"292-0212","address":"木更津市真里","voronoi":{"type":"Feature","geometry":{"type":"Polygon","coordinates":[[[140.10401,35.357569],[140.10584,35.369793],[140.10155,35.380551],[140.074083,35.407656],[140.038098,35.365885],[140.101129,35.349245],[140.10401,35.357569]]]},"properties":{}}},
    {"code":1133008,"id":"61ff4b","name":"下郡","original_name":"下郡","name_kana":"しもごおり","closed":false,"lat":35.355018,"lng":140.055372,"prefecture":12,"lines":[11330],"attr":"cool","postal_code":"292-0401","address":"君津市山本","voronoi":{"type":"Feature","geometry":{"type":"Polygon","coordinates":[[[140.02803,35.359626],[140.004314,35.332834],[140.101041,35.348815],[140.101129,35.349245],[140.038098,35.365885],[140.02803,35.359626]]]},"properties":{}}},
    {"code":1133009,"id":"74ea1a","name":"小櫃","original_name":"小櫃","name_kana":"おびつ","closed":false,"lat":35.328252,"lng":140.059794,"prefecture":12,"lines":[11330],"attr":"cool","postal_code":"292-0451","address":"君津市末吉","voronoi":{"type":"Feature","geometry":{"type":"Polygon","coordinates":[[[140.101461,35.328494],[140.095034,35.325359],[139.983864,35.312495],[139.996237,35.327307],[140.004314,35.332834],[140.101041,35.348815],[140.102232,35.336713],[140.101461,35.328494]]]},"properties":{}}},
    {"code":1133010,"id":"a814f1","name":"俵田","original_name":"俵田","name_kana":"たわらだ","closed":false,"lat":35.314495,"lng":140.061386,"prefecture":12,"lines":[11330],"attr":"cool","postal_code":"292-0455","address":"君津市俵田","voronoi":{"type":"Feature","geometry":{"type":"Polygon","coordinates":[[[139.974279,35.287123],[139.976338,35.304967],[139.983864,35.312495],[140.095034,35.325359],[140.053338,35.293608],[139.974279,35.287123]]]},"properties":{}}},
    {"code":1133011,"id":"30869f","name":"久留里","original_name":"久留里","name_kana":"くるり","closed":false,"lat":35.295812,"lng":140.075613,"prefecture":12,"lines":[11330],"attr":"cool","postal_code":"292-0421","address":"君津市久留里市場","voronoi":{"type":"Feature","geometry":{"type":"Polygon","coordinates":[[[140.107294,35.269959],[140.10211,35.268812],[140.053338,35.293608],[140.095034,35.325359],[140.101461,35.328494],[140.105695,35.317053],[140.109286,35.281215],[140.107294,35.269959]]]},"properties":{}}},
    {"code":1133012,"id":"0166f7","name":"平山","original_name":"平山","name_kana":"ひらやま","closed":false,"lat":35.274312,"lng":140.064682,"prefecture":12,"lines":[11330],"attr":"eco","postal_code":"292-0502","address":"君津市平山","voronoi":{"type":"Feature","geometry":{"type":"Polygon","coordinates":[[[140.10211,35.268812],[140.095824,35.265025],[139.970185,35.269993],[139.969846,35.274493],[139.974279,35.287123],[140.053338,35.293608],[140.10211,35.268812]]]},"properties":{}}},
    {"code":1133013,"id":"b210c1","name":"上総松丘","original_name":"上総松丘","name_kana":"かずさまつおか","closed":false,"lat":35.258226,"lng":140.064046,"prefecture":12,"lines":[11330],"attr":"eco","postal_code":"292-0503","address":"君津市広岡","voronoi":{"type":"Feature","geometry":{"type":"Polygon","coordinates":[[[139.969765,35.228185],[139.982176,35.162315],[139.985886,35.161552],[139.993697,35.161432],[140.095824,35.265025],[139.970185,35.269993],[139.969765,35.228185]]]},"properties":{}}},
    {"code":1133014,"id":"00d97c","name":"上総亀山","original_name":"上総亀山","name_kana":"かずさかめやま","closed":false,"lat":35.233153,"lng":140.089479,"prefecture":12,"lines":[11330],"attr":"eco","postal_code":"292-0531","address":"君津市藤林","voronoi":{"type":"Feature","geometry":{"type":"Polygon","coordinates":[[[139.993697,35.161432],[140.003192,35.159849],[140.109473,35.17176],[140.149929,35.196184],[140.123495,35.251748],[140.107294,35.269959],[140.10211,35.268812],[140.095824,35.265025],[139.993697,35.161432]]]},"properties":{}}}
  ]
}