{
  "code":11342,
  "id":"1d2d8b",
  "name":"JR上越線",
  "name_kana":"じぇいあーるじょうえつせん",
  "station_size":36,
  "company_code":2,
  "closed":false,
  "color":"#00B3E6",
  "station_list":[
    {"code":100506,"id":"4505b7","name":"高崎","original_name":"高崎","name_kana":"たかさき","closed":false,"lat":36.322239,"lng":139.012354,"prefecture":10,"lines":[1005,1009,11318,11323,11337,11341,11342,99327],"attr":"eco","postal_code":"370-0849","address":"高崎市八島町","voronoi":{"type":"Feature","geometry":{"type":"Polygon","coordinates":[[[139.012673,36.334575],[138.987545,36.317453],[139.032241,36.317275],[139.034975,36.318072],[139.041385,36.328876],[139.012673,36.334575]]]},"properties":{}}},
    {"code":1134102,"id":"01b56a","name":"高崎問屋町","original_name":"高崎問屋町","name_kana":"たかさきとんやまち","closed":false,"lat":36.346097,"lng":139.017089,"prefecture":10,"lines":[11341,11342],"attr":"eco","postal_code":"370-0042","address":"高崎市貝沢町７１５番地","voronoi":{"type":"Feature","geometry":{"type":"Polygon","coordinates":[[[138.999782,36.362828],[139.012673,36.334575],[139.041385,36.328876],[139.05052,36.335324],[138.999782,36.362828]]]},"properties":{}}},
    {"code":1134103,"id":"3e0a15","name":"井野(群馬)","original_name":"井野","name_kana":"いの","closed":false,"lat":36.357457,"lng":139.023247,"prefecture":10,"lines":[11341,11342],"attr":"eco","postal_code":"370-0004","address":"高崎市井野町","voronoi":{"type":"Feature","geometry":{"type":"Polygon","coordinates":[[[139.016958,36.38818],[138.976212,36.394471],[138.977922,36.388793],[138.999782,36.362828],[139.05052,36.335324],[139.060682,36.33998],[139.016958,36.38818]]]},"properties":{}}},
    {"code":1134104,"id":"e924d6","name":"新前橋","original_name":"新前橋","name_kana":"しんまえばし","closed":false,"lat":36.378936,"lng":139.046924,"prefecture":10,"lines":[11341,11342],"attr":"eco","postal_code":"371-0844","address":"前橋市古市町","voronoi":{"type":"Feature","geometry":{"type":"Polygon","coordinates":[[[139.016958,36.38818],[139.053547,36.402863],[139.05793,36.392477],[139.066938,36.340183],[139.060682,36.33998],[139.016958,36.38818]]]},"properties":{}}},
    {"code":1134205,"id":"0d6ddb","name":"群馬総社","original_name":"群馬総社","name_kana":"ぐんまそうじゃ","closed":false,"lat":36.415574,"lng":139.032221,"prefecture":10,"lines":[11342],"attr":"heat","postal_code":"371-0851","address":"前橋市総社町植野","voronoi":{"type":"Feature","geometry":{"type":"Polygon","coordinates":[[[139.016958,36.38818],[139.053547,36.402863],[139.073121,36.437067],[139.079685,36.454199],[138.95031,36.419328],[138.976212,36.394471],[139.016958,36.38818]]]},"properties":{}}},
    {"code":1134206,"id":"688a27","name":"八木原","original_name":"八木原","name_kana":"やぎはら","closed":false,"lat":36.463738,"lng":139.019239,"prefecture":10,"lines":[11342],"attr":"heat","postal_code":"377-0003","address":"渋川市八木原","voronoi":{"type":"Feature","geometry":{"type":"Polygon","coordinates":[[[139.101271,36.485869],[139.058425,36.494368],[138.91771,36.440906],[138.922432,36.432992],[138.95031,36.419328],[139.079685,36.454199],[139.08982,36.464329],[139.090374,36.464935],[139.099217,36.48172],[139.101271,36.485869]]]},"properties":{}}},
    {"code":1133501,"id":"a9cdd0","name":"渋川","original_name":"渋川","name_kana":"しぶかわ","closed":false,"lat":36.491251,"lng":139.008786,"prefecture":10,"lines":[11335,11342],"attr":"eco","postal_code":"377-0008","address":"渋川市渋川","voronoi":{"type":"Feature","geometry":{"type":"Polygon","coordinates":[[[138.91771,36.440906],[138.914781,36.444529],[139.006748,36.522344],[139.058425,36.494368],[138.91771,36.440906]]]},"properties":{}}},
    {"code":1134208,"id":"e1b482","name":"敷島","original_name":"敷島","name_kana":"しきしま","closed":false,"lat":36.537636,"lng":139.033897,"prefecture":10,"lines":[11342],"attr":"heat","postal_code":"379-1104","address":"渋川市赤城町敷島","voronoi":{"type":"Feature","geometry":{"type":"Polygon","coordinates":[[[139.000911,36.563588],[139.006748,36.522344],[139.058425,36.494368],[139.101271,36.485869],[139.12277,36.502269],[139.133787,36.513057],[139.000911,36.563588]]]},"properties":{}}},
    {"code":1134209,"id":"79fd94","name":"津久田","original_name":"津久田","name_kana":"つくだ","closed":false,"lat":36.561063,"lng":139.042806,"prefecture":10,"lines":[11342],"attr":"heat","postal_code":"379-1103","address":"渋川市赤城町津久田","voronoi":{"type":"Feature","geometry":{"type":"Polygon","coordinates":[[[139.168181,36.567762],[138.991199,36.587698],[138.99294,36.580354],[139.000911,36.563588],[139.133787,36.513057],[139.146959,36.523128],[139.154116,36.529543],[139.168181,36.567762]]]},"properties":{}}},
    {"code":1134210,"id":"dfabe9","name":"岩本","original_name":"岩本","name_kana":"いわもと","closed":false,"lat":36.602184,"lng":139.047438,"prefecture":10,"lines":[11342],"attr":"heat","postal_code":"378-0021","address":"沼田市岩本町","voronoi":{"type":"Feature","geometry":{"type":"Polygon","coordinates":[[[138.979827,36.604425],[138.991199,36.587698],[139.168181,36.567762],[139.176213,36.58185],[139.202216,36.640338],[139.21206,36.671822],[138.979827,36.604425]]]},"properties":{}}},
    {"code":1134211,"id":"11d5f3","name":"沼田","original_name":"沼田","name_kana":"ぬまた","closed":false,"lat":36.642513,"lng":139.035734,"prefecture":10,"lines":[11342],"attr":"heat","postal_code":"378-0016","address":"沼田市清水町","voronoi":{"type":"Feature","geometry":{"type":"Polygon","coordinates":[[[138.968338,36.613307],[138.979827,36.604425],[139.21206,36.671822],[139.23114,36.714456],[139.23429,36.723363],[139.238859,36.793062],[139.148353,36.765077],[139.096164,36.736376],[138.968338,36.613307]]]},"properties":{}}},
    {"code":1134212,"id":"4f664e","name":"後閑","original_name":"後閑","name_kana":"ごかん","closed":false,"lat":36.679547,"lng":139.000078,"prefecture":10,"lines":[11342],"attr":"cool","postal_code":"379-1305","address":"利根郡みなかみ町後閑","voronoi":{"type":"Feature","geometry":{"type":"Polygon","coordinates":[[[138.96278,36.61503],[138.950193,36.622747],[139.003627,36.71072],[139.096164,36.736376],[138.968338,36.613307],[138.96278,36.61503]]]},"properties":{}}},
    {"code":1134213,"id":"d7f9cc","name":"上牧(群馬)","original_name":"上牧","name_kana":"かみもく","closed":false,"lat":36.735616,"lng":138.984533,"prefecture":10,"lines":[11342],"attr":"cool","postal_code":"379-1303","address":"利根郡みなかみ町上牧","voronoi":{"type":"Feature","geometry":{"type":"Polygon","coordinates":[[[138.897347,36.728092],[139.003627,36.71072],[139.096164,36.736376],[139.148353,36.765077],[139.00801,36.768584],[138.897347,36.728092]]]},"properties":{}}},
    {"code":1134214,"id":"fe9bac","name":"水上","original_name":"水上","name_kana":"みなかみ","closed":false,"lat":36.778614,"lng":138.9688,"prefecture":10,"lines":[11342],"attr":"cool","postal_code":"379-1611","address":"利根郡みなかみ町鹿野沢","voronoi":{"type":"Feature","geometry":{"type":"Polygon","coordinates":[[[138.958363,36.804493],[138.89397,36.803453],[138.829087,36.731394],[138.843569,36.722551],[138.897347,36.728092],[139.00801,36.768584],[138.958363,36.804493]]]},"properties":{}}},
    {"code":1134215,"id":"e4bb12","name":"湯檜曽","original_name":"湯檜曽","name_kana":"ゆびそ","closed":false,"lat":36.802683,"lng":138.986209,"prefecture":10,"lines":[11342],"attr":"cool","postal_code":"379-1728","address":"利根郡みなかみ町湯桧曽","voronoi":{"type":"Feature","geometry":{"type":"Polygon","coordinates":[[[139.148353,36.765077],[139.238859,36.793062],[139.239576,36.794741],[139.295604,36.968961],[139.248532,36.993533],[138.958363,36.804493],[139.00801,36.768584],[139.148353,36.765077]]]},"properties":{}}},
    {"code":1134216,"id":"ff7f0a","name":"土合","original_name":"土合","name_kana":"どあい","closed":false,"lat":36.830696,"lng":138.967959,"prefecture":10,"lines":[11342],"attr":"cool","postal_code":"379-1728","address":"利根郡みなかみ町湯桧曽","voronoi":{"type":"Feature","geometry":{"type":"Polygon","coordinates":[[[138.89397,36.803453],[138.945376,36.926271],[138.973986,36.969166],[139.047667,36.997872],[139.191039,37.027425],[139.248532,36.993533],[138.958363,36.804493],[138.89397,36.803453]]]},"properties":{}}},
    {"code":1134217,"id":"cca662","name":"土樽","original_name":"土樽","name_kana":"つちたる","closed":false,"lat":36.875277,"lng":138.861446,"prefecture":15,"lines":[11342],"attr":"cool","postal_code":"949-6103","address":"南魚沼郡湯沢町大字土樽字古屋敷","voronoi":{"type":"Feature","geometry":{"type":"Polygon","coordinates":[[[138.89397,36.803453],[138.945376,36.926271],[138.794867,36.870621],[138.673724,36.766097],[138.679378,36.761992],[138.766368,36.733675],[138.829087,36.731394],[138.89397,36.803453]]]},"properties":{}}},
    {"code":1134218,"id":"c6cec2","name":"越後中里","original_name":"越後中里","name_kana":"えちごなかざと","closed":false,"lat":36.910398,"lng":138.84846,"prefecture":15,"lines":[11342],"attr":"cool","postal_code":"949-6103","address":"南魚沼郡湯沢町大字土樽","voronoi":{"type":"Feature","geometry":{"type":"Polygon","coordinates":[[[138.945376,36.926271],[138.794867,36.870621],[138.811125,36.895732],[138.933395,36.97597],[138.935097,36.975971],[138.973986,36.969166],[138.945376,36.926271]]]},"properties":{}}},
    {"code":1134219,"id":"b8fea5","name":"岩原スキー場前","original_name":"岩原スキー場前","name_kana":"いわっぱらすきーじょうまえ","closed":false,"lat":36.924146,"lng":138.839438,"prefecture":15,"lines":[11342],"attr":"cool","postal_code":"949-6100","address":"南魚沼郡湯沢町字中子","voronoi":{"type":"Feature","geometry":{"type":"Polygon","coordinates":[[[138.933395,36.97597],[138.811125,36.895732],[138.837848,36.965011],[138.837991,36.965226],[138.862655,36.978689],[138.872852,36.980595],[138.933395,36.97597]]]},"properties":{}}},
    {"code":100508,"id":"61e081","name":"越後湯沢","original_name":"越後湯沢","name_kana":"えちごゆざわ","closed":false,"lat":36.935799,"lng":138.809227,"prefecture":15,"lines":[1005,1006,11342],"attr":"cool","postal_code":"949-6101","address":"南魚沼郡湯沢町大字湯沢","voronoi":{"type":"Feature","geometry":{"type":"Polygon","coordinates":[[[138.675971,36.860047],[138.663068,36.826236],[138.657632,36.80854],[138.650375,36.777171],[138.673724,36.766097],[138.794867,36.870621],[138.811125,36.895732],[138.837848,36.965011],[138.675971,36.860047]]]},"properties":{}}},
    {"code":1134221,"id":"746e74","name":"石打","original_name":"石打","name_kana":"いしうち","closed":false,"lat":36.988663,"lng":138.804221,"prefecture":15,"lines":[11342],"attr":"cool","postal_code":"949-6373","address":"南魚沼市上野","voronoi":{"type":"Feature","geometry":{"type":"Polygon","coordinates":[[[138.745913,37.016179],[138.723558,36.979495],[138.837991,36.965226],[138.862655,36.978689],[138.761506,37.031864],[138.745913,37.016179]]]},"properties":{}}},
    {"code":1134222,"id":"e9a0f2","name":"大沢(新潟)","original_name":"大沢","name_kana":"おおさわ","closed":false,"lat":37.02117,"lng":138.82131,"prefecture":15,"lines":[11342],"attr":"cool","postal_code":"949-6361","address":"南魚沼市大沢","voronoi":{"type":"Feature","geometry":{"type":"Polygon","coordinates":[[[138.862655,36.978689],[138.761506,37.031864],[138.776007,37.060032],[138.779683,37.064456],[138.86843,36.986497],[138.872852,36.980595],[138.862655,36.978689]]]},"properties":{}}},
    {"code":1134223,"id":"607ce8","name":"上越国際スキー場前","original_name":"上越国際スキー場前","name_kana":"じょうえつこくさいすきーじょうまえ","closed":false,"lat":37.028755,"lng":138.827973,"prefecture":15,"lines":[11342],"attr":"cool","postal_code":"949-6431","address":"南魚沼市樺野沢１１１-５","voronoi":{"type":"Feature","geometry":{"type":"Polygon","coordinates":[[[138.779683,37.064456],[138.86843,36.986497],[138.810059,37.080318],[138.783943,37.070561],[138.779683,37.064456]]]},"properties":{}}},
    {"code":1134224,"id":"732582","name":"塩沢","original_name":"塩沢","name_kana":"しおざわ","closed":false,"lat":37.041463,"lng":138.848399,"prefecture":15,"lines":[11342],"attr":"cool","postal_code":"949-6408","address":"南魚沼市塩沢","voronoi":{"type":"Feature","geometry":{"type":"Polygon","coordinates":[[[138.933395,36.97597],[138.935097,36.975971],[138.834281,37.084154],[138.824169,37.089558],[138.810059,37.080318],[138.86843,36.986497],[138.872852,36.980595],[138.933395,36.97597]]]},"properties":{}}},
    {"code":1134225,"id":"761b28","name":"六日町","original_name":"六日町","name_kana":"むいかまち","closed":false,"lat":37.067065,"lng":138.875872,"prefecture":15,"lines":[11342,99402],"attr":"cool","postal_code":"949-6600","address":"南魚沼市六日町","voronoi":{"type":"Feature","geometry":{"type":"Polygon","coordinates":[[[138.973986,36.969166],[139.047667,36.997872],[138.915197,37.079292],[138.834281,37.084154],[138.935097,36.975971],[138.973986,36.969166]]]},"properties":{}}},
    {"code":1134226,"id":"f84e9c","name":"五日町","original_name":"五日町","name_kana":"いつかまち","closed":false,"lat":37.1199,"lng":138.908346,"prefecture":15,"lines":[11342],"attr":"heat","postal_code":"949-7101","address":"南魚沼市五日町","voronoi":{"type":"Feature","geometry":{"type":"Polygon","coordinates":[[[139.135514,37.0769],[138.852558,37.162831],[138.852347,37.160571],[138.915197,37.079292],[139.047667,36.997872],[139.191039,37.027425],[139.170075,37.064148],[139.135514,37.0769]]]},"properties":{}}},
    {"code":100509,"id":"38f14e","name":"浦佐","original_name":"浦佐","name_kana":"うらさ","closed":false,"lat":37.167488,"lng":138.922798,"prefecture":15,"lines":[1005,11342],"attr":"heat","postal_code":"949-7302","address":"南魚沼市浦佐","voronoi":{"type":"Feature","geometry":{"type":"Polygon","coordinates":[[[138.881311,37.203231],[138.880681,37.203043],[138.850054,37.176704],[138.849481,37.174048],[138.852558,37.162831],[139.135514,37.0769],[138.881311,37.203231]]]},"properties":{}}},
    {"code":1134228,"id":"4e9c2d","name":"八色","original_name":"八色","name_kana":"やいろ","closed":false,"lat":37.191747,"lng":138.934854,"prefecture":15,"lines":[11342],"attr":"heat","postal_code":"949-7301","address":"南魚沼市五箇","voronoi":{"type":"Feature","geometry":{"type":"Polygon","coordinates":[[[138.881311,37.203231],[138.892204,37.209767],[138.936372,37.216153],[139.046014,37.167217],[139.156941,37.097502],[139.170075,37.064148],[139.135514,37.0769],[138.881311,37.203231]]]},"properties":{}}},
    {"code":1122738,"id":"021b7f","name":"小出","original_name":"小出","name_kana":"こいで","closed":false,"lat":37.233581,"lng":138.953526,"prefecture":15,"lines":[11227,11342],"attr":"heat","postal_code":"946-0007","address":"魚沼市四日町","voronoi":{"type":"Feature","geometry":{"type":"Polygon","coordinates":[[[138.936372,37.216153],[139.046014,37.167217],[138.946458,37.262542],[138.936372,37.216153]]]},"properties":{}}},
    {"code":1134230,"id":"6c50e3","name":"越後堀之内","original_name":"越後堀之内","name_kana":"えちごほりのうち","closed":false,"lat":37.23913,"lng":138.928003,"prefecture":15,"lines":[11342],"attr":"heat","postal_code":"949-7413","address":"魚沼市堀之内","voronoi":{"type":"Feature","geometry":{"type":"Polygon","coordinates":[[[138.946458,37.262542],[138.936372,37.216153],[138.892204,37.209767],[138.933728,37.288183],[138.941092,37.277077],[138.946458,37.262542]]]},"properties":{}}},
    {"code":1134231,"id":"359d3f","name":"北堀之内","original_name":"北堀之内","name_kana":"きたほりのうち","closed":false,"lat":37.25588,"lng":138.896372,"prefecture":15,"lines":[11342],"attr":"heat","postal_code":"949-7416","address":"魚沼市下島","voronoi":{"type":"Feature","geometry":{"type":"Polygon","coordinates":[[[138.915837,37.339626],[138.873934,37.254222],[138.880681,37.203043],[138.881311,37.203231],[138.892204,37.209767],[138.933728,37.288183],[138.927126,37.318461],[138.918146,37.340883],[138.915837,37.339626]]]},"properties":{}}},
    {"code":1134232,"id":"679a1e","name":"越後川口","original_name":"越後川口","name_kana":"えちごかわぐち","closed":false,"lat":37.272983,"lng":138.861514,"prefecture":15,"lines":[11342,11407],"attr":"eco","postal_code":"949-7504","address":"新潟県長岡市東川口693-1","voronoi":{"type":"Feature","geometry":{"type":"Polygon","coordinates":[[[138.862969,37.324948],[138.824801,37.274926],[138.873934,37.254222],[138.915837,37.339626],[138.862969,37.324948]]]},"properties":{}}},
    {"code":1134233,"id":"946131","name":"小千谷","original_name":"小千谷","name_kana":"おぢや","closed":false,"lat":37.309822,"lng":138.813233,"prefecture":15,"lines":[11342],"attr":"eco","postal_code":"947-0003","address":"小千谷市ひ生","voronoi":{"type":"Feature","geometry":{"type":"Polygon","coordinates":[[[138.824801,37.274926],[138.819994,37.271823],[138.747762,37.288698],[138.776741,37.342061],[138.786795,37.349538],[138.791694,37.351205],[138.862969,37.324948],[138.824801,37.274926]]]},"properties":{}}},
    {"code":1134234,"id":"bf4fc1","name":"越後滝谷","original_name":"越後滝谷","name_kana":"えちごたきや","closed":false,"lat":37.368724,"lng":138.834932,"prefecture":15,"lines":[11342],"attr":"eco","postal_code":"940-1138","address":"長岡市滝谷町","voronoi":{"type":"Feature","geometry":{"type":"Polygon","coordinates":[[[138.791694,37.351205],[138.80623,37.377506],[138.854836,37.393772],[138.937013,37.385674],[138.934162,37.374861],[138.918146,37.340883],[138.915837,37.339626],[138.862969,37.324948],[138.791694,37.351205]]]},"properties":{}}},
    {"code":1134235,"id":"138712","name":"宮内(新潟)","original_name":"宮内","name_kana":"みやうち","closed":false,"lat":37.422223,"lng":138.840204,"prefecture":15,"lines":[11342,11404],"attr":"eco","postal_code":"940-1106","address":"長岡市宮内３丁目","voronoi":{"type":"Feature","geometry":{"type":"Polygon","coordinates":[[[138.854836,37.393772],[138.937013,37.385674],[138.937472,37.386474],[138.786191,37.467683],[138.799214,37.43826],[138.854836,37.393772]]]},"properties":{}}},
    {"code":100510,"id":"7bcf10","name":"長岡","original_name":"長岡","name_kana":"ながおか","closed":false,"lat":37.447787,"lng":138.853927,"prefecture":15,"lines":[1005,11342,11404],"attr":"heat","postal_code":"940-0061","address":"長岡市城内町２丁目","voronoi":{"type":"Feature","geometry":{"type":"Polygon","coordinates":[[[138.784236,37.488393],[138.778292,37.478662],[138.786191,37.467683],[138.937472,37.386474],[138.96082,37.416492],[138.784236,37.488393]]]},"properties":{}}}
  ]
}