{
  "code":11401,
  "id":91,
  "name":"JR小海線(八ヶ岳高原線)",
  "name_kana":"じぇいあーるこうみせん(やつがたけこうげんせん)",
  "name_formal":"JR小海線",
  "station_size":31,
  "company_code":2,
  "closed":false,
  "color":"#008000",
  "station_list":[
    {"code":1131139,"id":1461,"name":"小淵沢","original_name":"小淵沢","name_kana":"こぶちざわ","closed":false,"lat":35.863808,"lng":138.316351,"prefecture":19,"lines":[11311,11401],"attr":"eco","postal_code":"408-0000","address":"北杜市小淵沢町尾根１０２４","voronoi":{"type":"Feature","geometry":{"type":"Polygon","coordinates":[[[138.23046,35.69415],[138.214697,35.677352],[138.183471,35.650344],[138.181813,35.653552],[138.319903,35.920876],[138.345447,35.850946],[138.23046,35.69415]]]},"properties":{}}},
    {"code":1140102,"id":1939,"name":"甲斐小泉","original_name":"甲斐小泉","name_kana":"かいこいずみ","closed":false,"lat":35.879533,"lng":138.359402,"prefecture":19,"lines":[11401],"attr":"eco","postal_code":"408-0031","address":"北杜市長坂町小荒間","voronoi":{"type":"Feature","geometry":{"type":"Polygon","coordinates":[[[138.332122,36.019924],[138.338479,36.015438],[138.348536,35.995814],[138.394585,35.857554],[138.345447,35.850946],[138.319903,35.920876],[138.324456,35.991435],[138.332122,36.019924]]]},"properties":{}}},
    {"code":1140103,"id":1940,"name":"甲斐大泉","original_name":"甲斐大泉","name_kana":"かいおおいずみ","closed":false,"lat":35.89624,"lng":138.409564,"prefecture":19,"lines":[11401],"attr":"eco","postal_code":"409-1501","address":"北杜市大泉町西井出","voronoi":{"type":"Feature","geometry":{"type":"Polygon","coordinates":[[[138.487878,35.831035],[138.348536,35.995814],[138.394585,35.857554],[138.421842,35.840571],[138.487878,35.831035]]]},"properties":{}}},
    {"code":1140104,"id":1941,"name":"清里","original_name":"清里","name_kana":"きよさと","closed":false,"lat":35.919093,"lng":138.436589,"prefecture":19,"lines":[11401],"attr":"eco","postal_code":"407-0301","address":"北杜市高根町清里","voronoi":{"type":"Feature","geometry":{"type":"Polygon","coordinates":[[[138.397882,35.997475],[138.338479,36.015438],[138.348536,35.995814],[138.487878,35.831035],[138.501121,35.826676],[138.558344,35.825579],[138.550965,35.83736],[138.397882,35.997475]]]},"properties":{}}},
    {"code":1140105,"id":1942,"name":"野辺山","original_name":"野辺山","name_kana":"のべやま","closed":false,"lat":35.955289,"lng":138.474448,"prefecture":20,"lines":[11401],"attr":"eco","postal_code":"384-1305","address":"南佐久郡南牧村野辺山","voronoi":{"type":"Feature","geometry":{"type":"Polygon","coordinates":[[[138.494665,35.981577],[138.550965,35.83736],[138.397882,35.997475],[138.44339,35.997958],[138.4893,35.986551],[138.494665,35.981577]]]},"properties":{}}},
    {"code":1140106,"id":1943,"name":"信濃川上","original_name":"信濃川上","name_kana":"しなのかわかみ","closed":false,"lat":35.975939,"lng":138.527345,"prefecture":20,"lines":[11401],"attr":"eco","postal_code":"384-1407","address":"南佐久郡川上村大字御所平","voronoi":{"type":"Feature","geometry":{"type":"Polygon","coordinates":[[[138.703597,36.041704],[138.494665,35.981577],[138.550965,35.83736],[138.558344,35.825579],[138.56138,35.824382],[138.565426,35.823823],[138.602012,35.828759],[138.622834,35.839897],[138.661901,35.864267],[138.751802,35.933185],[138.75367,35.986338],[138.703597,36.041704]]]},"properties":{}}},
    {"code":1140107,"id":1944,"name":"佐久広瀬","original_name":"佐久広瀬","name_kana":"さくひろせ","closed":false,"lat":36.003724,"lng":138.519349,"prefecture":20,"lines":[11401],"attr":"eco","postal_code":"384-1303","address":"南佐久郡南牧村大字広瀬","voronoi":{"type":"Feature","geometry":{"type":"Polygon","coordinates":[[[138.568376,36.07514],[138.654949,36.104603],[138.703597,36.041704],[138.494665,35.981577],[138.4893,35.986551],[138.534402,36.060516],[138.568376,36.07514]]]},"properties":{}}},
    {"code":1140108,"id":1945,"name":"佐久海ノ口","original_name":"佐久海ノ口","name_kana":"さくうみのくち","closed":false,"lat":36.021128,"lng":138.490807,"prefecture":20,"lines":[11401],"attr":"eco","postal_code":"384-1302","address":"南佐久郡南牧村大字海ノ口","voronoi":{"type":"Feature","geometry":{"type":"Polygon","coordinates":[[[138.4893,35.986551],[138.44339,35.997958],[138.512712,36.057382],[138.514155,36.058116],[138.534402,36.060516],[138.4893,35.986551]]]},"properties":{}}},
    {"code":1140109,"id":1946,"name":"海尻","original_name":"海尻","name_kana":"うみじり","closed":false,"lat":36.041276,"lng":138.473536,"prefecture":20,"lines":[11401],"attr":"heat","postal_code":"384-1301","address":"南佐久郡南牧村大字海尻","voronoi":{"type":"Feature","geometry":{"type":"Polygon","coordinates":[[[138.44339,35.997958],[138.512712,36.057382],[138.327199,36.028904],[138.332122,36.019924],[138.338479,36.015438],[138.397882,35.997475],[138.44339,35.997958]]]},"properties":{}}},
    {"code":1140110,"id":1947,"name":"松原湖","original_name":"松原湖","name_kana":"まつばらこ","closed":false,"lat":36.060995,"lng":138.470509,"prefecture":20,"lines":[11401],"attr":"heat","postal_code":"384-1103","address":"南佐久郡小海町大字豊里","voronoi":{"type":"Feature","geometry":{"type":"Polygon","coordinates":[[[138.435196,36.093264],[138.293901,36.111157],[138.300545,36.079027],[138.309849,36.057586],[138.313638,36.050086],[138.327199,36.028904],[138.512712,36.057382],[138.514155,36.058116],[138.435196,36.093264]]]},"properties":{}}},
    {"code":1140111,"id":1948,"name":"小海","original_name":"小海","name_kana":"こうみ","closed":false,"lat":36.08862,"lng":138.482806,"prefecture":20,"lines":[11401],"attr":"heat","postal_code":"384-1102","address":"南佐久郡小海町大字小海","voronoi":{"type":"Feature","geometry":{"type":"Polygon","coordinates":[[[138.435196,36.093264],[138.514155,36.058116],[138.534402,36.060516],[138.568376,36.07514],[138.466573,36.099481],[138.435196,36.093264]]]},"properties":{}}},
    {"code":1140112,"id":1949,"name":"馬流","original_name":"馬流","name_kana":"まながし","closed":false,"lat":36.101824,"lng":138.485963,"prefecture":20,"lines":[11401],"attr":"heat","postal_code":"384-1101","address":"南佐久郡小海町大字東馬流","voronoi":{"type":"Feature","geometry":{"type":"Polygon","coordinates":[[[138.579921,36.128904],[138.647551,36.125077],[138.654949,36.104603],[138.568376,36.07514],[138.466573,36.099481],[138.507582,36.124656],[138.522821,36.128831],[138.579921,36.128904]]]},"properties":{}}},
    {"code":1140113,"id":1950,"name":"高岩(長野)","original_name":"高岩","name_kana":"たかいわ","closed":false,"lat":36.115711,"lng":138.477438,"prefecture":20,"lines":[11401],"attr":"heat","postal_code":"384-0702","address":"南佐久郡佐久穂町穂積","voronoi":{"type":"Feature","geometry":{"type":"Polygon","coordinates":[[[138.507582,36.124656],[138.289329,36.123501],[138.293901,36.111157],[138.435196,36.093264],[138.466573,36.099481],[138.507582,36.124656]]]},"properties":{}}},
    {"code":1140114,"id":1951,"name":"八千穂","original_name":"八千穂","name_kana":"やちほ","closed":false,"lat":36.133281,"lng":138.477345,"prefecture":20,"lines":[11401],"attr":"cool","postal_code":"384-0702","address":"南佐久郡佐久穂町穂積","voronoi":{"type":"Feature","geometry":{"type":"Polygon","coordinates":[[[138.507582,36.124656],[138.289329,36.123501],[138.288046,36.126524],[138.279735,36.16115],[138.281957,36.162636],[138.318483,36.182496],[138.371853,36.183681],[138.384887,36.181328],[138.522821,36.128831],[138.507582,36.124656]]]},"properties":{}}},
    {"code":1140115,"id":1952,"name":"海瀬","original_name":"海瀬","name_kana":"かいぜ","closed":false,"lat":36.155743,"lng":138.485894,"prefecture":20,"lines":[11401],"attr":"cool","postal_code":"384-0503","address":"南佐久郡佐久穂町海瀬","voronoi":{"type":"Feature","geometry":{"type":"Polygon","coordinates":[[[138.579921,36.128904],[138.454296,36.172757],[138.389793,36.181019],[138.384887,36.181328],[138.522821,36.128831],[138.579921,36.128904]]]},"properties":{}}},
    {"code":1140116,"id":1953,"name":"羽黒下","original_name":"羽黒下","name_kana":"はぐろした","closed":false,"lat":36.166411,"lng":138.489618,"prefecture":20,"lines":[11401],"attr":"cool","postal_code":"384-0611","address":"南佐久郡佐久穂町平林","voronoi":{"type":"Feature","geometry":{"type":"Polygon","coordinates":[[[138.454296,36.172757],[138.639633,36.178449],[138.647551,36.125077],[138.579921,36.128904],[138.454296,36.172757]]]},"properties":{}}},
    {"code":1140117,"id":1954,"name":"青沼","original_name":"青沼","name_kana":"あおぬま","closed":false,"lat":36.181259,"lng":138.489162,"prefecture":20,"lines":[11401],"attr":"cool","postal_code":"384-0621","address":"佐久市入沢","voronoi":{"type":"Feature","geometry":{"type":"Polygon","coordinates":[[[138.389793,36.181019],[138.527199,36.190208],[138.63922,36.182654],[138.639633,36.178449],[138.454296,36.172757],[138.389793,36.181019]]]},"properties":{}}},
    {"code":1140118,"id":1955,"name":"臼田","original_name":"臼田","name_kana":"うすだ","closed":false,"lat":36.194013,"lng":138.488309,"prefecture":20,"lines":[11401],"attr":"cool","postal_code":"384-0414","address":"佐久市下越","voronoi":{"type":"Feature","geometry":{"type":"Polygon","coordinates":[[[138.459069,36.206278],[138.396772,36.191099],[138.371853,36.183681],[138.384887,36.181328],[138.389793,36.181019],[138.527199,36.190208],[138.459069,36.206278]]]},"properties":{}}},
    {"code":1140119,"id":1956,"name":"龍岡城","original_name":"龍岡城","name_kana":"たつおかじょう","closed":false,"lat":36.204184,"lng":138.490708,"prefecture":20,"lines":[11401],"attr":"cool","postal_code":"384-0412","address":"佐久市田口","voronoi":{"type":"Feature","geometry":{"type":"Polygon","coordinates":[[[138.459069,36.206278],[138.461179,36.207182],[138.59814,36.231884],[138.607621,36.226985],[138.638971,36.194351],[138.63922,36.182654],[138.527199,36.190208],[138.459069,36.206278]]]},"properties":{}}},
    {"code":1140120,"id":1957,"name":"太田部","original_name":"太田部","name_kana":"おおたべ","closed":false,"lat":36.220307,"lng":138.4878,"prefecture":20,"lines":[11401],"attr":"cool","postal_code":"385-0033","address":"佐久市大字太田部","voronoi":{"type":"Feature","geometry":{"type":"Polygon","coordinates":[[[138.461179,36.207182],[138.59814,36.231884],[138.553941,36.259034],[138.550681,36.259641],[138.509092,36.246259],[138.461179,36.207182]]]},"properties":{}}},
    {"code":1140121,"id":1958,"name":"中込","original_name":"中込","name_kana":"なかごみ","closed":false,"lat":36.23062,"lng":138.479389,"prefecture":20,"lines":[11401],"attr":"cool","postal_code":"385-0051","address":"佐久市大字中込","voronoi":{"type":"Feature","geometry":{"type":"Polygon","coordinates":[[[138.396772,36.191099],[138.495847,36.244772],[138.509092,36.246259],[138.461179,36.207182],[138.459069,36.206278],[138.396772,36.191099]]]},"properties":{}}},
    {"code":1140122,"id":1959,"name":"滑津","original_name":"滑津","name_kana":"なめづ","closed":false,"lat":36.238716,"lng":138.475003,"prefecture":20,"lines":[11401],"attr":"cool","postal_code":"385-0051","address":"佐久市大字中込","voronoi":{"type":"Feature","geometry":{"type":"Polygon","coordinates":[[[138.396772,36.191099],[138.371853,36.183681],[138.318483,36.182496],[138.323918,36.188328],[138.445002,36.249973],[138.495847,36.244772],[138.396772,36.191099]]]},"properties":{}}},
    {"code":1140123,"id":1960,"name":"北中込","original_name":"北中込","name_kana":"きたなかごみ","closed":false,"lat":36.254923,"lng":138.476661,"prefecture":20,"lines":[11401],"attr":"cool","postal_code":"385-0051","address":"佐久市大字中込","voronoi":{"type":"Feature","geometry":{"type":"Polygon","coordinates":[[[138.46226,36.262015],[138.518785,36.274343],[138.550681,36.259641],[138.509092,36.246259],[138.495847,36.244772],[138.445002,36.249973],[138.452903,36.257015],[138.46226,36.262015]]]},"properties":{}}},
    {"code":1140124,"id":1961,"name":"岩村田","original_name":"岩村田","name_kana":"いわむらだ","closed":false,"lat":36.27446,"lng":138.4724,"prefecture":20,"lines":[11401],"attr":"cool","postal_code":"385-0022","address":"佐久市岩村田","voronoi":{"type":"Feature","geometry":{"type":"Polygon","coordinates":[[[138.482411,36.301947],[138.518785,36.274343],[138.46226,36.262015],[138.478618,36.299895],[138.482411,36.301947]]]},"properties":{}}},
    {"code":100904,"id":1962,"name":"佐久平","original_name":"佐久平","name_kana":"さくだいら","closed":false,"lat":36.277929,"lng":138.464367,"prefecture":20,"lines":[1009,11401],"attr":"cool","postal_code":"385-0021","address":"佐久市大字長土呂１４８８番地","voronoi":{"type":"Feature","geometry":{"type":"Polygon","coordinates":[[[138.452903,36.257015],[138.461681,36.289457],[138.46886,36.296573],[138.478618,36.299895],[138.46226,36.262015],[138.452903,36.257015]]]},"properties":{}}},
    {"code":1140126,"id":1963,"name":"中佐都","original_name":"中佐都","name_kana":"なかさと","closed":false,"lat":36.280856,"lng":138.453549,"prefecture":20,"lines":[11401],"attr":"cool","postal_code":"385-0021","address":"佐久市大字長土呂","voronoi":{"type":"Feature","geometry":{"type":"Polygon","coordinates":[[[138.445002,36.249973],[138.323918,36.188328],[138.370421,36.256133],[138.391765,36.268753],[138.461681,36.289457],[138.452903,36.257015],[138.445002,36.249973]]]},"properties":{}}},
    {"code":1140127,"id":1964,"name":"美里","original_name":"美里","name_kana":"みさと","closed":false,"lat":36.292243,"lng":138.450177,"prefecture":20,"lines":[11401],"attr":"cool","postal_code":"384-0083","address":"小諸市大字市字土橋","voronoi":{"type":"Feature","geometry":{"type":"Polygon","coordinates":[[[138.461681,36.289457],[138.391765,36.268753],[138.418852,36.288438],[138.433744,36.295951],[138.456964,36.299299],[138.46886,36.296573],[138.461681,36.289457]]]},"properties":{}}},
    {"code":1140128,"id":1965,"name":"三岡","original_name":"三岡","name_kana":"みつおか","closed":false,"lat":36.30415,"lng":138.44846,"prefecture":20,"lines":[11401],"attr":"cool","postal_code":"384-0085","address":"小諸市森山","voronoi":{"type":"Feature","geometry":{"type":"Polygon","coordinates":[[[138.456964,36.299299],[138.433744,36.295951],[138.447433,36.31099],[138.456964,36.299299]]]},"properties":{}}},
    {"code":1140129,"id":1966,"name":"乙女","original_name":"乙女","name_kana":"おとめ","closed":false,"lat":36.311371,"lng":138.440527,"prefecture":20,"lines":[11401],"attr":"cool","postal_code":"384-0003","address":"小諸市東山","voronoi":{"type":"Feature","geometry":{"type":"Polygon","coordinates":[[[138.418852,36.288438],[138.433744,36.295951],[138.447433,36.31099],[138.453242,36.33914],[138.418852,36.288438]]]},"properties":{}}},
    {"code":1140130,"id":1967,"name":"東小諸","original_name":"東小諸","name_kana":"ひがしこもろ","closed":false,"lat":36.317057,"lng":138.432144,"prefecture":20,"lines":[11401],"attr":"cool","postal_code":"384-0001","address":"小諸市小原","voronoi":{"type":"Feature","geometry":{"type":"Polygon","coordinates":[[[138.453242,36.33914],[138.418852,36.288438],[138.391765,36.268753],[138.370421,36.256133],[138.372774,36.262455],[138.460704,36.358373],[138.453242,36.33914]]]},"properties":{}}},
    {"code":1140131,"id":1968,"name":"小諸","original_name":"小諸","name_kana":"こもろ","closed":false,"lat":36.326337,"lng":138.422021,"prefecture":20,"lines":[11401,99403],"attr":"cool","postal_code":"384-0025","address":"小諸市相生町","voronoi":{"type":"Feature","geometry":{"type":"Polygon","coordinates":[[[138.372774,36.262455],[138.424623,36.449053],[138.472745,36.421585],[138.46844,36.372293],[138.460704,36.358373],[138.372774,36.262455]]]},"properties":{}}}
  ]
}