{
  "code":11408,
  "id":"3d62cd",
  "name":"JR越後線",
  "name_kana":"じぇいあーるえちごせん",
  "station_size":32,
  "company_code":2,
  "closed":false,
  "color":"#40934D",
  "station_list":[
    {"code":1140412,"id":"f19f08","name":"柏崎","original_name":"柏崎","name_kana":"かしわざき","closed":false,"lat":37.363495,"lng":138.556303,"prefecture":15,"lines":[11404,11408],"attr":"cool","postal_code":"945-0055","address":"柏崎市駅前１丁目","voronoi":{"type":"Feature","geometry":{"type":"Polygon","coordinates":[[[138.571305,37.359291],[138.529301,37.39776],[138.55334,37.275356],[138.553341,37.275361],[138.571305,37.359291]]]},"properties":{}}},
    {"code":1140802,"id":"73fdd3","name":"東柏崎","original_name":"東柏崎","name_kana":"ひがしかしわざき","closed":false,"lat":37.373867,"lng":138.565802,"prefecture":15,"lines":[11408],"attr":"eco","postal_code":"945-0076","address":"柏崎市小倉町","voronoi":{"type":"Feature","geometry":{"type":"Polygon","coordinates":[[[138.529301,37.39776],[138.493203,37.494892],[138.538173,37.442457],[138.584466,37.375594],[138.571305,37.359291],[138.529301,37.39776]]]},"properties":{}}},
    {"code":1140803,"id":"b72591","name":"西中通","original_name":"西中通","name_kana":"にしなかどおり","closed":false,"lat":37.392456,"lng":138.592651,"prefecture":15,"lines":[11408],"attr":"eco","postal_code":"945-0013","address":"柏崎市大字山本","voronoi":{"type":"Feature","geometry":{"type":"Polygon","coordinates":[[[138.538173,37.442457],[138.584466,37.375594],[138.612973,37.370823],[138.627266,37.376229],[138.538173,37.442457]]]},"properties":{}}},
    {"code":1140804,"id":"9d82ef","name":"荒浜","original_name":"荒浜","name_kana":"あらはま","closed":false,"lat":37.404699,"lng":138.601752,"prefecture":15,"lines":[11408],"attr":"eco","postal_code":"945-0317","address":"刈羽郡刈羽村字正明寺","voronoi":{"type":"Feature","geometry":{"type":"Polygon","coordinates":[[[138.627266,37.376229],[138.538173,37.442457],[138.493203,37.494892],[138.488385,37.503222],[138.642581,37.394953],[138.627741,37.376306],[138.627266,37.376229]]]},"properties":{}}},
    {"code":1140805,"id":"67b48d","name":"刈羽","original_name":"刈羽","name_kana":"かりわ","closed":false,"lat":37.430047,"lng":138.61955,"prefecture":15,"lines":[11408],"attr":"eco","postal_code":"945-0307","address":"刈羽郡刈羽村大字刈羽","voronoi":{"type":"Feature","geometry":{"type":"Polygon","coordinates":[[[138.342304,37.7888],[138.302484,37.828194],[138.236679,37.890722],[138.428661,37.585532],[138.488385,37.503222],[138.642581,37.394953],[138.656393,37.402875],[138.658701,37.405215],[138.342304,37.7888]]]},"properties":{}}},
    {"code":1140806,"id":"3dee79","name":"西山(新潟)","original_name":"西山","name_kana":"にしやま","closed":false,"lat":37.448375,"lng":138.64177,"prefecture":15,"lines":[11408],"attr":"eco","postal_code":"949-4143","address":"柏崎市西山町和田","voronoi":{"type":"Feature","geometry":{"type":"Polygon","coordinates":[[[138.615174,37.53073],[138.602227,37.547506],[138.342304,37.7888],[138.658701,37.405215],[138.673017,37.412602],[138.615174,37.53073]]]},"properties":{}}},
    {"code":1140807,"id":"2ee608","name":"礼拝","original_name":"礼拝","name_kana":"らいはい","closed":false,"lat":37.459221,"lng":138.66392,"prefecture":15,"lines":[11408],"attr":"eco","postal_code":"949-4124","address":"柏崎市西山町礼拝","voronoi":{"type":"Feature","geometry":{"type":"Polygon","coordinates":[[[138.615174,37.53073],[138.717198,37.431696],[138.708151,37.420226],[138.673017,37.412602],[138.615174,37.53073]]]},"properties":{}}},
    {"code":1140808,"id":"168451","name":"石地","original_name":"石地","name_kana":"いしじ","closed":false,"lat":37.484132,"lng":138.688101,"prefecture":15,"lines":[11408],"attr":"eco","postal_code":"949-4111","address":"柏崎市西山町別山","voronoi":{"type":"Feature","geometry":{"type":"Polygon","coordinates":[[[138.717198,37.431696],[138.745959,37.451764],[138.76006,37.467231],[138.602227,37.547506],[138.615174,37.53073],[138.717198,37.431696]]]},"properties":{}}},
    {"code":1140809,"id":"e61fe6","name":"小木ノ城","original_name":"小木ノ城","name_kana":"おぎのじょう","closed":false,"lat":37.515431,"lng":138.70402,"prefecture":15,"lines":[11408],"attr":"eco","postal_code":"949-4300","address":"三島郡出雲崎町大字小柿","voronoi":{"type":"Feature","geometry":{"type":"Polygon","coordinates":[[[138.602227,37.547506],[138.76006,37.467231],[138.773542,37.476291],[138.302484,37.828194],[138.342304,37.7888],[138.602227,37.547506]]]},"properties":{}}},
    {"code":1140810,"id":"4bd0dc","name":"出雲崎","original_name":"出雲崎","name_kana":"いずもざき","closed":false,"lat":37.531857,"lng":138.716291,"prefecture":15,"lines":[11408],"attr":"eco","postal_code":"949-4352","address":"三島郡出雲崎町大字大門字滝谷林","voronoi":{"type":"Feature","geometry":{"type":"Polygon","coordinates":[[[138.784236,37.488393],[138.778292,37.478662],[138.773542,37.476291],[138.302484,37.828194],[138.236679,37.890722],[138.185211,37.954498],[138.771363,37.517683],[138.787768,37.496575],[138.784236,37.488393]]]},"properties":{}}},
    {"code":1140811,"id":"b3a805","name":"妙法寺(新潟)","original_name":"妙法寺","name_kana":"みょうほうじ","closed":false,"lat":37.566405,"lng":138.742037,"prefecture":15,"lines":[11408],"attr":"eco","postal_code":"949-4522","address":"長岡市村田","voronoi":{"type":"Feature","geometry":{"type":"Polygon","coordinates":[[[138.185211,37.954498],[138.771363,37.517683],[138.743378,37.617972],[138.684691,37.701861],[138.013597,38.155424],[138.065897,38.093099],[138.185211,37.954498]]]},"properties":{}}},
    {"code":1140812,"id":"7f934e","name":"小島谷","original_name":"小島谷","name_kana":"おじまや","closed":false,"lat":37.57455,"lng":138.771225,"prefecture":15,"lines":[11408],"attr":"eco","postal_code":"949-4511","address":"長岡市小島谷","voronoi":{"type":"Feature","geometry":{"type":"Polygon","coordinates":[[[138.832003,37.548871],[138.743378,37.617972],[138.771363,37.517683],[138.787768,37.496575],[138.812036,37.517508],[138.832003,37.548871]]]},"properties":{}}},
    {"code":1140813,"id":"454f9e","name":"桐原(新潟)","original_name":"桐原","name_kana":"きりはら","closed":false,"lat":37.601553,"lng":138.792279,"prefecture":15,"lines":[11408],"attr":"eco","postal_code":"959-0154","address":"長岡市寺泊五分一","voronoi":{"type":"Feature","geometry":{"type":"Polygon","coordinates":[[[138.748318,37.676124],[138.684691,37.701861],[138.743378,37.617972],[138.832003,37.548871],[138.841089,37.557191],[138.844129,37.562757],[138.748318,37.676124]]]},"properties":{}}},
    {"code":1140814,"id":"31df63","name":"寺泊","original_name":"寺泊","name_kana":"てらどまり","closed":false,"lat":37.620349,"lng":138.814519,"prefecture":15,"lines":[11408],"attr":"eco","postal_code":"959-0161","address":"長岡市寺泊竹森","voronoi":{"type":"Feature","geometry":{"type":"Polygon","coordinates":[[[138.844129,37.562757],[138.748318,37.676124],[138.813624,37.661837],[138.847406,37.566443],[138.844129,37.562757]]]},"properties":{}}},
    {"code":1140815,"id":"f4e6f6","name":"分水","original_name":"分水","name_kana":"ぶんすい","closed":false,"lat":37.629032,"lng":138.839038,"prefecture":15,"lines":[11408],"attr":"eco","postal_code":"959-0122","address":"燕市大武新田","voronoi":{"type":"Feature","geometry":{"type":"Polygon","coordinates":[[[138.874785,37.586685],[138.884617,37.602372],[138.843578,37.659016],[138.841371,37.660657],[138.828224,37.663352],[138.813624,37.661837],[138.847406,37.566443],[138.874785,37.586685]]]},"properties":{}}},
    {"code":1140816,"id":"1705e8","name":"粟生津","original_name":"粟生津","name_kana":"あおうづ","closed":false,"lat":37.653988,"lng":138.873484,"prefecture":15,"lines":[11408],"attr":"eco","postal_code":"959-0222","address":"燕市下粟生津","voronoi":{"type":"Feature","geometry":{"type":"Polygon","coordinates":[[[138.897079,37.610832],[138.884617,37.602372],[138.843578,37.659016],[138.892183,37.665762],[138.903661,37.649878],[138.905634,37.641919],[138.903796,37.618495],[138.897079,37.610832]]]},"properties":{}}},
    {"code":1140817,"id":"a7e5d3","name":"南吉田","original_name":"南吉田","name_kana":"みなみよしだ","closed":false,"lat":37.671999,"lng":138.870984,"prefecture":15,"lines":[11408],"attr":"cool","postal_code":"959-0221","address":"燕市吉田西太田","voronoi":{"type":"Feature","geometry":{"type":"Polygon","coordinates":[[[138.841371,37.660657],[138.843578,37.659016],[138.892183,37.665762],[138.890994,37.671574],[138.864451,37.68456],[138.841371,37.660657]]]},"properties":{}}},
    {"code":1140818,"id":"7f5095","name":"吉田(新潟)","original_name":"吉田","name_kana":"よしだ","closed":false,"lat":37.687111,"lng":138.878377,"prefecture":15,"lines":[11408,11410],"attr":"cool","postal_code":"959-0264","address":"燕市吉田","voronoi":{"type":"Feature","geometry":{"type":"Polygon","coordinates":[[[138.890994,37.671574],[138.864451,37.68456],[138.866255,37.698178],[138.895507,37.690668],[138.890994,37.671574]]]},"properties":{}}},
    {"code":1140819,"id":"3d34af","name":"北吉田","original_name":"北吉田","name_kana":"きたよしだ","closed":false,"lat":37.702037,"lng":138.882209,"prefecture":15,"lines":[11408],"attr":"cool","postal_code":"959-0267","address":"燕市吉田宮小路","voronoi":{"type":"Feature","geometry":{"type":"Polygon","coordinates":[[[138.862061,37.709425],[138.866255,37.698178],[138.895507,37.690668],[138.916295,37.715951],[138.862061,37.709425]]]},"properties":{}}},
    {"code":1140820,"id":"e604f3","name":"岩室","original_name":"岩室","name_kana":"いわむろ","closed":false,"lat":37.721382,"lng":138.879881,"prefecture":15,"lines":[11408],"attr":"cool","postal_code":"953-0125","address":"新潟市西蒲区和納","voronoi":{"type":"Feature","geometry":{"type":"Polygon","coordinates":[[[138.862061,37.709425],[138.916295,37.715951],[138.931133,37.72643],[138.836463,37.752192],[138.851908,37.718745],[138.862061,37.709425]]]},"properties":{}}},
    {"code":1140821,"id":"ff1caa","name":"巻","original_name":"巻","name_kana":"まき","closed":false,"lat":37.756753,"lng":138.889506,"prefecture":15,"lines":[11408],"attr":"cool","postal_code":"953-0041","address":"新潟市西蒲区巻甲","voronoi":{"type":"Feature","geometry":{"type":"Polygon","coordinates":[[[138.965526,37.736875],[138.860578,37.798457],[138.758063,37.8308],[138.836463,37.752192],[138.931133,37.72643],[138.956498,37.732934],[138.965526,37.736875]]]},"properties":{}}},
    {"code":1140822,"id":"d64830","name":"越後曽根","original_name":"越後曽根","name_kana":"えちごそね","closed":false,"lat":37.793544,"lng":138.911094,"prefecture":15,"lines":[11408],"attr":"cool","postal_code":"959-0432","address":"新潟市西蒲区川崎","voronoi":{"type":"Feature","geometry":{"type":"Polygon","coordinates":[[[138.965526,37.736875],[138.860578,37.798457],[138.951911,37.810219],[138.988449,37.799458],[139.007536,37.788525],[138.989523,37.748996],[138.983036,37.739284],[138.965526,37.736875]]]},"properties":{}}},
    {"code":1140823,"id":"cf0a80","name":"越後赤塚","original_name":"越後赤塚","name_kana":"えちごあかつか","closed":false,"lat":37.816008,"lng":138.908201,"prefecture":15,"lines":[11408],"attr":"cool","postal_code":"950-2261","address":"新潟市西区赤塚","voronoi":{"type":"Feature","geometry":{"type":"Polygon","coordinates":[[[138.860578,37.798457],[138.951911,37.810219],[137.576465,38.646264],[137.58517,38.616603],[137.617018,38.577259],[138.758063,37.8308],[138.860578,37.798457]]]},"properties":{}}},
    {"code":1140824,"id":"870b4f","name":"内野西が丘","original_name":"内野西が丘","name_kana":"うちのにしがおか","closed":false,"lat":37.846355,"lng":138.926647,"prefecture":15,"lines":[11408],"attr":"cool","postal_code":"950-2153","address":"新潟市西区内野崎山","voronoi":{"type":"Feature","geometry":{"type":"Polygon","coordinates":[[[138.988449,37.799458],[138.974738,37.816143],[137.435554,39.107064],[137.576465,38.646264],[138.951911,37.810219],[138.988449,37.799458]]]},"properties":{}}},
    {"code":1140825,"id":"8e3c76","name":"内野","original_name":"内野","name_kana":"うちの","closed":false,"lat":37.85824,"lng":138.936615,"prefecture":15,"lines":[11408],"attr":"cool","postal_code":"950-2112","address":"新潟市西区内野町","voronoi":{"type":"Feature","geometry":{"type":"Polygon","coordinates":[[[138.092716,39.203591],[138.165465,39.133487],[138.974738,37.816143],[137.435554,39.107064],[137.202981,39.856946],[137.514791,39.716603],[137.882464,39.400626],[138.092716,39.203591]]]},"properties":{}}},
    {"code":1140826,"id":"13d419","name":"新潟大学前","original_name":"新潟大学前","name_kana":"にいがただいがくまえ","closed":false,"lat":37.869178,"lng":138.95442,"prefecture":15,"lines":[11408],"attr":"heat","postal_code":"950-2044","address":"新潟市西区坂井砂山４丁目","voronoi":{"type":"Feature","geometry":{"type":"Polygon","coordinates":[[[138.879218,38.039303],[139.007886,37.788888],[139.007665,37.788628],[139.007536,37.788525],[138.988449,37.799458],[138.974738,37.816143],[138.165465,39.133487],[138.218429,39.083161],[138.879218,38.039303]]]},"properties":{}}},
    {"code":1140827,"id":"0edf46","name":"寺尾","original_name":"寺尾","name_kana":"てらお","closed":false,"lat":37.879106,"lng":138.973742,"prefecture":15,"lines":[11408],"attr":"heat","postal_code":"950-2055","address":"新潟市西区寺尾上","voronoi":{"type":"Feature","geometry":{"type":"Polygon","coordinates":[[[139.027086,37.80952],[138.944103,37.948948],[138.879218,38.039303],[139.007886,37.788888],[139.025801,37.805656],[139.027086,37.80952]]]},"properties":{}}},
    {"code":1140828,"id":"0daab9","name":"小針","original_name":"小針","name_kana":"こばり","closed":false,"lat":37.889591,"lng":138.991359,"prefecture":15,"lines":[11408],"attr":"heat","postal_code":"950-2026","address":"新潟市西区小針南台","voronoi":{"type":"Feature","geometry":{"type":"Polygon","coordinates":[[[138.944103,37.948948],[139.027086,37.80952],[139.042121,37.841607],[139.032193,37.855949],[138.944103,37.948948]]]},"properties":{}}},
    {"code":1140829,"id":"cd253f","name":"青山(新潟)","original_name":"青山","name_kana":"あおやま","closed":false,"lat":37.898546,"lng":139.000813,"prefecture":15,"lines":[11408],"attr":"heat","postal_code":"950-2001","address":"新潟市西区浦山１丁目","voronoi":{"type":"Feature","geometry":{"type":"Polygon","coordinates":[[[138.944103,37.948948],[138.879218,38.039303],[138.218429,39.083161],[138.547378,38.78248],[139.032193,37.855949],[138.944103,37.948948]]]},"properties":{}}},
    {"code":1140830,"id":"4776c5","name":"関屋(新潟)","original_name":"関屋","name_kana":"せきや","closed":false,"lat":37.906015,"lng":139.015087,"prefecture":15,"lines":[11408],"attr":"heat","postal_code":"951-8142","address":"新潟市中央区関屋大川前２丁目","voronoi":{"type":"Feature","geometry":{"type":"Polygon","coordinates":[[[139.032193,37.855949],[138.547378,38.78248],[138.753359,38.597243],[139.046388,37.847888],[139.04646,37.84736],[139.042121,37.841607],[139.032193,37.855949]]]},"properties":{}}},
    {"code":1140831,"id":"513125","name":"白山(新潟)","original_name":"白山","name_kana":"はくさん","closed":false,"lat":37.911829,"lng":139.029955,"prefecture":15,"lines":[11408],"attr":"heat","postal_code":"951-8131","address":"新潟市中央区白山浦２丁目","voronoi":{"type":"Feature","geometry":{"type":"Polygon","coordinates":[[[139.046388,37.847888],[138.753359,38.597243],[138.770432,38.58222],[138.941965,38.423441],[139.039172,38.322489],[139.046388,37.847888]]]},"properties":{}}},
    {"code":100512,"id":"503058","name":"新潟","original_name":"新潟","name_kana":"にいがた","closed":false,"lat":37.912299,"lng":139.060869,"prefecture":15,"lines":[1005,11404,11406,11408],"attr":"eco","postal_code":"950-0086","address":"新潟市中央区花園１丁目","voronoi":{"type":"Feature","geometry":{"type":"Polygon","coordinates":[[[139.056375,37.857003],[139.0855,37.920339],[139.091157,37.997061],[139.082712,38.176526],[139.070663,38.292157],[139.039172,38.322489],[139.046388,37.847888],[139.04646,37.84736],[139.05169,37.850711],[139.056375,37.857003]]]},"properties":{}}}
  ]
}