{
  "code":11404,
  "id":"df8569",
  "name":"JR信越本線(直江津～新潟)",
  "name_kana":"じぇいあーるしんえつほんせん",
  "station_size":42,
  "company_code":2,
  "closed":false,
  "color":"#00B3E6",
  "station_list":[
    {"code":1140401,"id":"54830d","name":"直江津","original_name":"直江津","name_kana":"なおえつ","closed":false,"lat":37.170251,"lng":138.242265,"prefecture":15,"lines":[11404,11405,99423,99424],"attr":"eco","postal_code":"942-0003","address":"上越市東町１丁目","voronoi":{"type":"Feature","geometry":{"type":"Polygon","coordinates":[[[138.19364,37.291986],[138.207718,37.169355],[138.269899,37.148796],[138.19364,37.291986]]]},"properties":{}}},
    {"code":1140402,"id":"b30418","name":"黒井(新潟)","original_name":"黒井","name_kana":"くろい","closed":false,"lat":37.1837,"lng":138.267518,"prefecture":15,"lines":[11404],"attr":"cool","postal_code":"942-0091","address":"上越市頸城区西福島","voronoi":{"type":"Feature","geometry":{"type":"Polygon","coordinates":[[[138.19364,37.291986],[138.181587,37.344981],[138.320704,37.148478],[138.320865,37.124848],[138.279069,37.140413],[138.269899,37.148796],[138.19364,37.291986]]]},"properties":{}}},
    {"code":1140403,"id":"518398","name":"犀潟","original_name":"犀潟","name_kana":"さいがた","closed":false,"lat":37.210345,"lng":138.305154,"prefecture":15,"lines":[11404,99402],"attr":"cool","postal_code":"949-3116","address":"上越市大潟区犀潟","voronoi":{"type":"Feature","geometry":{"type":"Polygon","coordinates":[[[138.320704,37.148478],[138.322329,37.152755],[138.330693,37.19159],[138.181346,37.428453],[138.134305,37.497162],[138.161108,37.401055],[138.181587,37.344981],[138.320704,37.148478]]]},"properties":{}}},
    {"code":1140404,"id":"c79c5f","name":"土底浜","original_name":"土底浜","name_kana":"どそこはま","closed":false,"lat":37.222719,"lng":138.324779,"prefecture":15,"lines":[11404],"attr":"cool","postal_code":"949-3112","address":"上越市大潟区土底浜","voronoi":{"type":"Feature","geometry":{"type":"Polygon","coordinates":[[[138.181346,37.428453],[138.330693,37.19159],[138.34449,37.212332],[138.181346,37.428453]]]},"properties":{}}},
    {"code":1140405,"id":"29db3d","name":"潟町","original_name":"潟町","name_kana":"かたまち","closed":false,"lat":37.234135,"lng":138.339902,"prefecture":15,"lines":[11404],"attr":"cool","postal_code":"949-3103","address":"上越市大潟区潟町","voronoi":{"type":"Feature","geometry":{"type":"Polygon","coordinates":[[[138.365704,37.225182],[138.173943,37.455458],[138.134223,37.497396],[138.134305,37.497162],[138.181346,37.428453],[138.34449,37.212332],[138.365704,37.225182]]]},"properties":{}}},
    {"code":1140406,"id":"5363e6","name":"上下浜","original_name":"上下浜","name_kana":"じょうげはま","closed":false,"lat":37.252178,"lng":138.361569,"prefecture":15,"lines":[11404],"attr":"cool","postal_code":"949-3255","address":"上越市柿崎区上下浜","voronoi":{"type":"Feature","geometry":{"type":"Polygon","coordinates":[[[138.173943,37.455458],[138.365704,37.225182],[138.407418,37.225275],[138.414138,37.226449],[138.173943,37.455458]]]},"properties":{}}},
    {"code":1140407,"id":"f9f711","name":"柿崎","original_name":"柿崎","name_kana":"かきざき","closed":false,"lat":37.277732,"lng":138.385933,"prefecture":15,"lines":[11404],"attr":"cool","postal_code":"949-3216","address":"上越市柿崎区柿崎","voronoi":{"type":"Feature","geometry":{"type":"Polygon","coordinates":[[[138.425456,37.224929],[138.444589,37.230278],[138.460244,37.237348],[138.018267,37.750149],[138.134223,37.497396],[138.173943,37.455458],[138.414138,37.226449],[138.425456,37.224929]]]},"properties":{}}},
    {"code":1140408,"id":"b7c6e7","name":"米山","original_name":"米山","name_kana":"よねやま","closed":false,"lat":37.316804,"lng":138.431266,"prefecture":15,"lines":[11404],"attr":"cool","postal_code":"949-3675","address":"柏崎市米山町","voronoi":{"type":"Feature","geometry":{"type":"Polygon","coordinates":[[[138.485682,37.238942],[138.493483,37.242538],[138.00878,38.160256],[137.638288,38.548324],[138.011842,37.762485],[138.018267,37.750149],[138.460244,37.237348],[138.485682,37.238942]]]},"properties":{}}},
    {"code":1140409,"id":"5a47af","name":"笠島","original_name":"笠島","name_kana":"かさしま","closed":false,"lat":37.335794,"lng":138.467221,"prefecture":15,"lines":[11404],"attr":"cool","postal_code":"949-3662","address":"柏崎市大字笠島","voronoi":{"type":"Feature","geometry":{"type":"Polygon","coordinates":[[[138.526422,37.249923],[138.493483,37.242538],[138.00878,38.160256],[138.013597,38.155424],[138.065897,38.093099],[138.526422,37.249923]]]},"properties":{}}},
    {"code":1140410,"id":"ba0b1d","name":"青海川","original_name":"青海川","name_kana":"おうみがわ","closed":false,"lat":37.346143,"lng":138.486169,"prefecture":15,"lines":[11404],"attr":"cool","postal_code":"949-3661","address":"柏崎市大字青海川","voronoi":{"type":"Feature","geometry":{"type":"Polygon","coordinates":[[[138.526422,37.249923],[138.065897,38.093099],[138.185211,37.954498],[138.236679,37.890722],[138.428661,37.585532],[138.532955,37.250691],[138.526422,37.249923]]]},"properties":{}}},
    {"code":1140411,"id":"4f18a5","name":"鯨波","original_name":"鯨波","name_kana":"くじらなみ","closed":false,"lat":37.355828,"lng":138.517263,"prefecture":15,"lines":[11404],"attr":"cool","postal_code":"945-0855","address":"柏崎市鯨波１丁目","voronoi":{"type":"Feature","geometry":{"type":"Polygon","coordinates":[[[138.529301,37.39776],[138.493203,37.494892],[138.488385,37.503222],[138.428661,37.585532],[138.532955,37.250691],[138.549427,37.250082],[138.55334,37.275356],[138.529301,37.39776]]]},"properties":{}}},
    {"code":1140412,"id":"f19f08","name":"柏崎","original_name":"柏崎","name_kana":"かしわざき","closed":false,"lat":37.363495,"lng":138.556303,"prefecture":15,"lines":[11404,11408],"attr":"cool","postal_code":"945-0055","address":"柏崎市駅前１丁目","voronoi":{"type":"Feature","geometry":{"type":"Polygon","coordinates":[[[138.571305,37.359291],[138.529301,37.39776],[138.55334,37.275356],[138.553341,37.275361],[138.571305,37.359291]]]},"properties":{}}},
    {"code":1140413,"id":"1f199f","name":"茨目","original_name":"茨目","name_kana":"いばらめ","closed":false,"lat":37.356986,"lng":138.586714,"prefecture":15,"lines":[11404],"attr":"cool","postal_code":"945-1341","address":"柏崎市茨目２丁目","voronoi":{"type":"Feature","geometry":{"type":"Polygon","coordinates":[[[138.553341,37.275361],[138.571305,37.359291],[138.584466,37.375594],[138.612973,37.370823],[138.553341,37.275361]]]},"properties":{}}},
    {"code":1140414,"id":"27325e","name":"安田(新潟)","original_name":"安田","name_kana":"やすだ","closed":false,"lat":37.341155,"lng":138.612057,"prefecture":15,"lines":[11404],"attr":"cool","postal_code":"945-1352","address":"柏崎市大字安田","voronoi":{"type":"Feature","geometry":{"type":"Polygon","coordinates":[[[138.627266,37.376229],[138.612973,37.370823],[138.553341,37.275361],[138.55334,37.275356],[138.549427,37.250082],[138.575431,37.236354],[138.612534,37.236678],[138.628493,37.374023],[138.627741,37.376306],[138.627266,37.376229]]]},"properties":{}}},
    {"code":1140415,"id":"16bb78","name":"北条","original_name":"北条","name_kana":"きたじょう","closed":false,"lat":37.338262,"lng":138.636954,"prefecture":15,"lines":[11404],"attr":"cool","postal_code":"949-3733","address":"柏崎市大字本条","voronoi":{"type":"Feature","geometry":{"type":"Polygon","coordinates":[[[138.612534,37.236678],[138.671123,37.230118],[138.696917,37.256483],[138.699107,37.260079],[138.693419,37.291423],[138.628493,37.374023],[138.612534,37.236678]]]},"properties":{}}},
    {"code":1140416,"id":"2b1186","name":"越後広田","original_name":"越後広田","name_kana":"えちごひろた","closed":false,"lat":37.357354,"lng":138.661243,"prefecture":15,"lines":[11404],"attr":"cool","postal_code":"949-3725","address":"柏崎市大字旧広田","voronoi":{"type":"Feature","geometry":{"type":"Polygon","coordinates":[[[138.656393,37.402875],[138.693965,37.308145],[138.693419,37.291423],[138.628493,37.374023],[138.627741,37.376306],[138.642581,37.394953],[138.656393,37.402875]]]},"properties":{}}},
    {"code":1140417,"id":"d70781","name":"長鳥","original_name":"長鳥","name_kana":"ながとり","closed":false,"lat":37.366405,"lng":138.684063,"prefecture":15,"lines":[11404],"attr":"cool","postal_code":"949-3723","address":"柏崎市大字西長鳥","voronoi":{"type":"Feature","geometry":{"type":"Polygon","coordinates":[[[138.656393,37.402875],[138.693965,37.308145],[138.715249,37.394414],[138.708151,37.420226],[138.673017,37.412602],[138.658701,37.405215],[138.656393,37.402875]]]},"properties":{}}},
    {"code":1140418,"id":"ffda56","name":"塚山","original_name":"塚山","name_kana":"つかやま","closed":false,"lat":37.355114,"lng":138.729829,"prefecture":15,"lines":[11404],"attr":"cool","postal_code":"949-5121","address":"長岡市西谷","voronoi":{"type":"Feature","geometry":{"type":"Polygon","coordinates":[[[138.776741,37.342061],[138.747762,37.288698],[138.699107,37.260079],[138.693419,37.291423],[138.693965,37.308145],[138.715249,37.394414],[138.776741,37.342061]]]},"properties":{}}},
    {"code":1140419,"id":"a0b51e","name":"越後岩塚","original_name":"越後岩塚","name_kana":"えちごいわつか","closed":false,"lat":37.38629,"lng":138.756372,"prefecture":15,"lines":[11404],"attr":"cool","postal_code":"949-5414","address":"長岡市飯塚","voronoi":{"type":"Feature","geometry":{"type":"Polygon","coordinates":[[[138.745959,37.451764],[138.786795,37.349538],[138.776741,37.342061],[138.715249,37.394414],[138.708151,37.420226],[138.717198,37.431696],[138.745959,37.451764]]]},"properties":{}}},
    {"code":1140420,"id":"3475cf","name":"来迎寺","original_name":"来迎寺","name_kana":"らいこうじ","closed":false,"lat":37.397136,"lng":138.783523,"prefecture":15,"lines":[11404],"attr":"cool","postal_code":"949-5411","address":"長岡市来迎寺","voronoi":{"type":"Feature","geometry":{"type":"Polygon","coordinates":[[[138.799214,37.43826],[138.786191,37.467683],[138.778292,37.478662],[138.773542,37.476291],[138.76006,37.467231],[138.745959,37.451764],[138.786795,37.349538],[138.791694,37.351205],[138.80623,37.377506],[138.799214,37.43826]]]},"properties":{}}},
    {"code":1140421,"id":"a14eb6","name":"前川","original_name":"前川","name_kana":"まえかわ","closed":false,"lat":37.401795,"lng":138.823865,"prefecture":15,"lines":[11404],"attr":"cool","postal_code":"940-1144","address":"長岡市上前島町","voronoi":{"type":"Feature","geometry":{"type":"Polygon","coordinates":[[[138.799214,37.43826],[138.854836,37.393772],[138.80623,37.377506],[138.799214,37.43826]]]},"properties":{}}},
    {"code":1134235,"id":"138712","name":"宮内(新潟)","original_name":"宮内","name_kana":"みやうち","closed":false,"lat":37.422223,"lng":138.840204,"prefecture":15,"lines":[11342,11404],"attr":"eco","postal_code":"940-1106","address":"長岡市宮内３丁目","voronoi":{"type":"Feature","geometry":{"type":"Polygon","coordinates":[[[138.854836,37.393772],[138.937013,37.385674],[138.937472,37.386474],[138.786191,37.467683],[138.799214,37.43826],[138.854836,37.393772]]]},"properties":{}}},
    {"code":100510,"id":"7bcf10","name":"長岡","original_name":"長岡","name_kana":"ながおか","closed":false,"lat":37.447787,"lng":138.853927,"prefecture":15,"lines":[1005,11342,11404],"attr":"heat","postal_code":"940-0061","address":"長岡市城内町２丁目","voronoi":{"type":"Feature","geometry":{"type":"Polygon","coordinates":[[[138.784236,37.488393],[138.778292,37.478662],[138.786191,37.467683],[138.937472,37.386474],[138.96082,37.416492],[138.784236,37.488393]]]},"properties":{}}},
    {"code":1140424,"id":"e8a07a","name":"北長岡","original_name":"北長岡","name_kana":"きたながおか","closed":false,"lat":37.468768,"lng":138.86247,"prefecture":15,"lines":[11404],"attr":"heat","postal_code":"940-0021","address":"長岡市城岡２丁目","voronoi":{"type":"Feature","geometry":{"type":"Polygon","coordinates":[[[138.812036,37.517508],[138.973651,37.434148],[138.965142,37.421013],[138.96082,37.416492],[138.784236,37.488393],[138.787768,37.496575],[138.812036,37.517508]]]},"properties":{}}},
    {"code":1140425,"id":"705209","name":"押切","original_name":"押切","name_kana":"おしきり","closed":false,"lat":37.50467,"lng":138.880988,"prefecture":15,"lines":[11404],"attr":"heat","postal_code":"954-0143","address":"長岡市池之島","voronoi":{"type":"Feature","geometry":{"type":"Polygon","coordinates":[[[138.832003,37.548871],[138.812036,37.517508],[138.973651,37.434148],[138.985034,37.446388],[138.992288,37.455589],[138.841089,37.557191],[138.832003,37.548871]]]},"properties":{}}},
    {"code":1140426,"id":"5519f9","name":"見附","original_name":"見附","name_kana":"みつけ","closed":false,"lat":37.540094,"lng":138.904792,"prefecture":15,"lines":[11404],"attr":"heat","postal_code":"954-0051","address":"見附市本所２丁目","voronoi":{"type":"Feature","geometry":{"type":"Polygon","coordinates":[[[138.992288,37.455589],[138.841089,37.557191],[138.844129,37.562757],[138.847406,37.566443],[138.874785,37.586685],[139.021142,37.481247],[138.992288,37.455589]]]},"properties":{}}},
    {"code":1140427,"id":"3daca5","name":"帯織","original_name":"帯織","name_kana":"おびおり","closed":false,"lat":37.572975,"lng":138.92848,"prefecture":15,"lines":[11404],"attr":"heat","postal_code":"959-1117","address":"三条市帯織","voronoi":{"type":"Feature","geometry":{"type":"Polygon","coordinates":[[[139.021142,37.481247],[138.874785,37.586685],[138.884617,37.602372],[138.897079,37.610832],[139.05077,37.500271],[139.021142,37.481247]]]},"properties":{}}},
    {"code":1140428,"id":"e98d06","name":"東光寺","original_name":"東光寺","name_kana":"とうこうじ","closed":false,"lat":37.593098,"lng":138.942956,"prefecture":15,"lines":[11404],"attr":"heat","postal_code":"955-0814","address":"三条市大字金子新田","voronoi":{"type":"Feature","geometry":{"type":"Polygon","coordinates":[[[138.897079,37.610832],[139.05077,37.500271],[139.052866,37.501372],[139.012806,37.563469],[138.991895,37.581635],[138.934921,37.617698],[138.927706,37.620075],[138.903796,37.618495],[138.897079,37.610832]]]},"properties":{}}},
    {"code":1140429,"id":"12a2e3","name":"三条(新潟)","original_name":"三条","name_kana":"さんじょう","closed":false,"lat":37.620962,"lng":138.960593,"prefecture":15,"lines":[11404],"attr":"heat","postal_code":"955-0862","address":"三条市南新保","voronoi":{"type":"Feature","geometry":{"type":"Polygon","coordinates":[[[138.934921,37.617698],[138.964539,37.62927],[138.991895,37.581635],[138.934921,37.617698]]]},"properties":{}}},
    {"code":1140430,"id":"cc4133","name":"東三条","original_name":"東三条","name_kana":"ひがしさんじょう","closed":false,"lat":37.628491,"lng":138.973703,"prefecture":15,"lines":[11404,11410],"attr":"heat","postal_code":"955-0047","address":"三条市東三条１丁目","voronoi":{"type":"Feature","geometry":{"type":"Polygon","coordinates":[[[138.981627,37.681223],[138.973712,37.667822],[138.964539,37.62927],[138.991895,37.581635],[139.012806,37.563469],[138.981627,37.681223]]]},"properties":{}}},
    {"code":1140431,"id":"9e132f","name":"保内","original_name":"保内","name_kana":"ほない","closed":false,"lat":37.639322,"lng":139.014608,"prefecture":15,"lines":[11404],"attr":"heat","postal_code":"955-0022","address":"三条市大字上保内","voronoi":{"type":"Feature","geometry":{"type":"Polygon","coordinates":[[[139.052866,37.501372],[139.012806,37.563469],[138.981627,37.681223],[138.982253,37.686184],[138.98927,37.707564],[139.007275,37.692274],[139.109655,37.511774],[139.052866,37.501372]]]},"properties":{}}},
    {"code":1140432,"id":"2e4254","name":"加茂(新潟)","original_name":"加茂","name_kana":"かも","closed":false,"lat":37.658806,"lng":139.048959,"prefecture":15,"lines":[11404],"attr":"heat","postal_code":"959-1300","address":"加茂市加茂駅前","voronoi":{"type":"Feature","geometry":{"type":"Polygon","coordinates":[[[139.143427,37.646289],[139.007275,37.692274],[139.109655,37.511774],[139.144251,37.513738],[139.196279,37.525619],[139.202069,37.53156],[139.183731,37.576511],[139.143427,37.646289]]]},"properties":{}}},
    {"code":1140433,"id":"915794","name":"羽生田","original_name":"羽生田","name_kana":"はにゅうだ","closed":false,"lat":37.693613,"lng":139.060715,"prefecture":15,"lines":[11404],"attr":"heat","postal_code":"959-1512","address":"南蒲原郡田上町羽生田字根廻","voronoi":{"type":"Feature","geometry":{"type":"Polygon","coordinates":[[[139.135572,37.669233],[138.989523,37.748996],[138.983036,37.739284],[138.98927,37.707564],[139.007275,37.692274],[139.143427,37.646289],[139.135572,37.669233]]]},"properties":{}}},
    {"code":1140434,"id":"b39bf8","name":"田上","original_name":"田上","name_kana":"たがみ","closed":false,"lat":37.719035,"lng":139.074599,"prefecture":15,"lines":[11404],"attr":"heat","postal_code":"959-1502","address":"南蒲原郡田上町田上","voronoi":{"type":"Feature","geometry":{"type":"Polygon","coordinates":[[[138.989523,37.748996],[139.007536,37.788525],[139.007665,37.788628],[139.130841,37.70168],[139.135572,37.669233],[138.989523,37.748996]]]},"properties":{}}},
    {"code":1140435,"id":"a8734c","name":"矢代田","original_name":"矢代田","name_kana":"やしろだ","closed":false,"lat":37.748863,"lng":139.095654,"prefecture":15,"lines":[11404],"attr":"eco","postal_code":"956-0113","address":"新潟市秋葉区矢代田","voronoi":{"type":"Feature","geometry":{"type":"Polygon","coordinates":[[[139.007886,37.788888],[139.007665,37.788628],[139.130841,37.70168],[139.131523,37.705641],[139.132467,37.739314],[139.058077,37.797355],[139.043455,37.802348],[139.025801,37.805656],[139.007886,37.788888]]]},"properties":{}}},
    {"code":1140436,"id":"595276","name":"古津","original_name":"古津","name_kana":"ふるつ","closed":false,"lat":37.7727,"lng":139.114252,"prefecture":15,"lines":[11404],"attr":"eco","postal_code":"956-0835","address":"新潟市秋葉区朝日","voronoi":{"type":"Feature","geometry":{"type":"Polygon","coordinates":[[[139.136171,37.747248],[139.132467,37.739314],[139.058077,37.797355],[139.084352,37.795245],[139.126987,37.784167],[139.137678,37.763042],[139.136171,37.747248]]]},"properties":{}}},
    {"code":1121401,"id":"6a2a43","name":"新津","original_name":"新津","name_kana":"にいつ","closed":false,"lat":37.800383,"lng":139.121445,"prefecture":15,"lines":[11214,11226,11404],"attr":"cool","postal_code":"956-0864","address":"新潟市秋葉区新津本町１丁目","voronoi":{"type":"Feature","geometry":{"type":"Polygon","coordinates":[[[139.084352,37.795245],[139.126987,37.784167],[139.14435,37.814579],[139.084352,37.795245]]]},"properties":{}}},
    {"code":1140438,"id":"dbe9b4","name":"さつき野","original_name":"さつき野","name_kana":"さつきの","closed":false,"lat":37.812731,"lng":139.117466,"prefecture":15,"lines":[11404],"attr":"eco","postal_code":"956-0861","address":"新潟市秋葉区北上","voronoi":{"type":"Feature","geometry":{"type":"Polygon","coordinates":[[[139.146516,37.832346],[139.043455,37.802348],[139.058077,37.797355],[139.084352,37.795245],[139.14435,37.814579],[139.147663,37.818052],[139.146516,37.832346]]]},"properties":{}}},
    {"code":1140439,"id":"25f2b4","name":"荻川","original_name":"荻川","name_kana":"おぎかわ","closed":false,"lat":37.833307,"lng":139.111477,"prefecture":15,"lines":[11404],"attr":"eco","postal_code":"956-0805","address":"新潟市秋葉区中野３丁目","voronoi":{"type":"Feature","geometry":{"type":"Polygon","coordinates":[[[139.043455,37.802348],[139.025801,37.805656],[139.027086,37.80952],[139.03882,37.834564],[139.057264,37.851145],[139.152671,37.858569],[139.146516,37.832346],[139.043455,37.802348]]]},"properties":{}}},
    {"code":1140440,"id":"4d7e85","name":"亀田","original_name":"亀田","name_kana":"かめだ","closed":false,"lat":37.877154,"lng":139.108065,"prefecture":15,"lines":[11404],"attr":"eco","postal_code":"950-0163","address":"新潟市江南区東船場１丁目","voronoi":{"type":"Feature","geometry":{"type":"Polygon","coordinates":[[[139.111087,37.89291],[139.125372,37.89263],[139.153934,37.876842],[139.16125,37.868692],[139.152671,37.858569],[139.057264,37.851145],[139.061702,37.860498],[139.111087,37.89291]]]},"properties":{}}},
    {"code":1140441,"id":"464079","name":"越後石山","original_name":"越後石山","name_kana":"えちごいしやま","closed":false,"lat":37.896407,"lng":139.095429,"prefecture":15,"lines":[11404],"attr":"eco","postal_code":"950-0852","address":"新潟市東区石山","voronoi":{"type":"Feature","geometry":{"type":"Polygon","coordinates":[[[139.111087,37.89291],[139.061702,37.860498],[139.064831,37.87539],[139.0855,37.920339],[139.111087,37.89291]]]},"properties":{}}},
    {"code":100512,"id":"503058","name":"新潟","original_name":"新潟","name_kana":"にいがた","closed":false,"lat":37.912299,"lng":139.060869,"prefecture":15,"lines":[1005,11404,11406,11408],"attr":"eco","postal_code":"950-0086","address":"新潟市中央区花園１丁目","voronoi":{"type":"Feature","geometry":{"type":"Polygon","coordinates":[[[139.064831,37.87539],[139.045096,37.932848],[139.039172,38.322489],[139.070663,38.292157],[139.082712,38.176526],[139.091157,37.997061],[139.0855,37.920339],[139.064831,37.87539]]]},"properties":{}}}
  ]
}