{
  "code":11415,
  "id":"0a8372",
  "name":"JR北陸本線(米原～金沢)",
  "name_kana":"じぇいあーるほくりくほんせん",
  "station_size":43,
  "company_code":4,
  "closed":false,
  "station_list":[
    {"code":100215,"id":"85e377","name":"米原","original_name":"米原","name_kana":"まいばら","closed":false,"lat":35.314657,"lng":136.289992,"prefecture":25,"numbering":["A12"],"lines":[1002,11415,11503,11601,99601],"attr":"cool","postal_code":"521-0012","address":"米原市米原","voronoi":{"type":"Feature","geometry":{"type":"Polygon","coordinates":[[[136.242447,35.314922],[136.235158,35.319498],[136.315927,35.328098],[136.323358,35.296594],[136.242447,35.314922]]]},"properties":{}}},
    {"code":1141502,"id":"710631","name":"坂田","original_name":"坂田","name_kana":"さかた","closed":false,"lat":35.335777,"lng":136.287743,"prefecture":25,"numbering":["A11"],"lines":[11415],"attr":"cool","postal_code":"521-0062","address":"米原市宇賀野","voronoi":{"type":"Feature","geometry":{"type":"Polygon","coordinates":[[[136.315927,35.328098],[136.319897,35.356186],[136.219636,35.327226],[136.2177,35.326199],[136.235158,35.319498],[136.315927,35.328098]]]},"properties":{}}},
    {"code":1141503,"id":"059e7b","name":"田村","original_name":"田村","name_kana":"たむら","closed":false,"lat":35.356307,"lng":136.281813,"prefecture":25,"numbering":["A10"],"lines":[11415],"attr":"cool","postal_code":"526-0829","address":"長浜市田村町","voronoi":{"type":"Feature","geometry":{"type":"Polygon","coordinates":[[[136.219636,35.327226],[136.319897,35.356186],[136.327312,35.372578],[136.326182,35.407236],[136.219636,35.327226]]]},"properties":{}}},
    {"code":1141504,"id":"767ed7","name":"長浜","original_name":"長浜","name_kana":"ながはま","closed":false,"lat":35.378828,"lng":136.264901,"prefecture":25,"numbering":["A09"],"lines":[11415],"attr":"cool","postal_code":"526-0057","address":"長浜市北船町","voronoi":{"type":"Feature","geometry":{"type":"Polygon","coordinates":[[[136.327131,35.412534],[136.148763,35.383206],[136.154376,35.327122],[136.2177,35.326199],[136.219636,35.327226],[136.326182,35.407236],[136.327131,35.412534]]]},"properties":{}}},
    {"code":1141505,"id":"cdb391","name":"虎姫","original_name":"虎姫","name_kana":"とらひめ","closed":false,"lat":35.424539,"lng":136.257385,"prefecture":25,"numbering":["A08"],"lines":[11415],"attr":"cool","postal_code":"529-0144","address":"滋賀県長浜市大寺町細田1043","voronoi":{"type":"Feature","geometry":{"type":"Polygon","coordinates":[[[136.327131,35.412534],[136.148763,35.383206],[136.148007,35.385647],[136.158834,35.405323],[136.360268,35.471658],[136.327131,35.412534]]]},"properties":{}}},
    {"code":1141506,"id":"59d022","name":"河毛","original_name":"河毛","name_kana":"かわけ","closed":false,"lat":35.448425,"lng":136.249519,"prefecture":25,"numbering":["A07"],"lines":[11415],"attr":"eco","postal_code":"529-0317","address":"滋賀県長浜市湖北町山脇560","voronoi":{"type":"Feature","geometry":{"type":"Polygon","coordinates":[[[136.405885,35.53526],[136.360268,35.471658],[136.158834,35.405323],[136.163064,35.415991],[136.405131,35.546381],[136.405885,35.53526]]]},"properties":{}}},
    {"code":1141507,"id":"2466b5","name":"高月","original_name":"高月","name_kana":"たかつき","closed":false,"lat":35.470337,"lng":136.237716,"prefecture":25,"numbering":["A06"],"lines":[11415],"attr":"eco","postal_code":"529-0241","address":"滋賀県長浜市高月町落川33-26","voronoi":{"type":"Feature","geometry":{"type":"Polygon","coordinates":[[[136.405131,35.546381],[136.163064,35.415991],[136.17479,35.463433],[136.405133,35.567034],[136.405131,35.546381]]]},"properties":{}}},
    {"code":1141508,"id":"0132bd","name":"木ノ本","original_name":"木ノ本","name_kana":"きのもと","closed":false,"lat":35.505933,"lng":136.221706,"prefecture":25,"numbering":["A05"],"lines":[11415],"attr":"eco","postal_code":"529-0425","address":"滋賀県長浜市木之本町木之本1543","voronoi":{"type":"Feature","geometry":{"type":"Polygon","coordinates":[[[136.17479,35.463433],[136.173026,35.488208],[136.362697,35.652224],[136.391203,35.654618],[136.408628,35.601458],[136.405133,35.567034],[136.17479,35.463433]]]},"properties":{}}},
    {"code":1141509,"id":"28d2d7","name":"余呉","original_name":"余呉","name_kana":"よご","closed":false,"lat":35.53382,"lng":136.197591,"prefecture":25,"numbering":["A04"],"lines":[11415],"attr":"heat","postal_code":"529-0521","address":"滋賀県長浜市余呉町下余呉1727","voronoi":{"type":"Feature","geometry":{"type":"Polygon","coordinates":[[[136.362697,35.652224],[136.173026,35.488208],[136.169219,35.496402],[136.185419,35.622399],[136.200203,35.646143],[136.312086,35.652581],[136.362697,35.652224]]]},"properties":{}}},
    {"code":1141510,"id":"d87339","name":"近江塩津","original_name":"近江塩津","name_kana":"おうみしおつ","closed":false,"lat":35.53978,"lng":136.151236,"prefecture":25,"numbering":["A03","B10"],"lines":[11415,11605],"attr":"heat","postal_code":"529-0706","address":"滋賀県長浜市西浅井町余245","voronoi":{"type":"Feature","geometry":{"type":"Polygon","coordinates":[[[136.101461,35.54427],[136.169219,35.496402],[136.185419,35.622399],[136.101461,35.54427]]]},"properties":{}}},
    {"code":1141511,"id":"41f63b","name":"新疋田","original_name":"新疋田","name_kana":"しんひきだ","closed":false,"lat":35.594239,"lng":136.100558,"prefecture":18,"numbering":["A02","B09"],"lines":[11415],"attr":"heat","postal_code":"914-0302","address":"敦賀市疋田","voronoi":{"type":"Feature","geometry":{"type":"Polygon","coordinates":[[[136.04304,35.539239],[136.048613,35.557012],[136.096695,35.623396],[136.173431,35.659951],[136.200203,35.646143],[136.185419,35.622399],[136.101461,35.54427],[136.058549,35.534477],[136.04304,35.539239]]]},"properties":{}}},
    {"code":100919,"id":"0c82ef","name":"敦賀","original_name":"敦賀","name_kana":"つるが","closed":false,"lat":35.644767,"lng":136.076488,"prefecture":18,"numbering":["A01","B08"],"lines":[1009,11415,11422,99455],"attr":"heat","postal_code":"914-0055","address":"敦賀市鉄輪町１丁目","voronoi":{"type":"Feature","geometry":{"type":"Polygon","coordinates":[[[136.03389,35.790574],[135.977366,35.788168],[135.997816,35.727692],[136.047106,35.6395],[136.096695,35.623396],[136.173431,35.659951],[136.040051,35.788096],[136.03389,35.790574]]]},"properties":{}}},
    {"code":1141513,"id":"749058","name":"南今庄","original_name":"南今庄","name_kana":"みなみいまじょう","closed":false,"lat":35.757424,"lng":136.184723,"prefecture":18,"lines":[11415,99455],"attr":"heat","postal_code":"919-0132","address":"南条郡南越前町南今庄","voronoi":{"type":"Feature","geometry":{"type":"Polygon","coordinates":[[[136.172732,35.783254],[136.312086,35.652581],[136.200203,35.646143],[136.173431,35.659951],[136.040051,35.788096],[136.093743,35.797532],[136.172732,35.783254]]]},"properties":{}}},
    {"code":1141514,"id":"6b869e","name":"今庄","original_name":"今庄","name_kana":"いまじょう","closed":false,"lat":35.772947,"lng":136.199279,"prefecture":18,"lines":[11415,99455],"attr":"heat","postal_code":"919-0131","address":"南条郡南越前町今庄","voronoi":{"type":"Feature","geometry":{"type":"Polygon","coordinates":[[[136.371726,35.819952],[136.329865,35.815775],[136.172732,35.783254],[136.312086,35.652581],[136.362697,35.652224],[136.391203,35.654618],[136.427824,35.765296],[136.417398,35.780046],[136.402206,35.795972],[136.393955,35.803617],[136.371726,35.819952]]]},"properties":{}}},
    {"code":1141515,"id":"02698d","name":"湯尾","original_name":"湯尾","name_kana":"ゆのお","closed":false,"lat":35.803251,"lng":136.193007,"prefecture":18,"lines":[11415,99455],"attr":"heat","postal_code":"919-0101","address":"南条郡南越前町湯尾","voronoi":{"type":"Feature","geometry":{"type":"Polygon","coordinates":[[[136.172732,35.783254],[136.093743,35.797532],[136.141468,35.818296],[136.329865,35.815775],[136.172732,35.783254]]]},"properties":{}}},
    {"code":1141516,"id":"9d7997","name":"南条","original_name":"南条","name_kana":"なんじょう","closed":false,"lat":35.831956,"lng":136.193391,"prefecture":18,"lines":[11415,99455],"attr":"cool","postal_code":"919-0224","address":"南条郡南越前町西大道","voronoi":{"type":"Feature","geometry":{"type":"Polygon","coordinates":[[[136.197496,35.863696],[136.141468,35.818296],[136.329865,35.815775],[136.371726,35.819952],[136.341121,35.85149],[136.197496,35.863696]]]},"properties":{}}},
    {"code":1141517,"id":"74f1cd","name":"王子保","original_name":"王子保","name_kana":"おうしお","closed":false,"lat":35.866259,"lng":136.165595,"prefecture":18,"lines":[11415,99455],"attr":"cool","postal_code":"915-0857","address":"越前市四郎丸町","voronoi":{"type":"Feature","geometry":{"type":"Polygon","coordinates":[[[136.03389,35.790574],[136.081114,35.85614],[136.093862,35.869502],[136.12123,35.889176],[136.140459,35.888752],[136.180388,35.883012],[136.197496,35.863696],[136.141468,35.818296],[136.093743,35.797532],[136.040051,35.788096],[136.03389,35.790574]]]},"properties":{}}},
    {"code":1141518,"id":"4a2571","name":"武生","original_name":"武生","name_kana":"たけふ","closed":false,"lat":35.903254,"lng":136.170913,"prefecture":18,"lines":[11415,99455],"attr":"cool","postal_code":"915-0071","address":"越前市府中１丁目","voronoi":{"type":"Feature","geometry":{"type":"Polygon","coordinates":[[[136.163612,35.903434],[136.140459,35.888752],[136.180388,35.883012],[136.187232,35.908192],[136.163612,35.903434]]]},"properties":{}}},
    {"code":1141519,"id":"36de74","name":"鯖江","original_name":"鯖江","name_kana":"さばえ","closed":false,"lat":35.943355,"lng":136.188852,"prefecture":18,"lines":[11415,99455,99428],"attr":"cool","postal_code":"916-0053","address":"鯖江市日の出町","voronoi":{"type":"Feature","geometry":{"type":"Polygon","coordinates":[[[136.262662,35.933883],[136.200426,35.920891],[136.183754,35.941091],[136.185498,35.945137],[136.223048,35.947397],[136.262662,35.933883]]]},"properties":{}}},
    {"code":1141520,"id":"7dbede","name":"北鯖江","original_name":"北鯖江","name_kana":"きたさばえ","closed":false,"lat":35.971496,"lng":136.198452,"prefecture":18,"lines":[11415,99455],"attr":"cool","postal_code":"916-0038","address":"鯖江市下河端町","voronoi":{"type":"Feature","geometry":{"type":"Polygon","coordinates":[[[136.270887,35.938727],[136.256064,35.962575],[136.246955,35.97276],[136.219436,35.985492],[136.215672,35.985466],[136.196632,35.980452],[136.190275,35.973543],[136.189895,35.968441],[136.194887,35.960149],[136.19997,35.956784],[136.223048,35.947397],[136.262662,35.933883],[136.272932,35.933931],[136.270887,35.938727]]]},"properties":{}}},
    {"code":1141521,"id":"06f60b","name":"大土呂","original_name":"大土呂","name_kana":"おおどろ","closed":false,"lat":36.010546,"lng":136.216519,"prefecture":18,"lines":[11415,99455],"attr":"cool","postal_code":"919-0326","address":"福井市半田町","voronoi":{"type":"Feature","geometry":{"type":"Polygon","coordinates":[[[136.237451,36.007064],[136.246955,35.97276],[136.219436,35.985492],[136.212032,35.997404],[136.209402,36.007575],[136.212125,36.015865],[136.22032,36.02083],[136.225938,36.022134],[136.237451,36.007064]]]},"properties":{}}},
    {"code":1141522,"id":"5632c4","name":"越前花堂","original_name":"越前花堂","name_kana":"えちぜんはなんどう","closed":false,"lat":36.038771,"lng":136.218073,"prefecture":18,"lines":[11415,11421,99455],"attr":"cool","postal_code":"918-8014","address":"福井市花堂中１丁目１番","voronoi":{"type":"Feature","geometry":{"type":"Polygon","coordinates":[[[136.214768,36.037225],[136.226088,36.027897],[136.235165,36.046333],[136.219681,36.044068],[136.214768,36.037225]]]},"properties":{}}},
    {"code":100917,"id":"7960cf","name":"福井(福井)","original_name":"福井","name_kana":"ふくい","closed":false,"lat":36.062057,"lng":136.223516,"prefecture":18,"lines":[1009,11415,11421,99455,99419,99420],"attr":"cool","postal_code":"910-0006","address":"福井市中央１丁目","voronoi":{"type":"Feature","geometry":{"type":"Polygon","coordinates":[[[136.22228,36.06681],[136.221783,36.066436],[136.222549,36.054529],[136.223437,36.053634],[136.235933,36.047194],[136.237805,36.048082],[136.22228,36.06681]]]},"properties":{}}},
    {"code":1141524,"id":"6fa2cc","name":"森田","original_name":"森田","name_kana":"もりた","closed":false,"lat":36.109381,"lng":136.222516,"prefecture":18,"lines":[11415,99455],"attr":"heat","postal_code":"910-0151","address":"福井市栄町","voronoi":{"type":"Feature","geometry":{"type":"Polygon","coordinates":[[[136.252399,36.111008],[136.217799,36.121536],[136.210993,36.110795],[136.216996,36.097785],[136.222225,36.092457],[136.237584,36.095552],[136.250829,36.108709],[136.252362,36.11093],[136.252399,36.111008]]]},"properties":{}}},
    {"code":1141525,"id":"8053aa","name":"春江","original_name":"春江","name_kana":"はるえ","closed":false,"lat":36.129004,"lng":136.228487,"prefecture":18,"lines":[11415,99455],"attr":"heat","postal_code":"919-0449","address":"坂井市春江町中筋","voronoi":{"type":"Feature","geometry":{"type":"Polygon","coordinates":[[[136.259946,36.118382],[136.276499,36.139006],[136.223714,36.146886],[136.222691,36.145971],[136.217548,36.134456],[136.216589,36.124951],[136.217799,36.121536],[136.252399,36.111008],[136.259946,36.118382]]]},"properties":{}}},
    {"code":1141526,"id":"797679","name":"丸岡","original_name":"丸岡","name_kana":"まるおか","closed":false,"lat":36.162595,"lng":136.233502,"prefecture":18,"lines":[11415,99455],"attr":"eco","postal_code":"919-0522","address":"坂井市坂井町上新庄","voronoi":{"type":"Feature","geometry":{"type":"Polygon","coordinates":[[[136.217683,36.16504],[136.223714,36.146886],[136.276499,36.139006],[136.276864,36.139225],[136.285458,36.146066],[136.285885,36.14649],[136.31486,36.181151],[136.296262,36.186699],[136.229947,36.188699],[136.220613,36.177095],[136.217683,36.16504]]]},"properties":{}}},
    {"code":100916,"id":"b8c2ec","name":"芦原温泉","original_name":"芦原温泉","name_kana":"あわらおんせん","closed":false,"lat":36.214542,"lng":136.235069,"prefecture":18,"lines":[1009,11415,99455],"attr":"eco","postal_code":"919-0600","address":"あわら市春宮１丁目","voronoi":{"type":"Feature","geometry":{"type":"Polygon","coordinates":[[[136.220606,36.248733],[136.21738,36.233246],[136.218938,36.209903],[136.222862,36.196648],[136.229947,36.188699],[136.296262,36.186699],[136.220606,36.248733]]]},"properties":{}}},
    {"code":1141528,"id":"d30de0","name":"細呂木","original_name":"細呂木","name_kana":"ほそろぎ","closed":false,"lat":36.24125,"lng":136.256968,"prefecture":18,"lines":[11415,99455],"attr":"eco","postal_code":"919-0805","address":"あわら市滝","voronoi":{"type":"Feature","geometry":{"type":"Polygon","coordinates":[[[136.296262,36.186699],[136.220606,36.248733],[136.188977,36.359355],[136.319083,36.182742],[136.31486,36.181151],[136.296262,36.186699]]]},"properties":{}}},
    {"code":1141529,"id":"2d112a","name":"牛ノ谷","original_name":"牛ノ谷","name_kana":"うしのや","closed":false,"lat":36.259409,"lng":136.281618,"prefecture":18,"lines":[11415,99455],"attr":"eco","postal_code":"919-0721","address":"あわら市牛ノ谷","voronoi":{"type":"Feature","geometry":{"type":"Polygon","coordinates":[[[136.184498,36.370217],[136.188977,36.359355],[136.319083,36.182742],[136.329733,36.184679],[136.371337,36.196167],[136.39129,36.205356],[136.390956,36.205731],[136.184498,36.370217]]]},"properties":{}}},
    {"code":1141530,"id":"c91745","name":"大聖寺","original_name":"大聖寺","name_kana":"だいしょうじ","closed":false,"lat":36.300311,"lng":136.314205,"prefecture":17,"lines":[11415,99426,99455],"attr":"cool","postal_code":"922-0842","address":"加賀市熊坂町","voronoi":{"type":"Feature","geometry":{"type":"Polygon","coordinates":[[[136.005896,36.741614],[136.189048,36.565977],[136.390956,36.205731],[136.184498,36.370217],[136.156498,36.413954],[136.005896,36.741614]]]},"properties":{}}},
    {"code":100915,"id":"936e84","name":"加賀温泉","original_name":"加賀温泉","name_kana":"かがおんせん","closed":false,"lat":36.320562,"lng":136.350337,"prefecture":17,"lines":[1009,11415,99426],"attr":"cool","postal_code":"922-0423","address":"加賀市作見町","voronoi":{"type":"Feature","geometry":{"type":"Polygon","coordinates":[[[136.39129,36.205356],[136.395305,36.20554],[136.338866,36.440095],[136.335881,36.44383],[136.189048,36.565977],[136.390956,36.205731],[136.39129,36.205356]]]},"properties":{}}},
    {"code":1141532,"id":"6519f4","name":"動橋","original_name":"動橋","name_kana":"いぶりはし","closed":false,"lat":36.328428,"lng":136.383027,"prefecture":17,"lines":[11415],"attr":"cool","postal_code":"922-0331","address":"加賀市動橋町","voronoi":{"type":"Feature","geometry":{"type":"Polygon","coordinates":[[[136.399399,36.205168],[136.395305,36.20554],[136.338866,36.440095],[136.33998,36.439044],[136.484212,36.219878],[136.46264,36.212907],[136.424266,36.205164],[136.414384,36.204791],[136.399399,36.205168]]]},"properties":{}}},
    {"code":1141533,"id":"bc73b2","name":"粟津(石川)","original_name":"粟津","name_kana":"あわづ","closed":false,"lat":36.35575,"lng":136.424544,"prefecture":17,"lines":[11415,99426],"attr":"cool","postal_code":"923-0302","address":"小松市符津町","voronoi":{"type":"Feature","geometry":{"type":"Polygon","coordinates":[[[136.576673,36.295485],[136.33998,36.439044],[136.484212,36.219878],[136.533072,36.226978],[136.602936,36.241212],[136.576673,36.295485]]]},"properties":{}}},
    {"code":100914,"id":"173dd5","name":"小松","original_name":"小松","name_kana":"こまつ","closed":false,"lat":36.402545,"lng":136.452926,"prefecture":17,"lines":[1009,11415,99426],"attr":"cool","postal_code":"923-0921","address":"小松市土居原町","voronoi":{"type":"Feature","geometry":{"type":"Polygon","coordinates":[[[136.33998,36.439044],[136.338866,36.440095],[136.335881,36.44383],[136.415684,36.432877],[136.554867,36.370566],[136.576673,36.295485],[136.33998,36.439044]]]},"properties":{}}},
    {"code":1141535,"id":"697d23","name":"明峰","original_name":"明峰","name_kana":"めいほう","closed":false,"lat":36.425302,"lng":136.463114,"prefecture":17,"lines":[11415,99426],"attr":"cool","postal_code":"923-0014","address":"小松市松梨町甲","voronoi":{"type":"Feature","geometry":{"type":"Polygon","coordinates":[[[136.508724,36.441654],[136.537121,36.429448],[136.544874,36.423024],[136.548302,36.409822],[136.554867,36.370566],[136.415684,36.432877],[136.50028,36.443607],[136.508724,36.441654]]]},"properties":{}}},
    {"code":1141536,"id":"0d3017","name":"能美根上","original_name":"能美根上","name_kana":"のみねあがり","closed":false,"lat":36.452053,"lng":136.459721,"prefecture":17,"lines":[11415,99426],"attr":"heat","postal_code":"929-0113","address":"能美市大成町","voronoi":{"type":"Feature","geometry":{"type":"Polygon","coordinates":[[[136.415684,36.432877],[136.50028,36.443607],[135.991187,36.7619],[136.005896,36.741614],[136.189048,36.565977],[136.335881,36.44383],[136.415684,36.432877]]]},"properties":{}}},
    {"code":1141537,"id":"405ab2","name":"小舞子","original_name":"小舞子","name_kana":"こまいこ","closed":false,"lat":36.476371,"lng":136.474925,"prefecture":17,"lines":[11415,99426],"attr":"heat","postal_code":"929-0217","address":"白山市湊町","voronoi":{"type":"Feature","geometry":{"type":"Polygon","coordinates":[[[135.380544,37.560354],[135.689079,37.375851],[135.891263,37.227634],[136.167924,36.947016],[136.508724,36.441654],[136.50028,36.443607],[135.991187,36.7619],[135.380544,37.560354]]]},"properties":{}}},
    {"code":1141538,"id":"815c88","name":"美川","original_name":"美川","name_kana":"みかわ","closed":false,"lat":36.486001,"lng":136.489205,"prefecture":17,"lines":[11415,99426],"attr":"heat","postal_code":"929-0224","address":"白山市美川中町","voronoi":{"type":"Feature","geometry":{"type":"Polygon","coordinates":[[[136.407218,36.711625],[136.167924,36.947016],[136.508724,36.441654],[136.537121,36.429448],[136.436117,36.657467],[136.407218,36.711625]]]},"properties":{}}},
    {"code":1141539,"id":"082d64","name":"加賀笠間","original_name":"加賀笠間","name_kana":"かがかさま","closed":false,"lat":36.502935,"lng":136.527434,"prefecture":17,"lines":[11415,99426],"attr":"heat","postal_code":"924-0063","address":"白山市笠間町","voronoi":{"type":"Feature","geometry":{"type":"Polygon","coordinates":[[[136.436117,36.657467],[136.537121,36.429448],[136.544874,36.423024],[136.545475,36.424406],[136.564168,36.473042],[136.436117,36.657467]]]},"properties":{}}},
    {"code":1141540,"id":"ea5c89","name":"松任","original_name":"松任","name_kana":"まっとう","closed":false,"lat":36.526706,"lng":136.566205,"prefecture":17,"lines":[11415,99426],"attr":"eco","postal_code":"924-0022","address":"白山市相木町","voronoi":{"type":"Feature","geometry":{"type":"Polygon","coordinates":[[[136.578319,36.492613],[136.581005,36.496144],[136.584343,36.501055],[136.589151,36.509604],[136.590865,36.515545],[136.543735,36.615999],[136.493237,36.648174],[136.574796,36.48868],[136.578319,36.492613]]]},"properties":{}}},
    {"code":1141541,"id":"1da842","name":"野々市(JR)","original_name":"野々市","name_kana":"ののいち","closed":false,"lat":36.541644,"lng":136.598044,"prefecture":17,"lines":[11415,99426],"attr":"eco","postal_code":"921-8807","address":"石川県野々市市二日市町1-1","voronoi":{"type":"Feature","geometry":{"type":"Polygon","coordinates":[[[136.596199,36.51906],[136.590865,36.515545],[136.543735,36.615999],[136.583164,36.600472],[136.610046,36.546603],[136.610079,36.541745],[136.607757,36.531514],[136.606942,36.529438],[136.604595,36.526611],[136.596199,36.51906]]]},"properties":{}}},
    {"code":1141542,"id":"b5631d","name":"西金沢","original_name":"西金沢","name_kana":"にしかなざわ","closed":false,"lat":36.553212,"lng":136.621225,"prefecture":17,"lines":[11415,99426],"attr":"eco","postal_code":"921-8054","address":"金沢市西金沢１丁目","voronoi":{"type":"Feature","geometry":{"type":"Polygon","coordinates":[[[136.624311,36.576898],[136.621396,36.547487],[136.610046,36.546603],[136.583164,36.600472],[136.591809,36.599077],[136.601421,36.595725],[136.611239,36.589589],[136.61544,36.586494],[136.624311,36.576898]]]},"properties":{}}},
    {"code":100913,"id":"27b8ec","name":"金沢","original_name":"金沢","name_kana":"かなざわ","closed":false,"lat":36.578117,"lng":136.648166,"prefecture":17,"lines":[1009,11415,99426],"attr":"eco","postal_code":"920-0023","address":"金沢市北安江町","voronoi":{"type":"Feature","geometry":{"type":"Polygon","coordinates":[[[136.647241,36.582565],[136.644214,36.58474],[136.61544,36.586494],[136.624311,36.576898],[136.627391,36.573766],[136.638496,36.567175],[136.65408,36.564705],[136.647241,36.582565]]]},"properties":{}}}
  ]
}