{
  "code":11417,
  "id":"eb96b5",
  "name":"JR城端線",
  "name_kana":"じぇいあーるじょうはなせん",
  "station_size":14,
  "company_code":4,
  "closed":false,
  "station_list":[
    {"code":9942506,"id":"81a1f9","name":"高岡","original_name":"高岡","name_kana":"たかおか","closed":false,"lat":36.740948,"lng":137.015274,"prefecture":16,"lines":[11417,11418,99425],"attr":"eco","postal_code":"933-0021","address":"高岡市下関町","voronoi":{"type":"Feature","geometry":{"type":"Polygon","coordinates":[[[137.003038,36.736171],[137.032189,36.730196],[137.022645,36.743812],[137.021163,36.744339],[137.003038,36.736171]]]},"properties":{}}},
    {"code":100912,"id":"307ee0","name":"新高岡","original_name":"新高岡","name_kana":"しんたかおか","closed":false,"lat":36.726966,"lng":137.012408,"prefecture":16,"lines":[1009,11417],"attr":"eco","postal_code":"933-0852","address":"富山県高岡市下黒田1872番地","open_date":"2015-03-14","voronoi":{"type":"Feature","geometry":{"type":"Polygon","coordinates":[[[137.002451,36.736261],[136.997963,36.726267],[137.037931,36.70643],[137.034426,36.728681],[137.032189,36.730196],[137.003038,36.736171],[137.002451,36.736261]]]},"properties":{}}},
    {"code":1141702,"id":"ac36a5","name":"二塚","original_name":"二塚","name_kana":"ふたつか","closed":false,"lat":36.714339,"lng":137.006141,"prefecture":16,"lines":[11417],"attr":"eco","postal_code":"933-0816","address":"高岡市二塚","voronoi":{"type":"Feature","geometry":{"type":"Polygon","coordinates":[[[137.037931,36.70643],[137.04928,36.677437],[136.9885,36.719226],[136.997963,36.726267],[137.037931,36.70643]]]},"properties":{}}},
    {"code":1141703,"id":"feafd7","name":"林(富山)","original_name":"林","name_kana":"はやし","closed":false,"lat":36.704504,"lng":136.999379,"prefecture":16,"lines":[11417],"attr":"heat","postal_code":"933-0817","address":"高岡市東藤平蔵","voronoi":{"type":"Feature","geometry":{"type":"Polygon","coordinates":[[[136.98438,36.717918],[136.977175,36.705509],[137.053862,36.646682],[137.056737,36.652159],[137.053832,36.668659],[137.04928,36.677437],[136.9885,36.719226],[136.98438,36.717918]]]},"properties":{}}},
    {"code":1141704,"id":"c8eef9","name":"戸出","original_name":"戸出","name_kana":"といで","closed":false,"lat":36.684323,"lng":136.983898,"prefecture":16,"lines":[11417],"attr":"cool","postal_code":"939-1104","address":"高岡市戸出町２丁目","voronoi":{"type":"Feature","geometry":{"type":"Polygon","coordinates":[[[136.958164,36.696661],[136.951263,36.681708],[137.050243,36.635857],[137.053862,36.646682],[136.977175,36.705509],[136.958164,36.696661]]]},"properties":{}}},
    {"code":1141705,"id":"19ce4b","name":"油田","original_name":"油田","name_kana":"あぶらでん","closed":false,"lat":36.655124,"lng":136.970372,"prefecture":16,"lines":[11417],"attr":"cool","postal_code":"939-1308","address":"砺波市三郎丸","voronoi":{"type":"Feature","geometry":{"type":"Polygon","coordinates":[[[137.037355,36.57839],[136.934967,36.66996],[136.951263,36.681708],[137.050243,36.635857],[137.0458,36.600652],[137.037355,36.57839]]]},"properties":{}}},
    {"code":1141706,"id":"ed456a","name":"砺波","original_name":"砺波","name_kana":"となみ","closed":false,"lat":36.636424,"lng":136.953648,"prefecture":16,"lines":[11417],"attr":"cool","postal_code":"939-1366","address":"砺波市表町","voronoi":{"type":"Feature","geometry":{"type":"Polygon","coordinates":[[[136.934967,36.66996],[137.037355,36.57839],[137.037064,36.577194],[136.908125,36.650493],[136.91347,36.663503],[136.934967,36.66996]]]},"properties":{}}},
    {"code":1141707,"id":"986778","name":"東野尻","original_name":"東野尻","name_kana":"ひがしのじり","closed":false,"lat":36.618573,"lng":136.9435,"prefecture":16,"lines":[11417],"attr":"eco","postal_code":"939-1333","address":"砺波市苗加","voronoi":{"type":"Feature","geometry":{"type":"Polygon","coordinates":[[[136.908125,36.650493],[136.89948,36.638045],[137.033736,36.553338],[137.037064,36.577194],[136.908125,36.650493]]]},"properties":{}}},
    {"code":1141708,"id":"68b44c","name":"高儀","original_name":"高儀","name_kana":"たかぎ","closed":false,"lat":36.606697,"lng":136.936007,"prefecture":16,"lines":[11417],"attr":"eco","postal_code":"939-1504","address":"南砺市川除新","voronoi":{"type":"Feature","geometry":{"type":"Polygon","coordinates":[[[137.033736,36.553338],[136.89948,36.638045],[136.888691,36.626543],[137.031627,36.52545],[137.033736,36.553338]]]},"properties":{}}},
    {"code":1141709,"id":"056c5a","name":"福野(富山)","original_name":"福野","name_kana":"ふくの","closed":false,"lat":36.588541,"lng":136.923166,"prefecture":16,"lines":[11417],"attr":"eco","postal_code":"939-1571","address":"南砺市松原新","voronoi":{"type":"Feature","geometry":{"type":"Polygon","coordinates":[[[137.031742,36.516728],[136.926427,36.550751],[136.888592,36.626475],[136.888691,36.626543],[137.031627,36.52545],[137.031742,36.516728]]]},"properties":{}}},
    {"code":1141710,"id":"6a0e15","name":"東石黒","original_name":"東石黒","name_kana":"ひがしいしぐろ","closed":false,"lat":36.57605,"lng":136.898166,"prefecture":16,"lines":[11417],"attr":"eco","postal_code":"939-1543","address":"南砺市下吉江","voronoi":{"type":"Feature","geometry":{"type":"Polygon","coordinates":[[[136.847357,36.612662],[136.898314,36.55573],[136.917839,36.550194],[136.926427,36.550751],[136.888592,36.626475],[136.847357,36.612662]]]},"properties":{}}},
    {"code":1141711,"id":"150a6e","name":"福光","original_name":"福光","name_kana":"ふくみつ","closed":false,"lat":36.558121,"lng":136.878135,"prefecture":16,"lines":[11417],"attr":"eco","postal_code":"939-1732","address":"南砺市荒木","voronoi":{"type":"Feature","geometry":{"type":"Polygon","coordinates":[[[136.847357,36.612662],[136.828734,36.610663],[136.782628,36.575779],[136.780038,36.571953],[136.763377,36.513775],[136.76214,36.50652],[136.762434,36.49068],[136.898314,36.55573],[136.847357,36.612662]]]},"properties":{}}},
    {"code":1141712,"id":"e4b809","name":"越中山田","original_name":"越中山田","name_kana":"えっちゅうやまだ","closed":false,"lat":36.538513,"lng":136.887522,"prefecture":16,"lines":[11417],"attr":"eco","postal_code":"939-1734","address":"南砺市竹林","voronoi":{"type":"Feature","geometry":{"type":"Polygon","coordinates":[[[136.917839,36.550194],[136.7772,36.429584],[136.761592,36.477259],[136.762434,36.49068],[136.898314,36.55573],[136.917839,36.550194]]]},"properties":{}}},
    {"code":1141713,"id":"3ca18d","name":"城端","original_name":"城端","name_kana":"じょうはな","closed":false,"lat":36.522012,"lng":136.901673,"prefecture":16,"lines":[11417],"attr":"eco","postal_code":"939-1852","address":"南砺市是安","voronoi":{"type":"Feature","geometry":{"type":"Polygon","coordinates":[[[137.031742,36.516728],[137.046261,36.467195],[137.038838,36.446897],[137.038396,36.446002],[137.019043,36.422143],[136.825464,36.237552],[136.7772,36.429584],[136.917839,36.550194],[136.926427,36.550751],[137.031742,36.516728]]]},"properties":{}}}
  ]
}