{
  "code":11421,
  "id":"447d7f",
  "name":"JR越美北線(九頭竜線)",
  "name_kana":"じぇいあーるえつみほくせん(くずりゅうせん)",
  "name_formal":"JR越美北線",
  "station_size":23,
  "company_code":4,
  "closed":false,
  "station_list":[
    {"code":100917,"id":"7960cf","name":"福井(福井)","original_name":"福井","name_kana":"ふくい","closed":false,"lat":36.062057,"lng":136.223516,"prefecture":18,"lines":[1009,11421,99455,99419,99420],"attr":"cool","postal_code":"910-0006","address":"福井市中央１丁目","voronoi":{"type":"Feature","geometry":{"type":"Polygon","coordinates":[[[136.222532,36.054546],[136.223437,36.053634],[136.235933,36.047194],[136.237971,36.048161],[136.222977,36.06589],[136.222532,36.054546]]]},"properties":{}}},
    {"code":1141522,"id":"5632c4","name":"越前花堂","original_name":"越前花堂","name_kana":"えちぜんはなんどう","closed":false,"lat":36.038771,"lng":136.218073,"prefecture":18,"lines":[11421,99455],"attr":"cool","postal_code":"918-8014","address":"福井市花堂中１丁目１番","voronoi":{"type":"Feature","geometry":{"type":"Polygon","coordinates":[[[136.214768,36.037225],[136.226088,36.027897],[136.235165,36.046333],[136.219681,36.044068],[136.214768,36.037225]]]},"properties":{}}},
    {"code":1142103,"id":"ad4f2e","name":"六条","original_name":"六条","name_kana":"ろくじょう","closed":false,"lat":36.028175,"lng":136.239594,"prefecture":18,"lines":[11421],"attr":"cool","postal_code":"918-8136","address":"福井市天王町","voronoi":{"type":"Feature","geometry":{"type":"Polygon","coordinates":[[[136.247979,36.051498],[136.246993,36.051352],[136.237971,36.048161],[136.235933,36.047194],[136.235165,36.046333],[136.226088,36.027897],[136.225979,36.02739],[136.225938,36.022134],[136.237451,36.007064],[136.260464,36.050915],[136.259731,36.051079],[136.247979,36.051498]]]},"properties":{}}},
    {"code":1142104,"id":"04b8d7","name":"足羽","original_name":"足羽","name_kana":"あすわ","closed":false,"lat":36.020821,"lng":136.253607,"prefecture":18,"lines":[11421],"attr":"cool","postal_code":"910-2177","address":"福井市稲津町","voronoi":{"type":"Feature","geometry":{"type":"Polygon","coordinates":[[[136.26766,36.050355],[136.256064,35.962575],[136.246955,35.97276],[136.237451,36.007064],[136.260464,36.050915],[136.262639,36.050998],[136.26766,36.050355]]]},"properties":{}}},
    {"code":1142105,"id":"9eedf6","name":"越前東郷","original_name":"越前東郷","name_kana":"えちぜんとうごう","closed":false,"lat":36.018185,"lng":136.273561,"prefecture":18,"lines":[11421],"attr":"heat","postal_code":"910-2165","address":"福井市東郷二ケ町","voronoi":{"type":"Feature","geometry":{"type":"Polygon","coordinates":[[[136.291941,36.050112],[136.270887,35.938727],[136.256064,35.962575],[136.26766,36.050355],[136.281638,36.052976],[136.288872,36.053369],[136.291553,36.052773],[136.291941,36.050112]]]},"properties":{}}},
    {"code":1142106,"id":"032dfe","name":"一乗谷","original_name":"一乗谷","name_kana":"いちじょうだに","closed":false,"lat":36.013679,"lng":136.2974,"prefecture":18,"lines":[11421],"attr":"heat","postal_code":"910-2151","address":"福井市安波賀中島町","voronoi":{"type":"Feature","geometry":{"type":"Polygon","coordinates":[[[136.272935,35.933925],[136.270887,35.938727],[136.291941,36.050112],[136.316481,36.003006],[136.322863,35.968602],[136.308488,35.904219],[136.272935,35.933925]]]},"properties":{}}},
    {"code":1142107,"id":"ea1232","name":"越前高田","original_name":"越前高田","name_kana":"えちぜんたかだ","closed":false,"lat":36.024759,"lng":136.318669,"prefecture":18,"lines":[11421],"attr":"heat","postal_code":"910-2226","address":"福井市高田町","voronoi":{"type":"Feature","geometry":{"type":"Polygon","coordinates":[[[136.337892,36.054062],[136.331623,36.056613],[136.315978,36.060808],[136.302681,36.057551],[136.291553,36.052773],[136.291941,36.050112],[136.316481,36.003006],[136.337892,36.054062]]]},"properties":{}}},
    {"code":1142108,"id":"a3c672","name":"市波","original_name":"市波","name_kana":"いちなみ","closed":false,"lat":36.019813,"lng":136.330463,"prefecture":18,"lines":[11421],"attr":"heat","postal_code":"910-2222","address":"福井市市波町","voronoi":{"type":"Feature","geometry":{"type":"Polygon","coordinates":[[[136.337892,36.054062],[136.316481,36.003006],[136.322863,35.968602],[136.337646,35.992689],[136.344891,36.052623],[136.337892,36.054062]]]},"properties":{}}},
    {"code":1142109,"id":"3d8812","name":"小和清水","original_name":"小和清水","name_kana":"こわしょうず","closed":false,"lat":36.01732,"lng":136.351085,"prefecture":18,"lines":[11421],"attr":"heat","postal_code":"910-2212","address":"福井市小和清水町","voronoi":{"type":"Feature","geometry":{"type":"Polygon","coordinates":[[[136.376069,36.045348],[136.360504,36.051465],[136.349503,36.053044],[136.344891,36.052623],[136.337646,35.992689],[136.369609,36.016546],[136.379262,36.043212],[136.376069,36.045348]]]},"properties":{}}},
    {"code":1142110,"id":"e59aaa","name":"美山","original_name":"美山","name_kana":"みやま","closed":false,"lat":35.998567,"lng":136.365082,"prefecture":18,"lines":[11421],"attr":"heat","postal_code":"910-2347","address":"福井市境寺町","voronoi":{"type":"Feature","geometry":{"type":"Polygon","coordinates":[[[136.371726,35.819952],[136.341113,35.851499],[136.308488,35.904219],[136.322863,35.968602],[136.337646,35.992689],[136.369609,36.016546],[136.388641,35.961984],[136.393955,35.803617],[136.371726,35.819952]]]},"properties":{}}},
    {"code":1142111,"id":"ac6de3","name":"越前薬師","original_name":"越前薬師","name_kana":"えちぜんやくし","closed":false,"lat":36.005283,"lng":136.384336,"prefecture":18,"lines":[11421],"attr":"cool","postal_code":"910-2339","address":"福井市薬師町","voronoi":{"type":"Feature","geometry":{"type":"Polygon","coordinates":[[[136.369609,36.016546],[136.388641,35.961984],[136.404148,36.037329],[136.393908,36.041608],[136.379262,36.043212],[136.369609,36.016546]]]},"properties":{}}},
    {"code":1142112,"id":"63cc3c","name":"越前大宮","original_name":"越前大宮","name_kana":"えちぜんおおみや","closed":false,"lat":36.000064,"lng":136.409694,"prefecture":18,"lines":[11421],"attr":"cool","postal_code":"910-2334","address":"福井市大宮町","voronoi":{"type":"Feature","geometry":{"type":"Polygon","coordinates":[[[136.402206,35.795972],[136.393955,35.803617],[136.388641,35.961984],[136.404148,36.037329],[136.425934,36.036348],[136.402206,35.795972]]]},"properties":{}}},
    {"code":1142113,"id":"349a61","name":"計石","original_name":"計石","name_kana":"はかりいし","closed":false,"lat":35.997589,"lng":136.434767,"prefecture":18,"lines":[11421],"attr":"cool","postal_code":"910-2331","address":"福井市計石町","voronoi":{"type":"Feature","geometry":{"type":"Polygon","coordinates":[[[136.452964,35.934576],[136.417398,35.780046],[136.402206,35.795972],[136.425934,36.036348],[136.426463,36.036498],[136.431064,36.03654],[136.450036,36.032117],[136.452964,35.934576]]]},"properties":{}}},
    {"code":1142114,"id":"9b015b","name":"牛ヶ原","original_name":"牛ヶ原","name_kana":"うしがはら","closed":false,"lat":35.998567,"lng":136.467349,"prefecture":18,"lines":[11421],"attr":"eco","postal_code":"912-0091","address":"福井県大野市牛ケ原53下正角1-5","voronoi":{"type":"Feature","geometry":{"type":"Polygon","coordinates":[[[136.477178,35.98139],[136.452964,35.934576],[136.450036,36.032117],[136.46244,36.034856],[136.478479,36.027993],[136.477178,35.98139]]]},"properties":{}}},
    {"code":1142115,"id":"4a3c93","name":"北大野","original_name":"北大野","name_kana":"きたおおの","closed":false,"lat":35.997992,"lng":136.48795,"prefecture":18,"lines":[11421],"attr":"eco","postal_code":"912-0021","address":"大野市中野","voronoi":{"type":"Feature","geometry":{"type":"Polygon","coordinates":[[[136.478479,36.027993],[136.477178,35.98139],[136.50987,36.001245],[136.51663,36.025294],[136.478479,36.027993]]]},"properties":{}}},
    {"code":1142116,"id":"b59385","name":"越前大野","original_name":"越前大野","name_kana":"えちぜんおおの","closed":false,"lat":35.983294,"lng":136.496877,"prefecture":18,"lines":[11421],"attr":"eco","postal_code":"912-0052","address":"大野市弥生町","voronoi":{"type":"Feature","geometry":{"type":"Polygon","coordinates":[[[136.50987,36.001245],[136.520089,35.919556],[136.505869,35.820342],[136.49053,35.786719],[136.427824,35.765296],[136.417398,35.780046],[136.452964,35.934576],[136.477178,35.98139],[136.50987,36.001245]]]},"properties":{}}},
    {"code":1142117,"id":"88708c","name":"越前田野","original_name":"越前田野","name_kana":"えちぜんたの","closed":false,"lat":35.987048,"lng":136.526884,"prefecture":18,"lines":[11421],"attr":"eco","postal_code":"912-0827","address":"大野市田野","voronoi":{"type":"Feature","geometry":{"type":"Polygon","coordinates":[[[136.520089,35.919556],[136.50987,36.001245],[136.51663,36.025294],[136.523396,36.028692],[136.539291,35.969483],[136.520089,35.919556]]]},"properties":{}}},
    {"code":1142118,"id":"a0d863","name":"越前富田","original_name":"越前富田","name_kana":"えちぜんとみだ","closed":false,"lat":35.9909,"lng":136.541233,"prefecture":18,"lines":[11421],"attr":"eco","postal_code":"912-0813","address":"大野市上野","voronoi":{"type":"Feature","geometry":{"type":"Polygon","coordinates":[[[136.523396,36.028692],[136.539291,35.969483],[136.57099,36.005636],[136.599269,36.051116],[136.620334,36.101481],[136.523396,36.028692]]]},"properties":{}}},
    {"code":1142119,"id":"175f4c","name":"下唯野","original_name":"下唯野","name_kana":"しもゆいの","closed":false,"lat":35.974208,"lng":136.56027,"prefecture":18,"lines":[11421],"attr":"eco","postal_code":"912-0822","address":"大野市下唯野","voronoi":{"type":"Feature","geometry":{"type":"Polygon","coordinates":[[[136.57099,36.005636],[136.550379,35.881969],[136.505869,35.820342],[136.520089,35.919556],[136.539291,35.969483],[136.57099,36.005636]]]},"properties":{}}},
    {"code":1142120,"id":"016a3b","name":"柿ヶ島","original_name":"柿ヶ島","name_kana":"かきがしま","closed":false,"lat":35.97243,"lng":136.570938,"prefecture":18,"lines":[11421],"attr":"eco","postal_code":"912-0147","address":"福井県大野市柿ケ嶋35中々川原32-2","voronoi":{"type":"Feature","geometry":{"type":"Polygon","coordinates":[[[136.572664,35.909312],[136.550379,35.881969],[136.57099,36.005636],[136.599269,36.051116],[136.572664,35.909312]]]},"properties":{}}},
    {"code":1142121,"id":"70cb55","name":"勝原","original_name":"勝原","name_kana":"かどはら","closed":false,"lat":35.967512,"lng":136.597151,"prefecture":18,"lines":[11421],"attr":"eco","postal_code":"912-0155","address":"大野市西勝原","voronoi":{"type":"Feature","geometry":{"type":"Polygon","coordinates":[[[136.572664,35.909312],[136.713208,36.021617],[136.727619,36.036322],[136.754365,36.201929],[136.707456,36.204509],[136.620334,36.101481],[136.599269,36.051116],[136.572664,35.909312]]]},"properties":{}}},
    {"code":1142122,"id":"2883a4","name":"越前下山","original_name":"越前下山","name_kana":"えちぜんしもやま","closed":false,"lat":35.920356,"lng":136.634832,"prefecture":18,"lines":[11421],"attr":"eco","postal_code":"912-0207","address":"大野市下山","voronoi":{"type":"Feature","geometry":{"type":"Polygon","coordinates":[[[136.49053,35.786719],[136.505869,35.820342],[136.550379,35.881969],[136.572664,35.909312],[136.713208,36.021617],[136.570088,35.781418],[136.49053,35.786719]]]},"properties":{}}},
    {"code":1142123,"id":"00c288","name":"九頭竜湖","original_name":"九頭竜湖","name_kana":"くずりゅうこ","closed":false,"lat":35.90449,"lng":136.66146,"prefecture":18,"lines":[11421],"attr":"eco","postal_code":"912-0205","address":"大野市朝日","voronoi":{"type":"Feature","geometry":{"type":"Polygon","coordinates":[[[136.727619,36.036322],[136.713208,36.021617],[136.570088,35.781418],[136.734174,35.753621],[136.741341,35.782865],[136.752808,35.845687],[136.747586,35.904254],[136.727619,36.036322]]]},"properties":{}}}
  ]
}