{
  "code":11511,
  "id":"34383f",
  "name":"JR草津線",
  "name_kana":"じぇいあーるくさつせん",
  "station_size":11,
  "company_code":4,
  "closed":false,
  "color":"#5A9934",
  "symbol":"C",
  "station_list":[
    {"code":1150904,"id":"7820a8","name":"柘植","original_name":"柘植","name_kana":"つげ","closed":false,"lat":34.846993,"lng":136.255704,"prefecture":24,"lines":[11509,11511],"attr":"cool","postal_code":"519-1402","address":"伊賀市柘植町小林","voronoi":{"type":"Feature","geometry":{"type":"Polygon","coordinates":[[[136.270353,34.759313],[136.220301,34.854662],[136.301059,34.904167],[136.293808,34.763274],[136.28071,34.758236],[136.270353,34.759313]]]},"properties":{}}},
    {"code":1151102,"id":"5b2841","name":"油日","original_name":"油日","name_kana":"あぶらひ","closed":false,"lat":34.889691,"lng":136.22953,"prefecture":25,"lines":[11511],"attr":"cool","postal_code":"520-3421","address":"甲賀市甲賀町上野","voronoi":{"type":"Feature","geometry":{"type":"Polygon","coordinates":[[[136.261396,34.953981],[136.19811,34.862118],[136.220301,34.854662],[136.301059,34.904167],[136.324419,34.959163],[136.261396,34.953981]]]},"properties":{}}},
    {"code":1151103,"id":"eb1251","name":"甲賀","original_name":"甲賀","name_kana":"こうか","closed":false,"lat":34.9013,"lng":136.212679,"prefecture":25,"lines":[11511],"attr":"cool","postal_code":"520-3433","address":"甲賀市甲賀町大原市場","voronoi":{"type":"Feature","geometry":{"type":"Polygon","coordinates":[[[136.19811,34.862118],[136.168876,34.86437],[136.225243,34.949301],[136.242749,34.955121],[136.261396,34.953981],[136.19811,34.862118]]]},"properties":{}}},
    {"code":1151104,"id":"31ad62","name":"寺庄","original_name":"寺庄","name_kana":"てらしょう","closed":false,"lat":34.919078,"lng":136.185892,"prefecture":25,"lines":[11511],"attr":"cool","postal_code":"520-3301","address":"甲賀市甲南町寺庄","voronoi":{"type":"Feature","geometry":{"type":"Polygon","coordinates":[[[136.168876,34.86437],[136.164918,34.863537],[136.138684,34.868725],[136.138513,34.870941],[136.138422,34.873618],[136.195118,34.948918],[136.198885,34.949537],[136.225243,34.949301],[136.168876,34.86437]]]},"properties":{}}},
    {"code":1151105,"id":"180114","name":"甲南","original_name":"甲南","name_kana":"こうなん","closed":false,"lat":34.931804,"lng":136.16899,"prefecture":25,"lines":[11511],"attr":"cool","postal_code":"520-3322","address":"甲賀市甲南町深川","voronoi":{"type":"Feature","geometry":{"type":"Polygon","coordinates":[[[136.192428,34.949415],[136.195118,34.948918],[136.138422,34.873618],[136.129553,34.918354],[136.172804,34.950496],[136.174482,34.950651],[136.192428,34.949415]]]},"properties":{}}},
    {"code":1151106,"id":"2fb546","name":"貴生川","original_name":"貴生川","name_kana":"きぶかわ","closed":false,"lat":34.952236,"lng":136.153806,"prefecture":25,"lines":[11511,99601,99604],"attr":"eco","postal_code":"528-0041","address":"甲賀市水口町虫生野","voronoi":{"type":"Feature","geometry":{"type":"Polygon","coordinates":[[[136.115394,34.943897],[136.141188,34.973977],[136.172804,34.950496],[136.129553,34.918354],[136.115394,34.943897]]]},"properties":{}}},
    {"code":1151107,"id":"7c82f7","name":"三雲","original_name":"三雲","name_kana":"みくも","closed":false,"lat":34.983131,"lng":136.117777,"prefecture":25,"lines":[11511],"attr":"eco","postal_code":"520-3221","address":"湖南市三雲","voronoi":{"type":"Feature","geometry":{"type":"Polygon","coordinates":[[[136.15163,35.007411],[136.141188,34.973977],[136.115394,34.943897],[136.083341,34.958076],[136.126147,35.04461],[136.138194,35.036378],[136.139021,35.035674],[136.15346,35.019564],[136.15163,35.007411]]]},"properties":{}}},
    {"code":1151108,"id":"af34c7","name":"甲西","original_name":"甲西","name_kana":"こうせい","closed":false,"lat":35.000651,"lng":136.08236,"prefecture":25,"lines":[11511],"attr":"eco","postal_code":"520-3232","address":"湖南市平松堂前","voronoi":{"type":"Feature","geometry":{"type":"Polygon","coordinates":[[[136.120744,35.051757],[136.115271,35.054073],[136.092235,35.051576],[136.036255,34.954966],[136.083341,34.958076],[136.126147,35.04461],[136.120744,35.051757]]]},"properties":{}}},
    {"code":1151109,"id":"c15487","name":"石部","original_name":"石部","name_kana":"いしべ","closed":false,"lat":35.017685,"lng":136.052963,"prefecture":25,"lines":[11511],"attr":"eco","postal_code":"520-3101","address":"湖南市石部","voronoi":{"type":"Feature","geometry":{"type":"Polygon","coordinates":[[[136.036255,34.954966],[136.035446,34.954689],[136.012697,34.947987],[136.028843,35.037771],[136.063043,35.058278],[136.092235,35.051576],[136.036255,34.954966]]]},"properties":{}}},
    {"code":1151110,"id":"eab9fb","name":"手原","original_name":"手原","name_kana":"てはら","closed":false,"lat":35.027347,"lng":135.999237,"prefecture":25,"lines":[11511],"attr":"heat","postal_code":"520-3047","address":"栗東市大字手原","voronoi":{"type":"Feature","geometry":{"type":"Polygon","coordinates":[[[135.981896,35.017675],[135.992749,35.038255],[136.021063,35.042166],[136.028843,35.037771],[136.012697,34.947987],[136.010231,34.94618],[136.005837,34.943752],[135.985393,34.988896],[135.981896,35.017675]]]},"properties":{}}},
    {"code":1151111,"id":"011774","name":"草津(滋賀)","original_name":"草津","name_kana":"くさつ","closed":false,"lat":35.022913,"lng":135.962744,"prefecture":25,"lines":[11511,11601],"attr":"heat","postal_code":"525-0026","address":"草津市渋川１丁目","voronoi":{"type":"Feature","geometry":{"type":"Polygon","coordinates":[[[135.981896,35.017675],[135.938761,35.069132],[135.927262,35.058686],[135.918418,35.042952],[135.985393,34.988896],[135.981896,35.017675]]]},"properties":{}}}
  ]
}