{
  "code":11609,
  "id":"8dcc61",
  "name":"JR山陽本線(姫路～岡山)",
  "name_kana":"じぇいあーるさんようほんせん",
  "station_size":19,
  "company_code":4,
  "closed":false,
  "station_list":[
    {"code":100304,"id":"4491da","name":"姫路","original_name":"姫路","name_kana":"ひめじ","closed":false,"lat":34.827659,"lng":134.690769,"prefecture":28,"lines":[1003,11608,11609,11633,11635],"attr":"cool","postal_code":"670-0927","address":"姫路市駅前町御殿前","voronoi":{"type":"Feature","geometry":{"type":"Polygon","coordinates":[[[134.686402,34.823379],[134.697292,34.810302],[134.699252,34.810424],[134.701361,34.824301],[134.695769,34.835929],[134.686402,34.823379]]]},"properties":{}}},
    {"code":1160902,"id":"7f610f","name":"英賀保","original_name":"英賀保","name_kana":"あがほ","closed":false,"lat":34.813235,"lng":134.644762,"prefecture":28,"lines":[11609],"attr":"cool","postal_code":"672-8097","address":"姫路市飾磨区山崎","voronoi":{"type":"Feature","geometry":{"type":"Polygon","coordinates":[[[134.627013,34.834092],[134.637313,34.834563],[134.66163,34.822769],[134.661121,34.816418],[134.643631,34.80541],[134.63286,34.80934],[134.629137,34.81333],[134.627013,34.834092]]]},"properties":{}}},
    {"code":1160918,"id":"1860b6","name":"はりま勝原","original_name":"はりま勝原","name_kana":"はりまかつはら","closed":false,"lat":34.810072,"lng":134.613856,"prefecture":28,"lines":[11609],"attr":"heat","postal_code":"671-1211","address":"姫路市勝原区熊見","voronoi":{"type":"Feature","geometry":{"type":"Polygon","coordinates":[[[134.629137,34.81333],[134.627013,34.834092],[134.62031,34.83827],[134.602172,34.835993],[134.598199,34.806552],[134.606689,34.800904],[134.621798,34.804825],[134.629137,34.81333]]]},"properties":{}}},
    {"code":1160903,"id":"564fd6","name":"網干","original_name":"網干","name_kana":"あぼし","closed":false,"lat":34.814096,"lng":134.584035,"prefecture":28,"lines":[11609],"attr":"heat","postal_code":"671-1227","address":"姫路市網干区和久","voronoi":{"type":"Feature","geometry":{"type":"Polygon","coordinates":[[[134.582114,34.845259],[134.554696,34.828908],[134.548472,34.795123],[134.590919,34.801261],[134.598199,34.806552],[134.602172,34.835993],[134.582114,34.845259]]]},"properties":{}}},
    {"code":1160904,"id":"bdb314","name":"竜野","original_name":"竜野","name_kana":"たつの","closed":false,"lat":34.825522,"lng":134.522004,"prefecture":28,"lines":[11609],"attr":"eco","postal_code":"671-1632","address":"たつの市揖保川町黍田","voronoi":{"type":"Feature","geometry":{"type":"Polygon","coordinates":[[[134.513046,34.73447],[134.548472,34.795123],[134.554696,34.828908],[134.500463,34.8792],[134.496774,34.88132],[134.488844,34.879444],[134.50954,34.744811],[134.513046,34.73447]]]},"properties":{}}},
    {"code":100305,"id":"1800c3","name":"相生(兵庫)","original_name":"相生","name_kana":"あいおい","closed":false,"lat":34.818052,"lng":134.47341,"prefecture":28,"lines":[1003,11609,11631],"attr":"eco","postal_code":"678-0006","address":"相生市本郷町","voronoi":{"type":"Feature","geometry":{"type":"Polygon","coordinates":[[[134.437321,34.843323],[134.443269,34.884623],[134.456417,34.884894],[134.488844,34.879444],[134.50954,34.744811],[134.437321,34.843323]]]},"properties":{}}},
    {"code":1160906,"id":"cfe17f","name":"有年","original_name":"有年","name_kana":"うね","closed":false,"lat":34.829263,"lng":134.395568,"prefecture":28,"lines":[11609],"attr":"eco","postal_code":"678-1184","address":"赤穂市有年横尾","voronoi":{"type":"Feature","geometry":{"type":"Polygon","coordinates":[[[134.389957,34.793086],[134.364769,34.793984],[134.339742,34.807768],[134.40461,34.881333],[134.426562,34.894812],[134.443269,34.884623],[134.437321,34.843323],[134.416633,34.80263],[134.389957,34.793086]]]},"properties":{}}},
    {"code":1160907,"id":"1bdc12","name":"上郡","original_name":"上郡","name_kana":"かみごおり","closed":false,"lat":34.865845,"lng":134.354081,"prefecture":28,"lines":[11609,99644],"attr":"eco","postal_code":"678-1233","address":"赤穂郡上郡町大字大持","voronoi":{"type":"Feature","geometry":{"type":"Polygon","coordinates":[[[134.278752,34.881341],[134.40461,34.881333],[134.339742,34.807768],[134.336054,34.807852],[134.278752,34.881341]]]},"properties":{}}},
    {"code":1160908,"id":"89d205","name":"三石","original_name":"三石","name_kana":"みついし","closed":false,"lat":34.804507,"lng":134.275416,"prefecture":33,"lines":[11609],"attr":"eco","postal_code":"705-0132","address":"備前市三石","voronoi":{"type":"Feature","geometry":{"type":"Polygon","coordinates":[[[134.237265,34.783215],[134.249872,34.898345],[134.258019,34.899008],[134.278752,34.881341],[134.336054,34.807852],[134.334473,34.805682],[134.314071,34.785838],[134.272119,34.769768],[134.254274,34.769493],[134.237265,34.783215]]]},"properties":{}}},
    {"code":1160909,"id":"977faa","name":"吉永","original_name":"吉永","name_kana":"よしなが","closed":false,"lat":34.812259,"lng":134.204626,"prefecture":33,"lines":[11609],"attr":"eco","postal_code":"709-0224","address":"備前市吉永町吉永中","voronoi":{"type":"Feature","geometry":{"type":"Polygon","coordinates":[[[134.198585,34.913854],[134.184874,34.914885],[134.149613,34.905579],[134.185243,34.782132],[134.219066,34.778103],[134.237265,34.783215],[134.249872,34.898345],[134.198585,34.913854]]]},"properties":{}}},
    {"code":1160910,"id":"347e4d","name":"和気","original_name":"和気","name_kana":"わけ","closed":false,"lat":34.797297,"lng":134.152787,"prefecture":33,"lines":[11609],"attr":"eco","postal_code":"709-0442","address":"和気郡和気町福富","voronoi":{"type":"Feature","geometry":{"type":"Polygon","coordinates":[[[134.182609,34.779756],[134.165013,34.769155],[134.138949,34.765695],[134.094723,34.90523],[134.149613,34.905579],[134.185243,34.782132],[134.182609,34.779756]]]},"properties":{}}},
    {"code":1160911,"id":"9c85f4","name":"熊山","original_name":"熊山","name_kana":"くまやま","closed":false,"lat":34.783556,"lng":134.109433,"prefecture":33,"lines":[11609],"attr":"cool","postal_code":"709-0714","address":"赤磐市千躰","voronoi":{"type":"Feature","geometry":{"type":"Polygon","coordinates":[[[134.083107,34.907348],[134.027506,34.847953],[134.027458,34.847879],[134.109248,34.754698],[134.133103,34.759018],[134.138949,34.765695],[134.094723,34.90523],[134.083107,34.907348]]]},"properties":{}}},
    {"code":1160912,"id":"dd7b31","name":"万富","original_name":"万富","name_kana":"まんとみ","closed":false,"lat":34.758256,"lng":134.080609,"prefecture":33,"lines":[11609],"attr":"cool","postal_code":"709-0841","address":"岡山市瀬戸町万富","voronoi":{"type":"Feature","geometry":{"type":"Polygon","coordinates":[[[134.022749,34.842913],[134.017097,34.81833],[134.074737,34.724405],[134.08899,34.728855],[134.109248,34.754698],[134.027458,34.847879],[134.022749,34.842913]]]},"properties":{}}},
    {"code":1160913,"id":"6c65a5","name":"瀬戸","original_name":"瀬戸","name_kana":"せと","closed":false,"lat":34.734499,"lng":134.041897,"prefecture":33,"lines":[11609],"attr":"cool","postal_code":"709-0861","address":"岡山市瀬戸町瀬戸","voronoi":{"type":"Feature","geometry":{"type":"Polygon","coordinates":[[[134.059699,34.699653],[134.000997,34.73539],[134.000968,34.735521],[134.006093,34.79764],[134.017097,34.81833],[134.074737,34.724405],[134.059699,34.699653]]]},"properties":{}}},
    {"code":1160914,"id":"28c7d7","name":"上道(岡山)","original_name":"上道","name_kana":"じょうとう","closed":false,"lat":34.699466,"lng":134.020569,"prefecture":33,"lines":[11609],"attr":"heat","postal_code":"709-0626","address":"岡山市中尾","voronoi":{"type":"Feature","geometry":{"type":"Polygon","coordinates":[[[134.054301,34.691843],[134.059703,34.698971],[134.059699,34.699653],[134.000997,34.73539],[133.994693,34.715181],[134.007528,34.685059],[134.023493,34.678345],[134.054301,34.691843]]]},"properties":{}}},
    {"code":1160915,"id":"a80aaa","name":"東岡山","original_name":"東岡山","name_kana":"ひがしおかやま","closed":false,"lat":34.685633,"lng":133.988103,"prefecture":33,"lines":[11609,11631],"attr":"heat","postal_code":"703-8217","address":"岡山市土田","voronoi":{"type":"Feature","geometry":{"type":"Polygon","coordinates":[[[134.007528,34.685059],[133.994693,34.715181],[133.97178,34.697899],[133.975341,34.655649],[133.975342,34.655647],[134.007528,34.685059]]]},"properties":{}}},
    {"code":1160916,"id":"a54a20","name":"高島","original_name":"高島","name_kana":"たかしま","closed":false,"lat":34.683074,"lng":133.95774,"prefecture":33,"lines":[11609,11631],"attr":"heat","postal_code":"703-8243","address":"岡山市清水２丁目","voronoi":{"type":"Feature","geometry":{"type":"Polygon","coordinates":[[[133.975341,34.655649],[133.97178,34.697899],[133.961465,34.699948],[133.945818,34.690791],[133.950092,34.669748],[133.975341,34.655649]]]},"properties":{}}},
    {"code":1160919,"id":"8b5b42","name":"西川原","original_name":"西川原","name_kana":"にしがわら","closed":false,"lat":34.679035,"lng":133.937851,"prefecture":33,"lines":[11609,11631],"attr":"heat","postal_code":"703-8258","address":"岡山市西川原１丁目","voronoi":{"type":"Feature","geometry":{"type":"Polygon","coordinates":[[[133.945818,34.690791],[133.938778,34.692713],[133.928925,34.675256],[133.940517,34.668272],[133.943225,34.668269],[133.950092,34.669748],[133.945818,34.690791]]]},"properties":{}}},
    {"code":100306,"id":"a9d3b2","name":"岡山","original_name":"岡山","name_kana":"おかやま","closed":false,"lat":34.666572,"lng":133.918552,"prefecture":33,"lines":[1003,11609,11610,11631,11703,11709,11713,11715],"attr":"heat","postal_code":"700-0024","address":"岡山市駅元町１丁目","voronoi":{"type":"Feature","geometry":{"type":"Polygon","coordinates":[[[133.910571,34.681852],[133.908969,34.6594],[133.913295,34.657634],[133.921396,34.668892],[133.922898,34.675786],[133.910571,34.681852]]]},"properties":{}}}
  ]
}