{
  "code":11610,
  "id":132,
  "name":"JR山陽本線(岡山～三原)",
  "name_kana":"じぇいあーるさんようほんせん",
  "station_size":20,
  "company_code":4,
  "closed":false,
  "color":"#009966",
  "station_list":[
    {"code":100306,"id":2867,"name":"岡山","original_name":"岡山","name_kana":"おかやま","closed":false,"lat":34.666572,"lng":133.918552,"prefecture":33,"lines":[1003,11609,11610,11631,11703,11709,11713,11715],"attr":"heat","postal_code":"700-0024","address":"岡山市駅元町１丁目","voronoi":{"type":"Feature","geometry":{"type":"Polygon","coordinates":[[[133.910571,34.681852],[133.908969,34.6594],[133.913295,34.657634],[133.921396,34.668892],[133.922898,34.675786],[133.910571,34.681852]]]},"properties":{}}},
    {"code":1161002,"id":2870,"name":"北長瀬","original_name":"北長瀬","name_kana":"きたながせ","closed":false,"lat":34.652995,"lng":133.885325,"prefecture":33,"lines":[11610,11703],"attr":"heat","postal_code":"700-0963","address":"岡山市北長瀬","voronoi":{"type":"Feature","geometry":{"type":"Polygon","coordinates":[[[133.866261,34.658977],[133.869883,34.661954],[133.898073,34.655159],[133.898915,34.6543],[133.896973,34.645177],[133.876317,34.631252],[133.875255,34.631586],[133.866261,34.658977]]]},"properties":{}}},
    {"code":1161003,"id":2871,"name":"庭瀬","original_name":"庭瀬","name_kana":"にわせ","closed":false,"lat":34.642858,"lng":133.854454,"prefecture":33,"lines":[11610,11703],"attr":"heat","postal_code":"701-0151","address":"岡山市平野","voronoi":{"type":"Feature","geometry":{"type":"Polygon","coordinates":[[[133.837713,34.625713],[133.833791,34.62775],[133.825168,34.65211],[133.858967,34.660929],[133.866261,34.658977],[133.875255,34.631586],[133.858959,34.623674],[133.837713,34.625713]]]},"properties":{}}},
    {"code":1161004,"id":2872,"name":"中庄","original_name":"中庄","name_kana":"なかしょう","closed":false,"lat":34.626493,"lng":133.808225,"prefecture":33,"lines":[11610,11703],"attr":"heat","postal_code":"710-0012","address":"倉敷市鳥羽","voronoi":{"type":"Feature","geometry":{"type":"Polygon","coordinates":[[[133.796129,34.661016],[133.821469,34.655037],[133.825168,34.65211],[133.833791,34.62775],[133.813168,34.606495],[133.796815,34.597095],[133.772034,34.640266],[133.773034,34.644617],[133.780819,34.653243],[133.796129,34.661016]]]},"properties":{}}},
    {"code":1161005,"id":2873,"name":"倉敷","original_name":"倉敷","name_kana":"くらしき","closed":false,"lat":34.602069,"lng":133.765675,"prefecture":33,"lines":[11610,11703],"attr":"heat","postal_code":"710-0055","address":"倉敷市阿知１丁目","voronoi":{"type":"Feature","geometry":{"type":"Polygon","coordinates":[[[133.793873,34.585582],[133.794476,34.586355],[133.795493,34.588792],[133.796815,34.597095],[133.772034,34.640266],[133.743629,34.618271],[133.747659,34.611449],[133.793873,34.585582]]]},"properties":{}}},
    {"code":1161006,"id":2874,"name":"西阿知","original_name":"西阿知","name_kana":"にしあち","closed":false,"lat":34.58578,"lng":133.727876,"prefecture":33,"lines":[11610],"attr":"heat","postal_code":"710-0807","address":"倉敷市西阿知町","voronoi":{"type":"Feature","geometry":{"type":"Polygon","coordinates":[[[133.73107,34.6117],[133.709288,34.605708],[133.695501,34.59365],[133.71236,34.55329],[133.712772,34.553436],[133.73053,34.571908],[133.738061,34.586539],[133.73107,34.6117]]]},"properties":{}}},
    {"code":100307,"id":2875,"name":"新倉敷","original_name":"新倉敷","name_kana":"しんくらしき","closed":false,"lat":34.56509,"lng":133.678344,"prefecture":33,"lines":[1003,11610],"attr":"eco","postal_code":"710-0252","address":"倉敷市玉島爪崎","voronoi":{"type":"Feature","geometry":{"type":"Polygon","coordinates":[[[133.672286,34.499002],[133.638705,34.57888],[133.644909,34.585996],[133.68169,34.59671],[133.695501,34.59365],[133.71236,34.55329],[133.711268,34.550615],[133.672286,34.499002]]]},"properties":{}}},
    {"code":1161008,"id":2876,"name":"金光","original_name":"金光","name_kana":"こんこう","closed":false,"lat":34.540909,"lng":133.620826,"prefecture":33,"lines":[11610],"attr":"eco","postal_code":"719-0104","address":"浅口市金光町占見新田","voronoi":{"type":"Feature","geometry":{"type":"Polygon","coordinates":[[[133.6586,34.412814],[133.672286,34.499002],[133.638705,34.57888],[133.586207,34.578054],[133.655923,34.408382],[133.6586,34.412814]]]},"properties":{}}},
    {"code":1161009,"id":2877,"name":"鴨方","original_name":"鴨方","name_kana":"かもがた","closed":false,"lat":34.5273,"lng":133.587705,"prefecture":33,"lines":[11610],"attr":"eco","postal_code":"719-0252","address":"浅口市鴨方町六条院中","voronoi":{"type":"Feature","geometry":{"type":"Polygon","coordinates":[[[133.645,34.383413],[133.640823,34.381245],[133.548479,34.557135],[133.585449,34.578326],[133.586207,34.578054],[133.655923,34.408382],[133.645,34.383413]]]},"properties":{}}},
    {"code":1161010,"id":2878,"name":"里庄","original_name":"里庄","name_kana":"さとしょう","closed":false,"lat":34.507905,"lng":133.550763,"prefecture":33,"lines":[11610],"attr":"cool","postal_code":"719-0302","address":"浅口郡里庄町大字新庄","voronoi":{"type":"Feature","geometry":{"type":"Polygon","coordinates":[[[133.548479,34.557135],[133.640823,34.381245],[133.636456,34.378171],[133.55132,34.329687],[133.539592,34.323873],[133.524891,34.550172],[133.537365,34.556205],[133.548479,34.557135]]]},"properties":{}}},
    {"code":1161011,"id":2879,"name":"笠岡","original_name":"笠岡","name_kana":"かさおか","closed":false,"lat":34.504913,"lng":133.504705,"prefecture":33,"lines":[11610],"attr":"cool","postal_code":"714-0081","address":"笠岡市笠岡","voronoi":{"type":"Feature","geometry":{"type":"Polygon","coordinates":[[[133.492555,34.551268],[133.472776,34.543225],[133.468469,34.540422],[133.493113,34.293043],[133.539592,34.323873],[133.524891,34.550172],[133.492555,34.551268]]]},"properties":{}}},
    {"code":1161012,"id":2880,"name":"大門(広島)","original_name":"大門","name_kana":"だいもん","closed":false,"lat":34.498462,"lng":133.43995,"prefecture":34,"lines":[11610],"attr":"heat","postal_code":"721-0921","address":"福山市大門町大門","voronoi":{"type":"Feature","geometry":{"type":"Polygon","coordinates":[[[133.447387,34.253545],[133.419229,34.530561],[133.435951,34.540044],[133.457208,34.541772],[133.468469,34.540422],[133.493113,34.293043],[133.454012,34.257367],[133.447387,34.253545]]]},"properties":{}}},
    {"code":1161013,"id":2881,"name":"東福山","original_name":"東福山","name_kana":"ひがしふくやま","closed":false,"lat":34.494949,"lng":133.40539,"prefecture":34,"lines":[11610],"attr":"heat","postal_code":"721-0942","address":"福山市引野町５丁目","voronoi":{"type":"Feature","geometry":{"type":"Polygon","coordinates":[[[133.416777,34.232863],[133.381868,34.504098],[133.387637,34.513241],[133.413074,34.529307],[133.416618,34.530446],[133.419229,34.530561],[133.447387,34.253545],[133.416777,34.232863]]]},"properties":{}}},
    {"code":100308,"id":2882,"name":"福山","original_name":"福山","name_kana":"ふくやま","closed":false,"lat":34.489291,"lng":133.361429,"prefecture":34,"lines":[1003,11610,11720],"attr":"heat","postal_code":"720-0066","address":"福山市三之丸町","voronoi":{"type":"Feature","geometry":{"type":"Polygon","coordinates":[[[133.411305,34.228449],[133.416777,34.232863],[133.381868,34.504098],[133.356799,34.505703],[133.342982,34.449538],[133.410833,34.228363],[133.411305,34.228449]]]},"properties":{}}},
    {"code":1161015,"id":2883,"name":"備後赤坂","original_name":"備後赤坂","name_kana":"びんごあかさか","closed":false,"lat":34.472108,"lng":133.305417,"prefecture":34,"lines":[11610],"attr":"heat","postal_code":"720-0843","address":"福山市赤坂町大字赤坂","voronoi":{"type":"Feature","geometry":{"type":"Polygon","coordinates":[[[133.342982,34.449538],[133.410833,34.228363],[133.398138,34.224572],[133.38903,34.224215],[133.263377,34.50276],[133.264281,34.503155],[133.280184,34.507818],[133.305044,34.509424],[133.311216,34.508963],[133.342982,34.449538]]]},"properties":{}}},
    {"code":1161016,"id":2884,"name":"松永","original_name":"松永","name_kana":"まつなが","closed":false,"lat":34.450958,"lng":133.258532,"prefecture":34,"lines":[11610],"attr":"heat","postal_code":"729-0104","address":"福山市松永町","voronoi":{"type":"Feature","geometry":{"type":"Polygon","coordinates":[[[133.263377,34.50276],[133.38903,34.224215],[133.384415,34.223575],[133.213982,34.493399],[133.237472,34.505502],[133.263377,34.50276]]]},"properties":{}}},
    {"code":1161017,"id":2885,"name":"東尾道","original_name":"東尾道","name_kana":"ひがしおのみち","closed":false,"lat":34.434937,"lng":133.233168,"prefecture":34,"lines":[11610],"attr":"cool","postal_code":"729-0141","address":"尾道市高須町字東新涯","voronoi":{"type":"Feature","geometry":{"type":"Polygon","coordinates":[[[133.213982,34.493399],[133.204959,34.491292],[133.213212,34.419632],[133.362936,34.219324],[133.384415,34.223575],[133.213982,34.493399]]]},"properties":{}}},
    {"code":1161018,"id":2886,"name":"尾道","original_name":"尾道","name_kana":"おのみち","closed":false,"lat":34.404826,"lng":133.192884,"prefecture":34,"lines":[11610],"attr":"cool","postal_code":"722-0036","address":"尾道市東御所町","voronoi":{"type":"Feature","geometry":{"type":"Polygon","coordinates":[[[133.206968,34.171843],[133.362936,34.219324],[133.213212,34.419632],[133.146617,34.412797],[133.159467,34.320992],[133.206968,34.171843]]]},"properties":{}}},
    {"code":1161019,"id":2887,"name":"糸崎","original_name":"糸崎","name_kana":"いとざき","closed":false,"lat":34.392429,"lng":133.104317,"prefecture":34,"lines":[11610,11716],"attr":"eco","postal_code":"729-0324","address":"三原市糸崎町","voronoi":{"type":"Feature","geometry":{"type":"Polygon","coordinates":[[[133.089498,34.385409],[133.12158,34.470096],[133.146617,34.412797],[133.159467,34.320992],[133.089498,34.385409]]]},"properties":{}}},
    {"code":100310,"id":2888,"name":"三原","original_name":"三原","name_kana":"みはら","closed":false,"lat":34.400486,"lng":133.083049,"prefecture":34,"lines":[1003,11610,11611,11716],"attr":"eco","postal_code":"723-0014","address":"三原市城町","voronoi":{"type":"Feature","geometry":{"type":"Polygon","coordinates":[[[133.046293,34.52127],[133.033632,34.388583],[133.039835,34.384307],[133.089498,34.385409],[133.12158,34.470096],[133.113259,34.500334],[133.072956,34.518128],[133.046293,34.52127]]]},"properties":{}}}
  ]
}