{
  "code":11616,
  "id":"fe4ba9",
  "name":"JR山陰本線(豊岡～米子)",
  "name_kana":"じぇいあーるさんいんほんせん",
  "station_size":41,
  "company_code":4,
  "closed":false,
  "color":"#B8D200",
  "station_list":[
    {"code":1161524,"id":"0e175d","name":"豊岡(兵庫)","original_name":"豊岡","name_kana":"とよおか","closed":false,"lat":35.543825,"lng":134.813694,"prefecture":28,"lines":[11615,11616,99609,99654],"attr":"heat","postal_code":"668-0031","address":"豊岡市大手町","voronoi":{"type":"Feature","geometry":{"type":"Polygon","coordinates":[[[134.730694,35.541899],[134.840245,35.510427],[134.815872,35.569244],[134.730694,35.541899]]]},"properties":{}}},
    {"code":1161602,"id":"dad59d","name":"玄武洞","original_name":"玄武洞","name_kana":"げんぶどう","closed":false,"lat":35.588645,"lng":134.799305,"prefecture":28,"lines":[11616],"attr":"heat","postal_code":"669-6116","address":"豊岡市城崎町上山","voronoi":{"type":"Feature","geometry":{"type":"Polygon","coordinates":[[[134.839381,35.592921],[134.776454,35.618243],[134.717611,35.57697],[134.704209,35.553395],[134.701112,35.546142],[134.722885,35.541838],[134.730694,35.541899],[134.815872,35.569244],[134.839381,35.592921]]]},"properties":{}}},
    {"code":1161603,"id":"5a7ecf","name":"城崎温泉","original_name":"城崎温泉","name_kana":"きのさきおんせん","closed":false,"lat":35.623764,"lng":134.813437,"prefecture":28,"lines":[11616],"attr":"heat","postal_code":"669-6103","address":"豊岡市城崎町今津稗田","voronoi":{"type":"Feature","geometry":{"type":"Polygon","coordinates":[[[134.868673,35.668115],[134.86123,35.803896],[134.776454,35.618243],[134.839381,35.592921],[134.849775,35.596138],[134.868673,35.668115]]]},"properties":{}}},
    {"code":1161604,"id":"deeb7e","name":"竹野","original_name":"竹野","name_kana":"たけの","closed":false,"lat":35.649807,"lng":134.756405,"prefecture":28,"lines":[11616],"attr":"heat","postal_code":"669-6215","address":"豊岡市竹野町草飼","voronoi":{"type":"Feature","geometry":{"type":"Polygon","coordinates":[[[134.86123,35.803896],[134.776454,35.618243],[134.717611,35.57697],[134.792736,37.167135],[134.863868,36.075125],[134.864157,35.829406],[134.86123,35.803896]]]},"properties":{}}},
    {"code":1161606,"id":"3695dd","name":"佐津","original_name":"佐津","name_kana":"さつ","closed":false,"lat":35.65314,"lng":134.685856,"prefecture":28,"lines":[11616],"attr":"cool","postal_code":"669-6401","address":"美方郡香美町香住区無南垣","voronoi":{"type":"Feature","geometry":{"type":"Polygon","coordinates":[[[134.717611,35.57697],[134.792736,37.167135],[134.775885,37.57024],[134.599479,38.022572],[134.628542,35.802033],[134.704209,35.553395],[134.717611,35.57697]]]},"properties":{}}},
    {"code":1161607,"id":"abab24","name":"柴山","original_name":"柴山","name_kana":"しばやま","closed":false,"lat":35.646454,"lng":134.663886,"prefecture":28,"lines":[11616],"attr":"cool","postal_code":"669-6431","address":"美方郡香美町香住区浦上","voronoi":{"type":"Feature","geometry":{"type":"Polygon","coordinates":[[[134.704209,35.553395],[134.628542,35.802033],[134.623388,35.714707],[134.674501,35.529321],[134.701112,35.546142],[134.704209,35.553395]]]},"properties":{}}},
    {"code":1161608,"id":"15e65f","name":"香住","original_name":"香住","name_kana":"かすみ","closed":false,"lat":35.635344,"lng":134.62359,"prefecture":28,"lines":[11616],"attr":"cool","postal_code":"669-6546","address":"美方郡香美町香住区七日市","voronoi":{"type":"Feature","geometry":{"type":"Polygon","coordinates":[[[134.575229,35.566761],[134.577783,35.579552],[134.623388,35.714707],[134.674501,35.529321],[134.584065,35.446359],[134.575229,35.566761]]]},"properties":{}}},
    {"code":1161609,"id":"ccfd0f","name":"鎧","original_name":"鎧","name_kana":"よろい","closed":false,"lat":35.651691,"lng":134.575144,"prefecture":28,"lines":[11616],"attr":"eco","postal_code":"669-6672","address":"美方郡香美町香住区鎧","voronoi":{"type":"Feature","geometry":{"type":"Polygon","coordinates":[[[134.599479,38.022572],[134.519047,38.243948],[134.008961,38.99774],[134.577783,35.579552],[134.623388,35.714707],[134.628542,35.802033],[134.599479,38.022572]]]},"properties":{}}},
    {"code":1161610,"id":"8f183f","name":"餘部","original_name":"餘部","name_kana":"あまるべ","closed":false,"lat":35.648658,"lng":134.556918,"prefecture":28,"lines":[11616],"attr":"eco","postal_code":"669-6671","address":"美方郡香美町香住区余部","voronoi":{"type":"Feature","geometry":{"type":"Polygon","coordinates":[[[134.575229,35.566761],[134.47002,35.763852],[134.424817,35.932089],[133.591145,39.441331],[133.575555,39.641986],[134.008961,38.99774],[134.577783,35.579552],[134.575229,35.566761]]]},"properties":{}}},
    {"code":1161611,"id":"1e639f","name":"久谷","original_name":"久谷","name_kana":"くたに","closed":false,"lat":35.627549,"lng":134.517374,"prefecture":28,"lines":[11616],"attr":"eco","postal_code":"669-6721","address":"美方郡新温泉町久谷","voronoi":{"type":"Feature","geometry":{"type":"Polygon","coordinates":[[[134.575229,35.566761],[134.47002,35.763852],[134.501666,35.46791],[134.577642,35.43586],[134.584065,35.446359],[134.575229,35.566761]]]},"properties":{}}},
    {"code":1161612,"id":"b6eacc","name":"浜坂","original_name":"浜坂","name_kana":"はまさか","closed":false,"lat":35.620618,"lng":134.452558,"prefecture":28,"lines":[11616],"attr":"eco","postal_code":"669-6702","address":"美方郡新温泉町浜坂","voronoi":{"type":"Feature","geometry":{"type":"Polygon","coordinates":[[[134.454827,35.477141],[134.450963,35.493811],[134.424817,35.932089],[134.47002,35.763852],[134.501666,35.46791],[134.454827,35.477141]]]},"properties":{}}},
    {"code":1161613,"id":"63a9a5","name":"諸寄","original_name":"諸寄","name_kana":"もろよせ","closed":false,"lat":35.619529,"lng":134.434303,"prefecture":28,"lines":[11616],"attr":"eco","postal_code":"669-6753","address":"美方郡新温泉町諸寄","voronoi":{"type":"Feature","geometry":{"type":"Polygon","coordinates":[[[134.450963,35.493811],[134.246446,36.155054],[133.724798,38.029584],[133.625944,38.875631],[133.591145,39.441331],[134.424817,35.932089],[134.450963,35.493811]]]},"properties":{}}},
    {"code":1161614,"id":"3a5b34","name":"居組","original_name":"居組","name_kana":"いぐみ","closed":false,"lat":35.606982,"lng":134.393736,"prefecture":28,"lines":[11616],"attr":"eco","postal_code":"669-6751","address":"美方郡新温泉町居組","voronoi":{"type":"Feature","geometry":{"type":"Polygon","coordinates":[[[134.428917,35.47669],[134.454827,35.477141],[134.450963,35.493811],[134.246446,36.155054],[134.392942,35.54046],[134.428917,35.47669]]]},"properties":{}}},
    {"code":1161615,"id":"188e29","name":"東浜","original_name":"東浜","name_kana":"ひがしはま","closed":false,"lat":35.599471,"lng":134.362225,"prefecture":31,"lines":[11616],"attr":"eco","postal_code":"681-0011","address":"岩美郡岩美町陸上","voronoi":{"type":"Feature","geometry":{"type":"Polygon","coordinates":[[[134.246446,36.155054],[133.724798,38.029584],[133.811878,37.173966],[134.026681,36.228388],[134.126426,35.929252],[134.305181,35.632874],[134.392942,35.54046],[134.246446,36.155054]]]},"properties":{}}},
    {"code":1161616,"id":"d4e98a","name":"岩美","original_name":"岩美","name_kana":"いわみ","closed":false,"lat":35.574182,"lng":134.335595,"prefecture":31,"lines":[11616],"attr":"eco","postal_code":"681-0003","address":"岩美郡岩美町浦富","voronoi":{"type":"Feature","geometry":{"type":"Polygon","coordinates":[[[134.305181,35.632874],[134.335617,35.51903],[134.365096,35.46931],[134.422007,35.474797],[134.428917,35.47669],[134.392942,35.54046],[134.305181,35.632874]]]},"properties":{}}},
    {"code":1161617,"id":"a6ef94","name":"大岩","original_name":"大岩","name_kana":"おおいわ","closed":false,"lat":35.566835,"lng":134.308114,"prefecture":31,"lines":[11616],"attr":"eco","postal_code":"681-0073","address":"岩美郡岩美町大谷","voronoi":{"type":"Feature","geometry":{"type":"Polygon","coordinates":[[[134.126426,35.929252],[134.305181,35.632874],[134.335617,35.51903],[134.202068,35.649773],[134.182838,35.702508],[134.126426,35.929252]]]},"properties":{}}},
    {"code":1161618,"id":"d32279","name":"福部","original_name":"福部","name_kana":"ふくべ","closed":false,"lat":35.545512,"lng":134.287239,"prefecture":31,"lines":[11616],"attr":"eco","postal_code":"689-0111","address":"鳥取市福部町栗谷","voronoi":{"type":"Feature","geometry":{"type":"Polygon","coordinates":[[[134.229676,35.551728],[134.271898,35.501497],[134.333914,35.473095],[134.358144,35.467403],[134.364653,35.469145],[134.365096,35.46931],[134.335617,35.51903],[134.202068,35.649773],[134.213587,35.60242],[134.229676,35.551728]]]},"properties":{}}},
    {"code":1161619,"id":"43430c","name":"鳥取","original_name":"鳥取","name_kana":"とっとり","closed":false,"lat":35.493953,"lng":134.225901,"prefecture":31,"lines":[11616,11704],"attr":"eco","postal_code":"680-0835","address":"鳥取市東品治町","voronoi":{"type":"Feature","geometry":{"type":"Polygon","coordinates":[[[134.192587,35.446665],[134.17823,35.447082],[134.229676,35.551728],[134.271898,35.501497],[134.192587,35.446665]]]},"properties":{}}},
    {"code":1161620,"id":"9e76f6","name":"湖山","original_name":"湖山","name_kana":"こやま","closed":false,"lat":35.513455,"lng":134.186232,"prefecture":31,"lines":[11616],"attr":"eco","postal_code":"680-0942","address":"鳥取市湖山町東１","voronoi":{"type":"Feature","geometry":{"type":"Polygon","coordinates":[[[134.15048,35.438258],[134.17823,35.447082],[134.229676,35.551728],[134.213587,35.60242],[134.15048,35.438258]]]},"properties":{}}},
    {"code":1161621,"id":"9f7370","name":"鳥取大学前","original_name":"鳥取大学前","name_kana":"とっとりだいがくまえ","closed":false,"lat":35.51804,"lng":134.174305,"prefecture":31,"lines":[11616],"attr":"eco","postal_code":"680-0945","address":"鳥取市湖山町南五丁目１９９-２２","voronoi":{"type":"Feature","geometry":{"type":"Polygon","coordinates":[[[134.202068,35.649773],[134.182838,35.702508],[134.141805,35.434746],[134.15048,35.438258],[134.213587,35.60242],[134.202068,35.649773]]]},"properties":{}}},
    {"code":1161622,"id":"7d8a79","name":"末恒","original_name":"末恒","name_kana":"すえつね","closed":false,"lat":35.52395,"lng":134.135739,"prefecture":31,"lines":[11616],"attr":"eco","postal_code":"689-0201","address":"鳥取市伏野","voronoi":{"type":"Feature","geometry":{"type":"Polygon","coordinates":[[[134.12605,35.42386],[134.047074,35.858762],[134.026681,36.228388],[134.126426,35.929252],[134.182838,35.702508],[134.141805,35.434746],[134.12605,35.42386]]]},"properties":{}}},
    {"code":1161623,"id":"25f987","name":"宝木","original_name":"宝木","name_kana":"ほうぎ","closed":false,"lat":35.514153,"lng":134.081789,"prefecture":31,"lines":[11616],"attr":"eco","postal_code":"689-0216","address":"鳥取市気高町宝木","voronoi":{"type":"Feature","geometry":{"type":"Polygon","coordinates":[[[134.047074,35.858762],[134.042542,35.670875],[134.084743,35.388013],[134.11753,35.413537],[134.12605,35.42386],[134.047074,35.858762]]]},"properties":{}}},
    {"code":1161624,"id":"a13369","name":"浜村","original_name":"浜村","name_kana":"はまむら","closed":false,"lat":35.509522,"lng":134.050749,"prefecture":31,"lines":[11616],"attr":"eco","postal_code":"689-0332","address":"鳥取市気高町勝見","voronoi":{"type":"Feature","geometry":{"type":"Polygon","coordinates":[[[134.084743,35.388013],[134.042542,35.670875],[134.006838,35.378222],[134.015376,35.347112],[134.029099,35.348274],[134.042304,35.350719],[134.062275,35.36551],[134.084743,35.388013]]]},"properties":{}}},
    {"code":1161625,"id":"606cb3","name":"青谷","original_name":"青谷","name_kana":"あおや","closed":false,"lat":35.516228,"lng":133.995782,"prefecture":31,"lines":[11616],"attr":"eco","postal_code":"689-0501","address":"鳥取市青谷町青谷","voronoi":{"type":"Feature","geometry":{"type":"Polygon","coordinates":[[[134.006838,35.378222],[133.974687,35.441638],[133.807921,36.828826],[133.811878,37.173966],[134.026681,36.228388],[134.047074,35.858762],[134.042542,35.670875],[134.006838,35.378222]]]},"properties":{}}},
    {"code":1161626,"id":"6a2aba","name":"泊(鳥取)","original_name":"泊","name_kana":"とまり","closed":false,"lat":35.509103,"lng":133.936515,"prefecture":31,"lines":[11616],"attr":"eco","postal_code":"689-0605","address":"東伯郡湯梨浜町園","voronoi":{"type":"Feature","geometry":{"type":"Polygon","coordinates":[[[133.792006,36.098151],[133.796297,36.486803],[133.807921,36.828826],[133.974687,35.441638],[133.86419,35.535911],[133.820462,35.740829],[133.797111,35.966265],[133.792006,36.098151]]]},"properties":{}}},
    {"code":1161627,"id":"fd0d54","name":"松崎(鳥取)","original_name":"松崎","name_kana":"まつざき","closed":false,"lat":35.46871,"lng":133.902053,"prefecture":31,"lines":[11616],"attr":"eco","postal_code":"689-0712","address":"東伯郡湯梨浜町中興寺","voronoi":{"type":"Feature","geometry":{"type":"Polygon","coordinates":[[[133.861366,35.516028],[133.885499,35.425585],[133.944785,35.302189],[134.015376,35.347112],[134.006838,35.378222],[133.974687,35.441638],[133.86419,35.535911],[133.861366,35.516028]]]},"properties":{}}},
    {"code":1161628,"id":"faefc8","name":"倉吉","original_name":"倉吉","name_kana":"くらよし","closed":false,"lat":35.45473,"lng":133.849661,"prefecture":31,"lines":[11616,10701],"attr":"eco","postal_code":"682-0022","address":"倉吉市上井町","voronoi":{"type":"Feature","geometry":{"type":"Polygon","coordinates":[[[133.885499,35.425585],[133.826836,35.457301],[133.824199,35.460587],[133.861366,35.516028],[133.885499,35.425585]]]},"properties":{}}},
    {"code":1161629,"id":"aa9a84","name":"下北条","original_name":"下北条","name_kana":"しもほうじょう","closed":false,"lat":35.481915,"lng":133.809109,"prefecture":31,"lines":[11616],"attr":"eco","postal_code":"689-2114","address":"東伯郡北栄町北尾","voronoi":{"type":"Feature","geometry":{"type":"Polygon","coordinates":[[[133.820462,35.740829],[133.777306,35.456917],[133.805794,35.454655],[133.824199,35.460587],[133.861366,35.516028],[133.86419,35.535911],[133.820462,35.740829]]]},"properties":{}}},
    {"code":1161630,"id":"735849","name":"由良","original_name":"由良","name_kana":"ゆら","closed":false,"lat":35.490236,"lng":133.754367,"prefecture":31,"lines":[11616],"attr":"eco","postal_code":"689-2221","address":"東伯郡北栄町由良宿","voronoi":{"type":"Feature","geometry":{"type":"Polygon","coordinates":[[[133.730633,35.430266],[133.714477,35.434198],[133.797111,35.966265],[133.820462,35.740829],[133.777306,35.456917],[133.754276,35.438499],[133.730821,35.430267],[133.730633,35.430266]]]},"properties":{}}},
    {"code":1161631,"id":"052640","name":"浦安(鳥取)","original_name":"浦安","name_kana":"うらやす","closed":false,"lat":35.499695,"lng":133.693462,"prefecture":31,"lines":[11616],"attr":"cool","postal_code":"689-2303","address":"東伯郡琴浦町徳万","voronoi":{"type":"Feature","geometry":{"type":"Polygon","coordinates":[[[133.792006,36.098151],[133.785979,36.070273],[133.670098,35.426636],[133.692775,35.429213],[133.714477,35.434198],[133.797111,35.966265],[133.792006,36.098151]]]},"properties":{}}},
    {"code":1161632,"id":"c6496c","name":"八橋","original_name":"八橋","name_kana":"やばせ","closed":false,"lat":35.503256,"lng":133.673683,"prefecture":31,"lines":[11616],"attr":"cool","postal_code":"689-2301","address":"東伯郡琴浦町八橋","voronoi":{"type":"Feature","geometry":{"type":"Polygon","coordinates":[[[133.632886,35.417349],[133.670098,35.426636],[133.785979,36.070273],[133.632886,35.417349]]]},"properties":{}}},
    {"code":1161633,"id":"ed8e87","name":"赤碕","original_name":"赤碕","name_kana":"あかさき","closed":false,"lat":35.512437,"lng":133.634527,"prefecture":31,"lines":[11616],"attr":"cool","postal_code":"689-2501","address":"東伯郡琴浦町赤碕","voronoi":{"type":"Feature","geometry":{"type":"Polygon","coordinates":[[[133.792006,36.098151],[133.796297,36.486803],[133.589369,35.395918],[133.632886,35.417349],[133.785979,36.070273],[133.792006,36.098151]]]},"properties":{}}},
    {"code":1161634,"id":"179905","name":"中山口","original_name":"中山口","name_kana":"なかやまぐち","closed":false,"lat":35.52088,"lng":133.590017,"prefecture":31,"lines":[11616],"attr":"cool","postal_code":"689-3114","address":"西伯郡大山町田中","voronoi":{"type":"Feature","geometry":{"type":"Polygon","coordinates":[[[133.796297,36.486803],[133.807921,36.828826],[133.811878,37.173966],[133.724798,38.029584],[133.625944,38.875631],[133.479879,36.651815],[133.588947,35.395604],[133.589369,35.395918],[133.796297,36.486803]]]},"properties":{}}},
    {"code":1161635,"id":"72489f","name":"下市","original_name":"下市","name_kana":"しもいち","closed":false,"lat":35.518821,"lng":133.566302,"prefecture":31,"lines":[11616],"attr":"cool","postal_code":"689-3124","address":"西伯郡大山町上市","voronoi":{"type":"Feature","geometry":{"type":"Polygon","coordinates":[[[133.453095,36.300363],[133.54635,35.402165],[133.546983,35.398091],[133.557785,35.389801],[133.575687,35.383616],[133.588947,35.395604],[133.479879,36.651815],[133.453095,36.300363]]]},"properties":{}}},
    {"code":1161636,"id":"f2fc2e","name":"御来屋","original_name":"御来屋","name_kana":"みくりや","closed":false,"lat":35.512234,"lng":133.502858,"prefecture":31,"lines":[11616],"attr":"cool","postal_code":"689-3205","address":"西伯郡大山町西坪","voronoi":{"type":"Feature","geometry":{"type":"Polygon","coordinates":[[[133.388574,35.748842],[133.453095,36.300363],[133.54635,35.402165],[133.388574,35.748842]]]},"properties":{}}},
    {"code":1161637,"id":"ef0d35","name":"名和(鳥取)","original_name":"名和","name_kana":"なわ","closed":false,"lat":35.507256,"lng":133.49192,"prefecture":31,"lines":[11616],"attr":"cool","postal_code":"689-3211","address":"西伯郡大山町御来屋","voronoi":{"type":"Feature","geometry":{"type":"Polygon","coordinates":[[[133.546983,35.398091],[133.533068,35.40304],[133.375173,35.653286],[133.388574,35.748842],[133.54635,35.402165],[133.546983,35.398091]]]},"properties":{}}},
    {"code":1161638,"id":"36557d","name":"大山口","original_name":"大山口","name_kana":"だいせんぐち","closed":false,"lat":35.485045,"lng":133.456718,"prefecture":31,"lines":[11616],"attr":"heat","postal_code":"689-3309","address":"西伯郡大山町国信","voronoi":{"type":"Feature","geometry":{"type":"Polygon","coordinates":[[[133.365391,35.61425],[133.36751,35.623383],[133.375173,35.653286],[133.533068,35.40304],[133.51032,35.406591],[133.367418,35.543895],[133.362186,35.571882],[133.360494,35.58744],[133.360829,35.589828],[133.362565,35.6004],[133.365391,35.61425]]]},"properties":{}}},
    {"code":1161639,"id":"22c99d","name":"淀江","original_name":"淀江","name_kana":"よどえ","closed":false,"lat":35.457017,"lng":133.429788,"prefecture":31,"lines":[11616],"attr":"heat","postal_code":"689-3402","address":"米子市淀江町淀江","voronoi":{"type":"Feature","geometry":{"type":"Polygon","coordinates":[[[133.478652,35.40497],[133.51032,35.406591],[133.367418,35.543895],[133.367426,35.540086],[133.37104,35.50456],[133.419623,35.422177],[133.478652,35.40497]]]},"properties":{}}},
    {"code":1161640,"id":"42f652","name":"伯耆大山","original_name":"伯耆大山","name_kana":"ほうきだいせん","closed":false,"lat":35.430142,"lng":133.384216,"prefecture":31,"lines":[11616,11703],"attr":"heat","postal_code":"689-3543","address":"米子市蚊屋","voronoi":{"type":"Feature","geometry":{"type":"Polygon","coordinates":[[[133.367319,35.391316],[133.36932,35.49712],[133.369885,35.500151],[133.37104,35.50456],[133.419623,35.422177],[133.367319,35.391316]]]},"properties":{}}},
    {"code":1161641,"id":"a14353","name":"東山公園(鳥取)","original_name":"東山公園","name_kana":"ひがしやまこうえん","closed":false,"lat":35.430753,"lng":133.351902,"prefecture":31,"lines":[11616,11703],"attr":"heat","postal_code":"683-0006","address":"米子市車尾","voronoi":{"type":"Feature","geometry":{"type":"Polygon","coordinates":[[[133.367319,35.391316],[133.36932,35.49712],[133.349244,35.452441],[133.346558,35.441778],[133.345281,35.424869],[133.363882,35.386758],[133.367319,35.391316]]]},"properties":{}}},
    {"code":1161642,"id":"0bd38f","name":"米子","original_name":"米子","name_kana":"よなご","closed":false,"lat":35.42327,"lng":133.33657,"prefecture":31,"lines":[11616,11701,11703,11705],"attr":"heat","postal_code":"683-0036","address":"米子市弥生町","voronoi":{"type":"Feature","geometry":{"type":"Polygon","coordinates":[[[133.325187,35.308258],[133.290701,35.30747],[133.297308,35.415541],[133.31384,35.42529],[133.325529,35.428992],[133.334029,35.428949],[133.345281,35.424869],[133.363882,35.386758],[133.325187,35.308258]]]},"properties":{}}}
  ]
}