{
  "code":11635,
  "id":"b7db06",
  "name":"JR播但線",
  "name_kana":"じぇいあーるばんたんせん",
  "station_size":18,
  "company_code":4,
  "closed":false,
  "color":"#A52F5D",
  "symbol":"J",
  "station_list":[
    {"code":100304,"id":"4491da","name":"姫路","original_name":"姫路","name_kana":"ひめじ","closed":false,"lat":34.827659,"lng":134.690769,"prefecture":28,"lines":[1003,11608,11609,11633,11635],"attr":"cool","postal_code":"670-0927","address":"姫路市駅前町御殿前","voronoi":{"type":"Feature","geometry":{"type":"Polygon","coordinates":[[[134.686402,34.823379],[134.697292,34.810302],[134.699252,34.810424],[134.701361,34.824301],[134.695769,34.835929],[134.686402,34.823379]]]},"properties":{}}},
    {"code":1163505,"id":"098a1c","name":"京口","original_name":"京口","name_kana":"きょうぐち","closed":false,"lat":34.834672,"lng":134.70535,"prefecture":28,"lines":[11635],"attr":"eco","postal_code":"670-0841","address":"姫路市城東町","voronoi":{"type":"Feature","geometry":{"type":"Polygon","coordinates":[[[134.690509,34.850297],[134.695769,34.835929],[134.701361,34.824301],[134.725194,34.840764],[134.690509,34.850297]]]},"properties":{}}},
    {"code":1163506,"id":"85f1cc","name":"野里","original_name":"野里","name_kana":"のざと","closed":false,"lat":34.856142,"lng":134.711251,"prefecture":28,"lines":[11635],"attr":"eco","postal_code":"670-0805","address":"姫路市西中島","voronoi":{"type":"Feature","geometry":{"type":"Polygon","coordinates":[[[134.725194,34.840764],[134.730527,34.840969],[134.732502,34.84219],[134.703861,34.880011],[134.677213,34.89569],[134.677125,34.878],[134.682984,34.856345],[134.690509,34.850297],[134.725194,34.840764]]]},"properties":{}}},
    {"code":1163507,"id":"e6658d","name":"砥堀","original_name":"砥堀","name_kana":"とほり","closed":false,"lat":34.866427,"lng":134.724833,"prefecture":28,"lines":[11635],"attr":"eco","postal_code":"670-0802","address":"姫路市砥堀","voronoi":{"type":"Feature","geometry":{"type":"Polygon","coordinates":[[[134.769252,34.850101],[134.732502,34.84219],[134.703861,34.880011],[134.779894,34.865866],[134.782716,34.856399],[134.769252,34.850101]]]},"properties":{}}},
    {"code":1163508,"id":"e238c8","name":"仁豊野","original_name":"仁豊野","name_kana":"にぶの","closed":false,"lat":34.885144,"lng":134.728315,"prefecture":28,"lines":[11635],"attr":"eco","postal_code":"670-0801","address":"姫路市仁豊野","voronoi":{"type":"Feature","geometry":{"type":"Polygon","coordinates":[[[134.779894,34.865866],[134.777652,34.885112],[134.670376,34.916095],[134.677213,34.89569],[134.703861,34.880011],[134.779894,34.865866]]]},"properties":{}}},
    {"code":1163509,"id":"0ddee7","name":"香呂","original_name":"香呂","name_kana":"こうろ","closed":false,"lat":34.911389,"lng":134.735895,"prefecture":28,"lines":[11635],"attr":"eco","postal_code":"679-2144","address":"姫路市香寺町中屋","voronoi":{"type":"Feature","geometry":{"type":"Polygon","coordinates":[[[134.647019,34.955704],[134.670376,34.916095],[134.777652,34.885112],[134.780481,34.902152],[134.780494,34.903416],[134.647019,34.955704]]]},"properties":{}}},
    {"code":1163510,"id":"b71074","name":"溝口","original_name":"溝口","name_kana":"みぞぐち","closed":false,"lat":34.927859,"lng":134.742347,"prefecture":28,"lines":[11635],"attr":"eco","postal_code":"679-2161","address":"姫路市香寺町溝口","voronoi":{"type":"Feature","geometry":{"type":"Polygon","coordinates":[[[134.647019,34.955704],[134.645484,34.957846],[134.642786,34.963559],[134.642561,34.970471],[134.786915,34.934045],[134.780494,34.903416],[134.647019,34.955704]]]},"properties":{}}},
    {"code":1163511,"id":"b47b2f","name":"福崎","original_name":"福崎","name_kana":"ふくさき","closed":false,"lat":34.960637,"lng":134.750618,"prefecture":28,"lines":[11635],"attr":"eco","postal_code":"679-2212","address":"神崎郡福崎町福田","voronoi":{"type":"Feature","geometry":{"type":"Polygon","coordinates":[[[134.675143,34.997224],[134.636968,34.999703],[134.642561,34.970471],[134.786915,34.934045],[134.788074,34.93577],[134.797951,34.961917],[134.675143,34.997224]]]},"properties":{}}},
    {"code":1163512,"id":"ec5d0d","name":"甘地","original_name":"甘地","name_kana":"あまじ","closed":false,"lat":34.98814,"lng":134.758525,"prefecture":28,"lines":[11635],"attr":"eco","postal_code":"679-2323","address":"神崎郡市川町甘地","voronoi":{"type":"Feature","geometry":{"type":"Polygon","coordinates":[[[134.675143,34.997224],[134.797951,34.961917],[134.839712,35.014831],[134.675143,34.997224]]]},"properties":{}}},
    {"code":1163513,"id":"c36c7a","name":"鶴居","original_name":"鶴居","name_kana":"つるい","closed":false,"lat":35.023742,"lng":134.754716,"prefecture":28,"lines":[11635],"attr":"eco","postal_code":"679-2334","address":"神崎郡市川町鶴居","voronoi":{"type":"Feature","geometry":{"type":"Polygon","coordinates":[[[134.873724,35.046958],[134.873725,35.047123],[134.707099,35.033095],[134.630872,35.012155],[134.636968,34.999703],[134.675143,34.997224],[134.839712,35.014831],[134.872518,35.041996],[134.873724,35.046958]]]},"properties":{}}},
    {"code":1163514,"id":"43aaea","name":"新野(兵庫)","original_name":"新野","name_kana":"にいの","closed":false,"lat":35.050278,"lng":134.752482,"prefecture":28,"lines":[11635],"attr":"heat","postal_code":"679-3114","address":"神崎郡神河町新野","voronoi":{"type":"Feature","geometry":{"type":"Polygon","coordinates":[[[134.707099,35.033095],[134.795139,35.086596],[134.826465,35.088651],[134.87396,35.073186],[134.8742,35.051256],[134.873725,35.047123],[134.707099,35.033095]]]},"properties":{}}},
    {"code":1163515,"id":"1419cf","name":"寺前","original_name":"寺前","name_kana":"てらまえ","closed":false,"lat":35.065462,"lng":134.743255,"prefecture":28,"lines":[11635],"attr":"heat","postal_code":"679-3112","address":"神崎郡神河町鍛治","voronoi":{"type":"Feature","geometry":{"type":"Polygon","coordinates":[[[134.567601,35.107987],[134.567805,35.10721],[134.580929,35.080639],[134.630872,35.012155],[134.707099,35.033095],[134.795139,35.086596],[134.567601,35.107987]]]},"properties":{}}},
    {"code":1163516,"id":"5b4038","name":"長谷(兵庫)","original_name":"長谷","name_kana":"はせ","closed":false,"lat":35.117029,"lng":134.748103,"prefecture":28,"lines":[11635],"attr":"heat","postal_code":"679-3102","address":"神崎郡神河町栗","voronoi":{"type":"Feature","geometry":{"type":"Polygon","coordinates":[[[134.692777,35.207748],[134.826465,35.088651],[134.795139,35.086596],[134.567601,35.107987],[134.547769,35.154915],[134.546127,35.173382],[134.550012,35.195605],[134.585469,35.249953],[134.692777,35.207748]]]},"properties":{}}},
    {"code":1163517,"id":"6e2154","name":"生野(兵庫)","original_name":"生野","name_kana":"いくの","closed":false,"lat":35.163227,"lng":134.789259,"prefecture":28,"lines":[11635],"attr":"heat","postal_code":"679-3301","address":"朝来市生野町口銀谷","voronoi":{"type":"Feature","geometry":{"type":"Polygon","coordinates":[[[134.917281,35.189906],[134.692777,35.207748],[134.826465,35.088651],[134.87396,35.073186],[134.923042,35.165155],[134.927106,35.174071],[134.927627,35.187664],[134.917281,35.189906]]]},"properties":{}}},
    {"code":1163518,"id":"f8c8f4","name":"新井(兵庫)","original_name":"新井","name_kana":"にい","closed":false,"lat":35.236471,"lng":134.79508,"prefecture":28,"lines":[11635],"attr":"heat","postal_code":"679-3431","address":"朝来市新井","voronoi":{"type":"Feature","geometry":{"type":"Polygon","coordinates":[[[134.692777,35.207748],[134.585469,35.249953],[134.602225,35.311071],[134.683087,35.317291],[134.917281,35.189906],[134.692777,35.207748]]]},"properties":{}}},
    {"code":1163519,"id":"545a48","name":"青倉","original_name":"青倉","name_kana":"あおくら","closed":false,"lat":35.26719,"lng":134.811789,"prefecture":28,"lines":[11635],"attr":"cool","postal_code":"679-3401","address":"朝来市物部","voronoi":{"type":"Feature","geometry":{"type":"Polygon","coordinates":[[[134.683087,35.317291],[134.692211,35.319176],[134.775442,35.319226],[134.906821,35.21993],[134.929514,35.191815],[134.927627,35.187664],[134.917281,35.189906],[134.683087,35.317291]]]},"properties":{}}},
    {"code":1163520,"id":"938b29","name":"竹田(兵庫)","original_name":"竹田","name_kana":"たけだ","closed":false,"lat":35.298459,"lng":134.835422,"prefecture":28,"lines":[11635],"attr":"cool","postal_code":"669-5252","address":"朝来市和田山町竹田","voronoi":{"type":"Feature","geometry":{"type":"Polygon","coordinates":[[[134.775442,35.319226],[134.812681,35.331339],[134.855455,35.315457],[134.906821,35.21993],[134.775442,35.319226]]]},"properties":{}}},
    {"code":1161519,"id":"e58f15","name":"和田山","original_name":"和田山","name_kana":"わだやま","closed":false,"lat":35.34141,"lng":134.85137,"prefecture":28,"lines":[11615,11635],"attr":"eco","postal_code":"669-5202","address":"朝来市和田山町東谷","voronoi":{"type":"Feature","geometry":{"type":"Polygon","coordinates":[[[134.812681,35.331339],[134.855455,35.315457],[134.891389,35.372042],[134.891066,35.435283],[134.812681,35.331339]]]},"properties":{}}}
  ]
}