{
  "code":11639,
  "id":157,
  "name":"JR紀勢本線(きのくに線)(新宮～和歌山)",
  "name_kana":"じぇいあーるきせいほんせん",
  "name_formal":"JR紀勢本線(新宮～和歌山)",
  "station_size":54,
  "company_code":4,
  "closed":false,
  "color":"#00B1C2",
  "symbol":"W",
  "station_list":[
    {"code":1151041,"id":2708,"name":"新宮","original_name":"新宮","name_kana":"しんぐう","closed":false,"lat":33.725119,"lng":135.994099,"prefecture":30,"lines":[11510,11639],"attr":"cool","postal_code":"647-0081","address":"新宮市新宮","voronoi":{"type":"Feature","geometry":{"type":"Polygon","coordinates":[[[135.73667,33.935699],[135.696974,33.902809],[135.697067,33.889377],[135.697812,33.874231],[135.821106,33.786787],[135.956938,33.715754],[136.021951,33.698949],[135.989419,33.759231],[135.897058,33.83845],[135.73667,33.935699]]]},"properties":{}}},
    {"code":1163902,"id":3297,"name":"三輪崎","original_name":"三輪崎","name_kana":"みわさき","closed":false,"lat":33.689554,"lng":135.984906,"prefecture":30,"lines":[11639],"attr":"eco","postal_code":"647-0061","address":"新宮市三輪崎","voronoi":{"type":"Feature","geometry":{"type":"Polygon","coordinates":[[[135.956938,33.715754],[136.021951,33.698949],[136.265589,33.541199],[135.985604,33.672861],[135.956938,33.715754]]]},"properties":{}}},
    {"code":1163903,"id":3298,"name":"紀伊佐野","original_name":"紀伊佐野","name_kana":"きいさの","closed":false,"lat":33.679891,"lng":135.970447,"prefecture":30,"lines":[11639],"attr":"eco","postal_code":"647-0071","address":"新宮市佐野","voronoi":{"type":"Feature","geometry":{"type":"Polygon","coordinates":[[[135.985604,33.672861],[135.956938,33.715754],[135.821106,33.786787],[135.946365,33.668614],[135.985604,33.672861]]]},"properties":{}}},
    {"code":1163904,"id":3299,"name":"宇久井","original_name":"宇久井","name_kana":"うくい","closed":false,"lat":33.662751,"lng":135.972302,"prefecture":30,"lines":[11639],"attr":"eco","postal_code":"649-5312","address":"東牟婁郡那智勝浦町大字宇久井","voronoi":{"type":"Feature","geometry":{"type":"Polygon","coordinates":[[[136.265589,33.541199],[135.985604,33.672861],[135.946365,33.668614],[135.959854,33.642978],[136.047144,33.566095],[137.327886,32.763135],[137.158223,32.985661],[136.953229,33.140203],[136.265589,33.541199]]]},"properties":{}}},
    {"code":1163905,"id":3300,"name":"那智","original_name":"那智","name_kana":"なち","closed":false,"lat":33.643917,"lng":135.936508,"prefecture":30,"lines":[11639],"attr":"eco","postal_code":"649-5314","address":"東牟婁郡那智勝浦町大字浜ノ宮","voronoi":{"type":"Feature","geometry":{"type":"Polygon","coordinates":[[[135.821106,33.786787],[135.697812,33.874231],[135.688605,33.783844],[135.71476,33.732259],[135.764716,33.686221],[135.944639,33.637866],[135.959854,33.642978],[135.946365,33.668614],[135.821106,33.786787]]]},"properties":{}}},
    {"code":1163906,"id":3301,"name":"紀伊天満","original_name":"紀伊天満","name_kana":"きいてんま","closed":false,"lat":33.636706,"lng":135.93457,"prefecture":30,"lines":[11639],"attr":"eco","postal_code":"649-5331","address":"東牟婁郡那智勝浦町大字天満","voronoi":{"type":"Feature","geometry":{"type":"Polygon","coordinates":[[[135.764716,33.686221],[135.944639,33.637866],[135.927969,33.623786],[135.773457,33.677818],[135.764716,33.686221]]]},"properties":{}}},
    {"code":1163907,"id":3302,"name":"紀伊勝浦","original_name":"紀伊勝浦","name_kana":"きいかつうら","closed":false,"lat":33.628133,"lng":135.941811,"prefecture":30,"lines":[11639],"attr":"eco","postal_code":"649-5334","address":"東牟婁郡那智勝浦町大字勝浦","voronoi":{"type":"Feature","geometry":{"type":"Polygon","coordinates":[[[135.959854,33.642978],[135.944639,33.637866],[135.927969,33.623786],[135.95027,33.603688],[136.047144,33.566095],[135.959854,33.642978]]]},"properties":{}}},
    {"code":1163908,"id":3303,"name":"湯川","original_name":"湯川","name_kana":"ゆかわ","closed":false,"lat":33.609568,"lng":135.92508,"prefecture":30,"lines":[11639],"attr":"eco","postal_code":"649-5338","address":"東牟婁郡那智勝浦町大字二河","voronoi":{"type":"Feature","geometry":{"type":"Polygon","coordinates":[[[135.906125,33.597737],[135.95027,33.603688],[135.927969,33.623786],[135.773457,33.677818],[135.786392,33.663027],[135.886008,33.599921],[135.906125,33.597737]]]},"properties":{}}},
    {"code":1163909,"id":3304,"name":"太地","original_name":"太地","name_kana":"たいじ","closed":false,"lat":33.591348,"lng":135.927536,"prefecture":30,"lines":[11639],"attr":"eco","postal_code":"649-5172","address":"東牟婁郡太地町大字森浦","voronoi":{"type":"Feature","geometry":{"type":"Polygon","coordinates":[[[135.906125,33.597737],[135.95027,33.603688],[136.047144,33.566095],[137.327886,32.763135],[137.331661,32.758442],[135.906125,33.597737]]]},"properties":{}}},
    {"code":1163910,"id":3305,"name":"下里","original_name":"下里","name_kana":"しもさと","closed":false,"lat":33.582115,"lng":135.9221,"prefecture":30,"lines":[11639],"attr":"eco","postal_code":"649-5142","address":"東牟婁郡那智勝浦町大字下里","voronoi":{"type":"Feature","geometry":{"type":"Polygon","coordinates":[[[138.419563,31.414787],[137.331661,32.758442],[135.906125,33.597737],[135.886008,33.599921],[136.142876,33.266154],[138.956031,29.937563],[138.419563,31.414787]]]},"properties":{}}},
    {"code":1163911,"id":3306,"name":"紀伊浦神","original_name":"紀伊浦神","name_kana":"きいうらがみ","closed":false,"lat":33.560473,"lng":135.893979,"prefecture":30,"lines":[11639],"attr":"eco","postal_code":"649-5145","address":"東牟婁郡那智勝浦町大字浦神","voronoi":{"type":"Feature","geometry":{"type":"Polygon","coordinates":[[[136.142876,33.266154],[135.805236,33.630248],[135.786392,33.663027],[135.886008,33.599921],[136.142876,33.266154]]]},"properties":{}}},
    {"code":1163912,"id":3307,"name":"紀伊田原","original_name":"紀伊田原","name_kana":"きいたはら","closed":false,"lat":33.536504,"lng":135.868132,"prefecture":30,"lines":[11639],"attr":"eco","postal_code":"649-4112","address":"東牟婁郡串本町田原","voronoi":{"type":"Feature","geometry":{"type":"Polygon","coordinates":[[[135.885723,33.419613],[135.805236,33.630248],[136.142876,33.266154],[138.956031,29.937563],[139.6427,28.089771],[135.885723,33.419613]]]},"properties":{}}},
    {"code":1163913,"id":3308,"name":"古座","original_name":"古座","name_kana":"こざ","closed":false,"lat":33.518449,"lng":135.820882,"prefecture":30,"lines":[11639],"attr":"eco","postal_code":"649-4122","address":"東牟婁郡串本町西向","voronoi":{"type":"Feature","geometry":{"type":"Polygon","coordinates":[[[135.71476,33.732259],[135.764716,33.686221],[135.773457,33.677818],[135.786392,33.663027],[135.805236,33.630248],[135.885723,33.419613],[135.879357,33.42544],[135.75856,33.566145],[135.719601,33.685774],[135.71476,33.732259]]]},"properties":{}}},
    {"code":1163914,"id":3309,"name":"紀伊姫","original_name":"紀伊姫","name_kana":"きいひめ","closed":false,"lat":33.497321,"lng":135.796272,"prefecture":30,"lines":[11639],"attr":"eco","postal_code":"649-4125","address":"東牟婁郡串本町姫","voronoi":{"type":"Feature","geometry":{"type":"Polygon","coordinates":[[[135.75856,33.566145],[135.765404,33.502236],[135.879357,33.42544],[135.75856,33.566145]]]},"properties":{}}},
    {"code":1163915,"id":3310,"name":"串本","original_name":"串本","name_kana":"くしもと","closed":false,"lat":33.47547,"lng":135.781546,"prefecture":30,"lines":[11639],"attr":"heat","postal_code":"649-3503","address":"東牟婁郡串本町串本","voronoi":{"type":"Feature","geometry":{"type":"LineString","coordinates":[[140.631983,20.0],[137.591045,23.379765],[135.108213,29.024275],[135.10081,29.070235],[135.679026,33.128127],[135.738587,33.423539],[135.765404,33.502236],[135.879357,33.42544],[135.885723,33.419613],[139.6427,28.089771],[142.722799,20.0]]},"properties":{}}},
    {"code":1163916,"id":3311,"name":"紀伊有田","original_name":"紀伊有田","name_kana":"きいありた","closed":false,"lat":33.490896,"lng":135.736277,"prefecture":30,"lines":[11639],"attr":"heat","postal_code":"649-3514","address":"東牟婁郡串本町有田","voronoi":{"type":"Feature","geometry":{"type":"Polygon","coordinates":[[[135.709051,33.602294],[135.738587,33.423539],[135.765404,33.502236],[135.75856,33.566145],[135.719601,33.685774],[135.709051,33.602294]]]},"properties":{}}},
    {"code":1163917,"id":3312,"name":"田並","original_name":"田並","name_kana":"たなみ","closed":false,"lat":33.488059,"lng":135.719107,"prefecture":30,"lines":[11639],"attr":"heat","postal_code":"649-3515","address":"東牟婁郡串本町田並","voronoi":{"type":"Feature","geometry":{"type":"Polygon","coordinates":[[[135.679026,33.128127],[135.702765,33.571545],[135.709051,33.602294],[135.738587,33.423539],[135.679026,33.128127]]]},"properties":{}}},
    {"code":1163918,"id":3313,"name":"田子","original_name":"田子","name_kana":"たこ","closed":false,"lat":33.490281,"lng":135.677603,"prefecture":30,"lines":[11639],"attr":"heat","postal_code":"649-3523","address":"東牟婁郡串本町和深","voronoi":{"type":"Feature","geometry":{"type":"Polygon","coordinates":[[[135.10081,29.070235],[134.996403,29.673122],[134.952747,30.785964],[135.300344,32.187454],[135.607931,33.37444],[135.702765,33.571545],[135.679026,33.128127],[135.10081,29.070235]]]},"properties":{}}},
    {"code":1163919,"id":3314,"name":"和深","original_name":"和深","name_kana":"わぶか","closed":false,"lat":33.501171,"lng":135.654969,"prefecture":30,"lines":[11639],"attr":"heat","postal_code":"649-3523","address":"東牟婁郡串本町和深","voronoi":{"type":"Feature","geometry":{"type":"Polygon","coordinates":[[[135.709051,33.602294],[135.702765,33.571545],[135.607931,33.37444],[135.670699,33.762113],[135.688605,33.783844],[135.71476,33.732259],[135.719601,33.685774],[135.709051,33.602294]]]},"properties":{}}},
    {"code":1163920,"id":3315,"name":"江住","original_name":"江住","name_kana":"えすみ","closed":false,"lat":33.509539,"lng":135.603286,"prefecture":30,"lines":[11639],"attr":"heat","postal_code":"649-3142","address":"西牟婁郡すさみ町江住","voronoi":{"type":"Feature","geometry":{"type":"Polygon","coordinates":[[[135.607931,33.37444],[135.300344,32.187454],[135.636493,33.728186],[135.670699,33.762113],[135.607931,33.37444]]]},"properties":{}}},
    {"code":1163921,"id":3316,"name":"見老津","original_name":"見老津","name_kana":"みろづ","closed":false,"lat":33.515577,"lng":135.575611,"prefecture":30,"lines":[11639],"attr":"heat","postal_code":"649-3141","address":"西牟婁郡すさみ町見老津","voronoi":{"type":"Feature","geometry":{"type":"Polygon","coordinates":[[[134.952747,30.785964],[134.890698,31.855013],[134.891461,31.886056],[135.595001,33.682647],[135.606372,33.701916],[135.636493,33.728186],[135.300344,32.187454],[134.952747,30.785964]]]},"properties":{}}},
    {"code":1163922,"id":3317,"name":"周参見","original_name":"周参見","name_kana":"すさみ","closed":false,"lat":33.546837,"lng":135.495784,"prefecture":30,"lines":[11639],"attr":"heat","postal_code":"649-2621","address":"西牟婁郡すさみ町周参見","voronoi":{"type":"Feature","geometry":{"type":"Polygon","coordinates":[[[135.595001,33.682647],[134.891461,31.886056],[134.891753,32.764754],[135.365945,33.456064],[135.595001,33.682647]]]},"properties":{}}},
    {"code":1163923,"id":3318,"name":"紀伊日置","original_name":"紀伊日置","name_kana":"きいひき","closed":false,"lat":33.58491,"lng":135.458122,"prefecture":30,"lines":[11639],"attr":"heat","postal_code":"649-2522","address":"西牟婁郡白浜町矢田","voronoi":{"type":"Feature","geometry":{"type":"Polygon","coordinates":[[[135.606372,33.701916],[135.595001,33.682647],[135.365945,33.456064],[135.45279,33.644733],[135.455352,33.647184],[135.606372,33.701916]]]},"properties":{}}},
    {"code":1163924,"id":3319,"name":"椿","original_name":"椿","name_kana":"つばき","closed":false,"lat":33.609879,"lng":135.403877,"prefecture":30,"lines":[11639],"attr":"heat","postal_code":"649-2326","address":"西牟婁郡白浜町椿","voronoi":{"type":"Feature","geometry":{"type":"Polygon","coordinates":[[[135.179915,33.577098],[135.165254,33.566401],[134.930055,33.361544],[134.915683,33.291308],[134.886165,33.074828],[134.89072,32.783162],[134.891753,32.764754],[135.365945,33.456064],[135.45279,33.644733],[135.179915,33.577098]]]},"properties":{}}},
    {"code":1163925,"id":3320,"name":"紀伊富田","original_name":"紀伊富田","name_kana":"きいとんだ","closed":false,"lat":33.652709,"lng":135.393261,"prefecture":30,"lines":[11639],"attr":"heat","postal_code":"649-2332","address":"西牟婁郡白浜町栄","voronoi":{"type":"Feature","geometry":{"type":"Polygon","coordinates":[[[135.45279,33.644733],[135.179915,33.577098],[135.234429,33.625684],[135.41354,33.67026],[135.455352,33.647184],[135.45279,33.644733]]]},"properties":{}}},
    {"code":1163926,"id":3321,"name":"白浜","original_name":"白浜","name_kana":"しらはま","closed":false,"lat":33.676259,"lng":135.3874,"prefecture":30,"lines":[11639],"attr":"heat","postal_code":"649-2201","address":"西牟婁郡白浜町堅田","voronoi":{"type":"Feature","geometry":{"type":"Polygon","coordinates":[[[135.234429,33.625684],[135.270052,33.662609],[135.284464,33.672578],[135.351109,33.70265],[135.377571,33.704412],[135.394077,33.698893],[135.41354,33.67026],[135.234429,33.625684]]]},"properties":{}}},
    {"code":1163927,"id":3322,"name":"朝来","original_name":"朝来","name_kana":"あっそ","closed":false,"lat":33.696774,"lng":135.417581,"prefecture":30,"lines":[11639],"attr":"heat","postal_code":"649-2105","address":"西牟婁郡上富田町朝来","voronoi":{"type":"Feature","geometry":{"type":"Polygon","coordinates":[[[135.394077,33.698893],[135.697067,33.889377],[135.697812,33.874231],[135.688605,33.783844],[135.670699,33.762113],[135.636493,33.728186],[135.606372,33.701916],[135.455352,33.647184],[135.41354,33.67026],[135.394077,33.698893]]]},"properties":{}}},
    {"code":1163928,"id":3323,"name":"紀伊新庄","original_name":"紀伊新庄","name_kana":"きいしんじょう","closed":false,"lat":33.720993,"lng":135.402355,"prefecture":30,"lines":[11639],"attr":"heat","postal_code":"646-0011","address":"田辺市新庄町","voronoi":{"type":"Feature","geometry":{"type":"Polygon","coordinates":[[[135.546091,33.954989],[135.377571,33.704412],[135.394077,33.698893],[135.697067,33.889377],[135.696974,33.902809],[135.546091,33.954989]]]},"properties":{}}},
    {"code":1163929,"id":3324,"name":"紀伊田辺","original_name":"紀伊田辺","name_kana":"きいたなべ","closed":false,"lat":33.733619,"lng":135.383581,"prefecture":30,"lines":[11639],"attr":"heat","postal_code":"646-0031","address":"田辺市湊塔ノ内","voronoi":{"type":"Feature","geometry":{"type":"Polygon","coordinates":[[[135.485141,33.978921],[135.351109,33.70265],[135.377571,33.704412],[135.546091,33.954989],[135.485141,33.978921]]]},"properties":{}}},
    {"code":1163930,"id":3325,"name":"芳養","original_name":"芳養","name_kana":"はや","closed":false,"lat":33.747323,"lng":135.355334,"prefecture":30,"lines":[11639],"attr":"heat","postal_code":"646-0056","address":"田辺市芳養町","voronoi":{"type":"Feature","geometry":{"type":"Polygon","coordinates":[[[135.351109,33.70265],[135.284464,33.672578],[135.484339,33.979292],[135.485141,33.978921],[135.351109,33.70265]]]},"properties":{}}},
    {"code":1163931,"id":3326,"name":"南部","original_name":"南部","name_kana":"みなべ","closed":false,"lat":33.767597,"lng":135.324223,"prefecture":30,"lines":[11639],"attr":"heat","postal_code":"645-0002","address":"日高郡みなべ町芝","voronoi":{"type":"Feature","geometry":{"type":"Polygon","coordinates":[[[135.441608,33.992011],[135.441013,33.991751],[135.439896,33.990736],[135.328486,33.86727],[135.270052,33.662609],[135.284464,33.672578],[135.484339,33.979292],[135.482278,33.980427],[135.457726,33.992462],[135.441608,33.992011]]]},"properties":{}}},
    {"code":1163932,"id":3327,"name":"岩代","original_name":"岩代","name_kana":"いわしろ","closed":false,"lat":33.780372,"lng":135.27948,"prefecture":30,"lines":[11639],"attr":"heat","postal_code":"645-0014","address":"日高郡みなべ町西岩代","voronoi":{"type":"Feature","geometry":{"type":"Polygon","coordinates":[[[135.270052,33.662609],[135.328486,33.86727],[135.279577,33.833715],[135.165254,33.566401],[135.179915,33.577098],[135.234429,33.625684],[135.270052,33.662609]]]},"properties":{}}},
    {"code":1163933,"id":3328,"name":"切目","original_name":"切目","name_kana":"きりめ","closed":false,"lat":33.796798,"lng":135.241072,"prefecture":30,"lines":[11639],"attr":"heat","postal_code":"649-1527","address":"日高郡印南町大字島田","voronoi":{"type":"Feature","geometry":{"type":"Polygon","coordinates":[[[134.930055,33.361544],[134.925286,33.510611],[135.251344,33.828021],[135.279577,33.833715],[135.165254,33.566401],[134.930055,33.361544]]]},"properties":{}}},
    {"code":1163934,"id":3329,"name":"印南","original_name":"印南","name_kana":"いなみ","closed":false,"lat":33.818592,"lng":135.219856,"prefecture":30,"lines":[11639],"attr":"heat","postal_code":"649-1534","address":"日高郡印南町大字印南","voronoi":{"type":"Feature","geometry":{"type":"Polygon","coordinates":[[[135.181807,33.848168],[134.919817,33.591321],[134.925286,33.510611],[135.251344,33.828021],[135.181807,33.848168]]]},"properties":{}}},
    {"code":1163935,"id":3330,"name":"稲原","original_name":"稲原","name_kana":"いなはら","closed":false,"lat":33.852823,"lng":135.229774,"prefecture":30,"lines":[11639],"attr":"heat","postal_code":"649-1532","address":"日高郡印南町大字印南原","voronoi":{"type":"Feature","geometry":{"type":"Polygon","coordinates":[[[135.181807,33.848168],[135.186226,33.858156],[135.439896,33.990736],[135.328486,33.86727],[135.279577,33.833715],[135.251344,33.828021],[135.181807,33.848168]]]},"properties":{}}},
    {"code":1163936,"id":3331,"name":"和佐","original_name":"和佐","name_kana":"わさ","closed":false,"lat":33.896954,"lng":135.206709,"prefecture":30,"lines":[11639],"attr":"heat","postal_code":"649-1443","address":"日高郡日高川町和佐","voronoi":{"type":"Feature","geometry":{"type":"Polygon","coordinates":[[[135.186226,33.858156],[135.439896,33.990736],[135.441013,33.991751],[135.282611,33.982232],[135.232933,33.972423],[135.220509,33.967842],[135.181836,33.883478],[135.181867,33.88121],[135.186226,33.858156]]]},"properties":{}}},
    {"code":1163937,"id":3332,"name":"道成寺","original_name":"道成寺","name_kana":"どうじょうじ","closed":false,"lat":33.911118,"lng":135.175811,"prefecture":30,"lines":[11639],"attr":"heat","postal_code":"649-1341","address":"御坊市藤田町藤井","voronoi":{"type":"Feature","geometry":{"type":"Polygon","coordinates":[[[135.181836,33.883478],[135.220509,33.967842],[135.181992,33.963366],[135.164113,33.926011],[135.169132,33.899911],[135.181836,33.883478]]]},"properties":{}}},
    {"code":1163938,"id":3333,"name":"御坊","original_name":"御坊","name_kana":"ごぼう","closed":false,"lat":33.907842,"lng":135.158773,"prefecture":30,"lines":[11639,99650],"attr":"heat","postal_code":"644-0012","address":"御坊市湯川町小松原","voronoi":{"type":"Feature","geometry":{"type":"Polygon","coordinates":[[[135.146655,33.904124],[135.138504,33.906601],[135.164113,33.926011],[135.169132,33.899911],[135.146655,33.904124]]]},"properties":{}}},
    {"code":1163939,"id":3334,"name":"紀伊内原","original_name":"紀伊内原","name_kana":"きいうちはら","closed":false,"lat":33.92578,"lng":135.145177,"prefecture":30,"lines":[11639],"attr":"heat","postal_code":"649-1202","address":"日高郡日高町大字萩原","voronoi":{"type":"Feature","geometry":{"type":"Polygon","coordinates":[[[135.179199,33.96397],[134.908762,33.858454],[134.908778,33.858121],[135.041473,33.884718],[135.12507,33.902557],[135.138504,33.906601],[135.164113,33.926011],[135.181992,33.963366],[135.179199,33.96397]]]},"properties":{}}},
    {"code":1163940,"id":3335,"name":"紀伊由良","original_name":"紀伊由良","name_kana":"きいゆら","closed":false,"lat":33.969028,"lng":135.128303,"prefecture":30,"lines":[11639],"attr":"heat","postal_code":"649-1111","address":"日高郡由良町大字里","voronoi":{"type":"Feature","geometry":{"type":"Polygon","coordinates":[[[134.897756,33.935326],[134.893141,34.012249],[135.005551,34.023209],[135.102255,34.026703],[135.179199,33.96397],[134.908762,33.858454],[134.897756,33.935326]]]},"properties":{}}},
    {"code":1163941,"id":3336,"name":"広川ビーチ","original_name":"広川ビーチ","name_kana":"ひろかわびーち","closed":false,"lat":34.012804,"lng":135.163994,"prefecture":30,"lines":[11639],"attr":"cool","postal_code":"643-0072","address":"有田郡広川町大字山本字中川","voronoi":{"type":"Feature","geometry":{"type":"Polygon","coordinates":[[[135.220509,33.967842],[135.181992,33.963366],[135.179199,33.96397],[135.102255,34.026703],[135.140896,34.047746],[135.141383,34.047701],[135.232933,33.972423],[135.220509,33.967842]]]},"properties":{}}},
    {"code":1163942,"id":3337,"name":"湯浅","original_name":"湯浅","name_kana":"ゆあさ","closed":false,"lat":34.03226,"lng":135.179992,"prefecture":30,"lines":[11639],"attr":"cool","postal_code":"643-0004","address":"有田郡湯浅町大字湯浅","voronoi":{"type":"Feature","geometry":{"type":"Polygon","coordinates":[[[135.173821,34.054842],[135.141383,34.047701],[135.232933,33.972423],[135.282611,33.982232],[135.173821,34.054842]]]},"properties":{}}},
    {"code":1163943,"id":3338,"name":"藤並","original_name":"藤並","name_kana":"ふじなみ","closed":false,"lat":34.057807,"lng":135.197043,"prefecture":30,"lines":[11639],"attr":"cool","postal_code":"643-0033","address":"有田郡有田川町明王寺","voronoi":{"type":"Feature","geometry":{"type":"Polygon","coordinates":[[[135.232015,34.101448],[135.315906,34.086369],[135.320873,34.083387],[135.441608,33.992011],[135.441013,33.991751],[135.282611,33.982232],[135.173821,34.054842],[135.207627,34.10038],[135.232015,34.101448]]]},"properties":{}}},
    {"code":1163944,"id":3339,"name":"紀伊宮原","original_name":"紀伊宮原","name_kana":"きいみやはら","closed":false,"lat":34.077928,"lng":135.169939,"prefecture":30,"lines":[11639],"attr":"cool","postal_code":"649-0435","address":"有田市宮原町滝川原","voronoi":{"type":"Feature","geometry":{"type":"Polygon","coordinates":[[[135.173821,34.054842],[135.141383,34.047701],[135.140896,34.047746],[135.14761,34.0854],[135.169719,34.102855],[135.189575,34.106993],[135.207627,34.10038],[135.173821,34.054842]]]},"properties":{}}},
    {"code":1163945,"id":3340,"name":"箕島","original_name":"箕島","name_kana":"みのしま","closed":false,"lat":34.086106,"lng":135.124074,"prefecture":30,"lines":[11639],"attr":"cool","postal_code":"649-0304","address":"有田市箕島","voronoi":{"type":"Feature","geometry":{"type":"Polygon","coordinates":[[[135.005551,34.023209],[135.102255,34.026703],[135.140896,34.047746],[135.14761,34.0854],[135.131718,34.100385],[135.005551,34.023209]]]},"properties":{}}},
    {"code":1163946,"id":3341,"name":"初島","original_name":"初島","name_kana":"はつしま","closed":false,"lat":34.100082,"lng":135.115525,"prefecture":30,"lines":[11639],"attr":"cool","postal_code":"649-0306","address":"有田市初島町浜","voronoi":{"type":"Feature","geometry":{"type":"Polygon","coordinates":[[[134.975323,34.163319],[135.067687,34.175424],[135.107704,34.164856],[135.118141,34.146818],[135.131718,34.100385],[135.005551,34.023209],[134.893141,34.012249],[134.857743,34.112677],[134.862137,34.140868],[134.975323,34.163319]]]},"properties":{}}},
    {"code":1163947,"id":3342,"name":"下津","original_name":"下津","name_kana":"しもつ","closed":false,"lat":34.108854,"lng":135.145524,"prefecture":30,"lines":[11639],"attr":"cool","postal_code":"649-0101","address":"海南市下津町下津","voronoi":{"type":"Feature","geometry":{"type":"Polygon","coordinates":[[[135.118141,34.146818],[135.131718,34.100385],[135.14761,34.0854],[135.169719,34.102855],[135.118141,34.146818]]]},"properties":{}}},
    {"code":1163948,"id":3343,"name":"加茂郷","original_name":"加茂郷","name_kana":"かもごう","closed":false,"lat":34.125794,"lng":135.159963,"prefecture":30,"lines":[11639],"attr":"cool","postal_code":"649-0122","address":"海南市下津町黒田","voronoi":{"type":"Feature","geometry":{"type":"Polygon","coordinates":[[[135.169719,34.102855],[135.118141,34.146818],[135.107704,34.164856],[135.143735,34.17016],[135.163404,34.161384],[135.189575,34.106993],[135.169719,34.102855]]]},"properties":{}}},
    {"code":1163949,"id":3344,"name":"冷水浦","original_name":"冷水浦","name_kana":"しみずうら","closed":false,"lat":34.141864,"lng":135.193361,"prefecture":30,"lines":[11639],"attr":"cool","postal_code":"642-0035","address":"海南市冷水","voronoi":{"type":"Feature","geometry":{"type":"Polygon","coordinates":[[[135.197604,34.15866],[135.232015,34.101448],[135.207627,34.10038],[135.189575,34.106993],[135.163404,34.161384],[135.187725,34.164443],[135.197604,34.15866]]]},"properties":{}}},
    {"code":1163950,"id":3345,"name":"海南","original_name":"海南","name_kana":"かいなん","closed":false,"lat":34.154536,"lng":135.21443,"prefecture":30,"lines":[11639],"attr":"cool","postal_code":"642-0032","address":"海南市名高","voronoi":{"type":"Feature","geometry":{"type":"Polygon","coordinates":[[[135.197604,34.15866],[135.232015,34.101448],[135.315906,34.086369],[135.271011,34.149732],[135.26486,34.155448],[135.245474,34.17],[135.243542,34.170849],[135.197604,34.15866]]]},"properties":{}}},
    {"code":1163951,"id":3346,"name":"黒江","original_name":"黒江","name_kana":"くろえ","closed":false,"lat":34.170584,"lng":135.210172,"prefecture":30,"lines":[11639],"attr":"cool","postal_code":"642-0012","address":"海南市岡田横山","voronoi":{"type":"Feature","geometry":{"type":"Polygon","coordinates":[[[135.220394,34.185802],[135.230088,34.181412],[135.243542,34.170849],[135.197604,34.15866],[135.187725,34.164443],[135.20613,34.188701],[135.207581,34.188816],[135.220394,34.185802]]]},"properties":{}}},
    {"code":1163952,"id":3347,"name":"紀三井寺","original_name":"紀三井寺","name_kana":"きみいでら","closed":false,"lat":34.187714,"lng":135.187594,"prefecture":30,"lines":[11639],"attr":"cool","postal_code":"641-0011","address":"和歌山市三葛","voronoi":{"type":"Feature","geometry":{"type":"Polygon","coordinates":[[[135.163404,34.161384],[135.143735,34.17016],[135.166424,34.201661],[135.194712,34.200214],[135.20613,34.188701],[135.187725,34.164443],[135.163404,34.161384]]]},"properties":{}}},
    {"code":1163953,"id":3348,"name":"宮前","original_name":"宮前","name_kana":"みやまえ","closed":false,"lat":34.213375,"lng":135.188907,"prefecture":30,"lines":[11639],"attr":"cool","postal_code":"641-0006","address":"和歌山市中島","voronoi":{"type":"Feature","geometry":{"type":"Polygon","coordinates":[[[135.177004,34.224272],[135.196551,34.218705],[135.197182,34.218086],[135.196752,34.20631],[135.194712,34.200214],[135.166424,34.201661],[135.167706,34.215438],[135.177004,34.224272]]]},"properties":{}}},
    {"code":1162635,"id":3132,"name":"和歌山","original_name":"和歌山","name_kana":"わかやま","closed":false,"lat":34.232436,"lng":135.191454,"prefecture":30,"lines":[11626,11636,11639,11640,99651],"attr":"cool","postal_code":"640-8331","address":"和歌山市美園町","voronoi":{"type":"Feature","geometry":{"type":"Polygon","coordinates":[[[135.178013,34.228343],[135.177587,34.225884],[135.197701,34.231357],[135.202149,34.238996],[135.186396,34.237142],[135.178013,34.228343]]]},"properties":{}}}
  ]
}