{
  "code":11704,
  "id":"363854",
  "name":"JR因美線",
  "name_kana":"じぇいあーるいんびせん",
  "station_size":20,
  "company_code":4,
  "closed":false,
  "color":"#996633",
  "symbol":"B",
  "station_list":[
    {"code":1161619,"id":"43430c","name":"鳥取","original_name":"鳥取","name_kana":"とっとり","closed":false,"lat":35.493953,"lng":134.225901,"prefecture":31,"lines":[11616,11704],"attr":"eco","postal_code":"680-0835","address":"鳥取市東品治町","voronoi":{"type":"Feature","geometry":{"type":"Polygon","coordinates":[[[134.192587,35.446665],[134.17823,35.447082],[134.229676,35.551728],[134.271898,35.501497],[134.192587,35.446665]]]},"properties":{}}},
    {"code":1170402,"id":"cb1e4a","name":"津ノ井","original_name":"津ノ井","name_kana":"つのい","closed":false,"lat":35.461129,"lng":134.248594,"prefecture":31,"lines":[11704],"attr":"eco","postal_code":"689-1102","address":"鳥取市大字津ノ井","voronoi":{"type":"Feature","geometry":{"type":"Polygon","coordinates":[[[134.333914,35.473095],[134.271898,35.501497],[134.192587,35.446665],[134.220137,35.435622],[134.228404,35.436001],[134.333914,35.473095]]]},"properties":{}}},
    {"code":1170403,"id":"58ae4d","name":"東郡家","original_name":"東郡家","name_kana":"ひがしこおげ","closed":false,"lat":35.429036,"lng":134.259877,"prefecture":31,"lines":[11704],"attr":"eco","postal_code":"680-0423","address":"八頭郡八頭町堀越","voronoi":{"type":"Feature","geometry":{"type":"Polygon","coordinates":[[[134.306658,35.419798],[134.328297,35.432423],[134.358144,35.467403],[134.333914,35.473095],[134.228404,35.436001],[134.273148,35.410968],[134.306658,35.419798]]]},"properties":{}}},
    {"code":1170404,"id":"a044d7","name":"郡家","original_name":"郡家","name_kana":"こおげ","closed":false,"lat":35.412824,"lng":134.250807,"prefecture":31,"lines":[11704,99701],"attr":"eco","postal_code":"680-0461","address":"八頭郡八頭町郡家","voronoi":{"type":"Feature","geometry":{"type":"Polygon","coordinates":[[[134.220137,35.435622],[134.226939,35.423305],[134.257838,35.403279],[134.263132,35.402789],[134.273148,35.410968],[134.228404,35.436001],[134.220137,35.435622]]]},"properties":{}}},
    {"code":1170405,"id":"4e25b3","name":"河原","original_name":"河原","name_kana":"かわはら","closed":false,"lat":35.397522,"lng":134.223098,"prefecture":31,"lines":[11704],"attr":"eco","postal_code":"680-0457","address":"八頭郡八頭町国中","voronoi":{"type":"Feature","geometry":{"type":"Polygon","coordinates":[[[134.141805,35.434746],[134.15048,35.438258],[134.17823,35.447082],[134.192587,35.446665],[134.220137,35.435622],[134.226939,35.423305],[134.236223,35.397331],[134.234858,35.382085],[134.15106,35.400537],[134.11753,35.413537],[134.12605,35.42386],[134.141805,35.434746]]]},"properties":{}}},
    {"code":1170406,"id":"1babd4","name":"国英","original_name":"国英","name_kana":"くにふさ","closed":false,"lat":35.373016,"lng":134.217702,"prefecture":31,"lines":[11704],"attr":"eco","postal_code":"680-1216","address":"鳥取市河原町釜口","voronoi":{"type":"Feature","geometry":{"type":"Polygon","coordinates":[[[134.243457,35.344552],[134.15106,35.400537],[134.234858,35.382085],[134.250218,35.360282],[134.255318,35.343122],[134.255392,35.339451],[134.243457,35.344552]]]},"properties":{}}},
    {"code":1170407,"id":"f865f6","name":"鷹狩","original_name":"鷹狩","name_kana":"たかがり","closed":false,"lat":35.354205,"lng":134.206304,"prefecture":31,"lines":[11704],"attr":"eco","postal_code":"689-1213","address":"鳥取市用瀬町鷹狩","voronoi":{"type":"Feature","geometry":{"type":"Polygon","coordinates":[[[134.062275,35.36551],[134.084743,35.388013],[134.11753,35.413537],[134.15106,35.400537],[134.243457,35.344552],[134.065197,35.364835],[134.062275,35.36551]]]},"properties":{}}},
    {"code":1170408,"id":"c4bd1a","name":"用瀬","original_name":"用瀬","name_kana":"もちがせ","closed":false,"lat":35.343492,"lng":134.205085,"prefecture":31,"lines":[11704],"attr":"cool","postal_code":"689-1201","address":"鳥取市用瀬町用瀬","voronoi":{"type":"Feature","geometry":{"type":"Polygon","coordinates":[[[134.262153,35.316471],[134.252567,35.313967],[134.065197,35.364835],[134.243457,35.344552],[134.255392,35.339451],[134.263286,35.317425],[134.262153,35.316471]]]},"properties":{}}},
    {"code":1170409,"id":"9d2de9","name":"因幡社","original_name":"因幡社","name_kana":"いなばやしろ","closed":false,"lat":35.312507,"lng":134.196673,"prefecture":31,"lines":[11704],"attr":"cool","postal_code":"689-1225","address":"鳥取市用瀬町宮原","voronoi":{"type":"Feature","geometry":{"type":"Polygon","coordinates":[[[134.062275,35.36551],[134.042304,35.350719],[134.154719,35.256594],[134.159311,35.257212],[134.252567,35.313967],[134.065197,35.364835],[134.062275,35.36551]]]},"properties":{}}},
    {"code":1170410,"id":"5d1b64","name":"智頭","original_name":"智頭","name_kana":"ちず","closed":false,"lat":35.264992,"lng":134.22559,"prefecture":31,"lines":[11704,99644],"attr":"cool","postal_code":"689-1402","address":"八頭郡智頭町大字智頭","voronoi":{"type":"Feature","geometry":{"type":"Polygon","coordinates":[[[134.159311,35.257212],[134.252567,35.313967],[134.262153,35.316471],[134.250354,35.248975],[134.186561,35.248901],[134.159311,35.257212]]]},"properties":{}}},
    {"code":1170411,"id":"4c359b","name":"土師","original_name":"土師","name_kana":"はじ","closed":false,"lat":35.232901,"lng":134.225627,"prefecture":31,"lines":[11704],"attr":"heat","postal_code":"689-1434","address":"八頭郡智頭町大字三吉","voronoi":{"type":"Feature","geometry":{"type":"Polygon","coordinates":[[[134.256925,35.19131],[134.186561,35.248901],[134.250354,35.248975],[134.257137,35.23303],[134.256925,35.19131]]]},"properties":{}}},
    {"code":1170412,"id":"9658d5","name":"那岐","original_name":"那岐","name_kana":"なぎ","closed":false,"lat":35.213769,"lng":134.209968,"prefecture":31,"lines":[11704],"attr":"heat","postal_code":"689-1451","address":"八頭郡智頭町大字大背","voronoi":{"type":"Feature","geometry":{"type":"Polygon","coordinates":[[[134.256925,35.19131],[134.263309,35.164611],[134.260571,35.158091],[134.226981,35.114178],[134.224888,35.114076],[134.175993,35.119269],[134.164035,35.141102],[134.154719,35.256594],[134.159311,35.257212],[134.186561,35.248901],[134.256925,35.19131]]]},"properties":{}}},
    {"code":1170413,"id":"ad40f0","name":"美作河井","original_name":"美作河井","name_kana":"みまさかかわい","closed":false,"lat":35.205467,"lng":134.107048,"prefecture":33,"lines":[11704],"attr":"cool","postal_code":"709-3913","address":"津山市加茂町山下","voronoi":{"type":"Feature","geometry":{"type":"Polygon","coordinates":[[[134.105723,35.167532],[134.029099,35.348274],[134.042304,35.350719],[134.154719,35.256594],[134.164035,35.141102],[134.105723,35.167532]]]},"properties":{}}},
    {"code":1170414,"id":"d8c200","name":"知和","original_name":"知和","name_kana":"ちわ","closed":false,"lat":35.192956,"lng":134.077537,"prefecture":33,"lines":[11704],"attr":"cool","postal_code":"709-3924","address":"津山市加茂町小渕","voronoi":{"type":"Feature","geometry":{"type":"Polygon","coordinates":[[[134.029099,35.348274],[134.105723,35.167532],[134.091102,35.167381],[133.920841,35.279006],[133.92167,35.280069],[133.944785,35.302189],[134.015376,35.347112],[134.029099,35.348274]]]},"properties":{}}},
    {"code":1170415,"id":"cf62db","name":"美作加茂","original_name":"美作加茂","name_kana":"みまさかかも","closed":false,"lat":35.169622,"lng":134.062239,"prefecture":33,"lines":[11704],"attr":"cool","postal_code":"709-3923","address":"津山市加茂町桑原","voronoi":{"type":"Feature","geometry":{"type":"Polygon","coordinates":[[[133.893629,35.246722],[133.911791,35.215499],[133.929976,35.190007],[133.984738,35.138183],[133.993397,35.132211],[133.993516,35.13215],[134.047497,35.142809],[134.091102,35.167381],[133.920841,35.279006],[133.916182,35.273914],[133.893629,35.246722]]]},"properties":{}}},
    {"code":1170416,"id":"f4f10b","name":"三浦","original_name":"三浦","name_kana":"みうら","closed":false,"lat":35.141531,"lng":134.078069,"prefecture":33,"lines":[11704],"attr":"heat","postal_code":"708-1101","address":"津山市三浦","voronoi":{"type":"Feature","geometry":{"type":"Polygon","coordinates":[[[134.047497,35.142809],[134.091102,35.167381],[134.105723,35.167532],[134.164035,35.141102],[134.175993,35.119269],[134.174913,35.118282],[134.144225,35.106401],[134.047497,35.142809]]]},"properties":{}}},
    {"code":1170417,"id":"0f722c","name":"美作滝尾","original_name":"美作滝尾","name_kana":"みまさかたきお","closed":false,"lat":35.123611,"lng":134.071324,"prefecture":33,"lines":[11704],"attr":"heat","postal_code":"708-1103","address":"津山市堀坂","voronoi":{"type":"Feature","geometry":{"type":"Polygon","coordinates":[[[134.123378,35.095079],[134.024378,35.107687],[134.008741,35.117201],[133.993516,35.13215],[134.047497,35.142809],[134.144225,35.106401],[134.123378,35.095079]]]},"properties":{}}},
    {"code":1170418,"id":"15aefa","name":"高野(岡山)","original_name":"高野","name_kana":"たかの","closed":false,"lat":35.080505,"lng":134.065834,"prefecture":33,"lines":[11704],"attr":"heat","postal_code":"708-1125","address":"津山市高野本郷","voronoi":{"type":"Feature","geometry":{"type":"Polygon","coordinates":[[[134.07992,35.063519],[134.116277,35.086623],[134.123378,35.095079],[134.024378,35.107687],[134.053431,35.062414],[134.07992,35.063519]]]},"properties":{}}},
    {"code":1163410,"id":"308405","name":"東津山","original_name":"東津山","name_kana":"ひがしつやま","closed":false,"lat":35.058676,"lng":134.031818,"prefecture":33,"lines":[11634,11704],"attr":"heat","postal_code":"708-0841","address":"津山市川崎","voronoi":{"type":"Feature","geometry":{"type":"Polygon","coordinates":[[[134.024378,35.107687],[134.008741,35.117201],[134.027135,34.992036],[134.053431,35.062414],[134.024378,35.107687]]]},"properties":{}}},
    {"code":1163411,"id":"cce131","name":"津山","original_name":"津山","name_kana":"つやま","closed":false,"lat":35.054511,"lng":134.003477,"prefecture":33,"lines":[11634,11704,11715],"attr":"heat","postal_code":"708-0882","address":"津山市大谷","voronoi":{"type":"Feature","geometry":{"type":"Polygon","coordinates":[[[133.993088,35.022413],[133.993397,35.132211],[133.993516,35.13215],[134.008741,35.117201],[134.027135,34.992036],[134.02691,34.99046],[133.997767,35.013522],[133.993088,35.022413]]]},"properties":{}}}
  ]
}