{
  "code":11702,
  "id":"488249",
  "name":"JR山陰本線(益田・仙崎～下関)",
  "name_kana":"じぇいあーるさんいんほんせん",
  "name_formal":"JR山陰本線(益田～下関)",
  "station_size":40,
  "company_code":4,
  "closed":false,
  "color":"#7E733D",
  "station_list":[
    {"code":1170145,"id":"f3d307","name":"益田","original_name":"益田","name_kana":"ますだ","closed":false,"lat":34.678311,"lng":131.838932,"prefecture":32,"lines":[11701,11702,11708],"attr":"cool","postal_code":"698-0024","address":"益田市駅前町","voronoi":{"type":"Feature","geometry":{"type":"Polygon","coordinates":[[[132.031511,34.595935],[131.78502,34.739389],[131.787784,34.686604],[131.975786,34.598625],[132.031511,34.595935]]]},"properties":{}}},
    {"code":1170202,"id":"1ce714","name":"戸田小浜","original_name":"戸田小浜","name_kana":"とだこはま","closed":false,"lat":34.673013,"lng":131.737783,"prefecture":32,"lines":[11702],"attr":"cool","postal_code":"699-3763","address":"益田市戸田町","voronoi":{"type":"Feature","geometry":{"type":"Polygon","coordinates":[[[131.78502,34.739389],[131.787784,34.686604],[131.781166,34.657636],[131.744769,34.61352],[131.728059,34.602186],[131.690148,34.922755],[131.766873,34.785777],[131.78502,34.739389]]]},"properties":{}}},
    {"code":1170203,"id":"bf8342","name":"飯浦","original_name":"飯浦","name_kana":"いいのうら","closed":false,"lat":34.668791,"lng":131.702082,"prefecture":32,"lines":[11702],"attr":"cool","postal_code":"699-3761","address":"益田市飯浦町","voronoi":{"type":"Feature","geometry":{"type":"Polygon","coordinates":[[[131.728059,34.602186],[131.724388,34.598007],[131.593251,34.769742],[130.553448,36.905304],[130.78063,36.559733],[131.423206,35.490037],[131.690148,34.922755],[131.728059,34.602186]]]},"properties":{}}},
    {"code":1170204,"id":"5055c2","name":"江崎","original_name":"江崎","name_kana":"えさき","closed":false,"lat":34.638167,"lng":131.661977,"prefecture":35,"lines":[11702],"attr":"eco","postal_code":"759-3112","address":"萩市下田万","voronoi":{"type":"Feature","geometry":{"type":"Polygon","coordinates":[[[131.699842,34.543198],[131.709964,34.561233],[131.724388,34.598007],[131.593251,34.769742],[131.665655,34.520132],[131.699842,34.543198]]]},"properties":{}}},
    {"code":1170205,"id":"09ef5f","name":"須佐","original_name":"須佐","name_kana":"すさ","closed":false,"lat":34.621814,"lng":131.6056,"prefecture":35,"lines":[11702],"attr":"eco","postal_code":"759-3411","address":"萩市須佐","voronoi":{"type":"Feature","geometry":{"type":"Polygon","coordinates":[[[131.652852,34.510691],[131.663113,34.51727],[131.665655,34.520132],[131.593251,34.769742],[130.553448,36.905304],[129.749551,38.1869],[129.944083,37.719358],[130.782506,35.738622],[131.015076,35.236294],[131.652852,34.510691]]]},"properties":{}}},
    {"code":1170206,"id":"a4d738","name":"宇田郷","original_name":"宇田郷","name_kana":"うたごう","closed":false,"lat":34.57181,"lng":131.54871,"prefecture":35,"lines":[11702],"attr":"eco","postal_code":"759-3501","address":"阿武郡阿武町大字宇田","voronoi":{"type":"Feature","geometry":{"type":"Polygon","coordinates":[[[131.627815,34.479838],[131.652852,34.510691],[131.015076,35.236294],[131.087346,35.060051],[131.602343,34.463922],[131.61381,34.469312],[131.627815,34.479838]]]},"properties":{}}},
    {"code":1170207,"id":"6ca845","name":"木与","original_name":"木与","name_kana":"きよ","closed":false,"lat":34.532658,"lng":131.50339,"prefecture":35,"lines":[11702],"attr":"eco","postal_code":"759-3621","address":"阿武郡阿武町大字木与","voronoi":{"type":"Feature","geometry":{"type":"Polygon","coordinates":[[[131.087346,35.060051],[131.153351,34.876127],[131.163872,34.854006],[131.565016,34.43788],[131.589772,34.453533],[131.602343,34.463922],[131.087346,35.060051]]]},"properties":{}}},
    {"code":1170208,"id":"5e0686","name":"奈古","original_name":"奈古","name_kana":"なご","closed":false,"lat":34.502938,"lng":131.47256,"prefecture":35,"lines":[11702],"attr":"eco","postal_code":"759-3622","address":"阿武郡阿武町大字奈古","voronoi":{"type":"Feature","geometry":{"type":"Polygon","coordinates":[[[131.275559,34.61963],[131.549859,34.423635],[131.565016,34.43788],[131.163872,34.854006],[131.245292,34.660421],[131.275559,34.61963]]]},"properties":{}}},
    {"code":1170209,"id":"1ecdb5","name":"長門大井","original_name":"長門大井","name_kana":"ながとおおい","closed":false,"lat":34.471068,"lng":131.449788,"prefecture":35,"lines":[11702],"attr":"eco","postal_code":"759-3611","address":"萩市大井","voronoi":{"type":"Feature","geometry":{"type":"Polygon","coordinates":[[[131.549859,34.423635],[131.275559,34.61963],[131.31122,34.56182],[131.514691,34.388136],[131.529166,34.399343],[131.540876,34.411536],[131.549859,34.423635]]]},"properties":{}}},
    {"code":1170210,"id":"123b5c","name":"越ヶ浜","original_name":"越ヶ浜","name_kana":"こしがはま","closed":false,"lat":34.439216,"lng":131.422599,"prefecture":35,"lines":[11702],"attr":"eco","postal_code":"758-0011","address":"山口県萩市大字椿東字長畠659","voronoi":{"type":"Feature","geometry":{"type":"Polygon","coordinates":[[[131.380842,34.448064],[131.506149,34.378234],[131.514691,34.388136],[131.31122,34.56182],[131.33883,34.500973],[131.380842,34.448064]]]},"properties":{}}},
    {"code":1170211,"id":"02a153","name":"東萩","original_name":"東萩","name_kana":"ひがしはぎ","closed":false,"lat":34.417207,"lng":131.410334,"prefecture":35,"lines":[11702],"attr":"eco","postal_code":"758-0011","address":"萩市大字椿東","voronoi":{"type":"Feature","geometry":{"type":"Polygon","coordinates":[[[131.380842,34.448064],[131.395914,34.409376],[131.49983,34.368792],[131.506149,34.378234],[131.380842,34.448064]]]},"properties":{}}},
    {"code":1170212,"id":"06662d","name":"萩","original_name":"萩","name_kana":"はぎ","closed":false,"lat":34.393845,"lng":131.40121,"prefecture":35,"lines":[11702],"attr":"eco","postal_code":"758-0061","address":"萩市大字椿","voronoi":{"type":"Feature","geometry":{"type":"Polygon","coordinates":[[[131.488118,34.345512],[131.49983,34.368792],[131.395914,34.409376],[131.363473,34.349759],[131.360809,34.294352],[131.365044,34.263824],[131.389476,34.266983],[131.429739,34.282889],[131.450677,34.292976],[131.488118,34.345512]]]},"properties":{}}},
    {"code":1170213,"id":"60c512","name":"玉江","original_name":"玉江","name_kana":"たまえ","closed":false,"lat":34.405388,"lng":131.379997,"prefecture":35,"lines":[11702],"attr":"eco","postal_code":"758-0063","address":"萩市山田","voronoi":{"type":"Feature","geometry":{"type":"Polygon","coordinates":[[[131.363473,34.349759],[131.33883,34.500973],[131.380842,34.448064],[131.395914,34.409376],[131.363473,34.349759]]]},"properties":{}}},
    {"code":1170214,"id":"15c920","name":"三見","original_name":"三見","name_kana":"さんみ","closed":false,"lat":34.397263,"lng":131.330142,"prefecture":35,"lines":[11702],"attr":"eco","postal_code":"759-3721","address":"萩市三見","voronoi":{"type":"Feature","geometry":{"type":"Polygon","coordinates":[[[131.363473,34.349759],[131.33883,34.500973],[131.31122,34.56182],[131.275559,34.61963],[131.245292,34.660421],[131.257116,34.495717],[131.360809,34.294352],[131.363473,34.349759]]]},"properties":{}}},
    {"code":1170215,"id":"5eda7d","name":"飯井","original_name":"飯井","name_kana":"いい","closed":false,"lat":34.379088,"lng":131.294847,"prefecture":35,"lines":[11702],"attr":"eco","postal_code":"759-3721","address":"萩市三見","voronoi":{"type":"Feature","geometry":{"type":"Polygon","coordinates":[[[131.257116,34.495717],[131.251657,34.435879],[131.28405,34.289605],[131.286108,34.286608],[131.344057,34.251308],[131.365044,34.263824],[131.360809,34.294352],[131.257116,34.495717]]]},"properties":{}}},
    {"code":1170216,"id":"1bab31","name":"長門三隅","original_name":"長門三隅","name_kana":"ながとみすみ","closed":false,"lat":34.366163,"lng":131.236483,"prefecture":35,"lines":[11702],"attr":"eco","postal_code":"759-3803","address":"長門市三隅下","voronoi":{"type":"Feature","geometry":{"type":"Polygon","coordinates":[[[131.209713,34.363168],[131.207934,34.35341],[131.210012,34.343716],[131.28405,34.289605],[131.251657,34.435879],[131.209713,34.363168]]]},"properties":{}}},
    {"code":1170217,"id":"90682c","name":"長門市","original_name":"長門市","name_kana":"ながとし","closed":false,"lat":34.375417,"lng":131.185722,"prefecture":35,"lines":[11702,11722],"attr":"eco","postal_code":"759-4101","address":"長門市東深川","voronoi":{"type":"Feature","geometry":{"type":"Polygon","coordinates":[[[131.161069,34.372635],[131.168398,34.407003],[131.209713,34.363168],[131.207934,34.35341],[131.161069,34.372635]]]},"properties":{}}},
    {"code":1170218,"id":"66bbe2","name":"仙崎","original_name":"仙崎","name_kana":"せんざき","closed":false,"lat":34.387841,"lng":131.198904,"prefecture":35,"lines":[11702],"attr":"heat","postal_code":"759-4106","address":"長門市仙崎町字道揚原","voronoi":{"type":"Feature","geometry":{"type":"Polygon","coordinates":[[[131.209713,34.363168],[131.168398,34.407003],[131.152641,34.764595],[131.153351,34.876127],[131.163872,34.854006],[131.245292,34.660421],[131.257116,34.495717],[131.251657,34.435879],[131.209713,34.363168]]]},"properties":{}}},
    {"code":1170219,"id":"c9be7b","name":"黄波戸","original_name":"黄波戸","name_kana":"きわど","closed":false,"lat":34.385232,"lng":131.139695,"prefecture":35,"lines":[11702],"attr":"eco","postal_code":"759-4401","address":"長門市日置上","voronoi":{"type":"Feature","geometry":{"type":"Polygon","coordinates":[[[131.116172,34.334136],[131.152641,34.764595],[131.168398,34.407003],[131.161069,34.372635],[131.14248,34.351086],[131.116172,34.334136]]]},"properties":{}}},
    {"code":1170220,"id":"411873","name":"長門古市","original_name":"長門古市","name_kana":"ながとふるいち","closed":false,"lat":34.388461,"lng":131.101581,"prefecture":35,"lines":[11702],"attr":"eco","postal_code":"759-4401","address":"長門市日置上","voronoi":{"type":"Feature","geometry":{"type":"Polygon","coordinates":[[[131.087346,35.060051],[131.153351,34.876127],[131.152641,34.764595],[131.116172,34.334136],[131.101083,34.31435],[131.017136,34.574504],[130.782506,35.738622],[131.015076,35.236294],[131.087346,35.060051]]]},"properties":{}}},
    {"code":1170221,"id":"a2e62f","name":"人丸","original_name":"人丸","name_kana":"ひとまる","closed":false,"lat":34.374192,"lng":131.057361,"prefecture":35,"lines":[11702],"attr":"eco","postal_code":"759-4503","address":"長門市油谷新別名","voronoi":{"type":"Feature","geometry":{"type":"Polygon","coordinates":[[[131.076906,34.24438],[131.101083,34.31435],[131.017136,34.574504],[131.042247,34.279548],[131.073744,34.240924],[131.076906,34.24438]]]},"properties":{}}},
    {"code":1170222,"id":"558629","name":"伊上","original_name":"伊上","name_kana":"いがみ","closed":false,"lat":34.370275,"lng":131.011351,"prefecture":35,"lines":[11702],"attr":"eco","postal_code":"759-4505","address":"長門市油谷伊上","voronoi":{"type":"Feature","geometry":{"type":"Polygon","coordinates":[[[129.944083,37.719358],[130.782506,35.738622],[131.017136,34.574504],[131.042247,34.279548],[131.009371,34.304199],[129.944083,37.719358]]]},"properties":{}}},
    {"code":1170223,"id":"b7fce1","name":"長門粟野","original_name":"長門粟野","name_kana":"ながとあわの","closed":false,"lat":34.357431,"lng":130.970175,"prefecture":35,"lines":[11702],"attr":"eco","postal_code":"759-5101","address":"下関市豊北町大字粟野","voronoi":{"type":"Feature","geometry":{"type":"Polygon","coordinates":[[[130.961267,34.319664],[125.706289,45.026409],[128.73784,40.000168],[129.577642,38.521585],[129.749551,38.1869],[129.944083,37.719358],[131.009371,34.304199],[130.961267,34.319664]]]},"properties":{}}},
    {"code":1170224,"id":"a06761","name":"阿川","original_name":"阿川","name_kana":"あがわ","closed":false,"lat":34.335721,"lng":130.925942,"prefecture":35,"lines":[11702],"attr":"cool","postal_code":"759-5241","address":"下関市豊北町大字阿川","voronoi":{"type":"Feature","geometry":{"type":"LineString","coordinates":[[112.0,59.04651],[129.312148,35.149588],[129.39764,35.054915],[129.805029,34.741864],[130.118216,34.512069],[130.948553,34.314633],[130.961267,34.319664],[125.706289,45.026409],[118.331876,57.310467],[115.559734,60.0]]},"properties":{}}},
    {"code":1170225,"id":"cd4a81","name":"特牛","original_name":"特牛","name_kana":"こっとい","closed":false,"lat":34.305979,"lng":130.91887,"prefecture":35,"lines":[11702],"attr":"cool","postal_code":"759-5331","address":"下関市豊北町大字神田","voronoi":{"type":"Feature","geometry":{"type":"Polygon","coordinates":[[[130.383511,34.3192],[130.919579,34.27857],[130.948553,34.314633],[130.118216,34.512069],[130.309456,34.366235],[130.383511,34.3192]]]},"properties":{}}},
    {"code":1170226,"id":"2a3d3e","name":"滝部","original_name":"滝部","name_kana":"たきべ","closed":false,"lat":34.283782,"lng":130.946497,"prefecture":35,"lines":[11702],"attr":"cool","postal_code":"759-5511","address":"下関市豊北町大字滝部","voronoi":{"type":"Feature","geometry":{"type":"Polygon","coordinates":[[[131.0735,34.239574],[131.073744,34.240924],[131.042247,34.279548],[131.009371,34.304199],[130.961267,34.319664],[130.948553,34.314633],[130.919579,34.27857],[130.945962,34.252557],[130.994301,34.236374],[131.062688,34.223697],[131.0735,34.239574]]]},"properties":{}}},
    {"code":1170227,"id":"dac080","name":"長門二見","original_name":"長門二見","name_kana":"ながとふたみ","closed":false,"lat":34.251581,"lng":130.914747,"prefecture":35,"lines":[11702],"attr":"cool","postal_code":"759-6121","address":"下関市豊北町大字神田上","voronoi":{"type":"Feature","geometry":{"type":"Polygon","coordinates":[[[130.533837,34.212604],[130.383511,34.3192],[130.919579,34.27857],[130.945962,34.252557],[130.842135,34.197637],[130.809034,34.192115],[130.727497,34.193905],[130.533837,34.212604]]]},"properties":{}}},
    {"code":1170228,"id":"b31057","name":"宇賀本郷","original_name":"宇賀本郷","name_kana":"うかほんごう","closed":false,"lat":34.227303,"lng":130.927589,"prefecture":35,"lines":[11702],"attr":"cool","postal_code":"759-6303","address":"下関市豊浦町大字宇賀","voronoi":{"type":"Feature","geometry":{"type":"Polygon","coordinates":[[[130.857669,34.197838],[130.842135,34.197637],[130.945962,34.252557],[130.994301,34.236374],[130.857669,34.197838]]]},"properties":{}}},
    {"code":1170229,"id":"aab2b2","name":"湯玉","original_name":"湯玉","name_kana":"ゆたま","closed":false,"lat":34.209249,"lng":130.932681,"prefecture":35,"lines":[11702],"attr":"cool","postal_code":"759-6303","address":"下関市豊浦町大字宇賀","voronoi":{"type":"Feature","geometry":{"type":"Polygon","coordinates":[[[130.857669,34.197838],[131.038005,34.177733],[131.051215,34.187112],[131.062688,34.223697],[130.994301,34.236374],[130.857669,34.197838]]]},"properties":{}}},
    {"code":1170230,"id":"deca11","name":"小串","original_name":"小串","name_kana":"こぐし","closed":false,"lat":34.170186,"lng":130.928326,"prefecture":35,"lines":[11702],"attr":"cool","postal_code":"759-6302","address":"下関市豊浦町大字小串","voronoi":{"type":"Feature","geometry":{"type":"Polygon","coordinates":[[[130.842135,34.197637],[130.809034,34.192115],[130.833882,34.182504],[130.999329,34.138137],[131.038005,34.177733],[130.857669,34.197838],[130.842135,34.197637]]]},"properties":{}}},
    {"code":1170231,"id":"b6139d","name":"川棚温泉","original_name":"川棚温泉","name_kana":"かわたなおんせん","closed":false,"lat":34.145914,"lng":130.921817,"prefecture":35,"lines":[11702],"attr":"cool","postal_code":"759-6301","address":"下関市豊浦町大字川棚","voronoi":{"type":"Feature","geometry":{"type":"Polygon","coordinates":[[[130.833882,34.182504],[130.975867,34.104686],[130.999329,34.138137],[130.833882,34.182504]]]},"properties":{}}},
    {"code":1170232,"id":"f2f61f","name":"黒井村","original_name":"黒井村","name_kana":"くろいむら","closed":false,"lat":34.128066,"lng":130.912035,"prefecture":35,"lines":[11702],"attr":"cool","postal_code":"759-6312","address":"下関市豊浦町大字黒井","voronoi":{"type":"Feature","geometry":{"type":"Polygon","coordinates":[[[130.975867,34.104686],[130.833882,34.182504],[130.809034,34.192115],[130.727497,34.193905],[130.95751,34.092013],[130.968775,34.09042],[130.975867,34.104686]]]},"properties":{}}},
    {"code":1170233,"id":"caa854","name":"梅ヶ峠","original_name":"梅ヶ峠","name_kana":"うめがとう","closed":false,"lat":34.101469,"lng":130.900253,"prefecture":35,"lines":[11702],"attr":"cool","postal_code":"759-6314","address":"山口県下関市豊浦町大字厚母郷字梅ヶ峠2","voronoi":{"type":"Feature","geometry":{"type":"Polygon","coordinates":[[[130.95751,34.092013],[130.726357,34.065823],[130.565108,34.181433],[130.557864,34.18711],[130.533837,34.212604],[130.727497,34.193905],[130.95751,34.092013]]]},"properties":{}}},
    {"code":1170234,"id":"de6ecc","name":"吉見","original_name":"吉見","name_kana":"よしみ","closed":false,"lat":34.069987,"lng":130.90382,"prefecture":35,"lines":[11702],"attr":"cool","postal_code":"759-6531","address":"下関市吉見本町１","voronoi":{"type":"Feature","geometry":{"type":"Polygon","coordinates":[[[130.95751,34.092013],[130.726357,34.065823],[130.747084,34.047958],[130.801486,34.016532],[130.861775,34.033676],[130.968755,34.089177],[130.968775,34.09042],[130.95751,34.092013]]]},"properties":{}}},
    {"code":1170235,"id":"38f8c8","name":"福江","original_name":"福江","name_kana":"ふくえ","closed":false,"lat":34.04714,"lng":130.915673,"prefecture":35,"lines":[11702],"attr":"heat","postal_code":"759-6601","address":"下関市大字福江","voronoi":{"type":"Feature","geometry":{"type":"Polygon","coordinates":[[[130.971342,34.074557],[130.968755,34.089177],[130.861775,34.033676],[130.945854,34.037316],[130.963545,34.05111],[130.971342,34.074557]]]},"properties":{}}},
    {"code":1170236,"id":"fe4c6a","name":"安岡","original_name":"安岡","name_kana":"やすおか","closed":false,"lat":34.024921,"lng":130.916635,"prefecture":35,"lines":[11702],"attr":"heat","postal_code":"759-6612","address":"下関市安岡駅前１","voronoi":{"type":"Feature","geometry":{"type":"Polygon","coordinates":[[[130.878098,33.993621],[130.94345,34.033401],[130.945854,34.037316],[130.861775,34.033676],[130.801486,34.016532],[130.825378,33.995231],[130.843758,33.983929],[130.87286,33.991119],[130.878098,33.993621]]]},"properties":{}}},
    {"code":1170237,"id":"b11de8","name":"梶栗郷台地","original_name":"梶栗郷台地","name_kana":"かじくりごうだいち","closed":false,"lat":34.013477,"lng":130.923601,"prefecture":35,"lines":[11702],"attr":"heat","postal_code":"751-0865","address":"下関市綾羅木新町３丁目","voronoi":{"type":"Feature","geometry":{"type":"Polygon","coordinates":[[[130.878098,33.993621],[130.94345,34.033401],[130.936727,34.012423],[130.878098,33.993621]]]},"properties":{}}},
    {"code":1170238,"id":"ab6ac3","name":"綾羅木","original_name":"綾羅木","name_kana":"あやらぎ","closed":false,"lat":34.003932,"lng":130.926662,"prefecture":35,"lines":[11702],"attr":"heat","postal_code":"751-0849","address":"下関市綾羅木本町２","voronoi":{"type":"Feature","geometry":{"type":"Polygon","coordinates":[[[130.87286,33.991119],[130.878098,33.993621],[130.936727,34.012423],[130.938282,33.993104],[130.87286,33.991119]]]},"properties":{}}},
    {"code":1161235,"id":"098f19","name":"幡生","original_name":"幡生","name_kana":"はたぶ","closed":false,"lat":33.981592,"lng":130.92734,"prefecture":35,"lines":[11612,11702],"attr":"heat","postal_code":"751-0829","address":"下関市幡生宮の下町","voronoi":{"type":"Feature","geometry":{"type":"Polygon","coordinates":[[[130.938282,33.993104],[130.952476,33.980903],[130.947132,33.970707],[130.942206,33.963609],[130.850995,33.976151],[130.843758,33.983929],[130.87286,33.991119],[130.938282,33.993104]]]},"properties":{}}},
    {"code":1161236,"id":"fc3cbd","name":"下関","original_name":"下関","name_kana":"しものせき","closed":false,"lat":33.950306,"lng":130.923038,"prefecture":35,"lines":[11612,11702,11902],"attr":"heat","postal_code":"750-0025","address":"下関市大字竹崎町４丁目","voronoi":{"type":"Feature","geometry":{"type":"Polygon","coordinates":[[[130.907693,33.922662],[130.89933,33.920771],[130.887188,33.928483],[130.872739,33.940003],[130.850995,33.976151],[130.942206,33.963609],[130.943329,33.955442],[130.940988,33.937995],[130.907693,33.922662]]]},"properties":{}}}
  ]
}