{
  "code":11715,
  "id":172,
  "name":"JR津山線",
  "name_kana":"じぇいあーるつやません",
  "station_size":17,
  "company_code":4,
  "closed":false,
  "color":"#FDBD18",
  "symbol":"T",
  "station_list":[
    {"code":1163411,"id":3220,"name":"津山","original_name":"津山","name_kana":"つやま","closed":false,"lat":35.054511,"lng":134.003477,"prefecture":33,"lines":[11634,11704,11715],"attr":"heat","postal_code":"708-0882","address":"津山市大谷","voronoi":{"type":"Feature","geometry":{"type":"Polygon","coordinates":[[[133.993088,35.022413],[133.993397,35.132211],[133.993516,35.13215],[134.008741,35.117201],[134.027135,34.992036],[134.02691,34.99046],[133.997767,35.013522],[133.993088,35.022413]]]},"properties":{}}},
    {"code":1171502,"id":3637,"name":"津山口","original_name":"津山口","name_kana":"つやまぐち","closed":false,"lat":35.054569,"lng":133.982879,"prefecture":33,"lines":[11715],"attr":"cool","postal_code":"708-0884","address":"津山市津山口","voronoi":{"type":"Feature","geometry":{"type":"Polygon","coordinates":[[[133.968431,35.046617],[133.984738,35.138183],[133.993397,35.132211],[133.993088,35.022413],[133.968431,35.046617]]]},"properties":{}}},
    {"code":1171503,"id":3638,"name":"佐良山","original_name":"佐良山","name_kana":"さらやま","closed":false,"lat":35.032024,"lng":133.960748,"prefecture":33,"lines":[11715],"attr":"cool","postal_code":"708-0876","address":"津山市高尾","voronoi":{"type":"Feature","geometry":{"type":"Polygon","coordinates":[[[133.919971,35.017147],[133.932149,35.042416],[133.968431,35.046617],[133.993088,35.022413],[133.997767,35.013522],[133.919971,35.017147]]]},"properties":{}}},
    {"code":1171504,"id":3639,"name":"亀甲","original_name":"亀甲","name_kana":"かめのこう","closed":false,"lat":34.998542,"lng":133.959188,"prefecture":33,"lines":[11715],"attr":"cool","postal_code":"709-3717","address":"久米郡美咲町原田","voronoi":{"type":"Feature","geometry":{"type":"Polygon","coordinates":[[[133.875692,34.975417],[133.881833,34.983336],[133.919971,35.017147],[133.997767,35.013522],[134.02691,34.99046],[134.027264,34.989645],[133.875692,34.975417]]]},"properties":{}}},
    {"code":1171505,"id":3640,"name":"小原","original_name":"小原","name_kana":"おばら","closed":false,"lat":34.968234,"lng":133.962033,"prefecture":33,"lines":[11715],"attr":"cool","postal_code":"709-3714","address":"久米郡美咲町小原","voronoi":{"type":"Feature","geometry":{"type":"Polygon","coordinates":[[[133.874102,34.973981],[134.060854,34.943834],[134.027264,34.989645],[133.875692,34.975417],[133.874102,34.973981]]]},"properties":{}}},
    {"code":1171506,"id":3641,"name":"誕生寺","original_name":"誕生寺","name_kana":"たんじょうじ","closed":false,"lat":34.951768,"lng":133.959375,"prefecture":33,"lines":[11715],"attr":"cool","postal_code":"709-3602","address":"久米郡久米南町里方","voronoi":{"type":"Feature","geometry":{"type":"Polygon","coordinates":[[[134.070644,34.932115],[133.906829,34.941616],[133.858775,34.962572],[133.874102,34.973981],[134.060854,34.943834],[134.068983,34.934467],[134.070644,34.932115]]]},"properties":{}}},
    {"code":1171507,"id":3642,"name":"弓削","original_name":"弓削","name_kana":"ゆげ","closed":false,"lat":34.925457,"lng":133.957849,"prefecture":33,"lines":[11715],"attr":"cool","postal_code":"709-3614","address":"久米郡久米南町下弓削","voronoi":{"type":"Feature","geometry":{"type":"Polygon","coordinates":[[[134.072977,34.929517],[134.070644,34.932115],[133.906829,34.941616],[134.027506,34.847953],[134.083107,34.907348],[134.072977,34.929517]]]},"properties":{}}},
    {"code":1171508,"id":3643,"name":"神目","original_name":"神目","name_kana":"こうめ","closed":false,"lat":34.896201,"lng":133.935142,"prefecture":33,"lines":[11715],"attr":"cool","postal_code":"709-3627","address":"久米郡久米南町神目中","voronoi":{"type":"Feature","geometry":{"type":"Polygon","coordinates":[[[133.95527,34.843831],[134.022749,34.842913],[134.027458,34.847879],[134.027506,34.847953],[133.906829,34.941616],[133.858775,34.962572],[133.854618,34.961122],[133.948917,34.848068],[133.95527,34.843831]]]},"properties":{}}},
    {"code":1171509,"id":3644,"name":"福渡","original_name":"福渡","name_kana":"ふくわたり","closed":false,"lat":34.870256,"lng":133.904037,"prefecture":33,"lines":[11715],"attr":"eco","postal_code":"709-3111","address":"岡山市建部町福渡","voronoi":{"type":"Feature","geometry":{"type":"Polygon","coordinates":[[[133.761736,34.880524],[133.840668,34.955047],[133.854176,34.96106],[133.854618,34.961122],[133.948917,34.848068],[133.761736,34.880524]]]},"properties":{}}},
    {"code":1171510,"id":3645,"name":"建部","original_name":"建部","name_kana":"たけべ","closed":false,"lat":34.842285,"lng":133.899187,"prefecture":33,"lines":[11715],"attr":"eco","postal_code":"709-3132","address":"岡山市建部町中田","voronoi":{"type":"Feature","geometry":{"type":"Polygon","coordinates":[[[133.95527,34.843831],[133.86962,34.784971],[133.84567,34.773727],[133.77488,34.821059],[133.756113,34.845429],[133.754397,34.874864],[133.761736,34.880524],[133.948917,34.848068],[133.95527,34.843831]]]},"properties":{}}},
    {"code":1171511,"id":3646,"name":"金川","original_name":"金川","name_kana":"かながわ","closed":false,"lat":34.792029,"lng":133.933724,"prefecture":33,"lines":[11715],"attr":"eco","postal_code":"709-2133","address":"岡山市御津金川","voronoi":{"type":"Feature","geometry":{"type":"Polygon","coordinates":[[[134.017097,34.81833],[134.006093,34.79764],[133.971589,34.779508],[133.86962,34.784971],[133.95527,34.843831],[134.022749,34.842913],[134.017097,34.81833]]]},"properties":{}}},
    {"code":1171512,"id":3647,"name":"野々口","original_name":"野々口","name_kana":"ののくち","closed":false,"lat":34.771104,"lng":133.932603,"prefecture":33,"lines":[11715],"attr":"eco","postal_code":"709-2117","address":"岡山市御津野々口","voronoi":{"type":"Feature","geometry":{"type":"Polygon","coordinates":[[[133.856674,34.755916],[133.891228,34.730255],[133.895635,34.729996],[133.924108,34.735303],[133.971589,34.779508],[133.86962,34.784971],[133.84567,34.773727],[133.852988,34.760717],[133.856674,34.755916]]]},"properties":{}}},
    {"code":1171513,"id":3648,"name":"牧山","original_name":"牧山","name_kana":"まきやま","closed":false,"lat":34.741221,"lng":133.960424,"prefecture":33,"lines":[11715],"attr":"heat","postal_code":"701-2143","address":"岡山市下牧","voronoi":{"type":"Feature","geometry":{"type":"Polygon","coordinates":[[[134.006093,34.79764],[133.971589,34.779508],[133.924108,34.735303],[133.945324,34.726235],[134.000968,34.735521],[134.006093,34.79764]]]},"properties":{}}},
    {"code":1171514,"id":3649,"name":"玉柏","original_name":"玉柏","name_kana":"たまがし","closed":false,"lat":34.716965,"lng":133.964472,"prefecture":33,"lines":[11715],"attr":"heat","postal_code":"701-2142","address":"岡山市玉柏","voronoi":{"type":"Feature","geometry":{"type":"Polygon","coordinates":[[[133.945324,34.726235],[133.961465,34.699948],[133.97178,34.697899],[133.994693,34.715181],[134.000997,34.73539],[134.000968,34.735521],[133.945324,34.726235]]]},"properties":{}}},
    {"code":1171515,"id":3650,"name":"備前原","original_name":"備前原","name_kana":"びぜんはら","closed":false,"lat":34.704965,"lng":133.944929,"prefecture":33,"lines":[11715],"attr":"heat","postal_code":"701-2154","address":"岡山市原","voronoi":{"type":"Feature","geometry":{"type":"Polygon","coordinates":[[[133.895635,34.729996],[133.938778,34.692713],[133.945818,34.690791],[133.961465,34.699948],[133.945324,34.726235],[133.924108,34.735303],[133.895635,34.729996]]]},"properties":{}}},
    {"code":1171516,"id":3651,"name":"法界院","original_name":"法界院","name_kana":"ほうかいいん","closed":false,"lat":34.684851,"lng":133.927547,"prefecture":33,"lines":[11715],"attr":"heat","postal_code":"700-0011","address":"岡山市学南町","voronoi":{"type":"Feature","geometry":{"type":"Polygon","coordinates":[[[133.910571,34.681852],[133.893193,34.709513],[133.891228,34.730255],[133.895635,34.729996],[133.938778,34.692713],[133.928925,34.675256],[133.927712,34.675117],[133.92412,34.675499],[133.922898,34.675786],[133.910571,34.681852]]]},"properties":{}}},
    {"code":100306,"id":2867,"name":"岡山","original_name":"岡山","name_kana":"おかやま","closed":false,"lat":34.666572,"lng":133.918552,"prefecture":33,"lines":[1003,11609,11610,11631,11703,11709,11713,11715],"attr":"heat","postal_code":"700-0024","address":"岡山市駅元町１丁目","voronoi":{"type":"Feature","geometry":{"type":"Polygon","coordinates":[[[133.910571,34.681852],[133.908969,34.6594],[133.913295,34.657634],[133.921396,34.668892],[133.922898,34.675786],[133.910571,34.681852]]]},"properties":{}}}
  ]
}