{
  "code":11722,
  "id":177,
  "name":"JR美祢線",
  "name_kana":"じぇいあーるみねせん",
  "station_size":12,
  "company_code":4,
  "closed":false,
  "color":"#D6007F",
  "station_list":[
    {"code":100316,"id":2945,"name":"厚狭","original_name":"厚狭","name_kana":"あさ","closed":false,"lat":34.053361,"lng":131.159965,"prefecture":35,"lines":[1003,11612,11722],"attr":"cool","postal_code":"757-0001","address":"山陽小野田市厚狭","voronoi":{"type":"Feature","geometry":{"type":"Polygon","coordinates":[[[131.121738,34.080546],[131.125907,34.007777],[131.138748,34.011433],[131.138758,34.011437],[131.209852,34.051514],[131.210433,34.052227],[131.135098,34.081709],[131.121738,34.080546]]]},"properties":{}}},
    {"code":1172202,"id":3730,"name":"湯ノ峠","original_name":"湯ノ峠","name_kana":"ゆのとう","closed":false,"lat":34.085649,"lng":131.172601,"prefecture":35,"lines":[11722],"attr":"cool","postal_code":"757-0001","address":"山陽小野田市厚狭","voronoi":{"type":"Feature","geometry":{"type":"Polygon","coordinates":[[[131.202904,34.119555],[131.213981,34.1177],[131.242322,34.10704],[131.217312,34.056313],[131.210433,34.052227],[131.135098,34.081709],[131.190567,34.116838],[131.202904,34.119555]]]},"properties":{}}},
    {"code":1172203,"id":3731,"name":"厚保","original_name":"厚保","name_kana":"あつ","closed":false,"lat":34.113929,"lng":131.154691,"prefecture":35,"lines":[11722],"attr":"cool","postal_code":"759-2151","address":"美祢市西厚保町本郷","voronoi":{"type":"Feature","geometry":{"type":"Polygon","coordinates":[[[131.121738,34.080546],[131.082071,34.122093],[131.071771,34.149319],[131.190567,34.116838],[131.135098,34.081709],[131.121738,34.080546]]]},"properties":{}}},
    {"code":1172204,"id":3732,"name":"四郎ヶ原","original_name":"四郎ヶ原","name_kana":"しろうがはら","closed":false,"lat":34.137596,"lng":131.161162,"prefecture":35,"lines":[11722],"attr":"cool","postal_code":"759-2142","address":"山口県美祢市東厚保町川東字大向2128","voronoi":{"type":"Feature","geometry":{"type":"Polygon","coordinates":[[[131.093496,34.230109],[131.0735,34.239574],[131.062688,34.223697],[131.051215,34.187112],[131.071771,34.149319],[131.190567,34.116838],[131.202904,34.119555],[131.093496,34.230109]]]},"properties":{}}},
    {"code":1172205,"id":3733,"name":"南大嶺","original_name":"南大嶺","name_kana":"みなみおおみね","closed":false,"lat":34.161483,"lng":131.185299,"prefecture":35,"lines":[11722],"attr":"cool","postal_code":"759-2213","address":"美祢市大嶺町西分","voronoi":{"type":"Feature","geometry":{"type":"Polygon","coordinates":[[[131.093496,34.230109],[131.145972,34.214254],[131.186452,34.185423],[131.213981,34.1177],[131.202904,34.119555],[131.093496,34.230109]]]},"properties":{}}},
    {"code":1172207,"id":3734,"name":"美祢","original_name":"美祢","name_kana":"みね","closed":false,"lat":34.169077,"lng":131.203981,"prefecture":35,"lines":[11722],"attr":"cool","postal_code":"759-2212","address":"美祢市大嶺町東分","voronoi":{"type":"Feature","geometry":{"type":"Polygon","coordinates":[[[131.303142,34.143667],[131.308211,34.162678],[131.186452,34.185423],[131.213981,34.1177],[131.242322,34.10704],[131.297053,34.133835],[131.303142,34.143667]]]},"properties":{}}},
    {"code":1172208,"id":3735,"name":"重安","original_name":"重安","name_kana":"しげやす","closed":false,"lat":34.194339,"lng":131.2087,"prefecture":35,"lines":[11722],"attr":"cool","postal_code":"759-2211","address":"美祢市大嶺町北分","voronoi":{"type":"Feature","geometry":{"type":"Polygon","coordinates":[[[131.145972,34.214254],[131.186452,34.185423],[131.308211,34.162678],[131.327758,34.211063],[131.329821,34.217574],[131.145972,34.214254]]]},"properties":{}}},
    {"code":1172209,"id":3736,"name":"於福","original_name":"於福","name_kana":"おふく","closed":false,"lat":34.236421,"lng":131.20794,"prefecture":35,"lines":[11722],"attr":"eco","postal_code":"759-2302","address":"美祢市於福町下","voronoi":{"type":"Feature","geometry":{"type":"Polygon","coordinates":[[[131.093496,34.230109],[131.0735,34.239574],[131.073744,34.240924],[131.076906,34.24438],[131.1281,34.262931],[131.286108,34.286608],[131.344057,34.251308],[131.33354,34.224746],[131.329821,34.217574],[131.145972,34.214254],[131.093496,34.230109]]]},"properties":{}}},
    {"code":1172210,"id":3737,"name":"渋木","original_name":"渋木","name_kana":"しぶき","closed":false,"lat":34.311679,"lng":131.196663,"prefecture":35,"lines":[11722],"attr":"eco","postal_code":"759-4103","address":"長門市深川湯本","voronoi":{"type":"Feature","geometry":{"type":"Polygon","coordinates":[[[131.1281,34.262931],[131.286108,34.286608],[131.28405,34.289605],[131.210012,34.343716],[131.198954,34.338409],[131.1281,34.262931]]]},"properties":{}}},
    {"code":1172211,"id":3738,"name":"長門湯本","original_name":"長門湯本","name_kana":"ながとゆもと","closed":false,"lat":34.334435,"lng":131.172422,"prefecture":35,"lines":[11722],"attr":"eco","postal_code":"759-4103","address":"長門市深川湯本","voronoi":{"type":"Feature","geometry":{"type":"Polygon","coordinates":[[[131.1281,34.262931],[131.076906,34.24438],[131.101083,34.31435],[131.116172,34.334136],[131.14248,34.351086],[131.198954,34.338409],[131.1281,34.262931]]]},"properties":{}}},
    {"code":1172212,"id":3739,"name":"板持","original_name":"板持","name_kana":"いたもち","closed":false,"lat":34.353341,"lng":131.176666,"prefecture":35,"lines":[11722],"attr":"eco","postal_code":"759-4102","address":"長門市西深川","voronoi":{"type":"Feature","geometry":{"type":"Polygon","coordinates":[[[131.210012,34.343716],[131.198954,34.338409],[131.14248,34.351086],[131.161069,34.372635],[131.207934,34.35341],[131.210012,34.343716]]]},"properties":{}}},
    {"code":1170217,"id":3415,"name":"長門市","original_name":"長門市","name_kana":"ながとし","closed":false,"lat":34.375417,"lng":131.185722,"prefecture":35,"lines":[11702,11722],"attr":"eco","postal_code":"759-4101","address":"長門市東深川","voronoi":{"type":"Feature","geometry":{"type":"Polygon","coordinates":[[[131.161069,34.372635],[131.168398,34.407003],[131.209713,34.363168],[131.207934,34.35341],[131.161069,34.372635]]]},"properties":{}}}
  ]
}