{
  "code":11903,
  "id":190,
  "name":"JR鹿児島本線(博多～八代)",
  "name_kana":"じぇいあーるかごしまほんせん",
  "station_size":51,
  "company_code":6,
  "closed":false,
  "station_list":[
    {"code":100319,"id":4022,"name":"博多","original_name":"博多","name_kana":"はかた","closed":false,"lat":33.590002,"lng":130.420622,"prefecture":40,"lines":[1003,1010,11901,11902,11903,11908,99905,99907],"attr":"heat","postal_code":"812-0012","address":"福岡市博多区博多駅中央街","voronoi":{"type":"Feature","geometry":{"type":"Polygon","coordinates":[[[130.415351,33.580138],[130.414163,33.583245],[130.415212,33.588557],[130.422064,33.598543],[130.422128,33.598576],[130.425984,33.597889],[130.425907,33.579233],[130.422315,33.577379],[130.416911,33.578768],[130.415351,33.580138]]]},"properties":{}}},
    {"code":1190302,"id":4054,"name":"竹下","original_name":"竹下","name_kana":"たけした","closed":false,"lat":33.568688,"lng":130.431625,"prefecture":40,"lines":[11903],"attr":"heat","postal_code":"812-0895","address":"福岡市博多区竹下４丁目","voronoi":{"type":"Feature","geometry":{"type":"Polygon","coordinates":[[[130.436851,33.559797],[130.423268,33.566994],[130.422315,33.577379],[130.425907,33.579233],[130.445767,33.579555],[130.452807,33.575385],[130.442169,33.563551],[130.436851,33.559797]]]},"properties":{}}},
    {"code":1190303,"id":4055,"name":"笹原","original_name":"笹原","name_kana":"ささばる","closed":false,"lat":33.553612,"lng":130.448396,"prefecture":40,"lines":[11903],"attr":"heat","postal_code":"811-1302","address":"福岡市南区井尻３丁目","voronoi":{"type":"Feature","geometry":{"type":"Polygon","coordinates":[[[130.454298,33.547723],[130.449461,33.542662],[130.442169,33.563551],[130.452807,33.575385],[130.462771,33.575361],[130.465534,33.57271],[130.454298,33.547723]]]},"properties":{}}},
    {"code":1190304,"id":4056,"name":"南福岡","original_name":"南福岡","name_kana":"みなみふくおか","closed":false,"lat":33.542092,"lng":130.460447,"prefecture":40,"lines":[11903],"attr":"heat","postal_code":"812-0884","address":"福岡市博多区寿町２丁目","voronoi":{"type":"Feature","geometry":{"type":"Polygon","coordinates":[[[130.453788,33.525102],[130.444518,33.534108],[130.449461,33.542662],[130.454298,33.547723],[130.463212,33.543942],[130.4654,33.539023],[130.453788,33.525102]]]},"properties":{}}},
    {"code":1190305,"id":4057,"name":"春日(福岡)","original_name":"春日","name_kana":"かすが","closed":false,"lat":33.534701,"lng":130.469308,"prefecture":40,"lines":[11903],"attr":"heat","postal_code":"816-0802","address":"春日市春日原北町","voronoi":{"type":"Feature","geometry":{"type":"Polygon","coordinates":[[[130.453788,33.525102],[130.4654,33.539023],[130.468301,33.539851],[130.475626,33.530859],[130.459829,33.513446],[130.453788,33.525102]]]},"properties":{}}},
    {"code":1190306,"id":4058,"name":"大野城","original_name":"大野城","name_kana":"おおのじょう","closed":false,"lat":33.524944,"lng":130.480063,"prefecture":40,"lines":[11903],"attr":"heat","postal_code":"816-0943","address":"大野城市白木原１丁目","voronoi":{"type":"Feature","geometry":{"type":"Polygon","coordinates":[[[130.459829,33.513446],[130.475626,33.530859],[130.47576,33.530931],[130.4848,33.524216],[130.483309,33.518765],[130.463524,33.490675],[130.459829,33.513446]]]},"properties":{}}},
    {"code":1190307,"id":4059,"name":"水城","original_name":"水城","name_kana":"みずき","closed":false,"lat":33.51779,"lng":130.49022,"prefecture":40,"lines":[11903],"attr":"heat","postal_code":"816-0952","address":"大野城市下大利３丁目","voronoi":{"type":"Feature","geometry":{"type":"Polygon","coordinates":[[[130.483309,33.518765],[130.463524,33.490675],[130.463464,33.47129],[130.497168,33.509065],[130.501834,33.522645],[130.483309,33.518765]]]},"properties":{}}},
    {"code":1190308,"id":4060,"name":"都府楼南","original_name":"都府楼南","name_kana":"とふろうみなみ","closed":false,"lat":33.503153,"lng":130.506625,"prefecture":40,"lines":[11903],"attr":"heat","postal_code":"818-0105","address":"太宰府市都府楼南３丁目","voronoi":{"type":"Feature","geometry":{"type":"Polygon","coordinates":[[[130.457784,33.444571],[130.463464,33.47129],[130.497168,33.509065],[130.51258,33.506559],[130.511808,33.497524],[130.480688,33.453506],[130.457784,33.444571]]]},"properties":{}}},
    {"code":1190309,"id":4061,"name":"二日市","original_name":"二日市","name_kana":"ふつかいち","closed":false,"lat":33.494515,"lng":130.518843,"prefecture":40,"lines":[11903],"attr":"heat","postal_code":"818-0072","address":"福岡県筑紫野市二日市中央一丁目1-1","voronoi":{"type":"Feature","geometry":{"type":"Polygon","coordinates":[[[130.519359,33.49848],[130.523826,33.487537],[130.48796,33.45527],[130.480688,33.453506],[130.511808,33.497524],[130.519359,33.49848]]]},"properties":{}}},
    {"code":1190310,"id":4062,"name":"天拝山","original_name":"天拝山","name_kana":"てんぱいざん","closed":false,"lat":33.481847,"lng":130.53024,"prefecture":40,"lines":[11903],"attr":"heat","postal_code":"818-0042","address":"筑紫野市立明寺","voronoi":{"type":"Feature","geometry":{"type":"Polygon","coordinates":[[[130.53697,33.47748],[130.52576,33.46406],[130.499313,33.456026],[130.48796,33.45527],[130.523826,33.487537],[130.525763,33.488596],[130.53697,33.47748]]]},"properties":{}}},
    {"code":1190311,"id":4063,"name":"原田(福岡)","original_name":"原田","name_kana":"はるだ","closed":false,"lat":33.451769,"lng":130.539376,"prefecture":40,"lines":[11903,11912],"attr":"heat","postal_code":"818-0024","address":"筑紫野市大字原田","voronoi":{"type":"Feature","geometry":{"type":"Polygon","coordinates":[[[130.542935,33.461389],[130.52576,33.46406],[130.499313,33.456026],[130.548021,33.439112],[130.551577,33.44479],[130.552508,33.449341],[130.542935,33.461389]]]},"properties":{}}},
    {"code":1190312,"id":4064,"name":"けやき台","original_name":"けやき台","name_kana":"けやきだい","closed":false,"lat":33.434537,"lng":130.533392,"prefecture":41,"lines":[11903],"attr":"eco","postal_code":"841-0201","address":"三養基郡基山町小倉","voronoi":{"type":"Feature","geometry":{"type":"Polygon","coordinates":[[[130.48796,33.45527],[130.499313,33.456026],[130.548021,33.439112],[130.548516,33.432766],[130.545996,33.42675],[130.466078,33.432788],[130.462024,33.435456],[130.454904,33.441244],[130.457784,33.444571],[130.480688,33.453506],[130.48796,33.45527]]]},"properties":{}}},
    {"code":1190313,"id":4065,"name":"基山","original_name":"基山","name_kana":"きやま","closed":false,"lat":33.420945,"lng":130.532365,"prefecture":41,"lines":[11903,99901],"attr":"eco","postal_code":"841-0201","address":"三養基郡基山町大字小倉","voronoi":{"type":"Feature","geometry":{"type":"Polygon","coordinates":[[[130.466078,33.432788],[130.545996,33.42675],[130.546118,33.425251],[130.529902,33.411553],[130.47965,33.421738],[130.466078,33.432788]]]},"properties":{}}},
    {"code":1190314,"id":4066,"name":"弥生が丘","original_name":"弥生が丘","name_kana":"やよいがおか","closed":false,"lat":33.401944,"lng":130.528514,"prefecture":41,"lines":[11903],"attr":"cool","postal_code":"841-0011","address":"鳥栖市永吉町字来帰り６３３-１","voronoi":{"type":"Feature","geometry":{"type":"Polygon","coordinates":[[[130.539036,33.390168],[130.498734,33.399196],[130.47965,33.421738],[130.529902,33.411553],[130.540805,33.400035],[130.539036,33.390168]]]},"properties":{}}},
    {"code":1190315,"id":4067,"name":"田代","original_name":"田代","name_kana":"たしろ","closed":false,"lat":33.384007,"lng":130.524496,"prefecture":41,"lines":[11903],"attr":"heat","postal_code":"841-0014","address":"鳥栖市桜町","voronoi":{"type":"Feature","geometry":{"type":"Polygon","coordinates":[[[130.498734,33.399196],[130.503169,33.388412],[130.535809,33.37193],[130.53925,33.38969],[130.539144,33.389941],[130.539036,33.390168],[130.498734,33.399196]]]},"properties":{}}},
    {"code":1190316,"id":4068,"name":"鳥栖","original_name":"鳥栖","name_kana":"とす","closed":false,"lat":33.373864,"lng":130.519374,"prefecture":41,"lines":[11903,11905],"attr":"heat","postal_code":"841-0034","address":"鳥栖市京町","voronoi":{"type":"Feature","geometry":{"type":"Polygon","coordinates":[[[130.535809,33.37193],[130.503169,33.388412],[130.506347,33.363368],[130.518309,33.351524],[130.536148,33.369812],[130.535809,33.37193]]]},"properties":{}}},
    {"code":1190317,"id":4069,"name":"肥前旭","original_name":"肥前旭","name_kana":"ひぜんあさひ","closed":false,"lat":33.350237,"lng":130.495981,"prefecture":41,"lines":[11903],"attr":"heat","postal_code":"841-0066","address":"鳥栖市儀徳町","voronoi":{"type":"Feature","geometry":{"type":"Polygon","coordinates":[[[130.506347,33.363368],[130.487369,33.358756],[130.468836,33.33672],[130.469333,33.329776],[130.511969,33.337373],[130.518515,33.348371],[130.518309,33.351524],[130.506347,33.363368]]]},"properties":{}}},
    {"code":101003,"id":4070,"name":"久留米","original_name":"久留米","name_kana":"くるめ","closed":false,"lat":33.319778,"lng":130.501408,"prefecture":40,"lines":[1010,11903,11913],"attr":"cool","postal_code":"830-0022","address":"久留米市城南町２丁目","voronoi":{"type":"Feature","geometry":{"type":"Polygon","coordinates":[[[130.511969,33.337373],[130.469333,33.329776],[130.462942,33.314958],[130.468167,33.31303],[130.499856,33.308101],[130.507291,33.311659],[130.511231,33.316028],[130.512869,33.320317],[130.512982,33.334287],[130.511969,33.337373]]]},"properties":{}}},
    {"code":1190319,"id":4071,"name":"荒木","original_name":"荒木","name_kana":"あらき","closed":false,"lat":33.277149,"lng":130.50268,"prefecture":40,"lines":[11903],"attr":"cool","postal_code":"830-0062","address":"久留米市荒木町白口","voronoi":{"type":"Feature","geometry":{"type":"Polygon","coordinates":[[[130.544114,33.259372],[130.531902,33.273397],[130.507986,33.288786],[130.499108,33.286542],[130.488866,33.271317],[130.490972,33.262293],[130.544114,33.259372]]]},"properties":{}}},
    {"code":1190320,"id":4072,"name":"西牟田","original_name":"西牟田","name_kana":"にしむた","closed":false,"lat":33.246243,"lng":130.500981,"prefecture":40,"lines":[11903],"attr":"cool","postal_code":"833-0053","address":"筑後市大字西牟田","voronoi":{"type":"Feature","geometry":{"type":"Polygon","coordinates":[[[130.490972,33.262293],[130.544114,33.259372],[130.567549,33.246447],[130.597365,33.218956],[130.481452,33.229684],[130.481761,33.239976],[130.487393,33.258286],[130.490972,33.262293]]]},"properties":{}}},
    {"code":1190321,"id":4073,"name":"羽犬塚","original_name":"羽犬塚","name_kana":"はいぬづか","closed":false,"lat":33.209822,"lng":130.49761,"prefecture":40,"lines":[11903],"attr":"cool","postal_code":"833-0031","address":"筑後市山ノ井諏訪ノ前","voronoi":{"type":"Feature","geometry":{"type":"Polygon","coordinates":[[[130.467775,33.201946],[130.475902,33.224564],[130.481452,33.229684],[130.597365,33.218956],[130.601375,33.216434],[130.633075,33.18447],[130.648615,33.164445],[130.467813,33.199062],[130.467775,33.201946]]]},"properties":{}}},
    {"code":101004,"id":4074,"name":"筑後船小屋","original_name":"筑後船小屋","name_kana":"ちくごふなごや","closed":false,"lat":33.178056,"lng":130.491528,"prefecture":40,"lines":[1010,11903],"attr":"cool","postal_code":"833-0015","address":"筑後市大字津島","voronoi":{"type":"Feature","geometry":{"type":"Polygon","coordinates":[[[130.467813,33.199062],[130.648615,33.164445],[130.691766,33.119291],[130.644203,33.12055],[130.45598,33.177287],[130.456275,33.179029],[130.467813,33.199062]]]},"properties":{}}},
    {"code":1190323,"id":4075,"name":"瀬高","original_name":"瀬高","name_kana":"せたか","closed":false,"lat":33.157,"lng":130.485181,"prefecture":40,"lines":[11903],"attr":"eco","postal_code":"835-0024","address":"みやま市瀬高町下庄２３１５","voronoi":{"type":"Feature","geometry":{"type":"Polygon","coordinates":[[[130.527454,33.115762],[130.45619,33.158558],[130.455824,33.160044],[130.455386,33.17615],[130.45598,33.177287],[130.644203,33.12055],[130.527454,33.115762]]]},"properties":{}}},
    {"code":1190324,"id":4076,"name":"南瀬高","original_name":"南瀬高","name_kana":"みなみせたか","closed":false,"lat":33.133699,"lng":130.471188,"prefecture":40,"lines":[11903],"attr":"eco","postal_code":"835-0013","address":"みやま市瀬高町太神","voronoi":{"type":"Feature","geometry":{"type":"Polygon","coordinates":[[[130.451452,33.139678],[130.45619,33.158558],[130.527454,33.115762],[130.495717,33.106869],[130.462526,33.117675],[130.457684,33.122481],[130.451452,33.139678]]]},"properties":{}}},
    {"code":1190325,"id":4077,"name":"渡瀬(福岡)","original_name":"渡瀬","name_kana":"わたぜ","closed":false,"lat":33.099622,"lng":130.460094,"prefecture":40,"lines":[11903],"attr":"eco","postal_code":"839-0215","address":"みやま市高田町濃施","voronoi":{"type":"Feature","geometry":{"type":"Polygon","coordinates":[[[130.495717,33.106869],[130.462526,33.117675],[130.454213,33.105547],[130.458297,33.093354],[130.477293,33.091324],[130.481337,33.092396],[130.495717,33.106869]]]},"properties":{}}},
    {"code":1190326,"id":4078,"name":"吉野(福岡)","original_name":"吉野","name_kana":"よしの","closed":false,"lat":33.075599,"lng":130.466459,"prefecture":40,"lines":[11903],"attr":"eco","postal_code":"837-0906","address":"大牟田市倉永字神屋原","voronoi":{"type":"Feature","geometry":{"type":"Polygon","coordinates":[[[130.458944,33.078715],[130.477293,33.091324],[130.481337,33.092396],[130.476413,33.067501],[130.47244,33.06811],[130.458944,33.078715]]]},"properties":{}}},
    {"code":1190327,"id":4079,"name":"銀水","original_name":"銀水","name_kana":"ぎんすい","closed":false,"lat":33.054932,"lng":130.460944,"prefecture":40,"lines":[11903],"attr":"eco","postal_code":"837-0917","address":"大牟田市大字草木","voronoi":{"type":"Feature","geometry":{"type":"Polygon","coordinates":[[[130.439009,33.067343],[130.446753,33.066081],[130.482572,33.049843],[130.495587,33.027638],[130.439009,33.067343]]]},"properties":{}}},
    {"code":1190328,"id":4080,"name":"大牟田","original_name":"大牟田","name_kana":"おおむた","closed":false,"lat":33.029754,"lng":130.443784,"prefecture":40,"lines":[11903,36001],"attr":"heat","postal_code":"836-0843","address":"大牟田市不知火町１丁目","voronoi":{"type":"Feature","geometry":{"type":"Polygon","coordinates":[[[130.395543,33.070802],[130.499202,32.996719],[130.315823,33.044127],[130.309637,33.070881],[130.352634,33.072577],[130.392941,33.07116],[130.395543,33.070802]]]},"properties":{}}},
    {"code":1190329,"id":4081,"name":"荒尾(熊本)","original_name":"荒尾","name_kana":"あらお","closed":false,"lat":32.994682,"lng":130.434717,"prefecture":43,"lines":[11903],"attr":"heat","postal_code":"864-0002","address":"荒尾市大字万田","voronoi":{"type":"Feature","geometry":{"type":"Polygon","coordinates":[[[130.494472,32.982292],[130.507112,32.993957],[130.499202,32.996719],[130.315823,33.044127],[130.320746,32.987087],[130.481002,32.977551],[130.494472,32.982292]]]},"properties":{}}},
    {"code":1190330,"id":4082,"name":"南荒尾","original_name":"南荒尾","name_kana":"みなみあらお","closed":false,"lat":32.966029,"lng":130.433012,"prefecture":43,"lines":[11903],"attr":"heat","postal_code":"864-0032","address":"荒尾市大字増永","voronoi":{"type":"Feature","geometry":{"type":"Polygon","coordinates":[[[130.385499,32.907405],[130.363179,32.929101],[130.320679,32.985403],[130.320746,32.987087],[130.481002,32.977551],[130.385499,32.907405]]]},"properties":{}}},
    {"code":1190331,"id":4083,"name":"長洲","original_name":"長洲","name_kana":"ながす","closed":false,"lat":32.935205,"lng":130.455652,"prefecture":43,"lines":[11903],"attr":"heat","postal_code":"869-0121","address":"玉名郡長洲町高浜１４７９","voronoi":{"type":"Feature","geometry":{"type":"Polygon","coordinates":[[[130.42481,32.859982],[130.442065,32.845847],[130.452991,32.839427],[130.494472,32.982292],[130.481002,32.977551],[130.385499,32.907405],[130.385841,32.906839],[130.421854,32.86314],[130.42481,32.859982]]]},"properties":{}}},
    {"code":1190332,"id":4084,"name":"大野下","original_name":"大野下","name_kana":"おおのしも","closed":false,"lat":32.921737,"lng":130.502038,"prefecture":43,"lines":[11903],"attr":"heat","postal_code":"869-0224","address":"玉名市岱明町大野下","voronoi":{"type":"Feature","geometry":{"type":"Polygon","coordinates":[[[130.452991,32.839427],[130.494472,32.982292],[130.507112,32.993957],[130.517092,32.998407],[130.518383,32.998522],[130.534747,32.821065],[130.533312,32.806756],[130.497655,32.797764],[130.491378,32.803202],[130.465467,32.826934],[130.452991,32.839427]]]},"properties":{}}},
    {"code":1190333,"id":4085,"name":"玉名","original_name":"玉名","name_kana":"たまな","closed":false,"lat":32.926021,"lng":130.548494,"prefecture":43,"lines":[11903],"attr":"heat","postal_code":"865-0064","address":"玉名市中","voronoi":{"type":"Feature","geometry":{"type":"Polygon","coordinates":[[[130.518592,32.998608],[130.518383,32.998522],[130.534747,32.821065],[130.568654,32.922641],[130.518592,32.998608]]]},"properties":{}}},
    {"code":1190334,"id":4086,"name":"肥後伊倉","original_name":"肥後伊倉","name_kana":"ひごいくら","closed":false,"lat":32.913233,"lng":130.586803,"prefecture":43,"lines":[11903],"attr":"heat","postal_code":"865-0041","address":"玉名市伊倉北方","voronoi":{"type":"Feature","geometry":{"type":"Polygon","coordinates":[[[130.610949,32.862831],[130.604618,32.938988],[130.568654,32.922641],[130.534747,32.821065],[130.533312,32.806756],[130.54627,32.805212],[130.584385,32.807227],[130.6025,32.822234],[130.610949,32.862831]]]},"properties":{}}},
    {"code":1190335,"id":4087,"name":"木葉","original_name":"木葉","name_kana":"このは","closed":false,"lat":32.916528,"lng":130.626441,"prefecture":43,"lines":[11903],"attr":"heat","postal_code":"869-0303","address":"玉名郡玉東町大字木葉","voronoi":{"type":"Feature","geometry":{"type":"Polygon","coordinates":[[[130.727238,33.044659],[130.610949,32.862831],[130.604618,32.938988],[130.688927,33.110842],[130.695707,33.11688],[130.734533,33.115376],[130.734727,33.115319],[130.745186,33.111254],[130.727238,33.044659]]]},"properties":{}}},
    {"code":1190336,"id":4088,"name":"田原坂","original_name":"田原坂","name_kana":"たばるざか","closed":false,"lat":32.899416,"lng":130.653197,"prefecture":43,"lines":[11903],"attr":"heat","postal_code":"861-0155","address":"熊本市北区植木町轟1687","voronoi":{"type":"Feature","geometry":{"type":"Polygon","coordinates":[[[130.604742,32.822966],[130.6025,32.822234],[130.610949,32.862831],[130.727238,33.044659],[130.712237,32.954948],[130.632231,32.839725],[130.604742,32.822966]]]},"properties":{}}},
    {"code":1190337,"id":4089,"name":"植木","original_name":"植木","name_kana":"うえき","closed":false,"lat":32.880226,"lng":130.680834,"prefecture":43,"lines":[11903],"attr":"heat","postal_code":"861-0142","address":"熊本市北区植木町鐙田75","voronoi":{"type":"Feature","geometry":{"type":"Polygon","coordinates":[[[130.632231,32.839725],[130.666877,32.849626],[130.712885,32.884295],[130.713941,32.891048],[130.714401,32.905114],[130.712237,32.954948],[130.632231,32.839725]]]},"properties":{}}},
    {"code":1190338,"id":4090,"name":"西里","original_name":"西里","name_kana":"にしさと","closed":false,"lat":32.854607,"lng":130.700139,"prefecture":43,"lines":[11903],"attr":"heat","postal_code":"861-5522","address":"熊本市下硯川町","voronoi":{"type":"Feature","geometry":{"type":"Polygon","coordinates":[[[130.707953,32.84195],[130.704975,32.841155],[130.666877,32.849626],[130.712885,32.884295],[130.713166,32.883558],[130.715991,32.872373],[130.715667,32.865115],[130.712031,32.848875],[130.707953,32.84195]]]},"properties":{}}},
    {"code":1190339,"id":4091,"name":"崇城大学前","original_name":"崇城大学前","name_kana":"そうじょうだいがくまえ","closed":false,"lat":32.83102,"lng":130.694895,"prefecture":43,"lines":[11903],"attr":"heat","postal_code":"860-0082","address":"熊本市池田４丁目","voronoi":{"type":"Feature","geometry":{"type":"Polygon","coordinates":[[[130.678557,32.818909],[130.69436,32.823444],[130.701845,32.831152],[130.704975,32.841155],[130.666877,32.849626],[130.632231,32.839725],[130.604742,32.822966],[130.642548,32.81754],[130.672415,32.818289],[130.678557,32.818909]]]},"properties":{}}},
    {"code":1190340,"id":4092,"name":"上熊本(JR/熊本電気鉄道)","original_name":"上熊本","name_kana":"かみくまもと","closed":false,"lat":32.817305,"lng":130.698831,"prefecture":43,"lines":[11903,99918],"attr":"heat","postal_code":"860-0079","address":"熊本市上熊本２丁目","voronoi":{"type":"Feature","geometry":{"type":"Polygon","coordinates":[[[130.678557,32.818909],[130.69436,32.823444],[130.700242,32.820812],[130.69869,32.816157],[130.694231,32.815904],[130.687375,32.816584],[130.678557,32.818909]]]},"properties":{}}},
    {"code":101007,"id":4093,"name":"熊本","original_name":"熊本","name_kana":"くまもと","closed":false,"lat":32.78988,"lng":130.68899,"prefecture":43,"lines":[1010,11903,11923,11924],"attr":"heat","postal_code":"860-0047","address":"熊本市春日３丁目","voronoi":{"type":"Feature","geometry":{"type":"Polygon","coordinates":[[[130.688679,32.788368],[130.690925,32.793071],[130.687708,32.799317],[130.686073,32.800682],[130.642548,32.81754],[130.604742,32.822966],[130.6025,32.822234],[130.584385,32.807227],[130.594411,32.796834],[130.609168,32.793504],[130.685164,32.787909],[130.688679,32.788368]]]},"properties":{}}},
    {"code":1190351,"id":9307,"name":"西熊本","original_name":"西熊本","name_kana":"にしくまもと","closed":false,"lat":32.7625,"lng":130.682812,"prefecture":43,"lines":[11903,11924],"attr":"eco","postal_code":"861-4134","address":"熊本市南区刈草一丁目","open_date":"2016-03-26","voronoi":{"type":"Feature","geometry":{"type":"Polygon","coordinates":[[[130.594411,32.796834],[130.609168,32.793504],[130.693158,32.772053],[130.715423,32.747852],[130.618601,32.762871],[130.594411,32.796834]]]},"properties":{}}},
    {"code":1190342,"id":4094,"name":"川尻","original_name":"川尻","name_kana":"かわしり","closed":false,"lat":32.743772,"lng":130.679907,"prefecture":43,"lines":[11903,11924],"attr":"heat","postal_code":"861-4113","address":"熊本市八幡町","voronoi":{"type":"Feature","geometry":{"type":"Polygon","coordinates":[[[130.635744,32.738289],[130.740801,32.713523],[130.740017,32.715363],[130.736244,32.723585],[130.734518,32.727099],[130.724958,32.741891],[130.715423,32.747852],[130.618601,32.762871],[130.626541,32.747271],[130.635744,32.738289]]]},"properties":{}}},
    {"code":1190350,"id":9121,"name":"富合","original_name":"富合","name_kana":"とみあい","closed":false,"lat":32.713658,"lng":130.672808,"prefecture":43,"lines":[11903,11924],"attr":"heat","postal_code":"861-4163","address":"熊本県熊本市南区富合町志々水63-6","open_date":"2011-03-22","voronoi":{"type":"Feature","geometry":{"type":"Polygon","coordinates":[[[130.740801,32.713523],[130.635744,32.738289],[130.650159,32.707871],[130.76011,32.68715],[130.740801,32.713523]]]},"properties":{}}},
    {"code":1190343,"id":4095,"name":"宇土","original_name":"宇土","name_kana":"うと","closed":false,"lat":32.694237,"lng":130.669148,"prefecture":43,"lines":[11903,11924],"attr":"eco","postal_code":"869-0406","address":"宇土市三拾町","voronoi":{"type":"Feature","geometry":{"type":"Polygon","coordinates":[[[130.769653,32.676709],[130.650375,32.672611],[130.650159,32.707871],[130.76011,32.68715],[130.769653,32.676709]]]},"properties":{}}},
    {"code":1190344,"id":4096,"name":"松橋","original_name":"松橋","name_kana":"まつばせ","closed":false,"lat":32.652324,"lng":130.670588,"prefecture":43,"lines":[11903],"attr":"cool","postal_code":"869-0551","address":"宇城市不知火町御領","voronoi":{"type":"Feature","geometry":{"type":"Polygon","coordinates":[[[130.602416,32.607926],[130.605125,32.630002],[130.650375,32.672611],[130.769653,32.676709],[130.777885,32.670791],[130.641475,32.607691],[130.602416,32.607926]]]},"properties":{}}},
    {"code":1190345,"id":4097,"name":"小川(熊本)","original_name":"小川","name_kana":"おがわ","closed":false,"lat":32.600979,"lng":130.694339,"prefecture":43,"lines":[11903],"attr":"cool","postal_code":"869-0623","address":"宇城市小川町川尻","voronoi":{"type":"Feature","geometry":{"type":"Polygon","coordinates":[[[130.839106,32.482248],[130.641475,32.607691],[130.777885,32.670791],[130.939764,32.609772],[130.970759,32.560589],[130.897204,32.49482],[130.871857,32.475051],[130.839106,32.482248]]]},"properties":{}}},
    {"code":1190346,"id":4098,"name":"有佐","original_name":"有佐","name_kana":"ありさ","closed":false,"lat":32.562711,"lng":130.670049,"prefecture":43,"lines":[11903],"attr":"cool","postal_code":"869-4212","address":"八代市鏡町下有佐","voronoi":{"type":"Feature","geometry":{"type":"Polygon","coordinates":[[[130.602416,32.607926],[130.594521,32.598655],[130.716142,32.500437],[130.756187,32.490146],[130.839106,32.482248],[130.641475,32.607691],[130.602416,32.607926]]]},"properties":{}}},
    {"code":1190347,"id":4099,"name":"千丁","original_name":"千丁","name_kana":"せんちょう","closed":false,"lat":32.532387,"lng":130.64556,"prefecture":43,"lines":[11903],"attr":"cool","postal_code":"869-4702","address":"八代市千丁町吉王丸","voronoi":{"type":"Feature","geometry":{"type":"Polygon","coordinates":[[[130.572176,32.582356],[130.569495,32.578987],[130.568761,32.577596],[130.674052,32.500322],[130.716142,32.500437],[130.594521,32.598655],[130.572176,32.582356]]]},"properties":{}}},
    {"code":101008,"id":4100,"name":"新八代","original_name":"新八代","name_kana":"しんやつしろ","closed":false,"lat":32.517888,"lng":130.634919,"prefecture":43,"lines":[1010,11903],"attr":"cool","postal_code":"866-0824","address":"八代市上日置町字女夫木４７７４-２","voronoi":{"type":"Feature","geometry":{"type":"Polygon","coordinates":[[[130.564468,32.571141],[130.645877,32.4942],[130.674052,32.500322],[130.568761,32.577596],[130.564468,32.571141]]]},"properties":{}}},
    {"code":1190349,"id":4101,"name":"八代","original_name":"八代","name_kana":"やつしろ","closed":false,"lat":32.503805,"lng":130.621609,"prefecture":43,"lines":[11903,11925,99921],"attr":"cool","postal_code":"866-0831","address":"八代市萩原町１丁目","voronoi":{"type":"Feature","geometry":{"type":"Polygon","coordinates":[[[130.632096,32.484888],[130.52176,32.52011],[130.564468,32.571141],[130.645877,32.4942],[130.632096,32.484888]]]},"properties":{}}}
  ]
}