{
  "code":11906,
  "id":"3b7fca",
  "name":"JR日豊本線(門司港～佐伯)",
  "name_kana":"じぇいあーるにっぽうほんせん",
  "station_size":60,
  "company_code":6,
  "closed":false,
  "station_list":[
    {"code":1190202,"id":"4f17c1","name":"門司港","original_name":"門司港","name_kana":"もじこう","closed":false,"lat":33.945138,"lng":130.961549,"prefecture":40,"lines":[11902,11906],"attr":"heat","postal_code":"801-0841","address":"北九州市門司区西海岸１丁目","voronoi":{"type":"Feature","geometry":{"type":"Polygon","coordinates":[[[130.95019,33.930683],[130.940988,33.937995],[130.943329,33.955442],[130.960008,33.951278],[130.96342,33.946466],[130.95019,33.930683]]]},"properties":{}}},
    {"code":1190203,"id":"ebf907","name":"小森江","original_name":"小森江","name_kana":"こもりえ","closed":false,"lat":33.916352,"lng":130.938674,"prefecture":40,"lines":[11902,11906],"attr":"heat","postal_code":"800-0007","address":"北九州市門司区小森江３丁目","voronoi":{"type":"Feature","geometry":{"type":"Polygon","coordinates":[[[130.95019,33.930683],[131.014385,33.876275],[130.907693,33.922662],[130.940988,33.937995],[130.95019,33.930683]]]},"properties":{}}},
    {"code":1161237,"id":"9834f5","name":"門司","original_name":"門司","name_kana":"もじ","closed":false,"lat":33.904309,"lng":130.933438,"prefecture":40,"lines":[11612,11902,11906],"attr":"heat","postal_code":"800-0039","address":"北九州市門司区中町","voronoi":{"type":"Feature","geometry":{"type":"Polygon","coordinates":[[[130.89933,33.920771],[130.914724,33.876256],[130.914767,33.876212],[130.931115,33.868357],[131.007006,33.869828],[131.019462,33.872602],[131.014385,33.876275],[130.907693,33.922662],[130.89933,33.920771]]]},"properties":{}}},
    {"code":100318,"id":"456856","name":"小倉(福岡)","original_name":"小倉","name_kana":"こくら","closed":false,"lat":33.886756,"lng":130.882678,"prefecture":40,"lines":[1003,11902,11906,11914,99908],"attr":"heat","postal_code":"802-0001","address":"北九州市小倉北区浅野１丁目","voronoi":{"type":"Feature","geometry":{"type":"Polygon","coordinates":[[[130.89933,33.920771],[130.887188,33.928483],[130.878028,33.886524],[130.902778,33.87667],[130.909568,33.875613],[130.914724,33.876256],[130.89933,33.920771]]]},"properties":{}}},
    {"code":1190206,"id":"5a5215","name":"西小倉","original_name":"西小倉","name_kana":"にしこくら","closed":false,"lat":33.888673,"lng":130.873897,"prefecture":40,"lines":[11902,11906,11914],"attr":"heat","postal_code":"803-0812","address":"北九州市小倉北区室町３丁目","voronoi":{"type":"Feature","geometry":{"type":"Polygon","coordinates":[[[130.887188,33.928483],[130.872739,33.940003],[130.854239,33.886618],[130.869917,33.879072],[130.876016,33.883842],[130.878028,33.886524],[130.887188,33.928483]]]},"properties":{}}},
    {"code":1190606,"id":"465c6e","name":"南小倉","original_name":"南小倉","name_kana":"みなみこくら","closed":false,"lat":33.869972,"lng":130.864895,"prefecture":40,"lines":[11906,11914],"attr":"heat","postal_code":"803-0851","address":"北九州市小倉北区木町３丁目","voronoi":{"type":"Feature","geometry":{"type":"Polygon","coordinates":[[[130.871728,33.87647],[130.869917,33.879072],[130.854239,33.886618],[130.839021,33.8742],[130.835164,33.853028],[130.835058,33.848134],[130.835412,33.848125],[130.851828,33.849229],[130.856616,33.850374],[130.857576,33.850787],[130.865751,33.85593],[130.870924,33.862502],[130.873084,33.869836],[130.871728,33.87647]]]},"properties":{}}},
    {"code":1190607,"id":"8febcb","name":"城野(JR)","original_name":"城野","name_kana":"じょうの","closed":false,"lat":33.858202,"lng":130.886242,"prefecture":40,"lines":[11906,11914],"attr":"heat","postal_code":"802-0802","address":"北九州市小倉南区城野一丁目6-1","voronoi":{"type":"Feature","geometry":{"type":"Polygon","coordinates":[[[130.909568,33.875613],[130.891092,33.868605],[130.883024,33.861757],[130.882767,33.853077],[130.891083,33.845599],[130.914767,33.876212],[130.914724,33.876256],[130.909568,33.875613]]]},"properties":{}}},
    {"code":1190608,"id":"337170","name":"安部山公園","original_name":"安部山公園","name_kana":"あべやまこうえん","closed":false,"lat":33.844078,"lng":130.904498,"prefecture":40,"lines":[11906],"attr":"heat","postal_code":"800-0256","address":"北九州市小倉南区湯川新町４丁目","voronoi":{"type":"Feature","geometry":{"type":"Polygon","coordinates":[[[130.912002,33.818191],[130.891033,33.845331],[130.891083,33.845599],[130.914767,33.876212],[130.931115,33.868357],[130.912002,33.818191]]]},"properties":{}}},
    {"code":1190609,"id":"acffe6","name":"下曽根","original_name":"下曽根","name_kana":"しもそね","closed":false,"lat":33.832522,"lng":130.934829,"prefecture":40,"lines":[11906],"attr":"heat","postal_code":"800-0217","address":"北九州市小倉南区下曽根１丁目","voronoi":{"type":"Feature","geometry":{"type":"Polygon","coordinates":[[[130.912002,33.818191],[130.912139,33.806442],[130.914183,33.798344],[130.915255,33.796114],[131.007006,33.869828],[130.931115,33.868357],[130.912002,33.818191]]]},"properties":{}}},
    {"code":1190610,"id":"9bb330","name":"朽網","original_name":"朽網","name_kana":"くさみ","closed":false,"lat":33.807384,"lng":130.955025,"prefecture":40,"lines":[11906],"attr":"heat","postal_code":"802-0000","address":"北九州市小倉南区井無田","voronoi":{"type":"Feature","geometry":{"type":"Polygon","coordinates":[[[130.918086,33.766041],[130.916355,33.772914],[130.915255,33.796114],[131.007006,33.869828],[131.019462,33.872602],[131.039259,33.87153],[130.947108,33.775082],[130.918086,33.766041]]]},"properties":{}}},
    {"code":1190611,"id":"474baf","name":"苅田","original_name":"苅田","name_kana":"かんだ","closed":false,"lat":33.784462,"lng":130.979016,"prefecture":40,"lines":[11906],"attr":"heat","postal_code":"800-0361","address":"京都郡苅田町神田町１丁目","voronoi":{"type":"Feature","geometry":{"type":"Polygon","coordinates":[[[131.039259,33.87153],[130.947108,33.775082],[131.038689,33.754578],[131.087124,33.770468],[131.132443,33.794504],[131.067529,33.874141],[131.051242,33.872772],[131.039259,33.87153]]]},"properties":{}}},
    {"code":1190612,"id":"b1c52e","name":"小波瀬西工大前","original_name":"小波瀬西工大前","name_kana":"おばせにしこうだいまえ","closed":false,"lat":33.752992,"lng":130.97197,"prefecture":40,"lines":[11906],"attr":"cool","postal_code":"800-0344","address":"京都郡苅田町新津","voronoi":{"type":"Feature","geometry":{"type":"Polygon","coordinates":[[[130.916712,33.744331],[130.917036,33.762558],[130.918086,33.766041],[130.947108,33.775082],[131.038689,33.754578],[131.027053,33.747266],[130.994366,33.739109],[130.916712,33.744331]]]},"properties":{}}},
    {"code":1190613,"id":"7640c5","name":"行橋","original_name":"行橋","name_kana":"ゆくはし","closed":false,"lat":33.72835,"lng":130.970313,"prefecture":40,"lines":[11906,99904],"attr":"cool","postal_code":"824-0031","address":"行橋市西宮市２丁目","voronoi":{"type":"Feature","geometry":{"type":"Polygon","coordinates":[[[130.978165,33.724543],[130.96042,33.719336],[130.942186,33.720531],[130.912265,33.726188],[130.916712,33.744331],[130.994366,33.739109],[130.978165,33.724543]]]},"properties":{}}},
    {"code":1190614,"id":"2b432f","name":"南行橋","original_name":"南行橋","name_kana":"みなみゆくはし","closed":false,"lat":33.716332,"lng":130.981118,"prefecture":40,"lines":[11906],"attr":"cool","postal_code":"824-0034","address":"行橋市泉中央２丁目","voronoi":{"type":"Feature","geometry":{"type":"Polygon","coordinates":[[[130.994366,33.739109],[130.978165,33.724543],[130.976686,33.710045],[130.985309,33.695643],[130.986117,33.694699],[131.027053,33.747266],[130.994366,33.739109]]]},"properties":{}}},
    {"code":1190615,"id":"735cda","name":"新田原","original_name":"新田原","name_kana":"しんでんばる","closed":false,"lat":33.695152,"lng":131.008316,"prefecture":40,"lines":[11906],"attr":"cool","postal_code":"824-0026","address":"行橋市大字道場寺","voronoi":{"type":"Feature","geometry":{"type":"Polygon","coordinates":[[[131.087124,33.770468],[130.998779,33.651168],[130.986453,33.686569],[130.985578,33.691754],[130.986117,33.694699],[131.027053,33.747266],[131.038689,33.754578],[131.087124,33.770468]]]},"properties":{}}},
    {"code":1190616,"id":"5da3d0","name":"築城","original_name":"築城","name_kana":"ついき","closed":false,"lat":33.673119,"lng":131.038069,"prefecture":40,"lines":[11906],"attr":"eco","postal_code":"829-0101","address":"築上郡築上町東築城","voronoi":{"type":"Feature","geometry":{"type":"Polygon","coordinates":[[[131.132443,33.794504],[131.087124,33.770468],[130.998779,33.651168],[130.997511,33.636928],[131.000369,33.615228],[131.154736,33.770799],[131.160418,33.780482],[131.132443,33.794504]]]},"properties":{}}},
    {"code":1190617,"id":"12059f","name":"椎田","original_name":"椎田","name_kana":"しいだ","closed":false,"lat":33.653377,"lng":131.057965,"prefecture":40,"lines":[11906],"attr":"eco","postal_code":"829-0301","address":"築上郡築上町椎田","voronoi":{"type":"Feature","geometry":{"type":"Polygon","coordinates":[[[131.113181,33.682176],[131.001049,33.546209],[130.999693,33.606036],[131.000369,33.615228],[131.154736,33.770799],[131.113181,33.682176]]]},"properties":{}}},
    {"code":1190618,"id":"9dafb5","name":"豊前松江","original_name":"豊前松江","name_kana":"ぶぜんしょうえ","closed":false,"lat":33.622487,"lng":131.095421,"prefecture":40,"lines":[11906],"attr":"eco","postal_code":"828-0002","address":"豊前市大字松江","voronoi":{"type":"Feature","geometry":{"type":"Polygon","coordinates":[[[130.999554,33.537934],[130.998978,33.530526],[131.020094,33.491276],[131.055062,33.452309],[131.057763,33.451593],[131.097743,33.452239],[131.105763,33.487213],[131.113181,33.682176],[131.001049,33.546209],[130.999554,33.537934]]]},"properties":{}}},
    {"code":1190619,"id":"7d54d3","name":"宇島","original_name":"宇島","name_kana":"うのしま","closed":false,"lat":33.62131,"lng":131.126354,"prefecture":40,"lines":[11906],"attr":"eco","postal_code":"828-0021","address":"豊前市大字八屋","voronoi":{"type":"Feature","geometry":{"type":"Polygon","coordinates":[[[131.160418,33.780482],[131.154736,33.770799],[131.113181,33.682176],[131.105763,33.487213],[131.123557,33.537556],[131.177059,33.778056],[131.160418,33.780482]]]},"properties":{}}},
    {"code":1190620,"id":"0b6e21","name":"三毛門","original_name":"三毛門","name_kana":"みけかど","closed":false,"lat":33.614597,"lng":131.15653,"prefecture":40,"lines":[11906],"attr":"eco","postal_code":"828-0031","address":"豊前市大字三毛門","voronoi":{"type":"Feature","geometry":{"type":"Polygon","coordinates":[[[131.177059,33.778056],[131.123557,33.537556],[131.207921,33.68312],[131.243935,33.763216],[131.202929,33.776741],[131.177059,33.778056]]]},"properties":{}}},
    {"code":1190621,"id":"b3393e","name":"吉富(福岡)","original_name":"吉富","name_kana":"よしとみ","closed":false,"lat":33.604465,"lng":131.174012,"prefecture":40,"lines":[11906],"attr":"eco","postal_code":"871-0811","address":"築上郡吉富町大字広津","voronoi":{"type":"Feature","geometry":{"type":"Polygon","coordinates":[[[131.097743,33.452239],[131.105763,33.487213],[131.123557,33.537556],[131.207921,33.68312],[131.133303,33.445541],[131.125198,33.446015],[131.097743,33.452239]]]},"properties":{}}},
    {"code":1190622,"id":"5664eb","name":"中津(大分)","original_name":"中津","name_kana":"なかつ","closed":false,"lat":33.599202,"lng":131.190769,"prefecture":44,"lines":[11906],"attr":"eco","postal_code":"871-0033","address":"中津市大字島田","voronoi":{"type":"Feature","geometry":{"type":"Polygon","coordinates":[[[131.243935,33.763216],[131.254305,33.761011],[131.180542,33.448975],[131.177551,33.440565],[131.133303,33.445541],[131.207921,33.68312],[131.243935,33.763216]]]},"properties":{}}},
    {"code":1190623,"id":"ee09c8","name":"東中津","original_name":"東中津","name_kana":"ひがしなかつ","closed":false,"lat":33.58788,"lng":131.238664,"prefecture":44,"lines":[11906],"attr":"eco","postal_code":"871-0003","address":"中津市大字是則","voronoi":{"type":"Feature","geometry":{"type":"Polygon","coordinates":[[[131.305501,33.674577],[131.180542,33.448975],[131.254305,33.761011],[131.296272,33.758175],[131.325998,33.755137],[131.305501,33.674577]]]},"properties":{}}},
    {"code":1190624,"id":"eb18e1","name":"今津(大分)","original_name":"今津","name_kana":"いまづ","closed":false,"lat":33.571929,"lng":131.267462,"prefecture":44,"lines":[11906],"attr":"eco","postal_code":"879-0101","address":"中津市大字今津","voronoi":{"type":"Feature","geometry":{"type":"Polygon","coordinates":[[[131.177551,33.440565],[131.180542,33.448975],[131.305501,33.674577],[131.302887,33.648047],[131.23729,33.417357],[131.177551,33.440565]]]},"properties":{}}},
    {"code":1190625,"id":"c738f7","name":"天津","original_name":"天津","name_kana":"あまつ","closed":false,"lat":33.564678,"lng":131.292962,"prefecture":44,"lines":[11906],"attr":"eco","postal_code":"879-0161","address":"宇佐市大字下敷田","voronoi":{"type":"Feature","geometry":{"type":"Polygon","coordinates":[[[131.306117,33.409943],[131.31593,33.432134],[131.302887,33.648047],[131.23729,33.417357],[131.265921,33.403357],[131.270953,33.402719],[131.306117,33.409943]]]},"properties":{}}},
    {"code":1190626,"id":"6e617c","name":"豊前善光寺","original_name":"豊前善光寺","name_kana":"ぶぜんぜんこうじ","closed":false,"lat":33.566479,"lng":131.322776,"prefecture":44,"lines":[11906],"attr":"eco","postal_code":"879-0309","address":"宇佐市大字東高家","voronoi":{"type":"Feature","geometry":{"type":"Polygon","coordinates":[[[131.326572,33.755212],[131.325998,33.755137],[131.305501,33.674577],[131.302887,33.648047],[131.31593,33.432134],[131.333721,33.462667],[131.339396,33.47714],[131.349902,33.75709],[131.326572,33.755212]]]},"properties":{}}},
    {"code":1190627,"id":"353650","name":"柳ヶ浦","original_name":"柳ヶ浦","name_kana":"やなぎがうら","closed":false,"lat":33.564982,"lng":131.362665,"prefecture":44,"lines":[11906],"attr":"eco","postal_code":"872-0032","address":"大分県宇佐市大字江須賀","voronoi":{"type":"Feature","geometry":{"type":"Polygon","coordinates":[[[131.372336,33.525796],[131.339396,33.47714],[131.349902,33.75709],[131.376142,33.761978],[131.372336,33.525796]]]},"properties":{}}},
    {"code":1190628,"id":"4814ab","name":"豊前長洲","original_name":"豊前長洲","name_kana":"ぶぜんながす","closed":false,"lat":33.56465,"lng":131.383264,"prefecture":44,"lines":[11906],"attr":"eco","postal_code":"872-0001","address":"宇佐市大字長洲","voronoi":{"type":"Feature","geometry":{"type":"Polygon","coordinates":[[[131.533349,33.787347],[131.583659,33.768248],[131.625043,33.746373],[131.372336,33.525796],[131.376142,33.761978],[131.434252,33.775974],[131.533349,33.787347]]]},"properties":{}}},
    {"code":1190629,"id":"9171e9","name":"宇佐","original_name":"宇佐","name_kana":"うさ","closed":false,"lat":33.531373,"lng":131.41231,"prefecture":44,"lines":[11906],"attr":"eco","postal_code":"879-1132","address":"宇佐市大字岩崎","voronoi":{"type":"Feature","geometry":{"type":"Polygon","coordinates":[[[131.483783,33.557689],[131.333721,33.462667],[131.339396,33.47714],[131.372336,33.525796],[131.625043,33.746373],[131.627485,33.745303],[131.483783,33.557689]]]},"properties":{}}},
    {"code":1190630,"id":"551e26","name":"西屋敷","original_name":"西屋敷","name_kana":"にしやしき","closed":false,"lat":33.504332,"lng":131.429433,"prefecture":44,"lines":[11906],"attr":"eco","postal_code":"879-1127","address":"宇佐市大字西屋敷","voronoi":{"type":"Feature","geometry":{"type":"Polygon","coordinates":[[[131.483783,33.557689],[131.333721,33.462667],[131.31593,33.432134],[131.306117,33.409943],[131.376577,33.388258],[131.412109,33.406207],[131.483783,33.557689]]]},"properties":{}}},
    {"code":1190631,"id":"0556b8","name":"立石","original_name":"立石","name_kana":"たていし","closed":false,"lat":33.481829,"lng":131.476993,"prefecture":44,"lines":[11906],"attr":"eco","postal_code":"879-1302","address":"杵築市山香町立石","voronoi":{"type":"Feature","geometry":{"type":"Polygon","coordinates":[[[131.699465,33.724721],[131.627485,33.745303],[131.483783,33.557689],[131.412109,33.406207],[131.42655,33.409143],[131.619439,33.576086],[131.715894,33.710106],[131.699465,33.724721]]]},"properties":{}}},
    {"code":1190632,"id":"a00370","name":"中山香","original_name":"中山香","name_kana":"なかやまが","closed":false,"lat":33.448636,"lng":131.505721,"prefecture":44,"lines":[11906],"attr":"eco","postal_code":"879-1307","address":"杵築市山香町野原","voronoi":{"type":"Feature","geometry":{"type":"Polygon","coordinates":[[[131.53178,33.413689],[131.619439,33.576086],[131.42655,33.409143],[131.504989,33.405207],[131.53178,33.413689]]]},"properties":{}}},
    {"code":1190633,"id":"420b38","name":"杵築","original_name":"杵築","name_kana":"きつき","closed":false,"lat":33.411081,"lng":131.575295,"prefecture":44,"lines":[11906],"attr":"eco","postal_code":"873-0015","address":"杵築市大字八坂野添","voronoi":{"type":"Feature","geometry":{"type":"Polygon","coordinates":[[[131.540158,33.404545],[131.53178,33.413689],[131.619439,33.576086],[131.715894,33.710106],[131.905543,33.595726],[131.787468,33.449297],[131.783673,33.445459],[131.727914,33.397023],[131.549522,33.39738],[131.540158,33.404545]]]},"properties":{}}},
    {"code":1190634,"id":"18d11c","name":"大神","original_name":"大神","name_kana":"おおが","closed":false,"lat":33.383576,"lng":131.57524,"prefecture":44,"lines":[11906],"attr":"eco","postal_code":"879-1504","address":"速見郡日出町大字大神","voronoi":{"type":"Feature","geometry":{"type":"Polygon","coordinates":[[[131.727914,33.397023],[131.549522,33.39738],[131.587092,33.31482],[131.621519,33.31669],[131.62177,33.316797],[131.671273,33.345114],[131.699675,33.36765],[131.727914,33.397023]]]},"properties":{}}},
    {"code":1190635,"id":"e1f675","name":"日出","original_name":"日出","name_kana":"ひじ","closed":false,"lat":33.368921,"lng":131.543036,"prefecture":44,"lines":[11906],"attr":"eco","postal_code":"879-1505","address":"速見郡日出町川崎字則次","voronoi":{"type":"Feature","geometry":{"type":"Polygon","coordinates":[[[131.540158,33.404545],[131.533185,33.331624],[131.563977,33.307399],[131.587092,33.31482],[131.549522,33.39738],[131.540158,33.404545]]]},"properties":{}}},
    {"code":1190636,"id":"9b9a08","name":"暘谷","original_name":"暘谷","name_kana":"ようこく","closed":false,"lat":33.370112,"lng":131.530581,"prefecture":44,"lines":[11906],"attr":"eco","postal_code":"879-1505","address":"速見郡日出町大字川崎字佐尾","voronoi":{"type":"Feature","geometry":{"type":"Polygon","coordinates":[[[131.533185,33.331624],[131.540158,33.404545],[131.53178,33.413689],[131.504989,33.405207],[131.523471,33.33928],[131.529204,33.333818],[131.533185,33.331624]]]},"properties":{}}},
    {"code":1190637,"id":"628c23","name":"豊後豊岡","original_name":"豊後豊岡","name_kana":"ぶんごとよおか","closed":false,"lat":33.361923,"lng":131.50137,"prefecture":44,"lines":[11906],"attr":"eco","postal_code":"879-1507","address":"速見郡日出町大字豊岡","voronoi":{"type":"Feature","geometry":{"type":"Polygon","coordinates":[[[131.523471,33.33928],[131.504989,33.405207],[131.42655,33.409143],[131.412109,33.406207],[131.376577,33.388258],[131.384628,33.376401],[131.523471,33.33928]]]},"properties":{}}},
    {"code":1190638,"id":"0bbbab","name":"亀川","original_name":"亀川","name_kana":"かめがわ","closed":false,"lat":33.330688,"lng":131.493019,"prefecture":44,"lines":[11906],"attr":"eco","postal_code":"874-0014","address":"別府市亀川浜田町","voronoi":{"type":"Feature","geometry":{"type":"Polygon","coordinates":[[[131.523471,33.33928],[131.384628,33.376401],[131.424214,33.296229],[131.529204,33.333818],[131.523471,33.33928]]]},"properties":{}}},
    {"code":1190639,"id":"96a9ef","name":"別府大学","original_name":"別府大学","name_kana":"べっぷだいがく","closed":false,"lat":33.31327,"lng":131.499255,"prefecture":44,"lines":[11906],"attr":"eco","postal_code":"874-0023","address":"別府市上人ケ浜町","voronoi":{"type":"Feature","geometry":{"type":"Polygon","coordinates":[[[131.561685,33.304587],[131.533193,33.297525],[131.424964,33.294098],[131.424214,33.296229],[131.529204,33.333818],[131.533185,33.331624],[131.563977,33.307399],[131.561685,33.304587]]]},"properties":{}}},
    {"code":1190640,"id":"ff1ac7","name":"別府(大分)","original_name":"別府","name_kana":"べっぷ","closed":false,"lat":33.279665,"lng":131.500319,"prefecture":44,"lines":[11906],"attr":"eco","postal_code":"874-0935","address":"別府市駅前町","voronoi":{"type":"Feature","geometry":{"type":"Polygon","coordinates":[[[131.424964,33.294098],[131.533193,33.297525],[131.468454,33.241993],[131.452427,33.244806],[131.42893,33.260426],[131.424964,33.294098]]]},"properties":{}}},
    {"code":1190641,"id":"07dd11","name":"東別府","original_name":"東別府","name_kana":"ひがしべっぷ","closed":false,"lat":33.267753,"lng":131.510537,"prefecture":44,"lines":[11906],"attr":"heat","postal_code":"874-0947","address":"別府市大字浜脇","voronoi":{"type":"Feature","geometry":{"type":"Polygon","coordinates":[[[131.528686,33.233004],[131.543801,33.247361],[131.561685,33.304587],[131.533193,33.297525],[131.468454,33.241993],[131.498709,33.231513],[131.528686,33.233004]]]},"properties":{}}},
    {"code":1190642,"id":"de1332","name":"西大分","original_name":"西大分","name_kana":"にしおおいた","closed":false,"lat":33.245184,"lng":131.582758,"prefecture":44,"lines":[11906],"attr":"heat","postal_code":"870-0003","address":"大分市大字生石","voronoi":{"type":"Feature","geometry":{"type":"Polygon","coordinates":[[[131.616101,33.280208],[131.590174,33.230326],[131.57343,33.228617],[131.543801,33.247361],[131.561685,33.304587],[131.563977,33.307399],[131.587092,33.31482],[131.621519,33.31669],[131.616101,33.280208]]]},"properties":{}}},
    {"code":1190643,"id":"5edc55","name":"大分","original_name":"大分","name_kana":"おおいた","closed":false,"lat":33.232794,"lng":131.606595,"prefecture":44,"lines":[11906,11913,11923],"attr":"eco","postal_code":"870-0831","address":"大分市要町","voronoi":{"type":"Feature","geometry":{"type":"Polygon","coordinates":[[[131.594958,33.224982],[131.590174,33.230326],[131.616101,33.280208],[131.623013,33.228954],[131.594958,33.224982]]]},"properties":{}}},
    {"code":1190644,"id":"35c568","name":"牧(大分)","original_name":"牧","name_kana":"まき","closed":false,"lat":33.237006,"lng":131.637828,"prefecture":44,"lines":[11906],"attr":"heat","postal_code":"870-0152","address":"大分市大字牧","voronoi":{"type":"Feature","geometry":{"type":"Polygon","coordinates":[[[131.616101,33.280208],[131.623013,33.228954],[131.624357,33.22652],[131.656796,33.209166],[131.62177,33.316797],[131.621519,33.31669],[131.616101,33.280208]]]},"properties":{}}},
    {"code":1190645,"id":"e12458","name":"高城","original_name":"高城","name_kana":"たかじょう","closed":false,"lat":33.242837,"lng":131.655746,"prefecture":44,"lines":[11906],"attr":"heat","postal_code":"870-0156","address":"大分市高城新町","voronoi":{"type":"Feature","geometry":{"type":"Polygon","coordinates":[[[131.6667,33.199471],[131.656796,33.209166],[131.62177,33.316797],[131.671273,33.345114],[131.671344,33.198462],[131.6667,33.199471]]]},"properties":{}}},
    {"code":1190646,"id":"a8000d","name":"鶴崎","original_name":"鶴崎","name_kana":"つるさき","closed":false,"lat":33.242852,"lng":131.686899,"prefecture":44,"lines":[11906],"attr":"heat","postal_code":"870-0106","address":"大分市大字鶴崎","voronoi":{"type":"Feature","geometry":{"type":"Polygon","coordinates":[[[131.671273,33.345114],[131.671344,33.198462],[131.705832,33.177245],[131.699675,33.36765],[131.671273,33.345114]]]},"properties":{}}},
    {"code":1190647,"id":"4e6698","name":"大在","original_name":"大在","name_kana":"おおざい","closed":false,"lat":33.243938,"lng":131.720487,"prefecture":44,"lines":[11906],"attr":"heat","postal_code":"870-0268","address":"大分市大字政所","voronoi":{"type":"Feature","geometry":{"type":"Polygon","coordinates":[[[131.716329,33.166433],[131.719311,33.168283],[131.783673,33.445459],[131.727914,33.397023],[131.699675,33.36765],[131.705832,33.177245],[131.716329,33.166433]]]},"properties":{}}},
    {"code":1190648,"id":"54ce86","name":"坂ノ市","original_name":"坂ノ市","name_kana":"さかのいち","closed":false,"lat":33.236715,"lng":131.751593,"prefecture":44,"lines":[11906],"attr":"heat","postal_code":"870-0302","address":"大分市大字坂ノ市","voronoi":{"type":"Feature","geometry":{"type":"Polygon","coordinates":[[[131.783673,33.445459],[131.719311,33.168283],[131.763539,33.184073],[131.766211,33.186112],[131.770395,33.19059],[131.787468,33.449297],[131.783673,33.445459]]]},"properties":{}}},
    {"code":1190649,"id":"58ca94","name":"幸崎","original_name":"幸崎","name_kana":"こうざき","closed":false,"lat":33.233844,"lng":131.795095,"prefecture":44,"lines":[11906],"attr":"heat","postal_code":"879-2111","address":"大分市本神崎","voronoi":{"type":"Feature","geometry":{"type":"Polygon","coordinates":[[[132.04291,33.55397],[131.93538,33.590901],[131.905543,33.595726],[131.787468,33.449297],[131.770395,33.19059],[132.06608,33.304034],[132.117149,33.341659],[132.04291,33.55397]]]},"properties":{}}},
    {"code":1190650,"id":"ada874","name":"佐志生","original_name":"佐志生","name_kana":"さしう","closed":false,"lat":33.174957,"lng":131.817688,"prefecture":44,"lines":[11906],"attr":"heat","postal_code":"875-0001","address":"臼杵市大字佐志生","voronoi":{"type":"Feature","geometry":{"type":"Polygon","coordinates":[[[131.901366,33.151245],[131.87874,33.141049],[131.766211,33.186112],[131.770395,33.19059],[132.06608,33.304034],[131.901366,33.151245]]]},"properties":{}}},
    {"code":1190651,"id":"85409b","name":"下ノ江","original_name":"下ノ江","name_kana":"したのえ","closed":false,"lat":33.158653,"lng":131.811159,"prefecture":44,"lines":[11906],"attr":"heat","postal_code":"875-0003","address":"臼杵市大字田井","voronoi":{"type":"Feature","geometry":{"type":"Polygon","coordinates":[[[131.866385,33.133484],[131.807646,33.138728],[131.763539,33.184073],[131.766211,33.186112],[131.87874,33.141049],[131.866385,33.133484]]]},"properties":{}}},
    {"code":1190652,"id":"1afd6a","name":"熊崎","original_name":"熊崎","name_kana":"くまさき","closed":false,"lat":33.135768,"lng":131.787632,"prefecture":44,"lines":[11906],"attr":"cool","postal_code":"875-0083","address":"臼杵市大字井村","voronoi":{"type":"Feature","geometry":{"type":"Polygon","coordinates":[[[131.796179,33.125488],[131.720721,33.108032],[131.715265,33.160931],[131.716329,33.166433],[131.719311,33.168283],[131.763539,33.184073],[131.807646,33.138728],[131.796179,33.125488]]]},"properties":{}}},
    {"code":1190653,"id":"93223a","name":"上臼杵","original_name":"上臼杵","name_kana":"かみうすき","closed":false,"lat":33.112499,"lng":131.793015,"prefecture":44,"lines":[11906],"attr":"cool","postal_code":"875-0053","address":"臼杵市大字福良","voronoi":{"type":"Feature","geometry":{"type":"Polygon","coordinates":[[[131.71879,33.077357],[131.732497,33.014953],[131.787242,33.019379],[131.817596,33.073494],[131.796179,33.125488],[131.720721,33.108032],[131.71879,33.077357]]]},"properties":{}}},
    {"code":1190654,"id":"632a78","name":"臼杵","original_name":"臼杵","name_kana":"うすき","closed":false,"lat":33.118496,"lng":131.807574,"prefecture":44,"lines":[11906],"attr":"cool","postal_code":"875-0042","address":"臼杵市大字海添","voronoi":{"type":"Feature","geometry":{"type":"Polygon","coordinates":[[[131.807646,33.138728],[131.796179,33.125488],[131.817596,33.073494],[131.866385,33.133484],[131.807646,33.138728]]]},"properties":{}}},
    {"code":1190655,"id":"4a4ec3","name":"津久見","original_name":"津久見","name_kana":"つくみ","closed":false,"lat":33.072853,"lng":131.863696,"prefecture":44,"lines":[11906],"attr":"cool","postal_code":"879-2441","address":"津久見市中央町","voronoi":{"type":"Feature","geometry":{"type":"Polygon","coordinates":[[[131.817596,33.073494],[131.787242,33.019379],[131.796598,33.015765],[131.815606,33.015423],[131.866904,33.031628],[131.883853,33.043772],[131.889315,33.05412],[131.901366,33.151245],[131.87874,33.141049],[131.866385,33.133484],[131.817596,33.073494]]]},"properties":{}}},
    {"code":1190656,"id":"884612","name":"日代","original_name":"日代","name_kana":"ひしろ","closed":false,"lat":33.066024,"lng":131.918735,"prefecture":44,"lines":[11906],"attr":"cool","postal_code":"879-2682","address":"津久見市大字網代","voronoi":{"type":"Feature","geometry":{"type":"Polygon","coordinates":[[[132.117149,33.341659],[132.17276,33.268247],[132.232399,33.16669],[132.254105,33.101198],[132.263644,33.062461],[131.889315,33.05412],[131.901366,33.151245],[132.06608,33.304034],[132.117149,33.341659]]]},"properties":{}}},
    {"code":1190657,"id":"d986a8","name":"浅海井","original_name":"浅海井","name_kana":"あざむい","closed":false,"lat":33.043539,"lng":131.919236,"prefecture":44,"lines":[11906],"attr":"cool","postal_code":"879-2601","address":"佐伯市上浦大字浅海井浦","voronoi":{"type":"Feature","geometry":{"type":"Polygon","coordinates":[[[132.305719,32.911326],[131.994796,32.987413],[131.883853,33.043772],[131.889315,33.05412],[132.263644,33.062461],[132.305856,32.912309],[132.305719,32.911326]]]},"properties":{}}},
    {"code":1190658,"id":"d8977f","name":"狩生","original_name":"狩生","name_kana":"かりう","closed":false,"lat":33.015334,"lng":131.904908,"prefecture":44,"lines":[11906],"attr":"cool","postal_code":"876-1101","address":"佐伯市大字狩生","voronoi":{"type":"Feature","geometry":{"type":"Polygon","coordinates":[[[131.994796,32.987413],[131.883853,33.043772],[131.866904,33.031628],[131.91039,32.993428],[131.994796,32.987413]]]},"properties":{}}},
    {"code":1190659,"id":"35c281","name":"海崎","original_name":"海崎","name_kana":"かいざき","closed":false,"lat":32.996041,"lng":131.88796,"prefecture":44,"lines":[11906],"attr":"cool","postal_code":"876-1105","address":"佐伯市大字海崎","voronoi":{"type":"Feature","geometry":{"type":"Polygon","coordinates":[[[131.866904,33.031628],[131.815606,33.015423],[131.877797,32.97417],[131.91039,32.993428],[131.866904,33.031628]]]},"properties":{}}},
    {"code":1190660,"id":"5065cb","name":"佐伯","original_name":"佐伯","name_kana":"さいき","closed":false,"lat":32.972521,"lng":131.901857,"prefecture":44,"lines":[11906,11907],"attr":"cool","postal_code":"876-0803","address":"佐伯市駅前２丁目","voronoi":{"type":"Feature","geometry":{"type":"Polygon","coordinates":[[[131.983859,32.710913],[131.877797,32.97417],[131.91039,32.993428],[131.994796,32.987413],[132.305719,32.911326],[132.285714,32.505197],[132.260489,32.517711],[132.077251,32.637633],[131.983859,32.710913]]]},"properties":{}}}
  ]
}