{
  "code":11902,
  "id":189,
  "name":"JR鹿児島本線(下関・門司港～博多)",
  "name_kana":"じぇいあーるかごしまほんせん",
  "station_size":33,
  "company_code":6,
  "closed":false,
  "station_list":[
    {"code":1161236,"id":2951,"name":"下関","original_name":"下関","name_kana":"しものせき","closed":false,"lat":33.950306,"lng":130.923038,"prefecture":35,"lines":[11612,11702,11902],"attr":"heat","postal_code":"750-0025","address":"下関市大字竹崎町４丁目","voronoi":{"type":"Feature","geometry":{"type":"Polygon","coordinates":[[[130.907693,33.922662],[130.89933,33.920771],[130.887188,33.928483],[130.872739,33.940003],[130.850995,33.976151],[130.942206,33.963609],[130.943329,33.955442],[130.940988,33.937995],[130.907693,33.922662]]]},"properties":{}}},
    {"code":1190202,"id":4024,"name":"門司港","original_name":"門司港","name_kana":"もじこう","closed":false,"lat":33.945138,"lng":130.961549,"prefecture":40,"lines":[11902,11906],"attr":"heat","postal_code":"801-0841","address":"北九州市門司区西海岸１丁目","voronoi":{"type":"Feature","geometry":{"type":"Polygon","coordinates":[[[130.95019,33.930683],[130.940988,33.937995],[130.943329,33.955442],[130.960008,33.951278],[130.96342,33.946466],[130.95019,33.930683]]]},"properties":{}}},
    {"code":1190203,"id":4025,"name":"小森江","original_name":"小森江","name_kana":"こもりえ","closed":false,"lat":33.916352,"lng":130.938674,"prefecture":40,"lines":[11902,11906],"attr":"heat","postal_code":"800-0007","address":"北九州市門司区小森江３丁目","voronoi":{"type":"Feature","geometry":{"type":"Polygon","coordinates":[[[130.95019,33.930683],[131.014385,33.876275],[130.907693,33.922662],[130.940988,33.937995],[130.95019,33.930683]]]},"properties":{}}},
    {"code":1161237,"id":2952,"name":"門司","original_name":"門司","name_kana":"もじ","closed":false,"lat":33.904309,"lng":130.933438,"prefecture":40,"lines":[11612,11902,11906],"attr":"heat","postal_code":"800-0039","address":"北九州市門司区中町","voronoi":{"type":"Feature","geometry":{"type":"Polygon","coordinates":[[[130.89933,33.920771],[130.914724,33.876256],[130.914767,33.876212],[130.931115,33.868357],[131.007006,33.869828],[131.019462,33.872602],[131.014385,33.876275],[130.907693,33.922662],[130.89933,33.920771]]]},"properties":{}}},
    {"code":100318,"id":4026,"name":"小倉(福岡)","original_name":"小倉","name_kana":"こくら","closed":false,"lat":33.886756,"lng":130.882678,"prefecture":40,"lines":[1003,11902,11906,11914,99908],"attr":"heat","postal_code":"802-0001","address":"北九州市小倉北区浅野１丁目","voronoi":{"type":"Feature","geometry":{"type":"Polygon","coordinates":[[[130.89933,33.920771],[130.887188,33.928483],[130.878028,33.886524],[130.902778,33.87667],[130.909568,33.875613],[130.914724,33.876256],[130.89933,33.920771]]]},"properties":{}}},
    {"code":1190206,"id":4027,"name":"西小倉","original_name":"西小倉","name_kana":"にしこくら","closed":false,"lat":33.888673,"lng":130.873897,"prefecture":40,"lines":[11902,11906,11914],"attr":"heat","postal_code":"803-0812","address":"北九州市小倉北区室町３丁目","voronoi":{"type":"Feature","geometry":{"type":"Polygon","coordinates":[[[130.887188,33.928483],[130.872739,33.940003],[130.854239,33.886618],[130.869917,33.879072],[130.876016,33.883842],[130.878028,33.886524],[130.887188,33.928483]]]},"properties":{}}},
    {"code":1190207,"id":4028,"name":"九州工大前","original_name":"九州工大前","name_kana":"きゅうしゅうこうだいまえ","closed":false,"lat":33.900396,"lng":130.840068,"prefecture":40,"lines":[11902],"attr":"eco","postal_code":"804-0011","address":"北九州市戸畑区中原西１丁目","voronoi":{"type":"Feature","geometry":{"type":"Polygon","coordinates":[[[130.833408,33.88134],[130.823989,33.935363],[130.825378,33.995231],[130.843758,33.983929],[130.850995,33.976151],[130.872739,33.940003],[130.854239,33.886618],[130.839021,33.8742],[130.833408,33.88134]]]},"properties":{}}},
    {"code":1190208,"id":4029,"name":"戸畑","original_name":"戸畑","name_kana":"とばた","closed":false,"lat":33.897018,"lng":130.820692,"prefecture":40,"lines":[11902],"attr":"eco","postal_code":"804-0067","address":"北九州市戸畑区汐井町","voronoi":{"type":"Feature","geometry":{"type":"Polygon","coordinates":[[[130.833408,33.88134],[130.811063,33.890675],[130.823989,33.935363],[130.833408,33.88134]]]},"properties":{}}},
    {"code":1190209,"id":4030,"name":"枝光","original_name":"枝光","name_kana":"えだみつ","closed":false,"lat":33.879367,"lng":130.813318,"prefecture":40,"lines":[11902],"attr":"eco","postal_code":"805-0002","address":"北九州市八幡東区枝光２丁目","voronoi":{"type":"Feature","geometry":{"type":"Polygon","coordinates":[[[130.797446,33.886102],[130.797549,33.886331],[130.811063,33.890675],[130.833408,33.88134],[130.839021,33.8742],[130.835164,33.853028],[130.797446,33.886102]]]},"properties":{}}},
    {"code":1190210,"id":4031,"name":"スペースワールド","original_name":"スペースワールド","name_kana":"すぺーすわーるど","closed":false,"lat":33.871246,"lng":130.806197,"prefecture":40,"lines":[11902],"attr":"cool","postal_code":"805-0057","address":"北九州市八幡東区大字尾倉４００-４","voronoi":{"type":"Feature","geometry":{"type":"Polygon","coordinates":[[[130.797446,33.886102],[130.797329,33.885972],[130.811537,33.819052],[130.835058,33.848134],[130.835164,33.853028],[130.797446,33.886102]]]},"properties":{}}},
    {"code":1190211,"id":4032,"name":"八幡(福岡)","original_name":"八幡","name_kana":"やはた","closed":false,"lat":33.868913,"lng":130.795209,"prefecture":40,"lines":[11902],"attr":"cool","postal_code":"805-0061","address":"北九州市八幡東区西本町３丁目","voronoi":{"type":"Feature","geometry":{"type":"Polygon","coordinates":[[[130.797329,33.885972],[130.780076,33.876561],[130.783393,33.830881],[130.784266,33.820372],[130.789792,33.809863],[130.796509,33.79821],[130.799984,33.801138],[130.811537,33.819052],[130.797329,33.885972]]]},"properties":{}}},
    {"code":1190212,"id":4033,"name":"黒崎","original_name":"黒崎","name_kana":"くろさき","closed":false,"lat":33.866807,"lng":130.766206,"prefecture":40,"lines":[11902],"attr":"cool","postal_code":"806-0021","address":"北九州市八幡西区黒崎３丁目","voronoi":{"type":"Feature","geometry":{"type":"Polygon","coordinates":[[[130.783393,33.830881],[130.763261,33.871858],[130.762641,33.877818],[130.776572,33.878619],[130.780076,33.876561],[130.783393,33.830881]]]},"properties":{}}},
    {"code":1190213,"id":4034,"name":"陣原","original_name":"陣原","name_kana":"じんのはる","closed":false,"lat":33.868242,"lng":130.742656,"prefecture":40,"lines":[11902],"attr":"cool","postal_code":"807-0821","address":"北九州市八幡西区陣原１丁目２番１号","voronoi":{"type":"Feature","geometry":{"type":"Polygon","coordinates":[[[130.737705,33.861518],[130.729539,33.862407],[130.736191,33.881473],[130.751703,33.877309],[130.750531,33.868966],[130.743869,33.862812],[130.737705,33.861518]]]},"properties":{}}},
    {"code":1190214,"id":4035,"name":"折尾","original_name":"折尾","name_kana":"おりお","closed":false,"lat":33.863629,"lng":130.713109,"prefecture":40,"lines":[11902,11910,11911],"attr":"cool","postal_code":"807-0861","address":"北九州市八幡西区堀川町","voronoi":{"type":"Feature","geometry":{"type":"Polygon","coordinates":[[[130.673757,33.90703],[130.706877,33.853051],[130.722998,33.849619],[130.724846,33.852283],[130.727876,33.860983],[130.673757,33.90703]]]},"properties":{}}},
    {"code":1190215,"id":4036,"name":"水巻","original_name":"水巻","name_kana":"みずまき","closed":false,"lat":33.852287,"lng":130.694624,"prefecture":40,"lines":[11902],"attr":"cool","postal_code":"807-0021","address":"遠賀郡水巻町大字頃末","voronoi":{"type":"Feature","geometry":{"type":"Polygon","coordinates":[[[130.666383,33.916155],[130.688405,33.833072],[130.690523,33.833549],[130.706877,33.853051],[130.673757,33.90703],[130.666383,33.916155]]]},"properties":{}}},
    {"code":1190216,"id":4037,"name":"遠賀川","original_name":"遠賀川","name_kana":"おんががわ","closed":false,"lat":33.846684,"lng":130.673485,"prefecture":40,"lines":[11902],"attr":"cool","postal_code":"811-4303","address":"遠賀郡遠賀町今古賀","voronoi":{"type":"Feature","geometry":{"type":"Polygon","coordinates":[[[130.631196,33.977268],[130.653237,33.804613],[130.668226,33.812547],[130.688405,33.833072],[130.666383,33.916155],[130.631196,33.977268]]]},"properties":{}}},
    {"code":1190217,"id":4038,"name":"海老津","original_name":"海老津","name_kana":"えびつ","closed":false,"lat":33.840248,"lng":130.62307,"prefecture":40,"lines":[11902],"attr":"cool","postal_code":"811-4231","address":"遠賀郡岡垣町大字海老津","voronoi":{"type":"Feature","geometry":{"type":"Polygon","coordinates":[[[130.653237,33.804613],[130.631196,33.977268],[130.557864,34.18711],[130.533837,34.212604],[130.383511,34.3192],[130.309456,34.366235],[130.469807,34.035973],[130.579912,33.851634],[130.643271,33.786731],[130.653237,33.804613]]]},"properties":{}}},
    {"code":1190218,"id":4039,"name":"教育大前","original_name":"教育大前","name_kana":"きょういくだいまえ","closed":false,"lat":33.808215,"lng":130.590256,"prefecture":40,"lines":[11902],"attr":"cool","postal_code":"811-4145","address":"宗像市陵厳寺","voronoi":{"type":"Feature","geometry":{"type":"Polygon","coordinates":[[[130.579912,33.851634],[130.579777,33.723636],[130.584217,33.713329],[130.588811,33.712506],[130.611151,33.710368],[130.627511,33.728068],[130.635282,33.740291],[130.64082,33.761287],[130.643271,33.786731],[130.579912,33.851634]]]},"properties":{}}},
    {"code":1190219,"id":4040,"name":"赤間","original_name":"赤間","name_kana":"あかま","closed":false,"lat":33.808237,"lng":130.569477,"prefecture":40,"lines":[11902],"attr":"cool","postal_code":"811-4183","address":"宗像市大字土穴","voronoi":{"type":"Feature","geometry":{"type":"Polygon","coordinates":[[[130.469807,34.035973],[130.579912,33.851634],[130.579777,33.723636],[130.569477,33.741255],[130.469807,34.035973]]]},"properties":{}}},
    {"code":1190220,"id":4041,"name":"東郷","original_name":"東郷","name_kana":"とうごう","closed":false,"lat":33.794488,"lng":130.528822,"prefecture":40,"lines":[11902],"attr":"cool","postal_code":"811-3431","address":"宗像市田熊","voronoi":{"type":"Feature","geometry":{"type":"Polygon","coordinates":[[[130.118216,34.512069],[129.805029,34.741864],[130.47499,33.823408],[130.569477,33.741255],[130.469807,34.035973],[130.309456,34.366235],[130.118216,34.512069]]]},"properties":{}}},
    {"code":1190221,"id":4042,"name":"東福間","original_name":"東福間","name_kana":"ひがしふくま","closed":false,"lat":33.774118,"lng":130.511111,"prefecture":40,"lines":[11902],"attr":"cool","postal_code":"811-3222","address":"福津市津丸","voronoi":{"type":"Feature","geometry":{"type":"Polygon","coordinates":[[[130.534261,33.705175],[130.513631,33.733896],[130.47499,33.823408],[130.569477,33.741255],[130.579777,33.723636],[130.584217,33.713329],[130.54506,33.701515],[130.538268,33.700908],[130.534261,33.705175]]]},"properties":{}}},
    {"code":1190222,"id":4043,"name":"福間","original_name":"福間","name_kana":"ふくま","closed":false,"lat":33.763316,"lng":130.486088,"prefecture":40,"lines":[11902],"attr":"cool","postal_code":"811-3200","address":"福津市中央３丁目","voronoi":{"type":"Feature","geometry":{"type":"Polygon","coordinates":[[[130.361462,33.838667],[130.513631,33.733896],[130.47499,33.823408],[129.805029,34.741864],[129.39764,35.054915],[129.502983,34.870557],[130.180165,34.019901],[130.361462,33.838667]]]},"properties":{}}},
    {"code":1190223,"id":4044,"name":"千鳥","original_name":"千鳥","name_kana":"ちどり","closed":false,"lat":33.749129,"lng":130.47632,"prefecture":40,"lines":[11902],"attr":"cool","postal_code":"811-3115","address":"古賀市久保","voronoi":{"type":"Feature","geometry":{"type":"Polygon","coordinates":[[[130.361462,33.838667],[130.424547,33.767661],[130.534261,33.705175],[130.513631,33.733896],[130.361462,33.838667]]]},"properties":{}}},
    {"code":1190224,"id":4045,"name":"古賀","original_name":"古賀","name_kana":"こが","closed":false,"lat":33.732586,"lng":130.466898,"prefecture":40,"lines":[11902],"attr":"cool","postal_code":"811-3100","address":"古賀市後牟田","voronoi":{"type":"Feature","geometry":{"type":"Polygon","coordinates":[[[130.534261,33.705175],[130.424547,33.767661],[130.437426,33.746769],[130.514538,33.688312],[130.538268,33.700908],[130.534261,33.705175]]]},"properties":{}}},
    {"code":1190232,"id":4052,"name":"ししぶ","original_name":"ししぶ","name_kana":"ししぶ","closed":false,"lat":33.722223,"lng":130.459042,"prefecture":40,"lines":[11902],"attr":"heat","postal_code":"811-3107","address":"福岡県古賀市美明二丁目","voronoi":{"type":"Feature","geometry":{"type":"Polygon","coordinates":[[[130.49135,33.682793],[130.502557,33.681817],[130.505106,33.682022],[130.514538,33.688312],[130.437426,33.746769],[130.4454,33.725079],[130.490143,33.683238],[130.49135,33.682793]]]},"properties":{}}},
    {"code":1190233,"id":4053,"name":"新宮中央","original_name":"新宮中央","name_kana":"しんぐうちゅうおう","closed":false,"lat":33.711659,"lng":130.449163,"prefecture":40,"lines":[11902],"attr":"heat","postal_code":"811-0117","address":"福岡県糟屋郡新宮町上府1323-2","open_date":"2010-03-13","voronoi":{"type":"Feature","geometry":{"type":"Polygon","coordinates":[[[130.471885,33.68708],[130.441904,33.707214],[130.4454,33.725079],[130.490143,33.683238],[130.471885,33.68708]]]},"properties":{}}},
    {"code":1190225,"id":4046,"name":"福工大前","original_name":"福工大前","name_kana":"ふっこうだいまえ","closed":false,"lat":33.698813,"lng":130.440536,"prefecture":40,"lines":[11902],"attr":"cool","postal_code":"811-0213","address":"福岡市東区和白丘１丁目","voronoi":{"type":"Feature","geometry":{"type":"Polygon","coordinates":[[[130.44683,33.686432],[130.471885,33.68708],[130.441904,33.707214],[130.432337,33.704906],[130.431127,33.698236],[130.440147,33.688587],[130.44683,33.686432]]]},"properties":{}}},
    {"code":1190226,"id":4047,"name":"九産大前","original_name":"九産大前","name_kana":"きゅうさんだいまえ","closed":false,"lat":33.673743,"lng":130.441184,"prefecture":40,"lines":[11902],"attr":"heat","postal_code":"813-0001","address":"福岡市東区唐原","voronoi":{"type":"Feature","geometry":{"type":"Polygon","coordinates":[[[130.444359,33.66683],[130.467452,33.67141],[130.49135,33.682793],[130.490143,33.683238],[130.471885,33.68708],[130.44683,33.686432],[130.436022,33.674977],[130.440642,33.666764],[130.444359,33.66683]]]},"properties":{}}},
    {"code":1190227,"id":4048,"name":"香椎","original_name":"香椎","name_kana":"かしい","closed":false,"lat":33.659228,"lng":130.444063,"prefecture":40,"lines":[11902,11916,11917],"attr":"heat","postal_code":"813-0013","address":"福岡市東区香椎駅前１丁目","voronoi":{"type":"Feature","geometry":{"type":"Polygon","coordinates":[[[130.444359,33.66683],[130.442329,33.657626],[130.449272,33.655177],[130.467452,33.67141],[130.444359,33.66683]]]},"properties":{}}},
    {"code":1190228,"id":4049,"name":"千早","original_name":"千早","name_kana":"ちはや","closed":false,"lat":33.649116,"lng":130.440486,"prefecture":40,"lines":[11902],"attr":"heat","postal_code":"813-0041","address":"福岡市東区水谷２丁目８３-１","voronoi":{"type":"Feature","geometry":{"type":"Polygon","coordinates":[[[130.444518,33.634302],[130.438782,33.642209],[130.441003,33.652407],[130.446559,33.650438],[130.446809,33.643304],[130.444518,33.634302]]]},"properties":{}}},
    {"code":1190229,"id":4050,"name":"箱崎","original_name":"箱崎","name_kana":"はこざき","closed":false,"lat":33.618063,"lng":130.426549,"prefecture":40,"lines":[11902],"attr":"heat","postal_code":"812-0053","address":"福岡市東区箱崎１丁目","voronoi":{"type":"Feature","geometry":{"type":"Polygon","coordinates":[[[130.434354,33.610169],[130.424441,33.612779],[130.422567,33.618491],[130.427836,33.625595],[130.438586,33.626274],[130.434354,33.610169]]]},"properties":{}}},
    {"code":1190230,"id":4051,"name":"吉塚","original_name":"吉塚","name_kana":"よしづか","closed":false,"lat":33.607142,"lng":130.423674,"prefecture":40,"lines":[11902,11908,10901],"attr":"heat","postal_code":"812-0046","address":"福岡市博多区吉塚本町","voronoi":{"type":"Feature","geometry":{"type":"Polygon","coordinates":[[[130.419345,33.604121],[130.422128,33.598576],[130.425984,33.597889],[130.436185,33.602404],[130.436404,33.602949],[130.434354,33.610169],[130.424441,33.612779],[130.423661,33.612412],[130.419345,33.604121]]]},"properties":{}}},
    {"code":100319,"id":4022,"name":"博多","original_name":"博多","name_kana":"はかた","closed":false,"lat":33.590002,"lng":130.420622,"prefecture":40,"lines":[1003,1010,11901,11902,11903,11908,99905,99907],"attr":"heat","postal_code":"812-0012","address":"福岡市博多区博多駅中央街","voronoi":{"type":"Feature","geometry":{"type":"Polygon","coordinates":[[[130.415351,33.580138],[130.414163,33.583245],[130.415212,33.588557],[130.422064,33.598543],[130.422128,33.598576],[130.425984,33.597889],[130.425907,33.579233],[130.422315,33.577379],[130.416911,33.578768],[130.415351,33.580138]]]},"properties":{}}}
  ]
}