{
  "code":11913,
  "id":"71dd92",
  "name":"JR久大本線(ゆふ高原線)",
  "name_kana":"じぇいあーるきゅうだいほんせん(ゆふこうげんせん)",
  "name_formal":"JR久大本線",
  "station_size":37,
  "company_code":6,
  "closed":false,
  "station_list":[
    {"code":101003,"id":"2e81c7","name":"久留米","original_name":"久留米","name_kana":"くるめ","closed":false,"lat":33.319778,"lng":130.501408,"prefecture":40,"lines":[1010,11903,11913],"attr":"cool","postal_code":"830-0022","address":"久留米市城南町２丁目","voronoi":{"type":"Feature","geometry":{"type":"Polygon","coordinates":[[[130.511969,33.337373],[130.469333,33.329776],[130.462942,33.314958],[130.468167,33.31303],[130.499856,33.308101],[130.507291,33.311659],[130.511231,33.316028],[130.512869,33.320317],[130.512982,33.334287],[130.511969,33.337373]]]},"properties":{}}},
    {"code":1191337,"id":"e02002","name":"久留米高校前","original_name":"久留米高校前","name_kana":"くるめこうこうまえ","closed":false,"lat":33.298437,"lng":130.516378,"prefecture":40,"lines":[11913],"attr":"heat","postal_code":"830-0038","address":"福岡県久留米市西町","voronoi":{"type":"Feature","geometry":{"type":"Polygon","coordinates":[[[130.507808,33.290492],[130.514382,33.302451],[130.523659,33.30291],[130.531902,33.273397],[130.507986,33.288786],[130.507808,33.290492]]]},"properties":{}}},
    {"code":1191302,"id":"b5ae81","name":"南久留米","original_name":"南久留米","name_kana":"みなみくるめ","closed":false,"lat":33.302857,"lng":130.532204,"prefecture":40,"lines":[11913],"attr":"heat","postal_code":"839-0862","address":"久留米市野中町","voronoi":{"type":"Feature","geometry":{"type":"Polygon","coordinates":[[[130.53657,33.315139],[130.563281,33.259374],[130.567549,33.246447],[130.544114,33.259372],[130.531902,33.273397],[130.523659,33.30291],[130.524026,33.304486],[130.530681,33.312365],[130.53657,33.315139]]]},"properties":{}}},
    {"code":1191303,"id":"dec333","name":"久留米大学前","original_name":"久留米大学前","name_kana":"くるめだいがくまえ","closed":false,"lat":33.310843,"lng":130.548876,"prefecture":40,"lines":[11913],"attr":"heat","postal_code":"839-0842","address":"久留米市御井朝妻１丁目１３８７-１","voronoi":{"type":"Feature","geometry":{"type":"Polygon","coordinates":[[[130.563281,33.259374],[130.53657,33.315139],[130.537384,33.317424],[130.551116,33.323742],[130.553855,33.323898],[130.563281,33.259374]]]},"properties":{}}},
    {"code":1191304,"id":"81e0b5","name":"御井","original_name":"御井","name_kana":"みい","closed":false,"lat":33.312813,"lng":130.562361,"prefecture":40,"lines":[11913],"attr":"heat","postal_code":"839-0851","address":"久留米市御井町","voronoi":{"type":"Feature","geometry":{"type":"Polygon","coordinates":[[[130.601375,33.216434],[130.597365,33.218956],[130.567549,33.246447],[130.563281,33.259374],[130.553855,33.323898],[130.561185,33.328556],[130.576695,33.326518],[130.584829,33.321407],[130.601375,33.216434]]]},"properties":{}}},
    {"code":1191305,"id":"38c5bf","name":"善導寺","original_name":"善導寺","name_kana":"ぜんどうじ","closed":false,"lat":33.320141,"lng":130.608851,"prefecture":40,"lines":[11913],"attr":"eco","postal_code":"839-0824","address":"久留米市善導寺町大字飯田","voronoi":{"type":"Feature","geometry":{"type":"Polygon","coordinates":[[[130.617886,33.335851],[130.624842,33.332873],[130.633075,33.18447],[130.601375,33.216434],[130.584829,33.321407],[130.598188,33.335186],[130.617886,33.335851]]]},"properties":{}}},
    {"code":1191306,"id":"1e68a3","name":"筑後草野","original_name":"筑後草野","name_kana":"ちくごくさの","closed":false,"lat":33.321988,"lng":130.642143,"prefecture":40,"lines":[11913],"attr":"eco","postal_code":"839-0834","address":"久留米市草野町紅桃林","voronoi":{"type":"Feature","geometry":{"type":"Polygon","coordinates":[[[130.734533,33.115376],[130.695707,33.11688],[130.691766,33.119291],[130.648615,33.164445],[130.633075,33.18447],[130.624842,33.332873],[130.659328,33.353985],[130.729213,33.146145],[130.734533,33.115376]]]},"properties":{}}},
    {"code":1191307,"id":"02fc45","name":"田主丸","original_name":"田主丸","name_kana":"たぬしまる","closed":false,"lat":33.338871,"lng":130.692353,"prefecture":40,"lines":[11913],"attr":"eco","postal_code":"839-1233","address":"久留米市田主丸町田主丸","voronoi":{"type":"Feature","geometry":{"type":"Polygon","coordinates":[[[130.677157,33.380249],[130.720109,33.400383],[130.729213,33.146145],[130.659328,33.353985],[130.660737,33.360789],[130.662691,33.364786],[130.667346,33.371188],[130.677157,33.380249]]]},"properties":{}}},
    {"code":1191308,"id":"dd4c6d","name":"筑後吉井","original_name":"筑後吉井","name_kana":"ちくごよしい","closed":false,"lat":33.341014,"lng":130.752193,"prefecture":40,"lines":[11913],"attr":"cool","postal_code":"839-1321","address":"うきは市吉井町１９９","voronoi":{"type":"Feature","geometry":{"type":"Polygon","coordinates":[[[130.774719,33.446652],[130.774,33.447691],[130.76377,33.455179],[130.720109,33.400383],[130.729213,33.146145],[130.734533,33.115376],[130.734727,33.115319],[130.779732,33.394345],[130.774719,33.446652]]]},"properties":{}}},
    {"code":1191309,"id":"b28185","name":"うきは","original_name":"うきは","name_kana":"うきは","closed":false,"lat":33.33506,"lng":130.789107,"prefecture":40,"lines":[11913],"attr":"cool","postal_code":"839-1401","address":"うきは市浮羽町朝田","voronoi":{"type":"Feature","geometry":{"type":"Polygon","coordinates":[[[130.78349,33.107938],[130.821789,33.298183],[130.779732,33.394345],[130.734727,33.115319],[130.745186,33.111254],[130.78349,33.107938]]]},"properties":{}}},
    {"code":1191310,"id":"5b732c","name":"筑後大石","original_name":"筑後大石","name_kana":"ちくごおおいし","closed":false,"lat":33.347215,"lng":130.816899,"prefecture":40,"lines":[11913],"attr":"cool","postal_code":"839-1406","address":"うきは市浮羽町高見","voronoi":{"type":"Feature","geometry":{"type":"Polygon","coordinates":[[[130.821789,33.298183],[130.846824,33.342778],[130.847536,33.364251],[130.840468,33.378232],[130.795448,33.430575],[130.774719,33.446652],[130.779732,33.394345],[130.821789,33.298183]]]},"properties":{}}},
    {"code":1191311,"id":"aa8ac4","name":"夜明","original_name":"夜明","name_kana":"よあけ","closed":false,"lat":33.319541,"lng":130.866195,"prefecture":44,"lines":[11913,11914],"attr":"heat","postal_code":"877-1112","address":"日田市夜明中町","voronoi":{"type":"Feature","geometry":{"type":"Polygon","coordinates":[[[130.867635,33.098781],[130.866931,33.098527],[130.818839,33.098524],[130.78349,33.107938],[130.821789,33.298183],[130.846824,33.342778],[130.893086,33.323356],[130.900875,33.271879],[130.90048,33.260527],[130.878818,33.125997],[130.867635,33.098781]]]},"properties":{}}},
    {"code":1191312,"id":"ed6642","name":"光岡","original_name":"光岡","name_kana":"てるおか","closed":false,"lat":33.327668,"lng":130.919901,"prefecture":44,"lines":[11913,11914],"attr":"heat","postal_code":"877-0078","address":"日田市北友田町１丁目","voronoi":{"type":"Feature","geometry":{"type":"Polygon","coordinates":[[[130.893086,33.323356],[130.900875,33.271879],[130.977534,33.407763],[130.966807,33.403761],[130.90299,33.347572],[130.893086,33.323356]]]},"properties":{}}},
    {"code":1191313,"id":"c78a5c","name":"日田","original_name":"日田","name_kana":"ひた","closed":false,"lat":33.317014,"lng":130.938786,"prefecture":44,"lines":[11913,11914],"attr":"heat","postal_code":"877-0013","address":"日田市元町","voronoi":{"type":"Feature","geometry":{"type":"Polygon","coordinates":[[[130.977534,33.407763],[130.900875,33.271879],[130.90048,33.260527],[131.017351,33.393577],[131.039367,33.438951],[130.977534,33.407763]]]},"properties":{}}},
    {"code":1191314,"id":"bbc0de","name":"豊後三芳","original_name":"豊後三芳","name_kana":"ぶんごみよし","closed":false,"lat":33.305796,"lng":130.951557,"prefecture":44,"lines":[11913],"attr":"heat","postal_code":"877-0035","address":"日田市日高町","voronoi":{"type":"Feature","geometry":{"type":"Polygon","coordinates":[[[130.878818,33.125997],[130.90048,33.260527],[131.017351,33.393577],[130.954225,33.232824],[130.878818,33.125997]]]},"properties":{}}},
    {"code":1191315,"id":"13f8c4","name":"豊後中川","original_name":"豊後中川","name_kana":"ぶんごなかがわ","closed":false,"lat":33.284482,"lng":131.005834,"prefecture":44,"lines":[11913],"attr":"heat","postal_code":"879-4122","address":"日田市天瀬町合田","voronoi":{"type":"Feature","geometry":{"type":"Polygon","coordinates":[[[131.039367,33.438951],[131.055062,33.452309],[131.057763,33.451593],[131.054612,33.330679],[131.03899,33.284259],[130.954225,33.232824],[131.017351,33.393577],[131.039367,33.438951]]]},"properties":{}}},
    {"code":1191316,"id":"b4d2b3","name":"天ヶ瀬","original_name":"天ヶ瀬","name_kana":"あまがせ","closed":false,"lat":33.254747,"lng":131.023877,"prefecture":44,"lines":[11913],"attr":"heat","postal_code":"879-4201","address":"大分県日田市天瀬町桜竹","voronoi":{"type":"Feature","geometry":{"type":"Polygon","coordinates":[[[130.878818,33.125997],[130.867635,33.098781],[130.963533,33.094],[131.081245,33.101445],[131.081272,33.101617],[131.03899,33.284259],[130.954225,33.232824],[130.878818,33.125997]]]},"properties":{}}},
    {"code":1191317,"id":"80430b","name":"杉河内","original_name":"杉河内","name_kana":"すぎかわち","closed":false,"lat":33.264391,"lng":131.065535,"prefecture":44,"lines":[11913],"attr":"heat","postal_code":"879-4202","address":"日田市天瀬町赤岩","voronoi":{"type":"Feature","geometry":{"type":"Polygon","coordinates":[[[131.114001,33.211374],[131.054612,33.330679],[131.03899,33.284259],[131.081272,33.101617],[131.114001,33.211374]]]},"properties":{}}},
    {"code":1191318,"id":"021be8","name":"北山田(大分)","original_name":"北山田","name_kana":"きたやまだ","closed":false,"lat":33.282004,"lng":131.100917,"prefecture":44,"lines":[11913],"attr":"heat","postal_code":"879-4331","address":"玖珠郡玖珠町大字戸畑","voronoi":{"type":"Feature","geometry":{"type":"Polygon","coordinates":[[[131.128736,33.243846],[131.120795,33.222008],[131.114001,33.211374],[131.054612,33.330679],[131.057763,33.451593],[131.097743,33.452239],[131.125198,33.446015],[131.128736,33.243846]]]},"properties":{}}},
    {"code":1191319,"id":"501a39","name":"豊後森","original_name":"豊後森","name_kana":"ぶんごもり","closed":false,"lat":33.282954,"lng":131.155202,"prefecture":44,"lines":[11913],"attr":"heat","postal_code":"879-4403","address":"玖珠郡玖珠町大字帆足","voronoi":{"type":"Feature","geometry":{"type":"Polygon","coordinates":[[[131.177551,33.440565],[131.133303,33.445541],[131.125198,33.446015],[131.128736,33.243846],[131.225408,33.311353],[131.265921,33.403357],[131.23729,33.417357],[131.177551,33.440565]]]},"properties":{}}},
    {"code":1191320,"id":"5f2a8a","name":"恵良","original_name":"恵良","name_kana":"えら","closed":false,"lat":33.255224,"lng":131.174566,"prefecture":44,"lines":[11913],"attr":"heat","postal_code":"879-4801","address":"玖珠郡九重町大字右田","voronoi":{"type":"Feature","geometry":{"type":"Polygon","coordinates":[[[131.120795,33.222008],[131.198388,33.248898],[131.217582,33.270572],[131.225408,33.311353],[131.128736,33.243846],[131.120795,33.222008]]]},"properties":{}}},
    {"code":1191321,"id":"ecab1f","name":"引治","original_name":"引治","name_kana":"ひきじ","closed":false,"lat":33.229188,"lng":131.183589,"prefecture":44,"lines":[11913],"attr":"heat","postal_code":"879-4723","address":"玖珠郡九重町大字町田","voronoi":{"type":"Feature","geometry":{"type":"Polygon","coordinates":[[[131.101134,33.094435],[131.095994,33.095998],[131.082822,33.100676],[131.081245,33.101445],[131.081272,33.101617],[131.114001,33.211374],[131.120795,33.222008],[131.198388,33.248898],[131.176471,33.083352],[131.154053,33.082449],[131.101134,33.094435]]]},"properties":{}}},
    {"code":1191322,"id":"40249d","name":"豊後中村","original_name":"豊後中村","name_kana":"ぶんごなかむら","closed":false,"lat":33.226016,"lng":131.207548,"prefecture":44,"lines":[11913],"attr":"heat","postal_code":"879-4801","address":"玖珠郡九重町大字右田","voronoi":{"type":"Feature","geometry":{"type":"Polygon","coordinates":[[[131.264331,33.126464],[131.217582,33.270572],[131.198388,33.248898],[131.176471,33.083352],[131.234945,33.08086],[131.255916,33.083374],[131.264331,33.126464]]]},"properties":{}}},
    {"code":1191323,"id":"f4b6a1","name":"野矢","original_name":"野矢","name_kana":"のや","closed":false,"lat":33.240391,"lng":131.25186,"prefecture":44,"lines":[11913],"attr":"heat","postal_code":"879-4802","address":"玖珠郡九重町大字野上","voronoi":{"type":"Feature","geometry":{"type":"Polygon","coordinates":[[[131.293651,33.196296],[131.264331,33.126464],[131.217582,33.270572],[131.225408,33.311353],[131.265921,33.403357],[131.270953,33.402719],[131.291292,33.308036],[131.293651,33.196296]]]},"properties":{}}},
    {"code":1191324,"id":"9c0699","name":"由布院","original_name":"由布院","name_kana":"ゆふいん","closed":false,"lat":33.262551,"lng":131.355024,"prefecture":44,"lines":[11913],"attr":"heat","postal_code":"879-5114","address":"由布市湯布院町川北","voronoi":{"type":"Feature","geometry":{"type":"Polygon","coordinates":[[[131.417071,33.247245],[131.388065,33.229623],[131.365684,33.229839],[131.291292,33.308036],[131.270953,33.402719],[131.306117,33.409943],[131.376577,33.388258],[131.384628,33.376401],[131.424214,33.296229],[131.424964,33.294098],[131.42893,33.260426],[131.417071,33.247245]]]},"properties":{}}},
    {"code":1191325,"id":"57b1cd","name":"南由布","original_name":"南由布","name_kana":"みなみゆふ","closed":false,"lat":33.242116,"lng":131.333544,"prefecture":44,"lines":[11913],"attr":"cool","postal_code":"879-5104","address":"由布市湯布院町中川","voronoi":{"type":"Feature","geometry":{"type":"Polygon","coordinates":[[[131.291292,33.308036],[131.293651,33.196296],[131.365684,33.229839],[131.291292,33.308036]]]},"properties":{}}},
    {"code":1191326,"id":"c89a06","name":"湯平","original_name":"湯平","name_kana":"ゆのひら","closed":false,"lat":33.197339,"lng":131.354395,"prefecture":44,"lines":[11913],"attr":"cool","postal_code":"879-5111","address":"由布市湯布院町下湯平","voronoi":{"type":"Feature","geometry":{"type":"Polygon","coordinates":[[[131.388065,33.229623],[131.350655,33.083611],[131.339156,33.078969],[131.285972,33.07065],[131.255916,33.083374],[131.264331,33.126464],[131.293651,33.196296],[131.365684,33.229839],[131.388065,33.229623]]]},"properties":{}}},
    {"code":1191327,"id":"338847","name":"庄内(大分)","original_name":"庄内","name_kana":"しょうない","closed":false,"lat":33.185126,"lng":131.402063,"prefecture":44,"lines":[11913],"attr":"cool","postal_code":"879-5434","address":"由布市庄内町庄内原","voronoi":{"type":"Feature","geometry":{"type":"Polygon","coordinates":[[[131.350655,33.083611],[131.388065,33.229623],[131.417071,33.247245],[131.425409,33.096117],[131.350655,33.083611]]]},"properties":{}}},
    {"code":1191328,"id":"9c50f5","name":"天神山","original_name":"天神山","name_kana":"てんじんやま","closed":false,"lat":33.187154,"lng":131.438821,"prefecture":44,"lines":[11913],"attr":"cool","postal_code":"879-5406","address":"由布市庄内町西長宝","voronoi":{"type":"Feature","geometry":{"type":"Polygon","coordinates":[[[131.42893,33.260426],[131.417071,33.247245],[131.425409,33.096117],[131.4332,33.095839],[131.453197,33.240599],[131.452427,33.244806],[131.42893,33.260426]]]},"properties":{}}},
    {"code":1191329,"id":"b53963","name":"小野屋","original_name":"小野屋","name_kana":"おのや","closed":false,"lat":33.185258,"lng":131.452546,"prefecture":44,"lines":[11913],"attr":"eco","postal_code":"879-5405","address":"由布市庄内町東長宝","voronoi":{"type":"Feature","geometry":{"type":"Polygon","coordinates":[[[131.4332,33.095839],[131.453197,33.240599],[131.501458,33.088202],[131.4332,33.095839]]]},"properties":{}}},
    {"code":1191330,"id":"6f0877","name":"鬼瀬","original_name":"鬼瀬","name_kana":"おにがせ","closed":false,"lat":33.195721,"lng":131.485586,"prefecture":44,"lines":[11913],"attr":"eco","postal_code":"879-5521","address":"由布市挾間町鬼瀬","voronoi":{"type":"Feature","geometry":{"type":"Polygon","coordinates":[[[131.468454,33.241993],[131.452427,33.244806],[131.453197,33.240599],[131.501458,33.088202],[131.503273,33.087697],[131.498709,33.231513],[131.468454,33.241993]]]},"properties":{}}},
    {"code":1191331,"id":"d00835","name":"向之原","original_name":"向之原","name_kana":"むかいのはる","closed":false,"lat":33.196625,"lng":131.514075,"prefecture":44,"lines":[11913],"attr":"eco","postal_code":"879-5502","address":"由布市挾間町向原","voronoi":{"type":"Feature","geometry":{"type":"Polygon","coordinates":[[[131.533601,33.218561],[131.528686,33.233004],[131.498709,33.231513],[131.503273,33.087697],[131.510876,33.084463],[131.524796,33.085053],[131.528139,33.088512],[131.533601,33.218561]]]},"properties":{}}},
    {"code":1191332,"id":"a2cd6d","name":"豊後国分","original_name":"豊後国分","name_kana":"ぶんごこくぶ","closed":false,"lat":33.195065,"lng":131.551219,"prefecture":44,"lines":[11913],"attr":"eco","postal_code":"870-0864","address":"大分市国分","voronoi":{"type":"Feature","geometry":{"type":"Polygon","coordinates":[[[131.581964,33.180474],[131.580907,33.170761],[131.566511,33.11656],[131.528139,33.088512],[131.533601,33.218561],[131.575249,33.192601],[131.581964,33.180474]]]},"properties":{}}},
    {"code":1191333,"id":"2dca47","name":"賀来","original_name":"賀来","name_kana":"かく","closed":false,"lat":33.213091,"lng":131.562455,"prefecture":44,"lines":[11913],"attr":"eco","postal_code":"870-0877","address":"大分市大字賀来","voronoi":{"type":"Feature","geometry":{"type":"Polygon","coordinates":[[[131.57343,33.228617],[131.575249,33.192601],[131.533601,33.218561],[131.528686,33.233004],[131.543801,33.247361],[131.57343,33.228617]]]},"properties":{}}},
    {"code":1191334,"id":"2e4d9d","name":"南大分","original_name":"南大分","name_kana":"みなみおおいた","closed":false,"lat":33.214276,"lng":131.585913,"prefecture":44,"lines":[11913],"attr":"eco","postal_code":"870-0883","address":"大分市永興","voronoi":{"type":"Feature","geometry":{"type":"Polygon","coordinates":[[[131.594958,33.224982],[131.590174,33.230326],[131.57343,33.228617],[131.575249,33.192601],[131.581964,33.180474],[131.601482,33.202266],[131.594958,33.224982]]]},"properties":{}}},
    {"code":1191335,"id":"79b1ed","name":"古国府","original_name":"古国府","name_kana":"ふるごう","closed":false,"lat":33.220707,"lng":131.608306,"prefecture":44,"lines":[11913],"attr":"eco","postal_code":"870-0844","address":"大分市古国府","voronoi":{"type":"Feature","geometry":{"type":"Polygon","coordinates":[[[131.594958,33.224982],[131.623013,33.228954],[131.624357,33.22652],[131.606836,33.203387],[131.601482,33.202266],[131.594958,33.224982]]]},"properties":{}}},
    {"code":1190643,"id":"5edc55","name":"大分","original_name":"大分","name_kana":"おおいた","closed":false,"lat":33.232794,"lng":131.606595,"prefecture":44,"lines":[11906,11913,11923],"attr":"eco","postal_code":"870-0831","address":"大分市要町","voronoi":{"type":"Feature","geometry":{"type":"Polygon","coordinates":[[[131.594958,33.224982],[131.590174,33.230326],[131.616101,33.280208],[131.623013,33.228954],[131.594958,33.224982]]]},"properties":{}}}
  ]
}