{
  "code":11926,
  "id":"7a2ce3",
  "name":"JR肥薩線(吉松～隼人)",
  "name_kana":"じぇいあーるひさつせん",
  "station_size":10,
  "company_code":6,
  "closed":false,
  "station_list":[
    {"code":1192519,"id":"4db963","name":"吉松","original_name":"吉松","name_kana":"よしまつ","closed":false,"lat":32.012026,"lng":130.738104,"prefecture":46,"lines":[11925,11926,11929],"attr":"heat","postal_code":"899-6104","address":"姶良郡湧水町川西","voronoi":{"type":"Feature","geometry":{"type":"Polygon","coordinates":[[[130.670376,32.028086],[130.671351,31.995291],[130.801289,31.964755],[130.789609,31.994947],[130.710297,32.039941],[130.672834,32.034569],[130.670376,32.028086]]]},"properties":{}}},
    {"code":1192602,"id":"13a361","name":"栗野","original_name":"栗野","name_kana":"くりの","closed":false,"lat":31.950575,"lng":130.723663,"prefecture":46,"lines":[11926],"attr":"heat","postal_code":"899-6201","address":"姶良郡湧水町木場","voronoi":{"type":"Feature","geometry":{"type":"Polygon","coordinates":[[[130.815615,31.950292],[130.801289,31.964755],[130.671351,31.995291],[130.65301,31.957],[130.730408,31.920419],[130.818991,31.921008],[130.823848,31.921637],[130.830842,31.927621],[130.815615,31.950292]]]},"properties":{}}},
    {"code":1192603,"id":"cf2dbc","name":"大隅横川","original_name":"大隅横川","name_kana":"おおすみよこがわ","closed":false,"lat":31.906487,"lng":130.702825,"prefecture":46,"lines":[11926],"attr":"heat","postal_code":"899-6303","address":"霧島市横川町中ノ","voronoi":{"type":"Feature","geometry":{"type":"Polygon","coordinates":[[[130.683408,31.85922],[130.634571,31.846821],[130.651972,31.955987],[130.65301,31.957],[130.730408,31.920419],[130.683408,31.85922]]]},"properties":{}}},
    {"code":1192604,"id":"ee18ce","name":"植村","original_name":"植村","name_kana":"うえむら","closed":false,"lat":31.890175,"lng":130.724065,"prefecture":46,"lines":[11926],"attr":"heat","postal_code":"899-6303","address":"霧島市横川町中ノ","voronoi":{"type":"Feature","geometry":{"type":"Polygon","coordinates":[[[130.683408,31.85922],[130.6863,31.859172],[130.818991,31.921008],[130.730408,31.920419],[130.683408,31.85922]]]},"properties":{}}},
    {"code":1192605,"id":"febe3d","name":"霧島温泉","original_name":"霧島温泉","name_kana":"きりしまおんせん","closed":false,"lat":31.86815,"lng":130.734329,"prefecture":46,"lines":[11926],"attr":"cool","postal_code":"899-6507","address":"霧島市牧園町宿窪田","voronoi":{"type":"Feature","geometry":{"type":"Polygon","coordinates":[[[130.784051,31.839915],[130.754166,31.84055],[130.6863,31.859172],[130.818991,31.921008],[130.823848,31.921637],[130.784051,31.839915]]]},"properties":{}}},
    {"code":1192606,"id":"e44659","name":"嘉例川","original_name":"嘉例川","name_kana":"かれいがわ","closed":false,"lat":31.826939,"lng":130.723021,"prefecture":46,"lines":[11926],"attr":"cool","postal_code":"899-5113","address":"霧島市隼人町嘉例川","voronoi":{"type":"Feature","geometry":{"type":"Polygon","coordinates":[[[130.6863,31.859172],[130.683408,31.85922],[130.634571,31.846821],[130.623701,31.831843],[130.652343,31.809662],[130.687308,31.788816],[130.754166,31.84055],[130.6863,31.859172]]]},"properties":{}}},
    {"code":1192607,"id":"7207ae","name":"中福良","original_name":"中福良","name_kana":"なかふくら","closed":false,"lat":31.813818,"lng":130.733174,"prefecture":46,"lines":[11926],"attr":"cool","postal_code":"899-5113","address":"霧島市隼人町嘉例川","voronoi":{"type":"Feature","geometry":{"type":"Polygon","coordinates":[[[130.784217,31.835966],[130.700145,31.778066],[130.687308,31.788816],[130.754166,31.84055],[130.784051,31.839915],[130.784217,31.835966]]]},"properties":{}}},
    {"code":1192608,"id":"c3cbcf","name":"表木山","original_name":"表木山","name_kana":"ひょうきやま","closed":false,"lat":31.796176,"lng":130.745324,"prefecture":46,"lines":[11926],"attr":"eco","postal_code":"899-5113","address":"霧島市隼人町嘉例川","voronoi":{"type":"Feature","geometry":{"type":"Polygon","coordinates":[[[130.703844,31.773768],[130.796106,31.78647],[130.784217,31.835966],[130.700145,31.778066],[130.703393,31.773811],[130.703844,31.773768]]]},"properties":{}}},
    {"code":1192609,"id":"108399","name":"日当山","original_name":"日当山","name_kana":"ひなたやま","closed":false,"lat":31.763402,"lng":130.749836,"prefecture":46,"lines":[11926],"attr":"eco","postal_code":"899-5116","address":"霧島市隼人町内","voronoi":{"type":"Feature","geometry":{"type":"Polygon","coordinates":[[[130.751948,31.750294],[130.703844,31.773768],[130.796106,31.78647],[130.798622,31.782468],[130.751948,31.750294]]]},"properties":{}}},
    {"code":1190748,"id":"0f2107","name":"隼人","original_name":"隼人","name_kana":"はやと","closed":false,"lat":31.743893,"lng":130.740316,"prefecture":46,"lines":[11907,11926],"attr":"eco","postal_code":"899-5117","address":"霧島市隼人町見次","voronoi":{"type":"Feature","geometry":{"type":"Polygon","coordinates":[[[130.750268,31.585643],[130.71234,31.639147],[130.703393,31.773811],[130.703844,31.773768],[130.751948,31.750294],[130.750268,31.585643]]]},"properties":{}}}
  ]
}