{
  "code":11922,
  "id":"4b2c53",
  "name":"JR大村線",
  "name_kana":"じぇいあーるおおむらせん",
  "station_size":15,
  "company_code":6,
  "closed":false,
  "station_list":[
    {"code":1191811,"id":"e1c2ce","name":"早岐","original_name":"早岐","name_kana":"はいき","closed":false,"lat":33.134155,"lng":129.79929,"prefecture":42,"lines":[11918,11922],"attr":"cool","postal_code":"859-3215","address":"佐世保市早岐１丁目","voronoi":{"type":"Feature","geometry":{"type":"Polygon","coordinates":[[[129.830658,33.111745],[129.805395,33.158625],[129.767542,33.115073],[129.8221,33.111414],[129.830658,33.111745]]]},"properties":{}}},
    {"code":1192202,"id":"8b38df","name":"ハウステンボス","original_name":"ハウステンボス","name_kana":"はうすてんぼす","closed":false,"lat":33.091923,"lng":129.796458,"prefecture":42,"lines":[11922],"attr":"cool","postal_code":"859-3236","address":"佐世保市南風崎町","voronoi":{"type":"Feature","geometry":{"type":"Polygon","coordinates":[[[129.610059,32.979314],[129.729315,33.096658],[129.755839,33.11212],[129.767542,33.115073],[129.8221,33.111414],[129.602315,32.904401],[129.547119,32.89355],[129.587045,32.948813],[129.610059,32.979314]]]},"properties":{}}},
    {"code":1192203,"id":"34d25f","name":"南風崎","original_name":"南風崎","name_kana":"はえのさき","closed":false,"lat":33.086984,"lng":129.80111,"prefecture":42,"lines":[11922],"attr":"cool","postal_code":"859-3236","address":"佐世保市南風崎町小島郷","voronoi":{"type":"Feature","geometry":{"type":"Polygon","coordinates":[[[129.830658,33.111745],[129.8221,33.111414],[129.602315,32.904401],[129.712474,32.924623],[129.84017,33.107524],[129.830658,33.111745]]]},"properties":{}}},
    {"code":1192204,"id":"4ec86b","name":"小串郷","original_name":"小串郷","name_kana":"おぐしごう","closed":false,"lat":33.063779,"lng":129.834347,"prefecture":42,"lines":[11922],"attr":"cool","postal_code":"859-3618","address":"東彼杵郡川棚町小串郷","voronoi":{"type":"Feature","geometry":{"type":"Polygon","coordinates":[[[129.712474,32.924623],[129.754711,32.927659],[129.817725,32.936715],[129.849851,32.969322],[129.859273,33.00093],[129.842815,33.107682],[129.84017,33.107524],[129.712474,32.924623]]]},"properties":{}}},
    {"code":1192205,"id":"f4b345","name":"川棚","original_name":"川棚","name_kana":"かわたな","closed":false,"lat":33.068368,"lng":129.864112,"prefecture":42,"lines":[11922],"attr":"cool","postal_code":"859-3605","address":"東彼杵郡川棚町百津郷","voronoi":{"type":"Feature","geometry":{"type":"Polygon","coordinates":[[[129.882512,33.124609],[129.842815,33.107682],[129.859273,33.00093],[129.923737,33.115024],[129.923392,33.116242],[129.912041,33.120087],[129.882512,33.124609]]]},"properties":{}}},
    {"code":1192206,"id":"a7dfaf","name":"彼杵","original_name":"彼杵","name_kana":"そのぎ","closed":false,"lat":33.039875,"lng":129.914541,"prefecture":42,"lines":[11922],"attr":"cool","postal_code":"859-3808","address":"東彼杵郡東彼杵町蔵本郷","voronoi":{"type":"Feature","geometry":{"type":"Polygon","coordinates":[[[129.849851,32.969322],[129.859273,33.00093],[129.923737,33.115024],[129.963259,33.064982],[129.902456,32.994494],[129.859503,32.972741],[129.849851,32.969322]]]},"properties":{}}},
    {"code":1192207,"id":"3758a8","name":"千綿","original_name":"千綿","name_kana":"ちわた","closed":false,"lat":33.013107,"lng":129.945573,"prefecture":42,"lines":[11922],"attr":"heat","postal_code":"859-3928","address":"東彼杵郡東彼杵町平似田郷","voronoi":{"type":"Feature","geometry":{"type":"Polygon","coordinates":[[[129.902456,32.994494],[129.963259,33.064982],[130.049756,33.015555],[130.058168,32.997962],[130.058392,32.997187],[129.902456,32.994494]]]},"properties":{}}},
    {"code":1192208,"id":"f08d15","name":"松原(長崎)","original_name":"松原","name_kana":"まつばら","closed":false,"lat":32.97738,"lng":129.94619,"prefecture":42,"lines":[11922],"attr":"heat","postal_code":"856-0009","address":"大村市松原本町","voronoi":{"type":"Feature","geometry":{"type":"Polygon","coordinates":[[[129.902456,32.994494],[129.859503,32.972741],[129.977964,32.963855],[130.016168,32.970844],[130.052749,32.979762],[130.060001,32.993763],[130.058392,32.997187],[129.902456,32.994494]]]},"properties":{}}},
    {"code":1192209,"id":"110c82","name":"大村車両基地","original_name":"大村車両基地","name_kana":"おおむらしゃりょうきち","closed":false,"lat":32.955222,"lng":129.944528,"prefecture":42,"lines":[11922],"attr":"heat","postal_code":"856-0807","address":"長崎県大村市宮小路３丁目","open_date":"2022-09-23","voronoi":{"type":"Feature","geometry":{"type":"Polygon","coordinates":[[[129.871513,32.911835],[129.883385,32.911141],[129.977964,32.963855],[129.859503,32.972741],[129.849851,32.969322],[129.817725,32.936715],[129.846116,32.921014],[129.871513,32.911835]]]},"properties":{}}},
    {"code":1192210,"id":"a91784","name":"竹松","original_name":"竹松","name_kana":"たけまつ","closed":false,"lat":32.939959,"lng":129.953035,"prefecture":42,"lines":[11922],"attr":"heat","postal_code":"856-0805","address":"大村市竹松本町","voronoi":{"type":"Feature","geometry":{"type":"Polygon","coordinates":[[[129.910745,32.911435],[130.016168,32.970844],[129.977964,32.963855],[129.883385,32.911141],[129.902223,32.907818],[129.903563,32.90825],[129.910745,32.911435]]]},"properties":{}}},
    {"code":101203,"id":"71c7e0","name":"新大村","original_name":"新大村","name_kana":"しんおおむら","closed":false,"lat":32.932836,"lng":129.957049,"prefecture":42,"lines":[1012,11922],"attr":"heat","postal_code":"856-0027","address":"長崎県大村市植松３丁目１３５","open_date":"2022-09-23","voronoi":{"type":"Feature","geometry":{"type":"Polygon","coordinates":[[[130.052749,32.979762],[130.04728,32.959294],[129.910745,32.911435],[130.016168,32.970844],[130.052749,32.979762]]]},"properties":{}}},
    {"code":1192212,"id":"b5a795","name":"諏訪","original_name":"諏訪","name_kana":"すわ","closed":false,"lat":32.923627,"lng":129.960277,"prefecture":42,"lines":[11922],"attr":"eco","postal_code":"856-0024","address":"大村市諏訪","voronoi":{"type":"Feature","geometry":{"type":"Polygon","coordinates":[[[130.046341,32.954875],[130.04728,32.959294],[129.910745,32.911435],[129.903563,32.90825],[129.996177,32.923151],[130.046341,32.954875]]]},"properties":{}}},
    {"code":1192213,"id":"abe290","name":"大村(長崎)","original_name":"大村","name_kana":"おおむら","closed":false,"lat":32.911439,"lng":129.962238,"prefecture":42,"lines":[11922],"attr":"eco","postal_code":"856-0831","address":"大村市東本町","voronoi":{"type":"Feature","geometry":{"type":"Polygon","coordinates":[[[129.902223,32.907818],[129.953557,32.884494],[129.996177,32.923151],[129.903563,32.90825],[129.902223,32.907818]]]},"properties":{}}},
    {"code":1192214,"id":"1ed208","name":"岩松","original_name":"岩松","name_kana":"いわまつ","closed":false,"lat":32.890513,"lng":129.981218,"prefecture":42,"lines":[11922],"attr":"eco","postal_code":"856-0044","address":"大村市岩松町郷","voronoi":{"type":"Feature","geometry":{"type":"Polygon","coordinates":[[[130.046341,32.954875],[130.046495,32.930779],[130.043154,32.919299],[130.014518,32.875522],[129.998508,32.862919],[129.987801,32.861983],[129.961652,32.8732],[129.953557,32.884494],[129.996177,32.923151],[130.046341,32.954875]]]},"properties":{}}},
    {"code":101204,"id":"a86fba","name":"諫早","original_name":"諫早","name_kana":"いさはや","closed":false,"lat":32.851018,"lng":130.041596,"prefecture":42,"lines":[1012,11905,11922,99912],"attr":"heat","postal_code":"854-0072","address":"諫早市永昌町","voronoi":{"type":"Feature","geometry":{"type":"Polygon","coordinates":[[[130.043154,32.919299],[130.014518,32.875522],[130.037495,32.834503],[130.051642,32.851849],[130.046723,32.906564],[130.043154,32.919299]]]},"properties":{}}}
  ]
}