{
  "code":31027,
  "id":"36caa8",
  "name":"近鉄名古屋線",
  "name_kana":"きんてつなごやせん",
  "station_size":44,
  "company_code":21,
  "closed":false,
  "color":"#0000FF",
  "symbol":"E",
  "station_list":[
    {"code":3102701,"id":"8a4a5b","name":"近鉄名古屋","original_name":"近鉄名古屋","name_kana":"きんてつなごや","closed":false,"lat":35.169191,"lng":136.883855,"prefecture":23,"numbering":["E01"],"lines":[31027],"attr":"cool","postal_code":"450-0002","address":"名古屋市中村区名駅１-２-２","voronoi":{"type":"Feature","geometry":{"type":"Polygon","coordinates":[[[136.88481,35.164927],[136.880203,35.166189],[136.883645,35.171269],[136.88481,35.164927]]]},"properties":{}}},
    {"code":3102702,"id":"8dbeac","name":"米野","original_name":"米野","name_kana":"こめの","closed":false,"lat":35.161354,"lng":136.879793,"prefecture":23,"numbering":["E02"],"lines":[31027],"attr":"cool","postal_code":"453-0872","address":"名古屋市中村区平池町４-４８-１","voronoi":{"type":"Feature","geometry":{"type":"Polygon","coordinates":[[[136.879908,35.166183],[136.882092,35.154888],[136.879045,35.15196],[136.873665,35.161505],[136.878345,35.166492],[136.879908,35.166183]]]},"properties":{}}},
    {"code":3102703,"id":"a6fde7","name":"黄金(愛知)","original_name":"黄金","name_kana":"こがね","closed":false,"lat":35.156185,"lng":136.870621,"prefecture":23,"numbering":["E03"],"lines":[31027],"attr":"cool","postal_code":"453-0804","address":"名古屋市中村区黄金通８-１６","voronoi":{"type":"Feature","geometry":{"type":"Polygon","coordinates":[[[136.864695,35.163472],[136.863404,35.162764],[136.863337,35.162674],[136.871928,35.144896],[136.876631,35.142298],[136.877256,35.143683],[136.879045,35.15196],[136.873665,35.161505],[136.864695,35.163472]]]},"properties":{}}},
    {"code":3102704,"id":"739a90","name":"烏森","original_name":"烏森","name_kana":"かすもり","closed":false,"lat":35.152935,"lng":136.863895,"prefecture":23,"numbering":["E04"],"lines":[31027],"attr":"cool","postal_code":"453-0855","address":"名古屋市中村区烏森町１-１３２-８","voronoi":{"type":"Feature","geometry":{"type":"Polygon","coordinates":[[[136.863337,35.162674],[136.871928,35.144896],[136.871473,35.144974],[136.858219,35.154097],[136.863146,35.162561],[136.863337,35.162674]]]},"properties":{}}},
    {"code":3102705,"id":"dec41f","name":"近鉄八田","original_name":"近鉄八田","name_kana":"きんてつはった","closed":false,"lat":35.149587,"lng":136.854458,"prefecture":23,"numbering":["E05"],"lines":[31027],"attr":"cool","postal_code":"453-0856","address":"名古屋市中村区並木２-３３３","voronoi":{"type":"Feature","geometry":{"type":"Polygon","coordinates":[[[136.858149,35.154045],[136.852038,35.154009],[136.854748,35.144299],[136.857116,35.144074],[136.857623,35.144456],[136.858149,35.154045]]]},"properties":{}}},
    {"code":3102706,"id":"d16803","name":"伏屋","original_name":"伏屋","name_kana":"ふしや","closed":false,"lat":35.140183,"lng":136.827841,"prefecture":23,"numbering":["E06"],"lines":[31027],"attr":"cool","postal_code":"454-0996","address":"名古屋市中川区伏屋２-２８-１１","voronoi":{"type":"Feature","geometry":{"type":"Polygon","coordinates":[[[136.837383,35.116601],[136.839962,35.122346],[136.840769,35.142578],[136.835289,35.157802],[136.830455,35.164828],[136.827143,35.168088],[136.826191,35.168048],[136.818914,35.133253],[136.828453,35.107373],[136.835325,35.113801],[136.837383,35.116601]]]},"properties":{}}},
    {"code":3102707,"id":"ec7201","name":"戸田(愛知)","original_name":"戸田","name_kana":"とだ","closed":false,"lat":35.132731,"lng":136.807624,"prefecture":23,"numbering":["E07"],"lines":[31027],"attr":"heat","postal_code":"454-0963","address":"名古屋市中川区水里３-１３７","voronoi":{"type":"Feature","geometry":{"type":"Polygon","coordinates":[[[136.803757,35.141793],[136.799821,35.136014],[136.810572,35.087559],[136.823555,35.098064],[136.828453,35.107373],[136.818914,35.133253],[136.803757,35.141793]]]},"properties":{}}},
    {"code":3102708,"id":"deccb0","name":"近鉄蟹江","original_name":"近鉄蟹江","name_kana":"きんてつかにえ","closed":false,"lat":35.129739,"lng":136.794139,"prefecture":23,"numbering":["E08"],"lines":[31027],"attr":"heat","postal_code":"497-0033","address":"海部郡蟹江町大字蟹江本町字チの割３６","voronoi":{"type":"Feature","geometry":{"type":"Polygon","coordinates":[[[136.779636,35.135162],[136.779685,35.135636],[136.799821,35.136014],[136.810572,35.087559],[136.796975,35.072586],[136.795294,35.071447],[136.779636,35.135162]]]},"properties":{}}},
    {"code":3102709,"id":"e86df0","name":"富吉","original_name":"富吉","name_kana":"とみよし","closed":false,"lat":35.123634,"lng":136.769298,"prefecture":23,"numbering":["E09"],"lines":[31027],"attr":"heat","postal_code":"497-0044","address":"海部郡蟹江町大字蟹江新田字与太郎１８-５","voronoi":{"type":"Feature","geometry":{"type":"Polygon","coordinates":[[[136.777679,35.05269],[136.760195,35.124672],[136.779636,35.135162],[136.795294,35.071447],[136.777679,35.05269]]]},"properties":{}}},
    {"code":3102710,"id":"5958cc","name":"佐古木","original_name":"佐古木","name_kana":"さこぎ","closed":false,"lat":35.119574,"lng":136.752583,"prefecture":23,"numbering":["E10"],"lines":[31027],"attr":"eco","postal_code":"498-0000","address":"弥富市佐古木６丁目２２７-２","voronoi":{"type":"Feature","geometry":{"type":"Polygon","coordinates":[[[136.757775,35.042423],[136.735727,35.135015],[136.740887,35.141649],[136.740957,35.141688],[136.760195,35.124672],[136.777679,35.05269],[136.764168,35.034289],[136.757775,35.042423]]]},"properties":{}}},
    {"code":3102711,"id":"108b22","name":"近鉄弥富","original_name":"近鉄弥富","name_kana":"きんてつやとみ","closed":false,"lat":35.113634,"lng":136.727638,"prefecture":23,"numbering":["E11"],"lines":[31027],"attr":"eco","postal_code":"498-0026","address":"弥富市鯏浦町西前新田５１","voronoi":{"type":"Feature","geometry":{"type":"Polygon","coordinates":[[[136.757775,35.042423],[136.735727,35.135015],[136.731467,35.13363],[136.730364,35.132529],[136.721329,35.087028],[136.73205,35.065821],[136.757775,35.042423]]]},"properties":{}}},
    {"code":3102712,"id":"c23dc5","name":"近鉄長島","original_name":"近鉄長島","name_kana":"きんてつながしま","closed":false,"lat":35.097721,"lng":136.696162,"prefecture":24,"numbering":["E12"],"lines":[31027],"attr":"eco","postal_code":"511-1143","address":"桑名市長島町西外面１６４８","voronoi":{"type":"Feature","geometry":{"type":"Polygon","coordinates":[[[136.719391,35.070615],[136.690386,35.082437],[136.684961,35.088444],[136.709034,35.109274],[136.721329,35.087028],[136.73205,35.065821],[136.719391,35.070615]]]},"properties":{}}},
    {"code":1150808,"id":"520073","name":"桑名","original_name":"桑名","name_kana":"くわな","closed":false,"lat":35.06747,"lng":136.683832,"prefecture":24,"numbering":["E13"],"lines":[11508,31027,99532],"attr":"eco","postal_code":"511-0811","address":"桑名市東方","voronoi":{"type":"Feature","geometry":{"type":"Polygon","coordinates":[[[136.690386,35.082437],[136.675242,35.06945],[136.678405,35.065953],[136.719391,35.070615],[136.690386,35.082437]]]},"properties":{}}},
    {"code":3102714,"id":"398187","name":"益生","original_name":"益生","name_kana":"ますお","closed":false,"lat":35.057772,"lng":136.67854,"prefecture":24,"numbering":["E14"],"lines":[31027],"attr":"eco","postal_code":"511-0821","address":"桑名市大字矢田７７１","voronoi":{"type":"Feature","geometry":{"type":"Polygon","coordinates":[[[136.670814,35.049436],[136.671687,35.054945],[136.681032,35.06191],[136.755641,35.010168],[136.754231,35.007915],[136.670814,35.049436]]]},"properties":{}}},
    {"code":3102715,"id":"355737","name":"伊勢朝日","original_name":"伊勢朝日","name_kana":"いせあさひ","closed":false,"lat":35.038246,"lng":136.668821,"prefecture":24,"numbering":["E15"],"lines":[31027],"attr":"eco","postal_code":"510-8102","address":"三重郡朝日町大字小向７３９-２","voronoi":{"type":"Feature","geometry":{"type":"Polygon","coordinates":[[[136.670814,35.049436],[136.659197,35.047935],[136.658665,35.047522],[136.66762,35.025875],[136.747221,34.992972],[136.754231,35.007915],[136.670814,35.049436]]]},"properties":{}}},
    {"code":3102716,"id":"949cab","name":"川越富洲原","original_name":"川越富洲原","name_kana":"かわごえとみすはら","closed":false,"lat":35.016267,"lng":136.659736,"prefecture":24,"numbering":["E16"],"lines":[31027],"attr":"eco","postal_code":"510-8122","address":"三重県三重郡川越町大字豊田275","voronoi":{"type":"Feature","geometry":{"type":"Polygon","coordinates":[[[136.747221,34.992972],[136.66762,35.025875],[136.647612,35.023927],[136.646746,35.020044],[136.677044,34.995513],[136.737436,34.96581],[136.74344,34.981044],[136.747221,34.992972]]]},"properties":{}}},
    {"code":3102717,"id":"c3162e","name":"近鉄富田","original_name":"近鉄富田","name_kana":"きんてつとみだ","closed":false,"lat":35.006491,"lng":136.64934,"prefecture":24,"numbering":["E17"],"lines":[31027,99528],"attr":"eco","postal_code":"510-8014","address":"四日市市富田１-２６-１９","voronoi":{"type":"Feature","geometry":{"type":"Polygon","coordinates":[[[136.642014,35.000981],[136.63491,35.007743],[136.646139,35.01919],[136.653607,35.001798],[136.642014,35.000981]]]},"properties":{}}},
    {"code":3102718,"id":"5eb271","name":"霞ヶ浦","original_name":"霞ヶ浦","name_kana":"かすみがうら","closed":false,"lat":34.993392,"lng":136.636872,"prefecture":24,"numbering":["E18"],"lines":[31027],"attr":"eco","postal_code":"510-0001","address":"三重県四日市市八田一丁目14-2","voronoi":{"type":"Feature","geometry":{"type":"Polygon","coordinates":[[[136.648084,34.975692],[136.616073,35.004849],[136.617578,35.00564],[136.63491,35.007743],[136.642014,35.000981],[136.648084,34.975692]]]},"properties":{}}},
    {"code":3102719,"id":"065654","name":"阿倉川","original_name":"阿倉川","name_kana":"あくらがわ","closed":false,"lat":34.985207,"lng":136.629417,"prefecture":24,"numbering":["E19"],"lines":[31027],"attr":"eco","postal_code":"510-0803","address":"四日市市阿倉川町８-９","voronoi":{"type":"Feature","geometry":{"type":"Polygon","coordinates":[[[136.635354,34.97415],[136.602491,34.999929],[136.601759,35.001153],[136.602017,35.00128],[136.616073,35.004849],[136.648084,34.975692],[136.648688,34.974595],[136.635354,34.97415]]]},"properties":{}}},
    {"code":3102720,"id":"cc5297","name":"川原町","original_name":"川原町","name_kana":"かわらまち","closed":false,"lat":34.977283,"lng":136.623201,"prefecture":24,"numbering":["E20"],"lines":[31027],"attr":"eco","postal_code":"510-0806","address":"四日市市本郷町１-１","voronoi":{"type":"Feature","geometry":{"type":"Polygon","coordinates":[[[136.625856,34.969606],[136.635354,34.97415],[136.602491,34.999929],[136.611938,34.975862],[136.625856,34.969606]]]},"properties":{}}},
    {"code":3100801,"id":"a33b9c","name":"近鉄四日市（あすなろう四日市）","original_name":"近鉄四日市（あすなろう四日市）","name_kana":"きんてつよっかいち（あすなろうよっかいち）","closed":false,"lat":34.966495,"lng":136.618352,"prefecture":24,"numbering":["E21"],"lines":[31008,31013,31027,31028,31029],"attr":"eco","postal_code":"510-0075","address":"四日市市安島１-１-５６","voronoi":{"type":"Feature","geometry":{"type":"Polygon","coordinates":[[[136.611938,34.975862],[136.610409,34.967161],[136.616008,34.961066],[136.62321,34.961321],[136.625856,34.969606],[136.611938,34.975862]]]},"properties":{}}},
    {"code":3102722,"id":"3836cb","name":"新正","original_name":"新正","name_kana":"しんしょう","closed":false,"lat":34.955816,"lng":136.61873,"prefecture":24,"numbering":["E22"],"lines":[31027],"attr":"eco","postal_code":"510-0064","address":"四日市市新正４-５-２０","voronoi":{"type":"Feature","geometry":{"type":"Polygon","coordinates":[[[136.615585,34.947784],[136.611641,34.950285],[136.616008,34.961066],[136.62321,34.961321],[136.628707,34.952216],[136.615585,34.947784]]]},"properties":{}}},
    {"code":3102723,"id":"30f3fb","name":"海山道","original_name":"海山道","name_kana":"みやまど","closed":false,"lat":34.943304,"lng":136.622956,"prefecture":24,"numbering":["E23"],"lines":[31027],"attr":"eco","postal_code":"510-0845","address":"四日市市海山道町２-８０-１","voronoi":{"type":"Feature","geometry":{"type":"Polygon","coordinates":[[[136.615585,34.947784],[136.616828,34.938556],[136.675463,34.93449],[136.676076,34.934622],[136.628707,34.952216],[136.615585,34.947784]]]},"properties":{}}},
    {"code":3102724,"id":"9fe323","name":"塩浜","original_name":"塩浜","name_kana":"しおはま","closed":false,"lat":34.933008,"lng":136.622242,"prefecture":24,"numbering":["E24"],"lines":[31027],"attr":"eco","postal_code":"510-0862","address":"四日市市御薗町２-８２","voronoi":{"type":"Feature","geometry":{"type":"Polygon","coordinates":[[[136.609758,34.922511],[136.608854,34.923472],[136.608977,34.926945],[136.616828,34.938556],[136.675463,34.93449],[136.663521,34.930682],[136.609758,34.922511]]]},"properties":{}}},
    {"code":3102725,"id":"6e4edb","name":"北楠","original_name":"北楠","name_kana":"きたくす","closed":false,"lat":34.916197,"lng":136.624797,"prefecture":24,"numbering":["E25"],"lines":[31027],"attr":"eco","postal_code":"510-0103","address":"四日市市楠町北五味塚２０４８","voronoi":{"type":"Feature","geometry":{"type":"Polygon","coordinates":[[[136.609758,34.922511],[136.613827,34.903122],[136.615054,34.903202],[136.663521,34.930682],[136.609758,34.922511]]]},"properties":{}}},
    {"code":3102726,"id":"d018f9","name":"楠","original_name":"楠","name_kana":"くす","closed":false,"lat":34.90489,"lng":136.631208,"prefecture":24,"numbering":["E26"],"lines":[31027],"attr":"eco","postal_code":"510-0105","address":"四日市市楠町南川２２","voronoi":{"type":"Feature","geometry":{"type":"Polygon","coordinates":[[[136.715534,34.935331],[136.676076,34.934622],[136.675463,34.93449],[136.663521,34.930682],[136.615054,34.903202],[136.719687,34.865405],[136.728793,34.902362],[136.727265,34.930608],[136.727,34.932976],[136.715534,34.935331]]]},"properties":{}}},
    {"code":3102727,"id":"4993c0","name":"長太ノ浦","original_name":"長太ノ浦","name_kana":"なごのうら","closed":false,"lat":34.89158,"lng":136.6264,"prefecture":24,"numbering":["E27"],"lines":[31027],"attr":"eco","postal_code":"513-0043","address":"鈴鹿市長太栄町２-１８-１９","voronoi":{"type":"Feature","geometry":{"type":"Polygon","coordinates":[[[136.717395,34.851931],[136.606204,34.891999],[136.613827,34.903122],[136.615054,34.903202],[136.719687,34.865405],[136.717395,34.851931]]]},"properties":{}}},
    {"code":3102728,"id":"f73ce1","name":"箕田","original_name":"箕田","name_kana":"みだ","closed":false,"lat":34.879439,"lng":136.622025,"prefecture":24,"numbering":["E28"],"lines":[31027],"attr":"eco","postal_code":"513-0046","address":"鈴鹿市南堀江１-１８-１０","voronoi":{"type":"Feature","geometry":{"type":"Polygon","coordinates":[[[136.71454,34.824429],[136.717395,34.851931],[136.606204,34.891999],[136.605173,34.891224],[136.605281,34.887401],[136.607327,34.880777],[136.71454,34.824429]]]},"properties":{}}},
    {"code":3101901,"id":"fefc94","name":"伊勢若松","original_name":"伊勢若松","name_kana":"いせわかまつ","closed":false,"lat":34.869431,"lng":136.616765,"prefecture":24,"numbering":["E29"],"lines":[31019,31027],"attr":"eco","postal_code":"510-0222","address":"鈴鹿市若松西４-１７-８","voronoi":{"type":"Feature","geometry":{"type":"Polygon","coordinates":[[[136.605936,34.865922],[136.713497,34.803955],[136.71454,34.824429],[136.607327,34.880777],[136.605936,34.865922]]]},"properties":{}}},
    {"code":3102730,"id":"94defd","name":"千代崎","original_name":"千代崎","name_kana":"ちよざき","closed":false,"lat":34.854793,"lng":136.608332,"prefecture":24,"numbering":["E30"],"lines":[31027],"attr":"cool","postal_code":"510-0226","address":"鈴鹿市岸岡町１０９-２","voronoi":{"type":"Feature","geometry":{"type":"Polygon","coordinates":[[[136.711708,34.743801],[136.589169,34.852996],[136.589172,34.853406],[136.605936,34.865922],[136.713497,34.803955],[136.714599,34.752646],[136.711708,34.743801]]]},"properties":{}}},
    {"code":3102731,"id":"7838c7","name":"白子","original_name":"白子","name_kana":"しろこ","closed":false,"lat":34.833754,"lng":136.589584,"prefecture":24,"numbering":["E31"],"lines":[31027],"attr":"cool","postal_code":"510-0241","address":"鈴鹿市白子駅前２２-１","voronoi":{"type":"Feature","geometry":{"type":"Polygon","coordinates":[[[136.692419,34.712361],[136.575716,34.84068],[136.589169,34.852996],[136.711708,34.743801],[136.702372,34.702616],[136.692419,34.712361]]]},"properties":{}}},
    {"code":3102732,"id":"6dca61","name":"鼓ヶ浦","original_name":"鼓ヶ浦","name_kana":"つづみがうら","closed":false,"lat":34.826219,"lng":136.581299,"prefecture":24,"numbering":["E32"],"lines":[31027],"attr":"cool","postal_code":"510-0254","address":"三重県鈴鹿市寺家四丁目16-16","voronoi":{"type":"Feature","geometry":{"type":"Polygon","coordinates":[[[136.575716,34.84068],[136.571231,34.838932],[136.565251,34.828391],[136.692419,34.712361],[136.575716,34.84068]]]},"properties":{}}},
    {"code":3102733,"id":"8971df","name":"磯山","original_name":"磯山","name_kana":"いそやま","closed":false,"lat":34.812609,"lng":136.568881,"prefecture":24,"numbering":["E33"],"lines":[31027],"attr":"cool","postal_code":"510-0256","address":"鈴鹿市磯山２-１２-６","voronoi":{"type":"Feature","geometry":{"type":"Polygon","coordinates":[[[136.701591,34.696961],[136.687661,34.693314],[136.555973,34.811449],[136.555856,34.818318],[136.560018,34.825866],[136.565251,34.828391],[136.692419,34.712361],[136.702372,34.702616],[136.701591,34.696961]]]},"properties":{}}},
    {"code":3102734,"id":"12008f","name":"千里(三重)","original_name":"千里","name_kana":"ちさと","closed":false,"lat":34.798491,"lng":136.556216,"prefecture":24,"numbering":["E34"],"lines":[31027],"attr":"cool","postal_code":"510-0304","address":"津市河芸町上野１０６-２","voronoi":{"type":"Feature","geometry":{"type":"Polygon","coordinates":[[[136.550278,34.805959],[136.548441,34.79305],[136.642089,34.701452],[136.650586,34.694224],[136.670239,34.687685],[136.687661,34.693314],[136.555973,34.811449],[136.550278,34.805959]]]},"properties":{}}},
    {"code":3102735,"id":"1935fe","name":"豊津上野","original_name":"豊津上野","name_kana":"とよつうえの","closed":false,"lat":34.785156,"lng":136.543173,"prefecture":24,"numbering":["E35"],"lines":[31027],"attr":"cool","postal_code":"510-0305","address":"津市河芸町中別保１５８１-１","voronoi":{"type":"Feature","geometry":{"type":"Polygon","coordinates":[[[136.548441,34.79305],[136.533915,34.792403],[136.539168,34.776946],[136.642089,34.701452],[136.548441,34.79305]]]},"properties":{}}},
    {"code":3102736,"id":"a110e1","name":"白塚","original_name":"白塚","name_kana":"しらつか","closed":false,"lat":34.77066,"lng":136.53254,"prefecture":24,"numbering":["E36"],"lines":[31027],"attr":"cool","postal_code":"514-0101","address":"津市白塚町８２０-２","voronoi":{"type":"Feature","geometry":{"type":"Polygon","coordinates":[[[136.650586,34.694224],[136.642089,34.701452],[136.539168,34.776946],[136.517095,34.773642],[136.521728,34.765722],[136.543269,34.743448],[136.584938,34.714054],[136.602277,34.70356],[136.650586,34.694224]]]},"properties":{}}},
    {"code":3102737,"id":"44db95","name":"高田本山","original_name":"高田本山","name_kana":"たかだほんざん","closed":false,"lat":34.755082,"lng":136.516431,"prefecture":24,"numbering":["E37"],"lines":[31027],"attr":"cool","postal_code":"514-0111","address":"津市一身田平野３６９-２","voronoi":{"type":"Feature","geometry":{"type":"Polygon","coordinates":[[[136.50936,34.751074],[136.521728,34.765722],[136.543269,34.743448],[136.50936,34.751074]]]},"properties":{}}},
    {"code":3102738,"id":"738d90","name":"江戸橋","original_name":"江戸橋","name_kana":"えどばし","closed":false,"lat":34.744425,"lng":136.514034,"prefecture":24,"numbering":["E38"],"lines":[31027],"attr":"cool","postal_code":"514-0008","address":"津市上浜町３-１３７-１","voronoi":{"type":"Feature","geometry":{"type":"Polygon","coordinates":[[[136.502372,34.750141],[136.495931,34.745],[136.584938,34.714054],[136.543269,34.743448],[136.50936,34.751074],[136.502372,34.750141]]]},"properties":{}}},
    {"code":1151004,"id":"e0a200","name":"津","original_name":"津","name_kana":"つ","closed":false,"lat":34.73422,"lng":136.510486,"prefecture":24,"numbering":["E39"],"lines":[11510,31027,99530],"attr":"heat","postal_code":"514-0009","address":"津市羽所町","voronoi":{"type":"Feature","geometry":{"type":"Polygon","coordinates":[[[136.480313,34.738926],[136.495931,34.745],[136.584938,34.714054],[136.602277,34.70356],[136.58635,34.703067],[136.520836,34.716197],[136.480313,34.738926]]]},"properties":{}}},
    {"code":3102740,"id":"497f0c","name":"津新町","original_name":"津新町","name_kana":"つしんまち","closed":false,"lat":34.715632,"lng":136.50006,"prefecture":24,"numbering":["E40"],"lines":[31027],"attr":"heat","postal_code":"514-0042","address":"津市新町１-５-３５","voronoi":{"type":"Feature","geometry":{"type":"Polygon","coordinates":[[[136.42767,34.729596],[136.423333,34.734237],[136.420883,34.738069],[136.480313,34.738926],[136.520836,34.716197],[136.489723,34.705172],[136.465183,34.708772],[136.42767,34.729596]]]},"properties":{}}},
    {"code":3102741,"id":"21e6ee","name":"南が丘","original_name":"南が丘","name_kana":"みなみがおか","closed":false,"lat":34.692183,"lng":136.49662,"prefecture":24,"numbering":["E41"],"lines":[31027],"attr":"heat","postal_code":"514-0821","address":"津市大字垂水東焼尾２６１２-５９","voronoi":{"type":"Feature","geometry":{"type":"Polygon","coordinates":[[[136.465183,34.708772],[136.489723,34.705172],[136.516227,34.687178],[136.495828,34.674122],[136.465183,34.708772]]]},"properties":{}}},
    {"code":3102742,"id":"c51321","name":"久居","original_name":"久居","name_kana":"ひさい","closed":false,"lat":34.675543,"lng":136.477806,"prefecture":24,"numbering":["E42"],"lines":[31027],"attr":"heat","postal_code":"514-1118","address":"津市久居新町９９４-６","voronoi":{"type":"Feature","geometry":{"type":"Polygon","coordinates":[[[136.42767,34.729596],[136.455365,34.670036],[136.494614,34.669017],[136.495828,34.674122],[136.465183,34.708772],[136.42767,34.729596]]]},"properties":{}}},
    {"code":3102743,"id":"aab5c2","name":"桃園","original_name":"桃園","name_kana":"ももぞの","closed":false,"lat":34.663372,"lng":136.47749,"prefecture":24,"numbering":["E43"],"lines":[31027],"attr":"heat","postal_code":"514-1123","address":"津市牧町３７５","voronoi":{"type":"Feature","geometry":{"type":"Polygon","coordinates":[[[136.49679,34.649472],[136.494614,34.669017],[136.455365,34.670036],[136.455719,34.667956],[136.465531,34.649027],[136.49679,34.649472]]]},"properties":{}}},
    {"code":3100548,"id":"e9fec5","name":"伊勢中川","original_name":"伊勢中川","name_kana":"いせなかがわ","closed":false,"lat":34.635028,"lng":136.477894,"prefecture":24,"numbering":["E61"],"lines":[31005,31009,31027],"attr":"heat","postal_code":"515-2321","address":"松阪市嬉野中川町７５４","voronoi":{"type":"Feature","geometry":{"type":"Polygon","coordinates":[[[136.497621,34.634533],[136.502696,34.643124],[136.49679,34.649472],[136.465531,34.649027],[136.453753,34.619826],[136.492351,34.629416],[136.497621,34.634533]]]},"properties":{}}}
  ]
}