{
  "code":99205,
  "id":"151a49",
  "name":"いわて銀河鉄道",
  "name_kana":"いわてぎんがてつどう",
  "name_formal":"いわて銀河鉄道線",
  "station_size":18,
  "company_code":107,
  "closed":false,
  "color":"#03459A",
  "station_list":[
    {"code":100418,"id":"2f6f3d","name":"盛岡","original_name":"盛岡","name_kana":"もりおか","closed":false,"lat":39.701547,"lng":141.136599,"prefecture":3,"lines":[1004,11231,11211,11213,99205],"attr":"heat","postal_code":"020-0034","address":"盛岡市盛岡駅前通","voronoi":{"type":"Feature","geometry":{"type":"Polygon","coordinates":[[[141.132787,39.717348],[141.14823,39.699684],[141.117938,39.672532],[141.106861,39.670155],[141.118533,39.706339],[141.132787,39.717348]]]},"properties":{}}},
    {"code":9920502,"id":"6aff99","name":"青山(岩手)","original_name":"青山","name_kana":"あおやま","closed":false,"lat":39.725029,"lng":141.118462,"prefecture":3,"lines":[99205],"attr":"eco","postal_code":"020-0133","address":"盛岡市青山２丁目２番４０号","voronoi":{"type":"Feature","geometry":{"type":"Polygon","coordinates":[[[141.118533,39.706339],[141.132787,39.717348],[141.137389,39.727345],[141.084105,39.756943],[141.084508,39.755554],[141.118533,39.706339]]]},"properties":{}}},
    {"code":9920503,"id":"1dc5a0","name":"厨川","original_name":"厨川","name_kana":"くりやがわ","closed":false,"lat":39.744637,"lng":141.129354,"prefecture":3,"lines":[99205],"attr":"eco","postal_code":"020-0124","address":"盛岡市厨川１丁目１７番地","voronoi":{"type":"Feature","geometry":{"type":"Polygon","coordinates":[[[141.078362,39.794263],[141.058235,39.801678],[141.084105,39.756943],[141.137389,39.727345],[141.155147,39.737291],[141.164635,39.751203],[141.078362,39.794263]]]},"properties":{}}},
    {"code":9920504,"id":"811e66","name":"巣子","original_name":"巣子","name_kana":"すご","closed":false,"lat":39.783345,"lng":141.148674,"prefecture":3,"lines":[99205],"attr":"eco","postal_code":"020-0611","address":"岩手県滝沢市巣子290-8","open_date":"2016-03-18","voronoi":{"type":"Feature","geometry":{"type":"Polygon","coordinates":[[[141.168245,39.752421],[141.194539,39.789142],[141.078362,39.794263],[141.164635,39.751203],[141.168245,39.752421]]]},"properties":{}}},
    {"code":9920505,"id":"f99af3","name":"滝沢","original_name":"滝沢","name_kana":"たきざわ","closed":false,"lat":39.798953,"lng":141.149362,"prefecture":3,"lines":[99205],"attr":"eco","postal_code":"020-0622","address":"岩手県滝沢市野沢90","voronoi":{"type":"Feature","geometry":{"type":"Polygon","coordinates":[[[141.058235,39.801678],[141.078362,39.794263],[141.194539,39.789142],[141.213666,39.808049],[141.062133,39.829723],[141.039827,39.820288],[141.044399,39.813897],[141.058235,39.801678]]]},"properties":{}}},
    {"code":9920506,"id":"ee5b7d","name":"渋民","original_name":"渋民","name_kana":"しぶたみ","closed":false,"lat":39.834806,"lng":141.15449,"prefecture":3,"lines":[99205],"attr":"heat","postal_code":"028-4134","address":"盛岡市玉山区下田字陣場６５番地","voronoi":{"type":"Feature","geometry":{"type":"Polygon","coordinates":[[[141.109307,39.861803],[141.062133,39.829723],[141.213666,39.808049],[141.235101,39.819676],[141.138489,39.866947],[141.109307,39.861803]]]},"properties":{}}},
    {"code":1121201,"id":"b307d5","name":"好摩","original_name":"好摩","name_kana":"こうま","closed":false,"lat":39.874037,"lng":141.173685,"prefecture":3,"lines":[11212,99205],"attr":"heat","postal_code":"028-4125","address":"盛岡市玉山区好摩","voronoi":{"type":"Feature","geometry":{"type":"Polygon","coordinates":[[[141.172744,39.904274],[141.138489,39.866947],[141.235101,39.819676],[141.244436,39.821837],[141.274229,39.845981],[141.172744,39.904274]]]},"properties":{}}},
    {"code":9920508,"id":"9ef617","name":"岩手川口","original_name":"岩手川口","name_kana":"いわてかわぐち","closed":false,"lat":39.918696,"lng":141.199337,"prefecture":3,"lines":[99205],"attr":"heat","postal_code":"028-4211","address":"岩手郡岩手町字川口９番地","voronoi":{"type":"Feature","geometry":{"type":"Polygon","coordinates":[[[141.274229,39.845981],[141.348024,39.879984],[141.156596,39.961332],[141.172744,39.904274],[141.274229,39.845981]]]},"properties":{}}},
    {"code":100419,"id":"515470","name":"いわて沼宮内","original_name":"いわて沼宮内","name_kana":"いわてぬまくない","closed":false,"lat":39.960155,"lng":141.216955,"prefecture":3,"lines":[1004,99205],"attr":"heat","postal_code":"028-4303","address":"岩手郡岩手町大字江刈内","voronoi":{"type":"Feature","geometry":{"type":"Polygon","coordinates":[[[141.146683,40.018712],[141.150135,39.969689],[141.156596,39.961332],[141.348024,39.879984],[141.398253,39.894681],[141.408755,39.899836],[141.146683,40.018712]]]},"properties":{}}},
    {"code":9920510,"id":"770eab","name":"御堂","original_name":"御堂","name_kana":"みどう","closed":false,"lat":40.004412,"lng":141.23703,"prefecture":3,"lines":[99205],"attr":"heat","postal_code":"028-4307","address":"岩手郡岩手町大字五日市４番地","voronoi":{"type":"Feature","geometry":{"type":"Polygon","coordinates":[[[141.145118,40.02315],[141.146683,40.018712],[141.408755,39.899836],[141.462018,39.918386],[141.496825,39.992511],[141.398295,40.034315],[141.326838,40.048399],[141.145118,40.02315]]]},"properties":{}}},
    {"code":9920511,"id":"3c12ae","name":"奥中山高原","original_name":"奥中山高原","name_kana":"おくなかやまこうげん","closed":false,"lat":40.066235,"lng":141.22844,"prefecture":3,"lines":[99205],"attr":"heat","postal_code":"028-5133","address":"二戸郡一戸町大字中山字大塚７６番地","voronoi":{"type":"Feature","geometry":{"type":"Polygon","coordinates":[[[141.326838,40.048399],[141.145118,40.02315],[141.131471,40.040083],[141.150332,40.147588],[141.326838,40.048399]]]},"properties":{}}},
    {"code":9920512,"id":"888936","name":"小繋","original_name":"小繋","name_kana":"こつなぎ","closed":false,"lat":40.123173,"lng":141.260437,"prefecture":3,"lines":[99205],"attr":"heat","postal_code":"028-5132","address":"二戸郡一戸町大字小繋字西田子３番地","voronoi":{"type":"Feature","geometry":{"type":"Polygon","coordinates":[[[141.326838,40.048399],[141.150332,40.147588],[141.14204,40.216307],[141.178183,40.209497],[141.253277,40.177546],[141.398295,40.034315],[141.326838,40.048399]]]},"properties":{}}},
    {"code":9920513,"id":"343f15","name":"小鳥谷","original_name":"小鳥谷","name_kana":"こずや","closed":false,"lat":40.171061,"lng":141.307735,"prefecture":3,"lines":[99205],"attr":"heat","postal_code":"028-5221","address":"二戸郡一戸町大字小鳥谷字中屋敷１番地","voronoi":{"type":"Feature","geometry":{"type":"Polygon","coordinates":[[[141.538805,40.192904],[141.542668,40.100346],[141.537157,40.032117],[141.496825,39.992511],[141.398295,40.034315],[141.253277,40.177546],[141.527417,40.250002],[141.538805,40.192904]]]},"properties":{}}},
    {"code":9920514,"id":"3055a3","name":"一戸","original_name":"一戸","name_kana":"いちのへ","closed":false,"lat":40.210092,"lng":141.297419,"prefecture":3,"lines":[99205],"attr":"cool","postal_code":"028-5301","address":"二戸郡一戸町西法寺字稲荷","voronoi":{"type":"Feature","geometry":{"type":"Polygon","coordinates":[[[141.253277,40.177546],[141.178183,40.209497],[141.379776,40.254797],[141.432471,40.259216],[141.526999,40.253778],[141.527417,40.250002],[141.253277,40.177546]]]},"properties":{}}},
    {"code":100420,"id":"c953e7","name":"二戸","original_name":"二戸","name_kana":"にのへ","closed":false,"lat":40.25997,"lng":141.286211,"prefecture":3,"lines":[1004,99205],"attr":"cool","postal_code":"028-6103","address":"二戸市石切所","voronoi":{"type":"Feature","geometry":{"type":"Polygon","coordinates":[[[141.095084,40.310315],[141.08285,40.309147],[141.109685,40.263559],[141.14204,40.216307],[141.178183,40.209497],[141.379776,40.254797],[141.095084,40.310315]]]},"properties":{}}},
    {"code":9920516,"id":"3d6b1c","name":"斗米","original_name":"斗米","name_kana":"とまい","closed":false,"lat":40.285158,"lng":141.291123,"prefecture":3,"lines":[99205],"attr":"cool","postal_code":"028-6104","address":"二戸市米沢字沢内１７６番地","voronoi":{"type":"Feature","geometry":{"type":"Polygon","coordinates":[[[141.120438,40.314413],[141.095084,40.310315],[141.379776,40.254797],[141.432471,40.259216],[141.257438,40.317736],[141.120438,40.314413]]]},"properties":{}}},
    {"code":9920517,"id":"2cbd3c","name":"金田一温泉","original_name":"金田一温泉","name_kana":"きんたいちおんせん","closed":false,"lat":40.323503,"lng":141.303943,"prefecture":3,"lines":[99205],"attr":"cool","postal_code":"028-5711","address":"二戸市金田一字水梨１４番地","voronoi":{"type":"Feature","geometry":{"type":"Polygon","coordinates":[[[141.524817,40.280869],[141.527988,40.272284],[141.528989,40.268405],[141.526999,40.253778],[141.432471,40.259216],[141.257438,40.317736],[141.357915,40.368811],[141.376884,40.368675],[141.425098,40.352211],[141.522003,40.287475],[141.522819,40.28569],[141.524817,40.280869]]]},"properties":{}}},
    {"code":9920518,"id":"f6e35e","name":"目時","original_name":"目時","name_kana":"めとき","closed":false,"lat":40.351908,"lng":141.289504,"prefecture":2,"lines":[99205,99206],"attr":"heat","postal_code":"039-0113","address":"三戸郡三戸町大字目時字村中１２番地","voronoi":{"type":"Feature","geometry":{"type":"Polygon","coordinates":[[[141.357915,40.368811],[141.303076,40.381955],[141.120438,40.314413],[141.257438,40.317736],[141.357915,40.368811]]]},"properties":{}}}
  ]
}