{
  "code":99215,
  "id":"c0ba5d",
  "name":"福島交通飯坂線",
  "name_kana":"ふくしまこうつういいざかせん",
  "station_size":12,
  "company_code":116,
  "closed":false,
  "station_list":[
    {"code":100409,"id":"7bfd6b","name":"福島(福島)","original_name":"福島","name_kana":"ふくしま","closed":false,"lat":37.754123,"lng":140.45968,"prefecture":7,"lines":[1004,11231,11216,99213,99215],"attr":"heat","postal_code":"960-8031","address":"福島市栄町","voronoi":{"type":"Feature","geometry":{"type":"Polygon","coordinates":[[[140.436325,37.741446],[140.441067,37.754985],[140.446198,37.756742],[140.501679,37.758667],[140.510809,37.752683],[140.527108,37.739585],[140.534984,37.729765],[140.436325,37.741446]]]},"properties":{}}},
    {"code":9921502,"id":"e5dfdb","name":"曽根田","original_name":"曽根田","name_kana":"そねだ","closed":false,"lat":37.760289,"lng":140.459466,"prefecture":7,"lines":[99215],"attr":"eco","postal_code":"960-8051","address":"福島市曾根田町３-３７","voronoi":{"type":"Feature","geometry":{"type":"Polygon","coordinates":[[[140.501679,37.758667],[140.446198,37.756742],[140.475066,37.774697],[140.497098,37.762174],[140.501679,37.758667]]]},"properties":{}}},
    {"code":9921503,"id":"fbb07f","name":"美術館図書館前","original_name":"美術館図書館前","name_kana":"びじゅつかんとしょかんまえ","closed":false,"lat":37.767074,"lng":140.455246,"prefecture":7,"lines":[99215],"attr":"eco","postal_code":"960-8002","address":"福島市森合町字台３-５","voronoi":{"type":"Feature","geometry":{"type":"Polygon","coordinates":[[[140.446198,37.756742],[140.475066,37.774697],[140.465013,37.783269],[140.440763,37.762734],[140.441067,37.754985],[140.446198,37.756742]]]},"properties":{}}},
    {"code":9921504,"id":"42bf80","name":"岩代清水","original_name":"岩代清水","name_kana":"いわしろしみず","closed":false,"lat":37.776304,"lng":140.44743,"prefecture":7,"lines":[99215],"attr":"eco","postal_code":"960-8253","address":"福島市泉字大仏３６-１","voronoi":{"type":"Feature","geometry":{"type":"Polygon","coordinates":[[[140.437244,37.770007],[140.440763,37.762734],[140.465013,37.783269],[140.461402,37.789306],[140.437244,37.770007]]]},"properties":{}}},
    {"code":9921505,"id":"637dc6","name":"泉(福島交通)","original_name":"泉","name_kana":"いずみ","closed":false,"lat":37.778551,"lng":140.445635,"prefecture":7,"lines":[99215],"attr":"eco","postal_code":"971-8182","address":"福島県いわき市泉町滝尻上谷地30","voronoi":{"type":"Feature","geometry":{"type":"Polygon","coordinates":[[[140.435003,37.773494],[140.452907,37.789829],[140.460273,37.791562],[140.461402,37.789306],[140.437244,37.770007],[140.435003,37.773494]]]},"properties":{}}},
    {"code":9921506,"id":"f832e1","name":"上松川","original_name":"上松川","name_kana":"かみまつかわ","closed":false,"lat":37.783619,"lng":140.441011,"prefecture":7,"lines":[99215],"attr":"eco","postal_code":"960-8254","address":"福島市南沢又字上並松１９-１","voronoi":{"type":"Feature","geometry":{"type":"Polygon","coordinates":[[[140.426866,37.780405],[140.452015,37.789854],[140.452907,37.789829],[140.435003,37.773494],[140.426866,37.780405]]]},"properties":{}}},
    {"code":9921507,"id":"45991e","name":"笹谷","original_name":"笹谷","name_kana":"ささや","closed":false,"lat":37.7873,"lng":140.439628,"prefecture":7,"lines":[99215],"attr":"heat","postal_code":"960-0241","address":"福島市笹谷字三本松１８-２","voronoi":{"type":"Feature","geometry":{"type":"Polygon","coordinates":[[[140.452015,37.789854],[140.4089,37.797855],[140.411274,37.790357],[140.426866,37.780405],[140.452015,37.789854]]]},"properties":{}}},
    {"code":9921508,"id":"174234","name":"桜水","original_name":"桜水","name_kana":"さくらみず","closed":false,"lat":37.796682,"lng":140.441369,"prefecture":7,"lines":[99215],"attr":"heat","postal_code":"960-0241","address":"福島市笹谷字古屋前２-５","voronoi":{"type":"Feature","geometry":{"type":"Polygon","coordinates":[[[140.452015,37.789854],[140.452907,37.789829],[140.460273,37.791562],[140.46031,37.792749],[140.459751,37.7982],[140.404367,37.807143],[140.4089,37.797855],[140.452015,37.789854]]]},"properties":{}}},
    {"code":9921509,"id":"030e68","name":"平野(福島)","original_name":"平野","name_kana":"ひらの","closed":false,"lat":37.805427,"lng":140.442781,"prefecture":7,"lines":[99215],"attr":"heat","postal_code":"960-0231","address":"福島市飯坂町平野字堂の前１６","voronoi":{"type":"Feature","geometry":{"type":"Polygon","coordinates":[[[140.390688,37.828508],[140.404367,37.807143],[140.459751,37.7982],[140.460811,37.805712],[140.390688,37.828508]]]},"properties":{}}},
    {"code":9921510,"id":"b1eb1c","name":"医王寺前","original_name":"医王寺前","name_kana":"いおうじまえ","closed":false,"lat":37.816544,"lng":140.446395,"prefecture":7,"lines":[99215],"attr":"cool","postal_code":"960-0201","address":"福島市飯坂町平野字道添１４","voronoi":{"type":"Feature","geometry":{"type":"Polygon","coordinates":[[[140.463251,37.815718],[140.387441,37.847085],[140.389063,37.83055],[140.390688,37.828508],[140.460811,37.805712],[140.465276,37.814493],[140.463251,37.815718]]]},"properties":{}}},
    {"code":9921511,"id":"be4613","name":"花水坂","original_name":"花水坂","name_kana":"はなみずざか","closed":false,"lat":37.827043,"lng":140.450739,"prefecture":7,"lines":[99215],"attr":"cool","postal_code":"960-0201","address":"福島市飯坂町字町裏５-１","voronoi":{"type":"Feature","geometry":{"type":"Polygon","coordinates":[[[140.372606,37.927041],[140.387441,37.847085],[140.463251,37.815718],[140.372606,37.927041]]]},"properties":{}}},
    {"code":9921512,"id":"af40a7","name":"飯坂温泉","original_name":"飯坂温泉","name_kana":"いいざかおんせん","closed":false,"lat":37.830265,"lng":140.454696,"prefecture":7,"lines":[99215],"attr":"cool","postal_code":"960-0201","address":"福島市飯坂町十綱下２８","voronoi":{"type":"Feature","geometry":{"type":"Polygon","coordinates":[[[140.463251,37.815718],[140.465276,37.814493],[140.472883,37.820453],[140.479349,37.859732],[140.44555,37.944677],[140.406365,38.012955],[140.360093,37.987659],[140.372606,37.927041],[140.463251,37.815718]]]},"properties":{}}}
  ]
}