{
  "code":99318,
  "id":"7ce0b6",
  "name":"関東鉄道常総線",
  "name_kana":"かんとうてつどうじょうそうせん",
  "station_size":25,
  "company_code":132,
  "closed":false,
  "station_list":[
    {"code":1122901,"id":"c5ce9c","name":"取手","original_name":"取手","name_kana":"とりで","closed":false,"lat":35.89553,"lng":140.063004,"prefecture":8,"lines":[11229,11320,99318],"attr":"eco","postal_code":"302-0014","address":"取手市中央町","voronoi":{"type":"Feature","geometry":{"type":"Polygon","coordinates":[[[140.041086,35.8945],[140.051919,35.884222],[140.06342,35.877625],[140.096508,35.89507],[140.089803,35.909867],[140.049457,35.898843],[140.041086,35.8945]]]},"properties":{}}},
    {"code":9931802,"id":"ee56b4","name":"西取手","original_name":"西取手","name_kana":"にしとりで","closed":false,"lat":35.908584,"lng":140.059437,"prefecture":8,"lines":[99318],"attr":"cool","postal_code":"302-0022","address":"取手市本郷１-１３-１","voronoi":{"type":"Feature","geometry":{"type":"Polygon","coordinates":[[[140.049457,35.898843],[140.082042,35.947966],[140.089803,35.909867],[140.049457,35.898843]]]},"properties":{}}},
    {"code":9931803,"id":"72b0a5","name":"寺原","original_name":"寺原","name_kana":"てらはら","closed":false,"lat":35.911825,"lng":140.054551,"prefecture":8,"lines":[99318],"attr":"cool","postal_code":"302-0027","address":"取手市駒場１-１-１","voronoi":{"type":"Feature","geometry":{"type":"Polygon","coordinates":[[[140.049457,35.898843],[140.082042,35.947966],[140.080393,35.95998],[140.06844,35.957685],[140.039152,35.895157],[140.041086,35.8945],[140.049457,35.898843]]]},"properties":{}}},
    {"code":9931804,"id":"e5af50","name":"新取手","original_name":"新取手","name_kana":"しんとりで","closed":false,"lat":35.917657,"lng":140.0421,"prefecture":8,"lines":[99318],"attr":"cool","postal_code":"302-0031","address":"取手市新取手１-１-１","voronoi":{"type":"Feature","geometry":{"type":"Polygon","coordinates":[[[140.056367,35.957132],[140.027048,35.895396],[140.039152,35.895157],[140.06844,35.957685],[140.056367,35.957132]]]},"properties":{}}},
    {"code":9931825,"id":"49351a","name":"ゆめみ野","original_name":"ゆめみ野","name_kana":"ゆめみの","closed":false,"lat":35.921129,"lng":140.034789,"prefecture":8,"lines":[99318],"attr":"cool","postal_code":"302-0032","address":"茨城県取手市野々井字柏原788番地3","open_date":"2012-03-12","voronoi":{"type":"Feature","geometry":{"type":"Polygon","coordinates":[[[140.027048,35.895396],[140.026008,35.895258],[140.018539,35.899017],[140.042902,35.957817],[140.056367,35.957132],[140.027048,35.895396]]]},"properties":{}}},
    {"code":9931805,"id":"c0e993","name":"稲戸井","original_name":"稲戸井","name_kana":"いなとい","closed":false,"lat":35.926142,"lng":140.02269,"prefecture":8,"lines":[99318],"attr":"cool","postal_code":"302-0033","address":"取手市米ノ井２-２","voronoi":{"type":"Feature","geometry":{"type":"Polygon","coordinates":[[[140.042902,35.957817],[140.018539,35.899017],[140.007934,35.901447],[140.03151,35.960437],[140.042902,35.957817]]]},"properties":{}}},
    {"code":9931806,"id":"789d58","name":"戸頭","original_name":"戸頭","name_kana":"とがしら","closed":false,"lat":35.92951,"lng":140.014263,"prefecture":8,"lines":[99318],"attr":"cool","postal_code":"302-0034","address":"取手市戸頭５-３-１","voronoi":{"type":"Feature","geometry":{"type":"Polygon","coordinates":[[[140.025034,35.962834],[140.016926,35.954366],[139.997505,35.90434],[140.002735,35.901795],[140.007934,35.901447],[140.03151,35.960437],[140.025034,35.962834]]]},"properties":{}}},
    {"code":9931807,"id":"5c8ab3","name":"南守谷","original_name":"南守谷","name_kana":"みなみもりや","closed":false,"lat":35.934224,"lng":140.00212,"prefecture":8,"lines":[99318],"attr":"cool","postal_code":"302-0128","address":"守谷市けやき台１-１-１","voronoi":{"type":"Feature","geometry":{"type":"Polygon","coordinates":[[[139.988187,35.90658],[139.976096,35.929694],[140.016926,35.954366],[139.997505,35.90434],[139.988187,35.90658]]]},"properties":{}}},
    {"code":9930915,"id":"f55a06","name":"守谷","original_name":"守谷","name_kana":"もりや","closed":false,"lat":35.950626,"lng":139.992209,"prefecture":8,"lines":[99309,99318],"attr":"heat","postal_code":"302-0115","address":"守谷市守谷甲２２１５-２","voronoi":{"type":"Feature","geometry":{"type":"Polygon","coordinates":[[[140.025034,35.962834],[140.016926,35.954366],[139.976096,35.929694],[139.957634,35.945809],[140.017986,35.970171],[140.025034,35.962834]]]},"properties":{}}},
    {"code":9931809,"id":"bddcd3","name":"新守谷","original_name":"新守谷","name_kana":"しんもりや","closed":false,"lat":35.966344,"lng":139.985864,"prefecture":8,"lines":[99318],"attr":"cool","postal_code":"302-0119","address":"守谷市御所ケ丘１-１-１","voronoi":{"type":"Feature","geometry":{"type":"Polygon","coordinates":[[[140.013341,35.978671],[139.932646,35.96485],[139.935478,35.95713],[139.957634,35.945809],[140.017986,35.970171],[140.013341,35.978671]]]},"properties":{}}},
    {"code":9931810,"id":"f3a98b","name":"小絹","original_name":"小絹","name_kana":"こきぬ","closed":false,"lat":35.981151,"lng":139.983328,"prefecture":8,"lines":[99318],"attr":"cool","postal_code":"300-2445","address":"つくばみらい市小絹７３９-３","voronoi":{"type":"Feature","geometry":{"type":"Polygon","coordinates":[[[140.009286,35.994679],[139.915021,36.015349],[139.916205,36.000304],[139.91748,35.993067],[139.932646,35.96485],[140.013341,35.978671],[140.009286,35.994679]]]},"properties":{}}},
    {"code":9931811,"id":"66ec80","name":"水海道","original_name":"水海道","name_kana":"みつかいどう","closed":false,"lat":36.017828,"lng":139.99137,"prefecture":8,"lines":[99318],"attr":"cool","postal_code":"303-0023","address":"常総市水海道宝町２８６１-２","voronoi":{"type":"Feature","geometry":{"type":"Polygon","coordinates":[[[139.915021,36.015349],[139.909799,36.030751],[139.929884,36.031198],[140.022396,36.021943],[140.009286,35.994679],[139.915021,36.015349]]]},"properties":{}}},
    {"code":9931812,"id":"dc063c","name":"北水海道","original_name":"北水海道","name_kana":"きたみつかいどう","closed":false,"lat":36.032123,"lng":139.9928,"prefecture":8,"lines":[99318],"attr":"cool","postal_code":"303-0002","address":"常総市相野谷町４３-３","voronoi":{"type":"Feature","geometry":{"type":"Polygon","coordinates":[[[139.929884,36.031198],[140.022396,36.021943],[140.024336,36.024344],[140.024924,36.044268],[139.929884,36.031198]]]},"properties":{}}},
    {"code":9931813,"id":"1cd940","name":"中妻","original_name":"中妻","name_kana":"なかつま","closed":false,"lat":36.047291,"lng":139.990714,"prefecture":8,"lines":[99318],"attr":"eco","postal_code":"300-2505","address":"常総市中妻町７１４-４","voronoi":{"type":"Feature","geometry":{"type":"Polygon","coordinates":[[[140.025842,36.047801],[140.022124,36.070699],[139.906402,36.036877],[139.909799,36.030751],[139.929884,36.031198],[140.024924,36.044268],[140.025842,36.047801]]]},"properties":{}}},
    {"code":9931814,"id":"1e467f","name":"三妻","original_name":"三妻","name_kana":"みつま","closed":false,"lat":36.073507,"lng":139.983052,"prefecture":8,"lines":[99318],"attr":"eco","postal_code":"300-2506","address":"常総市三坂町１６７２","voronoi":{"type":"Feature","geometry":{"type":"Polygon","coordinates":[[[139.888639,36.059404],[139.906402,36.036877],[140.022124,36.070699],[140.028664,36.103786],[139.888639,36.059404]]]},"properties":{}}},
    {"code":9931815,"id":"8d2a5a","name":"南石下","original_name":"南石下","name_kana":"みなみいしげ","closed":false,"lat":36.102262,"lng":139.973938,"prefecture":8,"lines":[99318],"attr":"eco","postal_code":"300-2716","address":"常総市大房７４２-４","voronoi":{"type":"Feature","geometry":{"type":"Polygon","coordinates":[[[140.030916,36.108172],[140.028664,36.103786],[139.888639,36.059404],[139.882525,36.065037],[139.848229,36.104069],[139.909025,36.111348],[140.030916,36.108172]]]},"properties":{}}},
    {"code":9931816,"id":"6700f0","name":"石下","original_name":"石下","name_kana":"いしげ","closed":false,"lat":36.117041,"lng":139.974323,"prefecture":8,"lines":[99318],"attr":"eco","postal_code":"300-2706","address":"常総市新石下３７６-１","voronoi":{"type":"Feature","geometry":{"type":"Polygon","coordinates":[[[139.909025,36.111348],[140.030916,36.108172],[140.031214,36.108605],[140.042177,36.14247],[140.039494,36.142194],[139.909025,36.111348]]]},"properties":{}}},
    {"code":9931817,"id":"2e922a","name":"玉村","original_name":"玉村","name_kana":"たまむら","closed":false,"lat":36.135499,"lng":139.969959,"prefecture":8,"lines":[99318],"attr":"eco","postal_code":"300-2703","address":"常総市小保川１６４-５","voronoi":{"type":"Feature","geometry":{"type":"Polygon","coordinates":[[[139.848229,36.104069],[139.842835,36.108766],[139.839775,36.143949],[139.872966,36.147846],[140.039494,36.142194],[139.909025,36.111348],[139.848229,36.104069]]]},"properties":{}}},
    {"code":9931818,"id":"e69985","name":"宗道","original_name":"宗道","name_kana":"そうどう","closed":false,"lat":36.153589,"lng":139.970573,"prefecture":8,"lines":[99318],"attr":"eco","postal_code":"304-0814","address":"下妻市宗道１６４","voronoi":{"type":"Feature","geometry":{"type":"Polygon","coordinates":[[[140.042177,36.14247],[140.039494,36.142194],[139.872966,36.147846],[140.018217,36.178741],[140.065627,36.179104],[140.042177,36.14247]]]},"properties":{}}},
    {"code":9931819,"id":"ab6c23","name":"下妻","original_name":"下妻","name_kana":"しもつま","closed":false,"lat":36.182325,"lng":139.964461,"prefecture":8,"lines":[99318],"attr":"eco","postal_code":"304-0067","address":"下妻市下妻乙３６３-２","voronoi":{"type":"Feature","geometry":{"type":"Polygon","coordinates":[[[139.838021,36.150328],[139.839537,36.157641],[139.850041,36.185912],[139.874782,36.205458],[139.888727,36.214367],[140.018217,36.178741],[139.872966,36.147846],[139.839775,36.143949],[139.838021,36.150328]]]},"properties":{}}},
    {"code":9931820,"id":"e7936d","name":"大宝","original_name":"大宝","name_kana":"だいほう","closed":false,"lat":36.203159,"lng":139.970193,"prefecture":8,"lines":[99318],"attr":"heat","postal_code":"304-0022","address":"下妻市大宝２３３-９","voronoi":{"type":"Feature","geometry":{"type":"Polygon","coordinates":[[[140.065627,36.179104],[140.070593,36.183701],[139.912405,36.231623],[139.902131,36.225663],[139.888727,36.214367],[140.018217,36.178741],[140.065627,36.179104]]]},"properties":{}}},
    {"code":9931821,"id":"fb9f8c","name":"騰波ノ江","original_name":"騰波ノ江","name_kana":"とばのえ","closed":false,"lat":36.223232,"lng":139.976274,"prefecture":8,"lines":[99318],"attr":"heat","postal_code":"304-0012","address":"下妻市若柳甲５３３-７","voronoi":{"type":"Feature","geometry":{"type":"Polygon","coordinates":[[[140.067812,36.239636],[139.913332,36.232387],[139.912405,36.231623],[140.070593,36.183701],[140.094743,36.201836],[140.108692,36.215151],[140.067812,36.239636]]]},"properties":{}}},
    {"code":9931822,"id":"020784","name":"黒子","original_name":"黒子","name_kana":"くろご","closed":false,"lat":36.247396,"lng":139.97514,"prefecture":8,"lines":[99318],"attr":"heat","postal_code":"308-0103","address":"筑西市辻１５２０-３","voronoi":{"type":"Feature","geometry":{"type":"Polygon","coordinates":[[[140.067812,36.239636],[139.913332,36.232387],[139.918134,36.238202],[139.991576,36.274887],[140.026021,36.272752],[140.067812,36.239636]]]},"properties":{}}},
    {"code":9931823,"id":"e70c99","name":"大田郷","original_name":"大田郷","name_kana":"おおたごう","closed":false,"lat":36.278258,"lng":139.959724,"prefecture":8,"lines":[99318],"attr":"heat","postal_code":"308-0847","address":"筑西市玉戸１５２３-２","voronoi":{"type":"Feature","geometry":{"type":"Polygon","coordinates":[[[139.991576,36.274887],[139.918134,36.238202],[139.930758,36.269183],[139.958928,36.298721],[139.991576,36.274887]]]},"properties":{}}},
    {"code":1133907,"id":"bc7bc4","name":"下館","original_name":"下館","name_kana":"しもだて","closed":false,"lat":36.304197,"lng":139.97866,"prefecture":8,"lines":[11339,99318,99330],"attr":"heat","postal_code":"308-0041","address":"茨城県筑西市乙86","voronoi":{"type":"Feature","geometry":{"type":"Polygon","coordinates":[[[139.958159,36.304192],[139.958928,36.298721],[139.991576,36.274887],[140.026021,36.272752],[140.005491,36.324681],[139.958159,36.304192]]]},"properties":{}}}
  ]
}