{
  "code":99323,
  "id":"ddc638",
  "name":"鹿島臨海鉄道大洗鹿島線",
  "name_kana":"かしまりんかいてつどうおおあらいかしません",
  "station_size":16,
  "company_code":136,
  "closed":false,
  "station_list":[
    {"code":1122917,"id":"7204b1","name":"水戸","original_name":"水戸","name_kana":"みと","closed":false,"lat":36.370911,"lng":140.47676,"prefecture":8,"lines":[11229,11338,99323],"attr":"eco","postal_code":"310-0015","address":"水戸市宮町１丁目","voronoi":{"type":"Feature","geometry":{"type":"Polygon","coordinates":[[[140.496651,36.367465],[140.467884,36.385026],[140.458786,36.297603],[140.483076,36.309323],[140.496651,36.367465]]]},"properties":{}}},
    {"code":9932302,"id":"23c75c","name":"東水戸","original_name":"東水戸","name_kana":"ひがしみと","closed":false,"lat":36.361746,"lng":140.516012,"prefecture":8,"lines":[99323],"attr":"eco","postal_code":"310-0827","address":"水戸市吉沼町","voronoi":{"type":"Feature","geometry":{"type":"Polygon","coordinates":[[[140.539763,36.359094],[140.540087,36.356485],[140.523478,36.32259],[140.513921,36.31298],[140.483076,36.309323],[140.496651,36.367465],[140.5052,36.379803],[140.52267,36.374148],[140.539763,36.359094]]]},"properties":{}}},
    {"code":9932303,"id":"0135f7","name":"常澄","original_name":"常澄","name_kana":"つねずみ","closed":false,"lat":36.340683,"lng":140.558997,"prefecture":8,"lines":[99323],"attr":"eco","postal_code":"311-1114","address":"水戸市塩崎町","voronoi":{"type":"Feature","geometry":{"type":"Polygon","coordinates":[[[140.540087,36.356485],[140.523478,36.32259],[140.575504,36.330141],[140.574123,36.338453],[140.565633,36.353492],[140.540087,36.356485]]]},"properties":{}}},
    {"code":9932304,"id":"60d597","name":"大洗","original_name":"大洗","name_kana":"おおあらい","closed":false,"lat":36.315342,"lng":140.562675,"prefecture":8,"lines":[99323],"attr":"eco","postal_code":"311-1307","address":"東茨城郡大洗町桜道","voronoi":{"type":"Feature","geometry":{"type":"Polygon","coordinates":[[[140.513921,36.31298],[140.523478,36.32259],[140.575504,36.330141],[140.607756,36.303319],[140.682434,36.219334],[140.647812,36.217036],[140.513921,36.31298]]]},"properties":{}}},
    {"code":9932305,"id":"b4f0d8","name":"涸沼","original_name":"涸沼","name_kana":"ひぬま","closed":false,"lat":36.266054,"lng":140.527356,"prefecture":8,"lines":[99323],"attr":"heat","postal_code":"311-1402","address":"鉾田市下太田","voronoi":{"type":"Feature","geometry":{"type":"Polygon","coordinates":[[[140.626046,36.210266],[140.611431,36.212759],[140.428967,36.277796],[140.458786,36.297603],[140.483076,36.309323],[140.513921,36.31298],[140.647812,36.217036],[140.626046,36.210266]]]},"properties":{}}},
    {"code":9932306,"id":"6b8137","name":"鹿島旭","original_name":"鹿島旭","name_kana":"かしまあさひ","closed":false,"lat":36.224658,"lng":140.512601,"prefecture":8,"lines":[99323],"attr":"heat","postal_code":"311-1415","address":"鉾田市造谷","voronoi":{"type":"Feature","geometry":{"type":"Polygon","coordinates":[[[140.413367,36.271876],[140.404471,36.266363],[140.402558,36.264262],[140.397634,36.215919],[140.401654,36.201506],[140.611431,36.212759],[140.428967,36.277796],[140.413367,36.271876]]]},"properties":{}}},
    {"code":9932307,"id":"7e3a9c","name":"徳宿","original_name":"徳宿","name_kana":"とくしゅく","closed":false,"lat":36.190356,"lng":140.514441,"prefecture":8,"lines":[99323],"attr":"heat","postal_code":"311-1503","address":"鉾田市徳宿","voronoi":{"type":"Feature","geometry":{"type":"Polygon","coordinates":[[[140.401654,36.201506],[140.611431,36.212759],[140.626046,36.210266],[140.589995,36.183025],[140.407368,36.154088],[140.401654,36.201506]]]},"properties":{}}},
    {"code":9932308,"id":"a9acc2","name":"新鉾田","original_name":"新鉾田","name_kana":"しんほこた","closed":false,"lat":36.152697,"lng":140.520408,"prefecture":8,"lines":[99323],"attr":"heat","postal_code":"311-1516","address":"鉾田市新鉾田","voronoi":{"type":"Feature","geometry":{"type":"Polygon","coordinates":[[[140.589995,36.183025],[140.569845,36.157583],[140.403335,36.072722],[140.407368,36.154088],[140.589995,36.183025]]]},"properties":{}}},
    {"code":9932309,"id":"eddfa7","name":"北浦湖畔","original_name":"北浦湖畔","name_kana":"きたうらこはん","closed":false,"lat":36.120453,"lng":140.536841,"prefecture":8,"lines":[99323],"attr":"heat","postal_code":"311-2104","address":"鉾田市梶山","voronoi":{"type":"Feature","geometry":{"type":"Polygon","coordinates":[[[140.569845,36.157583],[140.403335,36.072722],[140.399142,36.049346],[140.447453,36.022331],[140.448034,36.022132],[140.513369,36.026628],[140.541099,36.063665],[140.569845,36.157583]]]},"properties":{}}},
    {"code":9932310,"id":"3af9fc","name":"大洋","original_name":"大洋","name_kana":"たいよう","closed":false,"lat":36.108341,"lng":140.576413,"prefecture":8,"lines":[99323],"attr":"cool","postal_code":"311-2103","address":"鉾田市汲上","voronoi":{"type":"Feature","geometry":{"type":"Polygon","coordinates":[[[140.541099,36.063665],[140.569845,36.157583],[140.589995,36.183025],[140.626046,36.210266],[140.647812,36.217036],[140.682434,36.219334],[140.77607,36.209753],[140.541099,36.063665]]]},"properties":{}}},
    {"code":9932311,"id":"4dc7ba","name":"鹿島灘","original_name":"鹿島灘","name_kana":"かしまなだ","closed":false,"lat":36.075568,"lng":140.596789,"prefecture":8,"lines":[99323],"attr":"cool","postal_code":"311-2201","address":"鹿嶋市大小志崎","voronoi":{"type":"Feature","geometry":{"type":"Polygon","coordinates":[[[140.541099,36.063665],[140.513369,36.026628],[140.525747,36.022405],[140.875454,36.205954],[140.870288,36.206302],[140.782821,36.209647],[140.77607,36.209753],[140.541099,36.063665]]]},"properties":{}}},
    {"code":9932312,"id":"9679e6","name":"鹿島大野","original_name":"鹿島大野","name_kana":"かしまおおの","closed":false,"lat":36.050674,"lng":140.609855,"prefecture":8,"lines":[99323],"attr":"cool","postal_code":"311-2204","address":"鹿嶋市荒井","voronoi":{"type":"Feature","geometry":{"type":"Polygon","coordinates":[[[140.875454,36.205954],[140.525747,36.022405],[140.529933,36.020183],[140.556543,36.014118],[140.964869,36.204028],[140.875454,36.205954]]]},"properties":{}}},
    {"code":9932313,"id":"e7283c","name":"長者ヶ浜潮騒はまなす公園前","original_name":"長者ヶ浜潮騒はまなす公園前","name_kana":"ちょうじゃがはましおさいはまなすこうえんまえ","closed":false,"lat":36.031336,"lng":140.618849,"prefecture":8,"lines":[99323],"attr":"cool","postal_code":"311-2212","address":"茨城県鹿嶋市大字角折2273-17","voronoi":{"type":"Feature","geometry":{"type":"Polygon","coordinates":[[[140.556543,36.014118],[140.578536,36.005083],[141.035156,36.204454],[140.964869,36.204028],[140.556543,36.014118]]]},"properties":{}}},
    {"code":9932314,"id":"b262ca","name":"荒野台","original_name":"荒野台","name_kana":"こうやだい","closed":false,"lat":36.016804,"lng":140.625194,"prefecture":8,"lines":[99323],"attr":"cool","postal_code":"311-2221","address":"鹿嶋市荒野","voronoi":{"type":"Feature","geometry":{"type":"Polygon","coordinates":[[[140.578536,36.005083],[141.035156,36.204454],[141.075609,36.20541],[140.605672,35.993503],[140.597338,35.993416],[140.578536,36.005083]]]},"properties":{}}},
    {"code":1132907,"id":"c8460f","name":"鹿島サッカースタジアム（臨）","original_name":"鹿島サッカースタジアム（臨）","name_kana":"かしまさっかーすたじあむ","closed":false,"lat":35.992707,"lng":140.63606,"prefecture":8,"lines":[11329,99323],"attr":"eco","postal_code":"314-0007","address":"茨城県鹿嶋市大字神向寺4980","voronoi":{"type":"Feature","geometry":{"type":"Polygon","coordinates":[[[140.784438,35.993968],[140.663946,35.966113],[140.605672,35.993503],[141.075609,36.20541],[141.164567,36.209924],[141.072369,36.132884],[140.784438,35.993968]]]},"properties":{}}},
    {"code":1132906,"id":"1b205a","name":"鹿島神宮","original_name":"鹿島神宮","name_kana":"かしまじんぐう","closed":false,"lat":35.970614,"lng":140.625676,"prefecture":8,"lines":[11329,99323],"attr":"eco","postal_code":"314-0031","address":"鹿嶋市宮中","voronoi":{"type":"Feature","geometry":{"type":"Polygon","coordinates":[[[140.605672,35.993503],[140.597338,35.993416],[140.616484,35.937047],[140.663946,35.966113],[140.605672,35.993503]]]},"properties":{}}}
  ]
}