{
  "code":99325,
  "id":"881132",
  "name":"小湊鉄道",
  "name_kana":"こみなとてつどう",
  "name_formal":"小湊鉄道線",
  "station_size":18,
  "company_code":138,
  "closed":false,
  "station_list":[
    {"code":1132506,"id":"ee863e","name":"五井","original_name":"五井","name_kana":"ごい","closed":false,"lat":35.512985,"lng":140.089522,"prefecture":12,"lines":[11325,99325],"attr":"cool","postal_code":"290-0056","address":"市原市五井","voronoi":{"type":"Feature","geometry":{"type":"Polygon","coordinates":[[[140.070599,35.488896],[140.018421,35.561391],[140.031024,35.564496],[140.048079,35.566764],[140.075634,35.562982],[140.111762,35.515417],[140.070599,35.488896]]]},"properties":{}}},
    {"code":9932502,"id":"827ddf","name":"上総村上","original_name":"上総村上","name_kana":"かずさむらかみ","closed":false,"lat":35.496171,"lng":140.100355,"prefecture":12,"lines":[99325],"attr":"eco","postal_code":"290-0031","address":"市原市村上１３５８-２","voronoi":{"type":"Feature","geometry":{"type":"Polygon","coordinates":[[[140.078964,35.460996],[140.070599,35.488896],[140.111762,35.515417],[140.124504,35.509139],[140.100862,35.469998],[140.095045,35.464928],[140.078964,35.460996]]]},"properties":{}}},
    {"code":9932503,"id":"ea8769","name":"海士有木","original_name":"海士有木","name_kana":"あまありき","closed":false,"lat":35.481729,"lng":140.124264,"prefecture":12,"lines":[99325],"attr":"eco","postal_code":"290-0207","address":"市原市海士有木１８１３","voronoi":{"type":"Feature","geometry":{"type":"Polygon","coordinates":[[[140.100862,35.469998],[140.124504,35.509139],[140.144123,35.510649],[140.176887,35.481809],[140.100862,35.469998]]]},"properties":{}}},
    {"code":9932504,"id":"47999d","name":"上総三又","original_name":"上総三又","name_kana":"かずさみつまた","closed":false,"lat":35.46592,"lng":140.12672,"prefecture":12,"lines":[99325],"attr":"eco","postal_code":"290-0207","address":"市原市海士有木２７６-１","voronoi":{"type":"Feature","geometry":{"type":"Polygon","coordinates":[[[140.213082,35.45567],[140.213349,35.45848],[140.176887,35.481809],[140.100862,35.469998],[140.095045,35.464928],[140.102862,35.461193],[140.213082,35.45567]]]},"properties":{}}},
    {"code":9932505,"id":"24895d","name":"上総山田","original_name":"上総山田","name_kana":"かずさやまだ","closed":false,"lat":35.454105,"lng":140.126128,"prefecture":12,"lines":[99325],"attr":"eco","postal_code":"290-0204","address":"市原市磯ケ谷２０７９-３","voronoi":{"type":"Feature","geometry":{"type":"Polygon","coordinates":[[[140.143972,35.430086],[140.137505,35.43252],[140.102862,35.461193],[140.213082,35.45567],[140.213032,35.453775],[140.200173,35.446904],[140.143972,35.430086]]]},"properties":{}}},
    {"code":9932506,"id":"e22f3b","name":"光風台(千葉)","original_name":"光風台","name_kana":"こうふうだい","closed":false,"lat":35.439662,"lng":140.114174,"prefecture":12,"lines":[99325],"attr":"eco","postal_code":"290-0242","address":"市原市中高根８４６","voronoi":{"type":"Feature","geometry":{"type":"Polygon","coordinates":[[[140.102862,35.461193],[140.137505,35.43252],[140.06342,35.429976],[140.062786,35.430904],[140.078964,35.460996],[140.095045,35.464928],[140.102862,35.461193]]]},"properties":{}}},
    {"code":9932507,"id":"308fb4","name":"馬立","original_name":"馬立","name_kana":"うまたて","closed":false,"lat":35.423795,"lng":140.114719,"prefecture":12,"lines":[99325],"attr":"eco","postal_code":"290-0221","address":"市原市馬立７９０-２","voronoi":{"type":"Feature","geometry":{"type":"Polygon","coordinates":[[[140.10155,35.380551],[140.074083,35.407656],[140.06342,35.429976],[140.137505,35.43252],[140.143972,35.430086],[140.10155,35.380551]]]},"properties":{}}},
    {"code":9932508,"id":"a63c72","name":"上総牛久","original_name":"上総牛久","name_kana":"かずさうしく","closed":false,"lat":35.400213,"lng":140.142255,"prefecture":12,"lines":[99325],"attr":"eco","postal_code":"290-0225","address":"市原市牛久８９７-２","voronoi":{"type":"Feature","geometry":{"type":"Polygon","coordinates":[[[140.143972,35.430086],[140.10155,35.380551],[140.10584,35.369793],[140.114559,35.371271],[140.114839,35.371375],[140.170738,35.411409],[140.200173,35.446904],[140.143972,35.430086]]]},"properties":{}}},
    {"code":9932509,"id":"0e5125","name":"上総川間","original_name":"上総川間","name_kana":"かずさかわま","closed":false,"lat":35.388047,"lng":140.150968,"prefecture":12,"lines":[99325],"attr":"eco","postal_code":"290-0518","address":"市原市下矢田５４７-４","voronoi":{"type":"Feature","geometry":{"type":"Polygon","coordinates":[[[140.114839,35.371375],[140.170738,35.411409],[140.154851,35.378126],[140.114839,35.371375]]]},"properties":{}}},
    {"code":9932510,"id":"3aa101","name":"上総鶴舞","original_name":"上総鶴舞","name_kana":"かずさつるまい","closed":false,"lat":35.381346,"lng":140.165006,"prefecture":12,"lines":[99325],"attr":"heat","postal_code":"290-0516","address":"市原市池和田８９８-２","voronoi":{"type":"Feature","geometry":{"type":"Polygon","coordinates":[[[140.245032,35.371952],[140.215907,35.34345],[140.210979,35.339356],[140.194276,35.348076],[140.154851,35.378126],[140.170738,35.411409],[140.200173,35.446904],[140.213032,35.453775],[140.228003,35.424149],[140.245032,35.371952]]]},"properties":{}}},
    {"code":9932511,"id":"45ef31","name":"上総久保","original_name":"上総久保","name_kana":"かずさくぼ","closed":false,"lat":35.367481,"lng":140.154438,"prefecture":12,"lines":[99325],"attr":"heat","postal_code":"290-0552","address":"市原市久保５７３-４","voronoi":{"type":"Feature","geometry":{"type":"Polygon","coordinates":[[[140.194276,35.348076],[140.114559,35.371271],[140.114839,35.371375],[140.154851,35.378126],[140.194276,35.348076]]]},"properties":{}}},
    {"code":9932512,"id":"95eb51","name":"高滝","original_name":"高滝","name_kana":"たかたき","closed":false,"lat":35.353074,"lng":140.150246,"prefecture":12,"lines":[99325],"attr":"heat","postal_code":"290-0555","address":"市原市高滝７３７-２","voronoi":{"type":"Feature","geometry":{"type":"Polygon","coordinates":[[[140.114559,35.371271],[140.10584,35.369793],[140.10401,35.357569],[140.203465,35.328799],[140.210979,35.339356],[140.194276,35.348076],[140.114559,35.371271]]]},"properties":{}}},
    {"code":9932513,"id":"bb4de3","name":"里見","original_name":"里見","name_kana":"さとみ","closed":false,"lat":35.336685,"lng":140.145505,"prefecture":12,"lines":[99325],"attr":"heat","postal_code":"290-0541","address":"市原市平野１７６-１","voronoi":{"type":"Feature","geometry":{"type":"Polygon","coordinates":[[[140.10401,35.357569],[140.101129,35.349245],[140.101041,35.348815],[140.102232,35.336713],[140.197991,35.318079],[140.203465,35.328799],[140.10401,35.357569]]]},"properties":{}}},
    {"code":9932514,"id":"289b33","name":"飯給","original_name":"飯給","name_kana":"いたぶ","closed":false,"lat":35.320512,"lng":140.142358,"prefecture":12,"lines":[99325],"attr":"heat","postal_code":"290-0543","address":"市原市飯給９４３-３","voronoi":{"type":"Feature","geometry":{"type":"Polygon","coordinates":[[[140.102232,35.336713],[140.101461,35.328494],[140.105695,35.317053],[140.178611,35.305249],[140.192602,35.306592],[140.194318,35.307132],[140.197991,35.318079],[140.102232,35.336713]]]},"properties":{}}},
    {"code":9932515,"id":"af6986","name":"月崎","original_name":"月崎","name_kana":"つきさき","closed":false,"lat":35.302203,"lng":140.139394,"prefecture":12,"lines":[99325],"attr":"cool","postal_code":"290-0547","address":"市原市月崎５３９","voronoi":{"type":"Feature","geometry":{"type":"Polygon","coordinates":[[[140.178611,35.305249],[140.105695,35.317053],[140.109286,35.281215],[140.178611,35.305249]]]},"properties":{}}},
    {"code":9932516,"id":"89caea","name":"上総大久保","original_name":"上総大久保","name_kana":"かずさおおくぼ","closed":false,"lat":35.283367,"lng":140.145924,"prefecture":12,"lines":[99325],"attr":"cool","postal_code":"290-0532","address":"市原市大久保９６-２","voronoi":{"type":"Feature","geometry":{"type":"Polygon","coordinates":[[[140.178611,35.305249],[140.109286,35.281215],[140.107294,35.269959],[140.123495,35.251748],[140.192602,35.306592],[140.178611,35.305249]]]},"properties":{}}},
    {"code":9932517,"id":"e1ebff","name":"養老渓谷","original_name":"養老渓谷","name_kana":"ようろうけいこく","closed":false,"lat":35.266409,"lng":140.159382,"prefecture":12,"lines":[99325],"attr":"cool","postal_code":"290-0535","address":"市原市朝生原１７７","voronoi":{"type":"Feature","geometry":{"type":"Polygon","coordinates":[[[140.194318,35.307132],[140.192602,35.306592],[140.123495,35.251748],[140.149929,35.196184],[140.154162,35.196037],[140.196183,35.299276],[140.194318,35.307132]]]},"properties":{}}},
    {"code":9930814,"id":"4e8986","name":"上総中野","original_name":"上総中野","name_kana":"かずさなかの","closed":false,"lat":35.250051,"lng":140.199571,"prefecture":12,"lines":[99308,99325],"attr":"heat","postal_code":"298-0262","address":"夷隅郡大多喜町堀切","open_date":"1934-08-26","voronoi":{"type":"Feature","geometry":{"type":"Polygon","coordinates":[[[140.206809,35.188423],[140.166798,35.191465],[140.154162,35.196037],[140.196183,35.299276],[140.206294,35.286987],[140.208924,35.197552],[140.206809,35.188423]]]},"properties":{}}}
  ]
}