{
  "code":99327,
  "id":"2926d4",
  "name":"上信電鉄",
  "name_kana":"じょうしんでんてつ",
  "station_size":21,
  "company_code":140,
  "closed":false,
  "station_list":[
    {"code":100506,"id":"4505b7","name":"高崎","original_name":"高崎","name_kana":"たかさき","closed":false,"lat":36.322239,"lng":139.012354,"prefecture":10,"lines":[1005,1009,11318,11323,11337,11341,11342,99327],"attr":"eco","postal_code":"370-0849","address":"高崎市八島町","voronoi":{"type":"Feature","geometry":{"type":"Polygon","coordinates":[[[139.034969,36.318062],[139.032269,36.317275],[138.987545,36.317453],[139.012673,36.334575],[139.041385,36.328876],[139.034969,36.318062]]]},"properties":{}}},
    {"code":9932702,"id":"c943d9","name":"南高崎","original_name":"南高崎","name_kana":"みなみたかさき","closed":false,"lat":36.31247,"lng":139.012315,"prefecture":10,"lines":[99327],"attr":"heat","postal_code":"370-0846","address":"高崎市下和田町３-７-６","voronoi":{"type":"Feature","geometry":{"type":"Polygon","coordinates":[[[138.974552,36.296025],[138.972376,36.297805],[138.979888,36.314184],[138.987545,36.317453],[139.032269,36.317275],[138.99259,36.294352],[138.98371,36.291498],[138.974552,36.296025]]]},"properties":{}}},
    {"code":9932721,"id":"0646ba","name":"佐野のわたし","original_name":"佐野のわたし","name_kana":"さののわたし","closed":false,"lat":36.302389,"lng":139.018139,"prefecture":10,"lines":[99327],"attr":"heat","postal_code":"370-0857","address":"群馬県高崎市上佐野町字舟橋167-3","open_date":"2014-12-22","voronoi":{"type":"Feature","geometry":{"type":"Polygon","coordinates":[[[139.032269,36.317275],[138.99259,36.294352],[139.031046,36.297892],[139.033687,36.299572],[139.034969,36.318062],[139.032269,36.317275]]]},"properties":{}}},
    {"code":9932703,"id":"0da76a","name":"根小屋","original_name":"根小屋","name_kana":"ねごや","closed":false,"lat":36.291114,"lng":139.019177,"prefecture":10,"lines":[99327],"attr":"heat","postal_code":"370-1214","address":"高崎市根小屋町２０４０-３","voronoi":{"type":"Feature","geometry":{"type":"Polygon","coordinates":[[[139.031046,36.297892],[138.99259,36.294352],[138.98371,36.291498],[138.991432,36.283847],[139.01649,36.275527],[139.031046,36.297892]]]},"properties":{}}},
    {"code":9932704,"id":"e07d93","name":"高崎商科大学前","original_name":"高崎商科大学前","name_kana":"たかさきしょうかだいがくまえ","closed":false,"lat":36.284295,"lng":139.029654,"prefecture":10,"lines":[99327],"attr":"heat","postal_code":"370-1214","address":"高崎市根小屋町８８６-２","voronoi":{"type":"Feature","geometry":{"type":"Polygon","coordinates":[[[139.01697,36.2751],[139.01649,36.275527],[139.031046,36.297892],[139.033687,36.299572],[139.041223,36.29019],[139.031253,36.27764],[139.01697,36.2751]]]},"properties":{}}},
    {"code":9932705,"id":"713363","name":"山名","original_name":"山名","name_kana":"やまな","closed":false,"lat":36.277587,"lng":139.038098,"prefecture":10,"lines":[99327],"attr":"heat","postal_code":"370-1213","address":"高崎市山名町１５１５-３","voronoi":{"type":"Feature","geometry":{"type":"Polygon","coordinates":[[[139.031253,36.27764],[139.041223,36.29019],[139.059317,36.281094],[139.06119,36.264712],[139.055747,36.255666],[139.031253,36.27764]]]},"properties":{}}},
    {"code":9932706,"id":"59abc0","name":"西山名","original_name":"西山名","name_kana":"にしやまな","closed":false,"lat":36.270841,"lng":139.032046,"prefecture":10,"lines":[99327],"attr":"eco","postal_code":"370-1213","address":"高崎市山名町１２６１-２","voronoi":{"type":"Feature","geometry":{"type":"Polygon","coordinates":[[[139.031253,36.27764],[139.01697,36.2751],[139.040662,36.217902],[139.055747,36.255666],[139.031253,36.27764]]]},"properties":{}}},
    {"code":9932707,"id":"ffded2","name":"馬庭","original_name":"馬庭","name_kana":"まにわ","closed":false,"lat":36.261428,"lng":139.009321,"prefecture":10,"lines":[99327],"attr":"eco","postal_code":"370-2104","address":"群馬県高崎市吉井町馬庭191-1","voronoi":{"type":"Feature","geometry":{"type":"Polygon","coordinates":[[[139.018097,36.160694],[138.991432,36.283847],[139.01649,36.275527],[139.01697,36.2751],[139.040662,36.217902],[139.038416,36.202907],[139.018097,36.160694]]]},"properties":{}}},
    {"code":9932708,"id":"3bcbf2","name":"吉井(群馬)","original_name":"吉井","name_kana":"よしい","closed":false,"lat":36.256036,"lng":138.984418,"prefecture":10,"lines":[99327],"attr":"eco","postal_code":"370-2132","address":"多野郡吉井町吉井２１９","voronoi":{"type":"Feature","geometry":{"type":"Polygon","coordinates":[[[138.991432,36.283847],[139.018097,36.160694],[139.016798,36.156807],[138.990879,36.13412],[138.977151,36.126095],[138.974552,36.296025],[138.98371,36.291498],[138.991432,36.283847]]]},"properties":{}}},
    {"code":9932709,"id":"c3fe27","name":"西吉井","original_name":"西吉井","name_kana":"にしよしい","closed":false,"lat":36.255753,"lng":138.965914,"prefecture":10,"lines":[99327],"attr":"eco","postal_code":"370-2127","address":"多野郡吉井町長根１３６７-３４","voronoi":{"type":"Feature","geometry":{"type":"Polygon","coordinates":[[[138.972376,36.297805],[138.959658,36.296488],[138.955956,36.111589],[138.977151,36.126095],[138.974552,36.296025],[138.972376,36.297805]]]},"properties":{}}},
    {"code":9932710,"id":"1a4d5e","name":"上州新屋","original_name":"上州新屋","name_kana":"じょうしゅうにいや","closed":false,"lat":36.256036,"lng":138.951776,"prefecture":10,"lines":[99327],"attr":"eco","postal_code":"370-2216","address":"甘楽郡甘楽町金井３４３-４","voronoi":{"type":"Feature","geometry":{"type":"Polygon","coordinates":[[[138.949401,36.106614],[138.938099,36.105586],[138.9413,36.297761],[138.959658,36.296488],[138.955956,36.111589],[138.949401,36.106614]]]},"properties":{}}},
    {"code":9932711,"id":"3d7b67","name":"上州福島","original_name":"上州福島","name_kana":"じょうしゅうふくしま","closed":false,"lat":36.256408,"lng":138.92944,"prefecture":10,"lines":[99327],"attr":"eco","postal_code":"370-2212","address":"甘楽郡甘楽町福島６６４-５","voronoi":{"type":"Feature","geometry":{"type":"Polygon","coordinates":[[[138.941012,36.29786],[138.921319,36.293915],[138.901134,36.167794],[138.90176,36.155566],[138.910542,36.101004],[138.938099,36.105586],[138.9413,36.297761],[138.941012,36.29786]]]},"properties":{}}},
    {"code":9932712,"id":"abf340","name":"東富岡","original_name":"東富岡","name_kana":"ひがしとみおか","closed":false,"lat":36.260816,"lng":138.901898,"prefecture":10,"lines":[99327],"attr":"eco","postal_code":"370-2316","address":"富岡市富岡１９５５-２","voronoi":{"type":"Feature","geometry":{"type":"Polygon","coordinates":[[[138.895535,36.298454],[138.899961,36.173532],[138.901134,36.167794],[138.921319,36.293915],[138.895535,36.298454]]]},"properties":{}}},
    {"code":9932713,"id":"c30859","name":"上州富岡","original_name":"上州富岡","name_kana":"じょうしゅうとみおか","closed":false,"lat":36.26046,"lng":138.891851,"prefecture":10,"lines":[99327],"attr":"eco","postal_code":"370-2316","address":"富岡市富岡１５９９-３","voronoi":{"type":"Feature","geometry":{"type":"Polygon","coordinates":[[[138.895535,36.298454],[138.899961,36.173532],[138.888675,36.216083],[138.886205,36.29662],[138.889554,36.300346],[138.895535,36.298454]]]},"properties":{}}},
    {"code":9932714,"id":"b265e9","name":"西富岡","original_name":"西富岡","name_kana":"にしとみおか","closed":false,"lat":36.260182,"lng":138.882786,"prefecture":10,"lines":[99327],"attr":"eco","postal_code":"370-2343","address":"富岡市七日市６７１-８","voronoi":{"type":"Feature","geometry":{"type":"Polygon","coordinates":[[[138.873802,36.285866],[138.884685,36.226639],[138.888675,36.216083],[138.886205,36.29662],[138.873802,36.285866]]]},"properties":{}}},
    {"code":9932715,"id":"97f066","name":"上州七日市","original_name":"上州七日市","name_kana":"じょうしゅうなのかいち","closed":false,"lat":36.258666,"lng":138.874536,"prefecture":10,"lines":[99327],"attr":"eco","postal_code":"370-2343","address":"富岡市七日市１６２５-１","voronoi":{"type":"Feature","geometry":{"type":"Polygon","coordinates":[[[138.873802,36.285866],[138.858446,36.276247],[138.884685,36.226639],[138.873802,36.285866]]]},"properties":{}}},
    {"code":9932716,"id":"2cc552","name":"上州一ノ宮","original_name":"上州一ノ宮","name_kana":"じょうしゅういちのみや","closed":false,"lat":36.253053,"lng":138.863924,"prefecture":10,"lines":[99327],"attr":"eco","postal_code":"370-2452","address":"富岡市一ノ宮２２６-２","voronoi":{"type":"Feature","geometry":{"type":"Polygon","coordinates":[[[138.841851,36.271023],[138.90176,36.155566],[138.901134,36.167794],[138.899961,36.173532],[138.888675,36.216083],[138.884685,36.226639],[138.858446,36.276247],[138.841851,36.271023]]]},"properties":{}}},
    {"code":9932717,"id":"8d1b37","name":"神農原","original_name":"神農原","name_kana":"かのはら","closed":false,"lat":36.242629,"lng":138.843835,"prefecture":10,"lines":[99327],"attr":"cool","postal_code":"370-2455","address":"富岡市神農原６４７-２","voronoi":{"type":"Feature","geometry":{"type":"Polygon","coordinates":[[[138.90176,36.155566],[138.910542,36.101004],[138.891093,36.091721],[138.836311,36.189124],[138.824113,36.272873],[138.841851,36.271023],[138.90176,36.155566]]]},"properties":{}}},
    {"code":9932718,"id":"a75f8c","name":"南蛇井","original_name":"南蛇井","name_kana":"なんじゃい","closed":false,"lat":36.23826,"lng":138.813838,"prefecture":10,"lines":[99327],"attr":"cool","postal_code":"370-2464","address":"富岡市南蛇井４９６-２","voronoi":{"type":"Feature","geometry":{"type":"Polygon","coordinates":[[[138.78716,36.26947],[138.81803,36.276495],[138.824113,36.272873],[138.836311,36.189124],[138.823907,36.201252],[138.78716,36.26947]]]},"properties":{}}},
    {"code":9932719,"id":"64d335","name":"千平","original_name":"千平","name_kana":"せんだいら","closed":false,"lat":36.230021,"lng":138.798543,"prefecture":10,"lines":[99327],"attr":"cool","postal_code":"370-2464","address":"富岡市南蛇井乙２０３８","voronoi":{"type":"Feature","geometry":{"type":"Polygon","coordinates":[[[138.823907,36.201252],[138.727557,36.259751],[138.737513,36.265445],[138.764994,36.269235],[138.78716,36.26947],[138.823907,36.201252]]]},"properties":{}}},
    {"code":9932720,"id":"aa912e","name":"下仁田","original_name":"下仁田","name_kana":"しもにた","closed":false,"lat":36.210484,"lng":138.786681,"prefecture":10,"lines":[99327],"attr":"cool","postal_code":"370-2601","address":"甘楽郡下仁田町下仁田甲３７４-４","voronoi":{"type":"Feature","geometry":{"type":"Polygon","coordinates":[[[138.679941,36.241256],[138.638971,36.194351],[138.63922,36.182654],[138.639633,36.178449],[138.647551,36.125077],[138.654949,36.104603],[138.703597,36.041704],[138.75367,35.986338],[138.891093,36.091721],[138.836311,36.189124],[138.823907,36.201252],[138.727557,36.259751],[138.679941,36.241256]]]},"properties":{}}}
  ]
}