{
  "code":99332,
  "id":"79f6f4",
  "name":"千葉都市モノレール２号線",
  "name_kana":"ちばとしものれーるにごうせん",
  "station_size":13,
  "company_code":144,
  "closed":false,
  "color":"#2843BA",
  "station_list":[
    {"code":1131339,"id":"76a5a4","name":"千葉","original_name":"千葉","name_kana":"ちば","closed":false,"lat":35.612927,"lng":140.113479,"prefecture":12,"lines":[11313,11314,11324,11325,11328,99331,99332],"attr":"cool","postal_code":"260-0031","address":"千葉市中央区新千葉１丁目","voronoi":{"type":"Feature","geometry":{"type":"Polygon","coordinates":[[[140.110337,35.619797],[140.110371,35.619833],[140.116102,35.616096],[140.11605,35.613583],[140.111211,35.610674],[140.110337,35.619797]]]},"properties":{}}},
    {"code":9933202,"id":"52a9c4","name":"千葉公園","original_name":"千葉公園","name_kana":"ちばこうえん","closed":false,"lat":35.619774,"lng":140.117944,"prefecture":12,"lines":[99332],"attr":"cool","postal_code":"260-0045","address":"千葉市中央区弁天３-４６４","voronoi":{"type":"Feature","geometry":{"type":"Polygon","coordinates":[[[140.11042,35.620083],[140.110371,35.619833],[140.116102,35.616096],[140.118794,35.616347],[140.125342,35.626589],[140.11042,35.620083]]]},"properties":{}}},
    {"code":9933203,"id":"416505","name":"作草部","original_name":"作草部","name_kana":"さくさべ","closed":false,"lat":35.625806,"lng":140.115314,"prefecture":12,"lines":[99332],"attr":"cool","postal_code":"263-0015","address":"千葉市稲毛区作草部２-１-１９","voronoi":{"type":"Feature","geometry":{"type":"Polygon","coordinates":[[[140.126083,35.630752],[140.123178,35.632505],[140.108765,35.626342],[140.11042,35.620083],[140.125342,35.626589],[140.127634,35.6284],[140.126083,35.630752]]]},"properties":{}}},
    {"code":9933204,"id":"eca174","name":"天台","original_name":"天台","name_kana":"てんだい","closed":false,"lat":35.631447,"lng":140.112902,"prefecture":12,"lines":[99332],"attr":"cool","postal_code":"263-0016","address":"千葉市稲毛区天台１-１０９５-２","voronoi":{"type":"Feature","geometry":{"type":"Polygon","coordinates":[[[140.102717,35.634305],[140.102678,35.634171],[140.103606,35.631944],[140.108765,35.626342],[140.123178,35.632505],[140.120329,35.635711],[140.1182,35.636294],[140.102717,35.634305]]]},"properties":{}}},
    {"code":9933205,"id":"25e20b","name":"穴川(千葉)","original_name":"穴川","name_kana":"あながわ","closed":false,"lat":35.639645,"lng":140.111849,"prefecture":12,"lines":[99332],"attr":"cool","postal_code":"263-0024","address":"千葉市稲毛区穴川７９-１","voronoi":{"type":"Feature","geometry":{"type":"Polygon","coordinates":[[[140.102717,35.634305],[140.099707,35.658686],[140.1182,35.636294],[140.102717,35.634305]]]},"properties":{}}},
    {"code":9933206,"id":"8d8f25","name":"スポーツセンター","original_name":"スポーツセンター","name_kana":"すぽーつせんたー","closed":false,"lat":35.643164,"lng":140.11611,"prefecture":12,"lines":[99332],"attr":"cool","postal_code":"263-0016","address":"千葉市稲毛区天台６-２１２-６","voronoi":{"type":"Feature","geometry":{"type":"Polygon","coordinates":[[[140.12301,35.678898],[140.120329,35.635711],[140.1182,35.636294],[140.099707,35.658686],[140.09808,35.665179],[140.099116,35.670411],[140.117349,35.678282],[140.12301,35.678898]]]},"properties":{}}},
    {"code":9933207,"id":"f635fd","name":"動物公園","original_name":"動物公園","name_kana":"どうぶつこうえん","closed":false,"lat":35.642585,"lng":140.125437,"prefecture":12,"lines":[99332],"attr":"heat","postal_code":"264-0037","address":"千葉市若葉区源町４０７-７","voronoi":{"type":"Feature","geometry":{"type":"Polygon","coordinates":[[[140.126083,35.630752],[140.123178,35.632505],[140.120329,35.635711],[140.12301,35.678898],[140.123568,35.679033],[140.131832,35.678964],[140.139631,35.663658],[140.126083,35.630752]]]},"properties":{}}},
    {"code":9933208,"id":"7c4aeb","name":"みつわ台","original_name":"みつわ台","name_kana":"みつわだい","closed":false,"lat":35.6387,"lng":140.134873,"prefecture":12,"lines":[99332],"attr":"heat","postal_code":"264-0032","address":"千葉市若葉区みつわ台３-２８","voronoi":{"type":"Feature","geometry":{"type":"Polygon","coordinates":[[[140.139187,35.621681],[140.145491,35.656313],[140.139631,35.663658],[140.126083,35.630752],[140.127634,35.6284],[140.139187,35.621681]]]},"properties":{}}},
    {"code":1131412,"id":"10343a","name":"都賀","original_name":"都賀","name_kana":"つが","closed":false,"lat":35.636088,"lng":140.149222,"prefecture":12,"lines":[11314,99332],"attr":"cool","postal_code":"264-0025","address":"千葉市若葉区都賀３丁目","voronoi":{"type":"Feature","geometry":{"type":"Polygon","coordinates":[[[140.146155,35.611832],[140.139187,35.621681],[140.145491,35.656313],[140.160644,35.647336],[140.146155,35.611832]]]},"properties":{}}},
    {"code":9933210,"id":"52fcfc","name":"桜木(千葉)","original_name":"桜木","name_kana":"さくらぎ","closed":false,"lat":35.631308,"lng":140.160935,"prefecture":12,"lines":[99332],"attr":"eco","postal_code":"264-0028","address":"千葉市若葉区桜木町３３５-４","voronoi":{"type":"Feature","geometry":{"type":"Polygon","coordinates":[[[140.146155,35.611832],[140.160644,35.647336],[140.17172,35.645896],[140.159012,35.606777],[140.148768,35.609282],[140.146514,35.610859],[140.146155,35.611832]]]},"properties":{}}},
    {"code":9933211,"id":"f3338d","name":"小倉台","original_name":"小倉台","name_kana":"おぐらだい","closed":false,"lat":35.627755,"lng":140.171873,"prefecture":12,"lines":[99332],"attr":"eco","postal_code":"264-0006","address":"千葉市若葉区小倉台４-１７３１-１","voronoi":{"type":"Feature","geometry":{"type":"Polygon","coordinates":[[[140.159012,35.606777],[140.17172,35.645896],[140.177537,35.647034],[140.17648,35.613574],[140.17207,35.60005],[140.159012,35.606777]]]},"properties":{}}},
    {"code":9933212,"id":"83947f","name":"千城台北","original_name":"千城台北","name_kana":"ちしろだいきた","closed":false,"lat":35.627436,"lng":140.181972,"prefecture":12,"lines":[99332],"attr":"eco","postal_code":"264-0005","address":"千葉市若葉区千城台北１-２-２","voronoi":{"type":"Feature","geometry":{"type":"Polygon","coordinates":[[[140.17648,35.613574],[140.177537,35.647034],[140.194892,35.655362],[140.206206,35.651808],[140.17648,35.613574]]]},"properties":{}}},
    {"code":9933213,"id":"553543","name":"千城台","original_name":"千城台","name_kana":"ちしろだい","closed":false,"lat":35.622314,"lng":140.18856,"prefecture":12,"lines":[99332],"attr":"eco","postal_code":"264-0005","address":"千葉市若葉区千城台北３-１-４１８","voronoi":{"type":"Feature","geometry":{"type":"Polygon","coordinates":[[[140.261541,35.615682],[140.243431,35.644931],[140.206206,35.651808],[140.17648,35.613574],[140.17207,35.60005],[140.17856,35.593395],[140.211018,35.587954],[140.260655,35.604554],[140.264104,35.607617],[140.261541,35.615682]]]},"properties":{}}}
  ]
}