{
  "code":99408,
  "id":"440c68",
  "name":"富山地鉄本線",
  "name_kana":"とやまちてつほんせん",
  "station_size":41,
  "company_code":160,
  "closed":false,
  "color":"#0033FF",
  "symbol":"T",
  "station_list":[
    {"code":9940801,"id":"86af15","name":"電鉄富山","original_name":"電鉄富山","name_kana":"でんてつとやま","closed":false,"lat":36.700757,"lng":137.214163,"prefecture":16,"numbering":["T01"],"lines":[99408,99410],"attr":"cool","postal_code":"930-0002","address":"富山市新富町","voronoi":{"type":"Feature","geometry":{"type":"Polygon","coordinates":[[[137.213471,36.700933],[137.214562,36.699159],[137.216665,36.701039],[137.215836,36.701785],[137.214126,36.701627],[137.213471,36.700933]]]},"properties":{}}},
    {"code":9940802,"id":"eb5b28","name":"稲荷町(富山)","original_name":"稲荷町","name_kana":"いなりまち","closed":false,"lat":36.696597,"lng":137.231247,"prefecture":16,"numbering":["T02"],"lines":[99408,99410],"attr":"eco","postal_code":"930-0012","address":"富山市稲荷町","voronoi":{"type":"Feature","geometry":{"type":"Polygon","coordinates":[[[137.234987,36.707232],[137.236461,36.696328],[137.22667,36.691508],[137.224464,36.691204],[137.223964,36.692724],[137.223596,36.695562],[137.223612,36.69585],[137.233235,36.706426],[137.234987,36.707232]]]},"properties":{}}},
    {"code":9940839,"id":"6999d3","name":"新庄田中","original_name":"新庄田中","name_kana":"しんじょうたなか","closed":false,"lat":36.697972,"lng":137.241417,"prefecture":16,"numbering":["T03"],"lines":[99408],"attr":"eco","postal_code":"930-0985","address":"富山県富山市田中町四丁目96-3","open_date":"2012-12-21","voronoi":{"type":"Feature","geometry":{"type":"Polygon","coordinates":[[[137.246593,36.709123],[137.248104,36.68302],[137.243149,36.687408],[137.236461,36.696328],[137.234987,36.707232],[137.23614,36.708695],[137.246593,36.709123]]]},"properties":{}}},
    {"code":9940803,"id":"00593f","name":"東新庄","original_name":"東新庄","name_kana":"ひがししんじょう","closed":false,"lat":36.698644,"lng":137.253021,"prefecture":16,"numbering":["T04"],"lines":[99408],"attr":"eco","postal_code":"930-0994","address":"富山市新庄新町","voronoi":{"type":"Feature","geometry":{"type":"Polygon","coordinates":[[[137.260425,36.667045],[137.259173,36.71655],[137.246593,36.709123],[137.248104,36.68302],[137.252074,36.675458],[137.25884,36.667684],[137.260425,36.667045]]]},"properties":{}}},
    {"code":9940804,"id":"e6c88e","name":"越中荏原","original_name":"越中荏原","name_kana":"えっちゅうえばら","closed":false,"lat":36.698978,"lng":137.266222,"prefecture":16,"numbering":["T05"],"lines":[99408],"attr":"eco","postal_code":"930-0916","address":"富山市向新庄","voronoi":{"type":"Feature","geometry":{"type":"Polygon","coordinates":[[[137.259173,36.71655],[137.260425,36.667045],[137.265134,36.663902],[137.266411,36.663173],[137.267947,36.662601],[137.276189,36.662273],[137.283519,36.672712],[137.273963,36.72692],[137.264457,36.723067],[137.259173,36.71655]]]},"properties":{}}},
    {"code":9940805,"id":"5653a6","name":"越中三郷","original_name":"越中三郷","name_kana":"えっちゅうさんごう","closed":false,"lat":36.703309,"lng":137.290792,"prefecture":16,"numbering":["T06"],"lines":[99408],"attr":"eco","postal_code":"939-3542","address":"富山市水橋開発","voronoi":{"type":"Feature","geometry":{"type":"Polygon","coordinates":[[[137.300952,36.689833],[137.296295,36.682387],[137.292853,36.678445],[137.283519,36.672712],[137.273963,36.72692],[137.274255,36.727239],[137.295872,36.72314],[137.300952,36.689833]]]},"properties":{}}},
    {"code":9940806,"id":"fdd352","name":"越中舟橋","original_name":"越中舟橋","name_kana":"えっちゅうふなはし","closed":false,"lat":36.705725,"lng":137.306632,"prefecture":16,"numbering":["T07"],"lines":[99408],"attr":"eco","postal_code":"930-0289","address":"中新川郡舟橋村竹内","voronoi":{"type":"Feature","geometry":{"type":"Polygon","coordinates":[[[137.320433,36.728497],[137.295872,36.72314],[137.300952,36.689833],[137.308363,36.694049],[137.320917,36.716905],[137.323481,36.725986],[137.320433,36.728497]]]},"properties":{}}},
    {"code":9940807,"id":"b8ccfb","name":"寺田(富山)","original_name":"寺田","name_kana":"てらだ","closed":false,"lat":36.698852,"lng":137.319145,"prefecture":16,"numbering":["T08"],"lines":[99408,99409],"attr":"eco","postal_code":"930-0208","address":"中新川郡立山町浦田","voronoi":{"type":"Feature","geometry":{"type":"Polygon","coordinates":[[[137.320917,36.716905],[137.308363,36.694049],[137.324161,36.691948],[137.320917,36.716905]]]},"properties":{}}},
    {"code":9940808,"id":"a799d2","name":"越中泉","original_name":"越中泉","name_kana":"えっちゅういずみ","closed":false,"lat":36.699905,"lng":137.327245,"prefecture":16,"numbering":["T09"],"lines":[99408],"attr":"eco","postal_code":"930-0201","address":"中新川郡立山町泉","voronoi":{"type":"Feature","geometry":{"type":"Polygon","coordinates":[[[137.335267,36.683829],[137.324161,36.691948],[137.320917,36.716905],[137.323481,36.725986],[137.325212,36.725507],[137.335687,36.683632],[137.335267,36.683829]]]},"properties":{}}},
    {"code":9940809,"id":"0269ca","name":"相ノ木","original_name":"相ノ木","name_kana":"あいのき","closed":false,"lat":36.701963,"lng":137.335472,"prefecture":16,"numbering":["T10"],"lines":[99408],"attr":"eco","postal_code":"930-0358","address":"中新川郡上市町正印新","voronoi":{"type":"Feature","geometry":{"type":"Polygon","coordinates":[[[137.336468,36.716605],[137.343128,36.677699],[137.335687,36.683632],[137.325212,36.725507],[137.328044,36.725209],[137.336468,36.716605]]]},"properties":{}}},
    {"code":9940840,"id":"a8ed74","name":"新相ノ木","original_name":"新相ノ木","name_kana":"しんあいのき","closed":false,"lat":36.703128,"lng":137.342278,"prefecture":16,"numbering":["T11"],"lines":[99408],"attr":"eco","postal_code":"930-0372","address":"富山県中新川郡上市町上経田4-91","open_date":"2013-12-26","voronoi":{"type":"Feature","geometry":{"type":"Polygon","coordinates":[[[137.349536,36.70844],[137.336468,36.716605],[137.343128,36.677699],[137.353127,36.667211],[137.349536,36.70844]]]},"properties":{}}},
    {"code":9940810,"id":"964936","name":"上市","original_name":"上市","name_kana":"かみいち","closed":false,"lat":36.704463,"lng":137.357603,"prefecture":16,"numbering":["T12"],"lines":[99408],"attr":"eco","postal_code":"930-0314","address":"中新川郡上市町若杉","voronoi":{"type":"Feature","geometry":{"type":"Polygon","coordinates":[[[137.353498,36.666614],[137.362787,36.658477],[137.378999,36.64705],[137.38701,36.642736],[137.408689,36.649114],[137.49341,36.710365],[137.477135,36.716437],[137.418013,36.73364],[137.385611,36.726648],[137.349536,36.70844],[137.353127,36.667211],[137.353498,36.666614]]]},"properties":{}}},
    {"code":9940811,"id":"8e25f9","name":"新宮川","original_name":"新宮川","name_kana":"しんみやかわ","closed":false,"lat":36.717292,"lng":137.351128,"prefecture":16,"numbering":["T13"],"lines":[99408],"attr":"eco","postal_code":"930-0313","address":"中新川郡上市町中江上","voronoi":{"type":"Feature","geometry":{"type":"Polygon","coordinates":[[[137.385611,36.726648],[137.330386,36.726093],[137.328044,36.725209],[137.336468,36.716605],[137.349536,36.70844],[137.385611,36.726648]]]},"properties":{}}},
    {"code":9940812,"id":"a17acd","name":"中加積","original_name":"中加積","name_kana":"なかかづみ","closed":false,"lat":36.735309,"lng":137.350947,"prefecture":16,"numbering":["T14"],"lines":[99408],"attr":"eco","postal_code":"936-0846","address":"滑川市堀江","voronoi":{"type":"Feature","geometry":{"type":"Polygon","coordinates":[[[137.409941,36.738268],[137.418013,36.73364],[137.385611,36.726648],[137.330386,36.726093],[137.357662,36.752662],[137.368232,36.753375],[137.386675,36.748793],[137.404459,36.741088],[137.409941,36.738268]]]},"properties":{}}},
    {"code":9940813,"id":"587db3","name":"西加積","original_name":"西加積","name_kana":"にしかづみ","closed":false,"lat":36.746405,"lng":137.340139,"prefecture":16,"numbering":["T15"],"lines":[99408],"attr":"eco","postal_code":"936-0857","address":"滑川市下梅沢","voronoi":{"type":"Feature","geometry":{"type":"Polygon","coordinates":[[[137.323481,36.725986],[137.320433,36.728497],[137.319599,36.740291],[137.342756,36.754229],[137.353211,36.754347],[137.357662,36.752662],[137.330386,36.726093],[137.328044,36.725209],[137.325212,36.725507],[137.323481,36.725986]]]},"properties":{}}},
    {"code":9940814,"id":"527567","name":"西滑川","original_name":"西滑川","name_kana":"にしなめりかわ","closed":false,"lat":36.755579,"lng":137.334617,"prefecture":16,"numbering":["T16"],"lines":[99408],"attr":"eco","postal_code":"936-0066","address":"滑川市菰原","voronoi":{"type":"Feature","geometry":{"type":"Polygon","coordinates":[[[137.30416,36.786403],[137.319599,36.740291],[137.342756,36.754229],[137.30416,36.786403]]]},"properties":{}}},
    {"code":9940815,"id":"abfb4d","name":"中滑川","original_name":"中滑川","name_kana":"なかなめりかわ","closed":false,"lat":36.761992,"lng":137.339963,"prefecture":16,"numbering":["T17"],"lines":[99408],"attr":"eco","postal_code":"936-0056","address":"滑川市田中新町","voronoi":{"type":"Feature","geometry":{"type":"Polygon","coordinates":[[[137.342756,36.754229],[137.353211,36.754347],[137.286465,36.837869],[137.286553,36.825875],[137.30416,36.786403],[137.342756,36.754229]]]},"properties":{}}},
    {"code":9942514,"id":"62f339","name":"滑川","original_name":"滑川","name_kana":"なめりかわ","closed":false,"lat":36.768955,"lng":137.348676,"prefecture":16,"numbering":["T18"],"lines":[11405,99408,99425],"attr":"eco","postal_code":"936-0024","address":"滑川市辰野","voronoi":{"type":"Feature","geometry":{"type":"Polygon","coordinates":[[[137.283578,36.88058],[137.286465,36.837869],[137.353211,36.754347],[137.357662,36.752662],[137.368232,36.753375],[137.283578,36.88058]]]},"properties":{}}},
    {"code":9940817,"id":"8e1cea","name":"浜加積","original_name":"浜加積","name_kana":"はまかづみ","closed":false,"lat":36.77743,"lng":137.361411,"prefecture":16,"numbering":["T19"],"lines":[99408],"attr":"eco","postal_code":"936-0016","address":"滑川市曲渕","voronoi":{"type":"Feature","geometry":{"type":"Polygon","coordinates":[[[137.315562,36.86284],[137.282007,36.892918],[137.283578,36.88058],[137.368232,36.753375],[137.386675,36.748793],[137.315562,36.86284]]]},"properties":{}}},
    {"code":9940818,"id":"30add2","name":"早月加積","original_name":"早月加積","name_kana":"はやつきかづみ","closed":false,"lat":36.784082,"lng":137.372079,"prefecture":16,"numbering":["T20"],"lines":[99408],"attr":"eco","postal_code":"936-0808","address":"滑川市追分","voronoi":{"type":"Feature","geometry":{"type":"Polygon","coordinates":[[[137.386675,36.748793],[137.315562,36.86284],[137.323313,36.85675],[137.336886,36.844412],[137.404459,36.741088],[137.386675,36.748793]]]},"properties":{}}},
    {"code":9940819,"id":"0737b3","name":"越中中村","original_name":"越中中村","name_kana":"えっちゅうなかむら","closed":false,"lat":36.790673,"lng":137.382688,"prefecture":16,"numbering":["T21"],"lines":[99408],"attr":"eco","postal_code":"936-0002","address":"滑川市中村","voronoi":{"type":"Feature","geometry":{"type":"Polygon","coordinates":[[[137.361346,36.822177],[137.409941,36.738268],[137.418013,36.73364],[137.477135,36.716437],[137.361346,36.822177]]]},"properties":{}}},
    {"code":9940820,"id":"4c8ee4","name":"西魚津","original_name":"西魚津","name_kana":"にしうおづ","closed":false,"lat":36.803775,"lng":137.394653,"prefecture":16,"numbering":["T22"],"lines":[99408],"attr":"eco","postal_code":"937-0851","address":"魚津市住吉","voronoi":{"type":"Feature","geometry":{"type":"Polygon","coordinates":[[[137.351933,36.832076],[137.361346,36.822177],[137.477135,36.716437],[137.49341,36.710365],[137.495339,36.710808],[137.492657,36.753325],[137.490439,36.763238],[137.351933,36.832076]]]},"properties":{}}},
    {"code":9940821,"id":"aeed3b","name":"電鉄魚津","original_name":"電鉄魚津","name_kana":"でんてつうおづ","closed":false,"lat":36.815113,"lng":137.400288,"prefecture":16,"numbering":["T23"],"lines":[99408],"attr":"eco","postal_code":"937-0862","address":"魚津市文化町","voronoi":{"type":"Feature","geometry":{"type":"Polygon","coordinates":[[[137.351933,36.832076],[137.336886,36.844412],[137.323313,36.85675],[137.402159,36.821164],[137.48281,36.782611],[137.490293,36.764151],[137.490439,36.763238],[137.351933,36.832076]]]},"properties":{}}},
    {"code":9940822,"id":"a6d2f9","name":"新魚津","original_name":"新魚津","name_kana":"しんうおづ","closed":false,"lat":36.82657,"lng":137.405459,"prefecture":16,"numbering":["T24"],"lines":[99408],"attr":"heat","postal_code":"937-0067","address":"魚津市釈迦堂","voronoi":{"type":"Feature","geometry":{"type":"Polygon","coordinates":[[[137.315562,36.86284],[137.282007,36.892918],[137.278771,36.901402],[137.412307,36.836996],[137.402159,36.821164],[137.323313,36.85675],[137.315562,36.86284]]]},"properties":{}}},
    {"code":9940823,"id":"ff4932","name":"経田","original_name":"経田","name_kana":"きょうでん","closed":false,"lat":36.848846,"lng":137.416203,"prefecture":16,"numbering":["T25"],"lines":[99408],"attr":"heat","postal_code":"937-0001","address":"魚津市浜経田","voronoi":{"type":"Feature","geometry":{"type":"Polygon","coordinates":[[[137.457001,36.830261],[137.459376,36.826361],[137.465979,36.811843],[137.412307,36.836996],[137.278771,36.901402],[137.277824,36.903371],[137.330665,36.893825],[137.433623,36.851688],[137.455553,36.832206],[137.457001,36.830261]]]},"properties":{}}},
    {"code":9940824,"id":"b4b369","name":"電鉄石田","original_name":"電鉄石田","name_kana":"でんてついしだ","closed":false,"lat":36.865928,"lng":137.423194,"prefecture":16,"numbering":["T26"],"lines":[99408],"attr":"heat","postal_code":"938-0054","address":"黒部市岡","voronoi":{"type":"Feature","geometry":{"type":"Polygon","coordinates":[[[137.330665,36.893825],[137.433623,36.851688],[137.423189,36.886119],[137.330665,36.893825]]]},"properties":{}}},
    {"code":9940825,"id":"348f83","name":"電鉄黒部","original_name":"電鉄黒部","name_kana":"でんてつくろべ","closed":false,"lat":36.874091,"lng":137.444125,"prefecture":16,"numbering":["T27"],"lines":[99408],"attr":"heat","postal_code":"938-0031","address":"黒部市三日市","voronoi":{"type":"Feature","geometry":{"type":"Polygon","coordinates":[[[137.449565,36.850676],[137.431341,36.887864],[137.44567,36.895756],[137.449565,36.850676]]]},"properties":{}}},
    {"code":9940826,"id":"c8dee7","name":"東三日市","original_name":"東三日市","name_kana":"ひがしみっかいち","closed":false,"lat":36.874677,"lng":137.450908,"prefecture":16,"numbering":["T28"],"lines":[99408],"attr":"heat","postal_code":"938-0031","address":"黒部市三日市","voronoi":{"type":"Feature","geometry":{"type":"Polygon","coordinates":[[[137.455553,36.832206],[137.449565,36.850676],[137.44567,36.895756],[137.45388,36.902138],[137.457001,36.830261],[137.455553,36.832206]]]},"properties":{}}},
    {"code":9940827,"id":"3cb796","name":"荻生","original_name":"荻生","name_kana":"おぎゅう","closed":false,"lat":36.875038,"lng":137.459221,"prefecture":16,"numbering":["T29"],"lines":[99408],"attr":"heat","postal_code":"938-0801","address":"黒部市荻生","voronoi":{"type":"Feature","geometry":{"type":"Polygon","coordinates":[[[137.454306,36.902588],[137.45388,36.902138],[137.457001,36.830261],[137.459376,36.826361],[137.468325,36.902568],[137.454306,36.902588]]]},"properties":{}}},
    {"code":9940828,"id":"0c711c","name":"長屋","original_name":"長屋","name_kana":"ながや","closed":false,"lat":36.873678,"lng":137.470803,"prefecture":16,"numbering":["T30"],"lines":[99408],"attr":"heat","postal_code":"938-0000","address":"黒部市長屋","voronoi":{"type":"Feature","geometry":{"type":"Polygon","coordinates":[[[137.459376,36.826361],[137.465979,36.811843],[137.470378,36.805782],[137.472964,36.827445],[137.475769,36.878495],[137.47472,36.903872],[137.468325,36.902568],[137.459376,36.826361]]]},"properties":{}}},
    {"code":9940841,"id":"d51a56","name":"新黒部","original_name":"新黒部","name_kana":"しんくろべ","closed":false,"lat":36.873163,"lng":137.480177,"prefecture":16,"numbering":["T31"],"lines":[99408],"attr":"heat","postal_code":"938-0802","address":"富山県黒部市若栗2787番地","open_date":"2015-03-14","voronoi":{"type":"Feature","geometry":{"type":"Polygon","coordinates":[[[137.472964,36.827445],[137.475769,36.878495],[137.482826,36.871461],[137.472964,36.827445]]]},"properties":{}}},
    {"code":9940829,"id":"e6801a","name":"舌山","original_name":"舌山","name_kana":"したやま","closed":false,"lat":36.87187,"lng":137.485948,"prefecture":16,"numbering":["T32"],"lines":[99408],"attr":"cool","postal_code":"938-0802","address":"黒部市若栗","voronoi":{"type":"Feature","geometry":{"type":"Polygon","coordinates":[[[137.491402,36.890015],[137.482826,36.871461],[137.472964,36.827445],[137.470378,36.805782],[137.481133,36.786791],[137.491402,36.890015]]]},"properties":{}}},
    {"code":9940830,"id":"dbf50b","name":"若栗","original_name":"若栗","name_kana":"わかぐり","closed":false,"lat":36.871151,"lng":137.493175,"prefecture":16,"numbering":["T33"],"lines":[99408],"attr":"cool","postal_code":"938-0802","address":"黒部市若栗","voronoi":{"type":"Feature","geometry":{"type":"Polygon","coordinates":[[[137.481133,36.786791],[137.491402,36.890015],[137.495386,36.906282],[137.503291,36.905625],[137.495083,36.829345],[137.482005,36.785085],[137.481133,36.786791]]]},"properties":{}}},
    {"code":9940831,"id":"4e025c","name":"栃屋","original_name":"栃屋","name_kana":"とちや","closed":false,"lat":36.869788,"lng":137.505842,"prefecture":16,"numbering":["T34"],"lines":[99408],"attr":"cool","postal_code":"938-0864","address":"黒部市宇奈月町栃屋","voronoi":{"type":"Feature","geometry":{"type":"Polygon","coordinates":[[[137.495083,36.829345],[137.532313,36.908402],[137.503291,36.905625],[137.495083,36.829345]]]},"properties":{}}},
    {"code":9940832,"id":"0b816a","name":"浦山","original_name":"浦山","name_kana":"うらやま","closed":false,"lat":36.8634,"lng":137.519407,"prefecture":16,"numbering":["T35"],"lines":[99408],"attr":"cool","postal_code":"938-0862","address":"黒部市宇奈月町浦山","voronoi":{"type":"Feature","geometry":{"type":"Polygon","coordinates":[[[137.48281,36.782611],[137.482005,36.785085],[137.495083,36.829345],[137.532313,36.908402],[137.534562,36.908991],[137.539096,36.907107],[137.506993,36.793913],[137.490293,36.764151],[137.48281,36.782611]]]},"properties":{}}},
    {"code":9940833,"id":"7a7f19","name":"下立口","original_name":"下立口","name_kana":"おりたてぐち","closed":false,"lat":36.859571,"lng":137.532908,"prefecture":16,"numbering":["T36"],"lines":[99408],"attr":"cool","postal_code":"938-0861","address":"黒部市宇奈月町下立","voronoi":{"type":"Feature","geometry":{"type":"Polygon","coordinates":[[[137.539096,36.907107],[137.506993,36.793913],[137.530222,36.827084],[137.547339,36.905029],[137.539096,36.907107]]]},"properties":{}}},
    {"code":9940834,"id":"aa94b5","name":"下立","original_name":"下立","name_kana":"おりたて","closed":false,"lat":36.857707,"lng":137.541396,"prefecture":16,"numbering":["T37"],"lines":[99408],"attr":"cool","postal_code":"938-0861","address":"黒部市宇奈月町下立","voronoi":{"type":"Feature","geometry":{"type":"Polygon","coordinates":[[[137.534463,36.831686],[137.530222,36.827084],[137.547339,36.905029],[137.554178,36.903956],[137.54642,36.84854],[137.534463,36.831686]]]},"properties":{}}},
    {"code":9940835,"id":"56aa90","name":"愛本","original_name":"愛本","name_kana":"あいもと","closed":false,"lat":36.855975,"lng":137.553769,"prefecture":16,"numbering":["T38"],"lines":[99408],"attr":"cool","postal_code":"938-0281","address":"黒部市宇奈月町内山","voronoi":{"type":"Feature","geometry":{"type":"Polygon","coordinates":[[[137.60524,36.867596],[137.54642,36.84854],[137.554178,36.903956],[137.608424,36.902593],[137.635911,36.891949],[137.638878,36.889646],[137.616413,36.872036],[137.60524,36.867596]]]},"properties":{}}},
    {"code":9940836,"id":"967071","name":"内山","original_name":"内山","name_kana":"うちやま","closed":false,"lat":36.846826,"lng":137.556733,"prefecture":16,"numbering":["T39"],"lines":[99408],"attr":"cool","postal_code":"938-0281","address":"黒部市宇奈月町内山","voronoi":{"type":"Feature","geometry":{"type":"Polygon","coordinates":[[[137.60524,36.867596],[137.534463,36.831686],[137.54642,36.84854],[137.60524,36.867596]]]},"properties":{}}},
    {"code":9940837,"id":"ddf101","name":"音沢","original_name":"音沢","name_kana":"おとざわ","closed":false,"lat":36.840716,"lng":137.559833,"prefecture":16,"numbering":["T40"],"lines":[99408],"attr":"cool","postal_code":"938-0000","address":"黒部市宇奈月町大滝","voronoi":{"type":"Feature","geometry":{"type":"Polygon","coordinates":[[[137.60524,36.867596],[137.534463,36.831686],[137.530222,36.827084],[137.506993,36.793913],[137.490293,36.764151],[137.490439,36.763238],[137.492657,36.753325],[137.594427,36.849751],[137.616413,36.872036],[137.60524,36.867596]]]},"properties":{}}},
    {"code":9940838,"id":"7cf1dd","name":"宇奈月温泉","original_name":"宇奈月温泉","name_kana":"うなづきおんせん","closed":false,"lat":36.815694,"lng":137.583541,"prefecture":16,"numbering":["T41"],"lines":[99408],"attr":"cool","postal_code":"938-0282","address":"黒部市宇奈月温泉桃原","voronoi":{"type":"Feature","geometry":{"type":"Polygon","coordinates":[[[137.492657,36.753325],[137.495339,36.710808],[137.521611,36.695176],[137.540473,36.710897],[137.564976,36.745638],[137.594427,36.849751],[137.492657,36.753325]]]},"properties":{}}}
  ]
}