{
  "code":99424,
  "id":597,
  "name":"妙高はねうまライン",
  "name_kana":"みょうこうはねうまらいん",
  "station_size":10,
  "company_code":244,
  "closed":false,
  "color":"#35C98E",
  "station_list":[
    {"code":9942401,"id":2018,"name":"妙高高原","original_name":"妙高高原","name_kana":"みょうこうこうげん","closed":false,"lat":36.872175,"lng":138.211953,"prefecture":15,"lines":[99427,99424],"attr":"cool","postal_code":"949-2106","address":"妙高市田口","voronoi":{"type":"Feature","geometry":{"type":"Polygon","coordinates":[[[138.051618,36.935622],[138.057681,36.873066],[138.229228,36.834093],[138.283083,36.846571],[138.289149,36.88018],[138.289649,36.885871],[138.057119,36.941114],[138.051618,36.935622]]]},"properties":{}}},
    {"code":9942402,"id":2019,"name":"関山","original_name":"関山","name_kana":"せきやま","closed":false,"lat":36.933048,"lng":138.226415,"prefecture":15,"lines":[99424],"attr":"cool","postal_code":"949-2141","address":"妙高市関山","voronoi":{"type":"Feature","geometry":{"type":"Polygon","coordinates":[[[138.302883,36.910362],[138.31068,36.934995],[138.312356,36.952036],[138.082288,36.977866],[138.057119,36.941114],[138.289649,36.885871],[138.302883,36.910362]]]},"properties":{}}},
    {"code":9942403,"id":2020,"name":"二本木","original_name":"二本木","name_kana":"にほんぎ","closed":false,"lat":36.989608,"lng":138.232765,"prefecture":15,"lines":[99424],"attr":"cool","postal_code":"949-2301","address":"上越市中郷区板橋","voronoi":{"type":"Feature","geometry":{"type":"Polygon","coordinates":[[[138.141696,37.052215],[138.184246,37.045061],[138.317402,36.96312],[138.312356,36.952036],[138.082288,36.977866],[138.08251,36.978375],[138.141696,37.052215]]]},"properties":{}}},
    {"code":9942404,"id":2021,"name":"新井(新潟)","original_name":"新井","name_kana":"あらい","closed":false,"lat":37.026738,"lng":138.255614,"prefecture":15,"lines":[99424],"attr":"cool","postal_code":"944-0044","address":"妙高市栄町","voronoi":{"type":"Feature","geometry":{"type":"Polygon","coordinates":[[[138.186795,37.045404],[138.184246,37.045061],[138.317402,36.96312],[138.347029,37.000087],[138.356005,37.016614],[138.361166,37.031539],[138.186795,37.045404]]]},"properties":{}}},
    {"code":9942405,"id":2022,"name":"北新井","original_name":"北新井","name_kana":"きたあらい","closed":false,"lat":37.05296,"lng":138.257699,"prefecture":15,"lines":[99424],"attr":"cool","postal_code":"944-0008","address":"妙高市柳井田町","voronoi":{"type":"Feature","geometry":{"type":"Polygon","coordinates":[[[138.35017,37.088221],[138.372441,37.054425],[138.361166,37.031539],[138.186795,37.045404],[138.340924,37.096359],[138.35017,37.088221]]]},"properties":{}}},
    {"code":100908,"id":2023,"name":"上越妙高","original_name":"上越妙高","name_kana":"じょうえつみょうこう","closed":false,"lat":37.081599,"lng":138.248231,"prefecture":15,"lines":[1009,99424],"attr":"cool","postal_code":"943-0863","address":"上越市大字脇野田","voronoi":{"type":"Feature","geometry":{"type":"Polygon","coordinates":[[[138.303153,37.109134],[138.326836,37.11351],[138.340924,37.096359],[138.186795,37.045404],[138.184246,37.045061],[138.141696,37.052215],[138.141949,37.053249],[138.303153,37.109134]]]},"properties":{}}},
    {"code":9942407,"id":2024,"name":"南高田","original_name":"南高田","name_kana":"みなみたかだ","closed":false,"lat":37.096766,"lng":138.242973,"prefecture":15,"lines":[99424],"attr":"eco","postal_code":"943-0899","address":"上越市大字下中田","voronoi":{"type":"Feature","geometry":{"type":"Polygon","coordinates":[[[138.141949,37.053249],[138.142028,37.05372],[138.152939,37.071166],[138.183101,37.102923],[138.303153,37.109134],[138.141949,37.053249]]]},"properties":{}}},
    {"code":9942408,"id":2025,"name":"高田(新潟)","original_name":"高田","name_kana":"たかだ","closed":false,"lat":37.115226,"lng":138.242018,"prefecture":15,"lines":[99424],"attr":"heat","postal_code":"943-0831","address":"上越市仲町４丁目","voronoi":{"type":"Feature","geometry":{"type":"Polygon","coordinates":[[[138.320865,37.124848],[138.279069,37.140413],[138.196726,37.122607],[138.183101,37.102923],[138.303153,37.109134],[138.326836,37.11351],[138.320865,37.124848]]]},"properties":{}}},
    {"code":9942409,"id":2026,"name":"春日山","original_name":"春日山","name_kana":"かすがやま","closed":false,"lat":37.148042,"lng":138.234922,"prefecture":15,"lines":[99424],"attr":"heat","postal_code":"943-0805","address":"上越市大字木田","voronoi":{"type":"Feature","geometry":{"type":"Polygon","coordinates":[[[138.279069,37.140413],[138.196726,37.122607],[138.207718,37.169355],[138.269899,37.148796],[138.279069,37.140413]]]},"properties":{}}},
    {"code":1140401,"id":2027,"name":"直江津","original_name":"直江津","name_kana":"なおえつ","closed":false,"lat":37.170251,"lng":138.242265,"prefecture":15,"lines":[11404,11405,99423,99424],"attr":"eco","postal_code":"942-0003","address":"上越市東町１丁目","voronoi":{"type":"Feature","geometry":{"type":"Polygon","coordinates":[[[138.19364,37.291986],[138.207718,37.169355],[138.269899,37.148796],[138.19364,37.291986]]]},"properties":{}}}
  ]
}