{
  "code":99507,
  "id":"041e33",
  "name":"大井川鐵道大井川本線",
  "name_kana":"おおいがわてつどうおおいがわほんせん",
  "station_size":20,
  "company_code":174,
  "closed":false,
  "station_list":[
    {"code":1150126,"id":"50cef0","name":"金谷","original_name":"金谷","name_kana":"かなや","closed":false,"lat":34.819049,"lng":138.125578,"prefecture":22,"lines":[11501,99507],"attr":"heat","postal_code":"428-0047","address":"静岡県島田市金谷新町","voronoi":{"type":"Feature","geometry":{"type":"Polygon","coordinates":[[[138.063936,34.819453],[138.167452,34.747303],[138.163288,34.76524],[138.128963,34.827171],[138.1151,34.827613],[138.063936,34.819453]]]},"properties":{}}},
    {"code":9950702,"id":"0f04cc","name":"新金谷","original_name":"新金谷","name_kana":"しんかなや","closed":false,"lat":34.825737,"lng":138.137645,"prefecture":22,"lines":[99507],"attr":"heat","postal_code":"428-0013","address":"静岡県島田市金谷東2丁目1112-2","voronoi":{"type":"Feature","geometry":{"type":"Polygon","coordinates":[[[138.128963,34.827171],[138.152235,34.854706],[138.163288,34.76524],[138.128963,34.827171]]]},"properties":{}}},
    {"code":9950703,"id":"b1e272","name":"代官町","original_name":"代官町","name_kana":"だいかんちょう","closed":false,"lat":34.835493,"lng":138.126102,"prefecture":22,"lines":[99507],"attr":"heat","postal_code":"428-0012","address":"静岡県島田市金谷代官町","voronoi":{"type":"Feature","geometry":{"type":"Polygon","coordinates":[[[138.1151,34.827613],[138.128963,34.827171],[138.152235,34.854706],[138.152467,34.856767],[138.131233,34.844612],[138.1151,34.827613]]]},"properties":{}}},
    {"code":9950704,"id":"7a8f66","name":"日切","original_name":"日切","name_kana":"ひぎり","closed":false,"lat":34.839012,"lng":138.122394,"prefecture":22,"lines":[99507],"attr":"heat","postal_code":"428-0007","address":"島田市島","voronoi":{"type":"Feature","geometry":{"type":"Polygon","coordinates":[[[138.056147,34.823579],[138.056541,34.822971],[138.063936,34.819453],[138.1151,34.827613],[138.131233,34.844612],[138.056147,34.823579]]]},"properties":{}}},
    {"code":9950705,"id":"44c691","name":"合格","original_name":"合格","name_kana":"ごうかく","closed":false,"lat":34.844806,"lng":138.120771,"prefecture":22,"lines":[99507],"attr":"heat","postal_code":"428-0008","address":"島田市竹下","voronoi":{"type":"Feature","geometry":{"type":"Polygon","coordinates":[[[138.056147,34.823579],[138.052887,34.828158],[138.152487,34.856838],[138.152467,34.856767],[138.131233,34.844612],[138.056147,34.823579]]]},"properties":{}}},
    {"code":9950706,"id":"446f05","name":"門出","original_name":"門出","name_kana":"かどで","closed":false,"lat":34.850161,"lng":138.119229,"prefecture":22,"lines":[99507],"attr":"heat","postal_code":"428-0005","address":"静岡県島田市横岡新田２７５−１","open_date":"2020-11-12","voronoi":{"type":"Feature","geometry":{"type":"Polygon","coordinates":[[[138.0489,34.833311],[138.052887,34.828158],[138.152487,34.856838],[138.167398,34.89725],[138.0489,34.833311]]]},"properties":{}}},
    {"code":9950707,"id":"812d4b","name":"神尾","original_name":"神尾","name_kana":"かみお","closed":false,"lat":34.882842,"lng":138.101595,"prefecture":22,"lines":[99507],"attr":"heat","postal_code":"428-0003","address":"島田市神尾","voronoi":{"type":"Feature","geometry":{"type":"Polygon","coordinates":[[[138.027416,34.851125],[138.028283,34.84907],[138.0489,34.833311],[138.167398,34.89725],[138.173407,34.905444],[138.187524,34.936444],[138.160012,34.931013],[138.027416,34.851125]]]},"properties":{}}},
    {"code":9950708,"id":"c3694a","name":"福用","original_name":"福用","name_kana":"ふくよう","closed":false,"lat":34.901881,"lng":138.090124,"prefecture":22,"lines":[99507],"attr":"heat","postal_code":"428-0002","address":"島田市福用","voronoi":{"type":"Feature","geometry":{"type":"Polygon","coordinates":[[[138.027416,34.851125],[138.010223,34.880002],[138.129719,34.929571],[138.160012,34.931013],[138.027416,34.851125]]]},"properties":{}}},
    {"code":9950709,"id":"cf23bf","name":"大和田(静岡)","original_name":"大和田","name_kana":"おわだ","closed":false,"lat":34.921104,"lng":138.08215,"prefecture":22,"lines":[99507],"attr":"heat","postal_code":"428-0104","address":"島田市川根町家山大和田新地","voronoi":{"type":"Feature","geometry":{"type":"Polygon","coordinates":[[[138.098594,34.934897],[137.987429,34.909191],[138.010223,34.880002],[138.129719,34.929571],[138.098594,34.934897]]]},"properties":{}}},
    {"code":9950710,"id":"de7993","name":"家山","original_name":"家山","name_kana":"いえやま","closed":false,"lat":34.940071,"lng":138.077764,"prefecture":22,"lines":[99507],"attr":"heat","postal_code":"428-0104","address":"島田市川根町家山大島新地","voronoi":{"type":"Feature","geometry":{"type":"Polygon","coordinates":[[[138.011165,34.977777],[138.071429,34.95513],[138.098594,34.934897],[137.987429,34.909191],[137.985467,34.911235],[137.931746,34.983708],[137.938801,34.99272],[138.011165,34.977777]]]},"properties":{}}},
    {"code":9950711,"id":"9a1bca","name":"抜里","original_name":"抜里","name_kana":"ぬくり","closed":false,"lat":34.953373,"lng":138.087672,"prefecture":22,"lines":[99507],"attr":"heat","postal_code":"428-0106","address":"島田市川根町抜里追出","voronoi":{"type":"Feature","geometry":{"type":"Polygon","coordinates":[[[138.160012,34.931013],[138.187524,34.936444],[138.200021,34.948824],[138.211699,34.967383],[138.162344,34.970659],[138.160156,34.970631],[138.071429,34.95513],[138.098594,34.934897],[138.129719,34.929571],[138.160012,34.931013]]]},"properties":{}}},
    {"code":9950712,"id":"a05512","name":"川根温泉笹間渡","original_name":"川根温泉笹間渡","name_kana":"かわねおんせんささまど","closed":false,"lat":34.962291,"lng":138.086114,"prefecture":22,"lines":[99507],"attr":"cool","postal_code":"428-0101","address":"島田市川根町笹間渡タマブチ","voronoi":{"type":"Feature","geometry":{"type":"Polygon","coordinates":[[[138.011165,34.977777],[138.071429,34.95513],[138.160156,34.970631],[138.011165,34.977777]]]},"properties":{}}},
    {"code":9950713,"id":"8a41b0","name":"地名","original_name":"地名","name_kana":"じな","closed":false,"lat":34.986019,"lng":138.087252,"prefecture":22,"lines":[99507],"attr":"cool","postal_code":"428-0305","address":"榛原郡川根本町地名","voronoi":{"type":"Feature","geometry":{"type":"Polygon","coordinates":[[[137.951045,35.014831],[137.938801,34.99272],[138.011165,34.977777],[138.160156,34.970631],[138.162344,34.970659],[138.030973,35.008565],[137.951045,35.014831]]]},"properties":{}}},
    {"code":9950714,"id":"ec94df","name":"塩郷","original_name":"塩郷","name_kana":"しおごう","closed":false,"lat":34.997664,"lng":138.090612,"prefecture":22,"lines":[99507],"attr":"cool","postal_code":"428-0304","address":"榛原郡川根本町下泉","voronoi":{"type":"Feature","geometry":{"type":"Polygon","coordinates":[[[138.232917,34.996299],[138.192495,35.0121],[138.030973,35.008565],[138.162344,34.970659],[138.211699,34.967383],[138.228037,34.985263],[138.231704,34.990449],[138.232917,34.996299]]]},"properties":{}}},
    {"code":9950715,"id":"eafc46","name":"下泉","original_name":"下泉","name_kana":"しもいずみ","closed":false,"lat":35.022064,"lng":138.090078,"prefecture":22,"lines":[99507],"attr":"cool","postal_code":"428-0304","address":"榛原郡川根本町下泉","voronoi":{"type":"Feature","geometry":{"type":"Polygon","coordinates":[[[138.188758,35.0141],[138.192495,35.0121],[138.030973,35.008565],[137.951045,35.014831],[137.968594,35.05935],[138.164149,35.023645],[138.188758,35.0141]]]},"properties":{}}},
    {"code":9950716,"id":"cbc92b","name":"田野口","original_name":"田野口","name_kana":"たのくち","closed":false,"lat":35.0513,"lng":138.095416,"prefecture":22,"lines":[99507],"attr":"cool","postal_code":"428-0306","address":"榛原郡川根本町田野口","voronoi":{"type":"Feature","geometry":{"type":"Polygon","coordinates":[[[137.968594,35.05935],[137.971675,35.07101],[137.982985,35.103901],[137.994256,35.128685],[138.030286,35.109813],[138.164149,35.023645],[137.968594,35.05935]]]},"properties":{}}},
    {"code":9950717,"id":"46c38f","name":"駿河徳山","original_name":"駿河徳山","name_kana":"するがとくやま","closed":false,"lat":35.074758,"lng":138.110516,"prefecture":22,"lines":[99507],"attr":"cool","postal_code":"428-0301","address":"榛原郡川根本町徳山","voronoi":{"type":"Feature","geometry":{"type":"Polygon","coordinates":[[[138.188758,35.0141],[138.123682,35.078604],[138.030286,35.109813],[138.164149,35.023645],[138.188758,35.0141]]]},"properties":{}}},
    {"code":9950718,"id":"0f8e9c","name":"青部","original_name":"青部","name_kana":"あおべ","closed":false,"lat":35.089592,"lng":138.115473,"prefecture":22,"lines":[99507],"attr":"eco","postal_code":"428-0417","address":"榛原郡川根本町青部","voronoi":{"type":"Feature","geometry":{"type":"Polygon","coordinates":[[[138.118307,35.107624],[138.123682,35.078604],[138.030286,35.109813],[137.994256,35.128685],[137.998313,35.144166],[138.006374,35.17093],[138.11336,35.113367],[138.118307,35.107624]]]},"properties":{}}},
    {"code":9950719,"id":"0346a5","name":"崎平","original_name":"崎平","name_kana":"さきだいら","closed":false,"lat":35.091803,"lng":138.127411,"prefecture":22,"lines":[99507],"attr":"eco","postal_code":"428-0418","address":"榛原郡川根本町崎平","voronoi":{"type":"Feature","geometry":{"type":"Polygon","coordinates":[[[138.254198,35.029681],[138.118307,35.107624],[138.123682,35.078604],[138.188758,35.0141],[138.192495,35.0121],[138.232917,34.996299],[138.254198,35.029681]]]},"properties":{}}},
    {"code":9950720,"id":"423e1b","name":"千頭","original_name":"千頭","name_kana":"せんず","closed":false,"lat":35.107754,"lng":138.13656,"prefecture":22,"lines":[99507,99508],"attr":"eco","postal_code":"428-0411","address":"榛原郡川根本町千頭","voronoi":{"type":"Feature","geometry":{"type":"Polygon","coordinates":[[[138.11336,35.113367],[138.131012,35.115653],[138.268692,35.054529],[138.259241,35.036559],[138.254198,35.029681],[138.118307,35.107624],[138.11336,35.113367]]]},"properties":{}}}
  ]
}