{
  "code":99526,
  "id":"4f39f2",
  "name":"樽見鉄道",
  "name_kana":"たるみてつどう",
  "name_formal":"樽見鉄道樽見線",
  "station_size":19,
  "company_code":185,
  "closed":false,
  "station_list":[
    {"code":1150304,"id":"a172c9","name":"大垣","original_name":"大垣","name_kana":"おおがき","closed":false,"lat":35.367096,"lng":136.618288,"prefecture":21,"lines":[11503,99526,99532],"attr":"cool","postal_code":"503-0901","address":"大垣市高屋町１丁目","voronoi":{"type":"Feature","geometry":{"type":"Polygon","coordinates":[[[136.616031,35.352268],[136.612155,35.360778],[136.612372,35.375646],[136.617409,35.385599],[136.626595,35.391481],[136.642769,35.335784],[136.616031,35.352268]]]},"properties":{}}},
    {"code":9952602,"id":"b4cc61","name":"東大垣","original_name":"東大垣","name_kana":"ひがしおおがき","closed":false,"lat":35.375338,"lng":136.646671,"prefecture":21,"lines":[99526],"attr":"eco","postal_code":"503-0005","address":"大垣市和合本町","voronoi":{"type":"Feature","geometry":{"type":"Polygon","coordinates":[[[136.678242,35.353517],[136.678183,35.353459],[136.645476,35.332128],[136.642769,35.335784],[136.626595,35.391481],[136.630779,35.401652],[136.640833,35.394617],[136.678242,35.353517]]]},"properties":{}}},
    {"code":9952603,"id":"1a0402","name":"横屋","original_name":"横屋","name_kana":"よこや","closed":false,"lat":35.386996,"lng":136.659479,"prefecture":21,"lines":[99526],"attr":"eco","postal_code":"501-0200","address":"瑞穂市大跡","voronoi":{"type":"Feature","geometry":{"type":"Polygon","coordinates":[[[136.678242,35.353517],[136.640833,35.394617],[136.67753,35.388462],[136.685571,35.358914],[136.680234,35.354759],[136.678242,35.353517]]]},"properties":{}}},
    {"code":9952604,"id":"cda74f","name":"十九条","original_name":"十九条","name_kana":"じゅうくじょう","closed":false,"lat":35.395737,"lng":136.660945,"prefecture":21,"lines":[99526],"attr":"eco","postal_code":"501-0235","address":"瑞穂市十九条字河原","voronoi":{"type":"Feature","geometry":{"type":"Polygon","coordinates":[[[136.67753,35.388462],[136.677239,35.404168],[136.630682,35.40531],[136.630779,35.401652],[136.640833,35.394617],[136.67753,35.388462]]]},"properties":{}}},
    {"code":9952605,"id":"ccb8c8","name":"美江寺","original_name":"美江寺","name_kana":"みえじ","closed":false,"lat":35.413387,"lng":136.661378,"prefecture":21,"lines":[99526],"attr":"eco","postal_code":"501-0312","address":"瑞穂市大字美江寺字榎前","voronoi":{"type":"Feature","geometry":{"type":"Polygon","coordinates":[[[136.634272,35.44051],[136.630585,35.405614],[136.630682,35.40531],[136.677239,35.404168],[136.684612,35.418209],[136.642791,35.438805],[136.634272,35.44051]]]},"properties":{}}},
    {"code":9952606,"id":"c60b59","name":"北方真桑","original_name":"北方真桑","name_kana":"きたがたまくわ","closed":false,"lat":35.439567,"lng":136.674271,"prefecture":21,"lines":[99526],"attr":"heat","postal_code":"501-0461","address":"本巣市上真桑","voronoi":{"type":"Feature","geometry":{"type":"Polygon","coordinates":[[[136.712382,35.459139],[136.642791,35.438805],[136.684612,35.418209],[136.701493,35.42585],[136.727198,35.46204],[136.712382,35.459139]]]},"properties":{}}},
    {"code":9952607,"id":"703976","name":"モレラ岐阜","original_name":"モレラ岐阜","name_kana":"もれらぎふ","closed":false,"lat":35.455112,"lng":136.669729,"prefecture":21,"lines":[99526],"attr":"heat","postal_code":"501-0419","address":"本巣市早野１７５","voronoi":{"type":"Feature","geometry":{"type":"Polygon","coordinates":[[[136.642791,35.438805],[136.634272,35.44051],[136.630105,35.448458],[136.626638,35.458863],[136.712382,35.459139],[136.642791,35.438805]]]},"properties":{}}},
    {"code":9952608,"id":"e44772","name":"糸貫","original_name":"糸貫","name_kana":"いとぬき","closed":false,"lat":35.462891,"lng":136.669704,"prefecture":21,"lines":[99526],"attr":"heat","postal_code":"501-0400","address":"本巣市糸貫石田","voronoi":{"type":"Feature","geometry":{"type":"Polygon","coordinates":[[[136.621438,35.47077],[136.621835,35.475961],[136.736216,35.474257],[136.732418,35.467626],[136.731323,35.465844],[136.727198,35.46204],[136.712382,35.459139],[136.626638,35.458863],[136.621438,35.47077]]]},"properties":{}}},
    {"code":9952609,"id":"a92016","name":"本巣","original_name":"本巣","name_kana":"もとす","closed":false,"lat":35.487599,"lng":136.670072,"prefecture":21,"lines":[99526],"attr":"heat","postal_code":"501-1205","address":"本巣市曽井中島","voronoi":{"type":"Feature","geometry":{"type":"Polygon","coordinates":[[[136.736216,35.474257],[136.621835,35.475961],[136.621607,35.477248],[136.63226,35.484284],[136.773334,35.519262],[136.765126,35.508283],[136.736216,35.474257]]]},"properties":{}}},
    {"code":9952610,"id":"b26eef","name":"織部","original_name":"織部","name_kana":"おりべ","closed":false,"lat":35.499017,"lng":136.667241,"prefecture":21,"lines":[99526],"attr":"cool","postal_code":"501-1201","address":"本巣市山口森本","voronoi":{"type":"Feature","geometry":{"type":"Polygon","coordinates":[[[136.708874,35.552657],[136.780272,35.586043],[136.781386,35.580449],[136.788438,35.537326],[136.773334,35.519262],[136.63226,35.484284],[136.704321,35.549986],[136.708874,35.552657]]]},"properties":{}}},
    {"code":9952611,"id":"0e2b3e","name":"木知原","original_name":"木知原","name_kana":"こちぼら","closed":false,"lat":35.517759,"lng":136.650153,"prefecture":21,"lines":[99526],"attr":"cool","postal_code":"501-1234","address":"本巣市木知原字川端","voronoi":{"type":"Feature","geometry":{"type":"Polygon","coordinates":[[[136.662113,35.535624],[136.611226,35.494231],[136.621607,35.477248],[136.63226,35.484284],[136.704321,35.549986],[136.662113,35.535624]]]},"properties":{}}},
    {"code":9952612,"id":"1d91c0","name":"谷汲口","original_name":"谷汲口","name_kana":"たにぐみぐち","closed":false,"lat":35.527552,"lng":136.642187,"prefecture":21,"lines":[99526],"attr":"cool","postal_code":"501-1303","address":"揖斐郡揖斐川町谷汲長瀬","voronoi":{"type":"Feature","geometry":{"type":"Polygon","coordinates":[[[136.579252,35.533138],[136.611226,35.494231],[136.662113,35.535624],[136.579252,35.533138]]]},"properties":{}}},
    {"code":9952613,"id":"247d7b","name":"神海","original_name":"神海","name_kana":"こうみ","closed":false,"lat":35.542487,"lng":136.641739,"prefecture":21,"lines":[99526],"attr":"cool","postal_code":"501-1235","address":"本巣市神海字西之上","voronoi":{"type":"Feature","geometry":{"type":"Polygon","coordinates":[[[136.662113,35.535624],[136.579252,35.533138],[136.572531,35.539583],[136.605055,35.546714],[136.708874,35.552657],[136.704321,35.549986],[136.662113,35.535624]]]},"properties":{}}},
    {"code":9952614,"id":"4a9436","name":"高科","original_name":"高科","name_kana":"たかしな","closed":false,"lat":35.555099,"lng":136.641017,"prefecture":21,"lines":[99526],"attr":"cool","postal_code":"501-1301","address":"揖斐郡揖斐川町谷汲高科","voronoi":{"type":"Feature","geometry":{"type":"Polygon","coordinates":[[[136.605055,35.546714],[136.708874,35.552657],[136.780272,35.586043],[136.78099,35.618564],[136.605055,35.546714]]]},"properties":{}}},
    {"code":9952615,"id":"0f7ca5","name":"鍋原","original_name":"鍋原","name_kana":"なべら","closed":false,"lat":35.5659,"lng":136.636606,"prefecture":21,"lines":[99526],"attr":"cool","postal_code":"501-1236","address":"本巣市佐原字家佐畑","voronoi":{"type":"Feature","geometry":{"type":"Polygon","coordinates":[[[136.605055,35.546714],[136.572531,35.539583],[136.557076,35.549942],[136.781093,35.620272],[136.78099,35.618564],[136.605055,35.546714]]]},"properties":{}}},
    {"code":9952616,"id":"7fdff8","name":"日当","original_name":"日当","name_kana":"ひなた","closed":false,"lat":35.582304,"lng":136.631456,"prefecture":21,"lines":[99526],"attr":"cool","postal_code":"501-1231","address":"本巣市日当字前沖","voronoi":{"type":"Feature","geometry":{"type":"Polygon","coordinates":[[[136.781093,35.620272],[136.557076,35.549942],[136.530789,35.563772],[136.781671,35.636289],[136.782188,35.629692],[136.781093,35.620272]]]},"properties":{}}},
    {"code":9952617,"id":"5fb03b","name":"高尾(岐阜)","original_name":"高尾","name_kana":"たかお","closed":false,"lat":35.601806,"lng":136.625819,"prefecture":21,"lines":[99526],"attr":"cool","postal_code":"501-1528","address":"本巣市根尾高尾字吉尾","voronoi":{"type":"Feature","geometry":{"type":"Polygon","coordinates":[[[136.781328,35.659647],[136.507385,35.573256],[136.530789,35.563772],[136.781671,35.636289],[136.781328,35.659647]]]},"properties":{}}},
    {"code":9952618,"id":"3714dd","name":"水鳥","original_name":"水鳥","name_kana":"みどり","closed":false,"lat":35.617813,"lng":136.620771,"prefecture":21,"lines":[99526],"attr":"cool","postal_code":"501-1529","address":"本巣市根尾水鳥字下島","voronoi":{"type":"Feature","geometry":{"type":"Polygon","coordinates":[[[136.507385,35.573256],[136.472255,35.584744],[136.781814,35.673179],[136.781328,35.659647],[136.507385,35.573256]]]},"properties":{}}},
    {"code":9952619,"id":"495e1d","name":"樽見","original_name":"樽見","name_kana":"たるみ","closed":false,"lat":35.635119,"lng":136.615827,"prefecture":21,"lines":[99526],"attr":"cool","postal_code":"501-1522","address":"本巣市根尾樽見字下川原","voronoi":{"type":"Feature","geometry":{"type":"Polygon","coordinates":[[[136.734174,35.753621],[136.741317,35.74537],[136.748899,35.735165],[136.763588,35.712408],[136.782132,35.676751],[136.781814,35.673179],[136.472255,35.584744],[136.408628,35.601458],[136.391203,35.654618],[136.427824,35.765296],[136.49053,35.786719],[136.570088,35.781418],[136.734174,35.753621]]]},"properties":{}}}
  ]
}