{
  "code":99532,
  "id":"709fe0",
  "name":"養老鉄道養老線",
  "name_kana":"ようろうてつどうようろうせん",
  "station_size":27,
  "company_code":189,
  "closed":false,
  "station_list":[
    {"code":1150808,"id":"520073","name":"桑名","original_name":"桑名","name_kana":"くわな","closed":false,"lat":35.06747,"lng":136.683832,"prefecture":24,"lines":[11508,31027,99532],"attr":"eco","postal_code":"511-0811","address":"桑名市東方","voronoi":{"type":"Feature","geometry":{"type":"Polygon","coordinates":[[[136.690386,35.082437],[136.675242,35.06945],[136.678405,35.065953],[136.719391,35.070615],[136.690386,35.082437]]]},"properties":{}}},
    {"code":9953202,"id":"36fed1","name":"播磨","original_name":"播磨","name_kana":"はりま","closed":false,"lat":35.078242,"lng":136.674595,"prefecture":24,"lines":[99532],"attr":"eco","postal_code":"511-0862","address":"桑名市大字播磨２５００-３","voronoi":{"type":"Feature","geometry":{"type":"Polygon","coordinates":[[[136.684961,35.088444],[136.678924,35.094845],[136.655659,35.078273],[136.659016,35.074225],[136.670391,35.068964],[136.675242,35.06945],[136.690386,35.082437],[136.684961,35.088444]]]},"properties":{}}},
    {"code":9953203,"id":"5f6bd9","name":"下深谷","original_name":"下深谷","name_kana":"しもふかや","closed":false,"lat":35.096179,"lng":136.661818,"prefecture":24,"lines":[99532],"attr":"heat","postal_code":"511-0808","address":"桑名市大字下深谷部２２７９","voronoi":{"type":"Feature","geometry":{"type":"Polygon","coordinates":[[[136.650331,35.079677],[136.655659,35.078273],[136.678924,35.094845],[136.677259,35.12285],[136.634786,35.091441],[136.64266,35.083586],[136.650331,35.079677]]]},"properties":{}}},
    {"code":9953204,"id":"a67a29","name":"下野代","original_name":"下野代","name_kana":"しものしろ","closed":false,"lat":35.115899,"lng":136.647235,"prefecture":24,"lines":[99532],"attr":"heat","postal_code":"511-0117","address":"桑名市多度町下野代３１６２-３","voronoi":{"type":"Feature","geometry":{"type":"Polygon","coordinates":[[[136.676313,35.13686],[136.608526,35.111789],[136.621166,35.099301],[136.631031,35.09269],[136.634786,35.091441],[136.677259,35.12285],[136.678572,35.126449],[136.676313,35.13686]]]},"properties":{}}},
    {"code":9953205,"id":"da3c77","name":"多度","original_name":"多度","name_kana":"たど","closed":false,"lat":35.133855,"lng":136.640594,"prefecture":24,"lines":[99532],"attr":"cool","postal_code":"511-0105","address":"桑名市多度町小山１８６０-２","voronoi":{"type":"Feature","geometry":{"type":"Polygon","coordinates":[[[136.608526,35.111789],[136.676313,35.13686],[136.677027,35.149451],[136.675351,35.15875],[136.596746,35.135492],[136.599898,35.12443],[136.605772,35.113778],[136.606805,35.112799],[136.608526,35.111789]]]},"properties":{}}},
    {"code":9953206,"id":"e6fc4b","name":"美濃松山","original_name":"美濃松山","name_kana":"みのまつやま","closed":false,"lat":35.160724,"lng":136.632644,"prefecture":21,"lines":[99532],"attr":"eco","postal_code":"503-0535","address":"海津市南濃町松山古堤２２１","voronoi":{"type":"Feature","geometry":{"type":"Polygon","coordinates":[[[136.581089,35.158248],[136.580873,35.159026],[136.677871,35.18233],[136.678643,35.179736],[136.675351,35.15875],[136.596746,35.135492],[136.581089,35.158248]]]},"properties":{}}},
    {"code":9953207,"id":"b75397","name":"石津(岐阜)","original_name":"石津","name_kana":"いしづ","closed":false,"lat":35.181032,"lng":136.627765,"prefecture":21,"lines":[99532],"attr":"eco","postal_code":"503-0532","address":"海津市南濃町太田通９２","voronoi":{"type":"Feature","geometry":{"type":"Polygon","coordinates":[[[136.677871,35.18233],[136.580873,35.159026],[136.574144,35.172155],[136.674294,35.207212],[136.676395,35.200859],[136.677871,35.18233]]]},"properties":{}}},
    {"code":9953208,"id":"d102af","name":"美濃山崎","original_name":"美濃山崎","name_kana":"みのやまざき","closed":false,"lat":35.198658,"lng":136.621595,"prefecture":21,"lines":[99532],"attr":"eco","postal_code":"503-0415","address":"海津市南濃町山崎大立２６７","voronoi":{"type":"Feature","geometry":{"type":"Polygon","coordinates":[[[136.666863,35.248407],[136.666311,35.250148],[136.568585,35.179523],[136.574144,35.172155],[136.674294,35.207212],[136.671043,35.229685],[136.666863,35.248407]]]},"properties":{}}},
    {"code":9953209,"id":"086d46","name":"駒野","original_name":"駒野","name_kana":"こまの","closed":false,"lat":35.22385,"lng":136.603389,"prefecture":21,"lines":[99532],"attr":"eco","postal_code":"503-0411","address":"海津市南濃町駒野横道上６１７-５","voronoi":{"type":"Feature","geometry":{"type":"Polygon","coordinates":[[[136.643337,35.270814],[136.606151,35.265735],[136.552433,35.194444],[136.560652,35.185494],[136.568585,35.179523],[136.666311,35.250148],[136.666299,35.250308],[136.666189,35.250407],[136.643337,35.270814]]]},"properties":{}}},
    {"code":9953210,"id":"c7a638","name":"美濃津屋","original_name":"美濃津屋","name_kana":"みのつや","closed":false,"lat":35.251532,"lng":136.566651,"prefecture":21,"lines":[99532],"attr":"eco","postal_code":"503-0401","address":"海津市南濃町津屋借畑２６９３-５","voronoi":{"type":"Feature","geometry":{"type":"Polygon","coordinates":[[[136.487904,35.248568],[136.585057,35.275773],[136.606151,35.265735],[136.552433,35.194444],[136.531821,35.203807],[136.515861,35.218095],[136.487904,35.248568]]]},"properties":{}}},
    {"code":9953211,"id":"f50eae","name":"養老","original_name":"養老","name_kana":"ようろう","closed":false,"lat":35.28693,"lng":136.556739,"prefecture":21,"lines":[99532],"attr":"eco","postal_code":"503-1261","address":"養老郡養老町鷲巣白石道１２００","voronoi":{"type":"Feature","geometry":{"type":"Polygon","coordinates":[[[136.585057,35.275773],[136.57609,35.293068],[136.504602,35.315224],[136.461352,35.266628],[136.461303,35.266496],[136.487904,35.248568],[136.585057,35.275773]]]},"properties":{}}},
    {"code":9953212,"id":"e3a103","name":"美濃高田","original_name":"美濃高田","name_kana":"みのたかだ","closed":false,"lat":35.309074,"lng":136.563602,"prefecture":21,"lines":[99532],"attr":"heat","postal_code":"503-1314","address":"養老郡養老町高田字古宮８４２-４","voronoi":{"type":"Feature","geometry":{"type":"Polygon","coordinates":[[[136.579378,35.318338],[136.57609,35.293068],[136.504602,35.315224],[136.505637,35.316987],[136.559186,35.34562],[136.569966,35.342325],[136.57137,35.34069],[136.577852,35.326903],[136.579378,35.318338]]]},"properties":{}}},
    {"code":9953213,"id":"525b4c","name":"烏江","original_name":"烏江","name_kana":"からすえ","closed":false,"lat":35.305346,"lng":136.592258,"prefecture":21,"lines":[99532],"attr":"heat","postal_code":"503-1315","address":"養老郡養老町烏江１０７４-１","voronoi":{"type":"Feature","geometry":{"type":"Polygon","coordinates":[[[136.579378,35.318338],[136.57609,35.293068],[136.585057,35.275773],[136.606151,35.265735],[136.643337,35.270814],[136.641681,35.285581],[136.579378,35.318338]]]},"properties":{}}},
    {"code":9953214,"id":"2134f7","name":"大外羽","original_name":"大外羽","name_kana":"おおとば","closed":false,"lat":35.315092,"lng":136.597382,"prefecture":21,"lines":[99532],"attr":"heat","postal_code":"503-0963","address":"大垣市西大外羽３-２８","voronoi":{"type":"Feature","geometry":{"type":"Polygon","coordinates":[[[136.641497,35.30855],[136.577852,35.326903],[136.579378,35.318338],[136.641681,35.285581],[136.641497,35.30855]]]},"properties":{}}},
    {"code":9953215,"id":"b8d017","name":"友江","original_name":"友江","name_kana":"ともえ","closed":false,"lat":35.326501,"lng":136.600672,"prefecture":21,"lines":[99532],"attr":"heat","postal_code":"503-0955","address":"大垣市友江町２２１","voronoi":{"type":"Feature","geometry":{"type":"Polygon","coordinates":[[[136.641497,35.30855],[136.643879,35.327431],[136.57137,35.34069],[136.577852,35.326903],[136.641497,35.30855]]]},"properties":{}}},
    {"code":9953216,"id":"ac0e7c","name":"美濃青柳","original_name":"美濃青柳","name_kana":"みのやなぎ","closed":false,"lat":35.343591,"lng":136.603797,"prefecture":21,"lines":[99532],"attr":"heat","postal_code":"503-0961","address":"大垣市青柳町４２５-１","voronoi":{"type":"Feature","geometry":{"type":"Polygon","coordinates":[[[136.643879,35.327431],[136.57137,35.34069],[136.569966,35.342325],[136.583193,35.351415],[136.616031,35.352268],[136.642769,35.335784],[136.645476,35.332128],[136.643879,35.327431]]]},"properties":{}}},
    {"code":9953217,"id":"f275a1","name":"西大垣","original_name":"西大垣","name_kana":"にしおおがき","closed":false,"lat":35.360298,"lng":136.603363,"prefecture":21,"lines":[99532],"attr":"cool","postal_code":"503-0973","address":"大垣市木戸町９１０","voronoi":{"type":"Feature","geometry":{"type":"Polygon","coordinates":[[[136.583193,35.351415],[136.593381,35.366969],[136.596321,35.36724],[136.612155,35.360778],[136.616031,35.352268],[136.583193,35.351415]]]},"properties":{}}},
    {"code":1150304,"id":"a172c9","name":"大垣","original_name":"大垣","name_kana":"おおがき","closed":false,"lat":35.367096,"lng":136.618288,"prefecture":21,"lines":[11503,99526,99532],"attr":"cool","postal_code":"503-0901","address":"大垣市高屋町１丁目","voronoi":{"type":"Feature","geometry":{"type":"Polygon","coordinates":[[[136.616031,35.352268],[136.612155,35.360778],[136.612372,35.375646],[136.617409,35.385599],[136.626595,35.391481],[136.642769,35.335784],[136.616031,35.352268]]]},"properties":{}}},
    {"code":9953219,"id":"9309f3","name":"室","original_name":"室","name_kana":"むろ","closed":false,"lat":35.367272,"lng":136.606209,"prefecture":21,"lines":[99532],"attr":"cool","postal_code":"503-0973","address":"大垣市木戸町１３４-３","voronoi":{"type":"Feature","geometry":{"type":"Polygon","coordinates":[[[136.596321,35.36724],[136.612155,35.360778],[136.612372,35.375646],[136.596321,35.36724]]]},"properties":{}}},
    {"code":9953220,"id":"33f392","name":"北大垣","original_name":"北大垣","name_kana":"きたおおがき","closed":false,"lat":35.375349,"lng":136.601979,"prefecture":21,"lines":[99532],"attr":"cool","postal_code":"503-0023","address":"大垣市笠木町７６-３","voronoi":{"type":"Feature","geometry":{"type":"Polygon","coordinates":[[[136.617409,35.385599],[136.593953,35.384341],[136.591972,35.38087],[136.593381,35.366969],[136.596321,35.36724],[136.612372,35.375646],[136.617409,35.385599]]]},"properties":{}}},
    {"code":9953221,"id":"2a0741","name":"東赤坂","original_name":"東赤坂","name_kana":"ひがしあかさか","closed":false,"lat":35.39414,"lng":136.600971,"prefecture":21,"lines":[99532],"attr":"cool","postal_code":"503-2326","address":"安八郡神戸町大字中沢字村西１２４-６","voronoi":{"type":"Feature","geometry":{"type":"Polygon","coordinates":[[[136.584726,35.407637],[136.593953,35.384341],[136.617409,35.385599],[136.626595,35.391481],[136.630779,35.401652],[136.630682,35.40531],[136.630585,35.405614],[136.584726,35.407637]]]},"properties":{}}},
    {"code":9953222,"id":"3598b1","name":"広神戸","original_name":"広神戸","name_kana":"ひろごうど","closed":false,"lat":35.419651,"lng":136.602096,"prefecture":21,"lines":[99532],"attr":"cool","postal_code":"503-2305","address":"安八郡神戸町大字神戸字西浦１２２","voronoi":{"type":"Feature","geometry":{"type":"Polygon","coordinates":[[[136.634272,35.44051],[136.630105,35.448458],[136.57941,35.410856],[136.584726,35.407637],[136.630585,35.405614],[136.634272,35.44051]]]},"properties":{}}},
    {"code":9953223,"id":"1883a1","name":"北神戸","original_name":"北神戸","name_kana":"きたごうど","closed":false,"lat":35.430013,"lng":136.59441,"prefecture":21,"lines":[99532],"attr":"cool","postal_code":"503-2306","address":"安八郡神戸町大字北一色字別当野５７５-２","voronoi":{"type":"Feature","geometry":{"type":"Polygon","coordinates":[[[136.621438,35.47077],[136.599989,35.459128],[136.59485,35.453284],[136.577508,35.411395],[136.57941,35.410856],[136.630105,35.448458],[136.626638,35.458863],[136.621438,35.47077]]]},"properties":{}}},
    {"code":9953224,"id":"a79c2a","name":"池野","original_name":"池野","name_kana":"いけの","closed":false,"lat":35.436512,"lng":136.578712,"prefecture":21,"lines":[99532],"attr":"cool","postal_code":"503-2424","address":"揖斐郡池田町池野２５９-４","voronoi":{"type":"Feature","geometry":{"type":"Polygon","coordinates":[[[136.540286,35.413471],[136.546236,35.409251],[136.577508,35.411395],[136.59485,35.453284],[136.593063,35.452363],[136.540286,35.413471]]]},"properties":{}}},
    {"code":9953225,"id":"6946a6","name":"北池野","original_name":"北池野","name_kana":"きたいけの","closed":false,"lat":35.44335,"lng":136.573673,"prefecture":21,"lines":[99532],"attr":"cool","postal_code":"503-2417","address":"揖斐郡池田町本郷１５１５","voronoi":{"type":"Feature","geometry":{"type":"Polygon","coordinates":[[[136.540286,35.413471],[136.512381,35.429521],[136.593063,35.452363],[136.540286,35.413471]]]},"properties":{}}},
    {"code":9953226,"id":"53fb6e","name":"美濃本郷","original_name":"美濃本郷","name_kana":"みのほんごう","closed":false,"lat":35.449874,"lng":136.571826,"prefecture":21,"lines":[99532],"attr":"cool","postal_code":"503-2417","address":"揖斐郡池田町本郷５５０","voronoi":{"type":"Feature","geometry":{"type":"Polygon","coordinates":[[[136.512381,35.429521],[136.493887,35.438869],[136.472919,35.463542],[136.599989,35.459128],[136.59485,35.453284],[136.593063,35.452363],[136.512381,35.429521]]]},"properties":{}}},
    {"code":9953227,"id":"6c6f9b","name":"揖斐","original_name":"揖斐","name_kana":"いび","closed":false,"lat":35.470314,"lng":136.572536,"prefecture":21,"lines":[99532],"attr":"cool","postal_code":"501-0622","address":"揖斐郡揖斐川町脛永字山王元４３４","voronoi":{"type":"Feature","geometry":{"type":"Polygon","coordinates":[[[136.405885,35.53526],[136.405131,35.546381],[136.405133,35.567034],[136.408628,35.601458],[136.472255,35.584744],[136.507385,35.573256],[136.530789,35.563772],[136.557076,35.549942],[136.572531,35.539583],[136.579252,35.533138],[136.611226,35.494231],[136.621607,35.477248],[136.621835,35.475961],[136.621438,35.47077],[136.599989,35.459128],[136.472919,35.463542],[136.41491,35.519101],[136.405885,35.53526]]]},"properties":{}}}
  ]
}