{
  "code":99601,
  "id":"6b238d",
  "name":"近江鉄道本線",
  "name_kana":"おうみてつどうほんせん",
  "station_size":25,
  "company_code":190,
  "closed":false,
  "station_list":[
    {"code":100215,"id":"85e377","name":"米原","original_name":"米原","name_kana":"まいばら","closed":false,"lat":35.314657,"lng":136.289992,"prefecture":25,"lines":[1002,11415,11503,11601,99601],"attr":"cool","postal_code":"521-0012","address":"米原市米原","voronoi":{"type":"Feature","geometry":{"type":"Polygon","coordinates":[[[136.242447,35.314922],[136.235158,35.319498],[136.315927,35.328098],[136.323358,35.296594],[136.242447,35.314922]]]},"properties":{}}},
    {"code":9960102,"id":"29be5a","name":"フジテック前","original_name":"フジテック前","name_kana":"ふじてっくまえ","closed":false,"lat":35.294672,"lng":136.285465,"prefecture":25,"lines":[99601],"attr":"heat","postal_code":"522-0012","address":"彦根市甲田町３５６","voronoi":{"type":"Feature","geometry":{"type":"Polygon","coordinates":[[[136.242447,35.314922],[136.262615,35.295057],[136.333916,35.277499],[136.323358,35.296594],[136.242447,35.314922]]]},"properties":{}}},
    {"code":9960103,"id":"c358b7","name":"鳥居本","original_name":"鳥居本","name_kana":"とりいもと","closed":false,"lat":35.284788,"lng":136.283031,"prefecture":25,"lines":[99601],"attr":"heat","postal_code":"522-0004","address":"彦根市鳥居本町６５７","voronoi":{"type":"Feature","geometry":{"type":"Polygon","coordinates":[[[136.290146,35.255733],[136.283715,35.262022],[136.262615,35.295057],[136.333916,35.277499],[136.348224,35.256774],[136.290146,35.255733]]]},"properties":{}}},
    {"code":1160102,"id":"32d58b","name":"彦根","original_name":"彦根","name_kana":"ひこね","closed":false,"lat":35.272216,"lng":136.263347,"prefecture":25,"lines":[11601,99601],"attr":"cool","postal_code":"522-0007","address":"彦根市古沢町","voronoi":{"type":"Feature","geometry":{"type":"Polygon","coordinates":[[[136.2177,35.326199],[136.154376,35.327122],[136.152896,35.3231],[136.168679,35.310272],[136.22802,35.275405],[136.283715,35.262022],[136.262615,35.295057],[136.242447,35.314922],[136.235158,35.319498],[136.2177,35.326199]]]},"properties":{}}},
    {"code":9960125,"id":"ad802b","name":"ひこね芹川","original_name":"ひこね芹川","name_kana":"ひこねせりかわ","closed":false,"lat":35.262195,"lng":136.260939,"prefecture":25,"lines":[99601],"attr":"heat","postal_code":"522-0033","address":"滋賀県彦根市芹川町字矢立564-1","voronoi":{"type":"Feature","geometry":{"type":"Polygon","coordinates":[[[136.28449,35.252073],[136.290146,35.255733],[136.283715,35.262022],[136.22802,35.275405],[136.240594,35.265299],[136.280055,35.251116],[136.28449,35.252073]]]},"properties":{}}},
    {"code":9960105,"id":"1e369b","name":"彦根口","original_name":"彦根口","name_kana":"ひこねぐち","closed":false,"lat":35.254741,"lng":136.25826,"prefecture":25,"lines":[99601],"attr":"heat","postal_code":"522-0038","address":"彦根市西沼波町６５５","voronoi":{"type":"Feature","geometry":{"type":"Polygon","coordinates":[[[136.240594,35.265299],[136.25747,35.245268],[136.269493,35.246741],[136.280055,35.251116],[136.240594,35.265299]]]},"properties":{}}},
    {"code":9960106,"id":"e753a2","name":"高宮(滋賀)","original_name":"高宮","name_kana":"たかみや","closed":false,"lat":35.236266,"lng":136.260524,"prefecture":25,"lines":[99601,99602],"attr":"heat","postal_code":"522-0201","address":"彦根市高宮町８７６-１","voronoi":{"type":"Feature","geometry":{"type":"Polygon","coordinates":[[[136.25747,35.245268],[136.245578,35.230118],[136.257982,35.222121],[136.269493,35.246741],[136.25747,35.245268]]]},"properties":{}}},
    {"code":9960107,"id":"f0a015","name":"尼子","original_name":"尼子","name_kana":"あまご","closed":false,"lat":35.213967,"lng":136.246148,"prefecture":25,"lines":[99601],"attr":"heat","postal_code":"522-0242","address":"犬上郡甲良町尼子１７０６-２","voronoi":{"type":"Feature","geometry":{"type":"Polygon","coordinates":[[[136.231715,35.212364],[136.241558,35.23035],[136.245578,35.230118],[136.257982,35.222121],[136.268157,35.210947],[136.283891,35.163111],[136.231715,35.212364]]]},"properties":{}}},
    {"code":9960108,"id":"56596d","name":"豊郷(滋賀)","original_name":"豊郷","name_kana":"とよさと","closed":false,"lat":35.197863,"lng":136.230946,"prefecture":25,"lines":[99601],"attr":"heat","postal_code":"529-1168","address":"犬上郡豊郷町八目１１-１","voronoi":{"type":"Feature","geometry":{"type":"Polygon","coordinates":[[[136.283891,35.163111],[136.231715,35.212364],[136.21392,35.208703],[136.211913,35.195271],[136.30862,35.117138],[136.283891,35.163111]]]},"properties":{}}},
    {"code":9960109,"id":"07ba81","name":"愛知川","original_name":"愛知川","name_kana":"えちがわ","closed":false,"lat":35.176119,"lng":136.213378,"prefecture":25,"lines":[99601],"attr":"heat","postal_code":"529-1313","address":"愛知郡愛荘町市８９５","voronoi":{"type":"Feature","geometry":{"type":"Polygon","coordinates":[[[136.296994,35.116927],[136.234914,35.143059],[136.189605,35.17704],[136.189835,35.179919],[136.211913,35.195271],[136.30862,35.117138],[136.312019,35.112361],[136.296994,35.116927]]]},"properties":{}}},
    {"code":9960110,"id":"66533f","name":"五箇荘","original_name":"五箇荘","name_kana":"ごかしょう","closed":false,"lat":35.154476,"lng":136.197146,"prefecture":25,"lines":[99601],"attr":"heat","postal_code":"529-1422","address":"東近江市五個荘小幡町４６７-４","voronoi":{"type":"Feature","geometry":{"type":"Polygon","coordinates":[[[136.165506,35.147501],[136.16571,35.146417],[136.234914,35.143059],[136.189605,35.17704],[136.165506,35.147501]]]},"properties":{}}},
    {"code":9960111,"id":"dba433","name":"河辺の森","original_name":"河辺の森","name_kana":"かわべのもり","closed":false,"lat":35.135353,"lng":136.196218,"prefecture":25,"lines":[99601],"attr":"eco","postal_code":"527-0001","address":"東近江市建部下野町１２４１-２","voronoi":{"type":"Feature","geometry":{"type":"Polygon","coordinates":[[[136.165396,35.134677],[136.164565,35.136317],[136.16571,35.146417],[136.234914,35.143059],[136.296994,35.116927],[136.18158,35.125881],[136.168085,35.132067],[136.165396,35.134677]]]},"properties":{}}},
    {"code":9960112,"id":"b0f2fd","name":"八日市","original_name":"八日市","name_kana":"ようかいち","closed":false,"lat":35.114264,"lng":136.194582,"prefecture":25,"lines":[99601,99603],"attr":"eco","postal_code":"527-0011","address":"東近江市八日市浜野町４８５","voronoi":{"type":"Feature","geometry":{"type":"Polygon","coordinates":[[[136.312019,35.112361],[136.296994,35.116927],[136.18158,35.125881],[136.185225,35.119034],[136.208819,35.098259],[136.252722,35.081721],[136.264275,35.081536],[136.304129,35.086902],[136.334618,35.094333],[136.312019,35.112361]]]},"properties":{}}},
    {"code":9960113,"id":"7886b0","name":"長谷野","original_name":"長谷野","name_kana":"ながたにの","closed":false,"lat":35.095626,"lng":136.187561,"prefecture":25,"lines":[99601],"attr":"eco","postal_code":"527-0071","address":"東近江市今堀町８１３-１","voronoi":{"type":"Feature","geometry":{"type":"Polygon","coordinates":[[[136.241512,35.08021],[136.217592,35.080267],[136.175082,35.095687],[136.176533,35.099556],[136.189115,35.103048],[136.208819,35.098259],[136.252722,35.081721],[136.241512,35.08021]]]},"properties":{}}},
    {"code":9960114,"id":"bc9738","name":"大学前(滋賀)","original_name":"大学前","name_kana":"だいがくまえ","closed":false,"lat":35.087733,"lng":136.184698,"prefecture":25,"lines":[99601],"attr":"cool","postal_code":"527-0081","address":"東近江市布施町中ノ山２９-２","voronoi":{"type":"Feature","geometry":{"type":"Polygon","coordinates":[[[136.175082,35.095687],[136.167182,35.086345],[136.194145,35.077383],[136.217592,35.080267],[136.175082,35.095687]]]},"properties":{}}},
    {"code":9960115,"id":"8066a1","name":"京セラ前","original_name":"京セラ前","name_kana":"きょうせらまえ","closed":false,"lat":35.074748,"lng":136.180382,"prefecture":25,"lines":[99601],"attr":"cool","postal_code":"529-1571","address":"東近江市川合町字皆込１３-１６","voronoi":{"type":"Feature","geometry":{"type":"Polygon","coordinates":[[[136.120744,35.051757],[136.120892,35.051939],[136.145503,35.075363],[136.167182,35.086345],[136.194145,35.077383],[136.138194,35.036378],[136.126147,35.04461],[136.120744,35.051757]]]},"properties":{}}},
    {"code":9960116,"id":"dc48ca","name":"桜川(滋賀)","original_name":"桜川","name_kana":"さくらがわ","closed":false,"lat":35.065052,"lng":136.187488,"prefecture":25,"lines":[99601],"attr":"cool","postal_code":"529-1572","address":"東近江市桜川西町７８","voronoi":{"type":"Feature","geometry":{"type":"Polygon","coordinates":[[[136.217592,35.080267],[136.194145,35.077383],[136.138194,35.036378],[136.139021,35.035674],[136.241512,35.08021],[136.217592,35.080267]]]},"properties":{}}},
    {"code":9960117,"id":"e0ecb3","name":"朝日大塚","original_name":"朝日大塚","name_kana":"あさひおおつか","closed":false,"lat":35.05106,"lng":136.193568,"prefecture":25,"lines":[99601],"attr":"cool","postal_code":"529-1512","address":"東近江市大塚町３１５-３","voronoi":{"type":"Feature","geometry":{"type":"Polygon","coordinates":[[[136.264275,35.081536],[136.252722,35.081721],[136.241512,35.08021],[136.139021,35.035674],[136.15346,35.019564],[136.155549,35.019109],[136.162823,35.018377],[136.264275,35.081536]]]},"properties":{}}},
    {"code":9960118,"id":"ba31f1","name":"朝日野","original_name":"朝日野","name_kana":"あさひの","closed":false,"lat":35.03154,"lng":136.20572,"prefecture":25,"lines":[99601],"attr":"cool","postal_code":"529-1522","address":"東近江市鋳物師町９０３-２","voronoi":{"type":"Feature","geometry":{"type":"Polygon","coordinates":[[[136.304129,35.086902],[136.192156,35.007356],[136.162823,35.018377],[136.264275,35.081536],[136.304129,35.086902]]]},"properties":{}}},
    {"code":9960119,"id":"fbfc2b","name":"日野(滋賀)","original_name":"日野","name_kana":"ひの","closed":false,"lat":35.012203,"lng":136.219457,"prefecture":25,"lines":[99601],"attr":"cool","postal_code":"529-1644","address":"蒲生郡日野町内池７５４-５","voronoi":{"type":"Feature","geometry":{"type":"Polygon","coordinates":[[[136.304129,35.086902],[136.192156,35.007356],[136.242749,34.955121],[136.261396,34.953981],[136.324419,34.959163],[136.346448,34.974863],[136.346727,35.09068],[136.334618,35.094333],[136.304129,35.086902]]]},"properties":{}}},
    {"code":9960120,"id":"0ebc68","name":"水口松尾","original_name":"水口松尾","name_kana":"みなくちまつお","closed":false,"lat":34.980224,"lng":136.18644,"prefecture":25,"lines":[99601],"attr":"eco","postal_code":"528-0005","address":"甲賀市水口町水口字知神１６３７-１","voronoi":{"type":"Feature","geometry":{"type":"Polygon","coordinates":[[[136.242749,34.955121],[136.192156,35.007356],[136.162823,35.018377],[136.155549,35.019109],[136.198885,34.949537],[136.225243,34.949301],[136.242749,34.955121]]]},"properties":{}}},
    {"code":9960121,"id":"bb43f3","name":"水口","original_name":"水口","name_kana":"みなくち","closed":false,"lat":34.974238,"lng":136.17683,"prefecture":25,"lines":[99601],"attr":"eco","postal_code":"528-0005","address":"甲賀市水口町水口２４６９","voronoi":{"type":"Feature","geometry":{"type":"Polygon","coordinates":[[[136.155549,35.019109],[136.198885,34.949537],[136.195118,34.948918],[136.192428,34.949415],[136.163397,34.985686],[136.15163,35.007411],[136.15346,35.019564],[136.155549,35.019109]]]},"properties":{}}},
    {"code":9960122,"id":"1f3979","name":"水口石橋","original_name":"水口石橋","name_kana":"みなくちいしばし","closed":false,"lat":34.970072,"lng":136.171625,"prefecture":25,"lines":[99601],"attr":"eco","postal_code":"528-0014","address":"甲賀市水口町鹿深４５０８-１","voronoi":{"type":"Feature","geometry":{"type":"Polygon","coordinates":[[[136.174482,34.950651],[136.163397,34.985686],[136.192428,34.949415],[136.174482,34.950651]]]},"properties":{}}},
    {"code":9960123,"id":"10e5b5","name":"水口城南","original_name":"水口城南","name_kana":"みなくちじょうなん","closed":false,"lat":34.968181,"lng":136.165648,"prefecture":25,"lines":[99601],"attr":"eco","postal_code":"528-0005","address":"甲賀市水口町水口字宮ノ下５６６８-２","voronoi":{"type":"Feature","geometry":{"type":"Polygon","coordinates":[[[136.172804,34.950496],[136.141188,34.973977],[136.15163,35.007411],[136.163397,34.985686],[136.174482,34.950651],[136.172804,34.950496]]]},"properties":{}}},
    {"code":1151106,"id":"2fb546","name":"貴生川","original_name":"貴生川","name_kana":"きぶかわ","closed":false,"lat":34.952236,"lng":136.153806,"prefecture":25,"lines":[11511,99601,99604],"attr":"eco","postal_code":"528-0041","address":"甲賀市水口町虫生野","voronoi":{"type":"Feature","geometry":{"type":"Polygon","coordinates":[[[136.115394,34.943897],[136.141188,34.973977],[136.172804,34.950496],[136.129553,34.918354],[136.115394,34.943897]]]},"properties":{}}}
  ]
}