{
  "code":99617,
  "id":"34a778",
  "name":"水間鉄道",
  "name_kana":"みずまてつどう",
  "name_formal":"水間鉄道水間線",
  "station_size":10,
  "company_code":199,
  "closed":false,
  "station_list":[
    {"code":3200124,"id":"5ab0dd","name":"貝塚(大阪)","original_name":"貝塚","name_kana":"かいづか","closed":false,"lat":34.445499,"lng":135.357485,"prefecture":27,"lines":[32001,99617],"attr":"eco","postal_code":"597-0083","address":"貝塚市海塚２５０-２","voronoi":{"type":"Feature","geometry":{"type":"Polygon","coordinates":[[[135.366903,34.447443],[135.292644,34.534514],[135.296199,34.49182],[135.351672,34.438829],[135.366473,34.446212],[135.366903,34.447443]]]},"properties":{}}},
    {"code":9961702,"id":"200e0f","name":"貝塚市役所前","original_name":"貝塚市役所前","name_kana":"かいづかしやくしょまえ","closed":false,"lat":34.439461,"lng":135.360497,"prefecture":27,"lines":[99617],"attr":"eco","postal_code":"597-0072","address":"貝塚市畠中３１","voronoi":{"type":"Feature","geometry":{"type":"Polygon","coordinates":[[[135.351672,34.438829],[135.353691,34.434273],[135.35701,34.433796],[135.366633,34.442806],[135.366473,34.446212],[135.351672,34.438829]]]},"properties":{}}},
    {"code":9961703,"id":"b38782","name":"近義の里","original_name":"近義の里","name_kana":"こぎのさと","closed":false,"lat":34.436903,"lng":135.362892,"prefecture":27,"lines":[99617],"attr":"eco","postal_code":"597-0084","address":"貝塚市鳥羽２７６","voronoi":{"type":"Feature","geometry":{"type":"Polygon","coordinates":[[[135.35701,34.433796],[135.366633,34.442806],[135.368633,34.436348],[135.362683,34.431336],[135.35701,34.433796]]]},"properties":{}}},
    {"code":9961704,"id":"59f219","name":"石才","original_name":"石才","name_kana":"いしざい","closed":false,"lat":34.430596,"lng":135.368205,"prefecture":27,"lines":[99617],"attr":"eco","postal_code":"597-0082","address":"貝塚市石才５２９","voronoi":{"type":"Feature","geometry":{"type":"Polygon","coordinates":[[[135.362683,34.431336],[135.368633,34.436348],[135.376791,34.432163],[135.365092,34.424266],[135.362683,34.431336]]]},"properties":{}}},
    {"code":9961705,"id":"c2bd77","name":"清児","original_name":"清児","name_kana":"せちご","closed":false,"lat":34.424786,"lng":135.372127,"prefecture":27,"lines":[99617],"attr":"eco","postal_code":"597-0041","address":"貝塚市清児８６６","voronoi":{"type":"Feature","geometry":{"type":"Polygon","coordinates":[[[135.363492,34.414314],[135.363276,34.414905],[135.365092,34.424266],[135.376791,34.432163],[135.383456,34.431758],[135.363492,34.414314]]]},"properties":{}}},
    {"code":9961706,"id":"9998cd","name":"名越","original_name":"名越","name_kana":"なごせ","closed":false,"lat":34.421467,"lng":135.375027,"prefecture":27,"lines":[99617],"attr":"heat","postal_code":"597-0042","address":"貝塚市名越７０２","voronoi":{"type":"Feature","geometry":{"type":"Polygon","coordinates":[[[135.363492,34.414314],[135.365209,34.405264],[135.392139,34.430859],[135.388459,34.432289],[135.383456,34.431758],[135.363492,34.414314]]]},"properties":{}}},
    {"code":9961707,"id":"dd2e9a","name":"森(大阪)","original_name":"森","name_kana":"もり","closed":false,"lat":34.414246,"lng":135.38189,"prefecture":27,"lines":[99617],"attr":"heat","postal_code":"597-0044","address":"貝塚市森５４８","voronoi":{"type":"Feature","geometry":{"type":"Polygon","coordinates":[[[135.392139,34.430859],[135.409149,34.428935],[135.413362,34.427475],[135.365131,34.404266],[135.365209,34.405264],[135.392139,34.430859]]]},"properties":{}}},
    {"code":9961708,"id":"8d5e34","name":"三ツ松","original_name":"三ツ松","name_kana":"みつまつ","closed":false,"lat":34.411135,"lng":135.383387,"prefecture":27,"lines":[99617],"attr":"heat","postal_code":"597-0105","address":"貝塚市三ツ松８３２","voronoi":{"type":"Feature","geometry":{"type":"Polygon","coordinates":[[[135.364684,34.401621],[135.365131,34.404266],[135.413362,34.427475],[135.421774,34.425028],[135.369638,34.40305],[135.364684,34.401621]]]},"properties":{}}},
    {"code":9961709,"id":"e29833","name":"三ヶ山口","original_name":"三ヶ山口","name_kana":"みけやまぐち","closed":false,"lat":34.407247,"lng":135.385026,"prefecture":27,"lines":[99617],"attr":"cool","postal_code":"597-0045","address":"大阪府貝塚市三ツ松","voronoi":{"type":"Feature","geometry":{"type":"Polygon","coordinates":[[[135.369638,34.40305],[135.421774,34.425028],[135.42879,34.423374],[135.436635,34.413048],[135.369638,34.40305]]]},"properties":{}}},
    {"code":9961710,"id":"f6252e","name":"水間観音","original_name":"水間観音","name_kana":"みずまかんのん","closed":false,"lat":34.403528,"lng":135.385581,"prefecture":27,"lines":[99617],"attr":"cool","postal_code":"597-0104","address":"大阪府貝塚市水間","voronoi":{"type":"Feature","geometry":{"type":"Polygon","coordinates":[[[135.413818,34.339775],[135.384897,34.335724],[135.373028,34.335201],[135.362036,34.381885],[135.36288,34.396782],[135.364684,34.401621],[135.369638,34.40305],[135.436635,34.413048],[135.465547,34.37772],[135.453743,34.365563],[135.437587,34.351884],[135.418313,34.341424],[135.413818,34.339775]]]},"properties":{}}}
  ]
}