{
  "code":99637,
  "id":"2f164e",
  "name":"山陽電鉄本線",
  "name_kana":"さんようでんてつほんせん",
  "station_size":43,
  "company_code":206,
  "closed":false,
  "color":"#FA2B08",
  "symbol":"SY",
  "station_list":[
    {"code":9963009,"id":"9cdbe5","name":"西代","original_name":"西代","name_kana":"にしだい","closed":false,"lat":34.662374,"lng":135.144085,"prefecture":28,"numbering":["SY01"],"lines":[99630,99637],"attr":"heat","postal_code":"653-0843","address":"神戸市長田区御屋敷通２-１１","voronoi":{"type":"Feature","geometry":{"type":"Polygon","coordinates":[[[135.140998,34.673662],[135.145958,34.66766],[135.150171,34.661214],[135.139284,34.658726],[135.135951,34.674112],[135.13938,34.674125],[135.140998,34.673662]]]},"properties":{}}},
    {"code":9963702,"id":"53bc9d","name":"板宿","original_name":"板宿","name_kana":"いたやど","closed":false,"lat":34.66006,"lng":135.133403,"prefecture":28,"numbering":["SY02"],"lines":[99637,99645],"attr":"heat","postal_code":"654-0021","address":"神戸市須磨区平田町３-３-１０","voronoi":{"type":"Feature","geometry":{"type":"Polygon","coordinates":[[[135.138886,34.656878],[135.139284,34.658726],[135.135951,34.674112],[135.128002,34.677368],[135.12191,34.667947],[135.132382,34.655427],[135.138886,34.656878]]]},"properties":{}}},
    {"code":9963703,"id":"5a943a","name":"東須磨","original_name":"東須磨","name_kana":"ひがしすま","closed":false,"lat":34.655241,"lng":135.127642,"prefecture":28,"numbering":["SY03"],"lines":[99637],"attr":"heat","postal_code":"654-0014","address":"神戸市須磨区若木町１-１","voronoi":{"type":"Feature","geometry":{"type":"Polygon","coordinates":[[[135.12191,34.667947],[135.115712,34.662468],[135.125957,34.651357],[135.130236,34.650844],[135.132382,34.655427],[135.12191,34.667947]]]},"properties":{}}},
    {"code":9963704,"id":"835010","name":"月見山","original_name":"月見山","name_kana":"つきみやま","closed":false,"lat":34.649992,"lng":135.121949,"prefecture":28,"numbering":["SY04"],"lines":[99637],"attr":"heat","postal_code":"654-0063","address":"神戸市須磨区月見山町２","voronoi":{"type":"Feature","geometry":{"type":"Polygon","coordinates":[[[135.125957,34.651357],[135.121714,34.644214],[135.110721,34.660102],[135.115712,34.662468],[135.125957,34.651357]]]},"properties":{}}},
    {"code":9963705,"id":"21798c","name":"須磨寺","original_name":"須磨寺","name_kana":"すまでら","closed":false,"lat":34.646031,"lng":135.116224,"prefecture":28,"numbering":["SY05"],"lines":[99637],"attr":"heat","postal_code":"654-0071","address":"神戸市須磨区須磨寺町１","voronoi":{"type":"Feature","geometry":{"type":"Polygon","coordinates":[[[135.105143,34.658912],[135.114689,34.644006],[135.122526,34.636859],[135.121714,34.644214],[135.110721,34.660102],[135.105143,34.658912]]]},"properties":{}}},
    {"code":9963706,"id":"2d9521","name":"山陽須磨","original_name":"山陽須磨","name_kana":"さんようすま","closed":false,"lat":34.643459,"lng":135.112208,"prefecture":28,"numbering":["SY06"],"lines":[99637],"attr":"heat","postal_code":"654-0055","address":"神戸市須磨区須磨浦通５-７-２","voronoi":{"type":"Feature","geometry":{"type":"Polygon","coordinates":[[[135.114689,34.644006],[135.106581,34.639796],[135.097977,34.658414],[135.105143,34.658912],[135.114689,34.644006]]]},"properties":{}}},
    {"code":9963707,"id":"b6831d","name":"須磨浦公園","original_name":"須磨浦公園","name_kana":"すまうらこうえん","closed":false,"lat":34.637884,"lng":135.100145,"prefecture":28,"numbering":["SY07"],"lines":[99637],"attr":"heat","postal_code":"654-0076","address":"神戸市須磨区一ノ谷町５-３-２","voronoi":{"type":"Feature","geometry":{"type":"Polygon","coordinates":[[[135.106581,34.639796],[135.148193,34.520201],[135.125983,34.504439],[135.086158,34.657148],[135.09727,34.6586],[135.097977,34.658414],[135.106581,34.639796]]]},"properties":{}}},
    {"code":9963708,"id":"7494ad","name":"山陽塩屋","original_name":"山陽塩屋","name_kana":"さんようしおや","closed":false,"lat":34.633579,"lng":135.082389,"prefecture":28,"numbering":["SY08"],"lines":[99637],"attr":"heat","postal_code":"655-0872","address":"神戸市垂水区塩屋町１","voronoi":{"type":"Feature","geometry":{"type":"Polygon","coordinates":[[[135.084651,34.657522],[135.081676,34.617363],[135.071201,34.656646],[135.082309,34.658153],[135.084651,34.657522]]]},"properties":{}}},
    {"code":9963709,"id":"ccb8e9","name":"滝の茶屋","original_name":"滝の茶屋","name_kana":"たきのちゃや","closed":false,"lat":34.631071,"lng":135.072984,"prefecture":28,"numbering":["SY09"],"lines":[99637],"attr":"heat","postal_code":"655-0884","address":"神戸市垂水区城が山１","voronoi":{"type":"Feature","geometry":{"type":"Polygon","coordinates":[[[135.067294,34.656865],[135.06325,34.655638],[135.097962,34.480903],[135.11103,34.492321],[135.081676,34.617363],[135.071201,34.656646],[135.067294,34.656865]]]},"properties":{}}},
    {"code":9963710,"id":"3d8211","name":"東垂水","original_name":"東垂水","name_kana":"ひがしたるみ","closed":false,"lat":34.629216,"lng":135.063646,"prefecture":28,"numbering":["SY10"],"lines":[99637],"attr":"heat","postal_code":"655-0892","address":"神戸市垂水区平磯２","voronoi":{"type":"Feature","geometry":{"type":"Polygon","coordinates":[[[135.06325,34.655638],[135.097962,34.480903],[135.085705,34.4695],[135.058147,34.463015],[135.058781,34.635186],[135.059284,34.655186],[135.06325,34.655638]]]},"properties":{}}},
    {"code":9963711,"id":"e1d9fd","name":"山陽垂水","original_name":"山陽垂水","name_kana":"さんようたるみ","closed":false,"lat":34.629468,"lng":135.053622,"prefecture":28,"numbering":["SY11"],"lines":[99637],"attr":"heat","postal_code":"655-0027","address":"神戸市垂水区神田町１-３７","voronoi":{"type":"Feature","geometry":{"type":"Polygon","coordinates":[[[135.050036,34.655909],[135.04765,34.622303],[135.058781,34.635186],[135.059284,34.655186],[135.050036,34.655909]]]},"properties":{}}},
    {"code":9963712,"id":"54d0e4","name":"霞ヶ丘(兵庫)","original_name":"霞ヶ丘","name_kana":"かすみがおか","closed":false,"lat":34.63024,"lng":135.04275,"prefecture":28,"numbering":["SY12"],"lines":[99637],"attr":"heat","postal_code":"655-0035","address":"神戸市垂水区五色山五丁目","voronoi":{"type":"Feature","geometry":{"type":"Polygon","coordinates":[[[135.032902,34.456286],[135.04765,34.622303],[135.050036,34.655909],[135.048623,34.656321],[135.040537,34.637584],[134.976159,34.443592],[134.99881,34.446018],[135.032902,34.456286]]]},"properties":{}}},
    {"code":9963713,"id":"a7fcd9","name":"舞子公園","original_name":"舞子公園","name_kana":"まいここうえん","closed":false,"lat":34.634156,"lng":135.033676,"prefecture":28,"numbering":["SY13"],"lines":[99637],"attr":"heat","postal_code":"655-0046","address":"神戸市垂水区舞子台２","voronoi":{"type":"Feature","geometry":{"type":"Polygon","coordinates":[[[135.040537,34.637584],[135.023166,34.626925],[135.047652,34.656813],[135.048623,34.656321],[135.040537,34.637584]]]},"properties":{}}},
    {"code":9963714,"id":"6ad625","name":"西舞子","original_name":"西舞子","name_kana":"にしまいこ","closed":false,"lat":34.638653,"lng":135.028187,"prefecture":28,"numbering":["SY14"],"lines":[99637],"attr":"heat","postal_code":"655-0048","address":"神戸市垂水区西舞子２","voronoi":{"type":"Feature","geometry":{"type":"Polygon","coordinates":[[[135.047652,34.656813],[135.023166,34.626925],[135.004986,34.606961],[135.034215,34.663394],[135.040556,34.661702],[135.047652,34.656813]]]},"properties":{}}},
    {"code":9963715,"id":"376ec7","name":"大蔵谷","original_name":"大蔵谷","name_kana":"おおくらだに","closed":false,"lat":34.646585,"lng":135.008367,"prefecture":28,"numbering":["SY15"],"lines":[99637],"attr":"heat","postal_code":"673-0871","address":"明石市大蔵八幡町","voronoi":{"type":"Feature","geometry":{"type":"Polygon","coordinates":[[[135.010454,34.676656],[134.996117,34.59139],[135.001462,34.601636],[135.019717,34.671308],[135.015798,34.674437],[135.010454,34.676656]]]},"properties":{}}},
    {"code":9963716,"id":"47aeba","name":"人丸前","original_name":"人丸前","name_kana":"ひとまるまえ","closed":false,"lat":34.647556,"lng":135.002592,"prefecture":28,"numbering":["SY16"],"lines":[99637],"attr":"heat","postal_code":"673-0875","address":"明石市大蔵天神町","voronoi":{"type":"Feature","geometry":{"type":"Polygon","coordinates":[[[135.002493,34.680913],[134.998725,34.656056],[134.989011,34.575852],[134.996117,34.59139],[135.010454,34.676656],[135.002493,34.680913]]]},"properties":{}}},
    {"code":9963717,"id":"33722f","name":"山陽明石","original_name":"山陽明石","name_kana":"さんようあかし","closed":false,"lat":34.648725,"lng":134.99294,"prefecture":28,"numbering":["SY17"],"lines":[99637],"attr":"heat","postal_code":"673-0891","address":"明石市大明石町１-４-１","voronoi":{"type":"Feature","geometry":{"type":"Polygon","coordinates":[[[134.979233,34.550055],[134.989011,34.575852],[134.998725,34.656056],[134.986229,34.641159],[134.979233,34.550055]]]},"properties":{}}},
    {"code":9963718,"id":"ea6415","name":"西新町","original_name":"西新町","name_kana":"にししんまち","closed":false,"lat":34.649661,"lng":134.980752,"prefecture":28,"numbering":["SY18"],"lines":[99637],"attr":"heat","postal_code":"673-0023","address":"明石市西新町３","voronoi":{"type":"Feature","geometry":{"type":"Polygon","coordinates":[[[134.979233,34.550055],[134.944935,34.439542],[134.937155,34.437463],[134.975012,34.663568],[134.988145,34.680218],[134.986229,34.641159],[134.979233,34.550055]]]},"properties":{}}},
    {"code":9963719,"id":"eb557b","name":"林崎松江海岸","original_name":"林崎松江海岸","name_kana":"はやしさきまつえかいがん","closed":false,"lat":34.652289,"lng":134.965056,"prefecture":28,"numbering":["SY19"],"lines":[99637],"attr":"heat","postal_code":"673-0035","address":"明石市南貴崎町","voronoi":{"type":"Feature","geometry":{"type":"Polygon","coordinates":[[[134.797497,34.407575],[134.809731,34.398352],[134.937155,34.437463],[134.975012,34.663568],[134.955489,34.656537],[134.797497,34.407575]]]},"properties":{}}},
    {"code":9963720,"id":"eed86d","name":"藤江","original_name":"藤江","name_kana":"ふじえ","closed":false,"lat":34.663385,"lng":134.947571,"prefecture":28,"numbering":["SY20"],"lines":[99637],"attr":"heat","postal_code":"673-0044","address":"明石市藤江大塚","voronoi":{"type":"Feature","geometry":{"type":"Polygon","coordinates":[[[134.797497,34.407575],[134.788442,34.413918],[134.862976,34.545912],[134.94632,34.673977],[134.951517,34.676327],[134.955489,34.656537],[134.797497,34.407575]]]},"properties":{}}},
    {"code":9963721,"id":"794987","name":"中八木","original_name":"中八木","name_kana":"なかやぎ","closed":false,"lat":34.670832,"lng":134.936128,"prefecture":28,"numbering":["SY21"],"lines":[99637],"attr":"heat","postal_code":"674-0063","address":"明石市大久保町八木道重","voronoi":{"type":"Feature","geometry":{"type":"Polygon","coordinates":[[[134.862976,34.545912],[134.94632,34.673977],[134.929825,34.678541],[134.862976,34.545912]]]},"properties":{}}},
    {"code":9963722,"id":"3f8b68","name":"江井ヶ島","original_name":"江井ヶ島","name_kana":"えいがしま","closed":false,"lat":34.679022,"lng":134.919879,"prefecture":28,"numbering":["SY22"],"lines":[99637],"attr":"eco","postal_code":"674-0064","address":"兵庫県明石市大久保町江井島字辻鼻","voronoi":{"type":"Feature","geometry":{"type":"Polygon","coordinates":[[[134.862976,34.545912],[134.788442,34.413918],[134.768906,34.426092],[134.920372,34.693624],[134.9268,34.698747],[134.929825,34.678541],[134.862976,34.545912]]]},"properties":{}}},
    {"code":9963723,"id":"a71762","name":"西江井ヶ島","original_name":"西江井ヶ島","name_kana":"にしえいがしま","closed":false,"lat":34.685688,"lng":134.908105,"prefecture":28,"numbering":["SY23"],"lines":[99637],"attr":"eco","postal_code":"674-0065","address":"兵庫県明石市大久保町西島高見","voronoi":{"type":"Feature","geometry":{"type":"Polygon","coordinates":[[[134.757512,34.432834],[134.768906,34.426092],[134.920372,34.693624],[134.907104,34.691052],[134.757512,34.432834]]]},"properties":{}}},
    {"code":9963724,"id":"ecbca5","name":"山陽魚住","original_name":"山陽魚住","name_kana":"さんよううおずみ","closed":false,"lat":34.689252,"lng":134.901953,"prefecture":28,"numbering":["SY24"],"lines":[99637],"attr":"eco","postal_code":"674-0082","address":"明石市魚住町中尾","voronoi":{"type":"Feature","geometry":{"type":"Polygon","coordinates":[[[134.757512,34.432834],[134.716406,34.456493],[134.812123,34.590204],[134.896674,34.696997],[134.907104,34.691052],[134.757512,34.432834]]]},"properties":{}}},
    {"code":9963725,"id":"8fdd58","name":"東二見","original_name":"東二見","name_kana":"ひがしふたみ","closed":false,"lat":34.700359,"lng":134.887924,"prefecture":28,"numbering":["SY25"],"lines":[99637],"attr":"eco","postal_code":"674-0092","address":"明石市二見町東二見藤寄","voronoi":{"type":"Feature","geometry":{"type":"Polygon","coordinates":[[[134.886603,34.710511],[134.812123,34.590204],[134.896674,34.696997],[134.899488,34.709872],[134.886603,34.710511]]]},"properties":{}}},
    {"code":9963726,"id":"dc8b1c","name":"西二見","original_name":"西二見","name_kana":"にしふたみ","closed":false,"lat":34.707167,"lng":134.876927,"prefecture":28,"numbering":["SY26"],"lines":[99637],"attr":"eco","postal_code":"674-0094","address":"明石市二見町西二見池ノ下１４８１-２","voronoi":{"type":"Feature","geometry":{"type":"Polygon","coordinates":[[[134.886603,34.710511],[134.812123,34.590204],[134.716406,34.456493],[134.685125,34.472403],[134.766631,34.608064],[134.79131,34.636155],[134.878711,34.71762],[134.886603,34.710511]]]},"properties":{}}},
    {"code":9963727,"id":"2de997","name":"播磨町","original_name":"播磨町","name_kana":"はりまちょう","closed":false,"lat":34.716574,"lng":134.868159,"prefecture":28,"numbering":["SY27"],"lines":[99637],"attr":"eco","postal_code":"675-0100","address":"加古郡播磨町野添松の内","voronoi":{"type":"Feature","geometry":{"type":"Polygon","coordinates":[[[134.876204,34.730938],[134.878711,34.71762],[134.79131,34.636155],[134.86563,34.731329],[134.876204,34.730938]]]},"properties":{}}},
    {"code":9963728,"id":"cc136a","name":"別府(兵庫)","original_name":"別府","name_kana":"べふ","closed":false,"lat":34.730206,"lng":134.850702,"prefecture":28,"numbering":["SY28"],"lines":[99637],"attr":"eco","postal_code":"675-0123","address":"加古川市別府町朝日町","voronoi":{"type":"Feature","geometry":{"type":"Polygon","coordinates":[[[134.79131,34.636155],[134.766631,34.608064],[134.780546,34.63897],[134.85084,34.748851],[134.86563,34.731329],[134.79131,34.636155]]]},"properties":{}}},
    {"code":9963729,"id":"49717f","name":"浜の宮","original_name":"浜の宮","name_kana":"はまのみや","closed":false,"lat":34.74091,"lng":134.83397,"prefecture":28,"numbering":["SY29"],"lines":[99637],"attr":"eco","postal_code":"675-0022","address":"加古川市尾上町口里","voronoi":{"type":"Feature","geometry":{"type":"Polygon","coordinates":[[[134.780546,34.63897],[134.802738,34.702387],[134.833337,34.754978],[134.850473,34.75147],[134.85084,34.748851],[134.780546,34.63897]]]},"properties":{}}},
    {"code":9963730,"id":"e2bb00","name":"尾上の松","original_name":"尾上の松","name_kana":"おのえのまつ","closed":false,"lat":34.748576,"lng":134.820794,"prefecture":28,"numbering":["SY30"],"lines":[99637],"attr":"eco","postal_code":"675-0027","address":"加古川市尾上町今福","voronoi":{"type":"Feature","geometry":{"type":"Polygon","coordinates":[[[134.814507,34.766216],[134.802738,34.702387],[134.833337,34.754978],[134.820398,34.767621],[134.814507,34.766216]]]},"properties":{}}},
    {"code":9963731,"id":"f76763","name":"高砂(兵庫)","original_name":"高砂","name_kana":"たかさご","closed":false,"lat":34.751978,"lng":134.802343,"prefecture":28,"numbering":["SY31"],"lines":[99637],"attr":"eco","postal_code":"676-0022","address":"高砂市高砂町浜田町２-１-１","voronoi":{"type":"Feature","geometry":{"type":"Polygon","coordinates":[[[134.65036,34.484176],[134.685125,34.472403],[134.766631,34.608064],[134.780546,34.63897],[134.802738,34.702387],[134.814507,34.766216],[134.807062,34.768443],[134.698414,34.606501],[134.691894,34.592414],[134.669131,34.535471],[134.65036,34.484176]]]},"properties":{}}},
    {"code":9963732,"id":"a82855","name":"荒井(兵庫)","original_name":"荒井","name_kana":"あらい","closed":false,"lat":34.757833,"lng":134.793616,"prefecture":28,"numbering":["SY32"],"lines":[99637],"attr":"eco","postal_code":"676-0016","address":"高砂市荒井町扇町","voronoi":{"type":"Feature","geometry":{"type":"Polygon","coordinates":[[[134.763298,34.743487],[134.802874,34.771323],[134.807062,34.768443],[134.698414,34.606501],[134.747794,34.721994],[134.754692,34.733564],[134.763298,34.743487]]]},"properties":{}}},
    {"code":9963733,"id":"b7c5bf","name":"伊保","original_name":"伊保","name_kana":"いほ","closed":false,"lat":34.767171,"lng":134.787048,"prefecture":28,"numbering":["SY33"],"lines":[99637],"attr":"eco","postal_code":"676-0072","address":"高砂市伊保港町","voronoi":{"type":"Feature","geometry":{"type":"Polygon","coordinates":[[[134.763298,34.743487],[134.790157,34.787952],[134.790872,34.788423],[134.802874,34.771323],[134.763298,34.743487]]]},"properties":{}}},
    {"code":9963734,"id":"4d9c22","name":"山陽曽根","original_name":"山陽曽根","name_kana":"さんようそね","closed":false,"lat":34.77553,"lng":134.77321,"prefecture":28,"numbering":["SY34"],"lines":[99637],"attr":"cool","postal_code":"676-0082","address":"高砂市曽根町入江浜","voronoi":{"type":"Feature","geometry":{"type":"Polygon","coordinates":[[[134.754692,34.733564],[134.763298,34.743487],[134.790157,34.787952],[134.766853,34.783531],[134.754692,34.733564]]]},"properties":{}}},
    {"code":9963735,"id":"f7470f","name":"大塩","original_name":"大塩","name_kana":"おおしお","closed":false,"lat":34.779346,"lng":134.757531,"prefecture":28,"numbering":["SY35"],"lines":[99637],"attr":"cool","postal_code":"671-0103","address":"姫路市大塩町宮前","voronoi":{"type":"Feature","geometry":{"type":"Polygon","coordinates":[[[134.747794,34.721994],[134.750204,34.791604],[134.756539,34.792625],[134.766853,34.783531],[134.754692,34.733564],[134.747794,34.721994]]]},"properties":{}}},
    {"code":9963736,"id":"840b3c","name":"的形","original_name":"的形","name_kana":"まとがた","closed":false,"lat":34.779882,"lng":134.742047,"prefecture":28,"numbering":["SY36"],"lines":[99637],"attr":"cool","postal_code":"670-0000","address":"姫路市的形町小島東","voronoi":{"type":"Feature","geometry":{"type":"Polygon","coordinates":[[[134.691894,34.592414],[134.698414,34.606501],[134.747794,34.721994],[134.750204,34.791604],[134.735862,34.797899],[134.7353,34.797799],[134.691894,34.592414]]]},"properties":{}}},
    {"code":9963737,"id":"e7b3ed","name":"八家","original_name":"八家","name_kana":"やか","closed":false,"lat":34.784144,"lng":134.72188,"prefecture":28,"numbering":["SY37"],"lines":[99637],"attr":"cool","postal_code":"672-8015","address":"姫路市八家前浜","voronoi":{"type":"Feature","geometry":{"type":"Polygon","coordinates":[[[134.691894,34.592414],[134.669131,34.535471],[134.71794,34.804431],[134.718817,34.804636],[134.7353,34.797799],[134.691894,34.592414]]]},"properties":{}}},
    {"code":9963738,"id":"931d19","name":"白浜の宮","original_name":"白浜の宮","name_kana":"しらはまのみや","closed":false,"lat":34.786822,"lng":134.707123,"prefecture":28,"numbering":["SY38"],"lines":[99637],"attr":"cool","postal_code":"672-8023","address":"姫路市白浜町塩辛甲","voronoi":{"type":"Feature","geometry":{"type":"Polygon","coordinates":[[[134.65036,34.484176],[134.647082,34.484709],[134.647263,34.605159],[134.649106,34.654932],[134.649847,34.659152],[134.706409,34.806074],[134.71794,34.804431],[134.669131,34.535471],[134.65036,34.484176]]]},"properties":{}}},
    {"code":9963739,"id":"9fe446","name":"妻鹿","original_name":"妻鹿","name_kana":"めが","closed":false,"lat":34.792271,"lng":134.692969,"prefecture":28,"numbering":["SY39"],"lines":[99637],"attr":"cool","postal_code":"672-8031","address":"姫路市飾磨区妻鹿","voronoi":{"type":"Feature","geometry":{"type":"Polygon","coordinates":[[[134.697292,34.810302],[134.699252,34.810424],[134.706409,34.806074],[134.649847,34.659152],[134.65924,34.737399],[134.687494,34.803785],[134.692717,34.808384],[134.697292,34.810302]]]},"properties":{}}},
    {"code":9963740,"id":"3df978","name":"飾磨","original_name":"飾磨","name_kana":"しかま","closed":false,"lat":34.799748,"lng":134.675401,"prefecture":28,"numbering":["SY40"],"lines":[99637,99638],"attr":"cool","postal_code":"672-8051","address":"兵庫県姫路市飾磨区清水","voronoi":{"type":"Feature","geometry":{"type":"Polygon","coordinates":[[[134.658414,34.765584],[134.664013,34.806717],[134.687494,34.803785],[134.65924,34.737399],[134.658414,34.765584]]]},"properties":{}}},
    {"code":9963741,"id":"9bec0f","name":"亀山(兵庫)","original_name":"亀山","name_kana":"かめやま","closed":false,"lat":34.810672,"lng":134.676765,"prefecture":28,"numbering":["SY41"],"lines":[99637],"attr":"cool","postal_code":"670-0973","address":"姫路市亀山町高福地","voronoi":{"type":"Feature","geometry":{"type":"Polygon","coordinates":[[[134.662836,34.823468],[134.66163,34.822769],[134.661121,34.816418],[134.664013,34.806717],[134.687494,34.803785],[134.692717,34.808384],[134.662836,34.823468]]]},"properties":{}}},
    {"code":9963742,"id":"85c196","name":"手柄","original_name":"手柄","name_kana":"てがら","closed":false,"lat":34.81986,"lng":134.681403,"prefecture":28,"numbering":["SY42"],"lines":[99637],"attr":"cool","postal_code":"670-0965","address":"姫路市東延末５","voronoi":{"type":"Feature","geometry":{"type":"Polygon","coordinates":[[[134.692717,34.808384],[134.662836,34.823468],[134.673651,34.834612],[134.686402,34.823379],[134.697292,34.810302],[134.692717,34.808384]]]},"properties":{}}},
    {"code":9963743,"id":"3253ea","name":"山陽姫路","original_name":"山陽姫路","name_kana":"さんようひめじ","closed":false,"lat":34.828783,"lng":134.689263,"prefecture":28,"numbering":["SY43"],"lines":[99637],"attr":"cool","postal_code":"670-0912","address":"姫路市南町１","voronoi":{"type":"Feature","geometry":{"type":"Polygon","coordinates":[[[134.690509,34.850297],[134.695769,34.835929],[134.686402,34.823379],[134.673651,34.834612],[134.682984,34.856345],[134.690509,34.850297]]]},"properties":{}}}
  ]
}