{
  "code":99644,
  "id":"c15849",
  "name":"智頭急行",
  "name_kana":"ちずきゅうこう",
  "name_formal":"智頭急行智頭線",
  "station_size":14,
  "company_code":210,
  "closed":false,
  "station_list":[
    {"code":1160907,"id":"1bdc12","name":"上郡","original_name":"上郡","name_kana":"かみごおり","closed":false,"lat":34.865845,"lng":134.354081,"prefecture":28,"lines":[11609,99644],"attr":"eco","postal_code":"678-1233","address":"赤穂郡上郡町大字大持","voronoi":{"type":"Feature","geometry":{"type":"Polygon","coordinates":[[[134.278752,34.881341],[134.40461,34.881333],[134.339742,34.807768],[134.336054,34.807852],[134.278752,34.881341]]]},"properties":{}}},
    {"code":9964402,"id":"def01b","name":"苔縄","original_name":"苔縄","name_kana":"こけなわ","closed":false,"lat":34.896828,"lng":134.354083,"prefecture":28,"lines":[99644],"attr":"cool","postal_code":"678-1277","address":"赤穂郡上郡町大字苔縄","voronoi":{"type":"Feature","geometry":{"type":"Polygon","coordinates":[[[134.418051,34.912671],[134.261,34.901865],[134.258019,34.899008],[134.278752,34.881341],[134.40461,34.881333],[134.426562,34.894812],[134.418051,34.912671]]]},"properties":{}}},
    {"code":9964403,"id":"78f731","name":"河野原円心","original_name":"河野原円心","name_kana":"こうのはらえんしん","closed":false,"lat":34.919603,"lng":134.352516,"prefecture":28,"lines":[99644],"attr":"cool","postal_code":"678-1278","address":"赤穂郡上郡町大字河野原","voronoi":{"type":"Feature","geometry":{"type":"Polygon","coordinates":[[[134.414229,34.926446],[134.418051,34.912671],[134.261,34.901865],[134.27907,34.924037],[134.285427,34.927026],[134.385359,34.947429],[134.404912,34.93827],[134.414229,34.926446]]]},"properties":{}}},
    {"code":9964404,"id":"20630c","name":"久崎","original_name":"久崎","name_kana":"くざき","closed":false,"lat":34.960153,"lng":134.344237,"prefecture":28,"lines":[99644],"attr":"cool","postal_code":"679-5641","address":"佐用郡佐用町久崎","voronoi":{"type":"Feature","geometry":{"type":"Polygon","coordinates":[[[134.362742,34.978367],[134.385359,34.947429],[134.285427,34.927026],[134.345615,34.983218],[134.362742,34.978367]]]},"properties":{}}},
    {"code":1163312,"id":"51b603","name":"佐用","original_name":"佐用","name_kana":"さよ","closed":false,"lat":35.003579,"lng":134.356538,"prefecture":28,"lines":[11633,11634,99644],"attr":"cool","postal_code":"679-5300","address":"佐用郡佐用町間島田","voronoi":{"type":"Feature","geometry":{"type":"Polygon","coordinates":[[[134.313516,35.043322],[134.309997,35.043355],[134.345615,34.983218],[134.362742,34.978367],[134.380425,35.017728],[134.313516,35.043322]]]},"properties":{}}},
    {"code":9964406,"id":"e8bc55","name":"平福","original_name":"平福","name_kana":"ひらふく","closed":false,"lat":35.044206,"lng":134.372079,"prefecture":28,"lines":[99644],"attr":"eco","postal_code":"679-5331","address":"佐用郡佐用町大字平福","voronoi":{"type":"Feature","geometry":{"type":"Polygon","coordinates":[[[134.380425,35.017728],[134.313516,35.043322],[134.498187,35.115189],[134.414918,35.026478],[134.380425,35.017728]]]},"properties":{}}},
    {"code":9964407,"id":"20098d","name":"石井(兵庫)","original_name":"石井","name_kana":"いしい","closed":false,"lat":35.082257,"lng":134.357271,"prefecture":28,"lines":[99644],"attr":"heat","postal_code":"679-5321","address":"佐用郡佐用町大字下石井","voronoi":{"type":"Feature","geometry":{"type":"Polygon","coordinates":[[[134.546127,35.173382],[134.51254,35.167001],[134.381909,35.131278],[134.3619,35.116974],[134.308959,35.04372],[134.309997,35.043355],[134.313516,35.043322],[134.498187,35.115189],[134.547769,35.154915],[134.546127,35.173382]]]},"properties":{}}},
    {"code":9964408,"id":"1847d0","name":"宮本武蔵","original_name":"宮本武蔵","name_kana":"みやもとむさし","closed":false,"lat":35.101685,"lng":134.330389,"prefecture":33,"lines":[99644],"attr":"cool","postal_code":"707-0416","address":"美作市今岡","voronoi":{"type":"Feature","geometry":{"type":"Polygon","coordinates":[[[134.3619,35.116974],[134.240098,35.101373],[134.268128,35.066246],[134.301443,35.044221],[134.308959,35.04372],[134.3619,35.116974]]]},"properties":{}}},
    {"code":9964409,"id":"f28abb","name":"大原(岡山)","original_name":"大原","name_kana":"おおはら","closed":false,"lat":35.123827,"lng":134.327553,"prefecture":33,"lines":[99644],"attr":"cool","postal_code":"707-0412","address":"美作市古町","voronoi":{"type":"Feature","geometry":{"type":"Polygon","coordinates":[[[134.226981,35.114178],[134.240098,35.101373],[134.3619,35.116974],[134.381909,35.131278],[134.260571,35.158091],[134.226981,35.114178]]]},"properties":{}}},
    {"code":9964410,"id":"b5a3c2","name":"西粟倉","original_name":"西粟倉","name_kana":"にしあわくら","closed":false,"lat":35.16094,"lng":134.335754,"prefecture":33,"lines":[99644],"attr":"eco","postal_code":"707-0504","address":"英田郡西粟倉村大字長尾","voronoi":{"type":"Feature","geometry":{"type":"Polygon","coordinates":[[[134.51254,35.167001],[134.282659,35.177336],[134.263309,35.164611],[134.260571,35.158091],[134.381909,35.131278],[134.51254,35.167001]]]},"properties":{}}},
    {"code":9964411,"id":"793f69","name":"あわくら温泉","original_name":"あわくら温泉","name_kana":"あわくらおんせん","closed":false,"lat":35.188901,"lng":134.337011,"prefecture":33,"lines":[99644],"attr":"eco","postal_code":"707-0503","address":"英田郡西粟倉村大字影石","voronoi":{"type":"Feature","geometry":{"type":"Polygon","coordinates":[[[134.364736,35.268219],[134.282659,35.177336],[134.51254,35.167001],[134.546127,35.173382],[134.550012,35.195605],[134.364736,35.268219]]]},"properties":{}}},
    {"code":9964412,"id":"0f971b","name":"山郷","original_name":"山郷","name_kana":"やまさと","closed":false,"lat":35.232581,"lng":134.288644,"prefecture":31,"lines":[99644],"attr":"heat","postal_code":"689-1426","address":"八頭郡智頭町大字西谷","voronoi":{"type":"Feature","geometry":{"type":"Polygon","coordinates":[[[134.256925,35.19131],[134.263309,35.164611],[134.282659,35.177336],[134.364736,35.268219],[134.357946,35.274827],[134.257137,35.23303],[134.256925,35.19131]]]},"properties":{}}},
    {"code":9964413,"id":"83d6ce","name":"恋山形","original_name":"恋山形","name_kana":"こいやまがた","closed":false,"lat":35.255641,"lng":134.279083,"prefecture":31,"lines":[99644],"attr":"cool","postal_code":"689-1421","address":"八頭郡智頭町大字大内字","voronoi":{"type":"Feature","geometry":{"type":"Polygon","coordinates":[[[134.357946,35.274827],[134.257137,35.23303],[134.250354,35.248975],[134.262153,35.316471],[134.263286,35.317425],[134.280495,35.315601],[134.328648,35.29891],[134.334271,35.29598],[134.351601,35.283267],[134.357946,35.274827]]]},"properties":{}}},
    {"code":1170410,"id":"5d1b64","name":"智頭","original_name":"智頭","name_kana":"ちず","closed":false,"lat":35.264992,"lng":134.22559,"prefecture":31,"lines":[11704,99644],"attr":"cool","postal_code":"689-1402","address":"八頭郡智頭町大字智頭","voronoi":{"type":"Feature","geometry":{"type":"Polygon","coordinates":[[[134.159311,35.257212],[134.252567,35.313967],[134.262153,35.316471],[134.250354,35.248975],[134.186561,35.248901],[134.159311,35.257212]]]},"properties":{}}}
  ]
}