{
  "code":99705,
  "id":"948146",
  "name":"井原鉄道",
  "name_kana":"いばらてつどう",
  "name_formal":"井原鉄道井原線",
  "station_size":15,
  "company_code":218,
  "closed":false,
  "station_list":[
    {"code":1170307,"id":"b6395f","name":"総社","original_name":"総社","name_kana":"そうじゃ","closed":false,"lat":34.673534,"lng":133.738007,"prefecture":33,"lines":[11703,11713,99705],"attr":"heat","postal_code":"719-1136","address":"総社市駅前１丁目","voronoi":{"type":"Feature","geometry":{"type":"Polygon","coordinates":[[[133.693525,34.671319],[133.695481,34.673545],[133.738917,34.693965],[133.75083,34.656305],[133.709074,34.662661],[133.693525,34.671319]]]},"properties":{}}},
    {"code":1170306,"id":"bb9076","name":"清音","original_name":"清音","name_kana":"きよね","closed":false,"lat":34.643671,"lng":133.733461,"prefecture":33,"lines":[11703,99705],"attr":"heat","postal_code":"719-1175","address":"総社市清音上中島","voronoi":{"type":"Feature","geometry":{"type":"Polygon","coordinates":[[[133.75083,34.656305],[133.709074,34.662661],[133.737421,34.61665],[133.743628,34.618271],[133.772035,34.64027],[133.773034,34.644617],[133.75083,34.656305]]]},"properties":{}}},
    {"code":9970503,"id":"bfd3d6","name":"川辺宿","original_name":"川辺宿","name_kana":"かわべじゅく","closed":false,"lat":34.632339,"lng":133.715068,"prefecture":33,"lines":[99705],"attr":"eco","postal_code":"710-1313","address":"倉敷市真備町川辺美トロ２２８１-３","voronoi":{"type":"Feature","geometry":{"type":"Polygon","coordinates":[[[133.709074,34.662661],[133.693525,34.671319],[133.693482,34.671306],[133.709288,34.605708],[133.73107,34.6117],[133.737421,34.61665],[133.709074,34.662661]]]},"properties":{}}},
    {"code":9970504,"id":"4ce023","name":"吉備真備","original_name":"吉備真備","name_kana":"きびのまきび","closed":false,"lat":34.626784,"lng":133.692013,"prefecture":33,"lines":[99705],"attr":"eco","postal_code":"710-1301","address":"倉敷市真備町箭田別府後１１０２-１１","voronoi":{"type":"Feature","geometry":{"type":"Polygon","coordinates":[[[133.693482,34.671306],[133.668918,34.670748],[133.68169,34.59671],[133.695501,34.59365],[133.709288,34.605708],[133.693482,34.671306]]]},"properties":{}}},
    {"code":9970505,"id":"d6ca29","name":"備中呉妹","original_name":"備中呉妹","name_kana":"びっちゅうくれせ","closed":false,"lat":34.621587,"lng":133.661888,"prefecture":33,"lines":[99705],"attr":"eco","postal_code":"710-1304","address":"倉敷市真備町尾崎井野１３６５-２","voronoi":{"type":"Feature","geometry":{"type":"Polygon","coordinates":[[[133.668918,34.670748],[133.68169,34.59671],[133.644909,34.585996],[133.634477,34.668885],[133.666872,34.671359],[133.668918,34.670748]]]},"properties":{}}},
    {"code":9970506,"id":"63c5c8","name":"三谷(岡山)","original_name":"三谷","name_kana":"みたに","closed":false,"lat":34.61627,"lng":133.61964,"prefecture":33,"lines":[99705],"attr":"eco","postal_code":"714-1211","address":"小田郡矢掛町東三成市場","voronoi":{"type":"Feature","geometry":{"type":"Polygon","coordinates":[[[133.586207,34.578054],[133.638705,34.57888],[133.644909,34.585996],[133.634477,34.668885],[133.6264,34.671596],[133.585392,34.578755],[133.585449,34.578326],[133.586207,34.578054]]]},"properties":{}}},
    {"code":9970507,"id":"49c064","name":"矢掛","original_name":"矢掛","name_kana":"やかげ","closed":false,"lat":34.629337,"lng":133.590057,"prefecture":33,"lines":[99705],"attr":"heat","postal_code":"714-1201","address":"小田郡矢掛町矢掛尾崎","voronoi":{"type":"Feature","geometry":{"type":"Polygon","coordinates":[[[133.585392,34.578755],[133.524344,34.70333],[133.59426,34.694452],[133.6264,34.671596],[133.585392,34.578755]]]},"properties":{}}},
    {"code":9970508,"id":"17efce","name":"小田(岡山)","original_name":"小田","name_kana":"おだ","closed":false,"lat":34.60606,"lng":133.542558,"prefecture":33,"lines":[99705],"attr":"heat","postal_code":"714-1227","address":"小田郡矢掛町小田山志根","voronoi":{"type":"Feature","geometry":{"type":"Polygon","coordinates":[[[133.585392,34.578755],[133.524344,34.70333],[133.494308,34.715917],[133.537365,34.556205],[133.548479,34.557135],[133.585449,34.578326],[133.585392,34.578755]]]},"properties":{}}},
    {"code":9970509,"id":"6a70e9","name":"早雲の里荏原","original_name":"早雲の里荏原","name_kana":"そううんのさとえばら","closed":false,"lat":34.596694,"lng":133.507816,"prefecture":33,"lines":[99705],"attr":"heat","postal_code":"715-0003","address":"井原市東江原町永田","voronoi":{"type":"Feature","geometry":{"type":"Polygon","coordinates":[[[133.524891,34.550172],[133.492555,34.551268],[133.475602,34.727318],[133.494308,34.715917],[133.537365,34.556205],[133.524891,34.550172]]]},"properties":{}}},
    {"code":9970510,"id":"66c5c3","name":"井原(岡山)","original_name":"井原","name_kana":"いばら","closed":false,"lat":34.592947,"lng":133.468906,"prefecture":33,"lines":[99705],"attr":"cool","postal_code":"715-0014","address":"井原市七日市町２１６番地","voronoi":{"type":"Feature","geometry":{"type":"Polygon","coordinates":[[[133.439274,34.757493],[133.415688,34.76477],[133.412292,34.763166],[133.472776,34.543225],[133.492555,34.551268],[133.475602,34.727318],[133.439274,34.757493]]]},"properties":{}}},
    {"code":9970511,"id":"d36c8d","name":"いずえ","original_name":"いずえ","name_kana":"いずえ","closed":false,"lat":34.587934,"lng":133.450677,"prefecture":33,"lines":[99705],"attr":"cool","postal_code":"715-0022","address":"井原市下出部町小塚","voronoi":{"type":"Feature","geometry":{"type":"Polygon","coordinates":[[[133.472776,34.543225],[133.412292,34.763166],[133.382913,34.751146],[133.457208,34.541772],[133.468469,34.540422],[133.472776,34.543225]]]},"properties":{}}},
    {"code":9970512,"id":"09be07","name":"子守唄の里高屋","original_name":"子守唄の里高屋","name_kana":"こもりうたのさとたかや","closed":false,"lat":34.581726,"lng":133.433182,"prefecture":33,"lines":[99705],"attr":"cool","postal_code":"715-0024","address":"井原市高屋町祢リキ","voronoi":{"type":"Feature","geometry":{"type":"Polygon","coordinates":[[[133.332853,34.731508],[133.337352,34.720064],[133.435951,34.540044],[133.457208,34.541772],[133.382913,34.751146],[133.347348,34.738731],[133.332853,34.731508]]]},"properties":{}}},
    {"code":9970513,"id":"76172b","name":"御領(広島)","original_name":"御領","name_kana":"ごりょう","closed":false,"lat":34.564822,"lng":133.402319,"prefecture":34,"lines":[99705],"attr":"heat","postal_code":"720-2117","address":"福山市神辺町下御領２６１番地の３","voronoi":{"type":"Feature","geometry":{"type":"Polygon","coordinates":[[[133.377524,34.580687],[133.416618,34.530446],[133.419229,34.530561],[133.435951,34.540044],[133.337352,34.720064],[133.372689,34.592313],[133.377524,34.580687]]]},"properties":{}}},
    {"code":9970514,"id":"eb09c2","name":"湯野","original_name":"湯野","name_kana":"ゆの","closed":false,"lat":34.552754,"lng":133.38681,"prefecture":34,"lines":[99705],"attr":"heat","postal_code":"720-2121","address":"福山市神辺町湯野８８番地の１","voronoi":{"type":"Feature","geometry":{"type":"Polygon","coordinates":[[[133.413074,34.529307],[133.416618,34.530446],[133.377524,34.580687],[133.379355,34.546709],[133.413074,34.529307]]]},"properties":{}}},
    {"code":1172004,"id":"e3b244","name":"神辺","original_name":"神辺","name_kana":"かんなべ","closed":false,"lat":34.537131,"lng":133.378747,"prefecture":34,"lines":[11720,99705],"attr":"heat","postal_code":"720-2124","address":"福山市神辺町川南","voronoi":{"type":"Feature","geometry":{"type":"Polygon","coordinates":[[[133.362659,34.537461],[133.364158,34.53905],[133.379355,34.546709],[133.413074,34.529307],[133.387637,34.513241],[133.362659,34.537461]]]},"properties":{}}}
  ]
}