{
  "code":99707,
  "id":"511c97",
  "name":"岡山電軌清輝橋線",
  "name_kana":"おかやまでんきせいきばしせん",
  "station_size":9,
  "company_code":219,
  "closed":false,
  "color":"#942B9D",
  "station_list":[
    {"code":9970601,"id":"bba0b3","name":"岡山駅前","original_name":"岡山駅前","name_kana":"おかやまえきまえ","closed":false,"lat":34.665458,"lng":133.9201,"prefecture":33,"lines":[99706,99707],"attr":"eco","postal_code":"700-0023","address":"岡山市駅前町１-１","voronoi":{"type":"Feature","geometry":{"type":"Polygon","coordinates":[[[133.921769,34.661188],[133.921396,34.668892],[133.913295,34.657634],[133.916132,34.656159],[133.918336,34.657667],[133.920614,34.659692],[133.921769,34.661188]]]},"properties":{}}},
    {"code":9970602,"id":"255fc1","name":"西川緑道公園","original_name":"西川緑道公園","name_kana":"にしがわりょくどうこうえん","closed":false,"lat":34.665599,"lng":133.923018,"prefecture":33,"lines":[99706,99707],"attr":"eco","postal_code":"700-0815","address":"岡山市野田屋町１-１","voronoi":{"type":"Feature","geometry":{"type":"Polygon","coordinates":[[[133.922898,34.675786],[133.921396,34.668892],[133.921769,34.661188],[133.922327,34.661562],[133.92429,34.663721],[133.92412,34.675499],[133.922898,34.675786]]]},"properties":{}}},
    {"code":9970603,"id":"cef8e7","name":"柳川","original_name":"柳川","name_kana":"やながわ","closed":false,"lat":34.665635,"lng":133.925507,"prefecture":33,"lines":[99706,99707],"attr":"eco","postal_code":"700-0826","address":"岡山市磨屋町２-１","voronoi":{"type":"Feature","geometry":{"type":"Polygon","coordinates":[[[133.92412,34.675499],[133.92429,34.663721],[133.927623,34.66458],[133.927712,34.675117],[133.92412,34.675499]]]},"properties":{}}},
    {"code":9970704,"id":"0d4329","name":"郵便局前","original_name":"郵便局前","name_kana":"ゆうびんきょくまえ","closed":false,"lat":34.662634,"lng":133.92628,"prefecture":33,"lines":[99707],"attr":"eco","postal_code":"700-0821","address":"岡山市中山下１-３","voronoi":{"type":"Feature","geometry":{"type":"Polygon","coordinates":[[[133.922327,34.661562],[133.92429,34.663721],[133.927623,34.66458],[133.928391,34.663679],[133.928375,34.66169],[133.922327,34.661562]]]},"properties":{}}},
    {"code":9970705,"id":"8422b8","name":"田町(岡山)","original_name":"田町","name_kana":"たまち","closed":false,"lat":34.660658,"lng":133.926322,"prefecture":33,"lines":[99707],"attr":"eco","postal_code":"700-0825","address":"岡山市田町１-１３","voronoi":{"type":"Feature","geometry":{"type":"Polygon","coordinates":[[[133.922327,34.661562],[133.921769,34.661188],[133.920614,34.659692],[133.928413,34.65954],[133.928922,34.660517],[133.928375,34.66169],[133.922327,34.661562]]]},"properties":{}}},
    {"code":9970706,"id":"ca0c68","name":"新西大寺町筋","original_name":"新西大寺町筋","name_kana":"しんさいだいじちょうすじ","closed":false,"lat":34.658504,"lng":133.92628,"prefecture":33,"lines":[99707],"attr":"heat","postal_code":"700-0825","address":"岡山市田町２-１０","voronoi":{"type":"Feature","geometry":{"type":"Polygon","coordinates":[[[133.928413,34.65954],[133.928395,34.657452],[133.918336,34.657667],[133.920614,34.659692],[133.928413,34.65954]]]},"properties":{}}},
    {"code":9970707,"id":"71e3b4","name":"大雲寺前","original_name":"大雲寺前","name_kana":"だいうんじまえ","closed":false,"lat":34.656492,"lng":133.926237,"prefecture":33,"lines":[99707],"attr":"heat","postal_code":"700-0836","address":"岡山市中央町３番地","voronoi":{"type":"Feature","geometry":{"type":"Polygon","coordinates":[[[133.916132,34.656159],[133.918336,34.657667],[133.928395,34.657452],[133.929348,34.655386],[133.916381,34.655728],[133.916132,34.656159]]]},"properties":{}}},
    {"code":9970709,"id":"e6680e","name":"東中央町","original_name":"東中央町","name_kana":"ひがしちゅうおうちょう","closed":false,"lat":34.654445,"lng":133.926183,"prefecture":33,"lines":[99707],"attr":"cool","postal_code":"700-0835","address":"岡山市東中央町地先","voronoi":{"type":"Feature","geometry":{"type":"Polygon","coordinates":[[[133.916381,34.655728],[133.917021,34.654293],[133.93229,34.652209],[133.929348,34.655386],[133.916381,34.655728]]]},"properties":{}}},
    {"code":9970708,"id":"94b65c","name":"清輝橋","original_name":"清輝橋","name_kana":"せいきばし","closed":false,"lat":34.651691,"lng":133.925807,"prefecture":33,"lines":[99707],"attr":"cool","postal_code":"700-0861","address":"岡山市清輝橋１-４","voronoi":{"type":"Feature","geometry":{"type":"Polygon","coordinates":[[[133.941028,34.628862],[133.933661,34.65006],[133.932526,34.652044],[133.93229,34.652209],[133.917021,34.654293],[133.924685,34.626368],[133.950636,34.593095],[133.941028,34.628862]]]},"properties":{}}}
  ]
}