{
  "code":99702,
  "id":"5068b9",
  "name":"一畑電車北松江線",
  "name_kana":"いちばたでんしゃきたまつえせん",
  "station_size":22,
  "company_code":216,
  "closed":false,
  "station_list":[
    {"code":9970201,"id":"d091f4","name":"電鉄出雲市","original_name":"電鉄出雲市","name_kana":"でんてついずもし","closed":false,"lat":35.36113,"lng":132.75777,"prefecture":32,"numbering":["1"],"lines":[99702],"attr":"eco","postal_code":"693-0001","address":"出雲市今市町１２５９-３８","voronoi":{"type":"Feature","geometry":{"type":"Polygon","coordinates":[[[132.769314,35.325964],[132.751958,35.375803],[132.758653,35.378314],[132.769314,35.325964]]]},"properties":{}}},
    {"code":9970202,"id":"dda19f","name":"出雲科学館パークタウン前","original_name":"出雲科学館パークタウン前","name_kana":"いずもかがくかんぱーくたうんまえ","closed":false,"lat":35.362844,"lng":132.766186,"prefecture":32,"numbering":["2"],"lines":[99702],"attr":"eco","postal_code":"693-0001","address":"出雲市今市町１９０５-４","voronoi":{"type":"Feature","geometry":{"type":"Polygon","coordinates":[[[132.758873,35.378469],[132.758653,35.378314],[132.769314,35.325964],[132.775191,35.29954],[132.799798,35.260579],[132.820359,35.30151],[132.761036,35.377862],[132.758873,35.378469]]]},"properties":{}}},
    {"code":9970203,"id":"838205","name":"大津町","original_name":"大津町","name_kana":"おおつまち","closed":false,"lat":35.36916,"lng":132.774315,"prefecture":32,"numbering":["3"],"lines":[99702],"attr":"eco","postal_code":"693-0011","address":"出雲市大津町１３９８-６","voronoi":{"type":"Feature","geometry":{"type":"Polygon","coordinates":[[[132.820359,35.30151],[132.761036,35.377862],[132.789622,35.379476],[132.82234,35.304904],[132.820359,35.30151]]]},"properties":{}}},
    {"code":9970204,"id":"d09203","name":"武志","original_name":"武志","name_kana":"たけし","closed":false,"lat":35.388003,"lng":132.773251,"prefecture":32,"numbering":["4"],"lines":[99702],"attr":"eco","postal_code":"693-0014","address":"出雲市武志町４２-２","voronoi":{"type":"Feature","geometry":{"type":"Polygon","coordinates":[[[132.758873,35.378469],[132.760817,35.397781],[132.790271,35.384716],[132.789622,35.379476],[132.761036,35.377862],[132.758873,35.378469]]]},"properties":{}}},
    {"code":9970205,"id":"edd354","name":"川跡","original_name":"川跡","name_kana":"かわと","closed":false,"lat":35.395127,"lng":132.776411,"prefecture":32,"numbering":["5"],"lines":[99702,99703],"attr":"eco","postal_code":"693-0014","address":"出雲市武志町１０２７-１","voronoi":{"type":"Feature","geometry":{"type":"Polygon","coordinates":[[[132.755966,35.430189],[132.760817,35.397781],[132.790271,35.384716],[132.791597,35.388352],[132.755966,35.430189]]]},"properties":{}}},
    {"code":9970206,"id":"50c616","name":"大寺","original_name":"大寺","name_kana":"おおてら","closed":false,"lat":35.404423,"lng":132.787326,"prefecture":32,"numbering":["6"],"lines":[99702],"attr":"eco","postal_code":"693-0074","address":"出雲市東林木町３０２-５","voronoi":{"type":"Feature","geometry":{"type":"Polygon","coordinates":[[[132.739923,35.477622],[132.755966,35.430189],[132.791597,35.388352],[132.801004,35.397569],[132.739923,35.477622]]]},"properties":{}}},
    {"code":9970207,"id":"604cac","name":"美談","original_name":"美談","name_kana":"みだみ","closed":false,"lat":35.412572,"lng":132.798006,"prefecture":32,"numbering":["7"],"lines":[99702],"attr":"eco","postal_code":"691-0013","address":"出雲市美談町５１４-６","voronoi":{"type":"Feature","geometry":{"type":"Polygon","coordinates":[[[132.801004,35.397569],[132.739923,35.477622],[132.73687,35.484777],[132.81621,35.40262],[132.801004,35.397569]]]},"properties":{}}},
    {"code":9970208,"id":"283065","name":"旅伏","original_name":"旅伏","name_kana":"たぶし","closed":false,"lat":35.42116,"lng":132.806899,"prefecture":32,"numbering":["8"],"lines":[99702],"attr":"eco","postal_code":"691-0012","address":"出雲市西代町５８５-６","voronoi":{"type":"Feature","geometry":{"type":"Polygon","coordinates":[[[132.703185,35.595479],[132.720166,35.522869],[132.729006,35.500313],[132.73687,35.484777],[132.81621,35.40262],[132.831134,35.402891],[132.703185,35.595479]]]},"properties":{}}},
    {"code":9970209,"id":"504bb4","name":"雲州平田","original_name":"雲州平田","name_kana":"うんしゅうひらた","closed":false,"lat":35.432312,"lng":132.823685,"prefecture":32,"numbering":["9"],"lines":[99702],"attr":"eco","postal_code":"691-0001","address":"出雲市平田町２２２６","voronoi":{"type":"Feature","geometry":{"type":"Polygon","coordinates":[[[132.831134,35.402891],[132.835799,35.401343],[132.851754,35.419666],[132.655119,35.762997],[132.703185,35.595479],[132.831134,35.402891]]]},"properties":{}}},
    {"code":9970210,"id":"2d7064","name":"布崎","original_name":"布崎","name_kana":"ぬのざき","closed":false,"lat":35.450275,"lng":132.855049,"prefecture":32,"numbering":["10"],"lines":[99702],"attr":"eco","postal_code":"691-0076","address":"出雲市園町１２９５-５","voronoi":{"type":"Feature","geometry":{"type":"Polygon","coordinates":[[[132.546268,36.082732],[132.655119,35.762997],[132.851754,35.419666],[132.867918,35.4234],[132.847385,35.484822],[132.797227,35.5964],[132.546268,36.082732]]]},"properties":{}}},
    {"code":9970211,"id":"140316","name":"湖遊館新駅","original_name":"湖遊館新駅","name_kana":"こゆうかんしんえき","closed":false,"lat":35.452611,"lng":132.862037,"prefecture":32,"numbering":["11"],"lines":[99702],"attr":"eco","postal_code":"691-0076","address":"出雲市園町５５-１","voronoi":{"type":"Feature","geometry":{"type":"Polygon","coordinates":[[[132.847385,35.484822],[132.867918,35.4234],[132.880749,35.424727],[132.88174,35.425749],[132.847385,35.484822]]]},"properties":{}}},
    {"code":9970212,"id":"fb2038","name":"園","original_name":"園","name_kana":"その","closed":false,"lat":35.456158,"lng":132.868136,"prefecture":32,"numbering":["12"],"lines":[99702],"attr":"heat","postal_code":"691-0076","address":"出雲市園町１６８-５","voronoi":{"type":"Feature","geometry":{"type":"Polygon","coordinates":[[[132.797227,35.5964],[132.847385,35.484822],[132.88174,35.425749],[132.888767,35.431614],[132.887539,35.439416],[132.797227,35.5964]]]},"properties":{}}},
    {"code":9970213,"id":"8d5e71","name":"一畑口","original_name":"一畑口","name_kana":"いちばたぐち","closed":false,"lat":35.464605,"lng":132.882819,"prefecture":32,"numbering":["13"],"lines":[99702],"attr":"heat","postal_code":"691-0074","address":"出雲市小境町３７５-２","voronoi":{"type":"Feature","geometry":{"type":"Polygon","coordinates":[[[132.887539,35.439416],[132.899091,35.502633],[132.897977,35.525352],[132.851951,35.83007],[132.533931,37.698698],[130.79803,45.038618],[128.353405,47.55717],[132.546268,36.082732],[132.797227,35.5964],[132.887539,35.439416]]]},"properties":{}}},
    {"code":9970215,"id":"0ab524","name":"伊野灘","original_name":"伊野灘","name_kana":"いのなだ","closed":false,"lat":35.461308,"lng":132.900862,"prefecture":32,"numbering":["14"],"lines":[99702],"attr":"heat","postal_code":"691-0074","address":"出雲市小境町３７９-３","voronoi":{"type":"Feature","geometry":{"type":"Polygon","coordinates":[[[132.888767,35.431614],[132.887539,35.439416],[132.899091,35.502633],[132.917697,35.436062],[132.888767,35.431614]]]},"properties":{}}},
    {"code":9970216,"id":"09e736","name":"津ノ森","original_name":"津ノ森","name_kana":"つのもり","closed":false,"lat":35.466378,"lng":132.919002,"prefecture":32,"numbering":["15"],"lines":[99702],"attr":"heat","postal_code":"690-0264","address":"松江市大野町１１７-３","voronoi":{"type":"Feature","geometry":{"type":"Polygon","coordinates":[[[132.923565,35.435097],[132.936456,35.444335],[132.897977,35.525352],[132.899091,35.502633],[132.917697,35.436062],[132.923565,35.435097]]]},"properties":{}}},
    {"code":9970217,"id":"db7590","name":"高ノ宮","original_name":"高ノ宮","name_kana":"たかのみや","closed":false,"lat":35.471792,"lng":132.930401,"prefecture":32,"numbering":["16"],"lines":[99702],"attr":"heat","postal_code":"690-0263","address":"松江市大垣町１１４５-５","voronoi":{"type":"Feature","geometry":{"type":"Polygon","coordinates":[[[132.851951,35.83007],[132.943307,35.447195],[132.936456,35.444335],[132.897977,35.525352],[132.851951,35.83007]]]},"properties":{}}},
    {"code":9970218,"id":"b1428c","name":"松江フォーゲルパーク","original_name":"松江フォーゲルパーク","name_kana":"まつえふぉーげるぱーく","closed":false,"lat":35.474969,"lng":132.943716,"prefecture":32,"numbering":["17"],"lines":[99702],"attr":"heat","postal_code":"690-0263","address":"松江市大垣町２８-３","voronoi":{"type":"Feature","geometry":{"type":"Polygon","coordinates":[[[132.630616,37.31346],[132.533931,37.698698],[132.851951,35.83007],[132.943307,35.447195],[132.954947,35.448912],[132.630616,37.31346]]]},"properties":{}}},
    {"code":9970219,"id":"15e878","name":"秋鹿町","original_name":"秋鹿町","name_kana":"あいかまち","closed":false,"lat":35.477231,"lng":132.95672,"prefecture":32,"numbering":["18"],"lines":[99702],"attr":"cool","postal_code":"690-0261","address":"松江市秋鹿町３３４２-２","voronoi":{"type":"Feature","geometry":{"type":"Polygon","coordinates":[[[132.630616,37.31346],[132.954947,35.448912],[132.970041,35.447576],[132.790889,36.684291],[132.630616,37.31346]]]},"properties":{}}},
    {"code":9970220,"id":"565112","name":"長江","original_name":"長江","name_kana":"ながえ","closed":false,"lat":35.479792,"lng":132.974399,"prefecture":32,"numbering":["19"],"lines":[99702],"attr":"cool","postal_code":"690-0133","address":"松江市東長江町１６２０-３","voronoi":{"type":"Feature","geometry":{"type":"Polygon","coordinates":[[[132.983723,35.448156],[132.926869,36.16639],[132.790889,36.684291],[132.970041,35.447576],[132.978648,35.444272],[132.983723,35.448156]]]},"properties":{}}},
    {"code":9970221,"id":"97e95a","name":"朝日ヶ丘","original_name":"朝日ヶ丘","name_kana":"あさひがおか","closed":false,"lat":35.480865,"lng":132.987954,"prefecture":32,"numbering":["20"],"lines":[99702],"attr":"cool","postal_code":"690-0151","address":"島根県松江市古曽志町","voronoi":{"type":"Feature","geometry":{"type":"Polygon","coordinates":[[[132.926869,36.16639],[132.983723,35.448156],[132.989563,35.450945],[133.048959,35.719414],[132.926869,36.16639]]]},"properties":{}}},
    {"code":9970222,"id":"0f0dd7","name":"松江イングリッシュガーデン前","original_name":"松江イングリッシュガーデン前","name_kana":"まつえいんぐりっしゅがーでんまえ","closed":false,"lat":35.477394,"lng":133.003643,"prefecture":32,"numbering":["21"],"lines":[99702],"attr":"cool","postal_code":"690-0122","address":"松江市西浜佐陀町２６４-６","voronoi":{"type":"Feature","geometry":{"type":"Polygon","coordinates":[[[132.989563,35.450945],[133.021068,35.456489],[133.068523,35.656004],[133.048959,35.719414],[132.989563,35.450945]]]},"properties":{}}},
    {"code":9970224,"id":"014784","name":"松江しんじ湖温泉","original_name":"松江しんじ湖温泉","name_kana":"まつえしんじこおんせん","closed":false,"lat":35.46731,"lng":133.046039,"prefecture":32,"numbering":["22"],"lines":[99702],"attr":"cool","postal_code":"690-0874","address":"松江市中原町３１","voronoi":{"type":"Feature","geometry":{"type":"Polygon","coordinates":[[[133.023963,35.453769],[133.021068,35.456489],[133.068523,35.656004],[133.084154,35.620451],[133.053402,35.457395],[133.023963,35.453769]]]},"properties":{}}}
  ]
}