{
  "code":99901,
  "id":"26811a",
  "name":"甘木鉄道",
  "name_kana":"あまぎてつどう",
  "station_size":11,
  "company_code":229,
  "closed":false,
  "station_list":[
    {"code":1190313,"id":"7dd864","name":"基山","original_name":"基山","name_kana":"きやま","closed":false,"lat":33.420945,"lng":130.532365,"prefecture":41,"lines":[11903,99901],"attr":"eco","postal_code":"841-0201","address":"三養基郡基山町大字小倉","voronoi":{"type":"Feature","geometry":{"type":"Polygon","coordinates":[[[130.466078,33.432788],[130.545996,33.42675],[130.546118,33.425251],[130.529902,33.411553],[130.47965,33.421738],[130.466078,33.432788]]]},"properties":{}}},
    {"code":9990102,"id":"a62f86","name":"立野(佐賀)","original_name":"立野","name_kana":"たての","closed":false,"lat":33.412412,"lng":130.539573,"prefecture":41,"lines":[99901],"attr":"eco","postal_code":"841-0202","address":"三養基郡基山町長野字立野","voronoi":{"type":"Feature","geometry":{"type":"Polygon","coordinates":[[[130.546118,33.425251],[130.529902,33.411553],[130.540805,33.400035],[130.548565,33.407044],[130.549165,33.419388],[130.546118,33.425251]]]},"properties":{}}},
    {"code":9990103,"id":"9be042","name":"小郡","original_name":"小郡","name_kana":"おごおり","closed":false,"lat":33.397555,"lng":130.552994,"prefecture":40,"lines":[99901],"attr":"eco","postal_code":"838-0141","address":"小郡市大字小郡字前伏","voronoi":{"type":"Feature","geometry":{"type":"Polygon","coordinates":[[[130.539036,33.390168],[130.539144,33.389941],[130.556784,33.398667],[130.556129,33.404313],[130.548565,33.407044],[130.540805,33.400035],[130.539036,33.390168]]]},"properties":{}}},
    {"code":9990104,"id":"bc12a9","name":"大板井","original_name":"大板井","name_kana":"おおいたい","closed":false,"lat":33.398452,"lng":130.560727,"prefecture":40,"lines":[99901],"attr":"eco","postal_code":"838-0142","address":"小郡市大板井字屋敷","voronoi":{"type":"Feature","geometry":{"type":"Polygon","coordinates":[[[130.570919,33.407361],[130.556129,33.404313],[130.556784,33.398667],[130.560466,33.386298],[130.572449,33.38022],[130.570919,33.407361]]]},"properties":{}}},
    {"code":9990105,"id":"3ae87e","name":"松崎(福岡)","original_name":"松崎","name_kana":"まつざき","closed":false,"lat":33.399654,"lng":130.582047,"prefecture":40,"lines":[99901],"attr":"eco","postal_code":"838-0122","address":"小郡市大字松崎上岩田字大添","voronoi":{"type":"Feature","geometry":{"type":"Polygon","coordinates":[[[130.577612,33.372448],[130.589895,33.372623],[130.596667,33.376203],[130.597369,33.377279],[130.581293,33.4207],[130.574361,33.41433],[130.570919,33.407361],[130.572449,33.38022],[130.577612,33.372448]]]},"properties":{}}},
    {"code":9990106,"id":"0386e0","name":"今隈","original_name":"今隈","name_kana":"いまぐま","closed":false,"lat":33.404237,"lng":130.594426,"prefecture":40,"lines":[99901],"attr":"heat","postal_code":"838-0113","address":"小郡市山隈１２６-２","voronoi":{"type":"Feature","geometry":{"type":"Polygon","coordinates":[[[130.597369,33.377279],[130.581293,33.4207],[130.583266,33.424237],[130.60889,33.38966],[130.606916,33.38612],[130.597369,33.377279]]]},"properties":{}}},
    {"code":9990107,"id":"5c8ea2","name":"西太刀洗","original_name":"西太刀洗","name_kana":"にしたちあらい","closed":false,"lat":33.40774,"lng":130.599153,"prefecture":40,"lines":[99901],"attr":"heat","postal_code":"830-1221","address":"三井郡大刀洗町大字高樋字西奥野","voronoi":{"type":"Feature","geometry":{"type":"Polygon","coordinates":[[[130.60889,33.38966],[130.583266,33.424237],[130.583784,33.425532],[130.590863,33.434276],[130.613486,33.395674],[130.60889,33.38966]]]},"properties":{}}},
    {"code":9990108,"id":"af2856","name":"山隈","original_name":"山隈","name_kana":"やまぐま","closed":false,"lat":33.414076,"lng":130.609964,"prefecture":40,"lines":[99901],"attr":"cool","postal_code":"838-0823","address":"朝倉郡筑前町山隈","voronoi":{"type":"Feature","geometry":{"type":"Polygon","coordinates":[[[130.590863,33.434276],[130.613486,33.395674],[130.613941,33.39597],[130.615429,33.458955],[130.603922,33.45246],[130.591223,33.435015],[130.590863,33.434276]]]},"properties":{}}},
    {"code":9990109,"id":"ee650f","name":"太刀洗","original_name":"太刀洗","name_kana":"たちあらい","closed":false,"lat":33.413868,"lng":130.618768,"prefecture":40,"lines":[99901],"attr":"cool","postal_code":"838-0814","address":"朝倉郡筑前町高田","voronoi":{"type":"Feature","geometry":{"type":"Polygon","coordinates":[[[130.625206,33.465808],[130.615429,33.458955],[130.613941,33.39597],[130.621652,33.398676],[130.626609,33.404665],[130.625206,33.465808]]]},"properties":{}}},
    {"code":9990110,"id":"39bc39","name":"高田(福岡)","original_name":"高田","name_kana":"たかた","closed":false,"lat":33.414218,"lng":130.63402,"prefecture":40,"lines":[99901],"attr":"cool","postal_code":"838-0814","address":"朝倉郡筑前町高田","voronoi":{"type":"Feature","geometry":{"type":"Polygon","coordinates":[[[130.626609,33.404665],[130.625206,33.465808],[130.633213,33.473382],[130.644259,33.417758],[130.632207,33.40578],[130.626609,33.404665]]]},"properties":{}}},
    {"code":3600312,"id":"d230f3","name":"甘木","original_name":"甘木","name_kana":"あまぎ","closed":false,"lat":33.418399,"lng":130.655074,"prefecture":40,"lines":[36003,99901],"attr":"cool","postal_code":"838-0068","address":"朝倉市甘木字竹原１６７８-２","voronoi":{"type":"Feature","geometry":{"type":"Polygon","coordinates":[[[130.662353,33.393732],[130.644259,33.417758],[130.633213,33.473382],[130.63641,33.47776],[130.748977,33.493634],[130.76377,33.455179],[130.720109,33.400383],[130.677157,33.380249],[130.662353,33.393732]]]},"properties":{}}}
  ]
}