{
  "code":99908,
  "id":"10d5c0",
  "name":"北九州高速鉄道",
  "name_kana":"きたきゅうしゅうこうそくてつどう",
  "station_size":13,
  "company_code":232,
  "closed":false,
  "station_list":[
    {"code":100318,"id":"456856","name":"小倉(福岡)","original_name":"小倉","name_kana":"こくら","closed":false,"lat":33.886756,"lng":130.882678,"prefecture":40,"lines":[1003,11902,11906,11914,99908],"attr":"heat","postal_code":"802-0001","address":"北九州市小倉北区浅野１丁目","voronoi":{"type":"Feature","geometry":{"type":"Polygon","coordinates":[[[130.89933,33.920771],[130.887188,33.928483],[130.878028,33.886524],[130.902778,33.87667],[130.909568,33.875613],[130.914724,33.876256],[130.89933,33.920771]]]},"properties":{}}},
    {"code":9990802,"id":"cb2b5c","name":"平和通","original_name":"平和通","name_kana":"へいわどおり","closed":false,"lat":33.883159,"lng":130.881246,"prefecture":40,"lines":[99908],"attr":"eco","postal_code":"802-0006","address":"北九州市小倉北区魚町２","voronoi":{"type":"Feature","geometry":{"type":"Polygon","coordinates":[[[130.876016,33.883842],[130.891435,33.877446],[130.902778,33.87667],[130.878028,33.886524],[130.876016,33.883842]]]},"properties":{}}},
    {"code":9990803,"id":"3fb10b","name":"旦過","original_name":"旦過","name_kana":"たんが","closed":false,"lat":33.880623,"lng":130.880194,"prefecture":40,"lines":[99908],"attr":"eco","postal_code":"802-0006","address":"北九州市小倉北区魚町４","voronoi":{"type":"Feature","geometry":{"type":"Polygon","coordinates":[[[130.871728,33.87647],[130.869917,33.879072],[130.876016,33.883842],[130.891435,33.877446],[130.871728,33.87647]]]},"properties":{}}},
    {"code":9990804,"id":"1a8629","name":"香春口三萩野","original_name":"香春口三萩野","name_kana":"かわらぐちみはぎの","closed":false,"lat":33.873174,"lng":130.880563,"prefecture":40,"lines":[99908],"attr":"eco","postal_code":"802-0084","address":"北九州市小倉北区香春口１","voronoi":{"type":"Feature","geometry":{"type":"Polygon","coordinates":[[[130.871728,33.87647],[130.891435,33.877446],[130.902778,33.87667],[130.909568,33.875613],[130.891092,33.868605],[130.873084,33.869836],[130.871728,33.87647]]]},"properties":{}}},
    {"code":9990805,"id":"1049f8","name":"片野","original_name":"片野","name_kana":"かたの","closed":false,"lat":33.865511,"lng":130.880039,"prefecture":40,"lines":[99908],"attr":"eco","postal_code":"802-0072","address":"北九州市小倉北区東篠崎１","voronoi":{"type":"Feature","geometry":{"type":"Polygon","coordinates":[[[130.870924,33.862502],[130.883024,33.861757],[130.891092,33.868605],[130.873084,33.869836],[130.870924,33.862502]]]},"properties":{}}},
    {"code":9990806,"id":"b1e1e5","name":"城野(北九州高速鉄道)","original_name":"城野","name_kana":"じょうの","closed":false,"lat":33.858398,"lng":130.879601,"prefecture":40,"lines":[99908],"attr":"heat","postal_code":"802-0801","address":"北九州市小倉南区富士見三丁目","voronoi":{"type":"Feature","geometry":{"type":"Polygon","coordinates":[[[130.865751,33.85593],[130.882767,33.853077],[130.883024,33.861757],[130.870924,33.862502],[130.865751,33.85593]]]},"properties":{}}},
    {"code":9990807,"id":"a444d9","name":"北方(福岡)","original_name":"北方","name_kana":"きたがた","closed":false,"lat":33.84908,"lng":130.878039,"prefecture":40,"lines":[99908],"attr":"heat","postal_code":"802-0841","address":"北九州市小倉南区北方３","voronoi":{"type":"Feature","geometry":{"type":"Polygon","coordinates":[[[130.891033,33.845331],[130.887944,33.843378],[130.857576,33.850787],[130.865751,33.85593],[130.882767,33.853077],[130.891083,33.845599],[130.891033,33.845331]]]},"properties":{}}},
    {"code":9990808,"id":"5e497f","name":"競馬場前(福岡)","original_name":"競馬場前","name_kana":"けいばじょうまえ","closed":false,"lat":33.842878,"lng":130.876526,"prefecture":40,"lines":[99908],"attr":"heat","postal_code":"802-0841","address":"北九州市小倉南区北方４","voronoi":{"type":"Feature","geometry":{"type":"Polygon","coordinates":[[[130.881315,33.83588],[130.856616,33.850374],[130.857576,33.850787],[130.887944,33.843378],[130.881315,33.83588]]]},"properties":{}}},
    {"code":9990809,"id":"1cd54e","name":"守恒","original_name":"守恒","name_kana":"もりつね","closed":false,"lat":33.836648,"lng":130.87287,"prefecture":40,"lines":[99908],"attr":"heat","postal_code":"802-0971","address":"北九州市小倉南区守恒本町１","voronoi":{"type":"Feature","geometry":{"type":"Polygon","coordinates":[[[130.856616,33.850374],[130.851828,33.849229],[130.875212,33.829266],[130.878042,33.82896],[130.879405,33.829335],[130.881315,33.83588],[130.856616,33.850374]]]},"properties":{}}},
    {"code":9990810,"id":"31d438","name":"徳力公団前","original_name":"徳力公団前","name_kana":"とくりきこうだんまえ","closed":false,"lat":33.830421,"lng":130.867554,"prefecture":40,"lines":[99908],"attr":"heat","postal_code":"802-0974","address":"北九州市小倉南区徳力１","voronoi":{"type":"Feature","geometry":{"type":"Polygon","coordinates":[[[130.835412,33.848125],[130.868152,33.825863],[130.875212,33.829266],[130.851828,33.849229],[130.835412,33.848125]]]},"properties":{}}},
    {"code":9990811,"id":"cb3102","name":"徳力嵐山口","original_name":"徳力嵐山口","name_kana":"とくりきあらしやまぐち","closed":false,"lat":33.824744,"lng":130.863694,"prefecture":40,"lines":[99908],"attr":"heat","postal_code":"802-0974","address":"北九州市小倉南区徳力６","voronoi":{"type":"Feature","geometry":{"type":"Polygon","coordinates":[[[130.835412,33.848125],[130.835058,33.848134],[130.811537,33.819052],[130.799984,33.801138],[130.84935,33.803965],[130.864055,33.811536],[130.868152,33.825863],[130.835412,33.848125]]]},"properties":{}}},
    {"code":9990812,"id":"a82e8f","name":"志井(北九州高速鉄道)","original_name":"志井","name_kana":"しい","closed":false,"lat":33.822556,"lng":130.871345,"prefecture":40,"lines":[99908],"attr":"cool","postal_code":"802-0985","address":"北九州市小倉南区大字志井","voronoi":{"type":"Feature","geometry":{"type":"Polygon","coordinates":[[[130.864055,33.811536],[130.868152,33.825863],[130.875212,33.829266],[130.878042,33.82896],[130.870532,33.812645],[130.864055,33.811536]]]},"properties":{}}},
    {"code":9990813,"id":"0edd33","name":"企救丘","original_name":"企救丘","name_kana":"きくがおか","closed":false,"lat":33.819708,"lng":130.877532,"prefecture":40,"lines":[99908],"attr":"cool","postal_code":"802-0981","address":"北九州市小倉南区企救丘２","voronoi":{"type":"Feature","geometry":{"type":"Polygon","coordinates":[[[130.879405,33.829335],[130.882241,33.82672],[130.875168,33.811802],[130.870532,33.812645],[130.878042,33.82896],[130.879405,33.829335]]]},"properties":{}}}
  ]
}