{
  "code":99913,
  "id":"e284d6",
  "name":"長崎電軌１系統",
  "name_kana":"ながさきでんきいちけいとう",
  "station_size":26,
  "company_code":236,
  "closed":false,
  "color":"#0000FF",
  "station_list":[
    {"code":9991301,"id":"ad28ab","name":"赤迫","original_name":"赤迫","name_kana":"あかさこ","closed":false,"lat":32.793732,"lng":129.857948,"prefecture":42,"numbering":["11"],"lines":[99913,99914],"attr":"heat","postal_code":"852-8155","address":"長崎市中園町","voronoi":{"type":"Feature","geometry":{"type":"Polygon","coordinates":[[[129.797951,32.772156],[129.812406,32.775331],[129.857862,32.791731],[129.868892,32.804283],[129.86778,32.804781],[129.797951,32.772156]]]},"properties":{}}},
    {"code":9991302,"id":"3430eb","name":"住吉(長崎)","original_name":"住吉","name_kana":"すみよし","closed":false,"lat":32.792073,"lng":129.859836,"prefecture":42,"numbering":["12"],"lines":[99913,99914],"attr":"heat","postal_code":"852-8154","address":"長崎市住吉町","voronoi":{"type":"Feature","geometry":{"type":"Polygon","coordinates":[[[129.857862,32.791731],[129.868892,32.804283],[129.873623,32.802622],[129.876139,32.80079],[129.859787,32.791067],[129.857862,32.791731]]]},"properties":{}}},
    {"code":9991303,"id":"dc7b3b","name":"昭和町通り","original_name":"昭和町通り","name_kana":"しょうわまちどおり","closed":false,"lat":32.79063,"lng":129.860694,"prefecture":42,"numbering":["13A"],"lines":[99913,99914],"attr":"heat","postal_code":"852-8155","address":"長崎県長崎市中園町","voronoi":{"type":"Feature","geometry":{"type":"Polygon","coordinates":[[[129.879014,32.794772],[129.86008,32.789935],[129.859787,32.791067],[129.876139,32.80079],[129.883244,32.796094],[129.879014,32.794772]]]},"properties":{}}},
    {"code":9991304,"id":"956edf","name":"千歳町(長崎)","original_name":"千歳町","name_kana":"ちとせまち","closed":false,"lat":32.78962,"lng":129.860952,"prefecture":42,"numbering":["13"],"lines":[99913,99914],"attr":"heat","postal_code":"852-8137","address":"長崎市若葉町","voronoi":{"type":"Feature","geometry":{"type":"Polygon","coordinates":[[[129.859401,32.788039],[129.879014,32.794772],[129.86008,32.789935],[129.859401,32.788039]]]},"properties":{}}},
    {"code":9991305,"id":"eceec5","name":"若葉町","original_name":"若葉町","name_kana":"わかばまち","closed":false,"lat":32.787744,"lng":129.861596,"prefecture":42,"numbering":["14"],"lines":[99913,99914],"attr":"heat","postal_code":"852-8137","address":"長崎市若葉町","voronoi":{"type":"Feature","geometry":{"type":"Polygon","coordinates":[[[129.855853,32.784648],[129.859401,32.788039],[129.879014,32.794772],[129.883244,32.796094],[129.885403,32.794861],[129.855853,32.784648]]]},"properties":{}}},
    {"code":9991306,"id":"ab5c56","name":"長崎大学","original_name":"長崎大学","name_kana":"ながさきだいがく","closed":false,"lat":32.785759,"lng":129.862282,"prefecture":42,"numbering":["15"],"lines":[99913,99914],"attr":"heat","postal_code":"852-8137","address":"長崎市若葉町","voronoi":{"type":"Feature","geometry":{"type":"Polygon","coordinates":[[[129.894212,32.790313],[129.894701,32.784523],[129.893899,32.783847],[129.854684,32.783847],[129.855853,32.784648],[129.885403,32.794861],[129.894212,32.790313]]]},"properties":{}}},
    {"code":9991307,"id":"cc8374","name":"岩屋橋","original_name":"岩屋橋","name_kana":"いわやばし","closed":false,"lat":32.781935,"lng":129.862282,"prefecture":42,"numbering":["16"],"lines":[99913,99914],"attr":"heat","postal_code":"852-8134","address":"長崎市大橋町","voronoi":{"type":"Feature","geometry":{"type":"Polygon","coordinates":[[[129.889593,32.779747],[129.893899,32.783847],[129.854684,32.783847],[129.854446,32.783759],[129.866554,32.778921],[129.873364,32.777606],[129.889593,32.779747]]]},"properties":{}}},
    {"code":9991308,"id":"bdb718","name":"浦上車庫","original_name":"浦上車庫","name_kana":"うらかみしゃこ","closed":false,"lat":32.77968,"lng":129.861381,"prefecture":42,"numbering":["17"],"lines":[99913,99914],"attr":"heat","postal_code":"852-8134","address":"長崎市大橋町","voronoi":{"type":"Feature","geometry":{"type":"Polygon","coordinates":[[[129.821345,32.776944],[129.854446,32.783759],[129.866554,32.778921],[129.821345,32.776944]]]},"properties":{}}},
    {"code":9991309,"id":"11408e","name":"大橋(長崎)","original_name":"大橋","name_kana":"おおはし","closed":false,"lat":32.777713,"lng":129.861467,"prefecture":42,"numbering":["18"],"lines":[99913,99914],"attr":"heat","postal_code":"852-8118","address":"長崎市松山町","voronoi":{"type":"Feature","geometry":{"type":"Polygon","coordinates":[[[129.866554,32.778921],[129.821345,32.776944],[129.812406,32.775331],[129.797951,32.772156],[129.757937,32.759422],[129.87198,32.777158],[129.873364,32.777606],[129.866554,32.778921]]]},"properties":{}}},
    {"code":9991310,"id":"54bcbc","name":"平和公園","original_name":"平和公園","name_kana":"へいわこうえん","closed":false,"lat":32.773437,"lng":129.862132,"prefecture":42,"numbering":["19"],"lines":[99913,99914],"attr":"heat","postal_code":"852-8118","address":"長崎市松山町","voronoi":{"type":"Feature","geometry":{"type":"Polygon","coordinates":[[[129.856613,32.768362],[129.693816,32.740461],[129.757937,32.759422],[129.87198,32.777158],[129.856613,32.768362]]]},"properties":{}}},
    {"code":9991311,"id":"7c4245","name":"原爆資料館","original_name":"原爆資料館","name_kana":"げんばくしりょうかん","closed":false,"lat":32.770551,"lng":129.863784,"prefecture":42,"numbering":["20"],"lines":[99913,99914],"attr":"heat","postal_code":"852-8107","address":"長崎市浜口町","voronoi":{"type":"Feature","geometry":{"type":"Polygon","coordinates":[[[129.873364,32.777606],[129.87198,32.777158],[129.856613,32.768362],[129.858036,32.768285],[129.886142,32.775376],[129.887397,32.776795],[129.888694,32.77843],[129.889593,32.779747],[129.873364,32.777606]]]},"properties":{}}},
    {"code":9991312,"id":"1b6142","name":"大学病院","original_name":"大学病院","name_kana":"だいがくびょういん","closed":false,"lat":32.769017,"lng":129.864171,"prefecture":42,"numbering":["21"],"lines":[99913,99914],"attr":"heat","postal_code":"852-8107","address":"長崎市浜口町","voronoi":{"type":"Feature","geometry":{"type":"Polygon","coordinates":[[[129.858036,32.768285],[129.863657,32.767249],[129.874254,32.767249],[129.876933,32.767828],[129.881522,32.769773],[129.886142,32.775376],[129.858036,32.768285]]]},"properties":{}}},
    {"code":9991313,"id":"7b747c","name":"浦上駅前","original_name":"浦上駅前","name_kana":"うらかみえきまえ","closed":false,"lat":32.765481,"lng":129.864171,"prefecture":42,"numbering":["22"],"lines":[99913,99914],"attr":"heat","postal_code":"852-8106","address":"長崎市岩川町","voronoi":{"type":"Feature","geometry":{"type":"Polygon","coordinates":[[[129.874202,32.767228],[129.874254,32.767249],[129.863657,32.767249],[129.863923,32.764611],[129.874202,32.767228]]]},"properties":{}}},
    {"code":9991314,"id":"a995ff","name":"茂里町","original_name":"茂里町","name_kana":"もりまち","closed":false,"lat":32.763965,"lng":129.864557,"prefecture":42,"numbering":["23"],"lines":[99913,99914],"attr":"eco","postal_code":"852-8105","address":"長崎市目覚町","voronoi":{"type":"Feature","geometry":{"type":"Polygon","coordinates":[[[129.852734,32.756502],[129.863923,32.764611],[129.874202,32.767228],[129.852734,32.756502]]]},"properties":{}}},
    {"code":9991315,"id":"073277","name":"銭座町","original_name":"銭座町","name_kana":"ぜんざまち","closed":false,"lat":32.761475,"lng":129.865801,"prefecture":42,"numbering":["24"],"lines":[99913,99914],"attr":"eco","postal_code":"850-0047","address":"長崎市銭座町","voronoi":{"type":"Feature","geometry":{"type":"Polygon","coordinates":[[[129.874254,32.767249],[129.876933,32.767828],[129.861979,32.755061],[129.832786,32.744885],[129.852734,32.756502],[129.874202,32.767228],[129.874254,32.767249]]]},"properties":{}}},
    {"code":9991316,"id":"9f2bb3","name":"宝町(長崎)","original_name":"宝町","name_kana":"たからまち","closed":false,"lat":32.75783,"lng":129.868913,"prefecture":42,"numbering":["25"],"lines":[99913,99914],"attr":"eco","postal_code":"850-0045","address":"長崎市宝町","voronoi":{"type":"Feature","geometry":{"type":"Polygon","coordinates":[[[129.861979,32.755061],[129.876933,32.767828],[129.881522,32.769773],[129.878544,32.761142],[129.867244,32.755106],[129.861979,32.755061]]]},"properties":{}}},
    {"code":9991317,"id":"142ac3","name":"八千代町","original_name":"八千代町","name_kana":"やちよまち","closed":false,"lat":32.754979,"lng":129.870436,"prefecture":42,"numbering":["26"],"lines":[99913,99914],"attr":"cool","postal_code":"850-0043","address":"長崎市八千代町","voronoi":{"type":"Feature","geometry":{"type":"Polygon","coordinates":[[[129.875707,32.756198],[129.878209,32.759224],[129.878544,32.761142],[129.867244,32.755106],[129.870427,32.753277],[129.875707,32.756198]]]},"properties":{}}},
    {"code":9991318,"id":"9d68a7","name":"長崎駅前","original_name":"長崎駅前","name_kana":"ながさきえきまえ","closed":false,"lat":32.75238,"lng":129.871874,"prefecture":42,"numbering":["27"],"lines":[99913,99914],"attr":"eco","postal_code":"850-0057","address":"長崎市大黒町","voronoi":{"type":"Feature","geometry":{"type":"Polygon","coordinates":[[[129.875707,32.756198],[129.873456,32.751058],[129.870398,32.750705],[129.870427,32.753277],[129.875707,32.756198]]]},"properties":{}}},
    {"code":9991319,"id":"d4f580","name":"五島町","original_name":"五島町","name_kana":"ごとうまち","closed":false,"lat":32.749411,"lng":129.872217,"prefecture":42,"numbering":["28"],"lines":[99913],"attr":"cool","postal_code":"850-0035","address":"長崎市元船町２","voronoi":{"type":"Feature","geometry":{"type":"Polygon","coordinates":[[[129.867401,32.747452],[129.870398,32.750705],[129.873456,32.751058],[129.874947,32.747514],[129.874594,32.747165],[129.867401,32.747452]]]},"properties":{}}},
    {"code":9991320,"id":"3d0f3d","name":"大波止","original_name":"大波止","name_kana":"おおはと","closed":false,"lat":32.745116,"lng":129.872046,"prefecture":42,"numbering":["29"],"lines":[99913],"attr":"cool","postal_code":"850-0861","address":"長崎市江戸町２","voronoi":{"type":"Feature","geometry":{"type":"Polygon","coordinates":[[[129.874489,32.745742],[129.874194,32.744894],[129.873509,32.744011],[129.865097,32.746477],[129.867401,32.747452],[129.874594,32.747165],[129.874489,32.745742]]]},"properties":{}}},
    {"code":9991321,"id":"e3c3cd","name":"出島","original_name":"出島","name_kana":"でじま","closed":false,"lat":32.743871,"lng":129.871681,"prefecture":42,"numbering":["30"],"lines":[99913],"attr":"cool","postal_code":"850-0862","address":"長崎市出島町","voronoi":{"type":"Feature","geometry":{"type":"Polygon","coordinates":[[[129.855981,32.743573],[129.865097,32.746477],[129.873509,32.744011],[129.873016,32.742408],[129.868281,32.741377],[129.855981,32.743573]]]},"properties":{}}},
    {"code":9991322,"id":"1d0e91","name":"新地中華街","original_name":"新地中華街","name_kana":"しんちちゅうかがい","closed":false,"lat":32.742869,"lng":129.874942,"prefecture":42,"numbering":["31"],"lines":[99913,99916],"attr":"cool","postal_code":"850-0841","address":"長崎市銅座町","voronoi":{"type":"Feature","geometry":{"type":"Polygon","coordinates":[[[129.877463,32.737609],[129.873016,32.742408],[129.873509,32.744011],[129.874194,32.744894],[129.876644,32.741858],[129.877474,32.738029],[129.877463,32.737609]]]},"properties":{}}},
    {"code":9991323,"id":"a74a70","name":"西浜町","original_name":"西浜町","name_kana":"にしはまのまち","closed":false,"lat":32.743735,"lng":129.876015,"prefecture":42,"numbering":["32"],"lines":[99913,99916],"attr":"cool","postal_code":"850-0853","address":"長崎市浜町","voronoi":{"type":"Feature","geometry":{"type":"Polygon","coordinates":[[[129.876644,32.741858],[129.874194,32.744894],[129.874489,32.745742],[129.876929,32.743848],[129.876644,32.741858]]]},"properties":{}}},
    {"code":9991324,"id":"21b793","name":"観光通り","original_name":"観光通り","name_kana":"かんこうどおり","closed":false,"lat":32.743483,"lng":129.877775,"prefecture":42,"numbering":["33"],"lines":[99913,99915],"attr":"eco","postal_code":"850-0853","address":"長崎県長崎市浜町","voronoi":{"type":"Feature","geometry":{"type":"Polygon","coordinates":[[[129.877474,32.738029],[129.876644,32.741858],[129.876929,32.743848],[129.878542,32.745062],[129.879575,32.744928],[129.877474,32.738029]]]},"properties":{}}},
    {"code":9991325,"id":"ef3c8c","name":"思案橋","original_name":"思案橋","name_kana":"しあんばし","closed":false,"lat":32.742725,"lng":129.880264,"prefecture":42,"numbering":["34"],"lines":[99913,99915],"attr":"eco","postal_code":"850-0832","address":"長崎市油屋町","voronoi":{"type":"Feature","geometry":{"type":"Polygon","coordinates":[[[129.88169,32.746001],[129.879575,32.744928],[129.877474,32.738029],[129.877463,32.737609],[129.877517,32.737414],[129.87775,32.737198],[129.883865,32.745876],[129.88169,32.746001]]]},"properties":{}}},
    {"code":9991326,"id":"bc5985","name":"崇福寺","original_name":"崇福寺","name_kana":"そうふくじ","closed":false,"lat":32.741425,"lng":129.882109,"prefecture":42,"numbering":["35"],"lines":[99913,99915],"attr":"eco","postal_code":"850-0832","address":"長崎市油屋町","voronoi":{"type":"Feature","geometry":{"type":"Polygon","coordinates":[[[130.112835,32.448183],[130.100328,32.436208],[129.87775,32.737198],[129.883865,32.745876],[129.885947,32.746256],[129.888533,32.745172],[129.889898,32.744133],[130.105352,32.474649],[130.112835,32.448183]]]},"properties":{}}}
  ]
}