{
  "code":99912,
  "id":"5d1778",
  "name":"島原鉄道",
  "name_kana":"しまばらてつどう",
  "name_formal":"島原鉄道線",
  "station_size":24,
  "company_code":235,
  "closed":false,
  "station_list":[
    {"code":101204,"id":"a86fba","name":"諫早","original_name":"諫早","name_kana":"いさはや","closed":false,"lat":32.851018,"lng":130.041596,"prefecture":42,"lines":[1012,11905,11922,99912],"attr":"heat","postal_code":"854-0072","address":"諫早市永昌町","voronoi":{"type":"Feature","geometry":{"type":"Polygon","coordinates":[[[130.043154,32.919299],[130.014518,32.875522],[130.037495,32.834503],[130.051642,32.851849],[130.046723,32.906564],[130.043154,32.919299]]]},"properties":{}}},
    {"code":9991202,"id":"363aad","name":"本諫早","original_name":"本諫早","name_kana":"ほんいさはや","closed":false,"lat":32.841841,"lng":130.052848,"prefecture":42,"lines":[99912],"attr":"heat","postal_code":"854-0014","address":"諫早市東小路町４-２２","voronoi":{"type":"Feature","geometry":{"type":"Polygon","coordinates":[[[130.041026,32.784018],[130.037495,32.834503],[130.051642,32.851849],[130.061431,32.843981],[130.041026,32.784018]]]},"properties":{}}},
    {"code":9991203,"id":"5af4d2","name":"幸","original_name":"幸","name_kana":"さいわい","closed":false,"lat":32.83705,"lng":130.066927,"prefecture":42,"lines":[99912],"attr":"heat","postal_code":"854-0022","address":"諫早市幸町８２１-２","voronoi":{"type":"Feature","geometry":{"type":"Polygon","coordinates":[[[130.075109,32.848535],[130.061431,32.843981],[130.041026,32.784018],[130.038063,32.731618],[130.052212,32.689317],[130.078127,32.846943],[130.075109,32.848535]]]},"properties":{}}},
    {"code":9991204,"id":"c60041","name":"小野(長崎)","original_name":"小野","name_kana":"おの","closed":false,"lat":32.833985,"lng":130.08557,"prefecture":42,"lines":[99912],"attr":"heat","postal_code":"854-0034","address":"諫早市小野町５２０-１３","voronoi":{"type":"Feature","geometry":{"type":"Polygon","coordinates":[[[130.10092,32.793927],[130.085674,32.848464],[130.078127,32.846943],[130.052212,32.689317],[130.073676,32.608349],[130.102405,32.741533],[130.102709,32.743306],[130.10092,32.793927]]]},"properties":{}}},
    {"code":9991205,"id":"bb0504","name":"干拓の里","original_name":"干拓の里","name_kana":"かんたくのさと","closed":false,"lat":32.836138,"lng":130.093272,"prefecture":42,"lines":[99912],"attr":"heat","postal_code":"854-0034","address":"諫早市小野町２８９-２","voronoi":{"type":"Feature","geometry":{"type":"Polygon","coordinates":[[[130.085674,32.848464],[130.10092,32.793927],[130.104659,32.858314],[130.085674,32.848464]]]},"properties":{}}},
    {"code":9991206,"id":"81bcdf","name":"森山","original_name":"森山","name_kana":"もりやま","closed":false,"lat":32.834969,"lng":130.113402,"prefecture":42,"lines":[99912],"attr":"heat","postal_code":"854-0201","address":"諫早市森山町下井牟田２４１１-５","voronoi":{"type":"Feature","geometry":{"type":"Polygon","coordinates":[[[130.108474,32.863073],[130.125785,32.863417],[130.123212,32.804884],[130.102709,32.743306],[130.10092,32.793927],[130.104659,32.858314],[130.108474,32.863073]]]},"properties":{}}},
    {"code":9991207,"id":"4f9750","name":"釜ノ鼻","original_name":"釜ノ鼻","name_kana":"かまのはな","closed":false,"lat":32.833992,"lng":130.135624,"prefecture":42,"lines":[99912],"attr":"heat","postal_code":"854-0204","address":"諫早市森山町田尻９８５-１","voronoi":{"type":"Feature","geometry":{"type":"Polygon","coordinates":[[[130.123212,32.804884],[130.125785,32.863417],[130.140141,32.869259],[130.156995,32.868071],[130.154167,32.843121],[130.123212,32.804884]]]},"properties":{}}},
    {"code":9991208,"id":"50882d","name":"諫早東高校","original_name":"諫早東高校","name_kana":"いさはやひがしこうこう","closed":false,"lat":32.823084,"lng":130.149098,"prefecture":42,"lines":[99912],"attr":"heat","postal_code":"854-0205","address":"諫早市森山町杉谷１０９-２","voronoi":{"type":"Feature","geometry":{"type":"Polygon","coordinates":[[[130.154167,32.843121],[130.123212,32.804884],[130.102709,32.743306],[130.102405,32.741533],[130.158399,32.830347],[130.154167,32.843121]]]},"properties":{}}},
    {"code":9991209,"id":"bd79fd","name":"愛野(長崎)","original_name":"愛野","name_kana":"あいの","closed":false,"lat":32.818824,"lng":130.155855,"prefecture":42,"lines":[99912],"attr":"heat","postal_code":"854-0301","address":"雲仙市愛野町甲３８７３-３","voronoi":{"type":"Feature","geometry":{"type":"Polygon","coordinates":[[[130.229827,32.739285],[130.158399,32.830347],[130.102405,32.741533],[130.073676,32.608349],[130.075505,32.59],[130.105352,32.474649],[130.112835,32.448183],[130.14236,32.459721],[130.207243,32.556186],[130.244699,32.715708],[130.229827,32.739285]]]},"properties":{}}},
    {"code":9991210,"id":"349066","name":"阿母崎","original_name":"阿母崎","name_kana":"あぼざき","closed":false,"lat":32.830073,"lng":130.170196,"prefecture":42,"lines":[99912],"attr":"heat","postal_code":"859-1116","address":"雲仙市吾妻町阿母名１０９６-１","voronoi":{"type":"Feature","geometry":{"type":"Polygon","coordinates":[[[130.154167,32.843121],[130.156995,32.868071],[130.161966,32.870039],[130.229827,32.739285],[130.158399,32.830347],[130.154167,32.843121]]]},"properties":{}}},
    {"code":9991211,"id":"0ead46","name":"吾妻","original_name":"吾妻","name_kana":"あづま","closed":false,"lat":32.840305,"lng":130.189911,"prefecture":42,"lines":[99912],"attr":"heat","postal_code":"859-1107","address":"雲仙市吾妻町牛口名２８０-３","voronoi":{"type":"Feature","geometry":{"type":"Polygon","coordinates":[[[130.161966,32.870039],[130.229827,32.739285],[130.244699,32.715708],[130.260734,32.755964],[130.240522,32.791917],[130.180437,32.878675],[130.167936,32.874601],[130.161966,32.870039]]]},"properties":{}}},
    {"code":9991212,"id":"ded4be","name":"古部","original_name":"古部","name_kana":"こべ","closed":false,"lat":32.856312,"lng":130.213024,"prefecture":42,"lines":[99912],"attr":"heat","postal_code":"859-1216","address":"雲仙市瑞穂町古部乙８２-４","voronoi":{"type":"Feature","geometry":{"type":"Polygon","coordinates":[[[130.207994,32.893452],[130.240522,32.791917],[130.180437,32.878675],[130.189978,32.88637],[130.207994,32.893452]]]},"properties":{}}},
    {"code":9991213,"id":"0ccae8","name":"大正(長崎)","original_name":"大正","name_kana":"たいしょう","closed":false,"lat":32.860303,"lng":130.225482,"prefecture":42,"lines":[99912],"attr":"eco","postal_code":"859-1215","address":"雲仙市瑞穂町古部甲５-２","voronoi":{"type":"Feature","geometry":{"type":"Polygon","coordinates":[[[130.207994,32.893452],[130.240522,32.791917],[130.260734,32.755964],[130.266058,32.764355],[130.270255,32.776533],[130.255012,32.836682],[130.213858,32.897047],[130.207994,32.893452]]]},"properties":{}}},
    {"code":9991214,"id":"5933aa","name":"西郷","original_name":"西郷","name_kana":"さいごう","closed":false,"lat":32.872801,"lng":130.243814,"prefecture":42,"lines":[99912],"attr":"eco","postal_code":"859-1206","address":"雲仙市瑞穂町西郷辛１３６-１","voronoi":{"type":"Feature","geometry":{"type":"Polygon","coordinates":[[[130.255012,32.836682],[130.213858,32.897047],[130.243675,32.930443],[130.25995,32.936278],[130.255012,32.836682]]]},"properties":{}}},
    {"code":9991215,"id":"a30361","name":"神代(長崎)","original_name":"神代","name_kana":"こうじろ","closed":false,"lat":32.871516,"lng":130.269728,"prefecture":42,"lines":[99912],"attr":"eco","postal_code":"859-1302","address":"雲仙市国見町神代乙４５４-２","voronoi":{"type":"Feature","geometry":{"type":"Polygon","coordinates":[[[130.255012,32.836682],[130.25995,32.936278],[130.287984,32.953221],[130.289795,32.824336],[130.28505,32.803407],[130.277656,32.787966],[130.270255,32.776533],[130.255012,32.836682]]]},"properties":{}}},
    {"code":9991216,"id":"8e4525","name":"多比良","original_name":"多比良","name_kana":"たいら","closed":false,"lat":32.872061,"lng":130.308528,"prefecture":42,"lines":[99912],"attr":"eco","postal_code":"859-1322","address":"雲仙市国見町多比良乙２００-２","voronoi":{"type":"Feature","geometry":{"type":"Polygon","coordinates":[[[130.320679,32.985403],[130.287984,32.953221],[130.289795,32.824336],[130.363179,32.929101],[130.320679,32.985403]]]},"properties":{}}},
    {"code":9991217,"id":"10b6ce","name":"有明湯江","original_name":"有明湯江","name_kana":"ありあけゆえ","closed":false,"lat":32.858249,"lng":130.328246,"prefecture":42,"lines":[99912],"attr":"eco","postal_code":"859-1401","address":"島原市有明町湯江甲４７２-２","voronoi":{"type":"Feature","geometry":{"type":"Polygon","coordinates":[[[130.385841,32.906839],[130.317778,32.829875],[130.28505,32.803407],[130.289795,32.824336],[130.363179,32.929101],[130.385499,32.907405],[130.385841,32.906839]]]},"properties":{}}},
    {"code":9991218,"id":"391be1","name":"大三東","original_name":"大三東","name_kana":"おおみさき","closed":false,"lat":32.843734,"lng":130.344659,"prefecture":42,"lines":[99912],"attr":"cool","postal_code":"859-1413","address":"島原市有明町大三東丙１３５-２","voronoi":{"type":"Feature","geometry":{"type":"Polygon","coordinates":[[[130.317778,32.829875],[130.385841,32.906839],[130.421854,32.86314],[130.317778,32.829875]]]},"properties":{}}},
    {"code":9991219,"id":"f83582","name":"松尾(長崎)","original_name":"松尾","name_kana":"まつお","closed":false,"lat":32.834176,"lng":130.347714,"prefecture":42,"lines":[99912],"attr":"cool","postal_code":"859-1411","address":"島原市有明町大三東甲２０１２","voronoi":{"type":"Feature","geometry":{"type":"Polygon","coordinates":[[[130.277656,32.787966],[130.28505,32.803407],[130.317778,32.829875],[130.421854,32.86314],[130.42481,32.859982],[130.277656,32.787966]]]},"properties":{}}},
    {"code":9991220,"id":"dc8b64","name":"三会","original_name":"三会","name_kana":"みえ","closed":false,"lat":32.814936,"lng":130.35713,"prefecture":42,"lines":[99912],"attr":"cool","postal_code":"855-0012","address":"島原市大手原町甲２２１８-１","voronoi":{"type":"Feature","geometry":{"type":"Polygon","coordinates":[[[130.323585,32.780488],[130.266058,32.764355],[130.270255,32.776533],[130.277656,32.787966],[130.42481,32.859982],[130.442065,32.845847],[130.323585,32.780488]]]},"properties":{}}},
    {"code":9991221,"id":"d789af","name":"島原","original_name":"島原","name_kana":"しまばら","closed":false,"lat":32.790489,"lng":130.370616,"prefecture":42,"lines":[99912],"attr":"cool","postal_code":"855-0042","address":"島原市片町５７７-１","voronoi":{"type":"Feature","geometry":{"type":"Polygon","coordinates":[[[130.465467,32.826934],[130.452991,32.839427],[130.442065,32.845847],[130.323585,32.780488],[130.357364,32.779773],[130.465467,32.826934]]]},"properties":{}}},
    {"code":9991222,"id":"c3f319","name":"霊丘公園体育館","original_name":"霊丘公園体育館","name_kana":"れいきゅうこうえんたいいくかん","closed":false,"lat":32.782198,"lng":130.374233,"prefecture":42,"lines":[99912],"attr":"cool","postal_code":"855-0802","address":"島原市弁天町２-７３８９-１０","voronoi":{"type":"Feature","geometry":{"type":"Polygon","coordinates":[[[130.366132,32.777159],[130.357364,32.779773],[130.465467,32.826934],[130.491378,32.803202],[130.366132,32.777159]]]},"properties":{}}},
    {"code":9991223,"id":"7fc412","name":"島原船津","original_name":"島原船津","name_kana":"しまばらふなつ","closed":false,"lat":32.775768,"lng":130.37557,"prefecture":42,"lines":[99912],"attr":"cool","postal_code":"855-0814","address":"島原市津町４０９-１","voronoi":{"type":"Feature","geometry":{"type":"Polygon","coordinates":[[[130.497655,32.797764],[130.476156,32.75108],[130.445784,32.717713],[130.366132,32.777159],[130.491378,32.803202],[130.497655,32.797764]]]},"properties":{}}},
    {"code":9991224,"id":"1929b5","name":"島原港","original_name":"島原港","name_kana":"しまばらこう","closed":false,"lat":32.768507,"lng":130.370151,"prefecture":42,"lines":[99912],"attr":"cool","postal_code":"855-0861","address":"島原市下川尻町７９２３-２","voronoi":{"type":"Feature","geometry":{"type":"Polygon","coordinates":[[[130.366132,32.777159],[130.445784,32.717713],[130.422798,32.689788],[130.207243,32.556186],[130.244699,32.715708],[130.260734,32.755964],[130.266058,32.764355],[130.323585,32.780488],[130.357364,32.779773],[130.366132,32.777159]]]},"properties":{}}}
  ]
}