{
  "code":99919,
  "id":"9dbffa",
  "name":"南阿蘇鉄道高森線",
  "name_kana":"みなみあそてつどうたかもりせん",
  "station_size":10,
  "company_code":238,
  "closed":false,
  "station_list":[
    {"code":1192314,"id":"f35b3c","name":"立野(熊本)","original_name":"立野","name_kana":"たての","closed":false,"lat":32.87757,"lng":130.965403,"prefecture":43,"lines":[11923,99919],"attr":"eco","postal_code":"869-1401","address":"阿蘇郡南阿蘇村立野","voronoi":{"type":"Feature","geometry":{"type":"Polygon","coordinates":[[[130.934382,32.929907],[130.946732,32.803121],[130.995076,32.883147],[130.934382,32.929907]]]},"properties":{}}},
    {"code":9991902,"id":"db8f1b","name":"長陽","original_name":"長陽","name_kana":"ちょうよう","closed":false,"lat":32.854287,"lng":131.003945,"prefecture":43,"lines":[99919],"attr":"heat","postal_code":"869-1404","address":"阿蘇郡南阿蘇村河陽","voronoi":{"type":"Feature","geometry":{"type":"Polygon","coordinates":[[[130.946732,32.803121],[130.944254,32.790934],[131.02189,32.865269],[131.033583,32.889793],[131.031191,32.889911],[130.995076,32.883147],[130.946732,32.803121]]]},"properties":{}}},
    {"code":9991903,"id":"c1f26f","name":"加勢","original_name":"加勢","name_kana":"かせ","closed":false,"lat":32.847818,"lng":131.010139,"prefecture":43,"lines":[99919],"attr":"heat","postal_code":"869-1404","address":"阿蘇郡南阿蘇村河陽","voronoi":{"type":"Feature","geometry":{"type":"Polygon","coordinates":[[[130.933784,32.640627],[130.9191,32.693267],[130.944254,32.790934],[131.02189,32.865269],[131.006645,32.800281],[130.933784,32.640627]]]},"properties":{}}},
    {"code":9991904,"id":"600c47","name":"阿蘇下田城","original_name":"阿蘇下田城","name_kana":"あそしもだじょう","closed":false,"lat":32.844413,"lng":131.024654,"prefecture":43,"lines":[99919],"attr":"heat","postal_code":"869-1404","address":"阿蘇郡南阿蘇村河陽","voronoi":{"type":"Feature","geometry":{"type":"Polygon","coordinates":[[[131.042599,32.891633],[131.033583,32.889793],[131.02189,32.865269],[131.006645,32.800281],[131.062623,32.884766],[131.055197,32.889184],[131.042599,32.891633]]]},"properties":{}}},
    {"code":9991905,"id":"e2e6d8","name":"南阿蘇水の生まれる里白水高原","original_name":"南阿蘇水の生まれる里白水高原","name_kana":"みなみあそみずのうまれるさとはくすいこうげん","closed":false,"lat":32.83407,"lng":131.040264,"prefecture":43,"lines":[99919],"attr":"heat","postal_code":"869-1505","address":"阿蘇郡南阿蘇村中松","voronoi":{"type":"Feature","geometry":{"type":"Polygon","coordinates":[[[130.933784,32.640627],[130.938835,32.615314],[131.0722,32.881087],[131.062623,32.884766],[131.006645,32.800281],[130.933784,32.640627]]]},"properties":{}}},
    {"code":9991906,"id":"dc98ac","name":"中松","original_name":"中松","name_kana":"なかまつ","closed":false,"lat":32.827381,"lng":131.053594,"prefecture":43,"lines":[99919],"attr":"eco","postal_code":"869-2205","address":"阿蘇郡南阿蘇村中松","voronoi":{"type":"Feature","geometry":{"type":"Polygon","coordinates":[[[130.970759,32.560589],[131.024702,32.553327],[131.07791,32.879719],[131.0722,32.881087],[130.938835,32.615314],[130.939764,32.609772],[130.970759,32.560589]]]},"properties":{}}},
    {"code":9991907,"id":"88331e","name":"阿蘇白川","original_name":"阿蘇白川","name_kana":"あそしらかわ","closed":false,"lat":32.822368,"lng":131.084345,"prefecture":43,"lines":[99919],"attr":"heat","postal_code":"869-1502","address":"阿蘇郡南阿蘇村白川","voronoi":{"type":"Feature","geometry":{"type":"Polygon","coordinates":[[[131.046044,32.549214],[131.024702,32.553327],[131.07791,32.879719],[131.084199,32.879959],[131.089147,32.879511],[131.08689,32.766341],[131.046044,32.549214]]]},"properties":{}}},
    {"code":9991910,"id":"342e55","name":"南阿蘇白川水源","original_name":"南阿蘇白川水源","name_kana":"みなみあそしらかわすいげん","closed":false,"lat":32.822222,"lng":131.091667,"prefecture":43,"lines":[99919],"attr":"eco","postal_code":"869-1502","address":"熊本県阿蘇郡南阿蘇村","open_date":"2012-03-17","voronoi":{"type":"Feature","geometry":{"type":"Polygon","coordinates":[[[131.08689,32.766341],[131.089147,32.879511],[131.107887,32.87902],[131.11208,32.87808],[131.110294,32.857507],[131.08689,32.766341]]]},"properties":{}}},
    {"code":9991908,"id":"d7cc59","name":"見晴台","original_name":"見晴台","name_kana":"みはらしだい","closed":false,"lat":32.817613,"lng":131.109621,"prefecture":43,"lines":[99919],"attr":"cool","postal_code":"869-1501","address":"阿蘇郡南阿蘇村両併","voronoi":{"type":"Feature","geometry":{"type":"Polygon","coordinates":[[[131.046044,32.549214],[131.160314,32.521612],[131.110294,32.857507],[131.08689,32.766341],[131.046044,32.549214]]]},"properties":{}}},
    {"code":9991909,"id":"ed98f2","name":"高森","original_name":"高森","name_kana":"たかもり","closed":false,"lat":32.81954,"lng":131.122561,"prefecture":43,"lines":[99919],"attr":"cool","postal_code":"869-1602","address":"阿蘇郡高森町大字高森","voronoi":{"type":"Feature","geometry":{"type":"Polygon","coordinates":[[[131.349419,32.589586],[131.273169,32.491735],[131.160314,32.521612],[131.110294,32.857507],[131.11208,32.87808],[131.157322,32.880033],[131.209294,32.848272],[131.254903,32.800152],[131.363428,32.623137],[131.349419,32.589586]]]},"properties":{}}}
  ]
}