{
  "code":99910,
  "id":"e6a53c",
  "name":"松浦鉄道西九州線(有田～伊万里)",
  "name_kana":"まつうらてうどう",
  "station_size":11,
  "company_code":234,
  "closed":false,
  "station_list":[
    {"code":1191809,"id":"33eabe","name":"有田","original_name":"有田","name_kana":"ありた","closed":false,"lat":33.183779,"lng":129.881787,"prefecture":41,"lines":[11918,99910],"attr":"eco","postal_code":"844-0000","address":"西松浦郡有田町中部本町","voronoi":{"type":"Feature","geometry":{"type":"Polygon","coordinates":[[[129.882512,33.124609],[129.863423,33.15457],[129.884807,33.218477],[129.884908,33.218562],[129.912041,33.120087],[129.882512,33.124609]]]},"properties":{}}},
    {"code":9991002,"id":"02f1ff","name":"三代橋","original_name":"三代橋","name_kana":"みだいばし","closed":false,"lat":33.188949,"lng":129.866336,"prefecture":41,"lines":[99910],"attr":"cool","postal_code":"844-0027","address":"西松浦郡有田町南原甲","voronoi":{"type":"Feature","geometry":{"type":"Polygon","coordinates":[[[129.87019,33.208566],[129.848088,33.169297],[129.863423,33.15457],[129.884807,33.218477],[129.878623,33.215407],[129.87019,33.208566]]]},"properties":{}}},
    {"code":9991003,"id":"181d51","name":"黒川(佐賀)","original_name":"黒川","name_kana":"くろごう","closed":false,"lat":33.195093,"lng":129.85542,"prefecture":41,"lines":[99910],"attr":"cool","postal_code":"849-4165","address":"西松浦郡有田町黒川甲","voronoi":{"type":"Feature","geometry":{"type":"Polygon","coordinates":[[[129.87019,33.208566],[129.863566,33.206051],[129.828313,33.180868],[129.848088,33.169297],[129.87019,33.208566]]]},"properties":{}}},
    {"code":9991004,"id":"75dd04","name":"蔵宿","original_name":"蔵宿","name_kana":"ぞうしゅく","closed":false,"lat":33.201898,"lng":129.850559,"prefecture":41,"lines":[99910],"attr":"cool","postal_code":"849-4164","address":"西松浦郡有田町仏ノ原丙","voronoi":{"type":"Feature","geometry":{"type":"Polygon","coordinates":[[[129.828313,33.180868],[129.863566,33.206051],[129.795519,33.202531],[129.804649,33.190662],[129.828313,33.180868]]]},"properties":{}}},
    {"code":9991005,"id":"b4a95a","name":"西有田","original_name":"西有田","name_kana":"にしありた","closed":false,"lat":33.208839,"lng":129.8502,"prefecture":41,"lines":[99910],"attr":"cool","postal_code":"849-4153","address":"西松浦郡有田町立部乙","voronoi":{"type":"Feature","geometry":{"type":"Polygon","coordinates":[[[129.863566,33.206051],[129.87019,33.208566],[129.878623,33.215407],[129.78843,33.214836],[129.788518,33.21123],[129.789602,33.209292],[129.795519,33.202531],[129.863566,33.206051]]]},"properties":{}}},
    {"code":9991006,"id":"0b0ea0","name":"大木","original_name":"大木","name_kana":"おおぎ","closed":false,"lat":33.221615,"lng":129.850119,"prefecture":41,"lines":[99910],"attr":"cool","postal_code":"849-4154","address":"西松浦郡有田町大木宿字永野乙","voronoi":{"type":"Feature","geometry":{"type":"Polygon","coordinates":[[[129.787858,33.21929],[129.78843,33.214836],[129.878623,33.215407],[129.884807,33.218477],[129.884908,33.218562],[129.890408,33.228268],[129.880436,33.228517],[129.787858,33.21929]]]},"properties":{}}},
    {"code":9991007,"id":"dc66b6","name":"山谷","original_name":"山谷","name_kana":"やまだに","closed":false,"lat":33.2293,"lng":129.849353,"prefecture":41,"lines":[99910],"attr":"cool","postal_code":"849-4143","address":"西松浦郡有田町下山谷字鈴芽乙","voronoi":{"type":"Feature","geometry":{"type":"Polygon","coordinates":[[[129.787858,33.21929],[129.783771,33.240577],[129.788628,33.242348],[129.880436,33.228517],[129.787858,33.21929]]]},"properties":{}}},
    {"code":9991008,"id":"e0ec3c","name":"夫婦石","original_name":"夫婦石","name_kana":"めおといし","closed":false,"lat":33.236927,"lng":129.850502,"prefecture":41,"lines":[99910],"attr":"cool","postal_code":"849-4141","address":"西松浦郡有田町二ノ瀬字開田甲","voronoi":{"type":"Feature","geometry":{"type":"Polygon","coordinates":[[[129.880436,33.228517],[129.788628,33.242348],[129.80117,33.247827],[129.819195,33.253356],[129.885744,33.235449],[129.890927,33.228878],[129.890408,33.228268],[129.880436,33.228517]]]},"properties":{}}},
    {"code":9991009,"id":"138974","name":"金武","original_name":"金武","name_kana":"かなたけ","closed":false,"lat":33.251856,"lng":129.854519,"prefecture":41,"lines":[99910],"attr":"cool","postal_code":"848-0033","address":"伊万里市二里町中里乙１１３８-３","voronoi":{"type":"Feature","geometry":{"type":"Polygon","coordinates":[[[129.819195,33.253356],[129.825149,33.256749],[129.850301,33.264917],[129.877662,33.248484],[129.881583,33.24413],[129.885744,33.235449],[129.819195,33.253356]]]},"properties":{}}},
    {"code":9991010,"id":"10da81","name":"川東(佐賀)","original_name":"川東","name_kana":"かわひがし","closed":false,"lat":33.267329,"lng":129.863812,"prefecture":41,"lines":[99910],"attr":"cool","postal_code":"848-0032","address":"伊万里市二里町大里甲","voronoi":{"type":"Feature","geometry":{"type":"Polygon","coordinates":[[[129.850301,33.264917],[129.877662,33.248484],[129.863925,33.287682],[129.850301,33.264917]]]},"properties":{}}},
    {"code":1192014,"id":"929668","name":"伊万里","original_name":"伊万里","name_kana":"いまり","closed":false,"lat":33.271852,"lng":129.876718,"prefecture":41,"lines":[11920,99910,99911],"attr":"eco","postal_code":"848-0041","address":"伊万里市新天町","voronoi":{"type":"Feature","geometry":{"type":"Polygon","coordinates":[[[129.885017,33.355794],[129.890172,33.362789],[129.894278,33.356417],[129.881583,33.24413],[129.877662,33.248484],[129.863925,33.287682],[129.8723,33.329718],[129.876145,33.342112],[129.885017,33.355794]]]},"properties":{}}}
  ]
}