{
  "code":99920,
  "id":"5eacec",
  "name":"くま川鉄道湯前線",
  "name_kana":"くまがわてつどうゆのまえせん",
  "station_size":14,
  "company_code":239,
  "closed":false,
  "station_list":[
    {"code":1192515,"id":"c900e0","name":"人吉(人吉温泉)","original_name":"人吉(人吉温泉)","name_kana":"ひとよしおんせん","closed":false,"lat":32.216142,"lng":130.753797,"prefecture":43,"lines":[11925,99920],"attr":"cool","postal_code":"868-0008","address":"人吉市中青井町","voronoi":{"type":"Feature","geometry":{"type":"Polygon","coordinates":[[[130.71484,32.153493],[130.70937,32.15271],[130.755711,32.258817],[130.766029,32.187402],[130.71484,32.153493]]]},"properties":{}}},
    {"code":9992002,"id":"974356","name":"相良藩願成寺","original_name":"相良藩願成寺","name_kana":"さがらはんがんじょうじ","closed":false,"lat":32.218429,"lng":130.769626,"prefecture":43,"lines":[99920],"attr":"cool","postal_code":"868-0022","address":"人吉市願成寺町高野","voronoi":{"type":"Feature","geometry":{"type":"Polygon","coordinates":[[[130.775797,32.3472],[130.755711,32.258817],[130.766029,32.187402],[130.772347,32.18954],[130.807789,32.271207],[130.809261,32.297877],[130.80514,32.361009],[130.804497,32.366323],[130.775797,32.3472]]]},"properties":{}}},
    {"code":9992003,"id":"2c05cb","name":"川村(熊本)","original_name":"川村","name_kana":"かわむら","closed":false,"lat":32.207284,"lng":130.795307,"prefecture":43,"lines":[99920],"attr":"cool","postal_code":"868-0095","address":"球磨郡相良村大字柳瀬","voronoi":{"type":"Feature","geometry":{"type":"Polygon","coordinates":[[[130.807789,32.271207],[130.772347,32.18954],[130.79493,32.185495],[130.81356,32.235785],[130.807789,32.271207]]]},"properties":{}}},
    {"code":9992004,"id":"68ba8e","name":"肥後西村","original_name":"肥後西村","name_kana":"ひごにしのむら","closed":false,"lat":32.202271,"lng":130.808839,"prefecture":43,"lines":[99920],"attr":"cool","postal_code":"868-0303","address":"球磨郡錦町大字西","voronoi":{"type":"Feature","geometry":{"type":"Polygon","coordinates":[[[130.79493,32.185495],[130.844513,32.157455],[130.81356,32.235785],[130.79493,32.185495]]]},"properties":{}}},
    {"code":9992005,"id":"8d2e39","name":"一武","original_name":"一武","name_kana":"いちぶ","closed":false,"lat":32.214551,"lng":130.839915,"prefecture":43,"lines":[99920],"attr":"cool","postal_code":"868-0302","address":"球磨郡錦町大字一武","voronoi":{"type":"Feature","geometry":{"type":"Polygon","coordinates":[[[130.844513,32.157455],[130.873775,32.126676],[130.884078,32.127264],[130.895538,32.129208],[130.809261,32.297877],[130.807789,32.271207],[130.81356,32.235785],[130.844513,32.157455]]]},"properties":{}}},
    {"code":9992006,"id":"783f62","name":"木上","original_name":"木上","name_kana":"きのえ","closed":false,"lat":32.224256,"lng":130.858888,"prefecture":43,"lines":[99920],"attr":"cool","postal_code":"868-0301","address":"球磨郡錦町大字木上","voronoi":{"type":"Feature","geometry":{"type":"Polygon","coordinates":[[[130.809261,32.297877],[130.80514,32.361009],[130.909484,32.133305],[130.91056,32.13016],[130.895538,32.129208],[130.809261,32.297877]]]},"properties":{}}},
    {"code":9992007,"id":"0fe6d1","name":"おかどめ幸福","original_name":"おかどめ幸福","name_kana":"おかどめこうふく","closed":false,"lat":32.231011,"lng":130.873629,"prefecture":43,"lines":[99920],"attr":"cool","postal_code":"868-0400","address":"球磨郡あさぎり町","voronoi":{"type":"Feature","geometry":{"type":"Polygon","coordinates":[[[130.821169,32.389137],[130.804497,32.366323],[130.80514,32.361009],[130.909484,32.133305],[130.869123,32.290339],[130.821169,32.389137]]]},"properties":{}}},
    {"code":9992008,"id":"8f2d2a","name":"あさぎり","original_name":"あさぎり","name_kana":"あさぎり","closed":false,"lat":32.236191,"lng":130.893783,"prefecture":43,"lines":[99920],"attr":"heat","postal_code":"868-0415","address":"熊本県球磨郡あさぎり町免田","voronoi":{"type":"Feature","geometry":{"type":"Polygon","coordinates":[[[130.983854,32.132205],[130.869123,32.290339],[130.909484,32.133305],[130.91056,32.13016],[130.940628,32.126859],[130.983854,32.132205]]]},"properties":{}}},
    {"code":9992009,"id":"2c401e","name":"東免田","original_name":"東免田","name_kana":"ひがしめんだ","closed":false,"lat":32.250095,"lng":130.912947,"prefecture":43,"lines":[99920],"attr":"heat","postal_code":"868-0400","address":"球磨郡あさぎり町","voronoi":{"type":"Feature","geometry":{"type":"Polygon","coordinates":[[[130.983854,32.132205],[130.869123,32.290339],[130.821169,32.389137],[130.824117,32.394538],[130.996376,32.133051],[130.994518,32.132598],[130.983854,32.132205]]]},"properties":{}}},
    {"code":9992010,"id":"e8d7c1","name":"公立病院前","original_name":"公立病院前","name_kana":"こうりつびょういんまえ","closed":false,"lat":32.255906,"lng":130.921768,"prefecture":43,"lines":[99920],"attr":"heat","postal_code":"868-0501","address":"球磨郡多良木町大字多良木","voronoi":{"type":"Feature","geometry":{"type":"Polygon","coordinates":[[[131.001548,32.134111],[130.997251,32.143935],[130.835244,32.412379],[130.827012,32.400259],[130.824117,32.394538],[130.996376,32.133051],[131.001548,32.134111]]]},"properties":{}}},
    {"code":9992011,"id":"11e558","name":"多良木","original_name":"多良木","name_kana":"たらぎ","closed":false,"lat":32.262903,"lng":130.933362,"prefecture":43,"lines":[99920],"attr":"heat","postal_code":"868-0501","address":"球磨郡多良木町大字多良木","voronoi":{"type":"Feature","geometry":{"type":"Polygon","coordinates":[[[130.997251,32.143935],[130.835244,32.412379],[130.851069,32.437687],[130.970704,32.214008],[130.997251,32.143935]]]},"properties":{}}},
    {"code":9992012,"id":"7029a2","name":"東多良木","original_name":"東多良木","name_kana":"ひがしたらぎ","closed":false,"lat":32.272211,"lng":130.950765,"prefecture":43,"lines":[99920],"attr":"eco","postal_code":"868-0502","address":"球磨郡多良木町大字黒肥地","voronoi":{"type":"Feature","geometry":{"type":"Polygon","coordinates":[[[130.970704,32.214008],[130.851069,32.437687],[130.871857,32.475051],[130.897204,32.49482],[130.943858,32.345734],[130.970704,32.214008]]]},"properties":{}}},
    {"code":9992013,"id":"673a41","name":"新鶴羽","original_name":"新鶴羽","name_kana":"しんつるば","closed":false,"lat":32.275372,"lng":130.966275,"prefecture":43,"lines":[99920],"attr":"eco","postal_code":"868-0501","address":"球磨郡多良木町大字多良木","voronoi":{"type":"Feature","geometry":{"type":"Polygon","coordinates":[[[130.943858,32.345734],[130.970704,32.214008],[130.997251,32.143935],[131.001548,32.134111],[131.03549,32.135287],[130.943858,32.345734]]]},"properties":{}}},
    {"code":9992014,"id":"406d8f","name":"湯前","original_name":"湯前","name_kana":"ゆのまえ","closed":false,"lat":32.281389,"lng":130.980094,"prefecture":43,"lines":[99920],"attr":"eco","postal_code":"868-0600","address":"球磨郡湯前町字上牧原","voronoi":{"type":"Feature","geometry":{"type":"Polygon","coordinates":[[[131.03549,32.135287],[131.216913,32.132814],[131.230589,32.155339],[131.237617,32.168838],[131.267891,32.244414],[131.275735,32.294842],[131.279799,32.373749],[131.278432,32.46813],[131.273169,32.491735],[131.160314,32.521612],[131.046044,32.549214],[131.024702,32.553327],[130.970759,32.560589],[130.897204,32.49482],[130.943858,32.345734],[131.03549,32.135287]]]},"properties":{}}}
  ]
}