{
  "code":99921,
  "id":"997bb3",
  "name":"肥薩おれんじ鉄道",
  "name_kana":"ひさつおれんじてつどう",
  "name_formal":"肥薩おれんじ鉄道線",
  "station_size":28,
  "company_code":240,
  "closed":false,
  "station_list":[
    {"code":1190349,"id":"5c4fda","name":"八代","original_name":"八代","name_kana":"やつしろ","closed":false,"lat":32.503805,"lng":130.621609,"prefecture":43,"lines":[11903,11925,99921],"attr":"cool","postal_code":"866-0831","address":"八代市萩原町１丁目","voronoi":{"type":"Feature","geometry":{"type":"Polygon","coordinates":[[[130.632096,32.484888],[130.52176,32.52011],[130.564468,32.571141],[130.645877,32.4942],[130.632096,32.484888]]]},"properties":{}}},
    {"code":9992102,"id":"5b6e58","name":"肥後高田","original_name":"肥後高田","name_kana":"ひごこうだ","closed":false,"lat":32.475546,"lng":130.612588,"prefecture":43,"lines":[99921],"attr":"cool","postal_code":"866-0074","address":"八代市平山新町","voronoi":{"type":"Feature","geometry":{"type":"Polygon","coordinates":[[[130.519505,32.518105],[130.519267,32.517848],[130.521637,32.515174],[130.619601,32.438179],[130.620209,32.438485],[130.622168,32.440682],[130.632096,32.484888],[130.52176,32.52011],[130.519505,32.518105]]]},"properties":{}}},
    {"code":9992103,"id":"10032d","name":"日奈久温泉","original_name":"日奈久温泉","name_kana":"ひなぐおんせん","closed":false,"lat":32.436163,"lng":130.581635,"prefecture":43,"lines":[99921],"attr":"cool","postal_code":"869-5142","address":"八代市日奈久塩北町","voronoi":{"type":"Feature","geometry":{"type":"Polygon","coordinates":[[[130.619601,32.438179],[130.521637,32.515174],[130.586787,32.386853],[130.601355,32.393174],[130.619601,32.438179]]]},"properties":{}}},
    {"code":9992104,"id":"a9e561","name":"肥後二見","original_name":"肥後二見","name_kana":"ひごふたみ","closed":false,"lat":32.420111,"lng":130.550019,"prefecture":43,"lines":[99921],"attr":"cool","postal_code":"869-5171","address":"八代市二見洲口町","voronoi":{"type":"Feature","geometry":{"type":"Polygon","coordinates":[[[130.565722,32.370192],[130.459989,32.49251],[130.519267,32.517848],[130.521637,32.515174],[130.586787,32.386853],[130.575297,32.375598],[130.565722,32.370192]]]},"properties":{}}},
    {"code":9992105,"id":"9e0c76","name":"上田浦","original_name":"上田浦","name_kana":"かみたのうら","closed":false,"lat":32.392952,"lng":130.5186,"prefecture":43,"lines":[99921],"attr":"cool","postal_code":"869-5307","address":"葦北郡芦北町井牟田","voronoi":{"type":"Feature","geometry":{"type":"Polygon","coordinates":[[[130.565722,32.370192],[130.557963,32.35996],[130.311022,32.458695],[130.459989,32.49251],[130.565722,32.370192]]]},"properties":{}}},
    {"code":9992106,"id":"4e8b39","name":"たのうら御立岬公園","original_name":"たのうら御立岬公園","name_kana":"たのうらおたちみさきこうえん","closed":false,"lat":32.363202,"lng":130.506705,"prefecture":43,"lines":[99921],"attr":"cool","postal_code":"869-5305","address":"葦北郡芦北町田浦町","voronoi":{"type":"Feature","geometry":{"type":"Polygon","coordinates":[[[130.311022,32.458695],[130.283829,32.454597],[130.462331,32.36364],[130.554348,32.349459],[130.557963,32.35996],[130.311022,32.458695]]]},"properties":{}}},
    {"code":9992107,"id":"43446a","name":"肥後田浦","original_name":"肥後田浦","name_kana":"ひごたのうら","closed":false,"lat":32.350698,"lng":130.504778,"prefecture":43,"lines":[99921],"attr":"heat","postal_code":"869-5303","address":"葦北郡芦北町小田浦","voronoi":{"type":"Feature","geometry":{"type":"Polygon","coordinates":[[[130.548109,32.319253],[130.554348,32.349459],[130.462331,32.36364],[130.518801,32.323809],[130.548109,32.319253]]]},"properties":{}}},
    {"code":9992108,"id":"4a3ca4","name":"海浦","original_name":"海浦","name_kana":"うみのうら","closed":false,"lat":32.327997,"lng":130.488766,"prefecture":43,"lines":[99921],"attr":"heat","postal_code":"869-5304","address":"葦北郡芦北町海浦","voronoi":{"type":"Feature","geometry":{"type":"Polygon","coordinates":[[[130.462331,32.36364],[130.518801,32.323809],[130.432601,32.295095],[130.371953,32.319589],[130.200717,32.448981],[130.283829,32.454597],[130.462331,32.36364]]]},"properties":{}}},
    {"code":9992109,"id":"e51956","name":"佐敷","original_name":"佐敷","name_kana":"さしき","closed":false,"lat":32.302447,"lng":130.497277,"prefecture":43,"lines":[99921],"attr":"heat","postal_code":"869-5442","address":"葦北郡芦北町花岡西","voronoi":{"type":"Feature","geometry":{"type":"Polygon","coordinates":[[[130.548109,32.319253],[130.518801,32.323809],[130.432601,32.295095],[130.459476,32.277015],[130.552947,32.299143],[130.552861,32.302074],[130.548109,32.319253]]]},"properties":{}}},
    {"code":9992110,"id":"3fe802","name":"湯浦","original_name":"湯浦","name_kana":"ゆのうら","closed":false,"lat":32.271231,"lng":130.504667,"prefecture":43,"lines":[99921],"attr":"heat","postal_code":"869-5562","address":"葦北郡芦北町大字宮崎","voronoi":{"type":"Feature","geometry":{"type":"Polygon","coordinates":[[[130.552955,32.164172],[130.543264,32.159361],[130.459476,32.277015],[130.552947,32.299143],[130.557003,32.286941],[130.552955,32.164172]]]},"properties":{}}},
    {"code":9992111,"id":"a4ef65","name":"津奈木","original_name":"津奈木","name_kana":"つなぎ","closed":false,"lat":32.232417,"lng":130.450165,"prefecture":43,"lines":[99921],"attr":"eco","postal_code":"869-5600","address":"葦北郡津奈木町","voronoi":{"type":"Feature","geometry":{"type":"Polygon","coordinates":[[[130.459476,32.277015],[130.432601,32.295095],[130.371953,32.319589],[130.40356,32.257057],[130.522374,32.140004],[130.543264,32.159361],[130.459476,32.277015]]]},"properties":{}}},
    {"code":101009,"id":"75b3e1","name":"新水俣","original_name":"新水俣","name_kana":"しんみなまた","closed":false,"lat":32.210825,"lng":130.428893,"prefecture":43,"lines":[1010,99921],"attr":"eco","postal_code":"867-0002","address":"水俣市初野３０５","voronoi":{"type":"Feature","geometry":{"type":"Polygon","coordinates":[[[130.522374,32.140004],[130.40356,32.257057],[130.419716,32.16643],[130.471169,32.104535],[130.485679,32.096049],[130.486275,32.096608],[130.522374,32.140004]]]},"properties":{}}},
    {"code":9992113,"id":"fd09ce","name":"水俣","original_name":"水俣","name_kana":"みなまた","closed":false,"lat":32.204919,"lng":130.395763,"prefecture":43,"lines":[99921],"attr":"eco","postal_code":"867-0045","address":"水俣市桜井町１丁目","voronoi":{"type":"Feature","geometry":{"type":"Polygon","coordinates":[[[130.14236,32.459721],[130.112835,32.448183],[130.100328,32.436208],[130.078855,32.41498],[130.170342,32.301692],[130.419716,32.16643],[130.40356,32.257057],[130.371953,32.319589],[130.200717,32.448981],[130.14236,32.459721]]]},"properties":{}}},
    {"code":9992114,"id":"f9bdbb","name":"袋","original_name":"袋","name_kana":"ふくろ","closed":false,"lat":32.165517,"lng":130.374391,"prefecture":43,"lines":[99921],"attr":"eco","postal_code":"867-0034","address":"水俣市大字袋","voronoi":{"type":"Feature","geometry":{"type":"Polygon","coordinates":[[[130.419716,32.16643],[130.170342,32.301692],[130.193735,32.266591],[130.386273,32.123006],[130.471169,32.104535],[130.419716,32.16643]]]},"properties":{}}},
    {"code":9992115,"id":"fcb083","name":"米ノ津","original_name":"米ノ津","name_kana":"こめのつ","closed":false,"lat":32.122269,"lng":130.342139,"prefecture":46,"lines":[99921],"attr":"cool","postal_code":"899-0200","address":"出水市下鯖淵","voronoi":{"type":"Feature","geometry":{"type":"Polygon","coordinates":[[[130.335965,32.099123],[130.386273,32.123006],[130.193735,32.266591],[130.236983,32.178673],[130.285528,32.117058],[130.309609,32.100727],[130.335965,32.099123]]]},"properties":{}}},
    {"code":101010,"id":"e87866","name":"出水","original_name":"出水","name_kana":"いずみ","closed":false,"lat":32.089275,"lng":130.357803,"prefecture":46,"lines":[1010,99921],"attr":"cool","postal_code":"899-0203","address":"出水市上鯖淵","voronoi":{"type":"Feature","geometry":{"type":"Polygon","coordinates":[[[130.434735,32.024627],[130.407024,32.004299],[130.335965,32.099123],[130.386273,32.123006],[130.471169,32.104535],[130.485679,32.096049],[130.47818,32.06477],[130.434735,32.024627]]]},"properties":{}}},
    {"code":9992117,"id":"723f2d","name":"西出水","original_name":"西出水","name_kana":"にしいずみ","closed":false,"lat":32.075398,"lng":130.339285,"prefecture":46,"lines":[99921],"attr":"cool","postal_code":"899-0213","address":"出水市西出水町","voronoi":{"type":"Feature","geometry":{"type":"Polygon","coordinates":[[[130.309609,32.100727],[130.355027,31.967769],[130.365201,31.967621],[130.374983,31.974388],[130.407024,32.004299],[130.335965,32.099123],[130.309609,32.100727]]]},"properties":{}}},
    {"code":9992118,"id":"987de4","name":"高尾野","original_name":"高尾野","name_kana":"たかおの","closed":false,"lat":32.062536,"lng":130.301632,"prefecture":46,"lines":[99921],"attr":"cool","postal_code":"899-0402","address":"出水市高尾野町柴引","voronoi":{"type":"Feature","geometry":{"type":"Polygon","coordinates":[[[130.320738,31.961903],[130.282926,31.9895],[130.285528,32.117058],[130.309609,32.100727],[130.355027,31.967769],[130.320738,31.961903]]]},"properties":{}}},
    {"code":9992119,"id":"ad71ff","name":"野田郷","original_name":"野田郷","name_kana":"のだごう","closed":false,"lat":32.063238,"lng":130.267214,"prefecture":46,"lines":[99921],"attr":"cool","postal_code":"899-0502","address":"出水市野田町下名","voronoi":{"type":"Feature","geometry":{"type":"Polygon","coordinates":[[[130.282926,31.9895],[130.285528,32.117058],[130.236983,32.178673],[130.244236,32.021098],[130.250941,32.009288],[130.275873,31.992483],[130.282926,31.9895]]]},"properties":{}}},
    {"code":9992120,"id":"7ce275","name":"折口","original_name":"折口","name_kana":"おりぐち","closed":false,"lat":32.060949,"lng":130.217485,"prefecture":46,"lines":[99921],"attr":"cool","postal_code":"899-1601","address":"阿久根市折口","voronoi":{"type":"Feature","geometry":{"type":"Polygon","coordinates":[[[129.797287,32.270686],[130.078855,32.41498],[130.170342,32.301692],[130.193735,32.266591],[130.236983,32.178673],[130.244236,32.021098],[129.797287,32.270686]]]},"properties":{}}},
    {"code":9992121,"id":"166d26","name":"阿久根","original_name":"阿久根","name_kana":"あくね","closed":false,"lat":32.022969,"lng":130.196276,"prefecture":46,"lines":[99921],"attr":"cool","postal_code":"899-1616","address":"阿久根市栄町","voronoi":{"type":"Feature","geometry":{"type":"Polygon","coordinates":[[[129.797287,32.270686],[130.244236,32.021098],[130.250941,32.009288],[128.918883,31.716767],[128.345741,31.609661],[128.512731,31.685847],[129.797287,32.270686]]]},"properties":{}}},
    {"code":9992122,"id":"928f61","name":"牛ノ浜","original_name":"牛ノ浜","name_kana":"うしのはま","closed":false,"lat":31.973962,"lng":130.207038,"prefecture":46,"lines":[99921],"attr":"heat","postal_code":"899-1741","address":"阿久根市大川","voronoi":{"type":"Feature","geometry":{"type":"Polygon","coordinates":[[[130.127768,31.919878],[130.275873,31.992483],[130.250941,32.009288],[128.918883,31.716767],[130.119335,31.917454],[130.127768,31.919878]]]},"properties":{}}},
    {"code":9992123,"id":"4c2b59","name":"薩摩大川","original_name":"薩摩大川","name_kana":"さつまおおかわ","closed":false,"lat":31.949414,"lng":130.219072,"prefecture":46,"lines":[99921],"attr":"heat","postal_code":"899-1741","address":"阿久根市大川","voronoi":{"type":"Feature","geometry":{"type":"Polygon","coordinates":[[[130.307684,31.944685],[130.127768,31.919878],[130.275873,31.992483],[130.282926,31.9895],[130.320738,31.961903],[130.307684,31.944685]]]},"properties":{}}},
    {"code":9992124,"id":"5616a9","name":"西方","original_name":"西方","name_kana":"にしかた","closed":false,"lat":31.916153,"lng":130.223658,"prefecture":46,"lines":[99921],"attr":"heat","postal_code":"899-1801","address":"薩摩川内市西方町","voronoi":{"type":"Feature","geometry":{"type":"Polygon","coordinates":[[[130.307684,31.944685],[130.302836,31.934858],[130.279809,31.897],[130.119335,31.917454],[130.127768,31.919878],[130.307684,31.944685]]]},"properties":{}}},
    {"code":9992125,"id":"401526","name":"薩摩高城","original_name":"薩摩高城","name_kana":"さつまたき","closed":false,"lat":31.892545,"lng":130.220649,"prefecture":46,"lines":[99921],"attr":"heat","postal_code":"899-1802","address":"薩摩川内市湯田町","voronoi":{"type":"Feature","geometry":{"type":"Polygon","coordinates":[[[130.279809,31.897],[130.277533,31.890658],[128.834743,31.401335],[127.405459,31.219816],[128.345741,31.609661],[128.918883,31.716767],[130.119335,31.917454],[130.279809,31.897]]]},"properties":{}}},
    {"code":9992126,"id":"09ee9a","name":"草道","original_name":"草道","name_kana":"くさみち","closed":false,"lat":31.854556,"lng":130.233533,"prefecture":46,"lines":[99921],"attr":"eco","postal_code":"899-1921","address":"薩摩川内市水引町","voronoi":{"type":"Feature","geometry":{"type":"Polygon","coordinates":[[[128.834743,31.401335],[129.09559,31.430852],[130.235627,31.782405],[130.246966,31.795857],[130.277548,31.889699],[130.277533,31.890658],[128.834743,31.401335]]]},"properties":{}}},
    {"code":9992127,"id":"1f9eb4","name":"上川内","original_name":"上川内","name_kana":"かみせんだい","closed":false,"lat":31.83537,"lng":130.292406,"prefecture":46,"lines":[99921],"attr":"eco","postal_code":"895-0061","address":"薩摩川内市御陵下町","voronoi":{"type":"Feature","geometry":{"type":"Polygon","coordinates":[[[130.246966,31.795857],[130.285158,31.808956],[130.31438,31.835585],[130.277548,31.889699],[130.246966,31.795857]]]},"properties":{}}},
    {"code":101011,"id":"425db5","name":"川内(鹿児島)","original_name":"川内","name_kana":"せんだい","closed":false,"lat":31.813726,"lng":130.31213,"prefecture":46,"lines":[1010,11904,99921,10902],"attr":"cool","postal_code":"895-0024","address":"薩摩川内市鳥追町","voronoi":{"type":"Feature","geometry":{"type":"Polygon","coordinates":[[[130.285158,31.808956],[130.31438,31.835585],[130.333566,31.830809],[130.347784,31.802838],[130.348608,31.79386],[130.285158,31.808956]]]},"properties":{}}}
  ]
}