[
{"code":1120222,"name":"刈和野","lon":140.372402,"lat":39.547646,"lines":[11202]},
{"code":1120223,"name":"峰吉川","lon":140.323140,"lat":39.566586,"lines":[11202]},
{"code":1120224,"name":"羽後境","lon":140.320722,"lat":39.618679,"lines":[11202]},
{"code":1120225,"name":"大張野","lon":140.274071,"lat":39.663347,"lines":[11202]},
{"code":1120226,"name":"和田","lon":140.218754,"lat":39.650870,"lines":[11202]},
{"code":1120227,"name":"四ツ小屋","lon":140.144946,"lat":39.661341,"lines":[11202]},
{"code":1120228,"name":"秋田","lon":140.129931,"lat":39.716748,"lines":[11202,11214]},
{"code":1120229,"name":"土崎","lon":140.073601,"lat":39.758453,"lines":[11202]},
{"code":1120230,"name":"上飯島","lon":140.068470,"lat":39.779336,"lines":[11202]},
{"code":1120231,"name":"追分","lon":140.057810,"lat":39.809925,"lines":[11202,11215]},
{"code":1120232,"name":"大久保","lon":140.063079,"lat":39.870890,"lines":[11202]},
{"code":1120233,"name":"羽後飯塚","lon":140.073300,"lat":39.898981,"lines":[11202]},
{"code":1120234,"name":"井川さくら","lon":140.076022,"lat":39.911925,"lines":[11202]},
{"code":1120235,"name":"八郎潟","lon":140.078382,"lat":39.947366,"lines":[11202]},
{"code":1120236,"name":"鯉川","lon":140.077474,"lat":39.996361,"lines":[11202]},
{"code":1121454,"name":"岩城みなと","lon":140.055122,"lat":39.545487,"lines":[11214]},
{"code":1121455,"name":"道川","lon":140.057049,"lat":39.560540,"lines":[11214]},
{"code":1121456,"name":"下浜","lon":140.064567,"lat":39.619678,"lines":[11214]},
{"code":1121457,"name":"桂根","lon":140.066482,"lat":39.647566,"lines":[11214]},
{"code":1121458,"name":"新屋","lon":140.087799,"lat":39.677493,"lines":[11214]},
{"code":1121459,"name":"羽後牛島","lon":140.116467,"lat":39.695834,"lines":[11214]},
{"code":1121502,"name":"出戸浜","lon":140.024374,"lat":39.844473,"lines":[11215]},
{"code":1121503,"name":"上二田","lon":140.004090,"lat":39.869089,"lines":[11215]},
{"code":9920913,"name":"荒瀬","lon":140.402486,"lat":39.980085,"lines":[99209]},
{"code":9920914,"name":"萱草","lon":140.412528,"lat":39.958460,"lines":[99209]},
{"code":9920915,"name":"笑内","lon":140.413071,"lat":39.935151,"lines":[99209]},
{"code":9920916,"name":"岩野目","lon":140.430639,"lat":39.921248,"lines":[99209]},
{"code":9920917,"name":"比立内","lon":140.452643,"lat":39.905078,"lines":[99209]},
{"code":9920918,"name":"奥阿仁","lon":140.489460,"lat":39.911567,"lines":[99209]}
]
