[
{"code":9992122,"name":"牛ノ浜","lon":130.207038,"lat":31.973962,"lines":[99921]},
{"code":9992123,"name":"薩摩大川","lon":130.219072,"lat":31.949414,"lines":[99921]},
{"code":9992124,"name":"西方","lon":130.223658,"lat":31.916153,"lines":[99921]},
{"code":9992125,"name":"薩摩高城","lon":130.220649,"lat":31.892545,"lines":[99921]},
{"code":9992126,"name":"草道","lon":130.233533,"lat":31.854556,"lines":[99921]},
{"code":9992127,"name":"上川内","lon":130.292406,"lat":31.835370,"lines":[99921]},
{"code":1190401,"name":"川内","lon":130.312130,"lat":31.813726,"lines":[99921,11904]},
{"code":1190402,"name":"隈之城","lon":130.307092,"lat":31.792550,"lines":[11904]},
{"code":1190403,"name":"木場茶屋","lon":130.308046,"lat":31.766138,"lines":[11904]},
{"code":1190404,"name":"串木野","lon":130.274531,"lat":31.721605,"lines":[11904]},
{"code":1190414,"name":"神村学園前","lon":130.284129,"lat":31.703731,"lines":[11904]},
{"code":1190405,"name":"市来","lon":130.302727,"lat":31.689990,"lines":[11904]},
{"code":1190406,"name":"湯之元","lon":130.336753,"lat":31.673961,"lines":[11904]},
{"code":1190407,"name":"東市来","lon":130.347609,"lat":31.655164,"lines":[11904]},
{"code":1190408,"name":"伊集院","lon":130.395703,"lat":31.630148,"lines":[11904]},
{"code":1190409,"name":"薩摩松元","lon":130.439002,"lat":31.605318,"lines":[11904]},
{"code":1190410,"name":"上伊集院","lon":130.459468,"lat":31.593837,"lines":[11904]},
{"code":5000164,"name":"薩摩白浜","lon":130.322641,"lat":31.855969,"lines":[50019],"closed":true},
{"code":5000165,"name":"楠本","lon":130.336139,"lat":31.860666,"lines":[50019],"closed":true},
{"code":5000166,"name":"吉野山","lon":130.360024,"lat":31.838032,"lines":[50019],"closed":true},
{"code":5000167,"name":"桶脇","lon":130.380832,"lat":31.820081,"lines":[50019],"closed":true},
{"code":5000168,"name":"上桶脇","lon":130.402143,"lat":31.825379,"lines":[50019],"closed":true},
{"code":5000169,"name":"入来","lon":130.429975,"lat":31.822791,"lines":[50019],"closed":true},
{"code":5000170,"name":"薩摩山崎","lon":130.450714,"lat":31.858074,"lines":[50019],"closed":true},
{"code":5000171,"name":"船木","lon":130.450769,"lat":31.882194,"lines":[50019],"closed":true},
{"code":5000172,"name":"宮之城","lon":130.457101,"lat":31.905442,"lines":[50019],"closed":true},
{"code":5000173,"name":"佐志","lon":130.483587,"lat":31.918742,"lines":[50019],"closed":true},
{"code":5000174,"name":"薩摩湯田","lon":130.473271,"lat":31.931863,"lines":[50019],"closed":true},
{"code":5000175,"name":"薩摩鶴田","lon":130.493171,"lat":31.942859,"lines":[50019],"closed":true}
]
