[
{"code":1120249,"name":"大館","lon":140.555946,"lat":40.288122,"lines":[11202,11212]},
{"code":1120250,"name":"白沢","lon":140.591657,"lat":40.338103,"lines":[11202]},
{"code":1120251,"name":"陣場","lon":140.607523,"lat":40.398864,"lines":[11202]},
{"code":1120252,"name":"津軽湯の沢","lon":140.632055,"lat":40.441879,"lines":[11202]},
{"code":1120253,"name":"碇ケ関","lon":140.622443,"lat":40.478988,"lines":[11202]},
{"code":1121207,"name":"安比高原","lon":140.997239,"lat":40.012587,"lines":[11212]},
{"code":1121212,"name":"田山","lon":140.944126,"lat":40.139674,"lines":[11212]},
{"code":1121213,"name":"兄畑","lon":140.883020,"lat":40.115869,"lines":[11212]},
{"code":1121214,"name":"湯瀬温泉","lon":140.840292,"lat":40.122384,"lines":[11212]},
{"code":1121215,"name":"八幡平","lon":140.804496,"lat":40.142881,"lines":[11212]},
{"code":1121216,"name":"陸中大里","lon":140.793477,"lat":40.158574,"lines":[11212]},
{"code":1121217,"name":"鹿角花輪","lon":140.785088,"lat":40.188453,"lines":[11212]},
{"code":1121218,"name":"柴平","lon":140.787941,"lat":40.230751,"lines":[11212]},
{"code":1121219,"name":"十和田南","lon":140.770716,"lat":40.256069,"lines":[11212]},
{"code":1121220,"name":"末広","lon":140.737251,"lat":40.229788,"lines":[11212]},
{"code":1121221,"name":"土深井","lon":140.713142,"lat":40.222452,"lines":[11212]},
{"code":1121222,"name":"沢尻","lon":140.693288,"lat":40.230342,"lines":[11212]},
{"code":1121223,"name":"十二所","lon":140.668211,"lat":40.214290,"lines":[11212]},
{"code":1121224,"name":"大滝温泉","lon":140.639625,"lat":40.209751,"lines":[11212]},
{"code":1121225,"name":"扇田","lon":140.572472,"lat":40.229235,"lines":[11212]},
{"code":1121226,"name":"東大館","lon":140.554745,"lat":40.266005,"lines":[11212]}
]
