[
{"code":1171419,"name":"備後三日市","lon":132.998269,"lat":34.855070,"lines":[11714]},
{"code":1171420,"name":"七塚","lon":132.985840,"lat":34.844391,"lines":[11714]},
{"code":1171421,"name":"山ノ内","lon":132.957671,"lat":34.829608,"lines":[11714]},
{"code":1171422,"name":"下和知","lon":132.925336,"lat":34.797668,"lines":[11714]},
{"code":1171423,"name":"塩町","lon":132.913863,"lat":34.774265,"lines":[11714,11720]},
{"code":1171424,"name":"神杉","lon":132.902747,"lat":34.780725,"lines":[11714,11720]},
{"code":1171425,"name":"八次","lon":132.878805,"lat":34.802244,"lines":[11714,11720]},
{"code":1171426,"name":"三次","lon":132.855976,"lat":34.802646,"lines":[11714,11720]},
{"code":1171427,"name":"西三次","lon":132.840961,"lat":34.798524,"lines":[11714]},
{"code":1171428,"name":"志和地","lon":132.803920,"lat":34.740475,"lines":[11714]},
{"code":1171429,"name":"上川立","lon":132.784873,"lat":34.725373,"lines":[11714]},
{"code":1171430,"name":"甲立","lon":132.759991,"lat":34.692611,"lines":[11714]},
{"code":1171431,"name":"吉田口","lon":132.745832,"lat":34.664106,"lines":[11714]},
{"code":1171432,"name":"向原","lon":132.719883,"lat":34.615215,"lines":[11714]},
{"code":1171433,"name":"井原市","lon":132.675569,"lat":34.585013,"lines":[11714]},
{"code":1171434,"name":"志和口","lon":132.658205,"lat":34.554333,"lines":[11714]},
{"code":1171435,"name":"上三田","lon":132.643890,"lat":34.538646,"lines":[11714]},
{"code":1171436,"name":"中三田","lon":132.609329,"lat":34.513604,"lines":[11714]},
{"code":1171437,"name":"白木山","lon":132.587867,"lat":34.500563,"lines":[11714]},
{"code":1171712,"name":"中島","lon":132.513075,"lat":34.500351,"lines":[11717]},
{"code":1171713,"name":"可部","lon":132.510730,"lat":34.512066,"lines":[11717]},
{"code":1171714,"name":"河戸帆待川","lon":132.505003,"lat":34.516700,"lines":[11717]},
{"code":1172025,"name":"吉舎","lon":132.990771,"lat":34.727641,"lines":[11720]},
{"code":1172026,"name":"三良坂","lon":132.957578,"lat":34.766186,"lines":[11720]}
]
