[
{"code":1131709,"name":"高麗川","lon":139.338090,"lat":35.896328,"lines":[11318,11317,11322]},
{"code":1131802,"name":"毛呂","lon":139.309237,"lat":35.940806,"lines":[11318]},
{"code":1131803,"name":"越生","lon":139.299437,"lat":35.962559,"lines":[11318,21007]},
{"code":1130320,"name":"府中本町","lon":139.477142,"lat":35.665766,"lines":[11305,11303]},
{"code":1130502,"name":"北府中","lon":139.471792,"lat":35.680880,"lines":[11305]},
{"code":1130503,"name":"西国分寺","lon":139.465994,"lat":35.699744,"lines":[11305,11312]},
{"code":1130504,"name":"新小平","lon":139.470745,"lat":35.731280,"lines":[11305]},
{"code":1130505,"name":"新秋津","lon":139.493592,"lat":35.778331,"lines":[11305]},
{"code":1130620,"name":"八王子","lon":139.338998,"lat":35.655555,"lines":[11317,11328,11306,11311,11312]},
{"code":1131702,"name":"北八王子","lon":139.363348,"lat":35.669232,"lines":[11317]},
{"code":1131703,"name":"小宮","lon":139.368481,"lat":35.685799,"lines":[11317]},
{"code":1131506,"name":"拝島","lon":139.343468,"lat":35.721278,"lines":[11317,11315,11316,22008]},
{"code":1131705,"name":"東福生","lon":139.335940,"lat":35.745811,"lines":[11317]},
{"code":1131706,"name":"箱根ケ崎","lon":139.346805,"lat":35.771158,"lines":[11317]},
{"code":1131707,"name":"金子","lon":139.328546,"lat":35.810822,"lines":[11317]},
{"code":1131708,"name":"東飯能","lon":139.325965,"lat":35.852928,"lines":[11317,22001,22002]},
{"code":1132205,"name":"川越","lon":139.483078,"lat":35.906742,"lines":[11322,21001]},
{"code":1132206,"name":"西川越","lon":139.459746,"lat":35.919090,"lines":[11322]},
{"code":1132207,"name":"的場","lon":139.435376,"lat":35.917478,"lines":[11322]},
{"code":1132208,"name":"笠幡","lon":139.406220,"lat":35.907551,"lines":[11322]},
{"code":1132209,"name":"武蔵高萩","lon":139.371123,"lat":35.901729,"lines":[11322]},
{"code":1131112,"name":"高尾","lon":139.282288,"lat":35.642026,"lines":[11328,11311,11312,24003]},
{"code":1130325,"name":"立川","lon":139.413704,"lat":35.698202,"lines":[11328,11303,11311,11312,11315]},
{"code":1131106,"name":"国分寺","lon":139.480841,"lat":35.700123,"lines":[11328,11311,11312,22010,22011]},
{"code":2100120,"name":"新河岸","lon":139.497257,"lat":35.890911,"lines":[21001]},
{"code":2100122,"name":"川越市","lon":139.476989,"lat":35.914146,"lines":[21001]},
{"code":2100123,"name":"霞ヶ関","lon":139.442897,"lat":35.925635,"lines":[21001]},
{"code":2100124,"name":"鶴ヶ島","lon":139.423825,"lat":35.936771,"lines":[21001]},
{"code":2100125,"name":"若葉","lon":139.408782,"lat":35.948919,"lines":[21001]},
{"code":2100126,"name":"坂戸","lon":139.394032,"lat":35.957181,"lines":[21001,21007]},
{"code":2100127,"name":"北坂戸","lon":139.396932,"lat":35.972098,"lines":[21001]},
{"code":2100702,"name":"一本松","lon":139.370062,"lat":35.940080,"lines":[21007]},
{"code":2100703,"name":"西大家","lon":139.356321,"lat":35.931698,"lines":[21007]},
{"code":2100704,"name":"川角","lon":139.346426,"lat":35.937438,"lines":[21007]},
{"code":2100705,"name":"武州長瀬","lon":139.325561,"lat":35.942023,"lines":[21007]},
{"code":2100706,"name":"東毛呂","lon":139.315303,"lat":35.947058,"lines":[21007]},
{"code":2100707,"name":"武州唐沢","lon":139.309120,"lat":35.952127,"lines":[21007]},
{"code":2200116,"name":"秋津","lon":139.496539,"lat":35.778614,"lines":[22001]},
{"code":2200131,"name":"所沢","lon":139.473324,"lat":35.786627,"lines":[22001,22007]},
{"code":2200117,"name":"西所沢","lon":139.455959,"lat":35.789303,"lines":[22001,22005]},
{"code":2200118,"name":"小手指","lon":139.438016,"lat":35.800535,"lines":[22001]},
{"code":2200119,"name":"狭山ヶ丘","lon":139.416975,"lat":35.810445,"lines":[22001]},
{"code":2200120,"name":"武蔵藤沢","lon":139.412736,"lat":35.820963,"lines":[22001]},
{"code":2200121,"name":"稲荷山公園","lon":139.398420,"lat":35.845112,"lines":[22001]},
{"code":2200122,"name":"入間市","lon":139.390294,"lat":35.842904,"lines":[22001]},
{"code":2200123,"name":"仏子","lon":139.360115,"lat":35.837690,"lines":[22001]},
{"code":2200124,"name":"元加治","lon":139.345316,"lat":35.840580,"lines":[22001]},
{"code":2200125,"name":"飯能","lon":139.318824,"lat":35.851189,"lines":[22001,22002]},
{"code":2200127,"name":"高麗","lon":139.304414,"lat":35.881982,"lines":[22001,22002]},
{"code":2200128,"name":"武蔵横手","lon":139.280667,"lat":35.885256,"lines":[22001,22002]},
{"code":2200129,"name":"東吾野","lon":139.260281,"lat":35.892439,"lines":[22001,22002]},
{"code":2200130,"name":"吾野","lon":139.226787,"lat":35.908502,"lines":[22001,22002]},
{"code":2200207,"name":"西吾野","lon":139.202425,"lat":35.927082,"lines":[22002]},
{"code":2200208,"name":"正丸","lon":139.181521,"lat":35.938324,"lines":[22002]},
{"code":2200209,"name":"芦ヶ久保","lon":139.135982,"lat":35.976505,"lines":[22002]},
{"code":2200210,"name":"横瀬","lon":139.097818,"lat":35.985548,"lines":[22002]},
{"code":2200212,"name":"西武秩父","lon":139.083548,"lat":35.990061,"lines":[22002]},
{"code":2200502,"name":"下山口","lon":139.441097,"lat":35.779410,"lines":[22005]},
{"code":2200503,"name":"西武球場前","lon":139.419660,"lat":35.770930,"lines":[22005,22006]},
{"code":2200601,"name":"西武遊園地","lon":139.442747,"lat":35.765881,"lines":[22006,22011]},
{"code":2200602,"name":"遊園地西","lon":139.440166,"lat":35.769042,"lines":[22006]},
{"code":2200719,"name":"小平","lon":139.488491,"lat":35.736963,"lines":[22007,22008]},
{"code":2200720,"name":"久米川","lon":139.472653,"lat":35.749575,"lines":[22007]},
{"code":2200721,"name":"東村山","lon":139.465839,"lat":35.760060,"lines":[22007,22009,22010]},
{"code":2200723,"name":"航空公園","lon":139.465641,"lat":35.798272,"lines":[22007]},
{"code":2200724,"name":"新所沢","lon":139.457069,"lat":35.805854,"lines":[22007]},
{"code":2200725,"name":"入曽","lon":139.427304,"lat":35.832481,"lines":[22007]},
{"code":2200726,"name":"狭山市","lon":139.413015,"lat":35.856936,"lines":[22007]},
{"code":2200727,"name":"新狭山","lon":139.433499,"lat":35.873993,"lines":[22007]},
{"code":2200728,"name":"南大塚","lon":139.454189,"lat":35.889663,"lines":[22007]},
{"code":2200729,"name":"本川越","lon":139.481125,"lat":35.913524,"lines":[22007]},
{"code":9930628,"name":"秩父","lon":139.086044,"lat":35.998830,"lines":[99306]},
{"code":9930629,"name":"御花畑","lon":139.083614,"lat":35.992369,"lines":[99306]},
{"code":9930630,"name":"影森","lon":139.068413,"lat":35.972015,"lines":[99306]},
{"code":9930631,"name":"浦山口","lon":139.058134,"lat":35.963922,"lines":[99306]},
{"code":9930632,"name":"武州中川","lon":139.035439,"lat":35.958347,"lines":[99306]},
{"code":9930633,"name":"武州日野","lon":139.021888,"lat":35.953867,"lines":[99306]},
{"code":1130319,"name":"南多摩","lon":139.489781,"lat":35.649249,"lines":[11303]},
{"code":1130321,"name":"分倍河原","lon":139.468798,"lat":35.668493,"lines":[11303,24001]},
{"code":1130329,"name":"西府","lon":139.457477,"lat":35.670912,"lines":[11303]},
{"code":1130322,"name":"谷保","lon":139.446724,"lat":35.681377,"lines":[11303]},
{"code":1130323,"name":"矢川","lon":139.431611,"lat":35.685079,"lines":[11303]},
{"code":1130324,"name":"西国立","lon":139.423887,"lat":35.693750,"lines":[11303]},
{"code":1130609,"name":"長津田","lon":139.494680,"lat":35.531698,"lines":[11306,26003,26008]},
{"code":1130610,"name":"成瀬","lon":139.472875,"lat":35.535412,"lines":[11306]},
{"code":1130611,"name":"町田","lon":139.445579,"lat":35.542004,"lines":[11306,25001]},
{"code":1130612,"name":"古淵","lon":139.419151,"lat":35.556055,"lines":[11306]},
{"code":1130613,"name":"淵野辺","lon":139.395075,"lat":35.568784,"lines":[11306]},
{"code":1130614,"name":"矢部","lon":139.386373,"lat":35.573275,"lines":[11306]},
{"code":1130615,"name":"相模原","lon":139.371007,"lat":35.581130,"lines":[11306]},
{"code":1130616,"name":"橋本","lon":139.344586,"lat":35.594975,"lines":[11306,24002,11309]},
{"code":1130617,"name":"相原","lon":139.331690,"lat":35.606940,"lines":[11306]},
{"code":1130618,"name":"八王子みなみ野","lon":139.330678,"lat":35.630664,"lines":[11306]},
{"code":1130619,"name":"片倉","lon":139.341190,"lat":35.639704,"lines":[11306]},
{"code":1131108,"name":"日野","lon":139.393930,"lat":35.679244,"lines":[11311,11312]},
{"code":1131109,"name":"豊田","lon":139.381495,"lat":35.659502,"lines":[11311,11312]},
{"code":1131111,"name":"西八王子","lon":139.312640,"lat":35.656621,"lines":[11311,11312]},
{"code":1131113,"name":"相模湖","lon":139.188500,"lat":35.617335,"lines":[11311]},
{"code":1131114,"name":"藤野","lon":139.152390,"lat":35.615918,"lines":[11311]},
{"code":1131115,"name":"上野原","lon":139.115787,"lat":35.618747,"lines":[11311]},
{"code":1131116,"name":"四方津","lon":139.072572,"lat":35.614252,"lines":[11311]},
{"code":1131117,"name":"梁川","lon":139.038076,"lat":35.605271,"lines":[11311]},
{"code":1131118,"name":"鳥沢","lon":139.003345,"lat":35.608118,"lines":[11311]},
{"code":1131226,"name":"国立","lon":139.446340,"lat":35.699230,"lines":[11312]},
{"code":1131502,"name":"西立川","lon":139.393556,"lat":35.703526,"lines":[11315]},
{"code":1131503,"name":"東中神","lon":139.384529,"lat":35.706337,"lines":[11315]},
{"code":1131504,"name":"中神","lon":139.375816,"lat":35.709058,"lines":[11315]},
{"code":1131505,"name":"昭島","lon":139.361564,"lat":35.713305,"lines":[11315]},
{"code":1131507,"name":"牛浜","lon":139.333677,"lat":35.734547,"lines":[11315]},
{"code":1131508,"name":"福生","lon":139.327763,"lat":35.742456,"lines":[11315]},
{"code":1131509,"name":"羽村","lon":139.316188,"lat":35.758073,"lines":[11315]},
{"code":1131510,"name":"小作","lon":139.302233,"lat":35.776048,"lines":[11315]},
{"code":1131511,"name":"河辺","lon":139.284032,"lat":35.784730,"lines":[11315]},
{"code":1131512,"name":"東青梅","lon":139.272841,"lat":35.789768,"lines":[11315]},
{"code":1131513,"name":"青梅","lon":139.258096,"lat":35.790512,"lines":[11315]},
{"code":1131514,"name":"宮ノ平","lon":139.237289,"lat":35.787545,"lines":[11315]},
{"code":1131515,"name":"日向和田","lon":139.229515,"lat":35.788665,"lines":[11315]},
{"code":1131516,"name":"石神前","lon":139.225096,"lat":35.796830,"lines":[11315]},
{"code":1131517,"name":"二俣尾","lon":139.216161,"lat":35.803946,"lines":[11315]},
{"code":1131518,"name":"軍畑","lon":139.207431,"lat":35.807382,"lines":[11315]},
{"code":1131519,"name":"沢井","lon":139.193324,"lat":35.805940,"lines":[11315]},
{"code":1131520,"name":"御嶽","lon":139.182589,"lat":35.801468,"lines":[11315]},
{"code":1131521,"name":"川井","lon":139.164290,"lat":35.813697,"lines":[11315]},
{"code":1131522,"name":"古里","lon":139.152102,"lat":35.816247,"lines":[11315]},
{"code":1131523,"name":"鳩ノ巣","lon":139.128932,"lat":35.815127,"lines":[11315]},
{"code":1131524,"name":"白丸","lon":139.114861,"lat":35.811735,"lines":[11315]},
{"code":1131525,"name":"奥多摩","lon":139.096961,"lat":35.809357,"lines":[11315]},
{"code":1131602,"name":"熊川","lon":139.335840,"lat":35.728321,"lines":[11316]},
{"code":1131603,"name":"東秋留","lon":139.311665,"lat":35.725904,"lines":[11316]},
{"code":1131604,"name":"秋川","lon":139.286715,"lat":35.727998,"lines":[11316]},
{"code":1131605,"name":"武蔵引田","lon":139.269907,"lat":35.729711,"lines":[11316]},
{"code":1131606,"name":"武蔵増戸","lon":139.256355,"lat":35.730961,"lines":[11316]},
{"code":1131607,"name":"武蔵五日市","lon":139.228039,"lat":35.732248,"lines":[11316]},
{"code":2200802,"name":"萩山","lon":139.476903,"lat":35.740759,"lines":[22008,22011]},
{"code":2200803,"name":"小川","lon":139.463493,"lat":35.737573,"lines":[22008,22010]},
{"code":2200804,"name":"東大和市","lon":139.434249,"lat":35.732829,"lines":[22008]},
{"code":2200805,"name":"玉川上水","lon":139.418435,"lat":35.731751,"lines":[22008,99334]},
{"code":2200806,"name":"武蔵砂川","lon":139.392319,"lat":35.728876,"lines":[22008]},
{"code":2200807,"name":"西武立川","lon":139.370124,"lat":35.726200,"lines":[22008]},
{"code":2200902,"name":"西武園","lon":139.448904,"lat":35.767684,"lines":[22009]},
{"code":2201002,"name":"恋ヶ窪","lon":139.463944,"lat":35.711385,"lines":[22010]},
{"code":2201003,"name":"鷹の台","lon":139.461155,"lat":35.723097,"lines":[22010]},
{"code":2201102,"name":"一橋学園","lon":139.480039,"lat":35.722170,"lines":[22011]},
{"code":2201103,"name":"青梅街道","lon":139.476628,"lat":35.730980,"lines":[22011]},
{"code":2201106,"name":"八坂","lon":139.467676,"lat":35.744925,"lines":[22011]},
{"code":2201107,"name":"武蔵大和","lon":139.444008,"lat":35.756427,"lines":[22011]},
{"code":2201205,"name":"競艇場前","lon":139.499721,"lat":35.656232,"lines":[22012]},
{"code":2201206,"name":"是政","lon":139.488592,"lat":35.656242,"lines":[22012]},
{"code":2400123,"name":"東府中","lon":139.495257,"lat":35.668766,"lines":[24001,24004]},
{"code":2400124,"name":"府中","lon":139.479900,"lat":35.672245,"lines":[24001]},
{"code":2400126,"name":"中河原","lon":139.457602,"lat":35.659549,"lines":[24001]},
{"code":2400127,"name":"聖蹟桜ヶ丘","lon":139.446979,"lat":35.650814,"lines":[24001]},
{"code":2400128,"name":"百草園","lon":139.431285,"lat":35.657362,"lines":[24001]},
{"code":2400129,"name":"高幡不動","lon":139.412953,"lat":35.662361,"lines":[24001,24005,99334]},
{"code":2400130,"name":"南平","lon":139.392008,"lat":35.654559,"lines":[24001]},
{"code":2400131,"name":"平山城址公園","lon":139.379926,"lat":35.647371,"lines":[24001]},
{"code":2400132,"name":"長沼","lon":139.365849,"lat":35.642788,"lines":[24001]},
{"code":2400133,"name":"北野","lon":139.354489,"lat":35.644479,"lines":[24001,24003]},
{"code":2400134,"name":"京王八王子","lon":139.343851,"lat":35.657416,"lines":[24001]},
{"code":2400206,"name":"若葉台","lon":139.472189,"lat":35.619325,"lines":[24002]},
{"code":2400207,"name":"京王永山","lon":139.448204,"lat":35.630102,"lines":[24002]},
{"code":2500306,"name":"小田急永山","lon":139.447943,"lat":35.629972,"lines":[25003]},
{"code":2400208,"name":"京王多摩センター","lon":139.424020,"lat":35.625180,"lines":[24002]},
{"code":2500307,"name":"小田急多摩センター","lon":139.424298,"lat":35.624902,"lines":[25003]},
{"code":9933401,"name":"多摩センター","lon":139.422782,"lat":35.623724,"lines":[99334]},
{"code":2400209,"name":"京王堀之内","lon":139.400314,"lat":35.624438,"lines":[24002]},
{"code":2400210,"name":"南大沢","lon":139.379800,"lat":35.614100,"lines":[24002]},
{"code":2400211,"name":"多摩境","lon":139.366987,"lat":35.601826,"lines":[24002]},
{"code":2400302,"name":"京王片倉","lon":139.337035,"lat":35.644343,"lines":[24003]},
{"code":2400303,"name":"山田","lon":139.321082,"lat":35.644411,"lines":[24003]},
{"code":2400304,"name":"めじろ台","lon":139.308446,"lat":35.643601,"lines":[24003]},
{"code":2400305,"name":"狭間","lon":139.293808,"lat":35.640637,"lines":[24003]},
{"code":2400307,"name":"高尾山口","lon":139.269856,"lat":35.632377,"lines":[24003]},
{"code":2400402,"name":"府中競馬正門前","lon":139.485019,"lat":35.668288,"lines":[24004]},
{"code":2400502,"name":"多摩動物公園","lon":139.404627,"lat":35.649215,"lines":[24005,99334]},
{"code":2500124,"name":"柿生","lon":139.497614,"lat":35.589597,"lines":[25001]},
{"code":2500125,"name":"鶴川","lon":139.481759,"lat":35.583077,"lines":[25001]},
{"code":2500126,"name":"玉川学園前","lon":139.463388,"lat":35.563486,"lines":[25001]},
{"code":2500128,"name":"相模大野","lon":139.437836,"lat":35.532208,"lines":[25001,25002]},
{"code":2500129,"name":"小田急相模原","lon":139.422571,"lat":35.515134,"lines":[25001]},
{"code":2500302,"name":"五月台","lon":139.493542,"lat":35.600174,"lines":[25003]},
{"code":2500303,"name":"栗平","lon":139.481298,"lat":35.605731,"lines":[25003]},
{"code":2500304,"name":"黒川","lon":139.470731,"lat":35.613203,"lines":[25003]},
{"code":2500305,"name":"はるひ野","lon":139.464534,"lat":35.618885,"lines":[25003]},
{"code":2500308,"name":"唐木田","lon":139.411622,"lat":35.616672,"lines":[25003]},
{"code":2600323,"name":"つくし野","lon":139.485139,"lat":35.527559,"lines":[26003]},
{"code":2600324,"name":"すずかけ台","lon":139.481684,"lat":35.517094,"lines":[26003]},
{"code":2600325,"name":"南町田","lon":139.470318,"lat":35.511502,"lines":[26003]},
{"code":2600326,"name":"つきみ野","lon":139.458651,"lat":35.510546,"lines":[26003]},
{"code":2500203,"name":"中央林間","lon":139.444935,"lat":35.507671,"lines":[26003,25002]},
{"code":9933402,"name":"松が谷","lon":139.422201,"lat":35.631690,"lines":[99334]},
{"code":9933403,"name":"大塚・帝京大学","lon":139.416461,"lat":35.636878,"lines":[99334]},
{"code":9933404,"name":"中央大学・明星大学","lon":139.408672,"lat":35.641970,"lines":[99334]},
{"code":9933406,"name":"程久保","lon":139.410698,"lat":35.655093,"lines":[99334]},
{"code":9933408,"name":"万願寺","lon":139.420079,"lat":35.671249,"lines":[99334]},
{"code":9933409,"name":"甲州街道","lon":139.409191,"lat":35.678262,"lines":[99334]},
{"code":9933410,"name":"柴崎体育館","lon":139.409191,"lat":35.689475,"lines":[99334]},
{"code":9933411,"name":"立川南","lon":139.412546,"lat":35.696077,"lines":[99334]},
{"code":9933412,"name":"立川北","lon":139.412540,"lat":35.699502,"lines":[99334]},
{"code":9933413,"name":"高松","lon":139.413242,"lat":35.710158,"lines":[99334]},
{"code":9933414,"name":"立飛","lon":139.417387,"lat":35.714717,"lines":[99334]},
{"code":9933415,"name":"泉体育館","lon":139.419525,"lat":35.718775,"lines":[99334]},
{"code":9933416,"name":"砂川七番","lon":139.418097,"lat":35.723319,"lines":[99334]},
{"code":9933418,"name":"桜街道","lon":139.416653,"lat":35.739000,"lines":[99334]},
{"code":9933419,"name":"上北台","lon":139.415822,"lat":35.745824,"lines":[99334]},
{"code":1130913,"name":"下溝","lon":139.380428,"lat":35.518516,"lines":[11309]},
{"code":1130914,"name":"原当麻","lon":139.375355,"lat":35.528978,"lines":[11309]},
{"code":1130915,"name":"番田","lon":139.362988,"lat":35.545392,"lines":[11309]},
{"code":1130916,"name":"上溝","lon":139.363150,"lat":35.557623,"lines":[11309]},
{"code":1130917,"name":"南橋本","lon":139.352484,"lat":35.580420,"lines":[11309]},
{"code":2500202,"name":"東林間","lon":139.438883,"lat":35.520541,"lines":[25002]},
{"code":2600802,"name":"恩田","lon":139.492127,"lat":35.545535,"lines":[26008]},
{"code":2600803,"name":"こどもの国","lon":139.486657,"lat":35.558035,"lines":[26008]},
{"code":5000077,"name":"武蔵横山","lon":139.301495,"lat":35.652033,"lines":[50007],"closed":true},
{"code":5000078,"name":"多摩御陵前","lon":139.289841,"lat":35.650133,"lines":[50007],"closed":true},
{"code":5000081,"name":"東国分寺","lon":139.478100,"lat":35.707707,"lines":[22011],"closed":true}
]
