[
{"code":1141551,"name":"高岡","lon":137.015274,"lat":36.740948,"lines":[99425,11417,11418]},
{"code":9941401,"name":"高岡駅","lon":137.014722,"lat":36.742173,"lines":[99414]},
{"code":1141552,"name":"越中大門","lon":137.055904,"lat":36.733818,"lines":[99425]},
{"code":1141553,"name":"小杉","lon":137.092767,"lat":36.720947,"lines":[99425]},
{"code":1141554,"name":"呉羽","lon":137.164874,"lat":36.718845,"lines":[99425]},
{"code":1141555,"name":"富山","lon":137.213091,"lat":36.701384,"lines":[99425,11416]},
{"code":9940801,"name":"電鉄富山","lon":137.214163,"lat":36.700757,"lines":[99408,99410]},
{"code":9941313,"name":"電鉄富山駅・エスタ前","lon":137.213316,"lat":36.700236,"lines":[99413,99422]},
{"code":9941322,"name":"富山駅","lon":137.212880,"lat":36.701610,"lines":[99413,99422]},
{"code":9941501,"name":"富山駅北","lon":137.214003,"lat":36.702490,"lines":[99415]},
{"code":1140502,"name":"東富山","lon":137.248953,"lat":36.741589,"lines":[99425]},
{"code":1140503,"name":"水橋","lon":137.298404,"lat":36.743454,"lines":[99425]},
{"code":1140504,"name":"滑川","lon":137.348666,"lat":36.769318,"lines":[99425,99408]},
{"code":1140505,"name":"東滑川","lon":137.378050,"lat":36.787987,"lines":[99425]},
{"code":1140506,"name":"魚津","lon":137.405693,"lat":36.826420,"lines":[99425]},
{"code":9940822,"name":"新魚津","lon":137.405459,"lat":36.826570,"lines":[99408]},
{"code":1140507,"name":"黒部","lon":137.434393,"lat":36.869322,"lines":[99425]},
{"code":1140508,"name":"生地","lon":137.426534,"lat":36.906031,"lines":[99425]},
{"code":1140509,"name":"西入善","lon":137.459298,"lat":36.930124,"lines":[99425]},
{"code":1140510,"name":"入善","lon":137.499000,"lat":36.941296,"lines":[99425]},
{"code":1141637,"name":"楡原","lon":137.228720,"lat":36.529323,"lines":[11416]},
{"code":1141638,"name":"笹津","lon":137.211437,"lat":36.562129,"lines":[11416]},
{"code":1141639,"name":"東八尾","lon":137.174978,"lat":36.589645,"lines":[11416]},
{"code":1141640,"name":"越中八尾","lon":137.138379,"lat":36.591391,"lines":[11416]},
{"code":1141641,"name":"千里","lon":137.132396,"lat":36.634678,"lines":[11416]},
{"code":1141642,"name":"速星","lon":137.160428,"lat":36.664135,"lines":[11416]},
{"code":1141645,"name":"婦中鵜坂","lon":137.167625,"lat":36.676084,"lines":[11416]},
{"code":1141643,"name":"西富山","lon":137.177029,"lat":36.699331,"lines":[11416]},
{"code":1141714,"name":"新高岡","lon":137.010459,"lat":36.727004,"lines":[11417]},
{"code":1141702,"name":"二塚","lon":137.006141,"lat":36.714339,"lines":[11417]},
{"code":1141802,"name":"越中中川","lon":137.027851,"lat":36.749764,"lines":[11418]},
{"code":1141803,"name":"能町","lon":137.039885,"lat":36.768259,"lines":[11418]},
{"code":1141804,"name":"伏木","lon":137.058530,"lat":36.792306,"lines":[11418]},
{"code":1141805,"name":"越中国分","lon":137.050729,"lat":36.805361,"lines":[11418]},
{"code":1141806,"name":"雨晴","lon":137.037583,"lat":36.816484,"lines":[11418]},
{"code":1141807,"name":"島尾","lon":137.012690,"lat":36.828423,"lines":[11418]},
{"code":9940802,"name":"稲荷町","lon":137.231247,"lat":36.696597,"lines":[99408,99410]},
{"code":9940839,"name":"新庄田中","lon":137.241417,"lat":36.697972,"lines":[99408]},
{"code":9940803,"name":"東新庄","lon":137.253021,"lat":36.698644,"lines":[99408]},
{"code":9940804,"name":"越中荏原","lon":137.266222,"lat":36.698978,"lines":[99408]},
{"code":9940805,"name":"越中三郷","lon":137.290792,"lat":36.703309,"lines":[99408]},
{"code":9940806,"name":"越中舟橋","lon":137.306632,"lat":36.705725,"lines":[99408]},
{"code":9940807,"name":"寺田","lon":137.319145,"lat":36.698852,"lines":[99408,99409]},
{"code":9940808,"name":"越中泉","lon":137.327245,"lat":36.699905,"lines":[99408]},
{"code":9940809,"name":"相ノ木","lon":137.335472,"lat":36.701963,"lines":[99408]},
{"code":9940840,"name":"新相ノ木","lon":137.342278,"lat":36.703128,"lines":[99408]},
{"code":9940810,"name":"上市","lon":137.357603,"lat":36.704463,"lines":[99408]},
{"code":9940811,"name":"新宮川","lon":137.351128,"lat":36.717292,"lines":[99408]},
{"code":9940812,"name":"中加積","lon":137.350947,"lat":36.735309,"lines":[99408]},
{"code":9940813,"name":"西加積","lon":137.340139,"lat":36.746405,"lines":[99408]},
{"code":9940814,"name":"西滑川","lon":137.334617,"lat":36.755579,"lines":[99408]},
{"code":9940815,"name":"中滑川","lon":137.339963,"lat":36.761992,"lines":[99408]},
{"code":9940817,"name":"浜加積","lon":137.361411,"lat":36.777430,"lines":[99408]},
{"code":9940818,"name":"早月加積","lon":137.372079,"lat":36.784082,"lines":[99408]},
{"code":9940819,"name":"越中中村","lon":137.382688,"lat":36.790673,"lines":[99408]},
{"code":9940820,"name":"西魚津","lon":137.394653,"lat":36.803775,"lines":[99408]},
{"code":9940821,"name":"電鉄魚津","lon":137.400288,"lat":36.815113,"lines":[99408]},
{"code":9940823,"name":"経田","lon":137.416203,"lat":36.848846,"lines":[99408]},
{"code":9940824,"name":"電鉄石田","lon":137.423194,"lat":36.865928,"lines":[99408]},
{"code":9940825,"name":"電鉄黒部","lon":137.444125,"lat":36.874091,"lines":[99408]},
{"code":9940826,"name":"東三日市","lon":137.450908,"lat":36.874677,"lines":[99408]},
{"code":9940827,"name":"荻生","lon":137.459221,"lat":36.875038,"lines":[99408]},
{"code":9940828,"name":"長屋","lon":137.470803,"lat":36.873678,"lines":[99408]},
{"code":9940841,"name":"新黒部","lon":137.480177,"lat":36.873163,"lines":[99408]},
{"code":9940829,"name":"舌山","lon":137.485948,"lat":36.871870,"lines":[99408]},
{"code":9940830,"name":"若栗","lon":137.493175,"lat":36.871151,"lines":[99408]},
{"code":9940902,"name":"稚子塚","lon":137.317515,"lat":36.686595,"lines":[99409]},
{"code":9940903,"name":"田添","lon":137.317768,"lat":36.679759,"lines":[99409]},
{"code":9940904,"name":"五百石","lon":137.314097,"lat":36.665361,"lines":[99409]},
{"code":9940905,"name":"榎町","lon":137.316519,"lat":36.657559,"lines":[99409]},
{"code":9940906,"name":"下段","lon":137.317735,"lat":36.647899,"lines":[99409]},
{"code":9940907,"name":"釜ヶ淵","lon":137.319288,"lat":36.633317,"lines":[99409]},
{"code":9940908,"name":"沢中山","lon":137.320972,"lat":36.622207,"lines":[99409]},
{"code":9940909,"name":"岩峅寺","lon":137.319922,"lat":36.608214,"lines":[99409,99410]},
{"code":9940910,"name":"横江","lon":137.335605,"lat":36.582175,"lines":[99409]},
{"code":9940911,"name":"千垣","lon":137.373843,"lat":36.573752,"lines":[99409]},
{"code":9940912,"name":"有峰口","lon":137.380218,"lat":36.573066,"lines":[99409]},
{"code":9940913,"name":"本宮","lon":137.395716,"lat":36.574919,"lines":[99409]},
{"code":9940914,"name":"立山","lon":137.445234,"lat":36.583253,"lines":[99409]},
{"code":9941003,"name":"不二越","lon":137.232453,"lat":36.687848,"lines":[99410]},
{"code":9941004,"name":"大泉","lon":137.228979,"lat":36.677719,"lines":[99410]},
{"code":9941005,"name":"南富山","lon":137.220500,"lat":36.670406,"lines":[99410]},
{"code":9941301,"name":"南富山駅前","lon":137.220440,"lat":36.670484,"lines":[99413]},
{"code":9941006,"name":"朝菜町","lon":137.224883,"lat":36.660579,"lines":[99410]},
{"code":9941007,"name":"上堀","lon":137.230127,"lat":36.653380,"lines":[99410]},
{"code":9941008,"name":"小杉","lon":137.233164,"lat":36.649433,"lines":[99410]},
{"code":9941009,"name":"布市","lon":137.235455,"lat":36.645178,"lines":[99410]},
{"code":9941010,"name":"開発","lon":137.242854,"lat":36.636207,"lines":[99410]},
{"code":9941011,"name":"月岡","lon":137.263341,"lat":36.626475,"lines":[99410]},
{"code":9941012,"name":"大庄","lon":137.275618,"lat":36.619565,"lines":[99410]},
{"code":9941013,"name":"上滝","lon":137.295564,"lat":36.609622,"lines":[99410]},
{"code":9941014,"name":"大川寺","lon":137.308721,"lat":36.608322,"lines":[99410]},
{"code":9941302,"name":"大町","lon":137.220483,"lat":36.673066,"lines":[99413]},
{"code":9941303,"name":"堀川小泉","lon":137.219281,"lat":36.675647,"lines":[99413]},
{"code":9941304,"name":"小泉町","lon":137.217779,"lat":36.678745,"lines":[99413]},
{"code":9941305,"name":"西中野","lon":137.216663,"lat":36.680844,"lines":[99413]},
{"code":9941306,"name":"広貫堂前","lon":137.215934,"lat":36.683357,"lines":[99413]},
{"code":9941307,"name":"上本町","lon":137.215762,"lat":36.686282,"lines":[99413]},
{"code":9941308,"name":"西町","lon":137.215676,"lat":36.689001,"lines":[99413]},
{"code":9941321,"name":"中町（西町北）","lon":137.215722,"lat":36.690306,"lines":[99413,99422]},
{"code":9941309,"name":"荒町","lon":137.215805,"lat":36.691513,"lines":[99413,99422]},
{"code":9941310,"name":"桜橋","lon":137.215934,"lat":36.694610,"lines":[99413,99422]},
{"code":9941311,"name":"電気ビル前","lon":137.216105,"lat":36.697432,"lines":[99413,99422]},
{"code":9941312,"name":"地鉄ビル前","lon":137.216105,"lat":36.698584,"lines":[99413,99422]},
{"code":9941314,"name":"新富町","lon":137.211256,"lat":36.698860,"lines":[99413,99422]},
{"code":9941315,"name":"県庁前","lon":137.209840,"lat":36.695728,"lines":[99413,99422]},
{"code":9941316,"name":"丸の内","lon":137.208896,"lat":36.692563,"lines":[99413,99422]},
{"code":9941317,"name":"諏訪川原","lon":137.206535,"lat":36.692322,"lines":[99413]},
{"code":9941318,"name":"安野屋","lon":137.201772,"lat":36.692838,"lines":[99413]},
{"code":9941319,"name":"富山トヨペット本社前","lon":137.195420,"lat":36.694834,"lines":[99413]},
{"code":9941320,"name":"大学前","lon":137.191129,"lat":36.698688,"lines":[99413]},
{"code":9941425,"name":"末広町","lon":137.013148,"lat":36.744825,"lines":[99414]},
{"code":9941402,"name":"片原町","lon":137.012838,"lat":36.746389,"lines":[99414]},
{"code":9941403,"name":"坂下町","lon":137.014585,"lat":36.747367,"lines":[99414]},
{"code":9941404,"name":"急患医療センター前","lon":137.017788,"lat":36.749761,"lines":[99414]},
{"code":9941405,"name":"広小路","lon":137.020615,"lat":36.752566,"lines":[99414]},
{"code":9941406,"name":"志貴野中学校前","lon":137.023759,"lat":36.755648,"lines":[99414]},
{"code":9941407,"name":"市民病院前","lon":137.026100,"lat":36.758196,"lines":[99414]},
{"code":9941408,"name":"江尻","lon":137.029761,"lat":36.761501,"lines":[99414]},
{"code":9941409,"name":"旭ヶ丘","lon":137.032469,"lat":36.763965,"lines":[99414]},
{"code":9941410,"name":"荻布","lon":137.035619,"lat":36.766820,"lines":[99414]},
{"code":9941411,"name":"新能町","lon":137.037713,"lat":36.770258,"lines":[99414]},
{"code":9941412,"name":"米島口","lon":137.038718,"lat":36.773000,"lines":[99414]},
{"code":9941413,"name":"能町口","lon":137.049031,"lat":36.773239,"lines":[99414]},
{"code":9941414,"name":"新吉久","lon":137.052839,"lat":36.776086,"lines":[99414]},
{"code":9941415,"name":"吉久","lon":137.056369,"lat":36.782018,"lines":[99414]},
{"code":9941416,"name":"中伏木","lon":137.061655,"lat":36.788224,"lines":[99414]},
{"code":9941417,"name":"六渡寺","lon":137.066443,"lat":36.788935,"lines":[99414]},
{"code":9941418,"name":"庄川口","lon":137.070729,"lat":36.784433,"lines":[99414]},
{"code":9941419,"name":"西新湊","lon":137.075300,"lat":36.780056,"lines":[99414]},
{"code":9941420,"name":"新町口","lon":137.084259,"lat":36.778983,"lines":[99414]},
{"code":9941421,"name":"中新湊","lon":137.088617,"lat":36.775148,"lines":[99414]},
{"code":9941422,"name":"東新湊","lon":137.099368,"lat":36.777825,"lines":[99414]},
{"code":9941423,"name":"海王丸","lon":137.105331,"lat":36.776726,"lines":[99414]},
{"code":9941424,"name":"越ノ潟","lon":137.111839,"lat":36.774704,"lines":[99414]},
{"code":9941502,"name":"インテック本社前","lon":137.216685,"lat":36.703556,"lines":[99415]},
{"code":9941503,"name":"奥田中学校前","lon":137.223637,"lat":36.703522,"lines":[99415]},
{"code":9941504,"name":"下奥井","lon":137.224478,"lat":36.711311,"lines":[99415]},
{"code":9941505,"name":"粟島（大阪屋ショップ前）","lon":137.224796,"lat":36.719391,"lines":[99415]},
{"code":9941506,"name":"越中中島","lon":137.224844,"lat":36.722121,"lines":[99415]},
{"code":9941507,"name":"城川原","lon":137.226082,"lat":36.731103,"lines":[99415]},
{"code":9941508,"name":"犬島新町","lon":137.226620,"lat":36.735445,"lines":[99415]},
{"code":9941509,"name":"蓮町","lon":137.227463,"lat":36.742663,"lines":[99415]},
{"code":9941510,"name":"大広田","lon":137.228643,"lat":36.748602,"lines":[99415]},
{"code":9941511,"name":"東岩瀬","lon":137.230479,"lat":36.751935,"lines":[99415]},
{"code":9941512,"name":"競輪場前","lon":137.233907,"lat":36.757454,"lines":[99415]},
{"code":9941513,"name":"岩瀬浜","lon":137.234090,"lat":36.761212,"lines":[99415]},
{"code":9942202,"name":"国際会議場前","lon":137.211390,"lat":36.691654,"lines":[99422]},
{"code":9942203,"name":"大手モール","lon":137.211334,"lat":36.689388,"lines":[99422]},
{"code":9942204,"name":"グランドプラザ前","lon":137.213386,"lat":36.688923,"lines":[99422]}
]
