[
{"code":1130107,"name":"大船","lon":139.531127,"lat":35.353466,"lines":[11328,11333,11301,11308,11307,99326]},
{"code":1130106,"name":"戸塚","lon":139.534282,"lat":35.400432,"lines":[11328,11333,11301,11308,99316]},
{"code":1130105,"name":"横浜","lon":139.622704,"lat":35.466195,"lines":[11328,11332,11333,11301,11308,26001,27001,11307,29001,99310,99316]},
{"code":1133233,"name":"新子安","lon":139.654776,"lat":35.487064,"lines":[11332]},
{"code":2700121,"name":"京急新子安","lon":139.655848,"lat":35.487242,"lines":[27001]},
{"code":1130601,"name":"東神奈川","lon":139.633466,"lat":35.478040,"lines":[11332,11306]},
{"code":2700124,"name":"仲木戸","lon":139.634669,"lat":35.477412,"lines":[27001]},
{"code":1130807,"name":"保土ケ谷","lon":139.599671,"lat":35.446746,"lines":[11333,11308]},
{"code":1130808,"name":"東戸塚","lon":139.556794,"lat":35.430353,"lines":[11333,11308]},
{"code":1132508,"name":"長浦","lon":139.995478,"lat":35.450234,"lines":[11325]},
{"code":1132509,"name":"袖ケ浦","lon":139.957880,"lat":35.431997,"lines":[11325]},
{"code":1132510,"name":"巌根","lon":139.933229,"lat":35.414285,"lines":[11325]},
{"code":1132511,"name":"木更津","lon":139.926110,"lat":35.381668,"lines":[11325,11330]},
{"code":1132512,"name":"君津","lon":139.895697,"lat":35.333619,"lines":[11325]},
{"code":1132513,"name":"青堀","lon":139.858189,"lat":35.330304,"lines":[11325]},
{"code":1132514,"name":"大貫","lon":139.855541,"lat":35.291661,"lines":[11325]},
{"code":1132515,"name":"佐貫町","lon":139.876106,"lat":35.260113,"lines":[11325]},
{"code":1132516,"name":"上総湊","lon":139.871016,"lat":35.221855,"lines":[11325]},
{"code":1132517,"name":"竹岡","lon":139.830159,"lat":35.197582,"lines":[11325]},
{"code":1132518,"name":"浜金谷","lon":139.822141,"lat":35.168215,"lines":[11325]},
{"code":1132519,"name":"保田","lon":139.838114,"lat":35.141480,"lines":[11325]},
{"code":1132520,"name":"安房勝山","lon":139.833390,"lat":35.114022,"lines":[11325]},
{"code":1132521,"name":"岩井","lon":139.849839,"lat":35.093062,"lines":[11325]},
{"code":1132522,"name":"富浦","lon":139.837811,"lat":35.046140,"lines":[11325]},
{"code":1132523,"name":"那古船形","lon":139.851388,"lat":35.028987,"lines":[11325]},
{"code":1132528,"name":"南三原","lon":139.979204,"lat":35.021065,"lines":[11325]},
{"code":1133002,"name":"祇園","lon":139.948111,"lat":35.391528,"lines":[11330]},
{"code":1133003,"name":"上総清川","lon":139.965612,"lat":35.390981,"lines":[11330]},
{"code":1133004,"name":"東清川","lon":139.985847,"lat":35.390017,"lines":[11330]},
{"code":1130602,"name":"大口","lon":139.646288,"lat":35.492375,"lines":[11306]},
{"code":1130811,"name":"北鎌倉","lon":139.545134,"lat":35.337198,"lines":[11308]},
{"code":1130812,"name":"鎌倉","lon":139.550428,"lat":35.318793,"lines":[11308,99320]},
{"code":1130813,"name":"逗子","lon":139.578292,"lat":35.297392,"lines":[11308]},
{"code":1130814,"name":"東逗子","lon":139.601768,"lat":35.298781,"lines":[11308]},
{"code":1130815,"name":"田浦","lon":139.637726,"lat":35.292710,"lines":[11308]},
{"code":1130816,"name":"横須賀","lon":139.655855,"lat":35.284022,"lines":[11308]},
{"code":1130817,"name":"衣笠","lon":139.661193,"lat":35.257091,"lines":[11308]},
{"code":1130818,"name":"久里浜","lon":139.700862,"lat":35.233107,"lines":[11308]},
{"code":2700504,"name":"京急久里浜","lon":139.702139,"lat":35.231332,"lines":[27005]},
{"code":2600117,"name":"妙蓮寺","lon":139.633194,"lat":35.498779,"lines":[26001]},
{"code":2600118,"name":"白楽","lon":139.627875,"lat":35.489555,"lines":[26001]},
{"code":2600119,"name":"東白楽","lon":139.629364,"lat":35.483523,"lines":[26001]},
{"code":2600120,"name":"反町","lon":139.625337,"lat":35.474740,"lines":[26001]},
{"code":2700120,"name":"生麦","lon":139.667300,"lat":35.495600,"lines":[27001]},
{"code":2700122,"name":"子安","lon":139.644965,"lat":35.484556,"lines":[27001]},
{"code":2700123,"name":"神奈川新町","lon":139.640152,"lat":35.481559,"lines":[27001]},
{"code":2700125,"name":"神奈川","lon":139.627364,"lat":35.471304,"lines":[27001]},
{"code":2700127,"name":"戸部","lon":139.619560,"lat":35.456631,"lines":[27001]},
{"code":2700128,"name":"日ノ出町","lon":139.626696,"lat":35.445524,"lines":[27001]},
{"code":2700129,"name":"黄金町","lon":139.622460,"lat":35.439694,"lines":[27001]},
{"code":2700130,"name":"南太田","lon":139.613408,"lat":35.436923,"lines":[27001]},
{"code":2700131,"name":"井土ヶ谷","lon":139.600610,"lat":35.433895,"lines":[27001]},
{"code":2700132,"name":"弘明寺","lon":139.596791,"lat":35.424370,"lines":[27001]},
{"code":2700133,"name":"上大岡","lon":139.596552,"lat":35.409418,"lines":[27001,99316]},
{"code":2700134,"name":"屏風浦","lon":139.610387,"lat":35.394176,"lines":[27001]},
{"code":2700135,"name":"杉田","lon":139.615734,"lat":35.383796,"lines":[27001]},
{"code":2700136,"name":"京急富岡","lon":139.629772,"lat":35.366743,"lines":[27001]},
{"code":2700137,"name":"能見台","lon":139.629233,"lat":35.360528,"lines":[27001]},
{"code":2700138,"name":"金沢文庫","lon":139.621606,"lat":35.342966,"lines":[27001]},
{"code":2700139,"name":"金沢八景","lon":139.620180,"lat":35.331223,"lines":[27001,27004,99317]},
{"code":2700140,"name":"追浜","lon":139.624905,"lat":35.315461,"lines":[27001]},
{"code":2700141,"name":"京急田浦","lon":139.625252,"lat":35.300892,"lines":[27001]},
{"code":2700142,"name":"安針塚","lon":139.642920,"lat":35.286641,"lines":[27001]},
{"code":2700143,"name":"逸見","lon":139.653149,"lat":35.280480,"lines":[27001]},
{"code":2700144,"name":"汐入","lon":139.662443,"lat":35.280241,"lines":[27001]},
{"code":2700145,"name":"横須賀中央","lon":139.670217,"lat":35.278580,"lines":[27001]},
{"code":2700146,"name":"県立大学","lon":139.677033,"lat":35.269731,"lines":[27001]},
{"code":2700147,"name":"堀ノ内","lon":139.686932,"lat":35.263220,"lines":[27001,27005]},
{"code":2700148,"name":"京急大津","lon":139.695334,"lat":35.261068,"lines":[27001]},
{"code":2700149,"name":"馬堀海岸","lon":139.707328,"lat":35.259651,"lines":[27001]},
{"code":2700150,"name":"浦賀","lon":139.714999,"lat":35.250933,"lines":[27001]},
{"code":1130403,"name":"鶴見小野","lon":139.681226,"lat":35.497005,"lines":[11304]},
{"code":1130404,"name":"弁天橋","lon":139.689451,"lat":35.495758,"lines":[11304]},
{"code":1130405,"name":"浅野","lon":139.695739,"lat":35.497555,"lines":[11304]},
{"code":1130406,"name":"新芝浦","lon":139.700100,"lat":35.491914,"lines":[11304]},
{"code":1130407,"name":"海芝浦","lon":139.700603,"lat":35.486073,"lines":[11304]},
{"code":1130408,"name":"安善","lon":139.700663,"lat":35.499668,"lines":[11304]},
{"code":1130409,"name":"大川","lon":139.711038,"lat":35.495646,"lines":[11304]},
{"code":1130702,"name":"桜木町","lon":139.630881,"lat":35.451112,"lines":[11307,99316]},
{"code":1130703,"name":"関内","lon":139.636984,"lat":35.443336,"lines":[11307,99316]},
{"code":1130704,"name":"石川町","lon":139.642934,"lat":35.438808,"lines":[11307]},
{"code":1130705,"name":"山手","lon":139.646425,"lat":35.426891,"lines":[11307]},
{"code":1130706,"name":"根岸","lon":139.636034,"lat":35.415887,"lines":[11307]},
{"code":1130707,"name":"磯子","lon":139.617916,"lat":35.399881,"lines":[11307]},
{"code":1130708,"name":"新杉田","lon":139.619483,"lat":35.386863,"lines":[11307,99317]},
{"code":1130709,"name":"洋光台","lon":139.596852,"lat":35.378785,"lines":[11307]},
{"code":1130710,"name":"港南台","lon":139.576243,"lat":35.375183,"lines":[11307]},
{"code":1130711,"name":"本郷台","lon":139.550159,"lat":35.367870,"lines":[11307]},
{"code":2700402,"name":"六浦","lon":139.611532,"lat":35.322690,"lines":[27004]},
{"code":2700403,"name":"神武寺","lon":139.592947,"lat":35.306233,"lines":[27004]},
{"code":2700404,"name":"新逗子","lon":139.580359,"lat":35.294189,"lines":[27004]},
{"code":2700502,"name":"新大津","lon":139.690160,"lat":35.257013,"lines":[27005]},
{"code":2700503,"name":"北久里浜","lon":139.686368,"lat":35.249355,"lines":[27005]},
{"code":2700505,"name":"ＹＲＰ野比","lon":139.685068,"lat":35.212229,"lines":[27005]},
{"code":2700506,"name":"京急長沢","lon":139.674048,"lat":35.205480,"lines":[27005]},
{"code":2700507,"name":"津久井浜","lon":139.665279,"lat":35.198419,"lines":[27005]},
{"code":2700508,"name":"三浦海岸","lon":139.653138,"lat":35.188084,"lines":[27005]},
{"code":2700509,"name":"三崎口","lon":139.633207,"lat":35.177515,"lines":[27005]},
{"code":2900102,"name":"平沼橋","lon":139.616897,"lat":35.460355,"lines":[29001]},
{"code":2900103,"name":"西横浜","lon":139.608745,"lat":35.453437,"lines":[29001]},
{"code":2900104,"name":"天王町","lon":139.602554,"lat":35.453984,"lines":[29001]},
{"code":2900105,"name":"星川","lon":139.594816,"lat":35.458634,"lines":[29001]},
{"code":2900106,"name":"和田町","lon":139.586786,"lat":35.463597,"lines":[29001]},
{"code":2900107,"name":"上星川","lon":139.580078,"lat":35.467694,"lines":[29001]},
{"code":2900108,"name":"西谷","lon":139.565721,"lat":35.478092,"lines":[29001]},
{"code":2900109,"name":"鶴ヶ峰","lon":139.549586,"lat":35.475031,"lines":[29001]},
{"code":2900110,"name":"二俣川","lon":139.532207,"lat":35.463335,"lines":[29001,29002]},
{"code":2900111,"name":"希望ヶ丘","lon":139.514300,"lat":35.460399,"lines":[29001]},
{"code":2900112,"name":"三ツ境","lon":139.502662,"lat":35.467779,"lines":[29001]},
{"code":2900202,"name":"南万騎が原","lon":139.526344,"lat":35.452522,"lines":[29002]},
{"code":2900203,"name":"緑園都市","lon":139.521841,"lat":35.439502,"lines":[29002]},
{"code":2900204,"name":"弥生台","lon":139.506615,"lat":35.429933,"lines":[29002]},
{"code":9931002,"name":"新高島","lon":139.626499,"lat":35.461920,"lines":[99310]},
{"code":9931003,"name":"みなとみらい","lon":139.632386,"lat":35.458028,"lines":[99310]},
{"code":9931004,"name":"馬車道","lon":139.636175,"lat":35.450135,"lines":[99310]},
{"code":9931005,"name":"日本大通り","lon":139.642608,"lat":35.446821,"lines":[99310]},
{"code":9931006,"name":"元町・中華街","lon":139.650446,"lat":35.442430,"lines":[99310]},
{"code":9931609,"name":"岸根公園","lon":139.617065,"lat":35.496038,"lines":[99316]},
{"code":9931610,"name":"片倉町","lon":139.606511,"lat":35.490205,"lines":[99316]},
{"code":9931611,"name":"三ツ沢上町","lon":139.605395,"lat":35.476526,"lines":[99316]},
{"code":9931612,"name":"三ツ沢下町","lon":139.614810,"lat":35.476512,"lines":[99316]},
{"code":9931614,"name":"高島町","lon":139.623548,"lat":35.458804,"lines":[99316]},
{"code":9931617,"name":"伊勢佐木長者町","lon":139.633176,"lat":35.441044,"lines":[99316]},
{"code":9931618,"name":"阪東橋","lon":139.624843,"lat":35.437434,"lines":[99316]},
{"code":9931619,"name":"吉野町","lon":139.618455,"lat":35.435489,"lines":[99316]},
{"code":9931620,"name":"蒔田","lon":139.610123,"lat":35.429935,"lines":[99316]},
{"code":9931621,"name":"弘明寺","lon":139.602081,"lat":35.423294,"lines":[99316]},
{"code":9931623,"name":"港南中央","lon":139.590958,"lat":35.401049,"lines":[99316]},
{"code":9931624,"name":"上永谷","lon":139.572713,"lat":35.401391,"lines":[99316]},
{"code":9931625,"name":"下永谷","lon":139.559389,"lat":35.402677,"lines":[99316]},
{"code":9931626,"name":"舞岡","lon":139.551509,"lat":35.402685,"lines":[99316]},
{"code":9931628,"name":"踊場","lon":139.518058,"lat":35.405922,"lines":[99316]},
{"code":9931629,"name":"中田","lon":139.511301,"lat":35.411161,"lines":[99316]},
{"code":9931630,"name":"立場","lon":139.500177,"lat":35.414296,"lines":[99316]},
{"code":9931702,"name":"南部市場","lon":139.633163,"lat":35.380192,"lines":[99317]},
{"code":9931703,"name":"鳥浜","lon":139.641704,"lat":35.377187,"lines":[99317]},
{"code":9931704,"name":"並木北","lon":139.642743,"lat":35.372015,"lines":[99317]},
{"code":9931705,"name":"並木中央","lon":139.642945,"lat":35.365505,"lines":[99317]},
{"code":9931706,"name":"幸浦","lon":139.643706,"lat":35.358406,"lines":[99317]},
{"code":9931707,"name":"産業振興センター","lon":139.646326,"lat":35.353390,"lines":[99317]},
{"code":9931708,"name":"福浦","lon":139.648517,"lat":35.349627,"lines":[99317]},
{"code":9931709,"name":"市大医学部","lon":139.650156,"lat":35.343966,"lines":[99317]},
{"code":9931710,"name":"八景島","lon":139.640790,"lat":35.340914,"lines":[99317]},
{"code":9931711,"name":"海の公園柴口","lon":139.635846,"lat":35.342086,"lines":[99317]},
{"code":9931712,"name":"海の公園南口","lon":139.632096,"lat":35.337225,"lines":[99317]},
{"code":9931713,"name":"野島公園","lon":139.631524,"lat":35.330559,"lines":[99317]},
{"code":9932008,"name":"鎌倉高校前","lon":139.500535,"lat":35.306698,"lines":[99320]},
{"code":9932009,"name":"七里ヶ浜","lon":139.510101,"lat":35.306243,"lines":[99320]},
{"code":9932010,"name":"稲村ヶ崎","lon":139.522322,"lat":35.304260,"lines":[99320]},
{"code":9932011,"name":"極楽寺","lon":139.528721,"lat":35.309318,"lines":[99320]},
{"code":9932012,"name":"長谷","lon":139.536168,"lat":35.311265,"lines":[99320]},
{"code":9932013,"name":"由比ヶ浜","lon":139.541570,"lat":35.312857,"lines":[99320]},
{"code":9932014,"name":"和田塚","lon":139.545362,"lat":35.313720,"lines":[99320]},
{"code":9932602,"name":"富士見町","lon":139.529277,"lat":35.345389,"lines":[99326]},
{"code":9932603,"name":"湘南町屋","lon":139.522666,"lat":35.337832,"lines":[99326]},
{"code":9932604,"name":"湘南深沢","lon":139.518903,"lat":35.332865,"lines":[99326]},
{"code":9932605,"name":"西鎌倉","lon":139.504365,"lat":35.319383,"lines":[99326]}
]
