[
{"code":1141301,"name":"豊橋","lon":137.382128,"lat":34.762734,"lines":[11413,11502,30001]},
{"code":9952001,"name":"新豊橋","lon":137.383375,"lat":34.762272,"lines":[99520]},
{"code":9952101,"name":"駅前","lon":137.383132,"lat":34.763879,"lines":[99521]},
{"code":1141302,"name":"船町","lon":137.374001,"lat":34.775809,"lines":[11413]},
{"code":1141303,"name":"下地","lon":137.370612,"lat":34.780939,"lines":[11413]},
{"code":1141304,"name":"小坂井","lon":137.363056,"lat":34.797544,"lines":[11413]},
{"code":1141305,"name":"牛久保","lon":137.381671,"lat":34.808563,"lines":[11413]},
{"code":1141306,"name":"豊川","lon":137.397157,"lat":34.822519,"lines":[11413]},
{"code":3000205,"name":"豊川稲荷","lon":137.396058,"lat":34.821755,"lines":[30002]},
{"code":1141307,"name":"三河一宮","lon":137.414549,"lat":34.847911,"lines":[11413]},
{"code":1141308,"name":"長山","lon":137.431458,"lat":34.864449,"lines":[11413]},
{"code":1141309,"name":"江島","lon":137.441518,"lat":34.868029,"lines":[11413]},
{"code":1141310,"name":"東上","lon":137.455236,"lat":34.876278,"lines":[11413]},
{"code":1141311,"name":"野田城","lon":137.477861,"lat":34.889282,"lines":[11413]},
{"code":1141312,"name":"新城","lon":137.493040,"lat":34.901112,"lines":[11413]},
{"code":1150208,"name":"新所原","lon":137.484399,"lat":34.723205,"lines":[11502,99505]},
{"code":1150209,"name":"二川","lon":137.438966,"lat":34.725809,"lines":[11502]},
{"code":1150211,"name":"西小坂井","lon":137.352499,"lat":34.797080,"lines":[11502]},
{"code":1150212,"name":"愛知御津","lon":137.316492,"lat":34.812624,"lines":[11502]},
{"code":1150213,"name":"三河大塚","lon":137.282870,"lat":34.815744,"lines":[11502]},
{"code":1150214,"name":"三河三谷","lon":137.247795,"lat":34.818546,"lines":[11502]},
{"code":1150215,"name":"蒲郡","lon":137.226459,"lat":34.823078,"lines":[11502,30004]},
{"code":1150216,"name":"三河塩津","lon":137.201261,"lat":34.825295,"lines":[11502]},
{"code":3000409,"name":"蒲郡競艇場前","lon":137.202014,"lat":34.825545,"lines":[30004]},
{"code":1150217,"name":"三ケ根","lon":137.176348,"lat":34.836449,"lines":[11502]},
{"code":1150218,"name":"幸田","lon":137.164470,"lat":34.859926,"lines":[11502]},
{"code":1150242,"name":"相見","lon":137.160389,"lat":34.886833,"lines":[11502]},
{"code":1150219,"name":"岡崎","lon":137.157243,"lat":34.925417,"lines":[11502,99511]},
{"code":1150220,"name":"西岡崎","lon":137.123187,"lat":34.946572,"lines":[11502]},
{"code":1150221,"name":"安城","lon":137.087160,"lat":34.959986,"lines":[11502]},
{"code":1150222,"name":"三河安城","lon":137.060918,"lat":34.969680,"lines":[11502]},
{"code":1150223,"name":"東刈谷","lon":137.043525,"lat":34.977410,"lines":[11502]},
{"code":1150240,"name":"野田新町","lon":137.026355,"lat":34.984212,"lines":[11502]},
{"code":1150224,"name":"刈谷","lon":137.008878,"lat":34.991156,"lines":[11502,30005]},
{"code":3000102,"name":"伊奈","lon":137.354743,"lat":34.802857,"lines":[30001]},
{"code":3000103,"name":"小田渕","lon":137.345590,"lat":34.814739,"lines":[30001]},
{"code":3000104,"name":"国府","lon":137.328101,"lat":34.837520,"lines":[30001,30002]},
{"code":3000105,"name":"御油","lon":137.321443,"lat":34.846113,"lines":[30001]},
{"code":3000106,"name":"名電赤坂","lon":137.311152,"lat":34.859331,"lines":[30001]},
{"code":3000107,"name":"名電長沢","lon":137.288298,"lat":34.871623,"lines":[30001]},
{"code":3000108,"name":"本宿","lon":137.260014,"lat":34.893025,"lines":[30001]},
{"code":3000109,"name":"名電山中","lon":137.242829,"lat":34.899474,"lines":[30001]},
{"code":3000110,"name":"藤川","lon":137.218428,"lat":34.913304,"lines":[30001]},
{"code":3000111,"name":"美合","lon":137.196317,"lat":34.923763,"lines":[30001]},
{"code":3000112,"name":"男川","lon":137.183296,"lat":34.937461,"lines":[30001]},
{"code":3000113,"name":"東岡崎","lon":137.167333,"lat":34.951904,"lines":[30001]},
{"code":3000114,"name":"岡崎公園前","lon":137.153309,"lat":34.954984,"lines":[30001]},
{"code":9951103,"name":"中岡崎","lon":137.152723,"lat":34.956231,"lines":[99511]},
{"code":3000115,"name":"矢作橋","lon":137.139957,"lat":34.961149,"lines":[30001]},
{"code":3000116,"name":"宇頭","lon":137.118103,"lat":34.971367,"lines":[30001]},
{"code":3000117,"name":"新安城","lon":137.085443,"lat":34.986885,"lines":[30001,30003]},
{"code":3000118,"name":"牛田","lon":137.060946,"lat":34.999294,"lines":[30001]},
{"code":9950536,"name":"アスモ前","lon":137.494050,"lat":34.727685,"lines":[99505]},
{"code":3000202,"name":"八幡","lon":137.352113,"lat":34.829160,"lines":[30002]},
{"code":3000203,"name":"諏訪町","lon":137.370479,"lat":34.823464,"lines":[30002]},
{"code":3000204,"name":"稲荷口","lon":137.387703,"lat":34.818435,"lines":[30002]},
{"code":3000302,"name":"北安城","lon":137.092146,"lat":34.964677,"lines":[30003]},
{"code":3000303,"name":"南安城","lon":137.092457,"lat":34.951976,"lines":[30003]},
{"code":3000304,"name":"碧海古井","lon":137.090863,"lat":34.937230,"lines":[30003]},
{"code":3000305,"name":"堀内公園","lon":137.089636,"lat":34.927834,"lines":[30003]},
{"code":3000306,"name":"桜井","lon":137.088345,"lat":34.917477,"lines":[30003]},
{"code":3000316,"name":"南桜井","lon":137.077210,"lat":34.906302,"lines":[30003]},
{"code":3000307,"name":"米津","lon":137.060993,"lat":34.892822,"lines":[30003]},
{"code":3000308,"name":"桜町前","lon":137.062444,"lat":34.880107,"lines":[30003]},
{"code":3000309,"name":"西尾口","lon":137.062661,"lat":34.870647,"lines":[30003]},
{"code":3000310,"name":"西尾","lon":137.057789,"lat":34.863917,"lines":[30003]},
{"code":3000311,"name":"福地","lon":137.048579,"lat":34.844663,"lines":[30003]},
{"code":3000313,"name":"上横須賀","lon":137.071883,"lat":34.829941,"lines":[30003]},
{"code":3000315,"name":"吉良吉田","lon":137.071017,"lat":34.794043,"lines":[30003,30004]},
{"code":3000402,"name":"三河鳥羽","lon":137.104984,"lat":34.793214,"lines":[30004]},
{"code":3000403,"name":"西幡豆","lon":137.121271,"lat":34.792431,"lines":[30004]},
{"code":3000404,"name":"東幡豆","lon":137.145645,"lat":34.789693,"lines":[30004]},
{"code":3000405,"name":"こどもの国","lon":137.162721,"lat":34.788791,"lines":[30004]},
{"code":3000406,"name":"西浦","lon":137.178617,"lat":34.790030,"lines":[30004]},
{"code":3000407,"name":"形原","lon":137.184594,"lat":34.798607,"lines":[30004]},
{"code":3000408,"name":"三河鹿島","lon":137.189687,"lat":34.813313,"lines":[30004]},
{"code":3000511,"name":"重原","lon":137.023727,"lat":34.994824,"lines":[30005]},
{"code":9951102,"name":"六名","lon":137.152004,"lat":34.941132,"lines":[99511]},
{"code":9951104,"name":"北岡崎","lon":137.157736,"lat":34.972301,"lines":[99511]},
{"code":9951105,"name":"大門","lon":137.154883,"lat":34.982411,"lines":[99511]},
{"code":9951106,"name":"北野桝塚","lon":137.139457,"lat":34.996289,"lines":[99511]},
{"code":9952002,"name":"柳生橋","lon":137.388470,"lat":34.754790,"lines":[99520]},
{"code":9952003,"name":"小池","lon":137.388076,"lat":34.748891,"lines":[99520]},
{"code":9952004,"name":"愛知大学前","lon":137.385754,"lat":34.741682,"lines":[99520]},
{"code":9952005,"name":"南栄","lon":137.385446,"lat":34.735920,"lines":[99520]},
{"code":9952006,"name":"高師","lon":137.381674,"lat":34.727068,"lines":[99520]},
{"code":9952007,"name":"芦原","lon":137.380122,"lat":34.718433,"lines":[99520]},
{"code":9952008,"name":"植田","lon":137.373047,"lat":34.711085,"lines":[99520]},
{"code":9952009,"name":"向ヶ丘","lon":137.367556,"lat":34.706351,"lines":[99520]},
{"code":9952010,"name":"大清水","lon":137.358863,"lat":34.695966,"lines":[99520]},
{"code":9952011,"name":"老津","lon":137.335360,"lat":34.692344,"lines":[99520]},
{"code":9952012,"name":"杉山","lon":137.320759,"lat":34.680301,"lines":[99520]},
{"code":9952013,"name":"やぐま台","lon":137.309427,"lat":34.673809,"lines":[99520]},
{"code":9952014,"name":"豊島","lon":137.293737,"lat":34.667459,"lines":[99520]},
{"code":9952015,"name":"神戸","lon":137.278044,"lat":34.668253,"lines":[99520]},
{"code":9952016,"name":"三河田原","lon":137.269172,"lat":34.666875,"lines":[99520]},
{"code":9952102,"name":"駅前大通","lon":137.385707,"lat":34.763209,"lines":[99521]},
{"code":9952103,"name":"新川","lon":137.389483,"lat":34.762857,"lines":[99521]},
{"code":9952104,"name":"札木","lon":137.390299,"lat":34.765959,"lines":[99521]},
{"code":9952105,"name":"市役所前","lon":137.392488,"lat":34.767369,"lines":[99521]},
{"code":9952106,"name":"豊橋公園前","lon":137.395406,"lat":34.766841,"lines":[99521]},
{"code":9952107,"name":"東八町","lon":137.400341,"lat":34.765924,"lines":[99521]},
{"code":9952108,"name":"前畑","lon":137.404718,"lat":34.765818,"lines":[99521]},
{"code":9952109,"name":"東田坂上","lon":137.408495,"lat":34.765783,"lines":[99521]},
{"code":9952110,"name":"東田","lon":137.413151,"lat":34.765360,"lines":[99521]},
{"code":9952111,"name":"競輪場前","lon":137.416778,"lat":34.765078,"lines":[99521]},
{"code":9952112,"name":"井原","lon":137.421885,"lat":34.764232,"lines":[99521]},
{"code":9952113,"name":"赤岩口","lon":137.429931,"lat":34.763403,"lines":[99521]},
{"code":9952114,"name":"運動公園前","lon":137.422314,"lat":34.758450,"lines":[99521]}
]
