[
{"code":1122103,"name":"陸前谷地","lon":140.999453,"lat":38.565152,"lines":[11221]},
{"code":1122104,"name":"古川","lon":140.967876,"lat":38.571192,"lines":[11221]},
{"code":1122105,"name":"塚目","lon":140.937093,"lat":38.572474,"lines":[11221]},
{"code":1122106,"name":"西古川","lon":140.895416,"lat":38.578214,"lines":[11221]},
{"code":1122107,"name":"東大崎","lon":140.897015,"lat":38.605627,"lines":[11221]},
{"code":1122108,"name":"西大崎","lon":140.889638,"lat":38.629986,"lines":[11221]},
{"code":1122109,"name":"岩出山","lon":140.871492,"lat":38.652508,"lines":[11221]},
{"code":1122110,"name":"有備館","lon":140.864420,"lat":38.658135,"lines":[11221]},
{"code":1122111,"name":"上野目","lon":140.859342,"lat":38.680563,"lines":[11221]},
{"code":1122112,"name":"池月","lon":140.835732,"lat":38.708948,"lines":[11221]},
{"code":1122113,"name":"川渡温泉","lon":140.779317,"lat":38.736834,"lines":[11221]},
{"code":1122114,"name":"鳴子御殿湯","lon":140.737148,"lat":38.744612,"lines":[11221]},
{"code":1122115,"name":"鳴子温泉","lon":140.715939,"lat":38.743193,"lines":[11221]},
{"code":1122116,"name":"中山平温泉","lon":140.668103,"lat":38.726568,"lines":[11221]},
{"code":1122117,"name":"堺田","lon":140.612902,"lat":38.735490,"lines":[11221]},
{"code":1122118,"name":"赤倉温泉","lon":140.553647,"lat":38.730535,"lines":[11221]},
{"code":1122119,"name":"立小路","lon":140.542678,"lat":38.742045,"lines":[11221]},
{"code":1122120,"name":"最上","lon":140.517712,"lat":38.755959,"lines":[11221]}
]
