[{"code":1171443,"station":"安芸矢口","phonetic":"あきやぐち","prefecture":34,"lon":132.495094,"lat":34.463579,"lines":[11714],"next":[1171442,9970909,1171708,9970910,1171710,1171444,1171440,1171709],"voronoi":{"pivot":[132.501781,34.472612],"points":[0,0,18353,-12730,6320,-14041,-36235,5493,-4377,6744,-1096,3838,282,1398,5638,8702]}},
{"code":1171444,"station":"戸坂","phonetic":"へさか","prefecture":34,"lon":132.491246,"lat":34.438193,"lines":[11714],"next":[1161111,9970906,1171445,9970907,9970909,1171440,1171443,9970908],"voronoi":{"pivot":[132.481246,34.435001],"points":[0,0,905,-6094,5782,-11254,46380,7783,4977,7616,-12837,12789,-36235,5493,-5790,-6011]}},
{"code":1171445,"station":"矢賀","phonetic":"やが","prefecture":34,"lon":132.497769,"lat":34.399319,"lines":[11714],"next":[1161112,1161115,1161114,9970906,1161111,1171444,9971002],"voronoi":{"pivot":[132.522769,34.396071],"points":[0,0,9263,11150,2281,18215,-46380,-7783,-2649,-2731,1429,-16926,778,-3967]}},
{"code":1161115,"station":"広島","phonetic":"ひろしま","prefecture":34,"lon":132.475593,"lat":34.397446,"lines":[11714,11611,11716,11717,50025],"next":[9971703,9970906,9971002,1171445,9971001,9971005,9971704,9971705,9970905],"voronoi":{"pivot":[132.485284,34.414921],"points":[0,0,1429,-16926,-9154,-1465,-7184,1187,-96,172,383,1611,3093,6059,4327,6202,4698,2626]}},
{"code":9971001,"station":"広島駅","phonetic":"ひろしまえき","prefecture":34,"lon":132.475403,"lat":34.396296,"lines":[99710,99711,99713,99714],"next":[9971004,1161115,9971002,9971003,9971005],"voronoi":{"pivot":[132.472956,34.395034],"points":[0,0,1090,-118,3514,1615,-7184,1187,100,-238]}},
{"code":1161114,"station":"天神川","phonetic":"てんじんがわ","prefecture":34,"lon":132.498311,"lat":34.389959,"lines":[11611,11716],"next":[1171445,9971003,1161112,9971306,9971304,1161113,9971305,9971002],"voronoi":{"pivot":[132.522769,34.396071],"points":[0,0,-527,-949,-35877,-21220,-211,936,-161,1469,162,11547,120,837,1216,5338]}},
{"code":1161130,"station":"新白島","phonetic":"しんはくしま","prefecture":34,"lon":132.461528,"lat":34.408361,"lines":[11611,11717,99709],"next":[9970903,9970904,1161116,9971705],"voronoi":{"pivot":[132.456455,34.412114],"points":[0,0,-271,-1657,6049,-5352,3126,3208]}},
{"code":1161116,"station":"横川(広島)","phonetic":"よこがわ","prefecture":34,"lon":132.450450,"lat":34.410173,"lines":[11611,11717],"next":[9970904,9971502,1161130,9971501,9970905,1171703,9970903],"voronoi":{"pivot":[132.456057,34.410231],"points":[0,0,-11818,-823,-3969,598,15718,6754,159,-321,308,-4326,-271,-1657]}},
{"code":9971501,"station":"横川駅","phonetic":"よこがわえき","prefecture":34,"lon":132.450496,"lat":34.409512,"lines":[99715,99716],"next":[9970903,1161116,9971502],"voronoi":{"pivot":[132.456057,34.410231],"points":[0,0,-11818,-823,10378,-2131]}},
{"code":1161117,"station":"西広島","phonetic":"にしひろしま","prefecture":34,"lon":132.427979,"lat":34.397832,"lines":[11611],"next":[9971120,9971121,9970921,9971119,9971117,1171703],"voronoi":{"pivot":[132.422400,34.422820],"points":[0,0,-12512,-9294,13807,-18117,8811,4259,2480,5156,981,4449]}},
{"code":9971120,"station":"広電西広島（己斐）","phonetic":"ひろでんにしひろしま(こい)","prefecture":34,"lon":132.428255,"lat":34.397261,"lines":[99711,99712],"next":[9971121,1161117,9971119],"voronoi":{"pivot":[132.423696,34.395409],"points":[0,0,4415,-6641,4396,10900]}},
{"code":1161118,"station":"新井口","phonetic":"しんいのくち","prefecture":34,"lon":132.391924,"lat":34.375601,"lines":[11611],"next":[9970921,9971126,9971124,9971128,9971127,9971125],"voronoi":{"pivot":[132.388600,34.374096],"points":[0,0,-19422,30868,-1895,4450,16337,-2231,221,-442,11350,-29868]}},
{"code":9971126,"station":"商工センター入口","phonetic":"しょうこうせんたーいりぐち","prefecture":34,"lon":132.391999,"lat":34.375423,"lines":[99711],"next":[9971125,1161118,9971420,9971127],"voronoi":{"pivot":[132.388600,34.374096],"points":[0,0,6591,2777,16381,-39770,-105,-1579]}},
{"code":1161119,"station":"五日市","phonetic":"いつかいち","prefecture":34,"lon":132.367717,"lat":34.366798,"lines":[11611],"next":[9970921,9971128,9971129,9971130],"voronoi":{"pivot":[132.353601,34.415392],"points":[0,0,8486,-4005,9020,-43653,-6272,-2152]}},
{"code":9971129,"station":"広電五日市","phonetic":"ひろでんいつかいち","prefecture":34,"lon":132.367856,"lat":34.366393,"lines":[99711],"next":[1161119,9971138,9971128,9971130],"voronoi":{"pivot":[132.364834,34.365582],"points":[0,0,6272,2152,22706,-83772,-20224,24974]}},
{"code":1161120,"station":"廿日市","phonetic":"はつかいち","prefecture":34,"lon":132.335657,"lat":34.357837,"lines":[11611],"next":[9970919,9971132,9971133,9971134],"voronoi":{"pivot":[132.167131,34.551022],"points":[0,0,64566,-45863,107636,-146464,-6965,-2990]}},
{"code":9971133,"station":"広電廿日市","phonetic":"ひろでんはつかいち","prefecture":34,"lon":132.336179,"lat":34.356621,"lines":[99711],"next":[9971134,9971132,9971135,9971130,9971138,1161120,9971131],"voronoi":{"pivot":[132.349732,34.348794],"points":[0,0,-10399,9901,-6965,-2990,11313,-19197,7300,-8740,11848,-6920,-1107,3204]}},
{"code":1161121,"station":"宮内串戸","phonetic":"みやうちくしど","prefecture":34,"lon":132.323706,"lat":34.347963,"lines":[11611],"next":[9971812,9971137,1170823,9971135,9971134,1170141,9971136,9971811,9970919,1161125],"voronoi":{"pivot":[132.312212,34.349487],"points":[0,0,11606,-3774,1907,5903,-164138,203472,-21890,16554,-18200,-14948,-22242,-59279,434,-1880,806,-3082,83940,-76411]}},
{"code":9971135,"station":"宮内(広島)","phonetic":"みやうち","prefecture":34,"lon":132.325226,"lat":34.347472,"lines":[99711],"next":[1161121,9971136,9971138,9971134,9971133],"voronoi":{"pivot":[132.343015,34.330292],"points":[0,0,-19196,15420,1907,5903,17956,-15107,7300,-8740]}},
{"code":1161122,"station":"阿品","phonetic":"あじな","prefecture":34,"lon":132.314216,"lat":34.323152,"lines":[11611],"next":[9971140,9971137,9971139,9971138],"voronoi":{"pivot":[132.308777,34.334787],"points":[0,0,-20781,6814,20795,-21946,8343,4203]}},
{"code":9971139,"station":"広電阿品","phonetic":"ひろでんあじな","prefecture":34,"lon":132.314830,"lat":34.321933,"lines":[99711],"next":[9971027,9971141,1161122,1171622,9971138,9971140],"voronoi":{"pivot":[132.308790,34.319655],"points":[0,0,8343,4203,86463,-71163,461,-2102,-7848,-27406,-79487,86090]}},
{"code":1161123,"station":"宮島口","phonetic":"みやじまぐち","prefecture":34,"lon":132.302689,"lat":34.312081,"lines":[11611],"next":[1161124,9971140,9971141,9971137],"voronoi":{"pivot":[132.248136,34.364546],"points":[0,0,56195,-67530,-948,16696,-45488,44964]}},
{"code":9971141,"station":"広電宮島口","phonetic":"ひろでんみやじまぐち","prefecture":34,"lon":132.304256,"lat":34.312170,"lines":[99711],"next":[1161124,9971139,9971140,1161123,1171622],"voronoi":{"pivot":[132.316722,34.309276],"points":[0,0,-13340,4436,948,-16696,83362,-111445,8517,37615]}},
{"code":1161124,"station":"前空","phonetic":"まえぞら","prefecture":34,"lon":132.289815,"lat":34.301368,"lines":[11611],"next":[9971137,9971141,1161123,1161129,1161128,1171622,1161125],"voronoi":{"pivot":[132.199006,34.402081],"points":[0,0,49129,-37534,56195,-67530,83362,-111445,-2035,-12362,-10652,5278,-28914,18479]}},
{"code":1161125,"station":"大野浦","phonetic":"おおのうら","prefecture":34,"lon":132.265263,"lat":34.283762,"lines":[11611],"next":[1161129,1161127,9971137,9971811,1161126,1161124,1161121],"voronoi":{"pivot":[132.100496,34.492453],"points":[0,0,3299,-35755,172676,-226296,3617,-2283,66004,-31152,-147085,205114,-14571,13961]}},
{"code":1161126,"station":"玖波","phonetic":"くば","prefecture":34,"lon":132.227963,"lat":34.255300,"lines":[11611],"next":[9971811,9971808,1161125,1161127,9971803],"voronoi":{"pivot":[132.112107,34.288213],"points":[0,0,-9239,41882,927,126602,172676,-226296,-124658,14814]}},
{"code":1161127,"station":"大竹(広島)","phonetic":"おおたけ","prefecture":34,"lon":132.223479,"lat":34.217565,"lines":[11611],"next":[1161129,9971803,1161125,1161126,1172402,5000241],"voronoi":{"pivot":[132.190778,34.199865],"points":[0,0,89310,28253,-3617,2283,-124658,14814,11517,-21303,11316,-15857]}},
{"code":1161129,"station":"和木","phonetic":"わき","prefecture":35,"lon":132.227709,"lat":34.204194,"lines":[11611],"next":[1161127,1161125,1161124,1161128,1172402],"voronoi":{"pivot":[132.190778,34.199865],"points":[0,0,89310,28253,66004,-31152,28914,-18479,-170798,10966]}},
{"code":1161128,"station":"岩国","phonetic":"いわくに","prefecture":35,"lon":132.225631,"lat":34.171828,"lines":[11611,11612,11724],"next":[1161205,1161202,1172402,1161129,1161124,1161204,1171622],"voronoi":{"pivot":[132.385658,34.173209],"points":[0,0,-10652,5278,-170798,10966,10409,-35270,101079,-54206,13181,-2631,83157,-7769]}},
{"code":1171626,"station":"水尻","phonetic":"みずしり","prefecture":34,"lon":132.498763,"lat":34.319433,"lines":[11716],"next":[1171627,9971026,1171625,9971027,9971025],"voronoi":{"pivot":[132.520743,34.319062],"points":[0,0,-86594,-38975,32551,42572,1518,1725,16832,16934]}},
{"code":1171703,"station":"三滝","phonetic":"みたき","prefecture":34,"lon":132.447397,"lat":34.417278,"lines":[11717],"next":[9971503,9971117,1171704,9970905,9971502,9970921,9970920,1161117,1161116],"voronoi":{"pivot":[132.456009,34.419490],"points":[0,0,-25527,19922,-5918,-10937,-2164,-5655,13567,-13547,467,-193,111,15,3724,911,15718,6754]}},
{"code":1171704,"station":"安芸長束","phonetic":"あきながつか","prefecture":34,"lon":132.456063,"lat":34.428382,"lines":[11717],"next":[9970905,1171703,9970918,9970906,9970920,1171705,9970916],"voronoi":{"pivot":[132.433824,34.445130],"points":[0,0,-2815,-3568,-527,-2149,25527,-19922,6302,4778,811,7357,-26480,15120]}},
{"code":1171705,"station":"下祇園","phonetic":"しもぎおん","prefecture":34,"lon":132.462328,"lat":34.439354,"lines":[11717],"next":[9970907,9970915,9970914,9970906,1171706,9970908,9970916,1171704],"voronoi":{"pivot":[132.463966,34.432099],"points":[0,0,4594,9197,-717,2280,-20900,10787,-3469,-1684,-2027,-1373,-4804,-4560,26480,-15120]}},
{"code":1171706,"station":"古市橋","phonetic":"ふるいちばし","prefecture":34,"lon":132.468089,"lat":34.450516,"lines":[11717],"next":[1171707,9970909,9970910,1171705,9970908,9970914,9970912,9970913],"voronoi":{"pivot":[132.459314,34.458256],"points":[0,0,10718,-2590,2173,-2068,794,-5260,-5157,-4763,-20900,10787,535,498,305,185]}},
{"code":1171707,"station":"大町(広島)","phonetic":"おおまち","prefecture":34,"lon":132.470655,"lat":34.461136,"lines":[11717,99709],"next":[1171706,9970910,1171708,9970912],"voronoi":{"pivot":[132.459314,34.458256],"points":[0,0,10718,-2590,5188,7014,-6005,4935]}},
{"code":1171708,"station":"緑井","phonetic":"みどりい","prefecture":34,"lon":132.475851,"lat":34.467459,"lines":[11717],"next":[9970912,1171707,9970910,1171709,1171443],"voronoi":{"pivot":[132.484746,34.461915],"points":[0,0,-9525,765,-6005,4935,1560,10379,14252,-14681]}},
{"code":1171709,"station":"七軒茶屋","phonetic":"しちけんぢゃや","prefecture":34,"lon":132.481156,"lat":34.472609,"lines":[11717],"next":[9970912,1171708,9970913,1171710,1171715,1171443],"voronoi":{"pivot":[132.472798,34.500130],"points":[0,0,-3199,1056,-984,-10790,2160,-12402,14252,-14681,5638,8702]}},
{"code":1171710,"station":"梅林(広島)","phonetic":"ばいりん","prefecture":34,"lon":132.494166,"lat":34.480877,"lines":[11717],"next":[1171711,1171715,1171442,1171443,1171709],"voronoi":{"pivot":[132.472798,34.500130],"points":[0,0,16782,-800,11199,-14891,1001,-11828,-11115,-596]}},
{"code":9970901,"station":"本通","phonetic":"ほんどおり","prefecture":34,"lon":132.457003,"lat":34.393377,"lines":[99709,99710,99712,99715],"next":[9971011,9971009,9971111,9971110,9971008],"voronoi":{"pivot":[132.459189,34.393156],"points":[0,0,-1875,1266,-2204,-41,-1062,-1177,5767,-2077]}},
{"code":9970902,"station":"県庁前(広島)","phonetic":"けんちょうまえ","prefecture":34,"lon":132.458231,"lat":34.396863,"lines":[99709],"next":[9970903,9971111,9971702,9971009,9971110,9971703,9971008],"voronoi":{"pivot":[132.459734,34.395926],"points":[0,0,-1956,71,-1896,1705,-600,3696,5399,-432,443,-1045,302,-2048]}},
{"code":9970903,"station":"城北","phonetic":"じょうほく","prefecture":34,"lon":132.458914,"lat":34.405407,"lines":[99709],"next":[1161130,9970902,9971502,9971705,9971703,9971501,9971503,9971111,1161116],"voronoi":{"pivot":[132.462232,34.405104],"points":[0,0,-391,-2788,-1161,-1350,-5399,432,-847,458,-295,2454,477,2967,1440,2954,127,225]}},
{"code":9970904,"station":"白島(広島高速交通)","phonetic":"はくしま","prefecture":34,"lon":132.462674,"lat":34.411045,"lines":[99709],"next":[1161116,1161130,9971705,9970905],"voronoi":{"pivot":[132.456146,34.416439],"points":[0,0,308,-4326,8904,-3801,7032,3035]}},
{"code":9970905,"station":"牛田(広島)","phonetic":"うした","prefecture":34,"lon":132.464585,"lat":34.417142,"lines":[99709],"next":[1171704,9970906,9971705,1161116,1171703,9970904,1161115],"voronoi":{"pivot":[132.478083,34.411762],"points":[0,0,-5692,-414,-16244,5092,-159,321,22,2730,6302,4778,20469,-9881]}},
{"code":9970906,"station":"不動院前","phonetic":"ふどういんまえ","prefecture":34,"lon":132.469306,"lat":34.426921,"lines":[99709],"next":[1161115,1171445,9970907,1171444,1171705,9970905,1171704],"voronoi":{"pivot":[132.462311,34.424269],"points":[0,0,20469,-9881,2504,534,2649,2731,-5782,11254,-18186,3192,-843,-473]}},
{"code":9970907,"station":"祇園新橋北","phonetic":"ぎおんしんばしきた","prefecture":34,"lon":132.470750,"lat":34.435148,"lines":[99709],"next":[1171705,9970906,1171444,9970908],"voronoi":{"pivot":[132.482151,34.428907],"points":[0,0,-18186,3192,4594,9197,12687,-6295]}},
{"code":9970908,"station":"西原(広島)","phonetic":"にしはら","prefecture":34,"lon":132.474780,"lat":34.443270,"lines":[99709],"next":[1171706,1171705,9970909,9970907,1171444],"voronoi":{"pivot":[132.481246,34.435001],"points":[0,0,-12687,6295,-717,2280,5157,4763,11429,-3016]}},
{"code":9970909,"station":"中筋","phonetic":"なかすじ","prefecture":34,"lon":132.477049,"lat":34.451869,"lines":[99709],"next":[1171706,1171443,9970910,1171444,9970908],"voronoi":{"pivot":[132.490219,34.451333],"points":[0,0,-4377,6744,-13636,-4479,794,-5260,11429,-3016]}},
{"code":9970910,"station":"古市(広島)","phonetic":"ふるいち","prefecture":34,"lon":132.475080,"lat":34.457863,"lines":[99709],"next":[1171707,1171708,1171706,9970909,1171443],"voronoi":{"pivot":[132.472206,34.453598],"points":[0,0,-2173,2068,5188,7014,9525,-765,1096,-3838]}},
{"code":9970912,"station":"毘沙門台","phonetic":"びしゃもんだい","prefecture":34,"lon":132.462827,"lat":34.469417,"lines":[99709],"next":[1171708,1171709,1171707,9970913,1171706],"voronoi":{"pivot":[132.469215,34.467615],"points":[0,0,1560,10379,-2160,12402,-20833,-35351,11532,3211]}},
{"code":9970913,"station":"安東","phonetic":"やすひがし","prefecture":34,"lon":132.453067,"lat":34.475169,"lines":[99709],"next":[1171715,1171709,9970912,9970914,1171706],"voronoi":{"pivot":[132.447478,34.454860],"points":[0,0,4339,64421,17783,-18095,-984,-10790,-20833,-35351]}},
{"code":9970914,"station":"上安","phonetic":"かみやす","prefecture":34,"lon":132.444662,"lat":34.475735,"lines":[99709],"next":[1171705,1171715,1171706,9970915,9970913],"voronoi":{"pivot":[132.435501,34.539410],"points":[0,0,7972,-86732,3469,1684,535,498,4339,64421]}},
{"code":9970915,"station":"高取","phonetic":"たかとり","prefecture":34,"lon":132.438102,"lat":34.475132,"lines":[99709],"next":[1171705,9970916,1171715,9970914],"voronoi":{"pivot":[132.435501,34.539410],"points":[0,0,-37971,52089,43916,-140194,2027,1373]}},
{"code":9970916,"station":"長楽寺","phonetic":"ちょうらくじ","prefecture":34,"lon":132.430600,"lat":34.472782,"lines":[99709],"next":[9970918,9970917,9970915,1171705,1171715,1171704],"voronoi":{"pivot":[132.441447,34.451306],"points":[0,0,-43916,140194,-4800,7046,37334,-146508,3760,-6908,2818,1616]}},
{"code":9970917,"station":"伴","phonetic":"とも","prefecture":34,"lon":132.419667,"lat":34.469996,"lines":[99709],"next":[1171715,5000201,9970916,1170138,1170137,9970918,5000202],"voronoi":{"pivot":[132.392731,34.598546],"points":[0,0,37334,-146508,-204270,209103,22093,20424,18106,13855,54316,9547,6157,450]}},
{"code":9970918,"station":"大原(広島)","phonetic":"おおはら","prefecture":34,"lon":132.412354,"lat":34.462852,"lines":[99709],"next":[9970916,1170138,9970920,9970919,1171704,9970917],"voronoi":{"pivot":[132.433824,34.445130],"points":[0,0,-2815,-3568,-8475,3825,-207128,206506,10388,9248,204270,-209103]}},
{"code":9970919,"station":"伴中央","phonetic":"ともちゅうおう","prefecture":34,"lon":132.405038,"lat":34.455514,"lines":[99709],"next":[9971134,9971132,9970918,1170141,1161120,9970921,9970920,1170138,1161121,1170140],"voronoi":{"pivot":[132.170330,34.612079],"points":[0,0,-30632,-40438,21890,-16554,5544,-4065,64566,-45863,40634,-27701,89231,-21933,60972,-10139,-207128,206506,-40676,-34849]}},
{"code":9970920,"station":"大塚(広島)","phonetic":"おおづか","prefecture":34,"lon":132.402702,"lat":34.441466,"lines":[99709],"next":[9970918,9970921,9970919,1171704,1171703],"voronoi":{"pivot":[132.424564,34.428476],"points":[0,0,-63002,27050,60972,-10139,8475,-3825,-527,-2149]}},
{"code":9970921,"station":"広域公園前","phonetic":"こういきこうえんまえ","prefecture":34,"lon":132.400089,"lat":34.435380,"lines":[99709],"next":[9971124,9971132,1161118,1161119,9971122,9970920,1161117,9971123,9971128,9970919,9971131,9971121,9971130,1171703],"voronoi":{"pivot":[132.361562,34.455525],"points":[0,0,-89231,21933,59858,-47962,18429,-12467,2982,-1637,8486,-4005,5197,-1974,16337,-2231,8974,638,8072,1858,4692,1749,4530,2099,12512,9294,2164,5655]}},
{"code":9971002,"station":"猿猴橋町","phonetic":"えんこうばしちょう","prefecture":34,"lon":132.475977,"lat":34.395047,"lines":[99710,99711,99713,99714],"next":[1161115,9971003,1171445,9971001,1161114],"voronoi":{"pivot":[132.486275,34.388690],"points":[0,0,-12230,6225,3514,1615,9154,1465,778,-3967]}},
{"code":9971003,"station":"的場町","phonetic":"まとばちょう","prefecture":34,"lon":132.475076,"lat":34.393277,"lines":[99710,99711,99713,99714],"next":[9971004,1161114,9971304,9971002,9971001],"voronoi":{"pivot":[132.472956,34.395034],"points":[0,0,614,-2905,12586,-4275,120,837,-12230,6225]}},
{"code":9971004,"station":"稲荷町(広島)","phonetic":"いなりまち","prefecture":34,"lon":132.471728,"lat":34.392569,"lines":[99710,99711,99714],"next":[9971005,9971001,9971003,9971305,9971304],"voronoi":{"pivot":[132.471288,34.389777],"points":[0,0,-1905,244,1093,7458,2480,-2446,614,-2905]}},
{"code":9971005,"station":"銀山町","phonetic":"かなやまちょう","prefecture":34,"lon":132.467866,"lat":34.393135,"lines":[99710,99711,99714],"next":[9971006,9971004,9971305,9971702,1161115,9971703,9971001],"voronoi":{"pivot":[132.469382,34.390022],"points":[0,0,-3385,-1724,709,7437,2871,1891,702,264,96,-172,100,-238]}},
{"code":9971006,"station":"胡町","phonetic":"えびすちょう","prefecture":34,"lon":132.465076,"lat":34.393401,"lines":[99710,99711,99714],"next":[9971005,9971007,9971012,9971305,9971702,9971306],"voronoi":{"pivot":[132.465997,34.388297],"points":[0,0,709,7437,-1887,-128,-2581,-8706,88,-184,3185,1134]}},
{"code":9971007,"station":"八丁堀(広島)","phonetic":"はっちょうぼり","prefecture":34,"lon":132.463403,"lat":34.393897,"lines":[99710,99711,99714,99717],"next":[9971011,9971012,9971006,9971702,9971008],"voronoi":{"pivot":[132.460912,34.389616],"points":[0,0,588,-1559,739,-1156,2581,8706,-2121,742]}},
{"code":9971008,"station":"立町","phonetic":"たてまち","prefecture":34,"lon":132.460871,"lat":34.394569,"lines":[99710,99711,99714],"next":[9971011,9971009,9971702,9970902,9971007,9970901],"voronoi":{"pivot":[132.460912,34.389616],"points":[0,0,1787,6733,-1273,1525,-1692,-1947,-545,-2770,626,-2029]}},
{"code":9971009,"station":"紙屋町東","phonetic":"かみやちょうひがし","prefecture":34,"lon":132.458167,"lat":34.395101,"lines":[99710,99711,99714],"next":[9971110,9970901,9971008,9970902],"voronoi":{"pivot":[132.459189,34.393156],"points":[0,0,-1875,1266,464,1575,1956,-71]}},
{"code":9971011,"station":"袋町","phonetic":"ふくろまち","prefecture":34,"lon":132.456214,"lat":34.391187,"lines":[99710,99712,99715],"next":[9971007,9970901,9971112,9971012,9971008,9971111],"voronoi":{"pivot":[132.459814,34.391127],"points":[0,0,1097,-1512,588,-1559,-10586,3583,224,223,2910,1342]}},
{"code":9971012,"station":"中電前","phonetic":"ちゅうでんまえ","prefecture":34,"lon":132.455399,"lat":34.388779,"lines":[99710,99712,99715],"next":[9971015,9971007,9971011,9971306,9971415,9971114,9971112,9971006,9971013],"voronoi":{"pivot":[132.461711,34.385232],"points":[0,0,616,1485,-88,184,-739,1156,-10586,3583,-254,-153,-417,-629,-84,-1980,11267,-3663]}},
{"code":9971013,"station":"市役所前(広島)","phonetic":"しやくしょまえ","prefecture":34,"lon":132.454455,"lat":34.385875,"lines":[99710,99712,99715],"next":[9971415,9971014,9971012,9971015],"voronoi":{"pivot":[132.457183,34.383995],"points":[0,0,-8114,1783,1089,3100,11267,-3663]}},
{"code":9971014,"station":"鷹野橋","phonetic":"たかのばし","prefecture":34,"lon":132.453918,"lat":34.383431,"lines":[99710,99712,99715],"next":[9971417,9971015,9971418,9971415,9971416,9971013],"voronoi":{"pivot":[132.449069,34.385777],"points":[0,0,-781,-1212,-698,-3710,79,-3452,165,-774,9349,7365]}},
{"code":9971015,"station":"日赤病院前","phonetic":"にっせきびょういんまえ","prefecture":34,"lon":132.455871,"lat":34.380952,"lines":[99710,99712,99715],"next":[9971012,9971014,9971307,9971306,9971419,9971013,9971418,9971016],"voronoi":{"pivot":[132.448038,34.373277],"points":[0,0,-89,282,-115,3071,9349,7365,4242,1220,285,17,23,-125,-175,-2988]}},
{"code":9971016,"station":"広電本社前","phonetic":"ひろでんほんしゃまえ","prefecture":34,"lon":132.458210,"lat":34.377375,"lines":[99710,99712,99715],"next":[9971419,9971308,9971307,9971017,9971015],"voronoi":{"pivot":[132.448038,34.373277],"points":[0,0,435,-4015,13556,9207,0,2222,-471,1428]}},
{"code":9971017,"station":"御幸橋","phonetic":"みゆきばし","prefecture":34,"lon":132.459605,"lat":34.375321,"lines":[99710,99712],"next":[9971420,9971019,9971018,9971022,9971419,9971027,9971020,9971021,9971016,9971308],"voronoi":{"pivot":[132.462030,34.378468],"points":[0,0,-13556,-9207,8,-835,325,-2706,2649,-519,1454,629,4485,2407,1991,1574,2172,2948,986,4147]}},
{"code":9971018,"station":"皆実町六丁目","phonetic":"みなみまちろくちょうめ","prefecture":34,"lon":132.464454,"lat":34.374169,"lines":[99710,99712,99713],"next":[9971017,9971308,9971019],"voronoi":{"pivot":[132.461558,34.372760],"points":[0,0,986,4147,8422,-3664]}},
{"code":9971019,"station":"広大附属学校前","phonetic":"ひろだいふぞくがっこうまえ","prefecture":34,"lon":132.464583,"lat":34.371654,"lines":[99710,99712,99713],"next":[9971017,9971308,9971020,9971018],"voronoi":{"pivot":[132.479704,34.371308],"points":[0,0,-20319,-1497,2172,2948,9408,483]}},
{"code":9971020,"station":"県病院前","phonetic":"けんびょういんまえ","prefecture":34,"lon":132.464797,"lat":34.368750,"lines":[99710,99712,99713],"next":[1161113,9971021,9971017,9971308,9971019],"voronoi":{"pivot":[132.485902,34.370552],"points":[0,0,1047,-5492,-29554,3177,1991,1574,20319,1497]}},
{"code":9971021,"station":"宇品二丁目","phonetic":"うじなにちょうめ","prefecture":34,"lon":132.464519,"lat":34.366164,"lines":[99710,99712,99713],"next":[9971020,9971022,1161113,9971017],"voronoi":{"pivot":[132.486948,34.365061],"points":[0,0,284,-1133,-34323,1903,4485,2407]}},
{"code":9971022,"station":"宇品三丁目","phonetic":"うじなさんちょうめ","prefecture":34,"lon":132.464411,"lat":34.364216,"lines":[99710,99712,99713],"next":[9971017,1161113,9971021,9971023,9971027],"voronoi":{"pivot":[132.451455,34.365202],"points":[0,0,1454,629,34323,-1903,1387,-4664,-34898,4114]}},
{"code":9971023,"station":"宇品四丁目","phonetic":"うじなよんちょうめ","prefecture":34,"lon":132.463923,"lat":34.360076,"lines":[99710,99712,99713],"next":[9971024,9971026,9971022,1161113,9971027],"voronoi":{"pivot":[132.458419,34.359493],"points":[0,0,30979,-2216,-778,1986,-34898,4114,828,-989]}},
{"code":9971024,"station":"宇品五丁目","phonetic":"うじなごちょうめ","prefecture":34,"lon":132.463784,"lat":34.358133,"lines":[99710,99712,99713],"next":[9971025,9971023,9971026,1171627,1161113],"voronoi":{"pivot":[132.489398,34.357277],"points":[0,0,-30979,2216,2214,-2369,27753,-6031,1809,4357]}},
{"code":9971025,"station":"海岸通","phonetic":"かいがんどおり","prefecture":34,"lon":132.463081,"lat":34.354898,"lines":[99710,99712,99713],"next":[9971024,9971026,1171627,1171626],"voronoi":{"pivot":[132.468217,34.324383],"points":[0,0,-7585,32741,27753,-6031,-3336,-9776]}},
{"code":9971026,"station":"元宇品口","phonetic":"もとうじなぐち","prefecture":34,"lon":132.459412,"lat":34.354048,"lines":[99710,99712,99713],"next":[9971025,9971024,1171626,9971023,9971027],"voronoi":{"pivot":[132.454550,34.362389],"points":[0,0,3869,-2895,2214,-2369,7585,-32741,-1518,-1725]}},
{"code":9971027,"station":"広島港（宇品）","phonetic":"ひろしまこう(うじな)","prefecture":34,"lon":132.455184,"lat":34.352755,"lines":[99710,99712,99713],"next":[1171625,9971139,9971420,9971017,1171622,1171626,9971026,9971128,9971138,9971127,9971023,9971022],"voronoi":{"pivot":[132.451455,34.365202],"points":[0,0,-2649,519,-37251,-36117,-8668,-31655,-3992,-20808,4701,-24446,461,-2102,3534,2479,26557,27015,32551,42572,-12150,39730,-828,989]}},
{"code":9971110,"station":"紙屋町西","phonetic":"かみやちょうにし","prefecture":34,"lon":132.456965,"lat":34.395455,"lines":[99711,99712,99714,99715],"next":[9971009,9970902,9971111,9970901],"voronoi":{"pivot":[132.457778,34.395997],"points":[0,0,-1896,1705,-772,-3321,2204,41]}},
{"code":9971111,"station":"原爆ドーム前","phonetic":"げんばくどーむまえ","prefecture":34,"lon":132.453918,"lat":34.396163,"lines":[99711,99712,99714,99715],"next":[9971503,9970902,9971112,9970901,9971110,9971011,9970903],"voronoi":{"pivot":[132.455881,34.397702],"points":[0,0,-772,-3321,-1062,-1177,-2910,-1342,2112,9308,1185,686,847,-458]}},
{"code":9971112,"station":"本川町","phonetic":"ほんかわちょう","prefecture":34,"lon":132.450485,"lat":34.396942,"lines":[99711,99712,99714,99715],"next":[9971503,9971011,9971113,9971012,9971111,9971114,9971504],"voronoi":{"pivot":[132.453249,34.401170],"points":[0,0,-2112,-9308,-224,-223,-254,-153,-2091,4064,496,3350,3960,2232]}},
{"code":9971113,"station":"十日市町","phonetic":"とうかいちまち","prefecture":34,"lon":132.447138,"lat":34.397438,"lines":[99711,99712,99714,99715,99716],"next":[9971112,9971114,9971504,9971115,9971116],"voronoi":{"pivot":[132.445030,34.396645],"points":[0,0,3539,-1094,496,3350,-6685,1788,704,-2082]}},
{"code":9971114,"station":"土橋(広島)","phonetic":"どばし","prefecture":34,"lon":132.446322,"lat":34.394800,"lines":[99711,99712,99714,99716],"next":[9971113,9971012,9971112,9971415,9971115],"voronoi":{"pivot":[132.445030,34.396645],"points":[0,0,3539,-1094,2091,-4064,-417,-629,-4647,1161]}},
{"code":9971115,"station":"小網町","phonetic":"こあみちょう","prefecture":34,"lon":132.444220,"lat":34.394543,"lines":[99711,99712],"next":[9971415,9971116,9971113,9971114],"voronoi":{"pivot":[132.445030,34.396645],"points":[0,0,-1946,1962,-1309,-7097,3821,509]}},
{"code":9971116,"station":"天満町","phonetic":"てんまちょう","prefecture":34,"lon":132.440572,"lat":34.395216,"lines":[99711,99712],"next":[9971115,9971504,9971113,9971118,9971415,9971117],"voronoi":{"pivot":[132.439173,34.393227],"points":[0,0,969,-2903,1632,1185,1309,7097,-704,2082,-1778,2270]}},
{"code":9971117,"station":"観音町(広島)","phonetic":"かんおんまち","prefecture":34,"lon":132.438405,"lat":34.395534,"lines":[99711,99712],"next":[1171703,9971119,9971503,1161117,9971504,9971116,9971118],"voronoi":{"pivot":[132.436018,34.396356],"points":[0,0,-1031,8468,981,4449,467,-193,2265,-2818,1902,-3304,-1428,-9731]}},
{"code":9971118,"station":"西観音町","phonetic":"にしかんおんまち","prefecture":34,"lon":132.436860,"lat":34.393976,"lines":[99711,99712],"next":[9971418,9971415,9971116,9971417,9971416,9971119,9971117],"voronoi":{"pivot":[132.436018,34.396356],"points":[0,0,-3506,-10295,372,72,3701,1466,3275,2245,283,480,-969,2903]}},
{"code":9971119,"station":"福島町","phonetic":"ふくしまちょう","prefecture":34,"lon":132.433898,"lat":34.394985,"lines":[99711,99712],"next":[9971117,9971418,1161117,9971120,9971118,9971121],"voronoi":{"pivot":[132.428110,34.388769],"points":[0,0,4396,10900,2480,5156,1031,-8468,-3506,-10295,-3495,-1337]}},
{"code":9971121,"station":"東高須","phonetic":"ひがしたかす","prefecture":34,"lon":132.420224,"lat":34.391922,"lines":[99711],"next":[9971120,1161117,9971419,9970921,9971418,9971122,9971119],"voronoi":{"pivot":[132.427611,34.382386],"points":[0,0,-2095,-2117,-20157,31159,4530,2099,13807,-18117,4415,-6641,906,-4044]}},
{"code":9971122,"station":"高須(広島)","phonetic":"たかす","prefecture":34,"lon":132.417055,"lat":34.389872,"lines":[99711],"next":[9971419,9971123,9970921,9971420,9971121],"voronoi":{"pivot":[132.405358,34.411428],"points":[0,0,-4692,-1749,21142,-33676,2920,3192,787,1074]}},
{"code":9971123,"station":"古江","phonetic":"ふるえ","prefecture":34,"lon":132.411383,"lat":34.386311,"lines":[99711],"next":[9971124,9971122,9970921,9971420],"voronoi":{"pivot":[132.400666,34.409679],"points":[0,0,-8072,-1858,24914,-39494,4300,7676]}},
{"code":9971124,"station":"草津(広島)","phonetic":"くさつ","prefecture":34,"lon":132.403915,"lat":34.381600,"lines":[99711],"next":[9970921,9971123,9971125,1161118,9971420],"voronoi":{"pivot":[132.414800,34.358767],"points":[0,0,-30958,47973,-221,442,8974,638,24914,-39494]}},
{"code":9971125,"station":"草津南","phonetic":"くさつみなみ","prefecture":34,"lon":132.398479,"lat":34.378092,"lines":[99711],"next":[9971126,9971124,9971420,1161118],"voronoi":{"pivot":[132.411572,34.337103],"points":[0,0,3227,21665,-30958,47973,11350,-29868]}},
{"code":9971127,"station":"井口(広島)","phonetic":"いのくち","prefecture":34,"lon":132.385805,"lat":34.371751,"lines":[99711],"next":[9971420,9971128,9971126,9971027,1161118],"voronoi":{"pivot":[132.411467,34.335524],"points":[0,0,88,-5920,-8668,-31655,-33709,107015,19422,-30868]}},
{"code":9971128,"station":"修大協創中高前","phonetic":"しゅうだいきょうそうちゅうこうまえ","prefecture":34,"lon":132.374589,"lat":34.368218,"lines":[99711],"next":[1161119,9970921,9971127,9971027,1161118,9971138,9971129],"voronoi":{"pivot":[132.398896,34.277140],"points":[0,0,3992,20808,-33709,107015,-1895,4450,-5197,1974,9020,-43653,22706,-83772]}},
{"code":9971130,"station":"佐伯区役所前","phonetic":"さえきくやくしょまえ","prefecture":34,"lon":132.361709,"lat":34.365443,"lines":[99711],"next":[1161119,9971131,9971133,9971138,9970921,9971129],"voronoi":{"pivot":[132.362830,34.320849],"points":[0,0,-1107,3204,-11104,92977,2982,-1637,11234,-49810,8754,-56646]}},
{"code":9971131,"station":"楽々園","phonetic":"らくらくえん","prefecture":34,"lon":132.351988,"lat":34.364282,"lines":[99711],"next":[9971132,9971130,9970921,9971133],"voronoi":{"pivot":[132.350618,34.417029],"points":[0,0,-18429,12467,17543,-80702,11990,-24742]}},
{"code":9971132,"station":"山陽女学園前","phonetic":"さんようじょがくえんまえ","prefecture":34,"lon":132.341251,"lat":34.361948,"lines":[99711],"next":[9970921,9970919,9971131,9971133,1161120],"voronoi":{"pivot":[132.231698,34.505160],"points":[0,0,40634,-27701,59858,-47962,17543,-80702,-10399,9901]}},
{"code":9971134,"station":"廿日市市役所前（平良）","phonetic":"はつかいちしやくしょまえ(へら)","prefecture":34,"lon":132.329722,"lat":34.352816,"lines":[99711],"next":[9970919,9971133,1161121,9971135,1161120],"voronoi":{"pivot":[132.343681,34.336508],"points":[0,0,-17956,15107,-164138,203472,5544,-4065,165237,-195317]}},
{"code":9971136,"station":"ＪＡ広島病院前","phonetic":"じぇいえいひろしまびょういんまえ","prefecture":34,"lon":132.322404,"lat":34.343959,"lines":[99711],"next":[9971137,9971135,1161121,9971138],"voronoi":{"pivot":[132.323818,34.345713],"points":[0,0,-11606,3774,22168,-17304,8634,-1890]}},
{"code":9971137,"station":"地御前","phonetic":"じごぜん","prefecture":34,"lon":132.320049,"lat":34.340942,"lines":[99711],"next":[9971140,9971138,1161124,1161121,9971136,1161122,1161125,1161123],"voronoi":{"pivot":[132.287995,34.341601],"points":[0,0,20781,-6814,25604,-2604,-22168,17304,-127777,66555,14571,-13961,49129,-37534,9759,-5870]}},
{"code":9971138,"station":"阿品東","phonetic":"あじなひがし","prefecture":34,"lon":132.318579,"lat":34.326488,"lines":[99711],"next":[9971137,9971135,9971133,9971130,1161122,9971027,9971139,9971128,9971129,9971136],"voronoi":{"pivot":[132.350982,34.327769],"points":[0,0,11848,-6920,10759,-11912,20224,-24974,5083,-6822,4701,-24446,-86463,71163,-8357,10929,25604,-2604,8634,-1890]}},
{"code":9971140,"station":"宮島ボートレース場","phonetic":"みやじまぼーとれーすじょう","prefecture":34,"lon":132.305006,"lat":34.314425,"lines":[99711],"next":[1161122,9971137,9971141,1161123,9971139],"voronoi":{"pivot":[132.303382,34.313713],"points":[0,0,-45488,44964,30101,-17076,20795,-21946,7932,-10378]}},
{"code":9971304,"station":"段原一丁目","phonetic":"だんばらいっちょうめ","prefecture":34,"lon":132.474065,"lat":34.390301,"lines":[99713],"next":[9971003,9971305,9971004,1161114],"voronoi":{"pivot":[132.485993,34.376306],"points":[0,0,-14706,13471,2282,2351,12586,-4275]}},
{"code":9971305,"station":"比治山下","phonetic":"ひじやました","prefecture":34,"lon":132.471009,"lat":34.386965,"lines":[99713],"next":[9971005,9971304,9971004,9971006,9971306,1161114],"voronoi":{"pivot":[132.465512,34.387850],"points":[0,0,486,447,3385,1724,1905,-244,14706,-13471,161,-1469]}},
{"code":9971306,"station":"比治山橋","phonetic":"ひじやまばし","prefecture":34,"lon":132.468681,"lat":34.383272,"lines":[99713],"next":[9971307,9971012,1161114,1161113,9971305,9971015,9971006],"voronoi":{"pivot":[132.462326,34.386716],"points":[0,0,-616,-1485,23,-125,24290,-13137,342,1932,-211,936,-20643,13013]}},
{"code":9971307,"station":"南区役所前","phonetic":"みなみくやくしょまえ","prefecture":34,"lon":132.467072,"lat":34.380297,"lines":[99713],"next":[1161113,9971015,9971306,9971308,9971016],"voronoi":{"pivot":[132.485904,34.370698],"points":[0,0,119,1272,-24290,13137,-175,-2988,471,-1428]}},
{"code":9971308,"station":"皆実町二丁目","phonetic":"みなみまちにちょうめ","prefecture":34,"lon":132.465849,"lat":34.377375,"lines":[99713],"next":[9971020,9971019,1161113,9971018,9971016,9971307,9971017],"voronoi":{"pivot":[132.470966,34.373242],"points":[0,0,8739,-1934,6197,-756,3,145,-23875,9993,0,-2222,514,-1562]}},
{"code":9971415,"station":"舟入町","phonetic":"ふないりまち","prefecture":34,"lon":132.444928,"lat":34.389222,"lines":[99714,99716],"next":[9971115,9971012,9971013,9971014,9971118,9971114,9971416,9971116],"voronoi":{"pivot":[132.445595,34.392018],"points":[0,0,4647,-1161,-84,-1980,-1089,-3100,-781,-1212,-8429,5279,283,480,1632,1185]}},
{"code":9971416,"station":"舟入本町","phonetic":"ふないりほんまち","prefecture":34,"lon":132.442632,"lat":34.385556,"lines":[99714,99716],"next":[9971014,9971417,9971415,9971118],"voronoi":{"pivot":[132.436585,34.387599],"points":[0,0,11006,-6744,698,3710,-8429,5279]}},
{"code":9971417,"station":"舟入幸町","phonetic":"ふないりさいわいちょう","prefecture":34,"lon":132.441151,"lat":34.383139,"lines":[99714,99716],"next":[9971014,9971418,9971416,9971118],"voronoi":{"pivot":[132.447590,34.380856],"points":[0,0,79,-3452,-14786,8730,3701,1466]}},
{"code":9971418,"station":"舟入川口町","phonetic":"ふないりかわぐちちょう","prefecture":34,"lon":132.439499,"lat":34.380341,"lines":[99714,99716],"next":[9971419,9971417,9971014,9971118,9971119,9971121,9971015],"voronoi":{"pivot":[132.447835,34.376630],"points":[0,0,-165,774,-14786,8730,-372,-72,-3495,-1337,-1406,-2339,20339,-8827]}},
{"code":9971419,"station":"舟入南","phonetic":"ふないりみなみ","prefecture":34,"lon":132.437224,"lat":34.375099,"lines":[99714,99716],"next":[9971122,9971418,9971017,9971016,9971420,9971121,9971015],"voronoi":{"pivot":[132.448474,34.369262],"points":[0,0,8,-835,-23753,10768,787,1074,2095,2117,20339,-8827,89,-282]}},
{"code":9971420,"station":"江波(広島)","phonetic":"えば","prefecture":34,"lon":132.436044,"lat":34.372496,"lines":[99714,99716],"next":[9971017,9971027,9971419,9971123,9971127,9971126,9971124,9971122,9971125],"voronoi":{"pivot":[132.417508,34.368326],"points":[0,0,4300,7676,2920,3192,23753,-10768,325,-2706,-37251,-36117,-88,5920,105,1579,3227,21665]}},
{"code":9971502,"station":"横川一丁目","phonetic":"よこがわいっちょうめ","prefecture":34,"lon":132.449949,"lat":34.406848,"lines":[99715,99716],"next":[9971503,9970903,1161116,1171703,9971501],"voronoi":{"pivot":[132.444239,34.409409],"points":[0,0,-3969,598,-3724,-911,17594,-4785,477,2967]}},
{"code":9971503,"station":"別院前","phonetic":"べついんまえ","prefecture":34,"lon":132.449241,"lat":34.404245,"lines":[99715,99716],"next":[9971111,9971112,9971504,9971502,1171703,9971117,9970903],"voronoi":{"pivot":[132.454139,34.404310],"points":[0,0,-17594,4785,-111,-15,2265,-2818,14325,-5130,225,38,1185,686]}},
{"code":9971504,"station":"寺町","phonetic":"てらまち","prefecture":34,"lon":132.448125,"lat":34.401129,"lines":[99715,99716],"next":[9971503,9971113,9971116,9971112,9971117],"voronoi":{"pivot":[132.438700,34.406263],"points":[0,0,14325,-5130,-3960,-2232,-6685,1788,-1778,2270]}},
{"code":9971702,"station":"女学院前","phonetic":"じょがくいんまえ","prefecture":34,"lon":132.464776,"lat":34.397827,"lines":[99717],"next":[9971005,9970902,9971008,9971007,9971703,9971006],"voronoi":{"pivot":[132.469577,34.397625],"points":[0,0,-8454,2296,302,-2048,1273,-1525,2121,-742,1887,128]}},
{"code":9971703,"station":"縮景園前","phonetic":"しゅっけいえんまえ","prefecture":34,"lon":132.465334,"lat":34.399881,"lines":[99717],"next":[1161115,9971704,9970903,9970902,9971702,9971705,9971005],"voronoi":{"pivot":[132.470662,34.399501],"points":[0,0,-8778,2814,-43,2,-1161,-1350,443,-1045,8454,-2296,702,264]}},
{"code":9971704,"station":"家庭裁判所前","phonetic":"かていさいばんしょまえ","prefecture":34,"lon":132.466106,"lat":34.402289,"lines":[99717],"next":[9971703,9971705,1161115],"voronoi":{"pivot":[132.461885,34.402315],"points":[0,0,8778,-2814,3093,6059]}},
{"code":9971705,"station":"白島(広島電鉄)","phonetic":"はくしま","prefecture":34,"lon":132.465506,"lat":34.404484,"lines":[99717],"next":[9970903,9970904,9971704,9970905,1161115,9971703,1161130],"voronoi":{"pivot":[132.472391,34.411347],"points":[0,0,5692,414,-4327,-6202,-11871,-3245,-43,2,391,2788,3126,3208]}},
{"code":1161202,"station":"南岩国","phonetic":"みなみいわくに","prefecture":35,"lon":132.206013,"lat":34.135246,"lines":[11612],"next":[1161203,1172403,1161128,1161204,1172402],"voronoi":{"pivot":[132.191466,34.145659],"points":[0,0,-10816,-14525,91752,-30470,43293,-687,-101079,54206]}},
{"code":1161203,"station":"藤生","phonetic":"ふじゅう","prefecture":35,"lon":132.198515,"lat":34.112668,"lines":[11612],"next":[1172403,1172405,1161202,1172404,1161204],"voronoi":{"pivot":[132.152323,34.083287],"points":[0,0,-830,9710,26026,36627,3132,1510,91752,-30470]}},
{"code":1161204,"station":"通津","phonetic":"つづ","prefecture":35,"lon":132.204949,"lat":34.068207,"lines":[11612],"next":[1172405,1161209,1161202,1161208,1161203,1161205,1161128],"voronoi":{"pivot":[132.140703,34.031885],"points":[0,0,-2039,1311,-2927,2827,16586,47265,120080,17377,43293,-687,13181,-2631]}},
{"code":1161205,"station":"由宇","phonetic":"ゆう","prefecture":35,"lon":132.213621,"lat":34.043279,"lines":[11612],"next":[9980601,1161128,1171621,1171620,1171622,1161208,1161204,1161206],"voronoi":{"pivot":[132.469598,33.999103],"points":[0,0,-49841,79421,-4980,7274,-2744,3780,-83157,7769,-188174,-65462,4861,-4538,323219,-30737]}},
{"code":1172402,"station":"西岩国","phonetic":"にしいわくに","prefecture":35,"lon":132.195786,"lat":34.163020,"lines":[11724],"next":[1172403,1161128,5000241,1161202,1161129,1161127],"voronoi":{"pivot":[132.174645,34.208056],"points":[0,0,-526,-12412,17347,-49984,23150,8524,-10409,35270,-13430,10412]}},
{"code":1172403,"station":"川西(山口)","phonetic":"かわにし","prefecture":35,"lon":132.177321,"lat":34.156612,"lines":[11724,99718],"next":[1161203,1172402,1172404,1161202,5000241],"voronoi":{"pivot":[132.162319,34.156739],"points":[0,0,15200,-27114,3132,1510,10816,14525,-17347,49984]}},
{"code":1172404,"station":"柱野","phonetic":"はしらの","prefecture":35,"lon":132.154599,"lat":34.143874,"lines":[11724],"next":[1172403,9971802,1161203,5000241,9971804,9971803,1172405],"voronoi":{"pivot":[132.120282,34.134733],"points":[0,0,2715,6301,5134,3698,29465,10927,4722,1080,15200,-27114,-26026,-36627]}},
{"code":1172405,"station":"欽明路","phonetic":"きんめいじ","prefecture":35,"lon":132.101813,"lat":34.104400,"lines":[11724],"next":[1161204,1172406,9971804,1161203,9971805,1172404,1161209],"voronoi":{"pivot":[132.152323,34.083287],"points":[0,0,-830,9710,-31210,41735,-20381,514,-18811,-4699,34509,-95131,20137,606]}},
{"code":1172406,"station":"玖珂","phonetic":"くが","prefecture":35,"lon":132.081951,"lat":34.097195,"lines":[11724],"next":[1172405,9971805,1172407,1161209],"voronoi":{"pivot":[132.075512,34.028087],"points":[0,0,-18621,104338,24200,-1877,34509,-95131]}},
{"code":1172407,"station":"周防高森","phonetic":"すおうたかもり","prefecture":35,"lon":132.045564,"lat":34.090701,"lines":[11724],"next":[9971807,1161209,9971806,1172406,1161210,1172408,9971805],"voronoi":{"pivot":[132.075512,34.028087],"points":[0,0,-7434,-3594,-7454,83,-59363,113072,22490,2661,31649,-7032,1491,-852]}},
{"code":1172408,"station":"米川","phonetic":"よねかわ","prefecture":35,"lon":132.014745,"lat":34.074521,"lines":[11724],"next":[1161211,9971807,9971809,1161210,1172407,1172409],"voronoi":{"pivot":[132.043017,34.020112],"points":[0,0,17606,4464,-59363,113072,-15329,2399,-25120,-2973,50642,-110350]}},
{"code":9971802,"station":"清流新岩国","phonetic":"せいりゅうしんいわくに","prefecture":35,"lon":132.147640,"lat":34.162639,"lines":[99718],"next":[1172404,9971803,5000241],"voronoi":{"pivot":[132.143214,34.168837],"points":[0,0,-15082,-24105,29465,10927]}},
{"code":9971803,"station":"守内かさ神","phonetic":"しゅうちかさがみ","prefecture":35,"lon":132.135704,"lat":34.170107,"lines":[99718],"next":[9971806,9971802,1161127,1172404,9971808,5000241,1161126,9971804],"voronoi":{"pivot":[132.107483,34.261940],"points":[0,0,1402,16907,3221,9366,39706,-42998,11517,-21303,-20116,-55076,-15082,-24105,-5134,-3698]}},
{"code":9971804,"station":"南河内","phonetic":"みなみごうち","prefecture":35,"lon":132.103363,"lat":34.165957,"lines":[99718],"next":[1172405,1172404,9971805,9971806,9971803],"voronoi":{"pivot":[132.107483,34.261940],"points":[0,0,-17177,-66362,9595,-60332,20381,-514,2715,6301]}},
{"code":9971805,"station":"行波","phonetic":"ゆかば","prefecture":35,"lon":132.087084,"lat":34.163368,"lines":[99718],"next":[9971806,1172406,1172405,9971804,1172407],"voronoi":{"pivot":[132.055400,34.133276],"points":[0,0,34907,62302,9595,-60332,-18811,-4699,-24200,1877]}},
{"code":9971806,"station":"北河内(山口)","phonetic":"きたごうち","prefecture":35,"lon":132.064519,"lat":34.176011,"lines":[99718],"next":[9971805,9971803,9971807,1172407,9971808,9971804],"voronoi":{"pivot":[132.108885,34.278847],"points":[0,0,-25371,-32974,-59764,-105565,31649,-7032,34907,62302,17177,66362]}},
{"code":9971807,"station":"椋野","phonetic":"むくの","prefecture":35,"lon":132.033385,"lat":34.193637,"lines":[99718],"next":[1172408,1172407,9971808,9971813,9971806,9971809],"voronoi":{"pivot":[131.985931,34.140046],"points":[0,0,15329,-2399,22490,2661,59764,105565,-73880,-57969,-2013,-3153]}},
{"code":9971808,"station":"南桑","phonetic":"なぐわ","prefecture":35,"lon":132.020852,"lat":34.209610,"lines":[99718],"next":[9971811,1161126,9971807,9971810,9971813,9971806,9971803],"voronoi":{"pivot":[132.108885,34.278847],"points":[0,0,-25371,-32974,-73880,-57969,7860,55933,15374,21219,69999,65039,9239,-41882]}},
{"code":9971813,"station":"清流みはらし","phonetic":"せいりゅうみはらし","prefecture":35,"lon":132.004833,"lat":34.211861,"lines":[99718],"next":[9971810,9971807,9971809,9971808],"voronoi":{"pivot":[132.009634,34.187905],"points":[0,0,-2013,-3153,-9471,42581,19344,16505]}},
{"code":5000241,"station":"新岩国","phonetic":"しんいわくに","prefecture":35,"lon":132.149774,"lat":34.164968,"lines":[50025],"next":[1172403,1172404,9971802,1172402,9971803,1161127],"voronoi":{"pivot":[132.163330,34.223913],"points":[0,0,-20116,-55076,14383,-13178,4722,1080,11801,38905,526,12412]}}
]