[{"code":1120110,"station":"野辺地","phonetic":"のへじ","prefecture":2,"lon":141.119603,"lat":40.855142,"lines":[11203,99206,50002,50036],"next":[5000049,1120111,1120302,1120109],"voronoi":{"pivot":[141.102502,40.885292],"points":[0,0,-72207,-77218,119892,31021,1765,1164]}},
{"code":1120302,"station":"北野辺地","phonetic":"きたのへじ","prefecture":2,"lon":141.134115,"lat":40.871077,"lines":[11203],"next":[1120303,1120109,1120110,1120111],"voronoi":{"pivot":[141.193244,40.851923],"points":[0,0,-41292,-11664,-49450,45033,24273,52135]}},
{"code":1120303,"station":"有戸","phonetic":"ありと","prefecture":2,"lon":141.189264,"lat":40.913949,"lines":[11203],"next":[1120108,1120109,1120302,1120304,1120111,1120107],"voronoi":{"pivot":[141.117082,41.021432],"points":[0,0,9693,-84006,66469,-85504,12119,-4035,139716,24860,29390,12268]}},
{"code":1120601,"station":"八戸","phonetic":"はちのへ","prefecture":2,"lon":141.431499,"lat":40.509200,"lines":[11206,99206,50022,50036],"next":[9920605,9920606,1120603,1120602,1120102,1120103],"voronoi":{"pivot":[141.367582,40.535749],"points":[0,0,7816,-10465,91951,-70881,-1629,13167,-24142,67755,-50051,7233]}},
{"code":1120602,"station":"長苗代","phonetic":"ながなわしろ","prefecture":2,"lon":141.465907,"lat":40.521460,"lines":[11206],"next":[1120102,1120603,1120601],"voronoi":{"pivot":[141.441578,40.535325],"points":[0,0,46130,29371,-21988,-97126]}},
{"code":1120603,"station":"本八戸","phonetic":"ほんはちのへ","prefecture":2,"lon":141.488762,"lat":40.516286,"lines":[11206],"next":[1120604,1120601,9920606,1120602,1120102],"voronoi":{"pivot":[141.518982,40.349623],"points":[0,0,-51632,104780,-1629,13167,21988,97126,5509,5804]}},
{"code":1120102,"station":"陸奥市川","phonetic":"むついちかわ","prefecture":2,"lon":141.439308,"lat":40.563235,"lines":[99206,50036],"next":[1120607,1120605,1120602,1120604,1120103,1120601,1120603],"voronoi":{"pivot":[141.502247,40.584861],"points":[0,0,15590,34531,25287,88591,-151596,-165424,50051,-7233,46130,29371,5509,5804]}},
{"code":1120103,"station":"下田","phonetic":"しもだ","prefecture":2,"lon":141.407965,"lat":40.591958,"lines":[99206,50036],"next":[1120102,9920605,1120607,1120104,1120601,1120105],"voronoi":{"pivot":[141.475278,40.696821],"points":[0,0,-149951,-149899,42255,-11173,23945,6809,151596,165424,21528,51253]}},
{"code":1120104,"station":"向山","phonetic":"むかいやま","prefecture":2,"lon":141.370392,"lat":40.629544,"lines":[99206,50036],"next":[1120105,5000040,9920605,5000039,1120103],"voronoi":{"pivot":[141.325328,40.546922],"points":[0,0,-4317,-120,16538,62857,27130,41087,110600,46075]}},
{"code":1120105,"station":"三沢(青森)","phonetic":"みさわ","prefecture":2,"lon":141.353649,"lat":40.669735,"lines":[99206,50001,50036],"next":[1120104,5000040,1120607,1120106,5000039,1120306,1120304,1120103],"voronoi":{"pivot":[141.708321,40.966507],"points":[0,0,-25395,-4244,-198239,-60263,-165874,-222756,7528,-9879,38337,-18618,110600,46075,89373,62414]}},
{"code":1120106,"station":"小川原","phonetic":"こがわら","prefecture":2,"lon":141.299720,"lat":40.709893,"lines":[99206,50036],"next":[1120304,1120107,5000041,5000042,1120105,5000040,5000043],"voronoi":{"pivot":[141.257976,40.684734],"points":[0,0,133190,201335,93521,15930,-165874,-222756,-4605,-1312,-27916,-2441,-14901,3269]}},
{"code":1120107,"station":"上北町","phonetic":"かみきたちょう","prefecture":2,"lon":141.264801,"lat":40.732993,"lines":[99206,50036],"next":[1120106,5000057,5000043,5000045,5000044,5000058,1120303,1120304,1120108],"voronoi":{"pivot":[141.215020,40.730525],"points":[0,0,7143,-35172,2789,-7603,7445,-2053,19208,-1123,6371,160,133190,201335,-16698,-1054,-29390,-12268]}},
{"code":1120108,"station":"乙供","phonetic":"おっとも","prefecture":2,"lon":141.213039,"lat":40.780328,"lines":[99206,50036],"next":[1120303,5000052,1120109,5000053,5000055,5000054,5000050,5000057,1120107],"voronoi":{"pivot":[141.215020,40.730525],"points":[0,0,-4926,3297,-23349,25671,-3329,5084,-1977,4120,-1301,7015,2985,17193,22239,54982,139716,24860]}},
{"code":1120109,"station":"千曳","phonetic":"ちびき","prefecture":2,"lon":141.152876,"lat":40.804662,"lines":[99206,50036],"next":[1120303,1120108,5000050,1120302,5000049,1120110],"voronoi":{"pivot":[141.193244,40.851923],"points":[0,0,12119,-4035,-22239,-54982,-43045,6871,10108,39318,1765,1164]}},
{"code":1120111,"station":"狩場沢","phonetic":"かりばさわ","prefecture":2,"lon":141.071274,"lat":40.900335,"lines":[99206,50036],"next":[5000049,1120110,1120303,1120304,1120112,1120302],"voronoi":{"pivot":[141.117082,41.021432],"points":[0,0,-11008,15854,-118668,-257748,42889,28535,72207,77218,24273,52135]}},
{"code":1120112,"station":"清水川","phonetic":"しみずがわ","prefecture":2,"lon":141.024650,"lat":40.921801,"lines":[99206,50036],"next":[1120114,1120304,1120305,5000049,1120311,1120113,1120111],"voronoi":{"pivot":[141.094954,41.061903],"points":[0,0,-39130,53469,-43470,16624,-38968,-348637,548,-16687,13472,12867,118668,257748]}},
{"code":5000039,"station":"大曲(青森)","closed":true,"phonetic":"おおまがり","prefecture":2,"lon":141.342935,"lat":40.647674,"lines":[50001],"next":[5000040,1120104,1120105],"voronoi":{"pivot":[141.326341,40.669365],"points":[0,0,11207,-59705,27130,41087]}},
{"code":5000040,"station":"柳沢","closed":true,"phonetic":"やなぎさわ","prefecture":2,"lon":141.318743,"lat":40.643133,"lines":[50001],"next":[1120104,1120105,5000041,5000039,9920605,1120106,5000042],"voronoi":{"pivot":[141.321010,40.546803],"points":[0,0,16538,62857,-11207,59705,-7528,9879,-4605,-1312,-5616,-92262,5347,-41121]}},
{"code":5000041,"station":"七百","closed":true,"phonetic":"しちひゃく","prefecture":2,"lon":141.305487,"lat":40.643940,"lines":[50001],"next":[1120106,5000040,5000042],"voronoi":{"pivot":[141.286292,40.675490],"points":[0,0,27916,2441,-5616,-92262]}},
{"code":5000042,"station":"古里(青森)","closed":true,"phonetic":"ふるさと","prefecture":2,"lon":141.284083,"lat":40.638626,"lines":[50001],"next":[5000043,5000044,9920605,5000041,1120106,5000040,9920604],"voronoi":{"pivot":[141.313939,40.544549],"points":[0,0,-5347,41121,-22300,89821,-14901,3269,14319,-138125,931,-6337,21134,6991]}},
{"code":5000043,"station":"三農校前","closed":true,"phonetic":"さんのうこうまえ","prefecture":2,"lon":141.267202,"lat":40.636876,"lines":[50001],"next":[5000042,1120107,1120106,5000044],"voronoi":{"pivot":[141.251606,40.684575],"points":[0,0,6371,160,13415,-5975,14319,-138125]}},
{"code":5000044,"station":"高清水","closed":true,"phonetic":"たかしず","prefecture":2,"lon":141.259069,"lat":40.634949,"lines":[50001],"next":[5000045,5000042,1120107,9920604,5000043],"voronoi":{"pivot":[141.251606,40.684575],"points":[0,0,-19208,1123,43804,-156327,10440,4927,-931,6337]}},
{"code":5000045,"station":"北里大学前","closed":true,"phonetic":"きたさとだいがくまえ","prefecture":2,"lon":141.235979,"lat":40.628479,"lines":[50001],"next":[5000044,5000058,1120107,5000046,9920604,9920603],"voronoi":{"pivot":[141.250611,40.515362],"points":[0,0,-27493,170482,1835,1907,7445,-2053,43804,-156327,-19531,-12062]}},
{"code":5000046,"station":"工業高校前","closed":true,"phonetic":"こうぎょうこうこうまえ","prefecture":2,"lon":141.228941,"lat":40.627344,"lines":[50001],"next":[5000058,5000047,5000045,5000048,9920603],"voronoi":{"pivot":[141.248686,40.514677],"points":[0,0,-16550,66208,-12489,101766,3470,3193,27493,-170482]}},
{"code":5000047,"station":"ひがし野団地","closed":true,"phonetic":"ひがしのだんち","prefecture":2,"lon":141.224003,"lat":40.626738,"lines":[50001],"next":[5000058,5000048,5000046],"voronoi":{"pivot":[141.204704,40.670075],"points":[0,0,14944,12576,12489,-101766]}},
{"code":5000048,"station":"十和田市","closed":true,"phonetic":"とわだし","prefecture":2,"lon":141.213095,"lat":40.623383,"lines":[50001],"next":[5000047,1121219,5000046,9920603,9920602,5000058],"voronoi":{"pivot":[141.232136,40.580884],"points":[0,0,16550,-66208,-20359,-8935,-238816,-63132,-46710,56255,261902,171210]}},
{"code":5000049,"station":"西千曳","closed":true,"phonetic":"にしちびき","prefecture":2,"lon":141.131224,"lat":40.810228,"lines":[50002],"next":[1120111,1120110,5000050,1120116,1120109,1120112,1120118,1120114,5000234,5000052,5000051,1120115],"voronoi":{"pivot":[140.973934,40.766671],"points":[0,0,13472,12867,42889,28535,119892,31021,-10108,-39318,-9889,-10105,-49700,-23691,-116326,-45822,-1745,-439,200,8334,1649,14428,3552,11832]}},
{"code":5000050,"station":"後平","closed":true,"phonetic":"うしろたい","prefecture":2,"lon":141.150719,"lat":40.791149,"lines":[50002],"next":[1120109,5000049,1120108,5000052,5000051],"voronoi":{"pivot":[141.130190,40.789672],"points":[0,0,9889,10105,43045,-6871,-2985,-17193,-2389,308]}},
{"code":5000051,"station":"坪","closed":true,"phonetic":"つぼ","prefecture":2,"lon":141.146810,"lat":40.777531,"lines":[50002],"next":[5000052,5000049,5000050],"voronoi":{"pivot":[141.130190,40.789672],"points":[0,0,-49700,-23691,97260,10040]}},
{"code":5000052,"station":"坪川","closed":true,"phonetic":"つぼがわ","prefecture":2,"lon":141.147771,"lat":40.768221,"lines":[50002],"next":[1120108,5000234,5000051,5000053,5000049,5000050],"voronoi":{"pivot":[141.181439,40.768698],"points":[0,0,-131798,-37623,-85478,-10916,116326,45822,97260,10040,2389,-308]}},
{"code":5000053,"station":"道ノ上","closed":true,"phonetic":"みちのかみ","prefecture":2,"lon":141.152593,"lat":40.751329,"lines":[50002],"next":[1120108,5000054,5000052,5000234],"voronoi":{"pivot":[141.049642,40.731075],"points":[0,0,131798,37623,1977,-4120,-50032,-29882]}},
{"code":5000054,"station":"天間林","closed":true,"phonetic":"てんまばやし","prefecture":2,"lon":141.157137,"lat":40.743721,"lines":[50002],"next":[5000053,1120108,5000055,5000234],"voronoi":{"pivot":[141.133385,40.734695],"points":[0,0,50032,29882,3329,-5084,-35847,-27125]}},
{"code":5000055,"station":"中野(青森)","closed":true,"phonetic":"なかの","prefecture":2,"lon":141.163519,"lat":40.735287,"lines":[50002],"next":[1120108,5000234,5000056,5000054,5000057],"voronoi":{"pivot":[141.170195,40.725260],"points":[0,0,-16651,5477,-2645,1631,35847,27125,23349,-25671]}},
{"code":5000056,"station":"営農大学校前","closed":true,"phonetic":"えいのうだいがっこうまえ","prefecture":2,"lon":141.158870,"lat":40.721155,"lines":[50002],"next":[5000055,5000234,5000057],"voronoi":{"pivot":[141.158877,40.711653],"points":[0,0,-5334,19084,16651,-5477]}},
{"code":5000057,"station":"盛田牧場前","closed":true,"phonetic":"もりたぼくじょうまえ","prefecture":2,"lon":141.168221,"lat":40.713377,"lines":[50002],"next":[1120107,5000058,5000056,5000234,5000055,1120108],"voronoi":{"pivot":[141.222164,40.695353],"points":[0,0,-65517,11331,2231,4969,11317,13607,39900,8562,4926,-3297]}},
{"code":5000058,"station":"七戸","closed":true,"phonetic":"しちのへ","prefecture":2,"lon":141.165301,"lat":40.696494,"lines":[50002],"next":[5000047,1120252,5000046,1120119,5000057,5000045,1120253,1120107,1120118,1121219,5000234,5000048],"voronoi":{"pivot":[141.219647,40.682651],"points":[0,0,3470,3193,1835,1907,-2789,7603,-65517,11331,-228650,-111379,-12466,-37598,-4099,-13791,3584,-8946,9355,-19593,18431,-16513,261902,171210]}},
{"code":5000234,"station":"七戸十和田","phonetic":"しちのへとわだ","prefecture":2,"lon":141.153957,"lat":40.719782,"lines":[50022],"next":[5000052,5000055,1120118,5000056,5000057,5000049,5000058,5000054,5000053],"voronoi":{"pivot":[141.150899,40.732369],"points":[0,0,2645,-1631,5334,-19084,-2231,-4969,-228650,-111379,34422,124414,1745,439,85478,10916,83743,3621]}}
]