{
"stations":[
{"code":1180728,"name":"伊予平野","lon":132.518025,"lat":33.495672,"lines":[11807],"next":[1180729,1180733,1180731,1180735,1180726,1180721,1180727]},
{"code":1180733,"name":"上宇和","lon":132.501337,"lat":33.379979,"lines":[11807],"next":[1180728,1180732,1180734,1180731,1180735]},
{"code":1180734,"name":"卯之町","lon":132.509940,"lat":33.363192,"lines":[11807],"next":[1180736,1180735,1180733,1180732]},
{"code":1180735,"name":"下宇和","lon":132.531172,"lat":33.349786,"lines":[11807],"next":[1180819,1180728,1180818,1180736,1180734,1180726,1180733,1180713]},
{"code":1180736,"name":"立間","lon":132.539275,"lat":33.297371,"lines":[11807],"next":[1180820,1180734,1180735,1180819,1180732,1180737]},
{"code":1180737,"name":"伊予吉田","lon":132.544098,"lat":33.273287,"lines":[11807],"next":[1180738,1180820,1180732,1190656,1180740,1180736,1180739]},
{"code":1180738,"name":"高光","lon":132.573559,"lat":33.256070,"lines":[11807],"next":[1180739,1180737,1180820]},
{"code":1180739,"name":"北宇和島","lon":132.569643,"lat":33.239442,"lines":[11807,11808],"next":[1180738,1180816,1180820,1180737,1180740]},
{"code":1180740,"name":"宇和島","lon":132.567460,"lat":33.225774,"lines":[11807,11808],"next":[1180815,1190657,1180816,1180813,9981508,1190656,1180737,1180739]},
{"code":1180805,"name":"土佐大正","lon":132.975612,"lat":33.194815,"lines":[11808],"next":[9981411,1180159,1180806,1180157,1180804,9981415,1180160,9981502,9981413,9981412]},
{"code":1180806,"name":"土佐昭和","lon":132.897413,"lat":33.220047,"lines":[11808],"next":[9981502,9981503,9980713,1180805,1180807,1180709,1180809,1180157]},
{"code":1180807,"name":"十川(高知)","lon":132.855827,"lat":33.234869,"lines":[11808],"next":[1180809,1180811,1180711,1180806,1180710,1180814,1180709,1180808]},
{"code":1180808,"name":"半家","lon":132.791428,"lat":33.201666,"lines":[11808],"next":[1180809,1180811,1180810,1180807]},
{"code":1180809,"name":"江川崎","lon":132.783074,"lat":33.178104,"lines":[11808],"next":[1180807,1180808,9981504,9981506,1180806,9981508,9981505,1180810,9981507,9981503]},
{"code":1180810,"name":"西ケ方","lon":132.767342,"lat":33.187309,"lines":[11808],"next":[1180811,1180813,1180809,1180812,1180808,9981508]},
{"code":1180811,"name":"真土","lon":132.745283,"lat":33.223996,"lines":[11808],"next":[1180814,1180810,1180807,1180812,1180808]},
{"code":1180812,"name":"吉野生","lon":132.729180,"lat":33.224612,"lines":[11808],"next":[1180814,1180813,1180811,1180810]},
{"code":1180813,"name":"松丸","lon":132.708843,"lat":33.228325,"lines":[11808],"next":[9981508,1180815,1180812,1180810,1180740,1180814]},
{"code":1180814,"name":"出目","lon":132.691978,"lat":33.251805,"lines":[11808],"next":[1180811,1180817,1180812,1180815,1180816,1180711,1180813,1180807,1180712]},
{"code":1180815,"name":"近永","lon":132.676335,"lat":33.255693,"lines":[11808],"next":[1180740,1180816,1180813,1180814]},
{"code":1180816,"name":"深田","lon":132.660403,"lat":33.267655,"lines":[11808],"next":[1180740,1180815,1180820,1180814,1180817,1180739]},
{"code":1180817,"name":"大内","lon":132.642393,"lat":33.286941,"lines":[11808],"next":[1180820,1180814,1180816,1180818,1180712]},
{"code":1180818,"name":"二名","lon":132.629122,"lat":33.291576,"lines":[11808],"next":[1180820,1180819,1180735,1180712,1180817,1180713]},
{"code":1180819,"name":"伊予宮野下","lon":132.605849,"lat":33.289023,"lines":[11808],"next":[1180735,1180818,1180736,1180820]},
{"code":1180820,"name":"務田","lon":132.600238,"lat":33.282862,"lines":[11808],"next":[1180817,1180818,1180736,1180816,1180737,1180738,1180819,1180739]},
{"code":9981413,"name":"西大方","lon":132.986967,"lat":33.008912,"lines":[99814],"next":[9981412,9981414,9981415,9981408,1180805]}
],
"voronoi":{
"points":[132.608854,33.368986,132.635370,33.413605,132.645401,33.414339,132.619619,33.270846,132.624118,33.255934,132.714668,33.336382,132.750000,33.386243,132.770950,33.415808,132.897827,33.099077,132.899287,33.000000,132.599221,33.431334,132.603250,33.500000,132.525227,33.500000,132.557198,33.476998,132.569965,33.290992,132.570923,33.285374,132.852677,33.459859,132.898357,33.482204,132.689422,33.500000,132.750000,33.445472,132.780806,33.417742,132.648058,33.079405,132.707689,33.164455,132.624483,33.252164,132.500000,33.276981,132.872958,33.500000,132.679121,33.413417,132.630033,33.500000,132.579832,33.427707,132.597937,33.429338,132.736052,33.193470,132.724676,33.257494,132.739265,33.277453,132.750000,33.298030,132.786859,33.368682,132.800308,33.067876,132.822425,33.072975,132.551681,33.252447,132.796473,33.270935,132.722509,33.063313,132.743504,33.000000,132.901643,33.099363,132.950248,33.250000,133.000000,33.404191,132.599698,33.429195,132.606447,33.250000,132.620193,33.236312,132.960115,33.102279,133.000000,33.055844,132.908687,33.097429,132.950681,33.022961,132.500000,33.323933,132.541784,33.390109,132.908436,33.097467,132.948695,33.099873,132.500000,33.423927,132.503590,33.425592,132.984521,33.500000,133.000000,33.423419,132.876481,33.100290,132.926388,33.000000,132.574870,33.311601,132.577185,33.330065,132.639029,33.178390,132.676484,33.222879,132.787602,33.066795,132.794143,33.000000,132.949577,33.500000,132.707441,33.066888,132.711174,33.065832,132.750000,33.201857,132.768398,33.212919,132.716141,33.000000,132.505156,33.445533,132.515266,33.437020,132.532932,33.238297,132.624300,33.223704,132.738214,33.250000,132.640818,33.079287,132.750000,33.064783,132.847937,33.000000,132.853563,33.162766,132.694913,33.297028,132.780756,33.192188,132.849672,33.167754,132.543770,33.500000,132.683225,33.250000,132.884654,33.250000,132.973759,33.500000,132.500000,33.455874,132.714242,33.250000,132.500000,33.445461,132.785996,33.500000,132.620434,33.236142,132.548438,33.250000,132.630136,33.210752,132.659604,33.250000,132.579514,33.500000,132.976416,33.107973,133.000000,33.175545,132.792109,33.419481,132.500000,33.222104,133.000000,33.107760,132.562073,33.250000,132.723308,33.250000,132.750000,33.415263,132.500000,33.009090,133.000000,33.015237,132.786342,33.250000,132.952080,33.000000,132.500000,33.416858,132.500000,33.368696,132.750000,33.139624,132.807267,33.250000,132.972018,33.000000,132.500000,33.318133,132.623936,33.250000,132.811006,33.000000],
"groups":[
{"lon":132500,"lat":33000,"size":250,"index":[21,22,22,30,39,40,45,46,63,64,68,69,69,39,30,70,69,72,75,76,30,77,78,21,39,79,64,86,64,90,93,76,63,78,75,94,95,96,101,75,103,46,22,104,21,68,106,78,46,93,76,95,68,112,95,63,93,116]},
{"lon":132500,"lat":33250,"size":250,"index":[0,1,1,2,3,4,5,6,10,11,12,13,14,15,18,19,23,5,24,14,2,26,27,2,28,29,31,32,32,33,37,15,29,44,15,45,44,1,51,52,55,56,61,62,4,23,13,29,62,0,73,74,77,32,61,3,10,44,82,5,85,13,86,82,0,3,56,74,89,73,90,31,4,26,91,73,14,61,94,37,96,82,97,10,52,28,74,28,37,103,104,31,26,105,110,56,111,52,115,62,116,23]},
{"lon":132750,"lat":33000,"size":250,"index":[8,9,35,36,41,42,47,48,49,50,41,53,49,54,54,47,36,59,53,60,65,66,70,71,79,65,36,80,59,8,81,59,83,84,53,49,71,83,81,87,84,81,98,99,8,41,98,102,54,107,71,108,50,109,112,83,113,84,47,98,50,114,35,117,65,35]},
{"lon":132750,"lat":33250,"size":250,"index":[6,7,16,17,19,20,25,17,33,34,34,38,42,43,57,58,17,67,7,20,87,88,92,16,100,16,105,7,108,38,34,100,38,113,20,100]}
]
}
}