{
"stations":[
{"code":1120413,"station":"白神岳登山口","phonetic":"しらかみだけとざんぐち","prefecture":2,"lon":139.950318,"lat":40.513551,"lines":[11204],"next":[1120412,1120417,1120408,1120414,1120429]},
{"code":1120414,"station":"松神","phonetic":"まつかみ","prefecture":2,"lon":139.946556,"lat":40.534902,"lines":[11204],"next":[1120417,1120415,1120429,1120413]},
{"code":1120415,"station":"十二湖","phonetic":"じゅうにこ","prefecture":2,"lon":139.941986,"lat":40.551539,"lines":[11204],"next":[1120423,1120414,1120416,1120422,1120417,1120429]},
{"code":1120416,"station":"陸奥岩崎","phonetic":"むついわさき","prefecture":2,"lon":139.924183,"lat":40.583333,"lines":[11204],"next":[1120420,1120417,1120415,1120421,1120422]},
{"code":1120417,"station":"陸奥沢辺","phonetic":"むつさわべ","prefecture":2,"lon":139.894991,"lat":40.586175,"lines":[11204],"next":[1120414,1120416,1120420,1120415,1120412,1120413,1120418]},
{"code":1120418,"station":"ウェスパ椿山","phonetic":"うぇすぱつばきやま","prefecture":2,"lon":139.871157,"lat":40.592913,"lines":[11204],"next":[1120412,1120420,1121509,1120419,1120411,1121508,1120417]},
{"code":1120419,"station":"艫作","phonetic":"へなし","prefecture":2,"lon":139.864856,"lat":40.608534,"lines":[11204],"next":[9941807,5000027,1121509,5000028,1120418,1120420]},
{"code":1120420,"station":"横磯","phonetic":"よこいそ","prefecture":2,"lon":139.890910,"lat":40.629891,"lines":[11204],"next":[1120416,1120417,1120418,1120425,5000028,1120421,1120422,1120419]},
{"code":1120421,"station":"深浦","phonetic":"ふかうら","prefecture":2,"lon":139.929372,"lat":40.650239,"lines":[11204],"next":[1120422,1120420,1120416]},
{"code":1120422,"station":"広戸","phonetic":"ひろと","prefecture":2,"lon":139.955586,"lat":40.674340,"lines":[11204],"next":[1120421,1120415,1120424,1120423,1120416,1120420,1120425]},
{"code":1120423,"station":"追良瀬","phonetic":"おいらせ","prefecture":2,"lon":139.970298,"lat":40.686114,"lines":[11204],"next":[1120415,1120422,1120424,1120428,1120429]},
{"code":1120424,"station":"驫木","phonetic":"とどろき","prefecture":2,"lon":139.982954,"lat":40.707218,"lines":[11204],"next":[1120425,1120422,1120423,1120428]},
{"code":1120425,"station":"風合瀬","phonetic":"かそせ","prefecture":2,"lon":139.994320,"lat":40.731826,"lines":[11204],"next":[1120424,1120426,5000028,1120420,1120428,1120422]}
],
"voronoi":{
"points":[
139.862507,40.504041,140.000000,40.502376,139.886819,40.608312,139.888175,40.607587,139.912027,40.609814,139.871121,40.510604,139.888253,40.527833,139.906449,40.552521,139.922272,40.617135,139.565744,41.000000,139.835823,41.000000,140.000000,40.765511,140.000000,40.558529,139.856271,40.500000,139.858184,40.501502,139.838621,40.775253,139.618300,40.500000,139.950194,41.000000,140.000000,40.874742,139.988732,40.611981,140.000000,40.608093,139.867555,40.775448,140.000000,40.714274,139.925017,40.727616,140.000000,40.633922,139.813418,40.811925,140.000000,40.533312,139.628026,41.000000,140.000000,40.682649,140.000000,40.604905
],
"groups":[
{"lon":139500,"lat":40500,"size":500,"index":[0,1,2,3,3,4,5,6,6,7,4,8,9,2,10,11,6,12,13,14,14,0,15,8,16,2,17,18,19,20,21,22,8,19,23,24,21,23,25,15,5,26,7,4,27,25,23,28,14,3,15,19,0,5,25,21,7,29]}
]
}
}