{
"stations":[
{"code":1122735,"name":"魚沼田中","lon":138.992578,"lat":37.294413,"lines":[11227],"next":[5000081,1122737,1122734,1134231,1134234,1122736]},
{"code":1122736,"name":"越後広瀬","lon":138.981141,"lat":37.274363,"lines":[11227],"next":[1134231,1134230,1122737,1122735]},
{"code":1122737,"name":"藪神","lon":138.975698,"lat":37.256737,"lines":[11227],"next":[5000081,1122735,5000080,1134230,1122738,1134228,1122736,1122730]},
{"code":1122738,"name":"小出","lon":138.953526,"lat":37.233581,"lines":[11227,11342],"next":[1134228,1122737,1134230]},
{"code":1134222,"name":"大沢(新潟)","lon":138.821310,"lat":37.021170,"lines":[11342],"next":[1134223,1140727,1134221,1140728,1134224,1134219]},
{"code":1134223,"name":"上越国際スキー場前","lon":138.827973,"lat":37.028755,"lines":[11342],"next":[1134222,1134224,9940203,1140728]},
{"code":1134224,"name":"塩沢","lon":138.848399,"lat":37.041463,"lines":[11342],"next":[1134219,9940202,9940203,1134223,1134225,1134218,1134222]},
{"code":1134225,"name":"六日町","lon":138.875872,"lat":37.067065,"lines":[11342,99402],"next":[1134216,9940202,1134226,1134218,1134224]},
{"code":1134226,"name":"五日町","lon":138.908346,"lat":37.119900,"lines":[11342],"next":[5000080,1134225,1134227,9940203,1134216,9940202,1134228]},
{"code":1134227,"name":"浦佐","lon":138.922798,"lat":37.167488,"lines":[11342,50023],"next":[9940203,1134226,1134231,1140733,1140731,1134228]},
{"code":1134228,"name":"八色","lon":138.934854,"lat":37.191747,"lines":[11342],"next":[1134231,5000080,1134230,1122738,1122737,1134226,1134227]},
{"code":1134230,"name":"越後堀之内","lon":138.928003,"lat":37.239130,"lines":[11342],"next":[1134231,1122737,1134228,1122738,1122736]},
{"code":1134231,"name":"北堀之内","lon":138.896372,"lat":37.255880,"lines":[11342],"next":[1134230,1134228,1122736,1134232,1122735,1140733,1134227,1134234]},
{"code":1134232,"name":"越後川口","lon":138.861514,"lat":37.272983,"lines":[11342,11407],"next":[1140733,1134231,1134233,1134234]},
{"code":1134233,"name":"小千谷","lon":138.813233,"lat":37.309822,"lines":[11342],"next":[1140419,1140733,1140732,1140420,1140418,1134232,1134234]},
{"code":1134234,"name":"越後滝谷","lon":138.834932,"lat":37.368724,"lines":[11342],"next":[1140420,1122735,1134235,1140421,1134231,1122734,1134232,1134233]},
{"code":1134235,"name":"宮内(新潟)","lon":138.840204,"lat":37.422223,"lines":[11342,11404],"next":[1122734,1134236,1140421,1134234,1140420]},
{"code":1134236,"name":"長岡","lon":138.853927,"lat":37.447787,"lines":[11342,11404,50023],"next":[1134235,1140810,1140420,1140424,1122734]},
{"code":1140411,"name":"鯨波","lon":138.517263,"lat":37.355828,"lines":[11404],"next":[9940207,1140804,1140410,1140802,1140805,1140412,1140414]},
{"code":1140412,"name":"柏崎","lon":138.556303,"lat":37.363495,"lines":[11404,11408],"next":[1140413,1140411,1140802,1140414]},
{"code":1140413,"name":"茨目","lon":138.586714,"lat":37.356986,"lines":[11404],"next":[1140412,1140802,1140803,1140414]},
{"code":1140414,"name":"安田(新潟)","lon":138.612057,"lat":37.341155,"lines":[11404],"next":[9940206,9940207,1140416,1140413,1140411,1140412,1140415,1140803,1140804]},
{"code":1140415,"name":"北条","lon":138.636954,"lat":37.338262,"lines":[11404],"next":[9940206,1140418,1140416,1140732,1140731,1140414]},
{"code":1140416,"name":"越後広田","lon":138.661243,"lat":37.357354,"lines":[11404],"next":[1140417,1140415,1140805,1140418,1140414,1140804]},
{"code":1140417,"name":"長鳥","lon":138.684063,"lat":37.366405,"lines":[11404],"next":[1140416,1140807,1140419,1140806,1140418,1140805]},
{"code":1140418,"name":"塚山","lon":138.729829,"lat":37.355114,"lines":[11404],"next":[1140419,1140415,1140416,1134233,1140732,1140417]},
{"code":1140419,"name":"越後岩塚","lon":138.756372,"lat":37.386290,"lines":[11404],"next":[1140808,1134233,1140417,1140420,1140418,1140807]},
{"code":1140420,"name":"来迎寺","lon":138.783523,"lat":37.397136,"lines":[11404],"next":[1134234,1140810,1140808,1134233,1140419,1140809,1134236,1134235,1140421]},
{"code":1140421,"name":"前川","lon":138.823865,"lat":37.401795,"lines":[11404],"next":[1134235,1134234,1140420]},
{"code":1140424,"name":"北長岡","lon":138.862470,"lat":37.468768,"lines":[11404],"next":[1140425,1122734,1122733,1140812,1134236,1140810]},
{"code":1140723,"name":"越後田中","lon":138.627058,"lat":37.005316,"lines":[11407],"next":[5000245,1140724,1140722,1134220]},
{"code":1140724,"name":"津南","lon":138.639326,"lat":37.023503,"lines":[11407],"next":[1140723,9940206,1140722,1140725,5000245]},
{"code":1140725,"name":"越後鹿渡","lon":138.671592,"lat":37.048054,"lines":[11407],"next":[9940206,5000245,1140726,1140724]},
{"code":1140726,"name":"越後田沢","lon":138.694731,"lat":37.055387,"lines":[11407],"next":[5000245,9940206,1140725,1134221,1140727]},
{"code":1140727,"name":"越後水沢","lon":138.718056,"lat":37.074324,"lines":[11407],"next":[9940206,1140726,1134222,1134221,1140728]},
{"code":1140728,"name":"土市","lon":138.729510,"lat":37.097457,"lines":[11407],"next":[9940203,1140729,9940206,1134223,1134222,1140727]},
{"code":1140729,"name":"十日町","lon":138.756188,"lat":37.134562,"lines":[11407,99402],"next":[1140731,1140730,1140728,9940204,9940203,9940206]},
{"code":1140730,"name":"魚沼中条","lon":138.772491,"lat":37.159467,"lines":[11407],"next":[1140729,1140731,9940203,9940204]},
{"code":1140731,"name":"下条","lon":138.779989,"lat":37.198324,"lines":[11407],"next":[1140732,1140729,9940206,1140733,1140415,9940203,1140730,1134227]},
{"code":1140732,"name":"越後岩沢","lon":138.797097,"lat":37.240753,"lines":[11407],"next":[1140731,1134233,1140733,1140415,1140418]},
{"code":1140733,"name":"内ケ巻","lon":138.851833,"lat":37.250008,"lines":[11407],"next":[1134233,1134232,1140732,1140731,1134231,1134227]},
{"code":1140802,"name":"東柏崎","lon":138.565802,"lat":37.373867,"lines":[11408],"next":[1140803,1140411,1140804,1140413,1140412]},
{"code":1140803,"name":"西中通","lon":138.592651,"lat":37.392456,"lines":[11408],"next":[1140802,1140804,1140413,1140414]},
{"code":1140804,"name":"荒浜","lon":138.601752,"lat":37.404699,"lines":[11408],"next":[1140805,1140411,1140802,1140803,1140416,1140414]},
{"code":1140805,"name":"刈羽","lon":138.619550,"lat":37.430047,"lines":[11408],"next":[1140804,1140806,1140810,1140411,1140416,1140410,1140809,1140417]},
{"code":1140806,"name":"西山(新潟)","lon":138.641770,"lat":37.448375,"lines":[11408],"next":[1140805,1140808,1140809,1140417,1140807]},
{"code":1140807,"name":"礼拝","lon":138.663920,"lat":37.459221,"lines":[11408],"next":[1140808,1140417,1140419,1140806]},
{"code":1140808,"name":"石地","lon":138.688101,"lat":37.484132,"lines":[11408],"next":[1140807,1140419,1140420,1140809,1140806]},
{"code":9940202,"name":"魚沼丘陵","lon":138.877619,"lat":37.096140,"lines":[99402],"next":[1134225,9940203,1134224,1134226]},
{"code":9940203,"name":"美佐島","lon":138.789774,"lat":37.130996,"lines":[99402],"next":[9940202,1140728,1134224,1134227,9940204,1140731,1134226,1140729,1134223,1140730]},
{"code":9940204,"name":"しんざ","lon":138.768339,"lat":37.139675,"lines":[99402],"next":[1140729,9940203,1140730]},
{"code":9940206,"name":"まつだい","lon":138.613884,"lat":37.132209,"lines":[99402],"next":[1140725,1140722,1140415,1140731,1140726,1140727,1140414,1140724,1140728,9940207,1140721,1140729]},
{"code":9940207,"name":"ほくほく大島","lon":138.509551,"lat":37.146997,"lines":[99402],"next":[1140719,1140721,9940208,1140411,1140414,1140718,9940206,1140408,1140410,1140409,1140717]}
],
"voronoi":{
"points":[138.965142,37.421013,138.973651,37.434148,138.526422,37.249923,138.532955,37.250691,138.656393,37.402875,138.666667,37.376973,138.683975,37.333333,138.693965,37.308145,138.747762,37.288698,138.819994,37.271823,138.845980,37.500000,138.824801,37.274926,138.833333,37.271330,138.873934,37.254222,138.881311,37.203231,138.892204,37.209767,138.671123,37.230118,138.683970,37.197843,138.771189,37.115906,138.783693,37.146786,138.690305,37.195478,138.822032,37.170059,138.693419,37.291423,138.699107,37.260079,138.852347,37.160571,138.915197,37.079292,138.612534,37.236678,138.623765,37.333333,138.628493,37.374023,138.646832,37.500000,138.666667,37.480747,138.717198,37.431696,138.553341,37.275361,138.565749,37.333333,138.571305,37.359291,138.799214,37.438260,138.806230,37.377506,138.850054,37.176704,138.880681,37.203043,138.627741,37.376306,138.642581,37.394953,138.584466,37.375594,138.612973,37.370823,138.985034,37.446388,139.000000,37.427288,138.673017,37.412602,138.708151,37.420226,138.575431,37.236354,138.582729,37.067587,138.623921,37.077228,138.933728,37.288183,138.934162,37.374861,138.937013,37.385674,138.773542,37.476291,138.778292,37.478662,138.936372,37.216153,139.000000,37.187754,138.831782,37.202104,138.741805,37.500000,139.000000,37.027169,138.696917,37.256483,138.937472,37.386474,138.552130,37.071960,138.565553,37.166667,138.734318,37.166667,138.755727,37.152652,138.549427,37.250082,138.607267,37.031897,138.529301,37.397760,138.541954,37.333333,138.553340,37.275356,138.538173,37.442457,138.627266,37.376229,138.745959,37.451764,138.786795,37.349538,138.511968,37.065067,138.549052,37.070636,138.852558,37.162831,138.669724,37.110022,138.745913,37.016179,138.715249,37.394414,139.000000,37.118054,138.926198,37.500000,138.992288,37.455589,138.941092,37.277077,138.834281,37.084154,138.912750,37.333333,138.915837,37.339626,138.772001,37.333333,138.776741,37.342061,138.760060,37.467231,138.833333,37.286107,138.862969,37.324948,138.833333,37.410970,138.854836,37.393772,138.500000,37.476602,138.927126,37.318461,138.670872,37.112089,138.684486,37.166667,138.684631,37.157867,138.658701,37.405215,138.666667,37.409325,138.776007,37.060032,138.824169,37.089558,138.833333,37.112653,138.918146,37.340883,138.563396,37.069076,138.500000,37.486967,138.785106,37.500000,138.787768,37.496575,138.666667,37.230617,138.849481,37.174048,138.946458,37.262542,138.500000,37.495066,138.736054,37.000000,138.954886,37.166667,139.000000,37.144246,138.695631,37.500000,138.786191,37.467683,139.000000,37.376871,138.912704,37.000000,138.810059,37.080318,138.833333,37.042909,138.860029,37.000000,138.553490,37.013822,138.995111,37.500000,139.000000,37.496478,139.000000,37.276892,138.500000,37.243999,138.665945,37.106046,138.666667,37.103769,138.699552,37.000000,138.615921,37.000000,138.784236,37.488393,138.769190,37.097071,138.816444,37.166667,138.500000,37.065545,139.000000,37.462447,138.779683,37.064456,138.833333,37.017327,138.853058,37.000000,138.666667,37.106805,138.700180,37.333333,139.000000,37.211275,138.783943,37.070561,138.833333,37.084661,138.791694,37.351205,138.960820,37.416492,138.666667,37.021049,138.682683,37.000000,138.833333,37.171702,138.500000,37.356495,138.507214,37.333333,138.548352,37.000000,138.500000,37.298299,138.761506,37.031864,138.851506,37.166667,138.921170,37.333333,138.833333,37.442377,138.833333,37.335865,138.840206,37.333333,138.517160,37.000000,138.630222,37.500000,138.666667,37.425571,138.893172,37.333333,138.589555,37.333333,138.791738,37.500000,138.833333,37.199948,138.833333,37.468402,139.000000,37.258886,138.588381,37.000000,138.558386,37.000000,138.654554,37.000000,138.822118,37.000000,138.833333,37.386576,138.580519,37.500000,138.660476,37.333333,138.666667,37.325458,138.977847,37.333333,139.000000,37.312275],
"groups":[
{"lon":138500,"lat":37000,"size":167,"index":[48,49,62,63,48,67,75,76,62,106,76,62,76,124,129,130,67,132,136,75,129,141,49,148,153,124,49,129,75,161,106,48,106,170,124,171,67,172]},
{"lon":138500,"lat":37166,"size":167,"index":[2,3,26,27,32,33,47,26,63,47,66,47,69,70,26,110,128,2,70,32,66,70,152,3,154,2,32,165,3,66,176,177]},
{"lon":138500,"lat":37333,"size":167,"index":[4,5,27,28,29,30,33,34,39,40,41,42,40,4,34,41,68,69,71,41,42,72,95,68,100,101,107,71,71,72,113,40,4,100,68,34,151,152,162,163,72,39,165,42,39,28,175,100,28,176]},
{"lon":138666,"lat":37000,"size":167,"index":[18,19,64,65,65,19,78,79,78,97,98,99,97,102,103,104,97,99,114,79,65,18,121,122,130,131,134,18,19,135,138,139,141,78,99,134,144,121,103,145,148,149,155,102,102,138,121,103,134,144,79,155,138,144,155,173]},
{"lon":138666,"lat":37166,"size":167,"index":[6,7,8,9,11,12,16,17,20,21,22,23,9,57,60,57,20,64,8,88,11,91,22,7,17,98,60,23,110,16,23,8,135,21,9,11,7,142,21,150,57,167,17,20,16,60,177,22]},
{"lon":138666,"lat":37333,"size":167,"index":[5,6,30,31,35,36,45,46,53,54,58,53,73,74,46,80,88,89,90,53,35,93,89,74,101,45,108,109,117,90,54,118,31,73,54,133,46,31,142,80,146,36,74,146,118,158,146,159,80,89,163,45,109,166,133,168,73,90,118,35,133,109,36,174]},
{"lon":138833,"lat":37000,"size":167,"index":[24,25,25,59,24,77,77,81,85,25,104,24,115,116,85,120,122,123,139,140,145,85,156,77]},
{"lon":138833,"lat":37166,"size":167,"index":[12,13,14,15,37,38,15,50,55,56,15,55,50,84,13,86,91,92,96,50,111,37,55,112,84,112,14,115,38,14,96,127,13,38,112,143,150,111,111,156,157,96,160,92,92,164,167,37,84,169,178,179]},
{"lon":138833,"lat":37333,"size":167,"index":[0,1,10,1,43,44,51,52,52,61,82,83,86,87,93,94,105,51,0,119,125,126,83,137,43,83,147,0,87,105,105,157,1,43,158,61,159,160,164,87,168,147,94,52,61,147,174,94,51,178]}
]
}
}