[{"code":1110302,"station":"南小樽","phonetic":"みなみおたる","prefecture":1,"lon":141.007883,"lat":43.186529,"lines":[11103],"next":[1110211,1110303,1110218,1110219],"voronoi":{"pivot":[140.953736,43.128967],"points":[0,0,-25261,-132593,31074,-28622,72615,266076]}},
{"code":1110303,"station":"小樽築港","phonetic":"おたるちっこう","prefecture":1,"lon":141.029051,"lat":43.180752,"lines":[11103],"next":[1110219,1110302,1110211,1110304],"voronoi":{"pivot":[141.016531,42.909856],"points":[0,0,-56983,57895,72615,266076,26913,58019]}},
{"code":1110304,"station":"朝里","phonetic":"あさり","prefecture":1,"lon":141.063923,"lat":43.176868,"lines":[11103],"next":[1110211,1111212,1110305,5000017,1110219,1110303],"voronoi":{"pivot":[141.016531,42.909856],"points":[0,0,5748,-6651,222227,637129,-394,11726,-91785,62518,-93251,-322732]}},
{"code":1110305,"station":"銭函","phonetic":"ぜにばこ","prefecture":1,"lon":141.159868,"lat":43.143403,"lines":[11103],"next":[1111209,1111212,1110211,1110304,1110307,1110306,9910216],"voronoi":{"pivot":[141.070307,42.820884],"points":[0,0,-48027,82322,222227,637129,6747,-42054,2445,-44439,-44583,-206129,-125673,-409694]}},
{"code":1110306,"station":"ほしみ","phonetic":"ほしみ","prefecture":1,"lon":141.191402,"lat":43.133730,"lines":[11103],"next":[9910216,1110308,1110305,1110307,9910101],"voronoi":{"pivot":[141.197014,43.073969],"points":[0,0,12102,173744,-125673,-409694,27630,32378,76317,149551]}},
{"code":1110307,"station":"星置","phonetic":"ほしおき","prefecture":1,"lon":141.210856,"lat":43.132375,"lines":[11103],"next":[1110308,1111209,1110305,1110306,1111208],"voronoi":{"pivot":[141.273378,43.309456],"points":[0,0,-19680,144386,-44583,-206129,-12102,-173744,77662,219913]}},
{"code":1110308,"station":"稲穂","phonetic":"いなほ","prefecture":1,"lon":141.222919,"lat":43.128115,"lines":[11103],"next":[1111208,1110307,1110309,1110306,9910101],"voronoi":{"pivot":[141.187389,43.019947],"points":[0,0,9624,54021,77662,219913,5502,-45666,-78506,-207960]}},
{"code":1110309,"station":"手稲","phonetic":"ていね","prefecture":1,"lon":141.243785,"lat":43.120238,"lines":[11103],"next":[1111208,1110308,1110310,9910101],"voronoi":{"pivot":[141.201671,43.040255],"points":[0,0,78506,207960,12979,-62796,-85210,-138245]}},
{"code":1110310,"station":"稲積公園","phonetic":"いなづみこうえん","prefecture":1,"lon":141.257113,"lat":43.112023,"lines":[11103],"next":[1111205,9910101,1111208,1110311,1110309],"voronoi":{"pivot":[141.295345,43.178337],"points":[0,0,295,-25425,-35019,-57849,-52674,-47889,85210,138245]}},
{"code":1110311,"station":"発寒","phonetic":"はっさむ","prefecture":1,"lon":141.277273,"lat":43.099819,"lines":[11103],"next":[1111205,1110310,1110312,9910101,1111204],"voronoi":{"pivot":[141.301074,43.119347],"points":[0,0,-15034,-24549,-25420,265,35019,57849,5659,-24964]}},
{"code":1110312,"station":"発寒中央","phonetic":"はっさむちゅうおう","prefecture":1,"lon":141.294497,"lat":43.089271,"lines":[11103],"next":[9910103,1111204,9910102,9910101,1110311,1110313],"voronoi":{"pivot":[141.301074,43.119347],"points":[0,0,-15034,-24549,-205,-5123,11851,-8151,1637,1159,8736,14713]}},
{"code":1110313,"station":"琴似(JR)","phonetic":"ことに","prefecture":1,"lon":141.307418,"lat":43.081599,"lines":[11103],"next":[1111204,1111203,9910104,9910103,1110312],"voronoi":{"pivot":[141.308476,43.096995],"points":[0,0,6696,-18495,-4642,-2723,-11206,6906,8736,14713]}},
{"code":1110314,"station":"桑園","phonetic":"そうえん","prefecture":1,"lon":141.332036,"lat":43.070744,"lines":[11103,11112],"next":[9910204,9910104,9910206,1111203,9910107,9910203,9910205,9910108,9910404,9910105],"voronoi":{"pivot":[141.323205,43.065669],"points":[0,0,-301,10331,9544,8148,1966,-1296,4974,-6732,1833,-7343,-194,-811,-5421,-4003,-1747,-377,-10237,1381]}},
{"code":1110315,"station":"札幌","phonetic":"さっぽろ","prefecture":1,"lon":141.350768,"lat":43.068612,"lines":[11103,11109,11112],"next":[9910306,9910110,9910206,9910205],"voronoi":{"pivot":[141.359161,43.069618],"points":[0,0,-2569,-3395,-13843,2896,9837,3742]}},
{"code":9910206,"station":"さっぽろ","phonetic":"さっぽろ","prefecture":1,"lon":141.350299,"lat":43.066370,"lines":[99102,99103],"next":[1110314,9910108,1110315,9910110,9910205,9910109,9910402],"voronoi":{"pivot":[141.344030,43.064405],"points":[0,0,-3003,3561,194,811,1528,342,13843,-2896,-611,-1220,-7662,-2785]}},
{"code":1110316,"station":"苗穂","phonetic":"なえぼ","prefecture":1,"lon":141.373473,"lat":43.068285,"lines":[11103,11109],"next":[1110317,9910112,9910304,9910111,9910305,9910110],"voronoi":{"pivot":[141.382308,43.062086],"points":[0,0,14889,10226,317,937,-25899,2183,-7051,-6192,3319,-6151]}},
{"code":1110317,"station":"白石(JR)","phonetic":"しろいし","prefecture":1,"lon":141.413612,"lat":43.054715,"lines":[11103,11109],"next":[9910303,9910114,1110316,1110916,9910113,9910304,9910115,9910112,1111210,1111211],"voronoi":{"pivot":[141.425067,43.048566],"points":[0,0,-4503,-2162,-14570,1846,-7916,15916,-880,8145,317,937,18043,25613,8337,8837,1995,301,18145,58]}},
{"code":1110318,"station":"厚別","phonetic":"あつべつ","prefecture":1,"lon":141.463690,"lat":43.045154,"lines":[11103],"next":[1110915,1110319,9910118,9910119,9910117,1110916],"voronoi":{"pivot":[141.450509,43.041471],"points":[0,0,5448,-3405,9730,710,4078,5512,3455,5411,-19961,31159]}},
{"code":1110319,"station":"森林公園(北海道)","phonetic":"しんりんこうえん","prefecture":1,"lon":141.481332,"lat":43.056456,"lines":[11103],"next":[9910119,1110318,1110320,1110914,1110916],"voronoi":{"pivot":[141.473220,43.049698],"points":[0,0,24103,-11451,16094,2392,-65372,64005,5214,-23787]}},
{"code":1110320,"station":"大麻","phonetic":"おおあさ","prefecture":1,"lon":141.496925,"lat":43.072382,"lines":[11103],"next":[1110914,1110916,1111211,1111212,1110319,1110321],"voronoi":{"pivot":[141.481462,43.134542],"points":[0,0,-13250,-5401,-21857,-20583,1689,-3914,65372,-64005,28606,-4891]}},
{"code":1110914,"station":"上野幌","phonetic":"かみのっぽろ","prefecture":1,"lon":141.487317,"lat":43.016177,"lines":[11109],"next":[1110915,1110320,1110321,1110913,9910314,1110912,9910119,9910117,1110911,1110319,9910118,9910216],"voronoi":{"pivot":[141.438906,42.921365],"points":[0,0,799,12363,26276,76276,10946,15518,2387,1582,18009,11144,16094,2392,28606,-4891,1362,-758,-47170,-96795,-36167,-33127,-15640,-12006]}},
{"code":1110915,"station":"新札幌","phonetic":"しんさっぽろ","prefecture":1,"lon":141.472370,"lat":43.038732,"lines":[11109],"next":[1110914,9910118,1110318,9910119],"voronoi":{"pivot":[141.469764,43.044287],"points":[0,0,-4078,-5512,11240,-13254,2387,1582]}},
{"code":9910119,"station":"新さっぽろ","phonetic":"しんさっぽろ","prefecture":1,"lon":141.473106,"lat":43.039141,"lines":[99101],"next":[1110319,1110915,1110914,1110318],"voronoi":{"pivot":[141.497322,43.038248],"points":[0,0,-18009,-11144,-9549,17184,3455,5411]}},
{"code":1110916,"station":"平和","phonetic":"へいわ","prefecture":1,"lon":141.437967,"lat":43.046950,"lines":[11109],"next":[9910116,1110317,1110320,9910117,1111211,1110319,1110318,9910115],"voronoi":{"pivot":[141.445091,43.037179],"points":[0,0,5417,4291,2750,39387,-5214,23787,-1689,3914,-2321,-501,-18968,-59491,6715,-9181]}},
{"code":1111203,"station":"八軒","phonetic":"はちけん","prefecture":1,"lon":141.319145,"lat":43.085845,"lines":[11112],"next":[1110313,1110314,1111204,9910203,9910104],"voronoi":{"pivot":[141.332448,43.084148],"points":[0,0,-670,4301,-23302,8546,6696,-18495,7732,-2500]}},
{"code":1111204,"station":"新川(北海道)","phonetic":"しんかわ","prefecture":1,"lon":141.323824,"lat":43.098604,"lines":[11112],"next":[1110313,1110312,1111205,9910203,9910201,1111203,1110311,9910202],"voronoi":{"pivot":[141.332769,43.101479],"points":[0,0,-2872,3947,-28598,22523,-224,-8601,6985,-21951,416,-401,23302,-8546,1635,3865]}},
{"code":1111205,"station":"新琴似","phonetic":"しんことに","prefecture":1,"lon":141.335105,"lat":43.112928,"lines":[11112],"next":[9910201,1110310,1110311,1111204,1111206,1111208],"voronoi":{"pivot":[141.295345,43.178337],"points":[0,0,295,-25425,5659,-24964,28598,-22523,13740,11325,-45112,58704]}},
{"code":1111206,"station":"太平","phonetic":"たいへい","prefecture":1,"lon":141.349526,"lat":43.124010,"lines":[11112],"next":[9910201,1111205,9910301,1111208,1111207],"voronoi":{"pivot":[141.344865,43.143021],"points":[0,0,-46341,32433,45112,-58704,9235,-6984,6889,11017]}},
{"code":1111207,"station":"百合が原","phonetic":"ゆりがはら","prefecture":1,"lon":141.360672,"lat":43.131476,"lines":[11112],"next":[1111209,1111208,1111206,9910301],"voronoi":{"pivot":[141.359760,43.120784],"points":[0,0,-14895,22238,38856,-10374,2910,-2456]}},
{"code":1111208,"station":"篠路","phonetic":"しのろ","prefecture":1,"lon":141.364323,"lat":43.145152,"lines":[11112],"next":[1110308,1110309,1111209,1110310,1111207,1110307,1111206,1111205],"voronoi":{"pivot":[141.344865,43.143021],"points":[0,0,38856,-10374,-110343,176808,1297,-15574,5502,-45666,12979,-62796,2188,-7082,3180,-2883]}},
{"code":1111209,"station":"拓北","phonetic":"たくほく","prefecture":1,"lon":141.381013,"lat":43.155568,"lines":[11112],"next":[9910301,1110305,1111211,1111208,1111207,1110307,1111210,1111212],"voronoi":{"pivot":[141.251254,43.498280],"points":[0,0,2445,-44439,19680,-144386,110343,-176808,2910,-2456,2653,-865,1119,67634,-6613,37846]}},
{"code":1111210,"station":"あいの里教育大","phonetic":"あいのさときょういくだい","prefecture":1,"lon":141.398420,"lat":43.155280,"lines":[11112],"next":[9910302,1111209,1111211,9910301,1110317,9910303],"voronoi":{"pivot":[141.425890,43.108000],"points":[0,0,-35486,88961,-1119,-67634,15990,-11827,11512,-6672,7108,-3129]}},
{"code":1111211,"station":"あいの里公園","phonetic":"あいのさとこうえん","prefecture":1,"lon":141.413276,"lat":43.161206,"lines":[11112],"next":[1111212,1111209,1111210,1110320,1110317,1110916],"voronoi":{"pivot":[141.444034,43.108057],"points":[0,0,-18145,-58,-35486,88961,-6613,37846,84422,-105665,-21857,-20583]}},
{"code":1111212,"station":"石狩太美","phonetic":"いしかりふとみ","prefecture":1,"lon":141.449066,"lat":43.189801,"lines":[11112],"next":[1111213,1111211,1110322,1110305,1110304,1110320,1111217,1111209,1110321,5000017],"voronoi":{"pivot":[141.336941,43.495516],"points":[0,0,169187,-339108,-7196,-7354,-17469,-14511,-13250,-5401,-84422,105665,-132537,263474,-6747,42054,-394,11726,54528,-6390]}},
{"code":9910101,"station":"宮の沢","phonetic":"みやのさわ","prefecture":1,"lon":141.277170,"lat":43.089962,"lines":[99101],"next":[9910102,9910411,1110310,1110312,1110311,1110306,1110308,1110309,9910216],"voronoi":{"pivot":[141.173657,42.924173],"points":[0,0,112179,165502,205,5123,-25420,265,-52674,-47889,-6275,-6919,-14282,-20308,-76317,-149551,50880,41871]}},
{"code":9910102,"station":"発寒南","phonetic":"はっさむみなみ","prefecture":1,"lon":141.289312,"lat":43.081732,"lines":[99101],"next":[9910101,9910103,1110312,9910411,9910105,9910106],"voronoi":{"pivot":[141.189273,42.938910],"points":[0,0,-15616,-14736,112179,165502,11851,-8151,-11498,-29027,-83546,-98479]}},
{"code":9910103,"station":"琴似(札幌市交通局)","phonetic":"ことに","prefecture":1,"lon":141.303931,"lat":43.075941,"lines":[99101],"next":[1110312,9910104,9910102,1110313,9910105],"voronoi":{"pivot":[141.286188,43.052498],"points":[0,0,11498,29027,1637,1159,11206,-6906,-6150,-10926]}},
{"code":9910104,"station":"二十四軒","phonetic":"にじゅうよんけん","prefecture":1,"lon":141.314093,"lat":43.070221,"lines":[99101],"next":[9910103,1110314,1110313,9910105,1111203],"voronoi":{"pivot":[141.323205,43.065669],"points":[0,0,-18825,-818,6150,10926,4642,2723,7732,-2500]}},
{"code":9910105,"station":"西２８丁目","phonetic":"にしにじゅうはっちょうめ","prefecture":1,"lon":141.314522,"lat":43.060345,"lines":[99101],"next":[9910106,9910104,9910102,9910103,9910107,1110314],"voronoi":{"pivot":[141.323205,43.065669],"points":[0,0,-18825,-818,-18191,-12354,-83546,-98479,120808,110104,171,845]}},
{"code":9910106,"station":"円山公園","phonetic":"まるやまこうえん","prefecture":1,"lon":141.318863,"lat":43.055582,"lines":[99101],"next":[9910408,9910411,9910107,9910105,9910410,9910407,9910406,9910102,9910409],"voronoi":{"pivot":[141.321594,43.041016],"points":[0,0,1960,3069,2075,4457,-2178,15580,-120808,-110104,-13370,-15109,120049,89948,4146,3486,3594,3478]}},
{"code":9910107,"station":"西１８丁目","phonetic":"にしじゅうはっちょうめ","prefecture":1,"lon":141.330204,"lat":43.057168,"lines":[99101],"next":[9910106,9910406,9910405,1110314,9910105,9910404],"voronoi":{"pivot":[141.323621,43.064968],"points":[0,0,-171,-845,2178,-15580,622,346,5929,4980,1679,9718]}},
{"code":9910108,"station":"西１１丁目","phonetic":"にしじゅういっちょうめ","prefecture":1,"lon":141.341036,"lat":43.058557,"lines":[99101],"next":[9910402,9910206,9910404,9910403,1110314],"voronoi":{"pivot":[141.335605,43.063963],"points":[0,0,2084,-5473,5828,-946,512,6861,-3003,3561]}},
{"code":9910403,"station":"中央区役所前","phonetic":"ちゅうおうくやくしょまえ","prefecture":1,"lon":141.340843,"lat":43.057369,"lines":[99104],"next":[9910405,9910404,9910422,9910421,9910108,9910402],"voronoi":{"pivot":[141.343517,43.057544],"points":[0,0,-5828,946,871,-4699,3713,-3551,1598,2302,267,943]}},
{"code":9910109,"station":"大通","phonetic":"おおどおり","prefecture":1,"lon":141.352503,"lat":43.060308,"lines":[99101,99102,99103],"next":[9910401,9910424,9910402,9910110,9910206],"voronoi":{"pivot":[141.348318,43.062218],"points":[0,0,583,-1747,5631,-1424,2129,298,-681,5658]}},
{"code":9910110,"station":"バスセンター前","phonetic":"ばすせんたーまえ","prefecture":1,"lon":141.360473,"lat":43.061268,"lines":[99101],"next":[9910305,9910111,9910310,1110315,9910424,9910309,9910206,1110316,9910109,9910306],"voronoi":{"pivot":[141.364564,43.069239],"points":[0,0,3319,-6151,-2880,-8592,-37,-23,-8267,4800,-38,72,-681,5658,611,1220,2569,3395,1617,582]}},
{"code":9910111,"station":"菊水","phonetic":"きくすい","prefecture":1,"lon":141.372700,"lat":43.057169,"lines":[99101],"next":[9910110,9910112,9910310,1110316,9910311],"voronoi":{"pivot":[141.376827,43.050106],"points":[0,0,-11823,4391,2880,8592,14425,-1003,-5441,-11969]}},
{"code":9910112,"station":"東札幌","phonetic":"ひがしさっぽろ","prefecture":1,"lon":141.384922,"lat":43.051614,"lines":[99101],"next":[9910113,9910111,9910312,1110316,1110317,9910311],"voronoi":{"pivot":[141.388278,43.044136],"points":[0,0,9799,20030,-880,8145,-14889,-10226,-5441,-11969,7203,-6210]}},
{"code":9910113,"station":"白石(札幌市交通局)","phonetic":"しろいし","prefecture":1,"lon":141.396242,"lat":43.046076,"lines":[99101],"next":[9910114,9910112,1110317,9910312,9910313],"voronoi":{"pivot":[141.405994,43.048251],"points":[0,0,-7916,15916,-9799,-20030,5410,-5825,8476,11]}},
{"code":9910114,"station":"南郷７丁目","phonetic":"なんごうななちょうめ","prefecture":1,"lon":141.411759,"lat":43.040091,"lines":[99101],"next":[1110317,9910115,9910313,9910314,9910113],"voronoi":{"pivot":[141.420563,43.046405],"points":[0,0,-7216,-18320,-6860,3214,-4323,7024,3829,9928]}},
{"code":9910115,"station":"南郷１３丁目","phonetic":"なんごうじゅうさんちょうめ","prefecture":1,"lon":141.422697,"lat":43.035783,"lines":[99101],"next":[9910314,9910114,9910116,1110317,1110916],"voronoi":{"pivot":[141.425067,43.048566],"points":[0,0,-4503,-2162,-7216,-18320,8306,-11491,10128,22792]}},
{"code":9910116,"station":"南郷１８丁目","phonetic":"なんごうじゅうはっちょうめ","prefecture":1,"lon":141.435196,"lat":43.030229,"lines":[99101],"next":[1110916,9910115,9910117,9910314],"voronoi":{"pivot":[141.421654,43.016594],"points":[0,0,10128,22792,13310,-2206,-9203,-73655]}},
{"code":9910117,"station":"大谷地","phonetic":"おおやち","prefecture":1,"lon":141.452972,"lat":43.028008,"lines":[99101],"next":[9910118,1110914,1110916,9910116,1110318,9910314],"voronoi":{"pivot":[141.435889,42.963525],"points":[0,0,9203,73655,5417,4291,5448,-3405,10024,-28062,-26276,-76276]}},
{"code":9910118,"station":"ひばりが丘","phonetic":"ひばりがおか","prefecture":1,"lon":141.464638,"lat":43.032175,"lines":[99101],"next":[1110915,1110318,9910117,1110914],"voronoi":{"pivot":[141.465980,43.010004],"points":[0,0,-10024,28062,9730,710,11240,-13254]}},
{"code":9910201,"station":"麻生","phonetic":"あさぶ","prefecture":1,"lon":141.338255,"lat":43.109106,"lines":[99102],"next":[1111205,1111206,1111204,9910301,9910202],"voronoi":{"pivot":[141.332769,43.101479],"points":[0,0,-2872,3947,13740,11325,9235,-6984,8,-61]}},
{"code":9910202,"station":"北３４条","phonetic":"きたさんじゅうよじょう","prefecture":1,"lon":141.342028,"lat":43.099883,"lines":[99102],"next":[9910302,1111204,9910301,9910201,9910203],"voronoi":{"pivot":[141.333413,43.092314],"points":[0,0,-644,9164,20111,8227,2062,-3950,1341,-7592]}},
{"code":9910203,"station":"北２４条","phonetic":"きたにじゅうよじょう","prefecture":1,"lon":141.344604,"lat":43.089811,"lines":[99102],"next":[1111204,9910306,1110314,9910204,9910305,1111203,9910302,9910303,9910202],"voronoi":{"pivot":[141.357383,43.096351],"points":[0,0,999,-5932,-218,-378,-2200,-1745,-21550,-5443,-1966,1296,-670,4301,1635,3865,22870,5849]}},
{"code":9910204,"station":"北１８条","phonetic":"きたじゅうはちじょう","prefecture":1,"lon":141.346686,"lat":43.081568,"lines":[99102],"next":[1110314,9910203,9910306,9910205],"voronoi":{"pivot":[141.355963,43.088296],"points":[0,0,-21550,-5443,4974,-6732,11241,2864]}},
{"code":9910205,"station":"北１２条","phonetic":"きたじゅうにじょう","prefecture":1,"lon":141.348403,"lat":43.074829,"lines":[99102],"next":[1110314,9910204,9910206,9910306,1110315],"voronoi":{"pivot":[141.350628,43.078984],"points":[0,0,-11241,-2864,1833,-7343,1528,342,9837,3742]}},
{"code":9910208,"station":"すすきの","phonetic":"すすきの","prefecture":1,"lon":141.353257,"lat":43.055780,"lines":[99102,99104],"next":[9910209,9910422,9910309,9910424,9910421],"voronoi":{"pivot":[141.354405,43.052413],"points":[0,0,997,4626,-4391,-967,428,-2557,1638,-1421]}},
{"code":9910209,"station":"中島公園","phonetic":"なかじまこうえん","prefecture":1,"lon":141.354913,"lat":43.048892,"lines":[99102],"next":[9910419,9910208,9910211,9910210,9910421,9910420,9910309,9910310],"voronoi":{"pivot":[141.354405,43.052413],"points":[0,0,-1328,-319,-835,-1822,142,-2702,2215,-3175,6726,742,389,203,471,4625]}},
{"code":9910210,"station":"幌平橋","phonetic":"ほろひらばし","prefecture":1,"lon":141.355886,"lat":43.040073,"lines":[99102],"next":[9910418,9910211,9910209,9910417,9910419,9910416],"voronoi":{"pivot":[141.354309,43.036893],"points":[0,0,-1186,3281,1091,3832,385,388,6726,742,-4827,-10026]}},
{"code":9910211,"station":"中の島","phonetic":"なかのしま","prefecture":1,"lon":141.360758,"lat":43.037727,"lines":[99102],"next":[9910213,9910210,9910209,9910310,9910416,9910415,9910212],"voronoi":{"pivot":[141.361713,43.045340],"points":[0,0,-389,-203,-4827,-10026,340,-1041,4154,-6716,275,268,5330,13532]}},
{"code":9910212,"station":"平岸(札幌市交通局)","phonetic":"ひらぎし","prefecture":1,"lon":141.368530,"lat":43.034666,"lines":[99102],"next":[9910311,9910310,9910213,9910211],"voronoi":{"pivot":[141.370111,43.041000],"points":[0,0,6936,-7680,-15781,-5698,5330,13532]}},
{"code":9910213,"station":"南平岸","phonetic":"みなみひらぎし","prefecture":1,"lon":141.371355,"lat":43.026842,"lines":[99102],"next":[9910311,9910415,9910312,9910211,9910214,9910313,9910212,9910314],"voronoi":{"pivot":[141.385745,43.015199],"points":[0,0,-25280,10233,527,1921,275,268,15781,5698,477,-165,7261,-11013,999,-6702]}},
{"code":9910214,"station":"澄川","phonetic":"すみかわ","prefecture":1,"lon":141.367308,"lat":43.016845,"lines":[99102],"next":[9910213,9910215,9910314,9910414,9910415],"voronoi":{"pivot":[141.385745,43.015199],"points":[0,0,1153,-8644,-35755,8377,3200,4321,6122,6179]}},
{"code":9910215,"station":"自衛隊前","phonetic":"じえいたいまえ","prefecture":1,"lon":141.364776,"lat":43.006038,"lines":[99102],"next":[9910413,9910412,9910214,9910414,9910216,9910314],"voronoi":{"pivot":[141.341417,43.007102],"points":[0,0,2139,2151,3779,3156,3807,2523,35755,-8377,9129,-22453]}},
{"code":9910301,"station":"栄町(北海道)","phonetic":"さかえまち","prefecture":1,"lon":141.367142,"lat":43.112995,"lines":[99103],"next":[1111209,9910302,1111210,9910201,1111206,1111207,9910202],"voronoi":{"pivot":[141.352880,43.109705],"points":[0,0,-8,61,6889,11017,26871,9408,2653,-865,15990,-11827,-50333,-11744]}},
{"code":9910302,"station":"新道東","phonetic":"しんどうひがし","prefecture":1,"lon":141.369086,"lat":43.104663,"lines":[99103],"next":[1111210,9910301,9910202,9910203,9910303],"voronoi":{"pivot":[141.357383,43.096351],"points":[0,0,-1100,1813,-1341,7592,50333,11744,11512,-6672]}},
{"code":9910303,"station":"元町(北海道)","phonetic":"もとまち","prefecture":1,"lon":141.371598,"lat":43.094355,"lines":[99103],"next":[1110317,9910305,1111210,9910302,9910304,9910203],"voronoi":{"pivot":[141.367066,43.086748],"points":[0,0,48491,12113,8337,8837,-7108,3129,-59404,-14477,999,-5932]}},
{"code":9910304,"station":"環状通東","phonetic":"かんじょうどおりひがし","prefecture":1,"lon":141.374643,"lat":43.082166,"lines":[99103],"next":[1110317,1110316,9910303,9910305],"voronoi":{"pivot":[141.397514,43.073248],"points":[0,0,18043,25613,-48491,-12113,4549,-11317]}},
{"code":9910305,"station":"東区役所前","phonetic":"ひがしくやくしょまえ","prefecture":1,"lon":141.364769,"lat":43.078197,"lines":[99103],"next":[9910110,9910303,9910203,1110316,9910304,9910306],"voronoi":{"pivot":[141.364564,43.069239],"points":[0,0,7051,6192,-4549,11317,-8685,3670,-218,-378,2614,-19840]}},
{"code":9910306,"station":"北１３条東","phonetic":"きたじゅうさんじょうひがし","prefecture":1,"lon":141.354851,"lat":43.076890,"lines":[99103],"next":[1110315,9910203,9910204,9910110,9910205,9910305],"voronoi":{"pivot":[141.358163,43.090040],"points":[0,0,-2200,-1745,-5335,-9311,1957,-6123,6575,-3243,1617,582]}},
{"code":9910309,"station":"豊水すすきの","phonetic":"ほうすいすすきの","prefecture":1,"lon":141.356838,"lat":43.055008,"lines":[99103],"next":[9910310,9910424,9910110,9910208,9910209],"voronoi":{"pivot":[141.364967,43.054473],"points":[0,0,-8267,4800,-1298,-2235,-997,-4626,7780,-2448]}},
{"code":9910310,"station":"学園前(北海道)","phonetic":"がくえんまえ","prefecture":1,"lon":141.369090,"lat":43.047448,"lines":[99103],"next":[9910212,9910110,9910309,9910111,9910311,9910211,9910209],"voronoi":{"pivot":[141.361713,43.045340],"points":[0,0,4883,-4186,3515,-154,6715,9106,-11823,4391,-37,-23,-2782,-4509]}},
{"code":9910311,"station":"豊平公園","phonetic":"とよひらこうえん","prefecture":1,"lon":141.376573,"lat":43.041929,"lines":[99103],"next":[9910213,9910212,9910310,9910312,9910111,9910112],"voronoi":{"pivot":[141.376868,43.050116],"points":[0,0,-41,-11,-6715,-9106,6936,-7680,477,-165,6546,10752]}},
{"code":9910312,"station":"美園","phonetic":"みその","prefecture":1,"lon":141.385756,"lat":43.036338,"lines":[99103],"next":[9910213,9910112,9910311,9910113,9910313],"voronoi":{"pivot":[141.388278,43.044136],"points":[0,0,-4208,-230,-6546,-10752,7261,-11013,8903,16170]}},
{"code":9910313,"station":"月寒中央","phonetic":"つきさむちゅうおう","prefecture":1,"lon":141.396263,"lat":43.030553,"lines":[99103],"next":[9910114,9910314,9910213,9910113,9910312],"voronoi":{"pivot":[141.402164,43.038322],"points":[0,0,4323,-7024,-20703,-15859,-999,6702,8903,16170]}},
{"code":9910314,"station":"福住","phonetic":"ふくずみ","prefecture":1,"lon":141.403105,"lat":43.021621,"lines":[99103],"next":[9910115,9910114,9910313,9910216,1110914,9910213,9910214,9910116,9910215,9910117],"voronoi":{"pivot":[141.438906,42.921365],"points":[0,0,-42879,62738,-9129,22453,-1153,8644,40,240,20703,15859,6860,-3214,8306,-11491,14235,-53069,3816,-29797]}},
{"code":9910401,"station":"西４丁目","phonetic":"にしよんちょうめ","prefecture":1,"lon":141.352148,"lat":43.058904,"lines":[99104],"next":[9910402,9910422,9910109,9910424],"voronoi":{"pivot":[141.348902,43.060472],"points":[0,0,284,-2351,1255,-1034,4092,1961]}},
{"code":9910402,"station":"西８丁目","phonetic":"にしはっちょうめ","prefecture":1,"lon":141.346121,"lat":43.058177,"lines":[99104],"next":[9910108,9910422,9910401,9910109,9910206,9910403],"voronoi":{"pivot":[141.343517,43.057544],"points":[0,0,512,6861,4289,-2187,583,-1747,284,-2351,-5047,-4635]}},
{"code":9910404,"station":"西１５丁目","phonetic":"にしじゅうごちょうめ","prefecture":1,"lon":141.335148,"lat":43.056314,"lines":[99104],"next":[9910403,9910405,9910108,1110314,9910107],"voronoi":{"pivot":[141.335605,43.063963],"points":[0,0,2084,-5473,871,-4699,-6381,77,1679,9718]}},
{"code":9910405,"station":"西線６条","phonetic":"にしせんろくじょう","prefecture":1,"lon":141.335088,"lat":43.051352,"lines":[99104],"next":[9910403,9910107,9910421,9910404,9910406],"voronoi":{"pivot":[141.326250,43.048889],"points":[0,0,5929,4980,6381,-77,3713,-3551,0,-39]}},
{"code":9910406,"station":"西線９条旭山公園通","phonetic":"にしせんくじょうあさひやまこうえんどおり","prefecture":1,"lon":141.335371,"lat":43.047897,"lines":[99104],"next":[9910407,9910107,9910106,9910405,9910420,9910421],"voronoi":{"pivot":[141.342274,43.050201],"points":[0,0,-16023,-1313,-622,-346,-2075,-4457,19033,3450,-89,1764]}},
{"code":9910407,"station":"西線１１条","phonetic":"にしせんじゅういちじょう","prefecture":1,"lon":141.335957,"lat":43.044664,"lines":[99104],"next":[9910406,9910420,9910408,9910106,9910419],"voronoi":{"pivot":[141.321594,43.041016],"points":[0,0,1960,3069,19033,3450,477,-1662,186,-2690]}},
{"code":9910408,"station":"西線１４条","phonetic":"にしせんじゅうよじょう","prefecture":1,"lon":141.336395,"lat":43.040288,"lines":[99104],"next":[9910106,9910419,9910407,9910409,9910418],"voronoi":{"pivot":[141.317062,43.035821],"points":[0,0,4532,5195,21656,2167,141,-365,279,-3180]}},
{"code":9910409,"station":"西線１６条","phonetic":"にしせんじゅうろくじょう","prefecture":1,"lon":141.336871,"lat":43.036970,"lines":[99104],"next":[9910413,9910417,9910408,9910418,9910410,9910106],"voronoi":{"pivot":[141.313467,43.032343],"points":[0,0,28898,3643,1584,1847,-129,1349,-151,456,-26608,-3817]}},
{"code":9910410,"station":"ロープウェイ入口","phonetic":"ろ゜ぷうぇいいりぐち","prefecture":1,"lon":141.337287,"lat":43.033670,"lines":[99104],"next":[9910411,9910413,9910106,9910409,9910412],"voronoi":{"pivot":[141.342366,43.035986],"points":[0,0,-28898,-3643,-4146,-3486,29654,3404,2947,2696]}},
{"code":9910411,"station":"電車事業所前","phonetic":"でんしゃじぎょうしょまえ","prefecture":1,"lon":141.337650,"lat":43.030508,"lines":[99104],"next":[9910410,9910101,9910106,9910102,9910412,9910216],"voronoi":{"pivot":[141.161952,42.912267],"points":[0,0,11704,11906,15616,14736,120049,89948,29654,3404,-546,-26548]}},
{"code":9910412,"station":"中央図書館前","phonetic":"ちゅうおうとしょかんまえ","prefecture":1,"lon":141.340227,"lat":43.030455,"lines":[99104],"next":[9910413,9910215,9910216,9910411,9910410],"voronoi":{"pivot":[141.343557,43.009254],"points":[0,0,-2139,-2151,-2988,-1389,546,26548,2947,2696]}},
{"code":9910413,"station":"石山通","phonetic":"いしやまどおり","prefecture":1,"lon":141.344175,"lat":43.030706,"lines":[99104],"next":[9910412,9910409,9910215,9910410,9910417,9910414],"voronoi":{"pivot":[141.345899,43.036071],"points":[0,0,-1950,1762,-1584,-1847,-443,-1029,1634,-25704,3779,3156]}},
{"code":9910414,"station":"東屯田通","phonetic":"ひがしとんでんどおり","prefecture":1,"lon":141.348260,"lat":43.030954,"lines":[99104],"next":[9910415,9910417,9910215,9910416,9910413,9910214],"voronoi":{"pivot":[141.351142,43.014932],"points":[0,0,-3807,-2523,-1436,23662,445,-169,3128,-2713,4870,-13936]}},
{"code":9910415,"station":"幌南小学校前","phonetic":"こうなんしょうがっこうまえ","prefecture":1,"lon":141.351814,"lat":43.032196,"lines":[99104],"next":[9910213,9910414,9910211,9910416,9910214],"voronoi":{"pivot":[141.360991,43.027353],"points":[0,0,-4154,6716,-7365,-880,4870,-13936,6122,6179]}},
{"code":9910416,"station":"山鼻１９条","phonetic":"やまはなじゅうくじょう","prefecture":1,"lon":141.351514,"lat":43.034706,"lines":[99104],"next":[9910417,9910414,9910211,9910415,9910210],"voronoi":{"pivot":[141.356838,43.034069],"points":[0,0,-7365,-880,-3128,2713,7964,991,2189,-1783]}},
{"code":9910417,"station":"静修学園前","phonetic":"せいしゅうがくえんまえ","prefecture":1,"lon":141.351063,"lat":43.038329,"lines":[99104],"next":[9910416,9910414,9910413,9910409,9910210,9910418],"voronoi":{"pivot":[141.343820,43.039182],"points":[0,0,129,-1349,1950,-1762,445,-169,7964,991,-1186,3281]}},
{"code":9910418,"station":"行啓通","phonetic":"ぎょうけいどおり","prefecture":1,"lon":141.350720,"lat":43.041544,"lines":[99104],"next":[9910210,9910419,9910409,9910417,9910408],"voronoi":{"pivot":[141.343820,43.039182],"points":[0,0,9302,992,1091,3832,-10823,-1188,279,-3180]}},
{"code":9910419,"station":"中島公園通","phonetic":"なかじまこうえんどおり","prefecture":1,"lon":141.350269,"lat":43.045652,"lines":[99104],"next":[9910209,9910418,9910408,9910210,9910420,9910407],"voronoi":{"pivot":[141.343064,43.045873],"points":[0,0,9320,1696,2215,-3175,-385,-388,-10823,-1188,-141,365]}},
{"code":9910420,"station":"山鼻９条","phonetic":"やまはなくじょう","prefecture":1,"lon":141.349729,"lat":43.048619,"lines":[99104],"next":[9910407,9910406,9910419,9910209,9910421],"voronoi":{"pivot":[141.342498,43.049300],"points":[0,0,89,-1764,477,-1662,9320,1696,-142,2702]}},
{"code":9910421,"station":"東本願寺前","phonetic":"ひがしほんがんじまえ","prefecture":1,"lon":141.349452,"lat":43.051396,"lines":[99104],"next":[9910422,9910405,9910209,9910403,9910406,9910420,9910208],"voronoi":{"pivot":[141.352241,43.050272],"points":[0,0,-9744,-972,-224,902,0,39,1598,2302,7567,972,1638,-1421]}},
{"code":9910422,"station":"資生館小学校前","phonetic":"しせいかんしょうがっこうまえ","prefecture":1,"lon":141.348981,"lat":43.055063,"lines":[99104],"next":[9910402,9910401,9910208,9910424,9910421,9910403],"voronoi":{"pivot":[141.349185,43.058121],"points":[0,0,1255,-1034,570,-1015,428,-2557,-7567,-972,267,943]}},
{"code":9910424,"station":"狸小路","phonetic":"たぬきこうじ","prefecture":1,"lon":141.352927,"lat":43.057279,"lines":[99104],"next":[9910309,9910109,9910110,9910422,9910401,9910208],"voronoi":{"pivot":[141.356700,43.059274],"points":[0,0,-38,72,-2129,-298,-4092,-1961,570,-1015,4391,967]}}
]