[{"code":1190715,"station":"門川","phonetic":"かどがわ","prefecture":45,"lon":131.653972,"lat":32.477381,"lines":[11907],"next":[1190716,1190717,1190712,1190711,1190714,1190718],"voronoi":{"pivot":[131.601406,32.536188],"points":[0,0,-66199,18477,-144585,23724,323079,-163678,71133,-26152,46746,-11386]}},
{"code":1190716,"station":"日向市","phonetic":"ひゅうがし","prefecture":45,"lon":131.627840,"lat":32.425800,"lines":[11907],"next":[1190717,1190715,1190720,1190719,9991909,9992014,1190711],"voronoi":{"pivot":[131.349419,32.589586],"points":[0,0,-76250,-97850,5263,-23606,75497,-25475,97092,-24840,262679,-3103,-323079,163678]}},
{"code":1190717,"station":"財光寺","phonetic":"ざいこうじ","prefecture":45,"lon":131.627602,"lat":32.405654,"lines":[11907],"next":[1190716,1190715,1190718,1190719],"voronoi":{"pivot":[131.451021,32.417814],"points":[0,0,262679,-3103,71133,-26152,-237856,-1209]}},
{"code":1190718,"station":"南日向","phonetic":"みなみひゅうが","prefecture":45,"lon":131.627784,"lat":32.369867,"lines":[11907],"next":[9981508,1190717,1190719,1190722,1190723,1190714,1190715],"voronoi":{"pivot":[132.416445,32.176976],"points":[0,0,160094,-308955,-6966,2647,-475144,199167,-547451,317516,237856,1209,46746,-11386]}},
{"code":1190719,"station":"美々津","phonetic":"みみつ","prefecture":45,"lon":131.602279,"lat":32.325892,"lines":[11907],"next":[1190718,1190720,1190717,1190716,1190722,1190721],"voronoi":{"pivot":[131.792625,32.194699],"points":[0,0,-438696,247956,97092,-24840,95956,-30464,547451,-317516,-135695,49701]}},
{"code":1190720,"station":"東都農","phonetic":"ひがしつの","prefecture":45,"lon":131.582054,"lat":32.290109,"lines":[11907],"next":[1190719,9992014,1190716,1190721],"voronoi":{"pivot":[131.279799,32.373749],"points":[0,0,-1367,94381,75497,-25475,438696,-247956]}},
{"code":1190721,"station":"都農","phonetic":"つの","prefecture":45,"lon":131.568429,"lat":32.251085,"lines":[11907],"next":[1190722,1190719,9992014,1190720],"voronoi":{"pivot":[131.279799,32.373749],"points":[0,0,-4065,-78906,682999,-175307,-166108,75163]}},
{"code":1190722,"station":"川南","phonetic":"かわみなみ","prefecture":45,"lon":131.553321,"lat":32.192224,"lines":[11907],"next":[1190723,1190721,1190718,9992014,1190719,1190724],"voronoi":{"pivot":[132.569573,31.870668],"points":[0,0,-475144,199167,-135695,49701,-682999,175307,-7844,-50429,64229,-27727]}},
{"code":1190723,"station":"高鍋","phonetic":"たかなべ","prefecture":45,"lon":131.533927,"lat":32.122866,"lines":[11907],"next":[1190722,1192810,9981508,1190724,1190718,1192811,1192809],"voronoi":{"pivot":[131.839957,31.891143],"points":[0,0,-507837,325544,1237453,-346019,6966,-2647,97068,-141431,-249688,45576,-235809,46983]}},
{"code":1190724,"station":"日向新富","phonetic":"ひゅうがしんとみ","prefecture":45,"lon":131.501627,"lat":32.072479,"lines":[11907],"next":[1192809,1190723,9992014,1190722,1190725],"voronoi":{"pivot":[131.839957,31.891143],"points":[0,0,-507837,325544,-64229,27727,-30273,-75576,567096,-273235]}}
]