[{"code":1180408,"station":"阿波赤石","phonetic":"あわあかいし","prefecture":36,"lon":134.605830,"lat":33.981729,"lines":[11804],"next":[1180411,1180501,1180410,1180407,1180409,1180406,1180412],"voronoi":{"pivot":[134.704918,34.079179],"points":[0,0,-136384,-107464,-5683,-7213,68461,17757,30644,25524,26151,30568,27930,40686]}},
{"code":1180409,"station":"立江","phonetic":"たつえ","prefecture":36,"lon":134.608785,"lat":33.970336,"lines":[11804],"next":[1180406,1180416,1180408,1180410],"voronoi":{"pivot":[134.585613,33.921302],"points":[0,0,-70140,-3300,47378,46500,68461,17757]}},
{"code":1180410,"station":"羽ノ浦","phonetic":"はのうら","prefecture":36,"lon":134.626183,"lat":33.957293,"lines":[11804],"next":[1180416,1180408,1180411,1180409],"voronoi":{"pivot":[134.585613,33.921302],"points":[0,0,32377,-5053,43966,91534,-30644,-25524]}},
{"code":1180411,"station":"西原(徳島)","phonetic":"にしばら","prefecture":36,"lon":134.644906,"lat":33.948300,"lines":[11804],"next":[1180408,1180416,1180415,1180412,1180410,1180413],"voronoi":{"pivot":[134.623474,33.915763],"points":[0,0,-3487,-371,-1998,857,43966,91534,26151,30568,-37871,-106640]}},
{"code":1180412,"station":"阿波中島","phonetic":"あわなかしま","prefecture":36,"lon":134.664834,"lat":33.941223,"lines":[11804],"next":[1180414,1180413,1180411,1163940,1180501,1163946,1180408],"voronoi":{"pivot":[134.688106,34.038351],"points":[0,0,-37871,-106640,60993,-7023,186528,10639,-4615,76923,-35399,100428,-141706,-33641]}},
{"code":1180413,"station":"阿南","phonetic":"あなん","prefecture":36,"lon":134.662290,"lat":33.919129,"lines":[11804],"next":[1180412,1180414,1180415,1180411],"voronoi":{"pivot":[134.711229,33.924687],"points":[0,0,-62043,-18158,-25711,9233,26761,15948]}},
{"code":1180414,"station":"見能林","phonetic":"みのばやし","prefecture":36,"lon":134.667015,"lat":33.902984,"lines":[11804],"next":[1180419,1180412,1180415,9965005,1163939,1180413,1163940],"voronoi":{"pivot":[134.897756,33.935326],"points":[0,0,-186528,-10639,-62043,-18158,159926,-173393,93657,-55446,6010,180430,-16,334]}},
{"code":1180415,"station":"阿波橘","phonetic":"あわたちばな","prefecture":36,"lon":134.651281,"lat":33.888472,"lines":[11804],"next":[1180414,1180418,1180411,1180416,1180419,1180413],"voronoi":{"pivot":[134.809111,33.733137],"points":[0,0,-32593,17226,-130408,93169,-26123,71860,3487,371,25711,-9233]}},
{"code":1180416,"station":"桑野","phonetic":"くわの","prefecture":36,"lon":134.613287,"lat":33.874660,"lines":[11804],"next":[1180406,1180411,1180410,1180409,1180418,1180415,1180417],"voronoi":{"pivot":[134.496948,33.912028],"points":[0,0,18524,5973,70140,3300,32377,-5053,1998,-857,26123,-71860,-3757,595]}},
{"code":1180417,"station":"新野(徳島)","phonetic":"あらたの","prefecture":36,"lon":134.600283,"lat":33.846813,"lines":[11804],"next":[1180422,1180406,1180421,1180307,1180418,1180416,1180405],"voronoi":{"pivot":[134.434681,33.895578],"points":[0,0,-11780,-9561,70064,-43992,50821,-19525,98567,21626,-145405,67902,-17987,-3382]}},
{"code":1180418,"station":"阿波福井","phonetic":"あわふくい","prefecture":36,"lon":134.605272,"lat":33.824074,"lines":[11804],"next":[1180421,1180415,1180416,1180419,1180420,1180417],"voronoi":{"pivot":[134.543787,33.822501],"points":[0,0,14326,-8925,16658,-6879,201748,-56334,-130408,93169,-3757,595]}},
{"code":1180419,"station":"由岐","phonetic":"ゆき","prefecture":36,"lon":134.591857,"lat":33.776032,"lines":[11804],"next":[1163934,9965005,1180414,1163924,1180420,1180418,1180423,1163933,1180415],"voronoi":{"pivot":[134.902768,33.677690],"points":[0,0,17048,-86369,5470,-80710,4768,-149068,-14371,-70236,-277807,361460,-63106,153929,201748,-56334,32593,-17226]}},
{"code":1180420,"station":"田井ノ浜","phonetic":"たいのはま","prefecture":36,"lon":134.584127,"lat":33.772863,"lines":[11804],"next":[1180421,1180419,1180423,1180418],"voronoi":{"pivot":[134.558113,33.813575],"points":[0,0,56425,-132358,23339,-28450,-63106,153929]}},
{"code":1180421,"station":"木岐","phonetic":"きき","prefecture":36,"lon":134.569473,"lat":33.766616,"lines":[11804],"next":[1180418,1180417,1180422,1180420,1180423],"voronoi":{"pivot":[134.574472,33.722567],"points":[0,0,-81507,119458,50821,-19525,14326,-8925,56425,-132358]}},
{"code":1180422,"station":"北河内(徳島)","phonetic":"きたがわち","prefecture":36,"lon":134.535280,"lat":33.743286,"lines":[11804],"next":[1180417,1180307,1180421,1180423,1180424],"voronoi":{"pivot":[134.422164,33.885757],"points":[0,0,738,260,70064,-43992,81507,-119458,-74059,24167]}},
{"code":1180423,"station":"日和佐","phonetic":"ひわさ","prefecture":36,"lon":134.530603,"lat":33.728954,"lines":[11804],"next":[1180424,1180426,1180422,1180421,1180419,1163924,1180420,1180430],"voronoi":{"pivot":[134.915683,33.291308],"points":[0,0,-277807,361460,-23339,28450,-40065,41350,-74059,24167,75095,-246400,24203,-47931,286454,-377576]}}
]