{
"stations":[
{"code":9992122,"name":"牛ノ浜","lon":130.207038,"lat":31.973962,"lines":[99921],"next":[9992123,9992121,9992119,9992124,9992125]},
{"code":9992123,"name":"薩摩大川","lon":130.219072,"lat":31.949414,"lines":[99921],"next":[9992119,9992124,9992122,9992118,5000683]},
{"code":9992124,"name":"西方","lon":130.223658,"lat":31.916153,"lines":[99921],"next":[5000683,9992123,9992125,5000682,9992122]},
{"code":9992125,"name":"薩摩高城","lon":130.220649,"lat":31.892545,"lines":[99921],"next":[9992121,5000682,9991611,9992124,1193036,9992126,9992122]},
{"code":9992126,"name":"草道","lon":130.233533,"lat":31.854556,"lines":[99921],"next":[1193036,1190404,5000682,1190402,9992127,9992125]},
{"code":9992127,"name":"上川内","lon":130.292406,"lat":31.835370,"lines":[99921],"next":[1190402,1190401,9992126,5000682]},
{"code":1190401,"name":"川内(鹿児島)","lon":130.312130,"lat":31.813726,"lines":[99921,11904,50097,50107],"next":[9992127,5000684,5000685,5000682,1190402]},
{"code":1190402,"name":"隈之城","lon":130.307092,"lat":31.792550,"lines":[11904],"next":[9992127,5000685,9992126,1190404,1190403,1190401]},
{"code":1190403,"name":"木場茶屋","lon":130.308046,"lat":31.766138,"lines":[11904],"next":[1190406,5000685,1190404,1190414,1190405,1190402]},
{"code":1190404,"name":"串木野","lon":130.274531,"lat":31.721605,"lines":[11904],"next":[9992126,1190414,1193036,1190403,1190402]},
{"code":1190414,"name":"神村学園前","lon":130.284129,"lat":31.703731,"lines":[11904],"next":[1190405,1193036,1190404,1190403]},
{"code":1190405,"name":"市来","lon":130.302727,"lat":31.689990,"lines":[11904],"next":[1190414,1190407,1190406,1190403,1193036]},
{"code":1190406,"name":"湯之元","lon":130.336753,"lat":31.673961,"lines":[11904],"next":[5000687,1190408,1190407,1190403,1190405,5000685]},
{"code":1190407,"name":"東市来","lon":130.347609,"lat":31.655164,"lines":[11904],"next":[1190408,1190405,1190406,1193036]},
{"code":1190408,"name":"伊集院","lon":130.395703,"lat":31.630148,"lines":[11904],"next":[1190407,1190406,1193008,1190409,5000687,1193036]},
{"code":1190409,"name":"薩摩松元","lon":130.439002,"lat":31.605318,"lines":[11904],"next":[5000687,1190410,1190408,1193008,1190753]},
{"code":1190410,"name":"上伊集院","lon":130.459468,"lat":31.593837,"lines":[11904],"next":[1190753,1193008,9992503,9992501,1193006,1190409,1190413]},
{"code":5000682,"name":"薩摩白浜","lon":130.322641,"lat":31.855969,"lines":[50097],"next":[5000684,9992126,9992125,1190401,9992124,9992127,5000683]},
{"code":5000683,"name":"楠本","lon":130.336139,"lat":31.860666,"lines":[50097],"next":[5000689,9992124,9992117,5000690,9992118,5000684,5000682,9992123]},
{"code":5000684,"name":"吉野山","lon":130.360024,"lat":31.838032,"lines":[50097],"next":[5000682,5000685,5000689,1190401,5000683,5000686]},
{"code":5000685,"name":"桶脇","lon":130.380832,"lat":31.820081,"lines":[50097],"next":[5000684,1190402,5000687,1190403,1190401,1190406,5000686]},
{"code":5000686,"name":"上桶脇","lon":130.402143,"lat":31.825379,"lines":[50097],"next":[5000689,5000688,5000687,5000684,5000685]},
{"code":5000687,"name":"入来","lon":130.429975,"lat":31.822791,"lines":[50097],"next":[1190753,1190752,1190406,5000685,5000688,1190409,5000686,1190408]},
{"code":5000688,"name":"薩摩山崎","lon":130.450714,"lat":31.858074,"lines":[50097],"next":[1190751,5000687,5000695,1190752,5000686,5000689,5000691]},
{"code":5000689,"name":"船木","lon":130.450769,"lat":31.882194,"lines":[50097],"next":[5000683,5000686,5000690,5000684,5000691,5000688]},
{"code":5000690,"name":"宮之城","lon":130.457101,"lat":31.905442,"lines":[50097],"next":[9992117,5000689,5000691,5000683,5000692]},
{"code":5000691,"name":"佐志","lon":130.483587,"lat":31.918742,"lines":[50097],"next":[5000690,5000693,5000695,5000692,5000689,5000694,5000688]},
{"code":5000692,"name":"薩摩湯田","lon":130.473271,"lat":31.931863,"lines":[50097],"next":[9992117,5000693,5000691,9992116,5000690]},
{"code":5000693,"name":"薩摩鶴田","lon":130.493171,"lat":31.942859,"lines":[50097],"next":[5000694,5000691,5000692,9992116,5000699,5000697]}
],
"voronoi":{
"points":[130.147979,31.500000,130.250000,31.638082,130.315938,31.727327,130.385555,31.846592,130.409279,31.751166,130.282926,31.989500,130.320722,31.961915,130.410365,31.731463,130.420519,31.725103,130.279802,31.897001,130.302779,31.934791,130.307658,31.944681,130.400600,31.698302,130.297454,31.500000,130.384298,31.739327,130.353414,31.781000,130.376388,31.750000,130.491818,31.716434,130.500000,31.728980,130.246966,31.795857,130.250000,31.796898,130.285158,31.808956,130.385762,31.912386,130.483574,31.885745,130.347785,31.802809,130.348613,31.793859,130.277526,31.890655,130.277541,31.889677,130.409343,31.750000,130.336693,31.837331,130.333569,31.830821,130.395640,31.880161,130.407240,31.870233,130.349838,31.500000,130.473518,31.715675,130.127768,31.919878,130.250000,31.979799,130.275873,31.992483,130.467876,31.917006,130.418759,31.853120,130.394271,31.501600,130.500000,31.690071,130.394785,31.501793,130.466821,31.545780,130.419092,31.500571,130.500000,31.508209,130.389410,31.892962,130.283140,32.000000,130.493585,31.546629,130.500000,31.538356,130.250000,31.936732,130.000000,31.709745,130.130542,31.750000,130.235627,31.782405,130.264721,32.000000,130.486415,31.931581,130.500000,31.926182,130.355024,31.967778,130.365314,31.967628,130.247059,31.777158,130.310506,31.729409,130.344017,32.000000,130.000000,31.796532,130.250000,31.881320,130.314388,31.835593,130.374621,31.974080,130.402389,32.000000,130.500000,31.548507,130.000000,31.562673,130.250000,31.696918,130.000000,31.954181,130.208645,32.000000,130.500000,31.870022,130.500000,31.632694,130.250000,31.777265,130.119335,31.917454,130.250000,31.900800,130.250000,31.774945,130.283145,31.750000,130.300084,31.640250,130.340302,31.725625,130.422982,31.500000,130.500000,31.701726,130.500000,31.870996,130.448609,32.000000,130.250000,31.805166,130.391074,31.500000,130.000000,31.897504,130.500000,31.805368,130.191258,31.500000,130.250000,31.575704],
"groups":[
{"lon":130000,"lat":31500,"size":250,"index":[0,1,51,52,68,69,89,90]},
{"lon":130000,"lat":31750,"size":250,"index":[19,20,35,36,35,50,52,53,53,59,62,63,70,71,59,74,75,76,59,77,75,35,19,85,87,75,53,19]},
{"lon":130250,"lat":31500,"size":250,"index":[1,2,7,8,12,8,13,12,14,7,16,14,17,18,28,7,33,34,40,41,42,43,44,45,40,42,48,49,42,44,60,2,48,67,69,60,8,34,43,73,78,60,79,80,44,81,17,82,43,48,2,80,80,14,86,40,79,12,34,17,90,79]},
{"lon":130250,"lat":31750,"size":250,"index":[3,4,5,6,9,10,10,11,15,16,20,21,22,23,24,25,26,27,4,28,10,29,30,24,31,32,36,37,3,31,38,23,32,39,29,46,5,47,30,29,50,11,54,37,55,56,57,58,21,25,24,3,61,57,6,57,63,26,46,31,64,30,22,46,37,5,65,66,27,64,32,72,25,15,26,9,74,15,58,65,76,9,77,78,58,22,65,38,23,83,84,55,4,39,85,27,38,55,21,64,39,88,11,6]}
]
}
}