{
"stations":[
{"code":1141601,"station":"岐阜","phonetic":"ぎふ","prefecture":21,"lon":136.756514,"lat":35.409532,"lines":[11416,11502,11503],"next":[3000157,1150302,3000159,9952608,3000160,3002003,3002002]},
{"code":1141602,"station":"長森","phonetic":"ながもり","prefecture":21,"lon":136.802981,"lat":35.402024,"lines":[11416],"next":[9952509,3001613,3001616,3001617,9952508,1141603,3001614,3001615,3001612]},
{"code":1141603,"station":"那加","phonetic":"なか","prefecture":21,"lon":136.835466,"lat":35.400538,"lines":[11416],"next":[3001611,3001612,9952508,1141602,3001610]},
{"code":3001611,"station":"新那加","phonetic":"しんなか","prefecture":21,"lon":136.833860,"lat":35.400097,"lines":[30016],"next":[1141603,3001612,3001610,3001513]},
{"code":1141604,"station":"蘇原","phonetic":"そはら","prefecture":21,"lon":136.871434,"lat":35.403167,"lines":[11416],"next":[3001606,9952507,3001608,3001607,1141605,3001609]},
{"code":1141605,"station":"各務ヶ原","phonetic":"かがみがはら","prefecture":21,"lon":136.901106,"lat":35.403812,"lines":[11416],"next":[3001604,3001606,9952507,3001605,1141604]},
{"code":3001605,"station":"名電各務原","phonetic":"めいでんかかみがはら","prefecture":21,"lon":136.900981,"lat":35.402518,"lines":[30016],"next":[3001515,3001604,1141605,3001516,3001606]},
{"code":1141606,"station":"鵜沼","phonetic":"うぬま","prefecture":21,"lon":136.945122,"lat":35.397897,"lines":[11416],"next":[3001520,1141607,3001519,3001602,3001703]},
{"code":3001520,"station":"新鵜沼","phonetic":"しんうぬま","prefecture":21,"lon":136.944314,"lat":35.396799,"lines":[30015,30016],"next":[3001519,1141606,3001602]},
{"code":1141607,"station":"坂祝","phonetic":"さかほぎ","prefecture":21,"lon":136.976868,"lat":35.426359,"lines":[11416],"next":[9952502,9952504,3001703,3001602,3001704,9952503,1141606,9952505,3001705]},
{"code":1141101,"station":"名古屋","phonetic":"なごや","prefecture":23,"lon":136.881637,"lat":35.170694,"lines":[11411,11502,11508,99509,99513,99517,50024],"next":[3000136,9951701,3102702,9950902,9951703,9951307,3102701]},
{"code":3000136,"station":"名鉄名古屋","phonetic":"めいてつなごや","prefecture":23,"lon":136.884187,"lat":35.169252,"lines":[30001,30015,30008],"next":[9951608,3102701,1141101,9950902,9951703]},
{"code":3102701,"station":"近鉄名古屋","phonetic":"きんてつなごや","prefecture":23,"lon":136.883855,"lat":35.169191,"lines":[31027],"next":[3000136,9950902,1141101]},
{"code":1141102,"station":"金山(愛知)","phonetic":"かなやま","prefecture":23,"lon":136.900517,"lat":35.142928,"lines":[11411,11502,30001,30008,99514,99515],"next":[9951502,1150230,9951414,1150232,9951412]},
{"code":1141103,"station":"鶴舞","phonetic":"つるまい","prefecture":23,"lon":136.917436,"lat":35.156416,"lines":[11411,99516],"next":[9951311,9951411,1141104,9951709,9951611,9951410,9951412]},
{"code":1141104,"station":"千種","phonetic":"ちくさ","prefecture":23,"lon":136.930665,"lat":35.170168,"lines":[11411,99513],"next":[9951707,9951709,1141103,9951311,9951313]},
{"code":1141105,"station":"大曽根","phonetic":"おおぞね","prefecture":23,"lon":136.937161,"lat":35.191508,"lines":[11411,30012,99514,99523],"next":[9951401,9951707,9951313,3001207,3001205,9951403,3001801]},
{"code":1141106,"station":"新守山","phonetic":"しんもりやま","prefecture":23,"lon":136.951207,"lat":35.207283,"lines":[11411],"next":[3001802,9952306,1141107,3001207,3001801,9952305]},
{"code":1141107,"station":"勝川","phonetic":"かちがわ","prefecture":23,"lon":136.956285,"lat":35.229820,"lines":[11411,99510],"next":[9952307,3001804,9952309,1141106,3001803,3001802,1141108,9952306,9952308]},
{"code":1141108,"station":"春日井(JR)","phonetic":"かすがい","prefecture":23,"lon":136.985307,"lat":35.243139,"lines":[11411],"next":[3001810,3001805,3001809,9952309,3001806,1141109,3001804,3001213,1141107]},
{"code":1150226,"station":"大府","phonetic":"おおぶ","prefecture":23,"lon":136.961727,"lat":35.008665,"lines":[11502,11506],"next":[3000903,3000123,1150602,1150225,1150227,3000904,3000122]},
{"code":1150227,"station":"共和","phonetic":"きょうわ","prefecture":23,"lon":136.954599,"lat":35.035245,"lines":[11502],"next":[3000123,3000811,3000812,1150226,3000124,3000903,3000125,1150241]},
{"code":1150241,"station":"南大高","phonetic":"みなみおおだか","prefecture":23,"lon":136.948244,"lat":35.055403,"lines":[11502],"next":[3000126,1150228,3000810,3000811,3000125,1150227]},
{"code":1150228,"station":"大高","phonetic":"おおだか","prefecture":23,"lon":136.940242,"lat":35.069244,"lines":[11502],"next":[1150241,3000808,3000809,3000127,3000128,3000810,3000126]},
{"code":1150229,"station":"笠寺","phonetic":"かさでら","prefecture":23,"lon":136.926321,"lat":35.095113,"lines":[11502],"next":[3000130,3000807,3000808,3000806,9951417,3000129,3000128]},
{"code":1150230,"station":"熱田","phonetic":"あつた","prefecture":23,"lon":136.910502,"lat":35.130028,"lines":[11502],"next":[9951712,9951414,9951711,9951412,1141102,9951611,3000133,9951415]},
{"code":1150232,"station":"尾頭橋","phonetic":"おとうばし","prefecture":23,"lon":136.891020,"lat":35.146981,"lines":[11502],"next":[9951502,3102703,9950904,9951412,1141102,3000135,9951608]},
{"code":1150234,"station":"枇杷島","phonetic":"びわじま","prefecture":23,"lon":136.861816,"lat":35.198681,"lines":[11502,99510],"next":[3001504,3000140,3000139,3000141,9951002]},
{"code":1150235,"station":"清洲","phonetic":"きよす","prefecture":23,"lon":136.834529,"lat":35.225406,"lines":[11502],"next":[3000145,9951002,3000144,1150236,3001507]},
{"code":1150236,"station":"稲沢","phonetic":"いなざわ","prefecture":23,"lon":136.820942,"lat":35.252994,"lines":[11502],"next":[3000145,3001509,3001507,3001508,3000147,3000146,3000148,3001510,3001511,3000149,1150235]},
{"code":1150237,"station":"尾張一宮","phonetic":"おわりいちのみや","prefecture":23,"lon":136.797567,"lat":35.301765,"lines":[11502],"next":[3001420,3000149,3000151,3001512,3001511,3001513,3000150]},
{"code":3000150,"station":"名鉄一宮","phonetic":"めいてついちのみや","prefecture":23,"lon":136.797225,"lat":35.301540,"lines":[30001,30014],"next":[3001418,3001420,1150237,3000149]},
{"code":1150238,"station":"木曽川","phonetic":"きそがわ","prefecture":23,"lon":136.780726,"lat":35.349319,"lines":[11502],"next":[3000155,3000154,3001612,3001614,3001513,3000152,3001613,3000153]},
{"code":1150302,"station":"西岐阜","phonetic":"にしぎふ","prefecture":21,"lon":136.723410,"lat":35.404664,"lines":[11503],"next":[9952608,1141601,9952606,1150303,3002003]},
{"code":1150303,"station":"穂積","phonetic":"ほづみ","prefecture":21,"lon":136.693834,"lat":35.396345,"lines":[11503],"next":[9952603,9952605,3002003,1150302,3002004,9952604,9952606,3002007]},
{"code":1150304,"station":"大垣","phonetic":"おおがき","prefecture":21,"lon":136.618288,"lat":35.367096,"lines":[11503,99526,99532],"next":[9953221,9953219,9953216,9953217,9953220,9952602]},
{"code":1150305,"station":"荒尾(岐阜)","phonetic":"あらお","prefecture":21,"lon":136.583276,"lat":35.373454,"lines":[11503],"next":[1150306,9953212,9953220,9953217,9953216,1150307]},
{"code":1150306,"station":"美濃赤坂","phonetic":"みのあかさか","prefecture":21,"lon":136.582129,"lat":35.386677,"lines":[11503],"next":[1150305,9953222,9953223,9953224,9953220,9953221,1150307]},
{"code":1150307,"station":"垂井","phonetic":"たるい","prefecture":21,"lon":136.531246,"lat":35.369587,"lines":[11503],"next":[1150308,9953212,9953224,9953226,1150306,1150305,9953225]},
{"code":3000123,"station":"前後","phonetic":"ぜんご","prefecture":23,"lon":136.995665,"lat":35.052270,"lines":[30001],"next":[1150226,1150227,3000122,3000124,9951721]},
{"code":3000124,"station":"中京競馬場前","phonetic":"ちゅうきょうけいばじょうまえ","prefecture":23,"lon":136.981580,"lat":35.061302,"lines":[30001],"next":[9951721,3000125,1150227,3000123,9951720]},
{"code":3000125,"station":"有松","phonetic":"ありまつ","prefecture":23,"lon":136.971084,"lat":35.067687,"lines":[30001],"next":[3000124,1150227,9951719,9951720,1150241,3000126,9951718]},
{"code":3000126,"station":"左京山","phonetic":"さきょうやま","prefecture":23,"lon":136.960301,"lat":35.070553,"lines":[30001],"next":[1150241,9951718,3000127,3000125,1150228]},
{"code":3000127,"station":"鳴海","phonetic":"なるみ","prefecture":23,"lon":136.950096,"lat":35.079149,"lines":[30001],"next":[3000126,9951718,1150228,9951717,3000128]},
{"code":3000128,"station":"本星崎","phonetic":"もとほしざき","prefecture":23,"lon":136.937378,"lat":35.087392,"lines":[30001],"next":[3000808,9951717,1150228,9951716,3000129,3000127,1150229]},
{"code":3000129,"station":"本笠寺","phonetic":"もとかさでら","prefecture":23,"lon":136.933409,"lat":35.099199,"lines":[30001],"next":[3000130,9951716,1150229,3000128]},
{"code":3000130,"station":"桜(愛知)","phonetic":"さくら","prefecture":23,"lon":136.934586,"lat":35.106062,"lines":[30001],"next":[1150229,9951417,3000129,3000131,9951715,9951716]},
{"code":3000131,"station":"呼続","phonetic":"よびつぎ","prefecture":23,"lon":136.930387,"lat":35.114722,"lines":[30001],"next":[9951419,9951417,9951715,3000130,9951418]},
{"code":3000132,"station":"堀田(名古屋鉄道)","phonetic":"ほりた","prefecture":23,"lon":136.919839,"lat":35.120251,"lines":[30001],"next":[9951713,9951416,3000805,9951418,9951417,3000133,9951712]},
{"code":3000133,"station":"神宮前","phonetic":"じんぐうまえ","prefecture":23,"lon":136.912485,"lat":35.125857,"lines":[30001,30008],"next":[9951415,9951416,1150230,3000132,9951712]},
{"code":3000135,"station":"山王(愛知)","phonetic":"さんのう","prefecture":23,"lon":136.888461,"lat":35.152330,"lines":[30001,30008],"next":[9950902,3102703,3102702,1150232,9951608]},
{"code":3000137,"station":"栄生","phonetic":"さこう","prefecture":23,"lon":136.873051,"lat":35.183687,"lines":[30001,30015],"next":[9951306,3000138,9951605,9951604,9951307]},
{"code":3000138,"station":"東枇杷島","phonetic":"ひがしびわじま","prefecture":23,"lon":136.870168,"lat":35.189808,"lines":[30001,30015],"next":[9951306,3000140,3000137,3000139,3001504,9951604]},
{"code":3000139,"station":"西枇杷島","phonetic":"にしびわじま","prefecture":23,"lon":136.865685,"lat":35.195015,"lines":[30001],"next":[3001504,1150234,3000138,3000140]},
{"code":3000140,"station":"二ツ杁","phonetic":"ふたついり","prefecture":23,"lon":136.859583,"lat":35.194646,"lines":[30001],"next":[3000141,3000138,1150234,9951306,3000139,9951305]},
{"code":3000141,"station":"新川橋","phonetic":"しんかわばし","prefecture":23,"lon":136.851989,"lat":35.195701,"lines":[30001],"next":[3000142,3000140,9951304,9951305,9951002,1150234]},
{"code":3000142,"station":"須ヶ口","phonetic":"すかぐち","prefecture":23,"lon":136.846229,"lat":35.198684,"lines":[30001,30013],"next":[3000141,3001302,3000143,9951002,9951304]},
{"code":3000143,"station":"丸ノ内","phonetic":"まるのうち","prefecture":23,"lon":136.841927,"lat":35.204742,"lines":[30001],"next":[3000144,9951002,3000142,3001302]},
{"code":3000144,"station":"新清洲","phonetic":"しんきよす","prefecture":23,"lon":136.835607,"lat":35.211249,"lines":[30001],"next":[3000143,3001302,1150235,9951002,3000145]},
{"code":3000145,"station":"大里","phonetic":"おおさと","prefecture":23,"lon":136.818428,"lat":35.226216,"lines":[30001],"next":[1150236,3001303,1150235,3000146,3001302,3000144]},
{"code":3000146,"station":"奥田","phonetic":"おくだ","prefecture":23,"lon":136.810917,"lat":35.235412,"lines":[30001],"next":[3000145,1150236,3000147,3001304,3001303,3001305]},
{"code":3000147,"station":"国府宮","phonetic":"こうのみや","prefecture":23,"lon":136.802963,"lat":35.254218,"lines":[30001],"next":[3001412,3001415,1150236,3001305,3000146,3000148,3001414]},
{"code":3000148,"station":"島氏永","phonetic":"しまうじなが","prefecture":23,"lon":136.800987,"lat":35.270777,"lines":[30001],"next":[3001416,3000149,1150236,3001415,3000147,3001418,3001417]},
{"code":3000149,"station":"妙興寺","phonetic":"みょうこうじ","prefecture":23,"lon":136.798231,"lat":35.287178,"lines":[30001],"next":[1150237,3000148,1150236,3001511,3000150,3001418]},
{"code":3000151,"station":"今伊勢","phonetic":"いまいせ","prefecture":23,"lon":136.789273,"lat":35.318360,"lines":[30001],"next":[3001420,3001421,3000152,1150237,3001513]},
{"code":3000152,"station":"石刀","phonetic":"いわと","prefecture":23,"lon":136.785407,"lat":35.326204,"lines":[30001],"next":[3000153,3001513,3000151,1150238,3001421]},
{"code":3000153,"station":"新木曽川","phonetic":"しんきそがわ","prefecture":23,"lon":136.779421,"lat":35.342047,"lines":[30001],"next":[3000152,3001421,3001423,3001422,3000154,1150238]},
{"code":3000154,"station":"黒田(愛知)","phonetic":"くろだ","prefecture":23,"lon":136.777502,"lat":35.350213,"lines":[30001],"next":[1150238,3001423,3000155,3000153]},
{"code":3000155,"station":"木曽川堤","phonetic":"きそがわづつみ","prefecture":23,"lon":136.770486,"lat":35.365067,"lines":[30001],"next":[1150238,3002002,3001423,3000156,3001614,3001615,3000154,3000157]},
{"code":3000156,"station":"笠松","phonetic":"かさまつ","prefecture":21,"lon":136.764664,"lat":35.374660,"lines":[30001,30020],"next":[3002002,3000155,3000157]},
{"code":3000157,"station":"岐南","phonetic":"ぎなん","prefecture":21,"lon":136.769165,"lat":35.389716,"lines":[30001],"next":[1141601,3000159,3000156,3002002,3000158,3001615,3001616,3000155]},
{"code":3000158,"station":"茶所","phonetic":"ちゃじょ","prefecture":21,"lon":136.768917,"lat":35.402048,"lines":[30001],"next":[3001616,3000159,3000157,3001617]},
{"code":3000159,"station":"加納(岐阜)","phonetic":"かのう","prefecture":21,"lon":136.765984,"lat":35.405209,"lines":[30001],"next":[3000157,3001617,3000158,1141601,3000160]},
{"code":3000160,"station":"名鉄岐阜","phonetic":"めいてつぎふ","prefecture":21,"lon":136.760066,"lat":35.411136,"lines":[30001,30016],"next":[3001617,9952608,9952609,3000159,1141601]},
{"code":3001504,"station":"下小田井","phonetic":"しもおたい","prefecture":23,"lon":136.870638,"lat":35.201878,"lines":[30015],"next":[3000139,1150234,9951604,3001505,3000138,9951002,9951603]},
{"code":3001505,"station":"中小田井","phonetic":"なかおたい","prefecture":23,"lon":136.876772,"lat":35.214647,"lines":[30015],"next":[9951603,3001506,3001504,9951002,9951602,9951003]},
{"code":3001506,"station":"上小田井","phonetic":"かみおたい","prefecture":23,"lon":136.876941,"lat":35.223482,"lines":[30015,99516],"next":[9951002,3001507,3001505,9951004,9951003]},
{"code":3001507,"station":"西春","phonetic":"にしはる","prefecture":23,"lon":136.871235,"lat":35.244627,"lines":[30015],"next":[9951004,3001506,1150236,3001508,9951002,1150235]},
{"code":3001508,"station":"徳重・名古屋芸大","phonetic":"とくしげ・なごやげいだい","prefecture":23,"lon":136.873384,"lat":35.256045,"lines":[30015],"next":[3001509,3001507,1150236,9951004]},
{"code":3001509,"station":"大山寺","phonetic":"たいさんじ","prefecture":23,"lon":136.874748,"lat":35.263508,"lines":[30015],"next":[9951004,3001807,1150236,3001805,3001508,3001806,3001510]},
{"code":3001510,"station":"岩倉(愛知)","phonetic":"いわくら","prefecture":23,"lon":136.873511,"lat":35.277972,"lines":[30015],"next":[3001511,3001808,3001807,3001509,1150236]},
{"code":3001511,"station":"石仏","phonetic":"いしぼとけ","prefecture":23,"lon":136.871144,"lat":35.295545,"lines":[30015],"next":[3001510,3001808,3001512,1150237,1150236,3000149]},
{"code":3001512,"station":"布袋","phonetic":"ほてい","prefecture":23,"lon":136.872987,"lat":35.317135,"lines":[30015],"next":[3001514,3001511,1150237,3001808,3001513]},
{"code":3001513,"station":"江南(愛知)","phonetic":"こうなん","prefecture":23,"lon":136.872109,"lat":35.334750,"lines":[30015],"next":[3001607,3000152,3001612,3001609,1150237,1150238,3000151,3001512,3001608,3001611,3001610,3001514]},
{"code":3001514,"station":"柏森","phonetic":"かしわもり","prefecture":23,"lon":136.900181,"lat":35.344807,"lines":[30015],"next":[3001811,3001512,3001809,3001515,3001808,3001606,3001810,3001607,3001513]},
{"code":3001515,"station":"扶桑","phonetic":"ふそう","prefecture":23,"lon":136.915970,"lat":35.359557,"lines":[30015],"next":[3001606,3001514,3001605,3001516,3001813,3001811,3001812]},
{"code":3001516,"station":"木津用水","phonetic":"こつようすい","prefecture":23,"lon":136.925977,"lat":35.366914,"lines":[30015],"next":[3001517,3001813,3001515,3001604,3001602,3001603,3001605]},
{"code":3001517,"station":"犬山口","phonetic":"いぬやまぐち","prefecture":23,"lon":136.939945,"lat":35.374212,"lines":[30015],"next":[3001516,3001813,3001602,3001518]},
{"code":3001518,"station":"犬山","phonetic":"いぬやま","prefecture":23,"lon":136.945536,"lat":35.379871,"lines":[30015,30017,30018],"next":[3001519,3001517,3001602,3001813,3001702]},
{"code":3001519,"station":"犬山遊園","phonetic":"いぬやまゆうえん","prefecture":23,"lon":136.946894,"lat":35.390331,"lines":[30015],"next":[3001520,3001703,3001518,3001602,3001702,1141606]},
{"code":3001602,"station":"鵜沼宿","phonetic":"うぬまじゅく","prefecture":21,"lon":136.932567,"lat":35.400015,"lines":[30016],"next":[3001603,1141607,3001519,9952506,3001517,3001520,3001516,1141606,9952505,3001518]},
{"code":3001603,"station":"羽場(岐阜)","phonetic":"はば","prefecture":21,"lon":136.921535,"lat":35.401190,"lines":[30016],"next":[3001602,3001604,9952506,3001516]},
{"code":3001604,"station":"苧ヶ瀬","phonetic":"おがせ","prefecture":21,"lon":136.912266,"lat":35.403273,"lines":[30016],"next":[1141605,3001516,9952506,3001605,3001603,9952507]},
{"code":3001606,"station":"二十軒","phonetic":"にじっけん","prefecture":21,"lon":136.889307,"lat":35.400098,"lines":[30016],"next":[3001515,1141604,1141605,3001607,3001514,3001605]},
{"code":3001607,"station":"三柿野","phonetic":"みかきの","prefecture":21,"lon":136.876084,"lat":35.400156,"lines":[30016],"next":[3001513,3001608,3001606,1141604,3001514]},
{"code":3001608,"station":"六軒(岐阜)","phonetic":"ろっけん","prefecture":21,"lon":136.861554,"lat":35.401050,"lines":[30016],"next":[3001607,3001609,1141604,3001513]},
{"code":3001609,"station":"各務原市役所前","phonetic":"かかみがはらしやくしょまえ","prefecture":21,"lon":136.847067,"lat":35.400869,"lines":[30016],"next":[3001608,3001610,3001513,9952507,1141604,9952508]},
{"code":3001610,"station":"市民公園前","phonetic":"しみんこうえんまえ","prefecture":21,"lon":136.841829,"lat":35.400572,"lines":[30016],"next":[3001609,9952508,3001611,1141603,3001513]},
{"code":3001612,"station":"新加納","phonetic":"しんかのう","prefecture":21,"lon":136.824414,"lat":35.399380,"lines":[30016],"next":[3001613,3001611,1150238,1141603,3001513,1141602]},
{"code":3001613,"station":"高田橋","phonetic":"たかだばし","prefecture":21,"lon":136.811488,"lat":35.398383,"lines":[30016],"next":[3001612,3001614,1141602,1150238]},
{"code":3001614,"station":"手力","phonetic":"てぢから","prefecture":21,"lon":136.804472,"lat":35.398269,"lines":[30016],"next":[3001613,3001615,1150238,3000155,1141602]},
{"code":3001615,"station":"切通","phonetic":"きりどおし","prefecture":21,"lon":136.795640,"lat":35.400257,"lines":[30016],"next":[3001614,3000157,3000155,1141602,3001616]},
{"code":3001616,"station":"細畑","phonetic":"ほそばた","prefecture":21,"lon":136.785141,"lat":35.401637,"lines":[30016],"next":[3000158,1141602,3000157,3001615,3001617]},
{"code":3001617,"station":"田神","phonetic":"たがみ","prefecture":21,"lon":136.772189,"lat":35.411261,"lines":[30016],"next":[9952512,9952509,3000159,3000160,9952610,3000158,9952510,1141602,9952609,9952511,3001616]},
{"code":3001702,"station":"富岡前","phonetic":"とみおかまえ","prefecture":23,"lon":136.962112,"lat":35.379508,"lines":[30017],"next":[3001519,3001813,3001703,3001518]},
{"code":3001703,"station":"善師野","phonetic":"ぜんじの","prefecture":23,"lon":136.980027,"lat":35.389744,"lines":[30017],"next":[3001812,3001704,1141607,3001519,1141110,3001813,3001702,1141606,1150704]},
{"code":3002002,"station":"西笠松","phonetic":"にしかさまつ","prefecture":21,"lon":136.757901,"lat":35.369060,"lines":[30020],"next":[3000156,3001423,3002003,3000155,3000157,1141601]},
{"code":3002003,"station":"柳津(岐阜)","phonetic":"やないづ","prefecture":21,"lon":136.739650,"lat":35.365117,"lines":[30020],"next":[3002004,3002002,3001423,1150303,1150302,1141601]},
{"code":3002004,"station":"南宿","phonetic":"みなみじゅく","prefecture":21,"lon":136.728604,"lat":35.347869,"lines":[30020],"next":[3002003,3001423,3002007,1150303,3002005]},
{"code":3002005,"station":"須賀","phonetic":"すか","prefecture":21,"lon":136.726805,"lat":35.340192,"lines":[30020],"next":[3002006,3002004,3001423,3002007]},
{"code":3002006,"station":"不破一色","phonetic":"ふわいしき","prefecture":21,"lon":136.721897,"lat":35.332959,"lines":[30020],"next":[3001423,3001422,3001415,3002007,3002005,3002009]},
{"code":3002007,"station":"竹鼻","phonetic":"たけはな","prefecture":21,"lon":136.706399,"lat":35.326734,"lines":[30020],"next":[9952603,3002004,3002006,3002008,3002005,3002009,1150303]},
{"code":3002008,"station":"羽島市役所前","phonetic":"はしましやくしょまえ","prefecture":21,"lon":136.700030,"lat":35.321924,"lines":[30020],"next":[3002102,3002009,5000238,9952603,3002007]},
{"code":3002009,"station":"江吉良","phonetic":"えぎら","prefecture":21,"lon":136.699686,"lat":35.315430,"lines":[30020,30021],"next":[3002008,3001413,3002102,3001415,3002006,3002007,3001414]},
{"code":3002102,"station":"新羽島","phonetic":"しんはしま","prefecture":21,"lon":136.686582,"lat":35.315471,"lines":[30021],"next":[3002008,9953209,3001412,3001413,3002009,5000238,3001411]},
{"code":9952503,"station":"加茂野","phonetic":"かもの","prefecture":21,"lon":136.985062,"lat":35.460927,"lines":[99525],"next":[1141609,1141607,9952504,9952502,1141610]},
{"code":9952504,"station":"富加","phonetic":"とみか","prefecture":21,"lon":136.969658,"lat":35.475144,"lines":[99525],"next":[9952511,1141607,9952515,9952513,9952505,9952503,1141610,9952514]},
{"code":9952505,"station":"関富岡","phonetic":"せきとみおか","prefecture":21,"lon":136.944923,"lat":35.478588,"lines":[99525],"next":[9952510,9952504,9952511,1141607,3001602,9952506]},
{"code":9952506,"station":"関口","phonetic":"せきぐち","prefecture":21,"lon":136.928872,"lat":35.479976,"lines":[99525],"next":[9952509,3001602,3001604,3001603,9952505,9952507,9952508,9952510]},
{"code":9952507,"station":"刃物会館前","phonetic":"はものかいかんまえ","prefecture":21,"lon":136.914195,"lat":35.483434,"lines":[99525],"next":[9952508,1141604,1141605,3001604,9952506,3001609]},
{"code":9952508,"station":"関(岐阜)","phonetic":"せき","prefecture":21,"lon":136.912758,"lat":35.490027,"lines":[99525],"next":[9952509,9952507,1141603,3001610,1141602,9952506,3001609]},
{"code":9952509,"station":"関市役所前","phonetic":"せきしやくしょまえ","prefecture":21,"lon":136.912787,"lat":35.499004,"lines":[99525],"next":[9952508,9952510,1141602,3001617,9952506]},
{"code":9952602,"station":"東大垣","phonetic":"ひがしおおがき","prefecture":21,"lon":136.646671,"lat":35.375338,"lines":[99526],"next":[9953221,9952603,9953216,1150304,9952604,5000238]},
{"code":9952603,"station":"横屋","phonetic":"よこや","prefecture":21,"lon":136.659479,"lat":35.386996,"lines":[99526],"next":[1150303,9952602,5000238,3002007,9952604,3002008]},
{"code":9952604,"station":"十九条","phonetic":"じゅうくじょう","prefecture":21,"lon":136.660945,"lat":35.395737,"lines":[99526],"next":[9952603,9952605,1150303,9953221,9952602]},
{"code":9952605,"station":"美江寺","phonetic":"みえじ","prefecture":21,"lon":136.661378,"lat":35.413387,"lines":[99526],"next":[9953221,1150303,9953222,9952606,9952604,9952607]},
{"code":9952606,"station":"北方真桑","phonetic":"きたがたまくわ","prefecture":21,"lon":136.674271,"lat":35.439567,"lines":[99526],"next":[9952605,1150302,1150303,9952607,9952608]},
{"code":9952607,"station":"モレラ岐阜","phonetic":"もれらぎふ","prefecture":21,"lon":136.669729,"lat":35.455112,"lines":[99526],"next":[9952608,9953222,9953223,9952605,9952606]},
{"code":9952608,"station":"糸貫","phonetic":"いとぬき","prefecture":21,"lon":136.669704,"lat":35.462891,"lines":[99526],"next":[9952609,9952607,1150302,3000160,9953227,1141601,9952606,9953223]},
{"code":9952609,"station":"本巣","phonetic":"もとす","prefecture":21,"lon":136.670072,"lat":35.487599,"lines":[99526],"next":[9952611,9952608,9953227,9952610,3001617,3000160]},
{"code":9952610,"station":"織部","phonetic":"おりべ","prefecture":21,"lon":136.667241,"lat":35.499017,"lines":[99526],"next":[9952613,9952513,9952614,3001617,9952512,9952609,9952611]},
{"code":1150808,"station":"桑名","phonetic":"くわな","prefecture":24,"lon":136.683435,"lat":35.067440,"lines":[99532,11508,31027],"next":[3102712,9952901,9952902,9953202]},
{"code":9952901,"station":"西桑名","phonetic":"にしくわな","prefecture":24,"lon":136.684034,"lat":35.065694,"lines":[99529],"next":[9952902,3102711,1150808,9950911,3102714,3000819,3102712,3102710]},
{"code":9953202,"station":"播磨","phonetic":"はりま","prefecture":24,"lon":136.674595,"lat":35.078242,"lines":[99532],"next":[9952904,9952902,9953203,1150807,3102712,1150808,9952903]},
{"code":9953203,"station":"下深谷","phonetic":"しもふかや","prefecture":24,"lon":136.661818,"lat":35.096179,"lines":[99532],"next":[9953202,9953204,1150807,9952904,9952905,9952906]},
{"code":9953204,"station":"下野代","phonetic":"しものしろ","prefecture":24,"lon":136.647235,"lat":35.115899,"lines":[99532],"next":[9952906,3001403,9952908,9953203,9952907,9953205,1150807]},
{"code":9953205,"station":"多度","phonetic":"たど","prefecture":24,"lon":136.640594,"lat":35.133855,"lines":[99532],"next":[9952911,9953206,3001404,9952910,9952908,9953204,3001403,9952909]},
{"code":9953206,"station":"美濃松山","phonetic":"みのまつやま","prefecture":21,"lon":136.632644,"lat":35.160724,"lines":[99532],"next":[9953207,9953205,9952912,3001407,3001404,9952911]},
{"code":9953207,"station":"石津(岐阜)","phonetic":"いしづ","prefecture":21,"lon":136.627765,"lat":35.181032,"lines":[99532],"next":[9953208,9953206,3001407,9952912,3001409]},
{"code":9953208,"station":"美濃山崎","phonetic":"みのやまざき","prefecture":21,"lon":136.621595,"lat":35.198658,"lines":[99532],"next":[9953207,9952912,3001409,3001411,9953209,3001410]},
{"code":9953209,"station":"駒野","phonetic":"こまの","prefecture":21,"lon":136.603389,"lat":35.223850,"lines":[99532],"next":[9952912,9953210,9953213,3002102,5000238,3001411,9953208,9952913]},
{"code":9953210,"station":"美濃津屋","phonetic":"みのつや","prefecture":21,"lon":136.566651,"lat":35.251532,"lines":[99532],"next":[9953211,9953209,9952814,9953213,9952913,9952815]},
{"code":9953211,"station":"養老","phonetic":"ようろう","prefecture":21,"lon":136.556739,"lat":35.286930,"lines":[99532],"next":[9953210,1150309,9953213,1150308,9953212,9952815]},
{"code":9953212,"station":"美濃高田","phonetic":"みのたかだ","prefecture":21,"lon":136.563602,"lat":35.309074,"lines":[99532],"next":[1150305,1150307,1150308,9953216,9953213,9953214,9953211,9953215]},
{"code":9953213,"station":"烏江","phonetic":"からすえ","prefecture":21,"lon":136.592258,"lat":35.305346,"lines":[99532],"next":[9953209,9953211,9953210,9953212,5000238,9953214]},
{"code":9953214,"station":"大外羽","phonetic":"おおとば","prefecture":21,"lon":136.597382,"lat":35.315092,"lines":[99532],"next":[5000238,9953212,9953213,9953215]},
{"code":9953215,"station":"友江","phonetic":"ともえ","prefecture":21,"lon":136.600672,"lat":35.326501,"lines":[99532],"next":[5000238,9953216,9953214,9953212]},
{"code":9953216,"station":"美濃青柳","phonetic":"みのやなぎ","prefecture":21,"lon":136.603797,"lat":35.343591,"lines":[99532],"next":[9952602,1150304,9953215,5000238,9953212,1150305,9953217]},
{"code":9953217,"station":"西大垣","phonetic":"にしおおがき","prefecture":21,"lon":136.603363,"lat":35.360298,"lines":[99532],"next":[9953220,1150305,1150304,9953219,9953216]},
{"code":9953219,"station":"室","phonetic":"むろ","prefecture":21,"lon":136.606209,"lat":35.367272,"lines":[99532],"next":[1150304,9953217,9953220]},
{"code":9953220,"station":"北大垣","phonetic":"きたおおがき","prefecture":21,"lon":136.601979,"lat":35.375349,"lines":[99532],"next":[1150305,1150306,9953217,9953221,1150304,9953219]},
{"code":9953221,"station":"東赤坂","phonetic":"ひがしあかさか","prefecture":21,"lon":136.600971,"lat":35.394140,"lines":[99532],"next":[1150304,9952605,9952602,9953220,1150306,9952604,9953222]},
{"code":9953222,"station":"広神戸","phonetic":"ひろごうど","prefecture":21,"lon":136.602096,"lat":35.419651,"lines":[99532],"next":[1150306,9952607,9953223,9952605,9953221]},
{"code":9953223,"station":"北神戸","phonetic":"きたごうど","prefecture":21,"lon":136.594410,"lat":35.430013,"lines":[99532],"next":[1150306,9953222,9953224,9952607,9953226,9953227,9952608]},
{"code":9953224,"station":"池野","phonetic":"いけの","prefecture":21,"lon":136.578712,"lat":35.436512,"lines":[99532],"next":[1150306,9953226,1150307,9953223,9953225]},
{"code":9953225,"station":"北池野","phonetic":"きたいけの","prefecture":21,"lon":136.573673,"lat":35.443350,"lines":[99532],"next":[9953226,1150307,9953224]},
{"code":9953226,"station":"美濃本郷","phonetic":"みのほんごう","prefecture":21,"lon":136.571826,"lat":35.449874,"lines":[99532],"next":[9953227,1150308,9953224,1150307,9953223,9953225]},
{"code":9953227,"station":"揖斐","phonetic":"いび","prefecture":21,"lon":136.572536,"lat":35.470314,"lines":[99532],"next":[9952617,9953226,9952612,9952609,9952615,9952608,9952613,1141506,9952618,1141508,9953223,9952616,9952619,9952611,1141507,1150308,1150310]},
{"code":1150802,"station":"八田","phonetic":"はった","prefecture":23,"lon":136.852258,"lat":35.148973,"lines":[11508,99513],"next":[9951303,9951301,3102705,3102706]},
{"code":3102705,"station":"近鉄八田","phonetic":"きんてつはった","prefecture":23,"lon":136.854458,"lat":35.149587,"lines":[31027],"next":[9951301,1150802,9951303,9950903,9950904]},
{"code":1150803,"station":"春田","phonetic":"はるた","prefecture":23,"lon":136.813512,"lat":35.143180,"lines":[11508],"next":[3001302,3001303,3102706,1150804,3102707]},
{"code":1150804,"station":"蟹江","phonetic":"かにえ","prefecture":23,"lon":136.793908,"lat":35.142071,"lines":[11508],"next":[3102708,3102707,3001305,1150803,1150805,3001304,3001303]},
{"code":1150805,"station":"永和","phonetic":"えいわ","prefecture":23,"lon":136.764325,"lat":35.132850,"lines":[11508],"next":[3102709,3001305,3102708,3102710,3001306,1150804,3001405]},
{"code":1150806,"station":"弥富","phonetic":"やとみ","prefecture":23,"lon":136.725664,"lat":35.114026,"lines":[11508,30014],"next":[3102712,1150807,3102711,3001403]},
{"code":3102711,"station":"近鉄弥富","phonetic":"きんてつやとみ","prefecture":23,"lon":136.727638,"lat":35.113634,"lines":[31027],"next":[9952901,3001404,1150806,3001403,3102710,3102712]},
{"code":1150807,"station":"長島","phonetic":"ながしま","prefecture":24,"lon":136.695751,"lat":35.098196,"lines":[11508],"next":[3102712,9953203,1150806,9953202,3001403,9953204]},
{"code":3102712,"station":"近鉄長島","phonetic":"きんてつながしま","prefecture":24,"lon":136.696162,"lat":35.097721,"lines":[31027],"next":[1150808,1150806,1150807,9953202,9952901,3102711]},
{"code":1150809,"station":"朝日","phonetic":"あさひ","prefecture":24,"lon":136.658030,"lat":35.033782,"lines":[11508],"next":[3102715,3102716,9952904,9952802,9952905]},
{"code":1150810,"station":"富田(三重)","phonetic":"とみだ","prefecture":24,"lon":136.653143,"lat":35.008124,"lines":[11508],"next":[3102717,1150811,3102716,9952802]},
{"code":3000805,"station":"豊田本町","phonetic":"とよだほんまち","prefecture":23,"lon":136.910877,"lat":35.113586,"lines":[30008],"next":[9951504,3000132,9951417,3000806,9951416]},
{"code":3000806,"station":"道徳","phonetic":"どうとく","prefecture":23,"lon":136.909409,"lat":35.105712,"lines":[30008],"next":[3001102,3000807,9951417,9951504,1150229,9951505,3000805]},
{"code":3000807,"station":"大江(愛知)","phonetic":"おおえ","prefecture":23,"lon":136.912758,"lat":35.093258,"lines":[30008,30011],"next":[3000806,3001102,1150229,3000808]},
{"code":3000808,"station":"大同町","phonetic":"だいどうちょう","prefecture":23,"lon":136.909314,"lat":35.080268,"lines":[30008],"next":[1150228,3000128,1150229,3000809,3001102,3000807]},
{"code":3000809,"station":"柴田","phonetic":"しばた","prefecture":23,"lon":136.909126,"lat":35.072774,"lines":[30008],"next":[3000810,9951507,9950910,1150228,3001102,3000808,3000811]},
{"code":3000810,"station":"名和(愛知)","phonetic":"なわ","prefecture":23,"lon":136.911709,"lat":35.060914,"lines":[30008],"next":[3000809,1150241,3000811,1150228]},
{"code":3000811,"station":"聚楽園","phonetic":"しゅうらくえん","prefecture":23,"lon":136.903040,"lat":35.042857,"lines":[30008],"next":[3000812,9950910,1150227,9950911,1150241,3000810,3000809]},
{"code":3000812,"station":"新日鉄前","phonetic":"しんにってつまえ","prefecture":23,"lon":136.899491,"lat":35.035161,"lines":[30008],"next":[3000811,3000902,3000813,1150227,9950911,3000903]},
{"code":3000813,"station":"太田川","phonetic":"おおたがわ","prefecture":23,"lon":136.892504,"lat":35.020221,"lines":[30008,30009],"next":[3000902,3000814,3000812,9950911]},
{"code":3000814,"station":"尾張横須賀","phonetic":"おわりよこすか","prefecture":23,"lon":136.885655,"lat":35.010132,"lines":[30008],"next":[3000813,3000815,3000902,9950911]},
{"code":3000815,"station":"寺本","phonetic":"てらもと","prefecture":23,"lon":136.875498,"lat":35.000191,"lines":[30008],"next":[3000904,3000816,9950911,3000814,3000902,3000903]},
{"code":3000902,"station":"高横須賀","phonetic":"たかよこすか","prefecture":23,"lon":136.893696,"lat":35.009608,"lines":[30009],"next":[3000813,3000903,3000812,3000815,3000814]},
{"code":3001102,"station":"東名古屋港","phonetic":"ひがしなごやこう","prefecture":23,"lon":136.899255,"lat":35.089091,"lines":[30011],"next":[9951507,3000806,9951505,3000807,3000809,9951506,3000808]},
{"code":3001201,"station":"栄町(愛知)","phonetic":"さかえまち","prefecture":23,"lon":136.908962,"lat":35.170567,"lines":[30012],"next":[9951310,9951410,9951408,9951311,9951706]},
{"code":9951310,"station":"栄(愛知)","phonetic":"さかえ","prefecture":23,"lon":136.908031,"lat":35.169990,"lines":[99513,99514],"next":[3001201,9951410,9951606,9951309,9951408]},
{"code":3001202,"station":"東大手","phonetic":"ひがしおおて","prefecture":23,"lon":136.908376,"lat":35.183727,"lines":[30012],"next":[9951408,9951407,3001203,9951406,9951706]},
{"code":3001203,"station":"清水(愛知)","phonetic":"しみず","prefecture":23,"lon":136.913814,"lat":35.187152,"lines":[30012],"next":[9951404,9951706,3001202,9951406,9951405,3001204]},
{"code":3001204,"station":"尼ヶ坂","phonetic":"あまがさか","prefecture":23,"lon":136.919280,"lat":35.187957,"lines":[30012],"next":[9951707,9951404,9951706,3001203,3001205]},
{"code":3001205,"station":"森下(愛知)","phonetic":"もりした","prefecture":23,"lon":136.929657,"lat":35.188299,"lines":[30012],"next":[9951707,9951404,1141105,9951403,3001204]},
{"code":3001207,"station":"矢田(愛知)","phonetic":"やだ","prefecture":23,"lon":136.947802,"lat":35.193699,"lines":[30012],"next":[9952304,1141106,1141105,3001801,9951428,9951401,9952305]},
{"code":3001208,"station":"守山自衛隊前","phonetic":"もりやまじえいたいまえ","prefecture":23,"lon":136.957843,"lat":35.196258,"lines":[30012],"next":[9951427,9951428,9952305,9952304,3001209]},
{"code":9952304,"station":"守山(愛知)","phonetic":"もりやま","prefecture":23,"lon":136.956639,"lat":35.197431,"lines":[99523],"next":[9952305,9951428,3001207,3001208]},
{"code":3001209,"station":"瓢箪山(愛知)","phonetic":"ひょうたんやま","prefecture":23,"lon":136.965048,"lat":35.197222,"lines":[30012],"next":[9952306,3001210,9951427,3001208,9952305]},
{"code":3001210,"station":"小幡","phonetic":"おばた","prefecture":23,"lon":136.975769,"lat":35.200216,"lines":[30012],"next":[9952308,3001211,3001209,9951426,9951319,9951427,9952307,9952306]},
{"code":3001211,"station":"喜多山(愛知)","phonetic":"きたやま","prefecture":23,"lon":136.987735,"lat":35.205099,"lines":[30012],"next":[3001210,3001212,9951319,9952309,9952308,9951320]},
{"code":3001212,"station":"大森・金城学院前","phonetic":"おおもり・きんじょうがくいんまえ","prefecture":23,"lon":136.996465,"lat":35.206934,"lines":[30012],"next":[9951321,3001211,9951320,9952309,9951201,3001213]},
{"code":3001302,"station":"甚目寺","phonetic":"じもくじ","prefecture":23,"lon":136.825492,"lat":35.195953,"lines":[30013],"next":[3000144,3000142,1150803,9951304,3000145,3102706,3000143,3001303]},
{"code":3001303,"station":"七宝","phonetic":"しっぽう","prefecture":23,"lon":136.806413,"lat":35.195775,"lines":[30013],"next":[3000145,1150803,3001304,3000146,1150804,3001302]},
{"code":3001304,"station":"木田","phonetic":"きだ","prefecture":23,"lon":136.787865,"lat":35.195328,"lines":[30013],"next":[3001303,3000146,3001305,1150804]},
{"code":3001305,"station":"青塚","phonetic":"あおつか","prefecture":23,"lon":136.767080,"lat":35.198674,"lines":[30013],"next":[3001410,3001306,1150805,3000147,1150804,3001411,3001304,3001412,3000146]},
{"code":3001306,"station":"勝幡","phonetic":"しょばた","prefecture":23,"lon":136.750082,"lat":35.195143,"lines":[30013],"next":[3001410,3001405,3001408,3001305,3001307,1150805,3001308,3001409]},
{"code":3001307,"station":"藤浪","phonetic":"ふじなみ","prefecture":23,"lon":136.738766,"lat":35.188911,"lines":[30013],"next":[3001408,3001407,3001308,3001306]},
{"code":3001308,"station":"津島","phonetic":"つしま","prefecture":23,"lon":136.730995,"lat":35.177982,"lines":[30013,30014],"next":[3001407,3001307,3001306,3001405]},
{"code":3001403,"station":"五ノ三","phonetic":"ごのさん","prefecture":23,"lon":136.711464,"lat":35.129838,"lines":[30014],"next":[9953204,3001404,3102711,1150807,9953205,1150806]},
{"code":3001404,"station":"佐屋","phonetic":"さや","prefecture":23,"lon":136.716612,"lat":35.147552,"lines":[30014],"next":[3001407,3102710,3001405,9953205,3001403,3102711,9953206]},
{"code":3001405,"station":"日比野(名古屋鉄道)","phonetic":"ひびの","prefecture":23,"lon":136.728351,"lat":35.163258,"lines":[30014],"next":[3001407,3001306,3001404,3102710,3001308,1150805]},
{"code":3001407,"station":"町方","phonetic":"まちかた","prefecture":23,"lon":136.727551,"lat":35.188980,"lines":[30014],"next":[3001308,3001404,9953207,3001405,3001307,3001408,9953206,3001409]},
{"code":3001408,"station":"六輪","phonetic":"ろくわ","prefecture":23,"lon":136.729306,"lat":35.202395,"lines":[30014],"next":[3001409,3001307,3001306,3001407]},
{"code":3001409,"station":"渕高","phonetic":"ふちだか","prefecture":23,"lon":136.727256,"lat":35.213944,"lines":[30014],"next":[3001408,9953208,3001410,9953207,3001407,3001306]},
{"code":3001410,"station":"丸渕","phonetic":"まるぶち","prefecture":23,"lon":136.728991,"lat":35.222635,"lines":[30014],"next":[3001306,3001305,3001409,3001411,9953208]},
{"code":3001411,"station":"上丸渕","phonetic":"かみまるぶち","prefecture":23,"lon":136.732521,"lat":35.233809,"lines":[30014],"next":[3001412,9953209,9953208,3001305,3001410,3002102]},
{"code":3001412,"station":"森上","phonetic":"もりかみ","prefecture":23,"lon":136.736698,"lat":35.247229,"lines":[30014],"next":[3001411,3000147,3002102,3001414,3001413,3001305]},
{"code":3001413,"station":"山崎(愛知)","phonetic":"やまざき","prefecture":23,"lon":136.739372,"lat":35.256548,"lines":[30014],"next":[3001414,3002009,3002102,3001412]},
{"code":3001414,"station":"玉野","phonetic":"たまの","prefecture":23,"lon":136.747982,"lat":35.266327,"lines":[30014],"next":[3001413,3001412,3000147,3002009,3001415]},
{"code":3001415,"station":"萩原(愛知)","phonetic":"はぎわら","prefecture":23,"lon":136.757703,"lat":35.277157,"lines":[30014],"next":[3000147,3001416,3001422,3000148,3002006,3002009,3001414]},
{"code":3001416,"station":"二子","phonetic":"ふたご","prefecture":23,"lon":136.766268,"lat":35.283986,"lines":[30014],"next":[3000148,3001421,3001415,3001422,3001417]},
{"code":3001417,"station":"苅安賀","phonetic":"かりやすか","prefecture":23,"lon":136.778275,"lat":35.287194,"lines":[30014],"next":[3001420,3001421,3001418,3001416,3000148]},
{"code":3001418,"station":"観音寺(愛知)","phonetic":"かんのんじ","prefecture":23,"lon":136.786191,"lat":35.289716,"lines":[30014],"next":[3000150,3000148,3001417,3001420,3000149]},
{"code":3001420,"station":"西一宮","phonetic":"にしいちのみや","prefecture":23,"lon":136.791948,"lat":35.307603,"lines":[30014],"next":[3001421,1150237,3001417,3000151,3000150,3001418]},
{"code":3001421,"station":"開明","phonetic":"かいめい","prefecture":23,"lon":136.774100,"lat":35.319260,"lines":[30014],"next":[3001420,3000153,3001416,3001422,3001417,3000151,3000152]},
{"code":3001422,"station":"奥町","phonetic":"おくちょう","prefecture":23,"lon":136.761092,"lat":35.324340,"lines":[30014],"next":[3002006,3001421,3001415,3000153,3001416,3001423]},
{"code":3001423,"station":"玉ノ井","phonetic":"たまのい","prefecture":23,"lon":136.757968,"lat":35.334887,"lines":[30014],"next":[3002002,3002006,3000155,3000154,3002003,3000153,3002004,3002005,3001422]},
{"code":3001801,"station":"上飯田","phonetic":"かみいいだ","prefecture":23,"lon":136.929642,"lat":35.203845,"lines":[30018,99518],"next":[9951403,1141106,3001802,1141105,3001207,9951005,9951004,9951405,9951404]},
{"code":3001802,"station":"味鋺","phonetic":"あじま","prefecture":23,"lon":136.936113,"lat":35.222478,"lines":[30018],"next":[1141106,3001801,9951005,1141107,3001803]},
{"code":3001803,"station":"味美(名古屋鉄道)","phonetic":"あじよし","prefecture":23,"lon":136.937134,"lat":35.235209,"lines":[30018],"next":[1141107,3001804,9951005,3001802]},
{"code":3001804,"station":"春日井(名古屋鉄道)","phonetic":"かすがい","prefecture":23,"lon":136.936228,"lat":35.250350,"lines":[30018],"next":[1141107,3001805,3001803,9951005,1141108,9951004]},
{"code":3001805,"station":"牛山","phonetic":"うしやま","prefecture":23,"lon":136.931356,"lat":35.264014,"lines":[30018],"next":[3001509,1141108,3001804,3001806,9951004]},
{"code":3001806,"station":"間内","phonetic":"まない","prefecture":23,"lon":136.931200,"lat":35.271585,"lines":[30018],"next":[3001809,3001509,3001805,3001807,1141108,3001808]},
{"code":3001807,"station":"小牧口","phonetic":"こまきぐち","prefecture":23,"lon":136.927675,"lat":35.281717,"lines":[30018],"next":[3001509,3001510,3001808,3001806]},
{"code":3001808,"station":"小牧","phonetic":"こまき","prefecture":23,"lon":136.928461,"lat":35.289150,"lines":[30018],"next":[3001511,3001510,3001809,3001514,3001807,3001512,3001806]},
{"code":3001809,"station":"小牧原","phonetic":"こまきはら","prefecture":23,"lon":136.935836,"lat":35.300145,"lines":[30018],"next":[3001810,3001514,3001806,3001808,1141108]},
{"code":3001810,"station":"味岡","phonetic":"あじおか","prefecture":23,"lon":136.940304,"lat":35.309301,"lines":[30018],"next":[3001809,1141108,3001811,3001514,1141109]},
{"code":3001811,"station":"田県神社前","phonetic":"たがたじんじゃまえ","prefecture":23,"lon":136.943675,"lat":35.317422,"lines":[30018],"next":[3001514,3001810,3001812,3001515,1141109]},
{"code":3001812,"station":"楽田","phonetic":"がくでん","prefecture":23,"lon":136.950101,"lat":35.330548,"lines":[30018],"next":[3001703,1141109,3001813,3001811,1141110,3001515]},
{"code":3001813,"station":"羽黒(愛知)","phonetic":"はぐろ","prefecture":23,"lon":136.952486,"lat":35.351519,"lines":[30018],"next":[3001517,3001516,3001703,3001702,3001812,3001515,3001518]},
{"code":3102702,"station":"米野","phonetic":"こめの","prefecture":23,"lon":136.879793,"lat":35.161354,"lines":[31027],"next":[1141101,9950902,3000135,3102703,9951701]},
{"code":9950902,"station":"ささしまライブ","phonetic":"ささしまらいぶ","prefecture":23,"lon":136.881815,"lat":35.161745,"lines":[99509],"next":[3000136,9951608,3000135,3102702,3102701,1141101]},
{"code":3102703,"station":"黄金(愛知)","phonetic":"こがね","prefecture":23,"lon":136.870621,"lat":35.156185,"lines":[31027],"next":[1150232,3102704,3000135,9951304,9951305,3102702,9950904,9951701]},
{"code":3102704,"station":"烏森","phonetic":"かすもり","prefecture":23,"lon":136.863895,"lat":35.152935,"lines":[31027],"next":[9951304,9950903,9950904,3102703,9951303]},
{"code":3102706,"station":"伏屋","phonetic":"ふしや","prefecture":23,"lon":136.827841,"lat":35.140183,"lines":[31027],"next":[9950906,9951301,9951303,1150803,3102707,9950907,9951304,3001302,1150802,9950908]},
{"code":3102707,"station":"戸田(愛知)","phonetic":"とだ","prefecture":23,"lon":136.807624,"lat":35.132731,"lines":[31027],"next":[9950908,3102708,9950910,1150804,3102706,1150803]},
{"code":3102708,"station":"近鉄蟹江","phonetic":"きんてつかにえ","prefecture":23,"lon":136.794139,"lat":35.129739,"lines":[31027],"next":[3102707,9950911,9950910,1150804,1150805,3102709]},
{"code":3102709,"station":"富吉","phonetic":"とみよし","prefecture":23,"lon":136.769298,"lat":35.123634,"lines":[31027],"next":[1150805,9950911,3102710,3102708]},
{"code":3102710,"station":"佐古木","phonetic":"さこぎ","prefecture":23,"lon":136.752583,"lat":35.119574,"lines":[31027],"next":[3001404,9950911,3102709,1150805,3102711,3001405,9952901]},
{"code":3102714,"station":"益生","phonetic":"ますお","prefecture":24,"lon":136.678540,"lat":35.057772,"lines":[31027],"next":[9952902,3000819,9952901,9952903,3102715]},
{"code":3102715,"station":"伊勢朝日","phonetic":"いせあさひ","prefecture":24,"lon":136.668821,"lat":35.038246,"lines":[31027],"next":[1150809,9952903,3102716,3000819,9952904,3102714]},
{"code":3102716,"station":"川越富洲原","phonetic":"かわごえとみすはら","prefecture":24,"lon":136.659736,"lat":35.016267,"lines":[31027],"next":[3000819,1150809,3102715,1150810,9952802,1150811,3000820]},
{"code":3102717,"station":"近鉄富田","phonetic":"きんてつとみだ","prefecture":24,"lon":136.649340,"lat":35.006491,"lines":[31027,99528],"next":[1150810,9952802,3102718,1150811]},
{"code":9950903,"station":"小本","phonetic":"こもと","prefecture":23,"lon":136.861331,"lat":35.149210,"lines":[99509],"next":[3102704,9950904,3102705,9951303]},
{"code":9950904,"station":"荒子","phonetic":"あらこ","prefecture":23,"lon":136.861676,"lat":35.139992,"lines":[99509],"next":[9950905,9951503,9951502,3102704,9951301,9950903,1150232,3102703,3102705]},
{"code":9950905,"station":"南荒子","phonetic":"みなみあらこ","prefecture":23,"lon":136.861771,"lat":35.131707,"lines":[99509],"next":[9950904,9951503,9950906,9951301]},
{"code":9950906,"station":"中島(愛知)","phonetic":"なかじま","prefecture":23,"lon":136.861346,"lat":35.125144,"lines":[99509],"next":[3102706,9950907,9950905,9951301,9951503]},
{"code":9950907,"station":"名古屋競馬場前","phonetic":"なごやけいばじょうまえ","prefecture":23,"lon":136.862739,"lat":35.114529,"lines":[99509],"next":[9951503,9950906,9951504,9950908,9951505,3102706]},
{"code":9950908,"station":"荒子川公園","phonetic":"あらこがわこうえん","prefecture":23,"lon":136.861148,"lat":35.104569,"lines":[99509],"next":[9950910,3102707,9951506,9951505,9950907,9950909,3102706]},
{"code":9950909,"station":"稲永","phonetic":"いなえい","prefecture":23,"lon":136.863203,"lat":35.091418,"lines":[99509],"next":[9951506,9950910,9951507,9950908]},
{"code":9950910,"station":"野跡","phonetic":"のせき","prefecture":23,"lon":136.854136,"lat":35.075253,"lines":[99509],"next":[9950908,3102708,3000811,3000809,3102707,9950911,9950909,9951507]},
{"code":9950911,"station":"金城ふ頭","phonetic":"きんじょうふとう","prefecture":23,"lon":136.849009,"lat":35.048775,"lines":[99509],"next":[3102709,3102708,3102710,3000811,3000815,9950910,3000813,9952901,3000812,3000818,3000819,3000814,3000817,3000816]},
{"code":9951002,"station":"尾張星の宮","phonetic":"おわりほしのみや","prefecture":23,"lon":136.855011,"lat":35.212988,"lines":[99510],"next":[3001506,3000143,3001507,3000142,3001505,1150235,3000144,3001504,3000141,1150234]},
{"code":9951003,"station":"小田井","phonetic":"おたい","prefecture":23,"lon":136.880491,"lat":35.221043,"lines":[99510],"next":[9951004,3001505,3001506,9951602]},
{"code":9951004,"station":"比良(愛知)","phonetic":"ひら","prefecture":23,"lon":136.901780,"lat":35.228549,"lines":[99510],"next":[3001509,9951405,3001507,9951003,3001506,9951005,3001801,3001508,9951603,3001805,9951602,3001804]},
{"code":9951005,"station":"味美(東海交通事業)","phonetic":"あじよし","prefecture":23,"lon":136.932263,"lat":35.229504,"lines":[99510],"next":[3001802,9951004,3001804,3001801,3001803]},
{"code":9951301,"station":"高畑","phonetic":"たかばた","prefecture":23,"lon":136.853466,"lat":35.139161,"lines":[99513],"next":[3102706,3102705,9950905,1150802,9950906,9950904]},
{"code":9951303,"station":"岩塚","phonetic":"いわつか","prefecture":23,"lon":136.854406,"lat":35.158459,"lines":[99513],"next":[1150802,9951304,3102706,3102705,9950903,3102704]},
{"code":9951304,"station":"中村公園","phonetic":"なかむらこうえん","prefecture":23,"lon":136.855056,"lat":35.167830,"lines":[99513],"next":[3102704,9951303,3000141,3001302,3000142,3102703,3102706,9951305]},
{"code":9951305,"station":"中村日赤","phonetic":"なかむらにっせき","prefecture":23,"lon":136.861733,"lat":35.172385,"lines":[99513],"next":[9951701,3000141,3102703,9951306,9951304,3000140]},
{"code":9951306,"station":"本陣","phonetic":"ほんじん","prefecture":23,"lon":136.866782,"lat":35.177135,"lines":[99513],"next":[3000137,3000138,3000140,9951305,9951701,9951307]},
{"code":9951307,"station":"亀島","phonetic":"かめじま","prefecture":23,"lon":136.876756,"lat":35.177526,"lines":[99513],"next":[9951605,9951703,9951701,1141101,9951306,3000137]},
{"code":9951309,"station":"伏見(愛知)","phonetic":"ふしみ","prefecture":23,"lon":136.897427,"lat":35.169273,"lines":[99513,99516],"next":[9951606,9951410,9951608,9951310,9951703]},
{"code":9951311,"station":"新栄町(愛知)","phonetic":"しんさかえまち","prefecture":23,"lon":136.920377,"lat":35.170729,"lines":[99513],"next":[9951706,9951707,9951410,1141103,3001201,1141104]},
{"code":9951313,"station":"今池(愛知)","phonetic":"いまいけ","prefecture":23,"lon":136.937331,"lat":35.169919,"lines":[99513,99517],"next":[1141105,9951707,9951401,9951314,9951709,1141104]},
{"code":9951314,"station":"池下","phonetic":"いけした","prefecture":23,"lon":136.946486,"lat":35.167675,"lines":[99513],"next":[9951428,9951401,9951313,9951315,9951709,9951613]},
{"code":9951315,"station":"覚王山","phonetic":"かくおうざん","prefecture":23,"lon":136.953708,"lat":35.166565,"lines":[99513],"next":[9951426,9951316,9951428,9951613,9951314,9951427]},
{"code":9951316,"station":"本山(愛知)","phonetic":"もとやま","prefecture":23,"lon":136.963441,"lat":35.163923,"lines":[99513,99514],"next":[9951424,9951613,9951426,9951315,9951317]},
{"code":9951317,"station":"東山公園(愛知)","phonetic":"ひがしやまこうえん","prefecture":23,"lon":136.972873,"lat":35.160454,"lines":[99513],"next":[9951426,9951616,9951318,9951424,9951316]},
{"code":9951318,"station":"星ヶ丘(愛知)","phonetic":"ほしがおか","prefecture":23,"lon":136.985095,"lat":35.162399,"lines":[99513],"next":[9951617,9951616,9951618,9951317,9951319,9951426]},
{"code":9951319,"station":"一社","phonetic":"いっしゃ","prefecture":23,"lon":136.995927,"lat":35.168231,"lines":[99513],"next":[9951320,9951619,3001211,3001210,9951318,9951426,9951618]},
{"code":9951401,"station":"ナゴヤドーム前矢田","phonetic":"なごやどーむまえやだ","prefecture":23,"lon":136.945255,"lat":35.190691,"lines":[99514,99523],"next":[9951314,1141105,9951313,9951428,3001207]},
{"code":9951403,"station":"平安通","phonetic":"へいあんどおり","prefecture":23,"lon":136.929784,"lat":35.195934,"lines":[99514,99518],"next":[3001801,9951404,1141105,3001205]},
{"code":9951404,"station":"志賀本通","phonetic":"しがほんどおり","prefecture":23,"lon":136.921210,"lat":35.196281,"lines":[99514],"next":[3001204,3001203,3001205,9951403,3001801,9951405]},
{"code":9951405,"station":"黒川(愛知)","phonetic":"くろかわ","prefecture":23,"lon":136.910178,"lat":35.197183,"lines":[99514],"next":[9951004,9951603,9951406,3001801,3001203,9951404]},
{"code":9951406,"station":"名城公園","phonetic":"めいじょうこうえん","prefecture":23,"lon":136.904748,"lat":35.190528,"lines":[99514],"next":[9951605,9951604,9951603,3001202,9951405,3001203,9951407]},
{"code":9951407,"station":"市役所","phonetic":"しやくしょ","prefecture":23,"lon":136.905379,"lat":35.181560,"lines":[99514],"next":[3001202,9951606,9951408,9951406,9951605]},
{"code":9951408,"station":"久屋大通","phonetic":"ひさやおおどおり","prefecture":23,"lon":136.908156,"lat":35.173784,"lines":[99514,99517],"next":[9951706,3001202,9951606,3001201,9951407,9951310]},
{"code":9951410,"station":"矢場町","phonetic":"やばちょう","prefecture":23,"lon":136.908990,"lat":35.163785,"lines":[99514],"next":[9951608,9951310,9951311,3001201,9951411,9951309,1141103]},
{"code":9951411,"station":"上前津","phonetic":"かみまえづ","prefecture":23,"lon":136.906815,"lat":35.157477,"lines":[99514,99516],"next":[9951412,9951410,9951608,1141103]},
{"code":9951412,"station":"東別院","phonetic":"ひがしべついん","prefecture":23,"lon":136.904824,"lat":35.150453,"lines":[99514],"next":[9951411,1150230,9951608,9951611,1150232,1141103,1141102]},
{"code":9951414,"station":"西高蔵","phonetic":"にしたかくら","prefecture":23,"lon":136.901769,"lat":35.134622,"lines":[99514],"next":[9951415,1150230,1141102,9951502]},
{"code":9951415,"station":"神宮西","phonetic":"じんぐうにし","prefecture":23,"lon":136.906769,"lat":35.127956,"lines":[99514],"next":[9951414,3000133,9951502,9951503,9951416,1150230]},
{"code":9951416,"station":"伝馬町","phonetic":"てんまちょう","prefecture":23,"lon":136.910380,"lat":35.120735,"lines":[99514],"next":[9951504,9951503,3000132,3000133,9951415,3000805]},
{"code":9951417,"station":"堀田(名古屋市交通局)","phonetic":"ほりた","prefecture":23,"lon":136.921685,"lat":35.116644,"lines":[99514],"next":[3000806,3000130,3000131,1150229,3000132,3000805,9951418]},
{"code":9951418,"station":"妙音通","phonetic":"みょうおんどおり","prefecture":23,"lon":136.929545,"lat":35.117125,"lines":[99514],"next":[9951419,9951713,3000132,3000131,9951417]},
{"code":9951419,"station":"新瑞橋","phonetic":"あらたまばし","prefecture":23,"lon":136.936603,"lat":35.117734,"lines":[99514,99517],"next":[9951716,9951715,9951713,3000131,9951418,9951420]},
{"code":9951420,"station":"瑞穂運動場東","phonetic":"みずほうんどうじょうひがし","prefecture":23,"lon":136.948685,"lat":35.123167,"lines":[99514],"next":[9951421,9951716,9951713,9951717,9951419,9951718,9951712]},
{"code":9951421,"station":"総合リハビリセンター","phonetic":"そうごうりはびりせんたー","prefecture":23,"lon":136.954523,"lat":35.130536,"lines":[99514],"next":[9951420,9951614,9951422,9951718,9951616,9951613,9951712,9951711]},
{"code":9951422,"station":"八事","phonetic":"やごと","prefecture":23,"lon":136.964036,"lat":35.136946,"lines":[99514,99516],"next":[9951614,9951421,9951423,9951616]},
{"code":9951423,"station":"八事日赤","phonetic":"やごとにっせき","prefecture":23,"lon":136.965008,"lat":35.144556,"lines":[99514],"next":[9951614,9951616,9951422,9951424]},
{"code":9951424,"station":"名古屋大学","phonetic":"なごやだいがく","prefecture":23,"lon":136.966580,"lat":35.154261,"lines":[99514],"next":[9951316,9951616,9951614,9951613,9951423,9951317]},
{"code":9951426,"station":"自由ヶ丘","phonetic":"じゆうがおか","prefecture":23,"lon":136.966762,"lat":35.174961,"lines":[99514],"next":[9951317,9951315,9951316,3001210,9951427,9951319,9951318]},
{"code":9951427,"station":"茶屋ヶ坂","phonetic":"ちゃやがさか","prefecture":23,"lon":136.962254,"lat":35.184612,"lines":[99514],"next":[3001208,3001209,9951428,3001210,9951426,9951315]},
{"code":9951428,"station":"砂田橋","phonetic":"すなだばし","prefecture":23,"lon":136.953999,"lat":35.188861,"lines":[99514,99523],"next":[9952304,9951314,9951315,3001208,9951427,9951401,3001207]},
{"code":9951502,"station":"日比野(名古屋市交通局)","phonetic":"ひびの","prefecture":23,"lon":136.893125,"lat":35.132711,"lines":[99515],"next":[1150232,1141102,9950904,9951415,9951414,9951503]},
{"code":9951503,"station":"六番町","phonetic":"ろくばんちょう","prefecture":23,"lon":136.888715,"lat":35.124623,"lines":[99515],"next":[9950907,9950904,9950905,9951416,9950906,9951415,9951504,9951502]},
{"code":9951504,"station":"東海通","phonetic":"とうかいどおり","prefecture":23,"lon":136.887336,"lat":35.113388,"lines":[99515],"next":[3000805,9950907,9951416,3000806,9951503,9951505]},
{"code":9951505,"station":"港区役所","phonetic":"みなとくやくしょ","prefecture":23,"lon":136.884550,"lat":35.105736,"lines":[99515],"next":[9950908,3001102,9950907,9951504,3000806,9951506]},
{"code":9951506,"station":"築地口","phonetic":"つきじぐち","prefecture":23,"lon":136.883162,"lat":35.099348,"lines":[99515],"next":[9950908,9950909,3001102,9951507,9951505]},
{"code":9951507,"station":"名古屋港","phonetic":"なごやこう","prefecture":23,"lon":136.881971,"lat":35.093480,"lines":[99515],"next":[3001102,3000809,9950909,9950910,9951506]},
{"code":9951602,"station":"庄内緑地公園","phonetic":"しょうないりょくちこうえん","prefecture":23,"lon":136.886963,"lat":35.215186,"lines":[99516],"next":[3001505,9951603,9951003,9951004]},
{"code":9951603,"station":"庄内通","phonetic":"しょうないどおり","prefecture":23,"lon":136.891044,"lat":35.204476,"lines":[99516],"next":[3001505,9951604,9951406,9951405,9951602,9951004,3001504]},
{"code":9951604,"station":"浄心","phonetic":"じょうしん","prefecture":23,"lon":136.890819,"lat":35.192205,"lines":[99516],"next":[3001504,9951406,9951603,9951605,3000138,3000137]},
{"code":9951605,"station":"浅間町","phonetic":"せんげんちょう","prefecture":23,"lon":136.890335,"lat":35.183840,"lines":[99516],"next":[9951406,9951307,9951703,9951604,3000137,9951606,9951407]},
{"code":9951606,"station":"丸の内(愛知)","phonetic":"まるのうち","prefecture":23,"lon":136.896944,"lat":35.173458,"lines":[99516,99517],"next":[9951408,9951309,9951310,9951407,9951703,9951605]},
{"code":9951608,"station":"大須観音","phonetic":"おおすかんのん","prefecture":23,"lon":136.898158,"lat":35.160729,"lines":[99516],"next":[3000136,9951410,9951703,9950902,9951411,9951309,9951412,3000135,1150232]},
{"code":9951611,"station":"荒畑","phonetic":"あらはた","prefecture":23,"lon":136.925930,"lat":35.149654,"lines":[99516],"next":[9951709,9951412,1150230,9951711,1141103,9951612]},
{"code":9951612,"station":"御器所","phonetic":"ごきそ","prefecture":23,"lon":136.934146,"lat":35.149585,"lines":[99516,99517],"next":[9951711,9951611,9951613,9951709]},
{"code":9951613,"station":"川名","phonetic":"かわな","prefecture":23,"lon":136.948717,"lat":35.148703,"lines":[99516],"next":[9951711,9951614,9951316,9951709,9951421,9951315,9951424,9951612,9951314]},
{"code":9951614,"station":"いりなか","phonetic":"いりなか","prefecture":23,"lon":136.955375,"lat":35.143234,"lines":[99516],"next":[9951613,9951423,9951422,9951421,9951424]},
{"code":9951616,"station":"塩釜口","phonetic":"しおがまぐち","prefecture":23,"lon":136.977529,"lat":35.132433,"lines":[99516],"next":[9951423,9951424,9951318,9951317,9951719,9951617,9951718,9951421,9951422]},
{"code":9951617,"station":"植田(名古屋市交通局)","phonetic":"うえだ","prefecture":23,"lon":136.987882,"lat":35.128649,"lines":[99516],"next":[9951720,9951318,9951616,9951618,9951719]},
{"code":9951618,"station":"原(愛知)","phonetic":"はら","prefecture":23,"lon":136.996714,"lat":35.126118,"lines":[99516],"next":[9951720,9951318,9951619,9951617,9951319]},
{"code":9951701,"station":"中村区役所","phonetic":"なかむらくやくしょ","prefecture":23,"lon":136.873126,"lat":35.167611,"lines":[99517],"next":[1141101,9951305,3102702,9951306,9951307,3102703]},
{"code":9951703,"station":"国際センター(愛知)","phonetic":"こくさいせんたー","prefecture":23,"lon":136.889375,"lat":35.172128,"lines":[99517],"next":[9951608,9951605,9951307,9951606,1141101,3000136,9951309]},
{"code":9951706,"station":"高岳","phonetic":"たかおか","prefecture":23,"lon":136.915656,"lat":35.174062,"lines":[99517],"next":[9951311,9951408,3001203,3001204,9951707,3001202,3001201]},
{"code":9951707,"station":"車道","phonetic":"くるまみち","prefecture":23,"lon":136.929543,"lat":35.173507,"lines":[99517],"next":[3001204,3001205,1141104,9951311,1141105,9951313,9951706]},
{"code":9951709,"station":"吹上(愛知)","phonetic":"ふきあげ","prefecture":23,"lon":136.935376,"lat":35.158787,"lines":[99517],"next":[9951611,1141104,1141103,9951613,9951313,9951612,9951314]},
{"code":9951711,"station":"桜山","phonetic":"さくらやま","prefecture":23,"lon":136.933316,"lat":35.139695,"lines":[99517],"next":[9951613,1150230,9951712,9951611,9951612,9951421]},
{"code":9951712,"station":"瑞穂区役所","phonetic":"みずほくやくしょ","prefecture":23,"lon":136.934430,"lat":35.131793,"lines":[99517],"next":[1150230,9951711,9951713,9951421,3000132,3000133,9951420]},
{"code":9951713,"station":"瑞穂運動場西","phonetic":"みずほうんどうじょうにし","prefecture":23,"lon":136.935477,"lat":35.124949,"lines":[99517],"next":[3000132,9951419,9951418,9951712,9951420]},
{"code":9951715,"station":"桜本町","phonetic":"さくらほんまち","prefecture":23,"lon":136.936761,"lat":35.109001,"lines":[99517],"next":[9951419,9951716,3000131,3000130]},
{"code":9951716,"station":"鶴里","phonetic":"つるさと","prefecture":23,"lon":136.943433,"lat":35.105738,"lines":[99517],"next":[9951420,9951419,9951715,3000129,3000128,3000130,9951717]},
{"code":9951717,"station":"野並","phonetic":"のなみ","prefecture":23,"lon":136.955490,"lat":35.102358,"lines":[99517],"next":[9951718,3000128,3000127,9951420,9951716]},
{"code":9951718,"station":"鳴子北","phonetic":"なるこきた","prefecture":23,"lon":136.966209,"lat":35.102684,"lines":[99517],"next":[9951719,3000126,9951421,9951717,3000127,9951616,9951420,3000125]},
{"code":9951719,"station":"相生山","phonetic":"あいおいやま","prefecture":23,"lon":136.976208,"lat":35.102545,"lines":[99517],"next":[9951718,9951616,3000125,9951617,9951720]},
{"code":9951720,"station":"神沢","phonetic":"かみさわ","prefecture":23,"lon":136.989540,"lat":35.098518,"lines":[99517],"next":[9951617,9951618,3000125,3000124,9951721,9951619,9951719]},
{"code":9951721,"station":"徳重","phonetic":"とくしげ","prefecture":23,"lon":136.998150,"lat":35.094491,"lines":[99517],"next":[3000608,3000122,3000124,3000609,9951619,9951720,3000123]},
{"code":9952305,"station":"金屋","phonetic":"かなや","prefecture":23,"lon":136.956747,"lat":35.202551,"lines":[99523],"next":[9952304,3001208,1141106,3001207,3001209,9952306]},
{"code":9952306,"station":"川宮","phonetic":"かわみや","prefecture":23,"lon":136.962047,"lat":35.210405,"lines":[99523],"next":[9952307,1141106,3001209,3001210,9952305,1141107]},
{"code":9952307,"station":"川村(愛知)","phonetic":"かわむら","prefecture":23,"lon":136.968591,"lat":35.214297,"lines":[99523],"next":[9952308,9952306,1141107,3001210]},
{"code":9952308,"station":"白沢渓谷","phonetic":"しらさわけいこく","prefecture":23,"lon":136.978569,"lat":35.216121,"lines":[99523],"next":[9952307,3001210,9952309,3001211,1141107]},
{"code":9952309,"station":"小幡緑地","phonetic":"おばたりょくち","prefecture":23,"lon":136.982839,"lat":35.218785,"lines":[99523],"next":[3001213,9952308,1141107,3001212,1141108,3001211]},
{"code":3100807,"station":"菰野","phonetic":"こもの","prefecture":24,"lon":136.517368,"lat":35.008700,"lines":[31008],"next":[3100806,9952808,3100809,1150816,3100808,9952806]},
{"code":3100808,"station":"中菰野","phonetic":"なかこもの","prefecture":24,"lon":136.504250,"lat":35.012297,"lines":[31008],"next":[9952808,3100809,3100807,9952809]},
{"code":9952802,"station":"大矢知","phonetic":"おおやち","prefecture":24,"lon":136.633382,"lat":35.022147,"lines":[99528],"next":[3102716,9952803,3102718,1150809,3102717,1150810,9952905]},
{"code":9952803,"station":"平津","phonetic":"へいづ","prefecture":24,"lon":136.618430,"lat":35.028477,"lines":[99528],"next":[9952905,9952804,3102718,9952906,9952802,3102719]},
{"code":9952804,"station":"暁学園前","phonetic":"あかつきがくえんまえ","prefecture":24,"lon":136.605976,"lat":35.032798,"lines":[99528],"next":[3102719,9952803,9952907,9952805,3100803,9952906,9952908,3100802]},
{"code":9952805,"station":"山城","phonetic":"やまじょう","prefecture":24,"lon":136.588342,"lat":35.035272,"lines":[99528],"next":[9952908,3100803,9952807,9952806,9952804,3100805,3100804,3100806,9952909]},
{"code":9952806,"station":"保々","phonetic":"ほぼ","prefecture":24,"lon":136.565936,"lat":35.046774,"lines":[99528],"next":[3100806,9952808,9952805,9952807,3100807]},
{"code":9952807,"station":"北勢中央公園口","phonetic":"ほくせいちゅうおうこうえんぐち","prefecture":24,"lon":136.566096,"lat":35.060519,"lines":[99528],"next":[9952805,9952806,9952909,9952808]},
{"code":9952808,"station":"梅戸井","phonetic":"うめどい","prefecture":24,"lon":136.557033,"lat":35.075326,"lines":[99528],"next":[9952910,3100807,3100808,9952806,9952909,9952807,9952809]},
{"code":9952809,"station":"大安","phonetic":"だいあん","prefecture":24,"lon":136.545376,"lat":35.091960,"lines":[99528],"next":[9952811,9952911,3100809,3100808,9952810,9952910,9952808]},
{"code":9952810,"station":"三里","phonetic":"みさと","prefecture":24,"lon":136.538651,"lat":35.107062,"lines":[99528],"next":[9952912,9952811,9952911,9952809]},
{"code":9952811,"station":"丹生川","phonetic":"にゅうがわ","prefecture":24,"lon":136.519744,"lat":35.122757,"lines":[99528],"next":[9952809,3100809,9952813,9952810,9952812,3100810,9952912]},
{"code":9952812,"station":"伊勢治田","phonetic":"いせはった","prefecture":24,"lon":136.514419,"lat":35.133137,"lines":[99528],"next":[9952912,9952913,9952813,9952811]},
{"code":9952902,"station":"馬道","phonetic":"うまみち","prefecture":24,"lon":136.676354,"lat":35.060705,"lines":[99529],"next":[3102714,9953202,9952901,9952903,1150808]},
{"code":9952903,"station":"西別所","phonetic":"にしべっしょ","prefecture":24,"lon":136.666043,"lat":35.059752,"lines":[99529],"next":[3102715,9952902,9953202,9952904,3102714]},
{"code":9952904,"station":"蓮花寺","phonetic":"れんげじ","prefecture":24,"lon":136.652189,"lat":35.059657,"lines":[99529],"next":[9953202,9953203,1150809,9952905,9952903,3102715]},
{"code":9952905,"station":"在良","phonetic":"ありよし","prefecture":24,"lon":136.643731,"lat":35.060685,"lines":[99529],"next":[9952803,9952906,9953203,9952904,1150809,9952802]},
{"code":9952906,"station":"星川(三重)","phonetic":"ほしかわ","prefecture":24,"lon":136.630113,"lat":35.064398,"lines":[99529],"next":[9953204,9952905,9952803,9952804,9952907,9953203]},
{"code":9952907,"station":"七和","phonetic":"ななわ","prefecture":24,"lon":136.615722,"lat":35.068880,"lines":[99529],"next":[9952804,9953204,9952906,9952908]},
{"code":9952908,"station":"穴太(三重)","phonetic":"あのう","prefecture":24,"lon":136.604887,"lat":35.073032,"lines":[99529],"next":[9952909,9952805,9953204,9953205,9952907,9952804]},
{"code":9952909,"station":"東員","phonetic":"とういん","prefecture":24,"lon":136.587562,"lat":35.077945,"lines":[99529],"next":[9952908,9952808,9952807,9952910,9953205,9952805]},
{"code":9952910,"station":"大泉(三重)","phonetic":"おおいずみ","prefecture":24,"lon":136.570210,"lat":35.095044,"lines":[99529],"next":[9952808,9952911,9953205,9952909,9952809]},
{"code":9952911,"station":"楚原","phonetic":"そはら","prefecture":24,"lon":136.560349,"lat":35.110984,"lines":[99529],"next":[9953205,9952912,9952809,9952910,9952810,9953206]},
{"code":9952912,"station":"麻生田","phonetic":"おうだ","prefecture":24,"lon":136.535628,"lat":35.133807,"lines":[99529],"next":[9953209,9952812,9952911,9952810,9953208,9952913,9953207,9953206,9952811]},
{"code":9952913,"station":"阿下喜","phonetic":"あげき","prefecture":24,"lon":136.518796,"lat":35.146177,"lines":[99529],"next":[9952813,9952812,9952912,9952814,9953210,9953209]},
{"code":5000238,"station":"岐阜羽島","phonetic":"ぎふはしま","prefecture":21,"lon":136.685491,"lat":35.315840,"lines":[50024],"next":[9953215,9953209,9953216,9952603,3002008,9953214,3002102,9953213,9952602]}
],
"voronoi":{
"points":[
136.937585,35.180716,136.940162,35.180736,136.802399,35.341677,136.827160,35.346691,136.830307,35.328498,136.832325,35.323938,136.879975,35.195470,136.880502,35.190936,136.583193,35.351415,136.583333,35.351419,136.616031,35.352268,136.780962,35.377988,136.788999,35.378419,136.767849,35.302141,136.778245,35.263233,136.945477,35.228133,136.948537,35.219725,136.932780,35.120833,136.933109,35.117025,136.510314,35.166770,136.531821,35.203807,136.840370,35.180318,136.852870,35.204455,136.924561,35.069924,136.929302,35.053685,136.881435,35.198515,136.898606,35.198200,136.631858,35.043970,136.633319,35.042822,136.970971,35.085509,136.971419,35.117730,136.934897,35.113335,136.943087,35.113483,136.500000,35.064986,136.500373,35.064746,136.500000,35.193352,136.515861,35.218095,136.897719,35.149525,136.911888,35.141415,136.525069,35.132044,136.533436,35.120016,136.630105,35.448458,136.634272,35.440510,136.540286,35.413471,136.544622,35.416667,136.583333,35.445193,136.593063,35.452363,136.911818,35.317534,136.916667,35.315168,136.976872,35.285788,136.914187,35.180530,136.916667,35.180879,136.917513,35.180998,136.712382,35.459139,136.727198,35.462040,136.988573,35.185941,136.993660,35.187071,136.507930,35.000000,136.521941,35.051097,136.808504,35.366078,136.821090,35.358187,136.948363,35.394666,136.963606,35.398235,136.914718,35.167200,136.915043,35.166667,136.916647,35.164037,136.944556,35.132435,136.944860,35.137293,136.925866,35.384143,136.933379,35.386291,136.957354,35.152430,136.959290,35.150462,136.898018,35.124797,136.898868,35.127238,136.940889,35.202651,136.950074,35.200348,136.732050,35.065821,136.750000,35.049494,136.757775,35.042423,136.850225,35.206078,136.923568,35.105785,136.925910,35.104018,136.867631,35.029737,136.873267,35.038322,136.989560,35.409010,136.994477,35.416667,136.997496,35.421368,136.938980,35.105085,136.889936,35.160424,136.896473,35.152877,136.903021,35.267217,136.916667,35.267498,136.964096,35.268476,136.902682,35.165419,136.903616,35.162109,136.964862,35.086323,136.970013,35.085376,136.985692,35.079882,136.986036,35.079808,136.925647,35.199817,136.937255,35.200025,136.927074,35.016018,136.928913,35.014111,136.901186,35.000000,136.916667,35.009988,136.925662,35.015792,136.801998,35.294658,136.833333,35.296084,136.834141,35.296121,136.508516,35.142373,136.510306,35.166667,136.797767,35.169480,136.802250,35.168436,136.782036,35.225351,136.796623,35.216962,136.762493,35.244870,136.770976,35.239858,136.939252,35.401370,136.941832,35.416667,136.944223,35.430836,136.953837,35.218531,136.956805,35.208227,136.987685,35.083333,136.999896,35.109443,136.732418,35.467626,136.736216,35.474257,136.552433,35.194444,136.990465,35.213794,136.999503,35.224186,136.797580,35.216853,136.832747,35.202148,136.833333,35.202718,136.845125,35.214171,136.621438,35.470770,136.626638,35.458863,136.971076,35.228906,136.974790,35.208587,136.852038,35.154009,136.854748,35.144299,136.902570,35.171987,136.902595,35.172068,136.885643,35.432338,136.890576,35.416667,136.894631,35.403784,136.674820,35.069408,136.690537,35.082270,136.845985,35.248188,136.853567,35.233707,136.778081,35.346041,136.782398,35.361610,136.618353,35.048363,136.896936,35.152636,136.901063,35.155313,136.572047,35.079554,136.572472,35.074599,136.666667,35.458992,136.930082,35.154811,136.941681,35.153261,136.883645,35.171269,136.884490,35.166667,136.884810,35.164927,136.696093,35.175128,136.703317,35.175353,136.960553,35.141258,136.972470,35.139736,136.679428,35.257694,136.690209,35.265612,136.858149,35.154045,136.858219,35.154097,136.988337,35.113563,136.997763,35.146455,136.916757,35.209727,136.916024,35.116023,136.916667,35.116352,136.925375,35.120808,136.929999,35.144953,136.941121,35.144020,136.580873,35.159026,136.583333,35.159617,136.612676,35.166667,136.666667,35.179638,136.677871,35.182330,136.949819,35.243566,136.922231,35.134103,136.912502,35.443371,136.916667,35.442469,136.925513,35.440554,136.875018,35.113540,136.875344,35.120562,136.938859,35.101797,136.915174,35.121758,136.916667,35.123716,136.922699,35.131629,136.755641,35.010168,136.762729,35.020255,136.797489,35.371422,136.754231,35.007915,136.835325,35.113801,136.872716,35.107828,136.912487,35.382592,136.916667,35.401191,136.920144,35.416667,136.890112,35.163252,136.854748,35.365976,136.866807,35.367896,136.926721,35.494470,136.933262,35.500000,136.926251,35.158773,136.776375,35.303251,136.781202,35.310642,136.946774,35.094463,136.949138,35.091603,136.667620,35.025875,136.730219,35.000000,136.641495,35.308550,136.641690,35.285577,136.967291,35.159833,136.979727,35.147196,136.978080,35.286610,136.997490,35.250000,137.000000,35.245266,136.924231,35.080343,136.926320,35.083333,136.932627,35.092365,136.779636,35.135162,136.779685,35.135636,136.962057,35.255522,136.964591,35.250000,136.972804,35.232104,136.942784,35.095780,136.902972,35.166032,136.907082,35.166667,136.910416,35.167182,136.866034,35.211947,136.880616,35.204942,136.826068,35.217642,136.827137,35.238905,136.902477,35.176140,136.953242,35.447793,136.960512,35.500000,136.959535,35.448723,137.000000,35.492566,136.876631,35.142298,136.877719,35.137729,136.881685,35.184685,136.884600,35.178415,136.900209,35.199774,136.910290,35.191549,136.573154,35.008147,136.583333,35.004363,136.588397,35.002480,136.977918,35.117443,136.988234,35.145668,136.953921,35.384101,136.963596,35.397705,136.666299,35.250308,136.666311,35.250148,136.897628,35.181188,136.898292,35.185568,136.904450,35.186001,136.909159,35.188513,136.872860,35.104931,136.894973,35.100126,136.818914,35.133253,136.825902,35.166667,136.826191,35.168048,136.833333,35.241957,136.599786,35.052762,136.603370,35.052859,136.626595,35.391481,136.630779,35.401652,136.577508,35.411395,136.579690,35.416667,136.583333,35.425466,136.594850,35.453284,136.840250,35.359970,136.846593,35.362888,136.558392,35.088680,136.566392,35.083333,136.922816,35.179193,136.922832,35.179610,136.807826,35.317263,136.896473,35.138071,136.693145,35.319033,136.707801,35.318256,136.630585,35.405614,136.630682,35.405310,136.906642,35.402624,136.908093,35.380935,137.000000,35.226012,136.887009,35.237541,136.887514,35.235068,136.857953,35.135806,136.877310,35.136028,136.901087,35.303863,136.905423,35.312457,136.679050,35.064960,136.681032,35.061910,136.773846,35.252889,136.777219,35.259543,136.514115,35.057651,136.871563,35.099460,136.871914,35.098576,136.760552,35.303762,136.771530,35.331875,136.770668,35.406614,136.777092,35.404332,136.664490,35.251950,136.771468,35.235202,136.678643,35.179736,136.857623,35.144456,136.926321,35.127050,136.926835,35.125341,136.666667,35.258386,136.689645,35.326326,136.923954,35.106255,137.000000,35.419904,136.835271,35.309481,136.777679,35.052690,136.795294,35.071447,136.904027,35.097588,136.916667,35.100986,136.918540,35.101490,136.979684,35.207726,136.944943,35.137486,136.967092,35.049306,136.707563,35.112053,136.730364,35.132529,136.579378,35.318338,136.583333,35.316258,136.898654,35.117701,136.898986,35.119551,136.933995,35.386688,136.706329,35.349040,136.742886,35.340473,136.833333,35.323988,136.890776,35.326851,137.000000,35.222431,136.752043,35.351962,136.759407,35.351976,136.617578,35.005640,136.840255,35.474667,136.843544,35.416667,136.642660,35.083586,136.643156,35.083333,136.650331,35.079677,136.923420,35.241986,136.939040,35.228650,136.917365,35.218062,136.919349,35.217860,136.966755,35.122647,136.967022,35.119403,136.933511,35.440125,136.938689,35.500000,136.764168,35.034289,136.918255,35.108137,136.920868,35.105203,136.914711,35.167714,136.909712,35.178724,136.911730,35.178679,136.792153,35.014564,136.807793,35.000000,136.833333,35.201051,136.836034,35.196001,136.753817,35.219844,136.764863,35.166667,136.765045,35.165790,136.617442,35.049058,136.628117,35.083333,136.631031,35.092690,136.786257,35.416667,136.793527,35.426450,136.596321,35.367240,136.612372,35.375646,136.500000,35.435779,136.512381,35.429521,136.970115,35.279924,136.847131,35.255075,136.874095,35.250000,136.891812,35.246665,136.708051,35.074909,136.878345,35.166492,136.879908,35.166183,136.983857,35.026450,136.984267,35.025864,136.950529,35.065957,136.962351,35.056549,136.881193,35.064301,136.885043,35.069349,136.881130,35.062892,136.777458,35.261166,136.881651,35.188539,136.953542,35.366806,136.988028,35.354945,136.908712,35.124414,136.909693,35.127087,136.643869,35.327433,136.942825,35.129575,136.646746,35.020044,136.666667,35.003915,136.671502,35.000000,136.917223,35.323642,136.984890,35.295554,136.585057,35.275773,136.606151,35.265735,136.642769,35.335784,136.733196,35.195064,136.740089,35.199899,136.621835,35.475961,136.639472,35.041170,136.646077,35.044681,136.740465,35.323966,136.750000,35.326791,136.770559,35.332880,136.750000,35.181902,136.758333,35.166770,136.818754,35.494819,136.833333,35.494772,136.916667,35.494503,136.606805,35.112799,136.608526,35.111789,136.838182,35.179692,136.576090,35.293068,136.583333,35.279098,136.888594,35.083333,136.891457,35.094610,136.925287,35.076184,136.670814,35.049436,136.671687,35.054945,136.908006,35.380874,136.916667,35.369094,136.932478,35.347587,136.755604,35.395005,136.760434,35.405586,136.961003,35.200050,136.963396,35.203779,136.735727,35.135015,136.748033,35.083333,136.750000,35.075073,136.895041,35.250000,136.899930,35.255049,136.717412,35.284562,136.750000,35.255870,136.756667,35.250000,136.577852,35.326903,136.583333,35.325322,136.750000,35.490480,136.758089,35.500000,136.692986,35.268099,136.889981,35.014564,136.678262,35.353530,136.680234,35.354759,136.710524,35.371609,136.714931,35.378074,136.925338,35.192189,136.916575,35.243288,136.916667,35.243271,136.642791,35.438805,136.666667,35.427047,136.684612,35.418209,136.920590,35.137975,136.844687,35.219060,136.925764,35.114451,136.655659,35.078273,136.659016,35.074225,136.853376,35.464311,136.853541,35.462561,136.501403,35.081427,136.505684,35.083333,136.550534,35.103305,136.659197,35.047935,136.666667,35.048900,136.621166,35.099301,136.889032,35.000000,136.927568,35.042191,136.896976,35.101896,136.933802,35.164801,136.933872,35.166667,136.934115,35.173185,136.839962,35.122346,136.840769,35.142578,136.871473,35.144974,136.871928,35.144896,136.835178,35.287088,136.789870,35.277341,136.793393,35.294055,136.854802,35.204117,136.944435,35.179106,136.947427,35.179266,136.854078,35.182880,136.856407,35.183105,136.833333,35.218195,136.772582,35.166623,136.772589,35.166667,136.940635,35.163601,136.945191,35.157906,136.765212,35.500000,136.766071,35.416667,136.766127,35.411270,136.960472,35.220500,136.835289,35.157802,136.788138,35.298959,136.827143,35.168088,136.837383,35.116601,136.874967,35.121533,136.666863,35.248407,136.750000,35.222143,136.754390,35.220756,136.677259,35.122850,136.678572,35.126449,136.504602,35.315224,136.875081,35.127550,136.861870,35.024274,136.885628,35.000000,136.524562,35.049537,136.541882,35.027444,136.951886,35.112697,136.851890,35.129052,136.601759,35.001153,136.602449,35.000000,136.867833,35.170960,136.871912,35.173677,136.760195,35.124672,136.701493,35.425850,136.905110,35.212633,136.914868,35.215246,136.977471,35.170932,136.978150,35.166667,136.981210,35.147442,136.884327,35.177775,136.864695,35.163472,136.866034,35.166667,136.799821,35.136014,136.810572,35.087559,136.758882,35.395678,136.776882,35.396040,136.877256,35.143683,136.879045,35.151960,136.915084,35.142303,136.860199,35.230307,136.865475,35.219282,136.953189,35.366719,136.862586,35.195619,136.866441,35.199688,136.558443,35.000000,136.569389,35.010599,136.916667,35.217275,136.569489,35.000000,136.948745,35.158323,136.950027,35.166667,136.951729,35.177741,136.787819,35.381383,136.675351,35.158750,136.676593,35.166667,136.899962,35.378067,136.816191,35.170318,136.812645,35.263771,136.556793,35.377818,136.559186,35.345620,136.557230,35.098034,136.915720,35.193168,136.916667,35.186742,136.907487,35.171907,136.911939,35.173022,136.687861,35.200995,136.968661,35.204977,136.969240,35.205758,136.956759,35.176167,136.976905,35.185577,136.856661,35.021434,136.744075,35.388846,136.750000,35.361421,136.916667,35.164033,136.925077,35.162305,136.807923,35.401813,136.814281,35.416667,136.816228,35.421217,136.893485,35.170938,136.916667,35.323013,136.915422,35.193409,136.547231,35.121575,136.786590,35.274779,136.863361,35.208188,136.569966,35.342325,136.795152,35.305064,136.916667,35.209990,136.583333,35.380120,136.591972,35.380870,136.845877,35.268324,136.846565,35.264803,136.932482,35.192071,136.666667,35.250515,136.936074,35.389764,136.969804,35.166667,136.970255,35.167892,136.873665,35.161505,136.981569,35.028232,136.885318,35.447294,136.828453,35.107373,136.983988,35.183051,136.832500,35.355433,136.833333,35.355921,136.500000,35.462601,136.583333,35.459707,136.599989,35.459128,136.890527,35.163932,136.643352,35.270816,137.000000,35.387636,136.748064,35.387823,136.750000,35.385486,136.764487,35.367990,136.912341,35.159101,136.956135,35.156258,136.956174,35.156221,136.963877,35.267909,136.978023,35.084473,136.986784,35.113477,136.575771,35.083333,136.583333,35.091008,136.605772,35.113778,136.897389,35.076818,136.903104,35.083333,136.907041,35.087822,136.963842,35.000000,136.977807,35.008048,136.877336,35.136074,136.815824,35.209652,136.819944,35.210614,136.583333,35.235453,136.594295,35.250000,136.915181,35.144867,136.916667,35.146734,136.924275,35.334842,136.924461,35.334964,136.965640,35.406947,136.838728,35.385514,136.802350,35.166667,136.803757,35.141793,136.892282,35.177785,136.781728,35.319516,136.770236,35.083333,136.911662,35.152309,136.592754,35.002640,136.590886,35.056662,136.598449,35.083333,136.886890,35.061720,136.876328,35.172061,136.949591,35.189602,136.730569,35.299135,136.735733,35.302448,136.824843,35.239121,136.960234,35.199916,136.983080,35.179117,136.890009,35.371521,136.916667,35.342986,136.621607,35.477248,136.743946,35.210950,136.792373,35.083333,136.546236,35.409251,136.893690,35.140085,136.644583,35.333333,136.645467,35.332139,137.000000,35.147171,136.957266,35.136730,136.896979,35.105544,136.819474,35.014098,136.833333,35.015840,136.837189,35.016324,136.579410,35.410856,136.583333,35.413765,136.587245,35.416667,136.750518,35.000000,136.750000,35.428692,136.755430,35.416667,136.899121,35.111704,136.931530,35.343281,136.581089,35.158248,136.910251,35.140148,136.685571,35.358914,136.695265,35.360664,136.927057,35.027115,136.850657,35.181450,136.860742,35.166667,136.863404,35.162764,136.678238,35.353521,136.731467,35.133630,136.640833,35.394617,136.666667,35.390284,136.677530,35.388462,136.973177,35.188806,136.760789,35.351403,136.593381,35.366969,136.676313,35.136860,136.704149,35.250000,136.750000,35.235729,136.764898,35.231092,136.856329,35.199082,136.905522,35.312508,136.984351,35.211607,136.950326,35.069066,136.500000,35.080259,136.811485,35.246737,136.811707,35.250000,136.596746,35.135492,136.666667,35.156180,136.941386,35.166667,136.746064,35.388914,136.954026,35.193544,136.960026,35.190426,136.916667,35.141059,136.902929,35.166667,136.677239,35.404168,136.683802,35.416667,136.873589,35.083333,136.874568,35.074418,136.861701,35.185281,136.863035,35.188200,136.993902,35.021909,137.000000,35.016889,136.704076,35.416667,136.991135,35.302324,136.917465,35.017651,136.500000,35.235384,136.882092,35.154888,136.928687,35.038157,136.916667,35.113752,136.746903,35.214540,136.584726,35.407637,136.706610,35.348614,136.916667,35.047424,136.876528,35.050416,136.916667,35.031907,136.901063,35.273043,136.662764,35.083333,136.666667,35.086114,136.678924,35.094845,136.733132,35.184690,136.916667,35.085270,136.920913,35.084144,136.721329,35.087028,136.723196,35.083333,136.634910,35.007743,136.642014,35.000981,137.000000,35.044553,136.722250,35.309675,136.844336,35.471661,136.500000,35.047959,136.560652,35.185494,136.744616,35.250000,136.750000,35.248455,136.952931,35.193881,136.632260,35.484284,136.666667,35.492815,136.695647,35.500000,136.960455,35.115499,136.961267,35.088784,136.822438,35.471557,136.823246,35.489216,136.611226,35.494231,136.598134,35.001339,136.839235,35.282301,136.899082,35.116358,136.914954,35.117461,136.885066,35.173783,136.931249,35.440020,136.671043,35.229685,136.524916,35.136868,136.972308,35.230910,136.646139,35.019190,136.882564,35.370057,136.882763,35.415567,136.799914,35.398633,136.593953,35.384341,136.568585,35.179523,136.574144,35.172155,136.666667,35.445781,136.830879,35.284232,136.833333,35.285863,136.876523,35.219071,136.827609,35.342129,136.829350,35.333333,136.866037,35.184123,136.890754,35.225879,136.901078,35.214432,136.941837,35.122246,136.998803,35.427963,136.940541,35.202028,136.941729,35.196259,137.000000,35.229348,136.871847,35.195787,136.793557,35.425041,136.830455,35.164828,136.833333,35.164629,136.863146,35.162561,136.882952,35.416667,136.877254,35.057041,137.000000,35.346319,136.897334,35.187632,136.932077,35.110193,136.833333,35.174595,136.616073,35.004849,136.945126,35.137544,136.546815,35.166667,136.794482,35.374500,136.658665,35.047522,136.939234,35.439225,136.826965,35.428351,136.830174,35.416667,136.833333,35.405160,136.880203,35.166189,136.583333,35.061220,136.587089,35.056593,136.962343,35.083333,136.977149,35.038893,136.916667,35.018025,136.776510,35.231945,136.916667,35.305032,136.948985,35.283354,136.876278,35.367320,136.958961,35.166667,136.960121,35.170941,136.823555,35.098064,136.916667,35.108433,136.940723,35.078620,136.943778,35.083333,136.956405,35.250000,136.948478,35.283275,136.583333,35.449608,136.740957,35.141688,136.750000,35.133689,136.889011,35.166667,136.742561,35.389421,136.871716,35.178689,137.000000,35.309470,136.851827,35.000000,136.906452,35.132926,136.550763,35.083333,136.833333,35.111938,136.583333,35.190181,136.666106,35.250000,136.666667,35.475293,136.922306,35.133083,136.899589,35.290430,136.617409,35.385599,136.828027,35.352133,136.500000,35.119184,136.602017,35.001280,136.709034,35.109274,136.587572,35.000000,136.925513,35.170295,136.997451,35.111194,136.795573,35.416667,136.583515,35.053443,136.634786,35.091441,136.939051,35.358906,136.916667,35.487426,136.923218,35.488854,136.916667,35.017561,136.857116,35.144074,136.576957,35.166667,136.950294,35.200126,136.863375,35.416667,136.868372,35.393343,136.979661,35.147162,136.740372,35.325704,136.741670,35.333333,136.867898,35.000000,136.500000,35.133265,136.684961,35.088444,136.945229,35.114703,136.916667,35.130402,136.649497,35.500000,136.653607,35.001798,136.660312,35.000000,136.676395,35.200859,136.937283,35.180844,136.677027,35.149451,136.846286,35.250000,136.923325,35.333333,136.939585,35.210832,136.833333,35.095725,136.838995,35.094371,136.815232,35.498806,136.564532,35.016465,136.621396,35.000000,136.881810,35.215997,136.995805,35.188391,137.000000,35.189729,136.792457,35.416667,136.925887,35.161525,136.979550,35.000000,136.666667,35.366235,136.745078,35.301777,136.924368,35.191163,136.500000,35.310053,136.902988,35.267449,136.916667,35.272208,136.759724,35.165224,136.760439,35.164736,136.891180,35.164435,136.502986,35.083333,136.809763,35.333333,136.740887,35.141649,136.933914,35.000000,136.583333,35.114183,136.599898,35.124430,136.953484,35.177718,136.746473,35.348586,136.750000,35.350724,136.777829,35.302277,136.827852,35.416667,136.999178,35.073247,136.854114,35.416667,136.880526,35.166667,136.583333,35.053090,136.500000,35.160007,136.510156,35.166667,136.666667,35.028179,136.615048,35.083333,136.916667,35.208628,137.000000,35.174036,136.606485,35.500000,136.838243,35.476263,136.984864,35.442719,136.538759,35.053964,137.000000,35.335494,136.750000,35.166970,136.751688,35.166667,136.583333,35.154986,136.903108,35.257507,136.727503,35.294487,136.571370,35.340690,136.583333,35.338502,136.611601,35.333333,136.583333,35.351629,136.731323,35.465844,136.738555,35.416667,136.963089,35.117753,136.583333,35.053445,136.774575,35.331164,136.924705,35.180941,136.574829,35.333333,136.900001,35.288401,136.666667,35.070686,136.670391,35.068964,136.750000,35.014080,136.891971,35.166667,136.965928,35.049897,136.686713,35.333333,136.583333,35.175372,136.666667,35.204542,136.674294,35.207212,136.583333,35.408480,136.773210,35.250000,136.666358,35.250000,136.666667,35.249025,136.912109,35.250000,136.912570,35.249615,136.925310,35.384253,136.928762,35.416667,136.750000,35.391427,136.916667,35.192949,136.612155,35.360778,136.921621,35.083333,136.758427,35.166667,136.907320,35.416667,136.908614,35.443465,136.750000,35.387245,136.796975,35.072586,136.806735,35.083333,136.647612,35.023927,136.505637,35.316987,136.979926,35.083333,136.750000,35.172696,136.631753,35.416667,136.666667,35.404427,136.916667,35.170484,136.863337,35.162674,136.878282,35.166667,136.528169,35.000000,136.858673,35.083333,136.598075,35.000000,137.000000,35.118943,136.916667,35.076334,136.925264,35.076119,136.816579,35.416667,136.696414,35.333333,136.882272,35.207266,136.833333,35.480503,136.729129,35.333333,136.833333,35.000995,136.834386,35.000000,136.750000,35.152386,136.500000,35.251955,136.583333,35.275290,136.962181,35.191243,137.000000,35.465228,136.712747,35.333333,136.618318,35.500000,136.916667,35.068205,136.750000,35.302408,136.750000,35.274293,136.750000,35.010021,136.772971,35.166667,136.916667,35.383133,136.925315,35.166667,136.647297,35.333333,136.666667,35.345971,136.828587,35.166667,136.916667,35.461048,136.916667,35.286639,136.770356,35.165567,136.500000,35.375458,136.504061,35.333333,136.989783,35.166667,137.000000,35.147691,136.534729,35.416667,137.000000,35.109411,136.916667,35.240353,136.814488,35.500000,136.833333,35.318987,136.707414,35.166667,136.666667,35.025783,136.767033,35.343444,136.770408,35.333333,136.833333,35.065546,136.750000,35.216916,136.956926,35.416667,137.000000,35.073198,136.666667,35.115017,136.833333,35.160644,136.780317,35.333333,136.750000,35.295604,136.927793,35.333333,136.838561,35.416667,136.666667,35.133292,136.642249,35.000000,137.000000,35.026386,136.689577,35.083333,136.969470,35.083333,137.000000,35.428600,136.888454,35.333333,136.536208,35.333333,136.913649,35.250000,136.916667,35.251076,136.642591,35.083333
],
"groups":[
{"lon":136500,"lat":35000,"size":84,"index":[33,34,57,58,153,154,248,249,278,153,300,58,467,468,34,300,514,515,544,545,547,248,153,617,545,248,700,467,746,34,154,810,300,836,515,883,467,900,883,914,924,154,924,938,514,924,883,545,58,514,979,515]},
{"lon":136500,"lat":35083,"size":84,"index":[39,40,109,110,177,178,277,278,468,469,559,277,40,580,617,618,580,676,580,469,766,39,177,676,766,802,836,277,845,39,859,177,867,109,469,559,900,40,559,904,915,916,676,928,109,766]},
{"lon":136500,"lat":35166,"size":84,"index":[19,20,35,36,110,19,20,126,126,628,722,36,126,747,773,774,802,747,773,838,774,859,916,19,774,949,36,20,747,773]},
{"lon":136500,"lat":35250,"size":84,"index":[328,329,422,423,444,445,510,422,894,510,941,444,444,328,510,971,993,994,1013,971,422,328,971,1042]},
{"lon":136500,"lat":35333,"size":84,"index":[8,9,43,44,271,272,557,558,583,8,557,586,658,271,668,669,43,658,658,557,271,668,931,932,8,934,931,941,668,952,1012,1013,1016,43,558,583,1042,558,583,931]},
{"lon":136500,"lat":35416,"size":84,"index":[44,45,272,273,374,375,602,603,375,827,375,1016]},
{"lon":136583,"lat":35000,"size":84,"index":[27,28,150,27,249,250,267,268,340,28,344,345,367,368,398,399,409,410,463,464,470,471,518,519,642,267,643,644,367,150,643,267,410,345,463,733,741,742,759,518,768,398,800,340,410,804,810,811,642,759,846,800,340,741,848,250,852,811,872,873,742,872,800,884,914,852,804,917,268,918,28,409,938,852,464,943,518,846,345,463,804,470,398,970,981,759,409,970,768,872,250,642,970,1022,846,150,464,470,811,643,742,1036,268,367,741,768,27,1045]},
{"lon":136583,"lat":35083,"size":84,"index":[178,179,343,344,368,369,419,420,420,472,618,619,644,419,703,704,733,734,853,343,369,853,619,419,904,905,703,905,918,472,928,703,472,369,905,619,853,1029,420,1035,1045,343]},
{"lon":136583,"lat":35166,"size":84,"index":[179,180,628,629,838,839,949,950,954,955]},
{"lon":136583,"lat":35250,"size":84,"index":[214,215,255,256,307,255,307,313,329,215,214,396,403,404,423,403,445,214,255,591,215,606,629,404,660,661,839,256,404,606,933,396,606,307,256,954,396,661,994,403,661,1006]},
{"lon":136583,"lat":35333,"size":84,"index":[9,10,269,270,285,286,372,373,10,405,586,587,405,660,669,670,686,687,691,372,727,285,587,772,286,270,772,843,686,891,843,269,269,405,932,933,934,691,952,727,962,10,587,691,285,974,286,975,373,843,727,772,372,962,270,686,1006,1007,962,373]},
{"lon":136583,"lat":35416,"size":84,"index":[41,42,45,46,133,134,134,155,273,274,133,408,457,458,603,604,604,133,655,408,670,41,751,752,758,655,457,775,655,751,827,46,408,840,751,871,274,604,46,274,921,758,134,41,974,42,758,998,42,457]},
{"lon":136666,"lat":35000,"size":84,"index":[76,77,144,145,212,213,296,297,296,380,399,400,427,428,437,438,471,427,740,76,428,297,145,380,380,76,917,212,943,944,297,945,144,296,944,428,427,1002,1022,212,944,144,1038,145]},
{"lon":136666,"lat":35083,"size":84,"index":[326,327,436,437,508,509,552,553,685,436,692,509,704,552,734,735,739,740,509,326,739,327,828,829,326,847,868,847,692,876,436,902,735,868,327,685,847,739,902,828,828,992,552,876,876,685,508,735,1021,902,1029,508,1035,692,868,1038]},
{"lon":136666,"lat":35166,"size":84,"index":[161,162,180,181,309,161,406,407,407,414,505,506,553,309,181,309,564,406,564,656,407,656,693,694,656,726,736,406,748,749,765,726,162,736,505,765,874,181,162,926,950,951,955,505,874,564,951,874,736,973,765,951,161,1021,726,1026]},
{"lon":136666,"lat":35250,"size":84,"index":[165,166,283,284,313,314,411,412,441,442,448,441,166,448,591,165,648,649,165,693,284,744,166,748,448,283,864,865,649,892,649,411,314,283,864,411,441,930,948,314,744,648,986,284,989,864,997,744,930,648,892,1000,930,1001,892,1032]},
{"lon":136666,"lat":35333,"size":84,"index":[333,334,450,451,452,453,570,571,608,609,678,679,684,450,687,688,706,608,711,712,719,453,451,678,570,706,333,728,831,570,865,334,891,684,907,908,936,831,450,948,706,960,608,967,334,907,711,688,975,711,679,333,451,986,728,989,728,997,452,907,1007,684,453,831,688,678,679,452]},
{"lon":136666,"lat":35416,"size":84,"index":[53,54,124,125,155,53,125,446,458,459,459,523,124,672,712,459,523,719,752,753,775,53,840,125,523,54,935,936,935,124,54,935]},
{"lon":136750,"lat":35000,"size":84,"index":[77,78,193,194,196,193,318,319,194,354,360,361,194,360,438,78,354,318,640,318,657,319,665,666,671,196,360,665,945,193,968,969,665,990,1002,196,78,354,968,1025,319,968]},
{"lon":136750,"lat":35083,"size":84,"index":[224,225,263,264,365,366,492,493,522,224,532,533,225,532,263,598,636,637,522,640,532,637,224,657,791,792,821,598,829,522,598,837,821,880,897,898,637,263,927,897,964,897,969,533,992,898,492,1003,1008,791,1011,225,898,366,1011,492,791,1030,366,1011,533,821]},
{"lon":136750,"lat":35166,"size":84,"index":[111,112,113,114,115,116,114,129,130,131,235,236,264,265,236,266,116,308,130,362,364,365,414,415,443,115,235,491,493,113,265,502,506,507,112,555,626,627,112,636,364,507,650,236,694,695,701,702,749,115,695,308,626,555,627,235,502,799,815,701,129,626,129,650,701,650,926,927,308,815,555,265,116,953,415,964,973,415,507,695,1003,111,815,113,502,1008,1026,364,114,111,627,130]},
{"lon":136750,"lat":35250,"size":84,"index":[4,5,13,14,106,107,208,209,281,4,298,299,303,304,5,335,390,14,412,413,442,443,299,390,484,485,501,485,299,556,581,484,584,281,209,639,209,281,702,556,501,584,413,304,776,777,780,4,14,581,13,208,639,901,208,909,584,106,556,776,484,776,304,939,909,501,953,298,939,639,485,106,303,13,1000,303,1001,298,5,1020,1024,413,939,1031,1032,390,909,581]},
{"lon":136750,"lat":35333,"size":84,"index":[2,3,11,12,59,60,148,149,195,59,305,306,338,339,306,370,432,433,497,498,534,535,551,12,571,338,574,575,600,601,609,610,432,534,673,433,535,551,690,149,771,574,779,780,433,498,12,803,807,808,574,59,803,195,60,844,851,771,339,690,551,888,901,779,908,338,910,600,803,771,535,306,3,779,960,432,610,11,967,11,985,60,149,195,498,305,1023,1024,1031,2,534,305,1023,148,3,844,148,2,690,1023,339,610,844,600]},
{"lon":136750,"lat":35416,"size":84,"index":[370,371,416,417,446,447,496,497,575,576,672,673,756,757,371,790,806,807,790,851,416,757,371,882,888,790,806,910,576,756,576,985,757,988,756,806,1019,882,882,416]},
{"lon":136833,"lat":35000,"size":84,"index":[82,83,103,104,387,388,389,387,388,424,82,449,473,449,512,513,569,512,620,621,389,645,666,667,713,714,645,729,730,731,512,82,730,795,83,814,667,834,714,387,83,730,449,857,569,866,795,389,980,714,620,983,990,991,645,999,388,620,1025,795,667,569]},
{"lon":136833,"lat":35083,"size":84,"index":[37,38,64,65,72,73,88,89,93,94,137,138,151,152,159,160,167,168,172,173,187,188,190,191,197,198,160,202,230,231,242,243,261,262,282,73,292,293,301,302,310,167,320,321,330,331,381,382,394,395,424,425,93,230,475,320,479,480,331,394,481,482,500,137,503,504,504,511,517,511,188,330,530,531,536,537,38,538,65,572,595,381,202,605,611,65,621,622,625,243,630,631,137,167,641,630,595,537,530,595,659,282,475,664,664,674,198,187,677,38,682,683,538,709,710,230,302,713,723,88,89,151,172,725,152,641,197,503,622,737,320,622,310,481,761,762,301,261,517,292,792,793,243,659,302,425,809,160,152,94,674,822,830,605,835,395,837,197,168,481,88,202,762,172,537,723,858,310,395,870,880,881,151,37,480,138,168,793,762,190,899,93,503,479,809,913,641,611,94,611,73,835,881,301,479,517,605,899,899,946,242,536,262,475,282,677,659,37,538,630,187,664,504,188,977,482,978,381,881,980,500,480,761,674,382,809,683,530,511,293,625,72,293,625,482,242,835,677,536,89,858,292,1030,500,382,723,394,190,977,683,425,262,330,761,72,331,138,858,198,261,793,977]},
{"lon":136833,"lat":35166,"size":84,"index":[6,7,21,22,25,26,50,51,63,64,79,22,131,132,139,140,146,147,158,159,231,232,233,234,237,140,244,245,246,247,257,258,26,246,259,260,266,146,290,291,260,50,357,63,358,359,362,363,378,379,391,244,290,379,363,421,379,439,455,456,461,147,22,486,489,490,491,461,520,521,524,525,529,245,531,520,539,540,542,543,525,546,560,561,562,563,577,139,259,358,247,579,582,233,525,585,359,50,245,638,521,646,681,682,681,489,140,562,486,696,489,696,139,710,715,716,147,539,246,524,158,763,778,291,781,7,646,529,782,783,716,789,391,797,797,26,799,421,291,782,542,716,7,391,763,830,832,244,232,63,490,715,563,357,237,358,582,543,21,681,146,877,486,582,832,521,6,25,778,885,540,778,913,158,562,232,579,919,461,132,543,789,789,6,258,259,490,520,638,257,946,577,421,21,783,524,956,957,260,247,560,961,257,237,957,455,357,976,646,978,797,258,234,987,781,832,359,563,579,560,455,1018,132,79,539,290,363,79,234,25,715,781,638,577,696,542,529,763,885,987,885,782,987,783,540,233,957,1043]},
{"lon":136833,"lat":35250,"size":84,"index":[47,48,90,91,107,108,294,295,317,294,335,336,377,378,439,440,108,483,47,578,588,589,697,47,588,732,760,588,777,483,697,816,842,294,877,377,295,697,895,896,108,317,440,929,732,895,895,90,842,942,942,732,90,929,929,956,336,295,483,760,760,842,942,1010,1020,317,589,440,1041,336,589,377,1043,1044]},
{"lon":136833,"lat":35333,"size":84,"index":[142,143,199,200,203,204,275,276,287,288,342,276,429,430,143,554,601,275,635,275,653,654,769,770,770,794,808,635,818,769,861,862,554,429,912,203,653,554,276,203,429,288,143,287,287,965,288,199,862,770,199,1004,204,862,769,653,1034,635,818,1041,204,818]},
{"lon":136833,"lat":35416,"size":84,"index":[141,142,184,185,341,342,417,418,465,466,597,141,745,465,465,597,341,745,794,141,745,855,466,861,466,912,922,341,965,966,966,184,988,922,184,1009,597,966,922,1034]},
{"lon":136916,"lat":35000,"size":84,"index":[23,24,97,98,101,102,104,105,98,122,221,222,325,97,383,384,385,386,221,426,474,24,102,596,623,624,24,385,680,101,699,385,717,718,721,105,474,724,105,101,729,474,731,680,383,743,699,812,325,813,814,721,823,824,857,721,813,596,624,890,102,903,823,699,98,911,426,823,724,947,963,221,972,97,680,724,983,984,596,383,999,23,23,984,947,325,624,384,911,1028,384,717,386,947,717,1037,386,1039,813,911,984,426]},
{"lon":136916,"lat":35083,"size":84,"index":[17,18,29,30,31,32,66,67,70,71,80,81,87,32,95,96,122,123,156,157,163,164,169,170,173,174,175,176,183,67,189,87,191,192,207,156,210,211,216,217,222,223,229,210,251,252,81,189,311,312,80,315,321,322,67,324,350,351,355,356,397,66,460,183,315,462,312,17,476,477,494,495,210,516,527,528,548,549,572,573,216,593,612,613,615,616,631,207,170,662,663,350,251,616,322,356,494,705,709,460,725,355,737,738,754,755,613,216,548,612,476,494,17,784,616,169,516,754,351,30,798,31,189,229,801,70,801,663,812,95,612,819,822,355,824,211,29,615,174,312,841,192,174,462,169,850,71,163,863,217,784,869,870,841,157,495,183,841,315,798,350,164,889,207,663,163,573,889,356,80,613,70,211,755,66,937,755,95,176,324,223,229,738,963,615,972,252,170,96,29,324,801,495,548,754,937,322,738,850,982,528,252,462,18,573,1005,217,528,18,31,81,223,176,157,1014,1015,175,156,123,1017,889,476,32,869,937,351,850,123,311,397,798,87,30,251,71,863,869,516,1039,96,460,175,164,863,784,397,192,311]},
{"lon":136916,"lat":35166,"size":84,"index":[0,1,15,16,51,52,55,56,74,75,99,100,120,121,127,128,135,136,171,99,15,182,219,220,227,228,279,280,128,289,136,323,128,337,346,347,348,349,434,435,454,99,456,346,477,478,487,488,499,135,526,527,546,348,549,550,561,52,565,566,567,568,323,55,585,171,454,590,593,594,568,599,75,121,488,550,488,647,651,434,652,599,349,347,689,568,323,698,705,487,707,708,346,182,599,55,647,750,135,767,786,787,228,788,120,499,526,652,819,820,182,825,478,0,100,786,590,100,279,849,820,594,121,435,860,750,594,526,566,136,75,860,565,689,590,875,879,74,16,120,886,887,893,454,906,708,435,565,919,171,56,920,875,0,127,886,567,820,940,875,860,651,961,893,347,15,767,698,976,279,849,478,698,127,499,566,707,651,1,487,708,995,434,995,906,567,1005,849,56,886,280,940,787,647,652,1014,1018,348,767,228,750,707,893,940,1,787,786,74,550,906,52,280,349,879,995,689,879,16]},
{"lon":136916,"lat":35250,"size":84,"index":[48,49,91,92,218,219,226,227,376,49,401,402,49,218,578,401,614,92,402,720,218,402,816,817,825,226,826,817,720,833,401,878,896,826,226,614,92,376,1010,826,1033,720,817,376,1044,614]},
{"lon":136916,"lat":35333,"size":84,"index":[61,62,68,69,84,85,117,118,200,201,253,254,332,253,392,393,430,431,69,541,332,592,84,607,632,633,62,634,654,632,634,84,675,431,392,253,592,117,393,796,117,61,541,392,254,62,68,854,878,632,254,393,675,925,69,332,431,854,958,959,633,675,854,541,1004,958,592,61,958,68,1027,634,633,1033]},
{"lon":136916,"lat":35416,"size":84,"index":[85,86,118,119,185,186,201,186,205,206,238,239,240,241,86,316,352,353,418,205,186,764,764,352,86,785,805,119,352,805,855,856,923,785,856,205,959,764,238,240,805,238,923,996,1009,856,119,1027,785,1040,240,923]}
]
}
}