{
"stations":[
{"code":1161012,"station":"大門(広島)","phonetic":"だいもん","prefecture":34,"lon":133.439950,"lat":34.498462,"lines":[11610],"next":[9970513,1161011,9970512,9970511,1180616,1161013,1180621]},
{"code":1161013,"station":"東福山","phonetic":"ひがしふくやま","prefecture":34,"lon":133.405390,"lat":34.494949,"lines":[11610],"next":[1172004,9970513,1180621,1172003,1161014,9970514,1161012]},
{"code":1161014,"station":"福山","phonetic":"ふくやま","prefecture":34,"lon":133.361429,"lat":34.489291,"lines":[11610,11720,50025],"next":[1180627,1172002,1161013,1180621,1172003,1161015]},
{"code":1161015,"station":"備後赤坂","phonetic":"びんごあかさか","prefecture":34,"lon":133.305417,"lat":34.472108,"lines":[11610],"next":[1172011,1172010,1172012,1180630,1161016,1180627,1172002,1161014,1172009]},
{"code":1161016,"station":"松永","phonetic":"まつなが","prefecture":34,"lon":133.258532,"lat":34.450958,"lines":[11610],"next":[1172012,1161017,1161015,1180630,1172016]},
{"code":1161017,"station":"東尾道","phonetic":"ひがしおのみち","prefecture":34,"lon":133.233168,"lat":34.434937,"lines":[11610],"next":[5000239,1161018,1161016,1172016,1180630]},
{"code":1161018,"station":"尾道","phonetic":"おのみち","prefecture":34,"lon":133.192884,"lat":34.404826,"lines":[11610],"next":[5000239,1180630,1161017,1171603,1161019]},
{"code":1161019,"station":"糸崎","phonetic":"いとざき","prefecture":34,"lon":133.104317,"lat":34.392429,"lines":[11610,11716],"next":[1171603,1161020,5000239,1161018]},
{"code":1161020,"station":"三原","phonetic":"みはら","prefecture":34,"lon":133.083049,"lat":34.400486,"lines":[11610,11611,11716,50025],"next":[1171604,1161102,1172018,1171603,5000239,1161019,1172019]},
{"code":1171603,"station":"須波","phonetic":"すなみ","prefecture":34,"lon":133.083724,"lat":34.370061,"lines":[11716],"next":[1161020,1180640,1161019,1161018,1171604,1180630]},
{"code":1171604,"station":"安芸幸崎","phonetic":"あきさいざき","prefecture":34,"lon":133.040096,"lat":34.338165,"lines":[11716],"next":[1171605,1161020,1180642,1171603,1180643,1161102,1180640]},
{"code":1172002,"station":"備後本庄","phonetic":"びんごほんじょう","prefecture":34,"lon":133.345083,"lat":34.493312,"lines":[11720],"next":[1161014,1172003,1172009,1172008,1161015]},
{"code":1180640,"station":"伊予桜井","phonetic":"いよさくらい","prefecture":38,"lon":133.035522,"lat":34.011923,"lines":[11806],"next":[1180641,1180630,1180639,1171603,1180631,1180633,9980715,1180642,1171604,1180632]},
{"code":1180641,"station":"伊予富田","phonetic":"いよとみた","prefecture":38,"lon":133.009194,"lat":34.036302,"lines":[11806],"next":[1180640,1180645,1180642,1180647,9980715,1180646]},
{"code":5000239,"station":"新尾道","phonetic":"しんおのみち","prefecture":34,"lon":133.190283,"lat":34.430033,"lines":[50025],"next":[1161018,1161017,1161020,1172016,1172018,1161019]}
],
"voronoi":{
"points":[
133.205000,34.491301,133.213192,34.419659,133.183870,34.172996,133.194431,34.172848,133.159467,34.320992,133.182077,34.250000,133.206968,34.171843,133.000030,34.000000,133.092834,34.100223,133.422335,34.500000,133.447387,34.253545,133.384415,34.223575,133.389030,34.224215,133.146618,34.412790,133.382395,34.500000,133.414572,34.250000,133.416777,34.232863,133.000000,34.215583,133.018924,34.213811,133.000000,34.094477,133.121163,34.183512,133.342982,34.449538,133.355396,34.500000,133.083599,34.000000,133.161917,34.039167,133.132922,34.500000,133.033632,34.388583,133.044264,34.500000,133.404196,34.250000,133.410833,34.228363,133.316007,34.500000,133.039835,34.384307,133.089498,34.385409,133.454012,34.257367,133.473225,34.250000,133.500000,34.239733,133.192569,34.091473,133.197501,34.111510,133.493113,34.293043,133.394954,34.128518,133.395496,34.133376,133.250000,34.184943,133.362936,34.219324,133.500000,34.297612,133.499135,34.054663,133.500000,34.053837,133.240861,34.000000,133.411305,34.228449,133.430440,34.204275,133.187416,34.078376,133.203868,34.000000,133.398138,34.224572,133.142193,34.000000,133.151382,34.007919,133.206044,34.171285,133.213982,34.493399,133.226794,34.500000,133.366927,34.000000,133.250000,34.040447,133.279881,34.000000,133.442140,34.250000,133.113317,34.500000,133.121566,34.470061,133.000000,34.049133,133.432127,34.000000,133.406625,34.000000,133.000000,34.373831,133.014723,34.374626,133.017979,34.250000,133.138026,34.250000,133.500000,34.153810,133.264622,34.500000,133.377398,34.250000,133.474615,34.094400,133.477307,34.000000,133.500000,34.051500,133.250000,34.436377,133.367724,34.250000,133.472496,34.500000,133.150062,34.000000,133.250000,34.370416,133.340007,34.250000
],
"groups":[
{"lon":133000,"lat":34000,"size":250,"index":[2,3,5,6,7,8,17,18,19,20,23,24,18,20,8,2,36,37,6,41,36,46,49,50,52,53,20,2,54,6,49,36,37,58,63,8,68,18,24,49,69,3,37,54,53,24,79,53,3,54]},
{"lon":133000,"lat":34250,"size":250,"index":[0,1,4,5,13,1,25,0,13,4,26,27,31,32,55,56,61,62,66,67,67,68,32,62,31,69,62,13,67,26,55,76,32,4,26,31,0,55,1,80]},
{"lon":133250,"lat":34000,"size":250,"index":[11,12,15,16,28,29,34,35,39,40,41,42,44,45,47,48,51,29,57,39,58,59,16,60,40,64,39,65,12,51,42,11,48,70,72,12,40,51,73,74,44,75,77,11,73,44,48,73,29,47,47,16,81,42]},
{"lon":133250,"lat":34250,"size":250,"index":[9,10,14,15,21,22,21,28,30,21,33,34,33,38,38,43,60,10,71,72,76,77,10,33,78,38,80,81]}
]
}
}