{
"stations":[
{"code":1160214,"station":"大阪","phonetic":"おおさか","prefecture":27,"lon":135.495188,"lat":34.702398,"lines":[11602,11603,11623,11629],"next":[9961910,3400102,3400101,9962001,1162309]},
{"code":3400101,"station":"梅田","phonetic":"うめだ","prefecture":27,"lon":135.498312,"lat":34.705517,"lines":[34003,34001,34002,35001,99618],"next":[3400102,9961909,1160214,9961910,9961805]},
{"code":1162504,"station":"北新地","phonetic":"きたしんち","prefecture":27,"lon":135.497038,"lat":34.698323,"lines":[11625],"next":[9962001,9961910,3300804,3300803]},
{"code":9961910,"station":"東梅田","phonetic":"ひがしうめだ","prefecture":27,"lon":135.499690,"lat":34.701031,"lines":[99619],"next":[1160214,9962302,9961909,3400101,1162504,9961911,9962001,3300803,3300802]},
{"code":9962001,"station":"西梅田","phonetic":"にしうめだ","prefecture":27,"lon":135.495802,"lat":34.699642,"lines":[99620],"next":[1160214,1162504,1162309,3300804,9961910]},
{"code":1160721,"station":"今宮","phonetic":"いまみや","prefecture":27,"lon":135.492975,"lat":34.654156,"lines":[11607,11623],"next":[3200704,9961811,1160720,9962007,1162304,3200904,3200903]},
{"code":1160722,"station":"JR難波","phonetic":"じぇいあーるなんば","prefecture":27,"lon":135.495265,"lat":34.666438,"lines":[11607],"next":[9962004,3100101,3200902,3500210,3200101,1162304,9961810,9962404,3200901,9961811]},
{"code":3400324,"station":"南方(大阪)","phonetic":"みなみかた","prefecture":27,"lon":135.499507,"lat":34.725656,"lines":[34003],"next":[3400810,1160213,9961804,3400811,9961805,3400323]},
{"code":9961804,"station":"西中島南方","phonetic":"にしなかじまみなみがた","prefecture":27,"lon":135.498579,"lat":34.726584,"lines":[99618],"next":[1160213,9961805,3400324,9961802,3400204,3400103]},
{"code":3400103,"station":"十三","phonetic":"じゅうそう","prefecture":27,"lon":135.482480,"lat":34.720226,"lines":[34003,34001,34002],"next":[3400104,3400102,1160302,3400204,1162309,9961804,9961805]},
{"code":1160302,"station":"塚本","phonetic":"つかもと","prefecture":27,"lon":135.468843,"lat":34.712710,"lines":[11603],"next":[1162506,3500104,1162309,1162507,3500105,3400103,3400104,1162508]},
{"code":1160303,"station":"尼崎(JR)","phonetic":"あまがさき","prefecture":28,"lon":135.431685,"lat":34.731791,"lines":[11603,11625,11629],"next":[3500107,1162904,3400105,3400106,1162508,1160304,3500108,3500109]},
{"code":1160304,"station":"立花","phonetic":"たちばな","prefecture":28,"lon":135.399571,"lat":34.737875,"lines":[11603],"next":[1160305,3500111,3500110,3500112,3400107,3500109,1160303,3400106]},
{"code":1160305,"station":"甲子園口","phonetic":"こうしえんぐち","prefecture":28,"lon":135.374426,"lat":34.739052,"lines":[11603],"next":[1160304,3400107,3400404,3500113,3400402,3500112,3500114,3400108]},
{"code":1160306,"station":"西宮(JR)","phonetic":"にしのみや","prefecture":28,"lon":135.348703,"lat":34.738985,"lines":[11603],"next":[3500117,3400402,3400108,3400401,3400502]},
{"code":1160316,"station":"さくら夙川","phonetic":"さくらしゅくがわ","prefecture":28,"lon":135.331093,"lat":34.739079,"lines":[11603],"next":[3400109,3500118,3400502,3500117]},
{"code":1160307,"station":"芦屋(JR)","phonetic":"あしや","prefecture":28,"lon":135.307102,"lat":34.734207,"lines":[11603],"next":[3400502,3500120,3400109,3500119,3400110]},
{"code":1160308,"station":"甲南山手","phonetic":"こうなんやまて","prefecture":28,"lon":135.292788,"lat":34.730616,"lines":[11603],"next":[3500120,3500121,1160309,3400111,3400110]},
{"code":1160309,"station":"摂津本山","phonetic":"せっつもとやま","prefecture":28,"lon":135.276990,"lat":34.726661,"lines":[11603],"next":[3400111,1160310,3500122,3500123,1160308,3500121]},
{"code":1160310,"station":"住吉(JR)","phonetic":"すみよし","prefecture":28,"lon":135.261859,"lat":34.719595,"lines":[11603,99649],"next":[1160309,3500123,3500124,3400111,3400112,3500125]},
{"code":1160311,"station":"六甲道","phonetic":"ろっこうみち","prefecture":28,"lon":135.238588,"lat":34.714945,"lines":[11603],"next":[3400112,3500126,3500127,3400113,3500128]},
{"code":1160317,"station":"摩耶","phonetic":"まや","prefecture":28,"lon":135.225167,"lat":34.708667,"lines":[11603],"next":[3400113,3500129,3400114,3500128]},
{"code":1160312,"station":"灘","phonetic":"なだ","prefecture":28,"lon":135.216578,"lat":34.705918,"lines":[11603],"next":[3400115,3500130,3400114,3500131]},
{"code":1160313,"station":"三ノ宮","phonetic":"さんのみや","prefecture":28,"lon":135.195058,"lat":34.694766,"lines":[11603],"next":[9964802,9964709,3400115,3500131,9963601,1160314,9964603,9963001]},
{"code":9963001,"station":"三宮(神戸三宮)","phonetic":"さんのみや(こうべさんのみや)","prefecture":28,"lon":135.195128,"lat":34.693509,"lines":[99630,99646,99648,34001,35001],"next":[9964709,9964710,1160313,9964802]},
{"code":9964710,"station":"三宮・花時計前","phonetic":"さんのみや・はなどけいまえ","prefecture":28,"lon":135.195538,"lat":34.691618,"lines":[99647],"next":[9964802,9963001,9964709]},
{"code":1160314,"station":"元町(兵庫)","phonetic":"もとまち","prefecture":28,"lon":135.187401,"lat":34.689602,"lines":[11603,35001,99630],"next":[1160313,9964709,9964708,9964603]},
{"code":1160315,"station":"神戸(兵庫)","phonetic":"こうべ","prefecture":28,"lon":135.178221,"lat":34.679453,"lines":[11603,11608],"next":[9963004,9964604,9964707,9963005]},
{"code":9964707,"station":"ハーバーランド","phonetic":"はーばーらんど","prefecture":28,"lon":135.178657,"lat":34.678554,"lines":[99647],"next":[9964706,9964803,9964804,9964708,1160315,9963005,9963004]},
{"code":1162304,"station":"芦原橋","phonetic":"あしはらばし","prefecture":27,"lon":135.489240,"lat":34.658608,"lines":[11623],"next":[3200903,9961811,1160722,3200902,1160721]},
{"code":1162305,"station":"大正(大阪)","phonetic":"たいしょう","prefecture":27,"lon":135.479932,"lat":34.665582,"lines":[11623,99624],"next":[9962402,3200902,3200903,1162306,3500208,3200901,3500209]},
{"code":1162306,"station":"弁天町","phonetic":"べんてんちょう","prefecture":27,"lon":135.462348,"lat":34.669403,"lines":[11623,99621],"next":[3500202,9962103,3200903,3500208,1162307,1162305,1162402]},
{"code":1162307,"station":"西九条","phonetic":"にしくじょう","prefecture":27,"lon":135.466779,"lat":34.682690,"lines":[11623,11624,35002],"next":[3500202,3500104,3500208,1162308,1162306]},
{"code":1162308,"station":"野田(JR)","phonetic":"のだ","prefecture":27,"lon":135.474837,"lat":34.689069,"lines":[11623],"next":[9962202,9962106,1162307,3500104,9962201,3500208,1162506]},
{"code":9962202,"station":"玉川(大阪)","phonetic":"たまがわ","prefecture":27,"lon":135.476187,"lat":34.689607,"lines":[99622],"next":[3300805,9962201,1162308,1162505,3500103,9962106]},
{"code":1162309,"station":"福島(大阪)","phonetic":"ふくしま","prefecture":27,"lon":135.486563,"lat":34.697167,"lines":[11623,35001],"next":[1160302,3500103,3300804,9962001,3400103,1162505,1160214,1162506,3300805,3400102]},
{"code":1162505,"station":"新福島","phonetic":"しんふくしま","prefecture":27,"lon":135.485930,"lat":34.695094,"lines":[11625],"next":[3300805,3500103,9962202,1162309]},
{"code":1162402,"station":"安治川口","phonetic":"あじかわぐち","prefecture":27,"lon":135.443921,"lat":34.673416,"lines":[11624],"next":[9962103,3500204,1162403,1162306,3500203,3500202]},
{"code":1162403,"station":"ユニバーサルシティ","phonetic":"ゆにばーさるしてぃ","prefecture":27,"lon":135.438705,"lat":34.667842,"lines":[11624],"next":[3500204,9962103,3500205,1162404,9962102,1162402]},
{"code":1162404,"station":"桜島","phonetic":"さくらじま","prefecture":27,"lon":135.432136,"lat":34.662065,"lines":[11624],"next":[3500304,3500205,9962102,3500109,1162403,3500110,9962101]},
{"code":1162506,"station":"海老江","phonetic":"えびえ","prefecture":27,"lon":135.473276,"lat":34.695440,"lines":[11625],"next":[1160302,3500103,3500104,1162309,9962201,1162308]},
{"code":3500103,"station":"野田(阪神電気鉄道)","phonetic":"のだ","prefecture":27,"lon":135.476060,"lat":34.694432,"lines":[35001],"next":[1162506,1162505,1162309,9962201,9962202]},
{"code":9962201,"station":"野田阪神","phonetic":"のだはんしん","prefecture":27,"lon":135.476031,"lat":34.694384,"lines":[99622],"next":[9962202,3500103,1162308,1162506]},
{"code":1162507,"station":"御幣島","phonetic":"みてじま","prefecture":27,"lon":135.455680,"lat":34.712590,"lines":[11625],"next":[3500105,1160302,1162508,3500106]},
{"code":1162508,"station":"加島","phonetic":"かしま","prefecture":27,"lon":135.454183,"lat":34.727496,"lines":[11625],"next":[3500106,3400105,3500107,3400104,1162507,1160302,1160303]},
{"code":1162609,"station":"堺市","phonetic":"さかいし","prefecture":27,"lon":135.498644,"lat":34.577765,"lines":[11626],"next":[1162608,3200712,9961819,9961818,3200714,3200713,3200711]},
{"code":3200713,"station":"三国ヶ丘","phonetic":"みくにがおか","prefecture":27,"lon":135.492774,"lat":34.566335,"lines":[32007,11626],"next":[1162611,3200714,1162609,3200712]},
{"code":1162611,"station":"百舌鳥","phonetic":"もず","prefecture":27,"lon":135.488934,"lat":34.558322,"lines":[11626],"next":[3200713,9961602,9962926,3200715,9962925,1162612,3200712,3200714]},
{"code":1162612,"station":"上野芝","phonetic":"うえのしば","prefecture":27,"lon":135.478026,"lat":34.549484,"lines":[11626],"next":[9962927,9961602,9962926,1162611,9962931,1162613]},
{"code":1162613,"station":"津久野","phonetic":"つくの","prefecture":27,"lon":135.468108,"lat":34.542287,"lines":[11626],"next":[9962929,9962928,1162614,9961602,9962931,1162612]},
{"code":1162614,"station":"鳳","phonetic":"おおとり","prefecture":27,"lon":135.458734,"lat":34.531674,"lines":[11626,11627],"next":[9961602,9961604,1162615,1162702,3200113,1162613,9962929]},
{"code":1162615,"station":"富木","phonetic":"とのき","prefecture":27,"lon":135.451171,"lat":34.522534,"lines":[11626],"next":[1162614,1162616,9961605,3200114,1162702,9961604,3200115,3200402]},
{"code":1162616,"station":"北信太","phonetic":"きたしのだ","prefecture":27,"lon":135.441506,"lat":34.510671,"lines":[11626],"next":[9961605,1162615,3200116,3200115,1162617]},
{"code":1162617,"station":"信太山","phonetic":"しのだやま","prefecture":27,"lon":135.432895,"lat":34.500183,"lines":[11626],"next":[3200117,3200116,9961605,1162616,1162618,9961606]},
{"code":1162702,"station":"東羽衣","phonetic":"ひがしはごろも","prefecture":27,"lon":135.442824,"lat":34.535029,"lines":[11627],"next":[3200114,1162614,3200113,9962930,1162615]},
{"code":3200114,"station":"羽衣","phonetic":"はごろも","prefecture":27,"lon":135.441780,"lat":34.534546,"lines":[32001,32004],"next":[1162702,1162615,3200402,3200403,9962930]},
{"code":1162904,"station":"塚口(JR)","phonetic":"つかぐち","prefecture":28,"lon":135.424948,"lat":34.751028,"lines":[11629],"next":[1160303,1162905,3400105,3400106]},
{"code":1162905,"station":"猪名寺","phonetic":"いなでら","prefecture":28,"lon":135.422598,"lat":34.764086,"lines":[11629],"next":[3400602,1162906,3400106,9962601,3400105,1162904,3400603]},
{"code":1162906,"station":"伊丹(JR)","phonetic":"いたみ","prefecture":28,"lon":135.421686,"lat":34.780650,"lines":[11629],"next":[1162905,3400603,9962601,1162907,3400604]},
{"code":1162907,"station":"北伊丹","phonetic":"きたいたみ","prefecture":28,"lon":135.419326,"lat":34.801349,"lines":[11629],"next":[3400215,3400604,3400212,1162908,1162906,9962601,3400211]},
{"code":1162908,"station":"川西池田","phonetic":"かわにしいけだ","prefecture":28,"lon":135.409901,"lat":34.824857,"lines":[11629],"next":[3400215,3400212,1162907,3400213,3400214]},
{"code":1162909,"station":"中山寺","phonetic":"なかやまでら","prefecture":28,"lon":135.373993,"lat":34.816627,"lines":[11629],"next":[3400216,3400604,3400407,3400408,3400215,3400217,3400406]},
{"code":1162910,"station":"宝塚","phonetic":"たからづか","prefecture":28,"lon":135.340399,"lat":34.811562,"lines":[11629,34002,34004],"next":[3400218,1162911,3400409,3400217]},
{"code":1162911,"station":"生瀬","phonetic":"なまぜ","prefecture":28,"lon":135.325058,"lat":34.819159,"lines":[11629],"next":[1162910,1162912,3400409,3400217,1162913,3400503]},
{"code":1162912,"station":"西宮名塩","phonetic":"にしのみやなじお","prefecture":28,"lon":135.308871,"lat":34.827125,"lines":[11629],"next":[1162914,3400503,1162911,9963217,1162913]},
{"code":1162913,"station":"武田尾","phonetic":"たけだお","prefecture":28,"lon":135.305838,"lat":34.855316,"lines":[11629],"next":[3400217,3400216,1162915,1162914,9964002,1162911,1162912]},
{"code":1162914,"station":"道場","phonetic":"どうじょう","prefecture":28,"lon":135.255528,"lat":34.867303,"lines":[11629],"next":[9963307,1162912,9963217,9963309,9963305,1162913,9963304,1162915]},
{"code":1162915,"station":"三田(兵庫)","phonetic":"さんだ","prefecture":28,"lon":135.229790,"lat":34.888787,"lines":[11629,99633,99634],"next":[9963309,9964002,9963404,1162916,1162913,9963308,1162914]},
{"code":1162916,"station":"新三田","phonetic":"しんさんだ","prefecture":28,"lon":135.208610,"lat":34.910183,"lines":[11629],"next":[1162922,9964002,9963404,1162915,9963405,1162917,9963406]},
{"code":1162917,"station":"広野(兵庫)","phonetic":"ひろの","prefecture":28,"lon":135.191267,"lat":34.928424,"lines":[11629],"next":[1162922,1162918,1162919,9963406,1162916]},
{"code":1162918,"station":"相野","phonetic":"あいの","prefecture":28,"lon":135.155998,"lat":34.947482,"lines":[11629],"next":[1163212,1163215,9963512,1162917,9963406,1162919]},
{"code":1162919,"station":"藍本","phonetic":"あいもと","prefecture":28,"lon":135.155533,"lat":34.977041,"lines":[11629],"next":[1163215,1162922,1162917,1162918,1162920]},
{"code":1162920,"station":"草野(兵庫)","phonetic":"くさの","prefecture":28,"lon":135.152400,"lat":34.996887,"lines":[11629],"next":[1163215,1163003,1163216,1162921,1162919,1162922,1163004]},
{"code":3100101,"station":"大阪難波","phonetic":"おおさかなんば","prefecture":27,"lon":135.499144,"lat":34.667113,"lines":[31001,35002],"next":[1160722,9961810,9961809,9962004]},
{"code":3200103,"station":"天下茶屋","phonetic":"てんがちゃや","prefecture":27,"lon":135.496673,"lat":34.636847,"lines":[32001,32007,99623],"next":[9962008,9962007,9962906,9962905,9962907,3200905]},
{"code":3200104,"station":"岸里玉出","phonetic":"きしのさとたまで","prefecture":27,"lon":135.494388,"lat":34.628291,"lines":[32001,32007,32009],"next":[9962910,9962909,9962009,9962908,9962008]},
{"code":9962909,"station":"東玉出","phonetic":"ひがしたまで","prefecture":27,"lon":135.495926,"lat":34.626784,"lines":[99629],"next":[9962908,3200104,3200707,9962806,9962910]},
{"code":3200105,"station":"粉浜","phonetic":"こはま","prefecture":27,"lon":135.491763,"lat":34.618330,"lines":[32001],"next":[5000133,9962010,9962009,9962911,9962910,9962810]},
{"code":9962911,"station":"東粉浜","phonetic":"ひがしこはま","prefecture":27,"lon":135.492588,"lat":34.618133,"lines":[99629],"next":[3200105,9962809,3200707,9962910,9962808,9962810]},
{"code":3200106,"station":"住吉大社","phonetic":"すみよしたいしゃ","prefecture":27,"lon":135.490124,"lat":34.612431,"lines":[32001],"next":[9962010,9962913,9962914,3200107,5000133]},
{"code":9962913,"station":"住吉鳥居前","phonetic":"すみよしとりいまえ","prefecture":27,"lon":135.491093,"lat":34.612139,"lines":[99629],"next":[3200106,9962914,3200708,5000133,9962810]},
{"code":3200107,"station":"住ノ江","phonetic":"すみのえ","prefecture":27,"lon":135.487011,"lat":34.605348,"lines":[32001],"next":[9962010,3200106,9962916,9962915,9962011,9962914,3200108]},
{"code":3200108,"station":"七道","phonetic":"しちどう","prefecture":27,"lon":135.480556,"lat":34.592313,"lines":[32001],"next":[9962918,9962916,9962917,3200109,9962920,3200107,9962011,9962921,9962919]},
{"code":3200109,"station":"堺","phonetic":"さかい","prefecture":27,"lon":135.468754,"lat":34.581958,"lines":[32001],"next":[9962923,3200108,9962508,9962011,9962924,9962509,9962921,9962925,9962922,3200110]},
{"code":3200110,"station":"湊","phonetic":"みなと","prefecture":27,"lon":135.459975,"lat":34.570489,"lines":[32001],"next":[9962507,9962508,9962927,9962925,9962931,9962926,3200111,3200109]},
{"code":3200111,"station":"石津川","phonetic":"いしづがわ","prefecture":27,"lon":135.453178,"lat":34.559377,"lines":[32001],"next":[9962931,3200112,9962928,3200110,9962507]},
{"code":3200112,"station":"諏訪ノ森","phonetic":"すわのもり","prefecture":27,"lon":135.449129,"lat":34.551764,"lines":[32001],"next":[3200111,3200113,9962507,9962930,9962929,9962928]},
{"code":3200113,"station":"浜寺公園","phonetic":"はまでらこうえん","prefecture":27,"lon":135.444629,"lat":34.541243,"lines":[32001],"next":[9962930,3200112,1162614,9962929,1162702]},
{"code":9962930,"station":"浜寺駅前","phonetic":"はまでらえきまえ","prefecture":27,"lon":135.443160,"lat":34.541418,"lines":[99629],"next":[3200113,3200112,1162702,9962507,3200403,3200114]},
{"code":3200115,"station":"高石","phonetic":"たかいし","prefecture":27,"lon":135.432723,"lat":34.521439,"lines":[32001],"next":[3200116,3200402,3200403,1162616,1162615]},
{"code":3200116,"station":"北助松","phonetic":"きたすけまつ","prefecture":27,"lon":135.422779,"lat":34.514523,"lines":[32001],"next":[3200115,1162616,1162617,3200117,3200403]},
{"code":3200117,"station":"松ノ浜","phonetic":"まつのはま","prefecture":27,"lon":135.414702,"lat":34.508932,"lines":[32001],"next":[1162618,1162617,9962503,3200116,3200118,3200403]},
{"code":3200118,"station":"泉大津","phonetic":"いづみおおつ","prefecture":27,"lon":135.406642,"lat":34.503235,"lines":[32001],"next":[9962502,1162618,9964809,3200119,3200117,9962503]},
{"code":3200402,"station":"伽羅橋","phonetic":"きゃらばし","prefecture":27,"lon":135.436847,"lat":34.528869,"lines":[32004],"next":[3200115,3200403,3200114,1162615]},
{"code":3200403,"station":"高師浜","phonetic":"たかしのはま","prefecture":27,"lon":135.431911,"lat":34.527391,"lines":[32004],"next":[9962503,9962507,3200402,3200115,3200116,9962930,3200117,3200114]},
{"code":3200704,"station":"萩ノ茶屋","phonetic":"はぎのちゃや","prefecture":27,"lon":135.498986,"lat":34.645610,"lines":[32007],"next":[1160721,9962903,9962904,9962007,1160720]},
{"code":3200707,"station":"帝塚山","phonetic":"てづかやま","prefecture":27,"lon":135.498406,"lat":34.622332,"lines":[32007],"next":[9962808,9962911,9962909,9962807,9962806,9962910]},
{"code":3200708,"station":"住吉東","phonetic":"すみよしひがし","prefecture":27,"lon":135.497587,"lat":34.613300,"lines":[32007],"next":[9962809,9962810,9962913,3200709,1162605,9962808,9962914,1162606]},
{"code":3200709,"station":"沢ノ町","phonetic":"さわのちょう","prefecture":27,"lon":135.496957,"lat":34.606284,"lines":[32007],"next":[3200710,9962915,1162606,3200708,9962914]},
{"code":3200710,"station":"我孫子前","phonetic":"あびこまえ","prefecture":27,"lon":135.496888,"lat":34.600188,"lines":[32007],"next":[9962916,9962915,9962917,3200709,1162607,1162606,3200711]},
{"code":3200711,"station":"浅香山","phonetic":"あさかやま","prefecture":27,"lon":135.491025,"lat":34.589319,"lines":[32007],"next":[1162607,9962918,1162608,9962919,3200712,9962917,3200710,1162609]},
{"code":3200712,"station":"堺東","phonetic":"さかいひがし","prefecture":27,"lon":135.485062,"lat":34.575878,"lines":[32007],"next":[9962925,1162609,9962921,3200711,9962920,9962919,9962922,9962924,1162611,9962923,3200713]},
{"code":3200714,"station":"百舌鳥八幡","phonetic":"もずはちまん","prefecture":27,"lon":135.498751,"lat":34.560577,"lines":[32007],"next":[9961820,3200713,3200715,9961819,1162611,1162609]},
{"code":3200901,"station":"汐見橋","phonetic":"しおみばし","prefecture":27,"lon":135.486165,"lat":34.667638,"lines":[32009],"next":[3200902,9962402,1160722,1162305,3500210]},
{"code":3500210,"station":"桜川(大阪)","phonetic":"さくらがわ","prefecture":27,"lon":135.486612,"lat":34.668559,"lines":[35002,99622],"next":[1160722,9962404,9962402,3200901,9962204]},
{"code":3200902,"station":"芦原町","phonetic":"あしはらちょう","prefecture":27,"lon":135.486462,"lat":34.660516,"lines":[32009],"next":[3200903,1160722,1162305,3200901,1162304]},
{"code":3200903,"station":"木津川","phonetic":"きづがわ","prefecture":27,"lon":135.483093,"lat":34.654703,"lines":[32009],"next":[3200902,1162304,3200904,1162305,9962103,1162306,1160721]},
{"code":3200904,"station":"津守","phonetic":"つもり","prefecture":27,"lon":135.483349,"lat":34.647004,"lines":[32009],"next":[9962010,9962007,3200905,3200903,9962103,1160721]},
{"code":3200905,"station":"西天下茶屋","phonetic":"にしてんがちゃや","prefecture":27,"lon":135.489079,"lat":34.638736,"lines":[32009],"next":[9962008,3200904,9962010,9962009,3200103,9962007]},
{"code":3300804,"station":"渡辺橋","phonetic":"わたなべばし","prefecture":27,"lon":135.495420,"lat":34.693916,"lines":[33008],"next":[3300803,1162309,9962002,9962001,1162504,3300805]},
{"code":9962002,"station":"肥後橋","phonetic":"ひごばし","prefecture":27,"lon":135.496388,"lat":34.691355,"lines":[99620],"next":[9962106,9961808,3300803,3300804,3300140,3300805]},
{"code":3300805,"station":"中之島","phonetic":"なかのしま","prefecture":27,"lon":135.487373,"lat":34.691504,"lines":[33008],"next":[9962202,1162505,9962106,1162309,3300804,9962002]},
{"code":3400102,"station":"中津(阪急電鉄)","phonetic":"なかつ","prefecture":27,"lon":135.493011,"lat":34.709745,"lines":[34001,34002],"next":[3400101,1160214,3400103,9961805,1162309]},
{"code":3400104,"station":"神崎川","phonetic":"かんざきがわ","prefecture":27,"lon":135.472967,"lat":34.732249,"lines":[34001],"next":[3400105,3400103,1162508,3400205,3400204,1160302]},
{"code":3400105,"station":"園田","phonetic":"そのだ","prefecture":28,"lon":135.448186,"lat":34.751905,"lines":[34001],"next":[3400104,3400205,3400207,9962601,1162508,1160303,3400208,1162905,1162904,3400206]},
{"code":3400106,"station":"塚口(阪急電鉄)","phonetic":"つかぐち","prefecture":28,"lon":135.415850,"lat":34.752826,"lines":[34001,34006],"next":[3400107,3400602,1162905,1160303,1162904,1160304]},
{"code":3400107,"station":"武庫之荘","phonetic":"むこのそう","prefecture":28,"lon":135.393821,"lat":34.751587,"lines":[34001],"next":[3400106,1160305,3400404,3400405,3400602,1160304,3400604,3400603]},
{"code":3400108,"station":"西宮北口","phonetic":"にしのみやきたぐち","prefecture":28,"lon":135.356702,"lat":34.745951,"lines":[34001,34004],"next":[3400402,3400404,1160306,3400502,1160305]},
{"code":3400109,"station":"夙川","phonetic":"しゅくがわ","prefecture":28,"lon":135.328207,"lat":34.742246,"lines":[34001,34005],"next":[3500119,1160316,3400502,1160307,3500118]},
{"code":3400110,"station":"芦屋川","phonetic":"あしやがわ","prefecture":28,"lon":135.300651,"lat":34.736338,"lines":[34001],"next":[9963217,3400503,3400502,1160307,3500120,3400111,1160308]},
{"code":3400111,"station":"岡本(兵庫)","phonetic":"おかもと","prefecture":28,"lon":135.275937,"lat":34.729171,"lines":[34001],"next":[1160309,9963217,3400112,1160310,1160308,3400110]},
{"code":3400112,"station":"御影(阪急電鉄)","phonetic":"みかげ","prefecture":28,"lon":135.251803,"lat":34.724508,"lines":[34001],"next":[3400113,3500125,1160311,3400111,9963214,3500126,9963213,1160310,9963215,9963217]},
{"code":3400113,"station":"六甲","phonetic":"ろっこう","prefecture":28,"lon":135.234371,"lat":34.719891,"lines":[34001],"next":[3400112,9963211,1160317,3400114,1160311,9963213,3500128,9963212]},
{"code":3400114,"station":"王子公園","phonetic":"おうじこうえん","prefecture":28,"lon":135.218553,"lat":34.710354,"lines":[34001],"next":[3500129,3400113,1160312,1160317,3500130,9963211,3400115,9963601]},
{"code":3400115,"station":"春日野道(阪急電鉄)","phonetic":"かすがのみち","prefecture":28,"lon":135.205396,"lat":34.702990,"lines":[34001],"next":[1160312,3500131,1160313,9963601,3400114]},
{"code":3400204,"station":"三国(大阪)","phonetic":"みくに","prefecture":27,"lon":135.483128,"lat":34.737254,"lines":[34002],"next":[9961802,9961404,3400104,9961804,3400205,3400103]},
{"code":3400205,"station":"庄内(大阪)","phonetic":"しょうない","prefecture":27,"lon":135.475095,"lat":34.750333,"lines":[34002],"next":[3400105,3400104,3400204,9961404,3400206]},
{"code":3400206,"station":"服部天神","phonetic":"はっとりてんじん","prefecture":27,"lon":135.475111,"lat":34.763024,"lines":[34002],"next":[3400207,9961403,9961404,3400205,3400105]},
{"code":3400207,"station":"曽根(大阪)","phonetic":"そね","prefecture":27,"lon":135.467770,"lat":34.771078,"lines":[34002],"next":[3400105,3400206,3400208,9961403]},
{"code":3400208,"station":"岡町","phonetic":"おかまち","prefecture":27,"lon":135.465103,"lat":34.778949,"lines":[34002],"next":[9961402,3400105,9961403,9962604,9962601,3400207,3400209]},
{"code":3400209,"station":"豊中","phonetic":"とよなか","prefecture":27,"lon":135.462073,"lat":34.787248,"lines":[34002],"next":[9962603,3400210,9962604,3400208,9962601]},
{"code":3400210,"station":"蛍池","phonetic":"ほたるがいけ","prefecture":27,"lon":135.449238,"lat":34.794365,"lines":[34002,99626],"next":[3400209,3400211,9962601,9962603]},
{"code":3400211,"station":"石橋(大阪)","phonetic":"いしばし","prefecture":27,"lon":135.445487,"lat":34.808254,"lines":[34002,34007],"next":[9962603,3400702,9962601,3400210,3400212,1162907]},
{"code":3400212,"station":"池田(大阪)","phonetic":"いけだ","prefecture":27,"lon":135.425797,"lat":34.821544,"lines":[34002],"next":[1162907,1162908,3400702,9961502,3400211,3400213]},
{"code":3400213,"station":"川西能勢口","phonetic":"かわにしのせぐち","prefecture":28,"lon":135.413393,"lat":34.827654,"lines":[34002,99615],"next":[9961504,3400214,1162908,3400212,9961503,9961502]},
{"code":3400214,"station":"雲雀丘花屋敷","phonetic":"ひばりがおかはなやしき","prefecture":28,"lon":135.402946,"lat":34.827357,"lines":[34002],"next":[3400215,9961506,3400213,9961504,9961505,1162908]},
{"code":3400215,"station":"山本(兵庫)","phonetic":"やまもと","prefecture":28,"lon":135.388503,"lat":34.821918,"lines":[34002],"next":[1162907,1162908,3400214,9961506,3400216,3400604,1162909]},
{"code":3400216,"station":"中山観音","phonetic":"なかやまかんのん","prefecture":28,"lon":135.369235,"lat":34.819518,"lines":[34002],"next":[1162909,3400215,3400217,1162913,9961506,9964002]},
{"code":3400217,"station":"売布神社","phonetic":"めふじんじゃ","prefecture":28,"lon":135.361339,"lat":34.815863,"lines":[34002],"next":[3400216,1162913,3400218,1162909,1162911,3400408,1162910]},
{"code":3400218,"station":"清荒神","phonetic":"きよしこうじん","prefecture":28,"lon":135.353520,"lat":34.811271,"lines":[34002],"next":[1162910,3400409,3400408,3400217]},
{"code":3400702,"station":"桜井(大阪)","phonetic":"さくらい","prefecture":27,"lon":135.460705,"lat":34.816801,"lines":[34007],"next":[3400211,3400212,9962604,3400703,9962603,9961502,3400704]},
{"code":3400703,"station":"牧落","phonetic":"まきおち","prefecture":27,"lon":135.465794,"lat":34.823436,"lines":[34007],"next":[9961401,3400702,3400704,9962604]},
{"code":3400704,"station":"箕面","phonetic":"みのお","prefecture":27,"lon":135.468190,"lat":34.834404,"lines":[34007],"next":[9961502,9961505,9961513,9961507,3400703,3400801,9961508,9961503,9961512,9961401,9962705,9961514,3400702]},
{"code":3500104,"station":"淀川","phonetic":"よどがわ","prefecture":27,"lon":135.465249,"lat":34.696159,"lines":[35001],"next":[3500202,1162307,1160302,1162506,3500203,3500105,1162308]},
{"code":3500105,"station":"姫島","phonetic":"ひめじま","prefecture":27,"lon":135.458230,"lat":34.704466,"lines":[35001],"next":[1162507,1160302,3500203,3500104,3500204,3500106]},
{"code":3500106,"station":"千船","phonetic":"ちぶね","prefecture":27,"lon":135.445361,"lat":34.712245,"lines":[35001],"next":[1162508,3500205,1162507,3500107,3500105,3500204]},
{"code":3500107,"station":"杭瀬","phonetic":"くいせ","prefecture":28,"lon":135.438840,"lat":34.718272,"lines":[35001],"next":[1160303,3500108,1162508,3500106,3500205]},
{"code":3500108,"station":"大物","phonetic":"だいもつ","prefecture":28,"lon":135.425549,"lat":34.716583,"lines":[35001,35002],"next":[3500107,3500109,3500205,1160303]},
{"code":3500109,"station":"尼崎(阪神電気鉄道)","phonetic":"あまがさき","prefecture":28,"lon":135.417309,"lat":34.718634,"lines":[35001,35002],"next":[3500205,1162404,3500110,3500108,1160304,1160303]},
{"code":3500110,"station":"出屋敷","phonetic":"でやしき","prefecture":28,"lon":135.404604,"lat":34.718232,"lines":[35001],"next":[1160304,3500109,3500111,1162404,3500304]},
{"code":3500111,"station":"尼崎センタープール前","phonetic":"あまがさきせんたーぷーるまえ","prefecture":28,"lon":135.395044,"lat":34.717760,"lines":[35001],"next":[3500303,1160304,3500302,3500110,3500112,3500304]},
{"code":3500112,"station":"武庫川","phonetic":"むこがわ","prefecture":28,"lon":135.383654,"lat":34.718154,"lines":[35001,35003],"next":[1160304,3500113,1160305,3500302,3500111]},
{"code":3500113,"station":"鳴尾","phonetic":"なるお","prefecture":28,"lon":135.370360,"lat":34.719684,"lines":[35001],"next":[3500304,3500303,1160305,3500112,3500302,3500114]},
{"code":3500114,"station":"甲子園","phonetic":"こうしえん","prefecture":28,"lon":135.363157,"lat":34.723987,"lines":[35001],"next":[3400402,3500304,3500113,3500115,1160305]},
{"code":3500115,"station":"久寿川","phonetic":"くすがわ","prefecture":28,"lon":135.356811,"lat":34.726975,"lines":[35001],"next":[3400401,3500304,3500118,3400402,3500114]},
{"code":3400401,"station":"今津(兵庫)","phonetic":"いまづ","prefecture":28,"lon":135.351568,"lat":34.730953,"lines":[35001,34004],"next":[3500115,3500118,1160306,3500117,3400402]},
{"code":3500117,"station":"西宮(阪神電気鉄道)","phonetic":"にしのみや","prefecture":28,"lon":135.337759,"lat":34.736858,"lines":[35001],"next":[1160306,3400502,3500118,3400401,1160316]},
{"code":3500118,"station":"香櫨園","phonetic":"こうろえん","prefecture":28,"lon":135.328929,"lat":34.734344,"lines":[35001],"next":[3500115,3400401,3500117,1160316,3500304,3500119,3400109]},
{"code":3500119,"station":"打出","phonetic":"うちで","prefecture":28,"lon":135.315481,"lat":34.731616,"lines":[35001],"next":[3500304,3400109,3500120,1160307,3500118]},
{"code":3500120,"station":"芦屋(阪神電気鉄道)","phonetic":"あしや","prefecture":28,"lon":135.303969,"lat":34.728052,"lines":[35001],"next":[1160308,3500119,3500304,1160307,9964906,3400110,3500121]},
{"code":3500121,"station":"深江","phonetic":"ふかえ","prefecture":28,"lon":135.291347,"lat":34.722583,"lines":[35001],"next":[9964906,9964905,1160308,3500122,1160309,3500120]},
{"code":3500122,"station":"青木","phonetic":"おおぎ","prefecture":28,"lon":135.280620,"lat":34.716950,"lines":[35001],"next":[9964904,1160309,9964903,3500123,3500121,9964905]},
{"code":3500123,"station":"魚崎","phonetic":"うおざき","prefecture":28,"lon":135.269240,"lat":34.712620,"lines":[35001,99649],"next":[1160310,1160309,9964903,3500124,3500122]},
{"code":3500124,"station":"住吉(阪神電気鉄道)","phonetic":"すみよし","prefecture":28,"lon":135.261655,"lat":34.713025,"lines":[35001],"next":[1160310,3500125,9964903,3500123,3500126]},
{"code":3500125,"station":"御影(阪神電気鉄道)","phonetic":"みかげ","prefecture":28,"lon":135.255690,"lat":34.714895,"lines":[35001],"next":[3500126,3400112,3500124,1160310]},
{"code":3500126,"station":"石屋川","phonetic":"いしやがわ","prefecture":28,"lon":135.249329,"lat":34.713270,"lines":[35001],"next":[3500125,1160311,3400112,3500127,9964904,3500124,9964903]},
{"code":3500127,"station":"新在家","phonetic":"しんざいけ","prefecture":28,"lon":135.240565,"lat":34.710573,"lines":[35001],"next":[9964905,9964904,3500126,1160311,3500128]},
{"code":3500128,"station":"大石","phonetic":"おおいし","prefecture":28,"lon":135.231055,"lat":34.707671,"lines":[35001],"next":[9964905,9964812,9964811,9964906,3400113,3500127,1160317,1160311,3500129]},
{"code":3500129,"station":"西灘","phonetic":"にしなだ","prefecture":28,"lon":135.224639,"lat":34.705782,"lines":[35001],"next":[9964812,3400114,1160317,3500130,3500128]},
{"code":3500130,"station":"岩屋(兵庫)","phonetic":"いわや","prefecture":28,"lon":135.217962,"lat":34.704065,"lines":[35001],"next":[1160312,3500131,3400114,3500129,9964812]},
{"code":3500131,"station":"春日野道(阪神電気鉄道)","phonetic":"かすがのみち","prefecture":28,"lon":135.207968,"lat":34.699513,"lines":[35001],"next":[3400115,3500130,1160313,9964802,9964803,9964812,1160312]},
{"code":3500209,"station":"ドーム前","phonetic":"どーむまえ","prefecture":27,"lon":135.478313,"lat":34.670266,"lines":[35002],"next":[3500208,9962402,1162305]},
{"code":9962402,"station":"ドーム前千代崎","phonetic":"どーむまえちよざき","prefecture":27,"lon":135.479415,"lat":34.670757,"lines":[99624],"next":[1162305,3500210,9962204,3500209,3200901,3500208,9962106]},
{"code":3500208,"station":"九条(大阪)","phonetic":"くじょう","prefecture":27,"lon":135.474483,"lat":34.673412,"lines":[35002,99621],"next":[3500209,1162307,1162306,1162305,9962106,1162308,9962402]},
{"code":3500202,"station":"千鳥橋","phonetic":"ちどりばし","prefecture":27,"lon":135.457817,"lat":34.685460,"lines":[35002],"next":[1162307,3500104,1162306,1162402,3500203]},
{"code":3500203,"station":"伝法","phonetic":"でんぽう","prefecture":27,"lon":135.451559,"lat":34.689256,"lines":[35002],"next":[3500105,3500104,1162402,3500202,3500204]},
{"code":3500204,"station":"福","phonetic":"ふく","prefecture":27,"lon":135.442692,"lat":34.699791,"lines":[35002],"next":[1162403,1162402,3500205,3500105,3500203,3500106]},
{"code":3500205,"station":"出来島","phonetic":"できじま","prefecture":27,"lon":135.436921,"lat":34.707173,"lines":[35002],"next":[1162404,3500109,3500106,1162403,3500107,3500108,3500204]},
{"code":9961401,"station":"千里中央","phonetic":"せんりちゅうおう","prefecture":27,"lon":135.495067,"lat":34.808655,"lines":[99614,99626],"next":[3400802,3400703,3400803,9962604,3400801,9961402,3400704]},
{"code":9961402,"station":"桃山台","phonetic":"ももやまだい","prefecture":27,"lon":135.497142,"lat":34.793842,"lines":[99614],"next":[9962604,3400208,3400803,9961401,9961403,3400804]},
{"code":9961403,"station":"緑地公園","phonetic":"りょくちこうえん","prefecture":27,"lon":135.495278,"lat":34.774772,"lines":[99614],"next":[3400805,3400804,9961404,3400208,3400206,3400207,9961402]},
{"code":9961404,"station":"江坂","phonetic":"えさか","prefecture":27,"lon":135.497106,"lat":34.758755,"lines":[99614,99618],"next":[1164110,3400204,9961802,9961403,3400806,3400205,3400206,3400805]},
{"code":9961502,"station":"絹延橋","phonetic":"きぬのべばし","prefecture":28,"lon":135.423025,"lat":34.834809,"lines":[99615],"next":[3400704,3400212,9961503,3400702,3400213]},
{"code":9961503,"station":"滝山","phonetic":"たきやま","prefecture":28,"lon":135.421197,"lat":34.843075,"lines":[99615],"next":[9961505,3400704,9961502,9961504,3400213]},
{"code":9961504,"station":"鶯の森","phonetic":"うぐいすのもり","prefecture":28,"lon":135.418888,"lat":34.847747,"lines":[99615],"next":[9961505,3400213,3400214,9961503]},
{"code":9961505,"station":"鼓滝","phonetic":"つつみがたき","prefecture":28,"lon":135.418339,"lat":34.854735,"lines":[99615],"next":[9961503,9961506,9961504,3400704,9961507,3400214]},
{"code":9961506,"station":"多田(兵庫)","phonetic":"ただ","prefecture":28,"lon":135.416497,"lat":34.860815,"lines":[99615],"next":[9961505,9961507,3400215,3400214,9964002,3400216]},
{"code":9961507,"station":"平野(兵庫)","phonetic":"ひらの","prefecture":28,"lon":135.417266,"lat":34.868719,"lines":[99615],"next":[9961506,9964002,3400704,9961508,9961505,9961509]},
{"code":9961508,"station":"一の鳥居","phonetic":"いちのとりい","prefecture":28,"lon":135.419888,"lat":34.879599,"lines":[99615],"next":[9961512,9961509,3400704,9961507,9961511]},
{"code":9961509,"station":"畦野","phonetic":"うねの","prefecture":28,"lon":135.415594,"lat":34.884954,"lines":[99615],"next":[9961508,9964002,9961510,9961511,9961507]},
{"code":9961510,"station":"山下(兵庫)","phonetic":"やました","prefecture":28,"lon":135.412172,"lat":34.892926,"lines":[99615,99640],"next":[9961511,9961509,9964002]},
{"code":9961511,"station":"笹部","phonetic":"ささべ","prefecture":28,"lon":135.416269,"lat":34.893765,"lines":[99615],"next":[9964002,9961510,9961509,9961508,9961512]},
{"code":9961512,"station":"光風台(大阪)","phonetic":"こうふうだい","prefecture":27,"lon":135.431429,"lat":34.899887,"lines":[99615],"next":[9961508,9961513,3400704,9961511,9964002]},
{"code":9961513,"station":"ときわ台(大阪)","phonetic":"ときわだい","prefecture":27,"lon":135.438195,"lat":34.906134,"lines":[99615],"next":[3400704,9964002,9961512,9961514]},
{"code":9961514,"station":"妙見口","phonetic":"みょうけんぐち","prefecture":27,"lon":135.444597,"lat":34.911539,"lines":[99615],"next":[9964002,1161415,1161410,9962705,1161414,9961513,1161413,1161411,3400704]},
{"code":9961602,"station":"深井","phonetic":"ふかい","prefecture":27,"lon":135.497461,"lat":34.530398,"lines":[99616],"next":[9961603,9961604,3200718,1162614,1162612,3200716,1162611,3200715,1162613,3200717]},
{"code":9961802,"station":"東三国","phonetic":"ひがしみくに","prefecture":27,"lon":135.498496,"lat":34.741052,"lines":[99618],"next":[1160212,3400204,1164110,9961804,9961404,1160213]},
{"code":9961805,"station":"中津(OsakaMetro)","phonetic":"なかつ","prefecture":27,"lon":135.496938,"lat":34.711191,"lines":[99618],"next":[3400102,9961804,9961909,3400324,3400811,3400101,3400103]},
{"code":9961808,"station":"本町","phonetic":"ほんまち","prefecture":27,"lon":135.498982,"lat":34.681936,"lines":[99618,99620,99621],"next":[9961809,9962404,9962002,9962004,9962108,3300140,9962106]},
{"code":9961811,"station":"大国町","phonetic":"だいこくちょう","prefecture":27,"lon":135.497800,"lat":34.656075,"lines":[99618,99620],"next":[1160721,1162304,3200702,1160720,1160722,3200101]},
{"code":9962004,"station":"四ツ橋","phonetic":"よつばし","prefecture":27,"lon":135.496783,"lat":34.674112,"lines":[99620],"next":[1160722,9961808,9962404,3100101,9961809]},
{"code":9962007,"station":"花園町","phonetic":"はなぞのちょう","prefecture":27,"lon":135.496636,"lat":34.644371,"lines":[99620],"next":[9962904,3200904,3200704,3200103,1160721,9962905,3200905]},
{"code":9962008,"station":"岸里","phonetic":"きしのさと","prefecture":27,"lon":135.493859,"lat":34.634372,"lines":[99620],"next":[3200103,9962009,9962908,3200905,9962907,3200104]},
{"code":9962009,"station":"玉出","phonetic":"たまで","prefecture":27,"lon":135.490527,"lat":34.624096,"lines":[99620],"next":[9962910,9962008,3200105,3200104,9962010,3200905]},
{"code":9962010,"station":"北加賀屋","phonetic":"きたかがや","prefecture":27,"lon":135.478861,"lat":34.621318,"lines":[99620],"next":[3200904,3200105,3200107,3200106,9962508,9962011,9962009,9962103,3200905,9962509,5000133]},
{"code":9962011,"station":"住之江公園","phonetic":"すみのえこうえん","prefecture":27,"lon":135.471879,"lat":34.609269,"lines":[99620,99625],"next":[9962010,3200109,9962509,3200107,3200108]},
{"code":9962101,"station":"コスモスクエア","phonetic":"こすもすくえあ","prefecture":27,"lon":135.412472,"lat":34.642888,"lines":[99621,99625],"next":[9962503,9962102,3500304,9962502,1162404]},
{"code":9962102,"station":"大阪港","phonetic":"おおさかこう","prefecture":27,"lon":135.434336,"lat":34.653880,"lines":[99621],"next":[9962103,1162404,9962505,9962101,9962503,1162403]},
{"code":9962103,"station":"朝潮橋","phonetic":"あさしおばし","prefecture":27,"lon":135.448863,"lat":34.661035,"lines":[99621],"next":[9962102,9962508,1162402,1162403,9962505,9962010,1162306,3200903,3200904]},
{"code":9962106,"station":"阿波座","phonetic":"あわざ","prefecture":27,"lon":135.486297,"lat":34.681483,"lines":[99621,99622],"next":[9962002,9962404,1162308,3300805,3500208,9961808,9962202,9962402,9962204]},
{"code":9962204,"station":"西長堀","phonetic":"にしながほり","prefecture":27,"lon":135.487223,"lat":34.675256,"lines":[99622,99624],"next":[9962404,9962402,9962106,3500210]},
{"code":9962404,"station":"西大橋","phonetic":"にしおおはし","prefecture":27,"lon":135.493575,"lat":34.675442,"lines":[99624],"next":[3500210,9961808,9962106,9962004,1160722,9962204]},
{"code":9962502,"station":"トレードセンター前","phonetic":"とれーどせんたーまえ","prefecture":27,"lon":135.412336,"lat":34.638650,"lines":[99625],"next":[3200118,9964906,3500304,9964809,9962101,9962503]},
{"code":9962503,"station":"中ふ頭","phonetic":"なかふとう","prefecture":27,"lon":135.417416,"lat":34.634091,"lines":[99625],"next":[9962505,3200403,9962101,3200117,9962507,9962506,9962102,9962504,9962502,3200118]},
{"code":9962504,"station":"ポートタウン西","phonetic":"ぽーとたうんにし","prefecture":27,"lon":135.422777,"lat":34.630899,"lines":[99625],"next":[9962503,9962505,9962506]},
{"code":9962505,"station":"ポートタウン東","phonetic":"ぽーとたうんひがし","prefecture":27,"lon":135.429085,"lat":34.630882,"lines":[99625],"next":[9962503,9962508,9962102,9962506,9962103,9962504]},
{"code":9962506,"station":"フェリーターミナル","phonetic":"ふぇりーたーみなる","prefecture":27,"lon":135.434962,"lat":34.619253,"lines":[99625],"next":[9962508,9962505,9962507,9962503,9962504]},
{"code":9962507,"station":"南港東","phonetic":"なんこうひがし","prefecture":27,"lon":135.438607,"lat":34.613826,"lines":[99625],"next":[9962508,3200110,3200403,9962503,3200112,9962506,9962930,3200111]},
{"code":9962508,"station":"南港口","phonetic":"なんこうぐち","prefecture":27,"lon":135.445959,"lat":34.613826,"lines":[99625],"next":[9962506,9962103,9962507,9962505,3200109,9962509,9962010,3200110]},
{"code":9962509,"station":"平林(大阪)","phonetic":"ひらばやし","prefecture":27,"lon":135.458585,"lat":34.610683,"lines":[99625],"next":[9962508,3200109,9962010,9962011]},
{"code":9962601,"station":"大阪空港","phonetic":"おおさかくうこう","prefecture":27,"lon":135.441821,"lat":34.791598,"lines":[99626],"next":[3400105,3400211,1162906,1162905,3400210,3400208,1162907,3400209]},
{"code":9962603,"station":"柴原","phonetic":"しばはら","prefecture":27,"lon":135.458734,"lat":34.800266,"lines":[99626],"next":[3400209,3400211,9962604,3400702,3400210]},
{"code":9962604,"station":"少路","phonetic":"しょうじ","prefecture":27,"lon":135.475510,"lat":34.804246,"lines":[99626],"next":[9961402,3400702,9961401,9962603,3400208,3400703,3400209]},
{"code":9962808,"station":"帝塚山四丁目","phonetic":"てづかやまよんちょうめ","prefecture":27,"lon":135.499051,"lat":34.617649,"lines":[99628],"next":[3200707,1162605,9962807,9962911,3200708,9962809]},
{"code":9962809,"station":"神ノ木","phonetic":"かみのき","prefecture":27,"lon":135.496957,"lat":34.615844,"lines":[99628],"next":[3200708,9962911,9962810,9962808]},
{"code":9962810,"station":"住吉(大阪)","phonetic":"すみよし","prefecture":27,"lon":135.491846,"lat":34.614480,"lines":[99628,99629],"next":[5000133,3200708,9962911,9962809,3200105,9962913]},
{"code":9962907,"station":"聖天坂","phonetic":"しょうてんさか","prefecture":27,"lon":135.499423,"lat":34.632909,"lines":[99629],"next":[9962804,9962906,3200103,9962805,9962008,9962908]},
{"code":9962908,"station":"天神ノ森","phonetic":"てんじんのもり","prefecture":27,"lon":135.497990,"lat":34.629603,"lines":[99629],"next":[9962806,9962805,9962909,9962008,3200104,9962907]},
{"code":9962910,"station":"塚西","phonetic":"つかにし","prefecture":27,"lon":135.494651,"lat":34.623524,"lines":[99629],"next":[9962009,3200104,9962911,3200105,9962909,3200707]},
{"code":9962914,"station":"細井川","phonetic":"ほそいがわ","prefecture":27,"lon":135.491221,"lat":34.609978,"lines":[99629],"next":[9962915,3200106,9962913,3200107,3200708,3200709]},
{"code":9962915,"station":"安立町","phonetic":"あんりゅうまち","prefecture":27,"lon":135.490188,"lat":34.605706,"lines":[99629],"next":[3200710,9962914,3200709,3200107,9962916]},
{"code":9962916,"station":"我孫子道","phonetic":"あびこみち","prefecture":27,"lon":135.488833,"lat":34.600379,"lines":[99629],"next":[3200710,3200108,9962917,3200107,9962915]},
{"code":9962917,"station":"大和川","phonetic":"やまとがわ","prefecture":27,"lon":135.486764,"lat":34.594721,"lines":[99629],"next":[3200710,3200108,9962916,9962918,3200711]},
{"code":9962918,"station":"高須神社","phonetic":"たかすじんしゃ","prefecture":27,"lon":135.485184,"lat":34.590488,"lines":[99629],"next":[3200108,3200711,9962917,9962919]},
{"code":9962919,"station":"綾ノ町","phonetic":"あやのちょう","prefecture":27,"lon":135.483150,"lat":34.587941,"lines":[99629],"next":[9962920,3200711,3200712,9962918,3200108]},
{"code":9962920,"station":"神明町","phonetic":"しんめいちょう","prefecture":27,"lon":135.480120,"lat":34.585277,"lines":[99629],"next":[9962919,3200712,3200108,9962921]},
{"code":9962921,"station":"妙国寺前","phonetic":"みょうこくじまえ","prefecture":27,"lon":135.478426,"lat":34.583444,"lines":[99629],"next":[3200712,3200109,9962920,3200108,9962922]},
{"code":9962922,"station":"花田口","phonetic":"はなたぐち","prefecture":27,"lon":135.476651,"lat":34.581519,"lines":[99629],"next":[9962923,3200712,3200109,9962921]},
{"code":9962923,"station":"大小路","phonetic":"おおしょうじ","prefecture":27,"lon":135.474448,"lat":34.579158,"lines":[99629],"next":[3200109,9962922,9962924,3200712]},
{"code":9962924,"station":"宿院","phonetic":"しゅくいん","prefecture":27,"lon":135.471960,"lat":34.576439,"lines":[99629],"next":[9962923,3200109,9962925,3200712]},
{"code":9962925,"station":"寺地町","phonetic":"てらぢちょう","prefecture":27,"lon":135.469335,"lat":34.573637,"lines":[99629],"next":[3200712,9962926,3200110,9962924,1162611,3200109]},
{"code":9962926,"station":"御陵前","phonetic":"ごりょうまえ","prefecture":27,"lon":135.466605,"lat":34.570639,"lines":[99629],"next":[9962925,1162611,1162612,9962927,3200110]},
{"code":9962927,"station":"東湊","phonetic":"ひがしみなと","prefecture":27,"lon":135.462522,"lat":34.564737,"lines":[99629],"next":[1162612,3200110,9962926,9962931]},
{"code":9962931,"station":"石津北","phonetic":"いしづきた","prefecture":27,"lon":135.458806,"lat":34.560111,"lines":[99629],"next":[9962928,3200111,3200110,9962927,1162612,1162613]},
{"code":9962928,"station":"石津(大阪)","phonetic":"いしづ","prefecture":27,"lon":135.455075,"lat":34.555444,"lines":[99629],"next":[9962931,1162613,3200111,9962929,3200112]},
{"code":9962929,"station":"船尾(大阪)","phonetic":"ふなお","prefecture":27,"lon":135.450565,"lat":34.549914,"lines":[99629],"next":[1162613,3200112,3200113,9962928,1162614]},
{"code":1160802,"station":"兵庫","phonetic":"ひょうご","prefecture":28,"lon":135.164706,"lat":34.668343,"lines":[11608,11613],"next":[9963008,1161302,9963006,9963007,9964706,9964704,9964703]},
{"code":1160803,"station":"新長田","phonetic":"しんながた","prefecture":28,"lon":135.145193,"lat":34.657525,"lines":[11608,99645,99646,99647],"next":[1160804,9963702,9964703,9963008,9963009,9964702]},
{"code":1160804,"station":"鷹取","phonetic":"たかとり","prefecture":28,"lon":135.135275,"lat":34.651667,"lines":[11608],"next":[1160803,9963702,9964702,1160822,9963703]},
{"code":1160822,"station":"須磨海浜公園","phonetic":"すまかいひんこうえん","prefecture":28,"lon":135.126616,"lat":34.647185,"lines":[11608],"next":[1160804,1162803,9963703,9963704,9963705,9964702,1160805]},
{"code":1160805,"station":"須磨","phonetic":"すま","prefecture":28,"lon":135.112814,"lat":34.642292,"lines":[11608],"next":[9963706,9963705,9963707,1162803,1160822]},
{"code":9963706,"station":"山陽須磨","phonetic":"さんようすま","prefecture":28,"lon":135.112208,"lat":34.643459,"lines":[99637],"next":[9963705,1160805,9963707,9964503]},
{"code":1160806,"station":"塩屋(兵庫)","phonetic":"しおや","prefecture":28,"lon":135.083361,"lat":34.633507,"lines":[11608],"next":[1162803,9963709,9964504,9963707,9963708]},
{"code":9963708,"station":"山陽塩屋","phonetic":"さんようしおや","prefecture":28,"lon":135.082389,"lat":34.633579,"lines":[99637],"next":[9964504,9963709,1160806,9964505]},
{"code":1160807,"station":"垂水","phonetic":"たるみ","prefecture":28,"lon":135.053872,"lat":34.629252,"lines":[11608],"next":[9963711,9963710,3200604,9963712]},
{"code":9963711,"station":"山陽垂水","phonetic":"さんようたるみ","prefecture":28,"lon":135.053622,"lat":34.629468,"lines":[99637],"next":[1160807,9964506,9963712,9963710]},
{"code":1160808,"station":"舞子","phonetic":"まいこ","prefecture":28,"lon":135.034373,"lat":34.633020,"lines":[11608],"next":[9963717,9963716,1160809,9963715,9963713,3200509,9963712,9963714,9963718]},
{"code":9963713,"station":"舞子公園","phonetic":"まいここうえん","prefecture":28,"lon":135.033676,"lat":34.634156,"lines":[99637],"next":[9964506,9963714,1160808,9963712]},
{"code":1160809,"station":"朝霧","phonetic":"あさぎり","prefecture":28,"lon":135.017485,"lat":34.644196,"lines":[11608],"next":[1160808,9963714,9963715,9964507]},
{"code":1161302,"station":"和田岬","phonetic":"わだみさき","prefecture":28,"lon":135.174268,"lat":34.657278,"lines":[11613,99647],"next":[9964704,9964706,9964809,9964806,1160802,9964805,9964807]},
{"code":3400402,"station":"阪神国道","phonetic":"はんしんこくどう","prefecture":28,"lon":135.354702,"lat":34.737150,"lines":[34004],"next":[3500114,3400108,1160305,3500115,1160306,3400401]},
{"code":3400404,"station":"門戸厄神","phonetic":"もんどやくじん","prefecture":28,"lon":135.358221,"lat":34.757086,"lines":[34004],"next":[3400405,3400107,1160305,3400502,3400108,3400503]},
{"code":3400405,"station":"甲東園","phonetic":"こうとうえん","prefecture":28,"lon":135.359757,"lat":34.766760,"lines":[34004],"next":[3400404,3400107,3400406,3400604,3400503]},
{"code":3400406,"station":"仁川","phonetic":"にがわ","prefecture":28,"lon":135.356854,"lat":34.775117,"lines":[34004],"next":[3400407,1162909,3400604,3400503,3400405]},
{"code":3400407,"station":"小林(兵庫)","phonetic":"おばやし","prefecture":28,"lon":135.352282,"lat":34.789396,"lines":[34004],"next":[1162909,3400503,3400406,3400409,3400408]},
{"code":3400408,"station":"逆瀬川","phonetic":"さかせがわ","prefecture":28,"lon":135.350707,"lat":34.797181,"lines":[34004],"next":[3400218,1162909,3400409,3400407,3400217]},
{"code":3400409,"station":"宝塚南口","phonetic":"たからづかみなみぐち","prefecture":28,"lon":135.345918,"lat":34.804256,"lines":[34004],"next":[3400218,1162910,3400503,1162911,3400408,3400407]},
{"code":3400502,"station":"苦楽園口","phonetic":"くらくえんぐち","prefecture":28,"lon":135.328885,"lat":34.750062,"lines":[34005],"next":[1160307,3400404,3400503,3400109,3400110,3400108,3500117,1160306,1160316]},
{"code":3400503,"station":"甲陽園","phonetic":"こうようえん","prefecture":28,"lon":135.329965,"lat":34.760919,"lines":[34005],"next":[3400110,9963217,3400409,3400502,3400407,1162912,3400406,3400405,3400404,1162911]},
{"code":3400602,"station":"稲野","phonetic":"いなの","prefecture":28,"lon":135.415532,"lat":34.764817,"lines":[34006],"next":[1162905,3400106,3400603,3400107]},
{"code":3400603,"station":"新伊丹","phonetic":"しんいたみ","prefecture":28,"lon":135.415479,"lat":34.772574,"lines":[34006],"next":[3400602,1162906,3400604,1162905,3400107]},
{"code":3400604,"station":"伊丹(阪急電鉄)","phonetic":"いたみ","prefecture":28,"lon":135.413618,"lat":34.779875,"lines":[34006],"next":[1162909,1162907,3400215,3400603,3400107,3400406,3400405,1162906]},
{"code":3500302,"station":"東鳴尾","phonetic":"ひがしなるお","prefecture":28,"lon":135.379065,"lat":34.712646,"lines":[35003],"next":[3500111,3500303,3500112,3500113]},
{"code":3500303,"station":"洲先","phonetic":"すざき","prefecture":28,"lon":135.378049,"lat":34.709046,"lines":[35003],"next":[3500111,3500113,3500304,3500302]},
{"code":3500304,"station":"武庫川団地前","phonetic":"むこがわだんちまえ","prefecture":28,"lon":135.374757,"lat":34.704894,"lines":[35003],"next":[3500119,1162404,3500113,9962502,3500120,9964906,3500115,3500303,9962101,3500114,3500118,3500111,3500110]},
{"code":9963002,"station":"花隈","phonetic":"はなくま","prefecture":28,"lon":135.181524,"lat":34.686117,"lines":[99630],"next":[9964603,9964604,9964708,9963004]},
{"code":9963004,"station":"西元町","phonetic":"にしもとまち","prefecture":28,"lon":135.179590,"lat":34.683897,"lines":[99630],"next":[1160315,9964708,9964604,9963002,9964707]},
{"code":9963005,"station":"高速神戸","phonetic":"こうそくこうべ","prefecture":28,"lon":135.174441,"lat":34.679362,"lines":[99630],"next":[9964706,9964605,9963006,9964604,1160315,9964707]},
{"code":9963006,"station":"新開地","phonetic":"しんかいち","prefecture":28,"lon":135.169291,"lat":34.675981,"lines":[99630,99631],"next":[9963007,9964605,9963102,9963005,9964706,1160802]},
{"code":9963007,"station":"大開","phonetic":"だいかい","prefecture":28,"lon":135.161709,"lat":34.671179,"lines":[99630],"next":[9963006,9963008,9963102,9964606,1160802]},
{"code":9963008,"station":"高速長田","phonetic":"こうそくながた","prefecture":28,"lon":135.151551,"lat":34.667254,"lines":[99630],"next":[1160803,1160802,9964606,9963007,9964703,9963009,9964607]},
{"code":9963009,"station":"西代","phonetic":"にしだい","prefecture":28,"lon":135.144085,"lat":34.662374,"lines":[99630,99637],"next":[9963202,1160803,9964607,9963702,9963008,9963203]},
{"code":9963102,"station":"湊川","phonetic":"みなとがわ","prefecture":28,"lon":135.166426,"lat":34.679153,"lines":[99631,99632],"next":[9964604,9963006,9963007,9964606,9963202,9964605,9963204]},
{"code":9964605,"station":"湊川公園","phonetic":"みなとがわこうえん","prefecture":28,"lon":135.167059,"lat":34.679188,"lines":[99646],"next":[9963006,9963005,9964604,9963102]},
{"code":9963202,"station":"長田(神戸電鉄)","phonetic":"ながた","prefecture":28,"lon":135.149592,"lat":34.681605,"lines":[99632],"next":[9963009,9964607,9963102,9964606,9963203,9963204]},
{"code":9963203,"station":"丸山(兵庫)","phonetic":"まるやま","prefecture":28,"lon":135.143993,"lat":34.685913,"lines":[99632],"next":[9963702,9963204,9964503,9963009,9963202]},
{"code":9963204,"station":"鵯越","phonetic":"ひよどりごえ","prefecture":28,"lon":135.142232,"lat":34.692576,"lines":[99632],"next":[9963504,9963206,9963203,9964604,9963503,9964503,9963102,9963202]},
{"code":9963206,"station":"鈴蘭台","phonetic":"すずらんだい","prefecture":28,"lon":135.145867,"lat":34.723662,"lines":[99632,99635],"next":[9963207,9963503,9963204,9963601,9964603,9964604,9963502]},
{"code":9963207,"station":"北鈴蘭台","phonetic":"きたすずらんだい","prefecture":28,"lon":135.151917,"lat":34.739549,"lines":[99632],"next":[9963206,9963504,9963210,9963208,9963601,9963503,9963502]},
{"code":9963208,"station":"山の街","phonetic":"やまのまち","prefecture":28,"lon":135.153211,"lat":34.746171,"lines":[99632],"next":[9963207,9963210,9963209,9963504]},
{"code":9963209,"station":"箕谷","phonetic":"みのたに","prefecture":28,"lon":135.155597,"lat":34.756969,"lines":[99632],"next":[9963212,9963405,9963507,9963404,9963504,9963208,9963210,9963505]},
{"code":9963210,"station":"谷上","phonetic":"たにがみ","prefecture":28,"lon":135.171420,"lat":34.761691,"lines":[99632,99636],"next":[9963207,9963208,9963212,9963209,9963211,9963601]},
{"code":9963211,"station":"花山","phonetic":"はなやま","prefecture":28,"lon":135.187308,"lat":34.769648,"lines":[99632],"next":[9963601,3400113,9963212,3400114,9963210]},
{"code":9963212,"station":"大池","phonetic":"おおいけ","prefecture":28,"lon":135.198693,"lat":34.780978,"lines":[99632],"next":[9963213,9963209,9963211,9963210,9963404,9963302,3400113]},
{"code":9963213,"station":"神鉄六甲","phonetic":"しんてつろっこう","prefecture":28,"lon":135.206036,"lat":34.785205,"lines":[99632],"next":[9963212,9963302,3400112,3400113,9963214]},
{"code":9963214,"station":"唐櫃台","phonetic":"からとだい","prefecture":28,"lon":135.211461,"lat":34.790297,"lines":[99632],"next":[9963215,3400112,9963302,9963213]},
{"code":9963215,"station":"有馬口","phonetic":"ありまぐち","prefecture":28,"lon":135.221018,"lat":34.796477,"lines":[99632,99633],"next":[9963302,9963214,9963217,3400112]},
{"code":9963217,"station":"有馬温泉","phonetic":"ありまおんせん","prefecture":28,"lon":135.245868,"lat":34.799385,"lines":[99632],"next":[1162914,3400110,3400111,3400503,9963303,9963215,9963304,1162912,3400112,9963302]},
{"code":9963302,"station":"五社","phonetic":"ごしゃ","prefecture":28,"lon":135.216243,"lat":34.806253,"lines":[99633],"next":[9963215,9963213,9963214,9963303,9963404,9963212,9963217]},
{"code":9963303,"station":"岡場","phonetic":"おかば","prefecture":28,"lon":135.222443,"lat":34.821707,"lines":[99633],"next":[9963217,9963302,9963404,9963306,9963304]},
{"code":9963304,"station":"田尾寺","phonetic":"たおじ","prefecture":28,"lon":135.226153,"lat":34.835664,"lines":[99633],"next":[9963305,9963217,9963303,1162914,9963306]},
{"code":9963305,"station":"二郎","phonetic":"にろう","prefecture":28,"lon":135.227017,"lat":34.848818,"lines":[99633],"next":[9963307,9963304,1162914,9963306]},
{"code":9963306,"station":"道場南口","phonetic":"どうじょうみなみぐち","prefecture":28,"lon":135.223137,"lat":34.856024,"lines":[99633],"next":[9963307,9963308,9963404,9963303,9963304,9963305]},
{"code":9963307,"station":"神鉄道場","phonetic":"しんてつどうじょう","prefecture":28,"lon":135.226145,"lat":34.866806,"lines":[99633],"next":[9963308,1162914,9963305,9963309,9963306]},
{"code":9963308,"station":"横山(兵庫)","phonetic":"よこやま","prefecture":28,"lon":135.219696,"lat":34.876633,"lines":[99633,99634],"next":[9963307,9963306,9963309,1162915,9963404]},
{"code":9963309,"station":"三田本町","phonetic":"さんだほんまち","prefecture":28,"lon":135.229606,"lat":34.881805,"lines":[99633,99634],"next":[1162915,1162914,9963307,9963308]},
{"code":9963404,"station":"フラワータウン","phonetic":"ふらわ゜たうん","prefecture":28,"lon":135.202334,"lat":34.885460,"lines":[99634],"next":[9963209,1162916,9963303,9963212,1162915,9963306,9963302,9963405,9963308]},
{"code":9963405,"station":"南ウッディタウン","phonetic":"みなみうっでぃたうん","prefecture":28,"lon":135.189612,"lat":34.901729,"lines":[99634],"next":[9963209,9963406,9963404,1162916,9963507]},
{"code":9963406,"station":"ウッディタウン中央","phonetic":"うっでぃたうんちゅうおう","prefecture":28,"lon":135.183707,"lat":34.909767,"lines":[99634],"next":[9963507,9963512,9963405,1162918,1162917,1162916]},
{"code":9963502,"station":"鈴蘭台西口","phonetic":"すずらんだいにしぐち","prefecture":28,"lon":135.140582,"lat":34.726356,"lines":[99635],"next":[9963206,9963207,9963503]},
{"code":9963503,"station":"西鈴蘭台","phonetic":"にしすずらんだい","prefecture":28,"lon":135.135013,"lat":34.725836,"lines":[99635],"next":[9963504,9963206,9963207,9963204,9963502]},
{"code":9963504,"station":"藍那","phonetic":"あいな","prefecture":28,"lon":135.118033,"lat":34.732432,"lines":[99635],"next":[9963503,9963204,9963207,9964503,9964504,9963209,9963208,9963505]},
{"code":9963505,"station":"木津(兵庫)","phonetic":"きづ","prefecture":28,"lon":135.088406,"lat":34.744106,"lines":[99635],"next":[9963507,9963506,9964505,9963209,9964504,9963504]},
{"code":9963506,"station":"木幡(兵庫)","phonetic":"こばた","prefecture":28,"lon":135.071218,"lat":34.748308,"lines":[99635],"next":[9963507,9964506,9964507,9963505,9964508,9964505]},
{"code":9963507,"station":"栄(兵庫)","phonetic":"さかえ","prefecture":28,"lon":135.056544,"lat":34.755240,"lines":[99635],"next":[9963406,9963506,9963510,9964508,9963209,9963505,9963508,9964509,9963512,9963405]},
{"code":9963508,"station":"押部谷","phonetic":"おしべだに","prefecture":28,"lon":135.039320,"lat":34.756609,"lines":[99635],"next":[9963510,9964509,9963507,9963509]},
{"code":9963509,"station":"緑が丘(兵庫)","phonetic":"みどりがおか","prefecture":28,"lon":135.025710,"lat":34.765108,"lines":[99635],"next":[9964509,9963511,9963510,9963508]},
{"code":9963510,"station":"広野ゴルフ場前","phonetic":"ひろのごるふじょうまえ","prefecture":28,"lon":135.023069,"lat":34.770269,"lines":[99635],"next":[9963508,9963507,9963509,9963512,9963511]},
{"code":9963511,"station":"志染","phonetic":"しじみ","prefecture":28,"lon":135.007598,"lat":34.782459,"lines":[99635],"next":[9963512,5000141,9963509,9963510,5000140,9964509]},
{"code":9963601,"station":"新神戸","phonetic":"しんこうべ","prefecture":28,"lon":135.195758,"lat":34.706417,"lines":[99636,99646,50025],"next":[9963211,9963207,9963206,1160313,9964603,3400115,9963210,3400114]},
{"code":9963702,"station":"板宿","phonetic":"いたやど","prefecture":28,"lon":135.133403,"lat":34.660060,"lines":[99637,99645],"next":[1160804,1160803,9963203,9964503,9963009,9963703]},
{"code":9963703,"station":"東須磨","phonetic":"ひがしすま","prefecture":28,"lon":135.127642,"lat":34.655241,"lines":[99637],"next":[9963704,9964503,1160822,1160804,9963702]},
{"code":9963704,"station":"月見山","phonetic":"つきみやま","prefecture":28,"lon":135.121949,"lat":34.649992,"lines":[99637],"next":[9963703,9963705,1160822,9964503]},
{"code":9963705,"station":"須磨寺","phonetic":"すまでら","prefecture":28,"lon":135.116224,"lat":34.646031,"lines":[99637],"next":[9963706,1160805,9963704,1160822,9964503]},
{"code":9963707,"station":"須磨浦公園","phonetic":"すまうらこうえん","prefecture":28,"lon":135.100145,"lat":34.637884,"lines":[99637],"next":[9964504,1160805,9963706,1160806,1162803,9964503]},
{"code":9963709,"station":"滝の茶屋","phonetic":"たきのちゃや","prefecture":28,"lon":135.072984,"lat":34.631071,"lines":[99637],"next":[1162803,1160806,9963710,9963708,9964506,9964505]},
{"code":9963710,"station":"東垂水","phonetic":"ひがしたるみ","prefecture":28,"lon":135.063646,"lat":34.629216,"lines":[99637],"next":[9963709,3200604,1162803,1160807,9964506,9963711]},
{"code":9963712,"station":"霞ヶ丘(兵庫)","phonetic":"かすみがおか","prefecture":28,"lon":135.042750,"lat":34.630240,"lines":[99637],"next":[3200604,9963713,1160808,9963711,1160807,9964506,3200509]},
{"code":9963714,"station":"西舞子","phonetic":"にしまいこ","prefecture":28,"lon":135.028187,"lat":34.638653,"lines":[99637],"next":[9964506,9963713,1160809,1160808,9964507]},
{"code":9963715,"station":"大蔵谷","phonetic":"おおくらだに","prefecture":28,"lon":135.008367,"lat":34.646585,"lines":[99637],"next":[1160808,9964507,9963716,1160809,9964508]},
{"code":9963716,"station":"人丸前","phonetic":"ひとまるまえ","prefecture":28,"lon":135.002592,"lat":34.647556,"lines":[99637],"next":[1160808,1160810,9963715,9963717,9964508]},
{"code":9964002,"station":"日生中央","phonetic":"にっせいちゅうおう","prefecture":28,"lon":135.393216,"lat":34.906447,"lines":[99640],"next":[9961514,1162916,9961511,9961507,1162923,9961506,9961513,1161415,1162915,9961509,1162922,3400216,1162913,9961510,9961512]},
{"code":9964503,"station":"妙法寺(兵庫)","phonetic":"みょうほうじ","prefecture":28,"lon":135.110002,"lat":34.675194,"lines":[99645],"next":[9963703,9963504,9964504,9963204,9963702,9963705,9963706,9963203,9963704,9963707]},
{"code":9964504,"station":"名谷","phonetic":"みょうだに","prefecture":28,"lon":135.094725,"lat":34.679360,"lines":[99645],"next":[9963708,9963707,9964505,9964503,9963504,1160806,9963505]},
{"code":9964505,"station":"総合運動公園","phonetic":"そうごううんどうこうえん","prefecture":28,"lon":135.075838,"lat":34.681860,"lines":[99645],"next":[9964504,9964506,9963505,9963709,9963708,9963506]},
{"code":9964506,"station":"学園都市","phonetic":"がくえんとし","prefecture":28,"lon":135.057687,"lat":34.681471,"lines":[99645],"next":[9963714,9963506,9963713,9964505,9963711,9963712,9963709,9963710,9964507]},
{"code":9964507,"station":"伊川谷","phonetic":"いかわだに","prefecture":28,"lon":135.041313,"lat":34.687850,"lines":[99645],"next":[9964508,9963506,9963715,1160809,9963714,9964506]},
{"code":9964508,"station":"西神南","phonetic":"せいしんみなみ","prefecture":28,"lon":135.030286,"lat":34.699357,"lines":[99645],"next":[9963507,9964507,9964509,9963506,9963715,1160810,9963716,1160811]},
{"code":9964509,"station":"西神中央","phonetic":"せいしんちゅうおう","prefecture":28,"lon":135.017367,"lat":34.719538,"lines":[99645],"next":[9963509,5000140,9964508,9963508,9963511,9963507,1160812,1160811]},
{"code":9964603,"station":"県庁前(兵庫)","phonetic":"けんちょうまえ","prefecture":28,"lon":135.183859,"lat":34.690916,"lines":[99646],"next":[9963002,9964708,9963206,9963601,9964604,1160313,1160314]},
{"code":9964604,"station":"大倉山(兵庫)","phonetic":"おおくらやま","prefecture":28,"lon":135.174527,"lat":34.684614,"lines":[99646],"next":[9963002,9963102,9963204,1160315,9963005,9963004,9964605,9964603,9963206]},
{"code":9964606,"station":"上沢","phonetic":"かみさわ","prefecture":28,"lon":135.158331,"lat":34.673251,"lines":[99646],"next":[9964607,9963008,9963102,9963007,9963202]},
{"code":9964607,"station":"長田(神戸市交通局)","phonetic":"ながた","prefecture":28,"lon":135.151502,"lat":34.668503,"lines":[99646],"next":[9964606,9963009,9963202,9963008]},
{"code":9964702,"station":"駒ヶ林","phonetic":"こまがばやし","prefecture":28,"lon":135.149554,"lat":34.652108,"lines":[99647],"next":[1160804,9964703,9964704,1162803,1160803,1160822,9964809]},
{"code":9964703,"station":"苅藻","phonetic":"かるも","prefecture":28,"lon":135.156598,"lat":34.653650,"lines":[99647],"next":[9964704,1160803,9964702,9963008,1160802]},
{"code":9964704,"station":"御崎公園","phonetic":"みさきこうえん","prefecture":28,"lon":135.164998,"lat":34.654641,"lines":[99647],"next":[9964703,1161302,9964702,1160802,9964809]},
{"code":9964706,"station":"中央市場前","phonetic":"ちゅうおういちばまえ","prefecture":28,"lon":135.175866,"lat":34.666199,"lines":[99647],"next":[9963005,1161302,9964707,9963006,9964804,1160802,9964805]},
{"code":9964708,"station":"みなと元町","phonetic":"みなともとまち","prefecture":28,"lon":135.183973,"lat":34.685875,"lines":[99647],"next":[9963004,9964709,9964603,9964803,9963002,9964707,1160314]},
{"code":9964709,"station":"旧居留地・大丸前","phonetic":"きゅうきょりゅうち・だいまるまえ","prefecture":28,"lon":135.189836,"lat":34.689369,"lines":[99647],"next":[9964803,9964802,1160313,9963001,9964708,1160314,9964710]},
{"code":9964802,"station":"貿易センター","phonetic":"ぼうえきせんたー","prefecture":28,"lon":135.199469,"lat":34.689339,"lines":[99648],"next":[1160313,9964709,9964710,3500131,9964803,9963001]},
{"code":9964803,"station":"ポートターミナル","phonetic":"ぽーとたーみなる","prefecture":28,"lon":135.202205,"lat":34.681501,"lines":[99648],"next":[9964709,9964707,9964708,3500131,9964802,9964812,9964804]},
{"code":9964804,"station":"中公園","phonetic":"なかこうえん","prefecture":28,"lon":135.207483,"lat":34.673124,"lines":[99648],"next":[9964706,9964707,9964812,9964805,9964803]},
{"code":9964805,"station":"みなとじま","phonetic":"みなとじま","prefecture":28,"lon":135.210105,"lat":34.668863,"lines":[99648],"next":[9964812,9964806,9964811,9964804,1161302,9964706]},
{"code":9964806,"station":"市民広場","phonetic":"しみんひろば","prefecture":28,"lon":135.212455,"lat":34.664897,"lines":[99648],"next":[9964805,1161302,9964810,9964811,9964807]},
{"code":9964807,"station":"医療センター","phonetic":"いりょうせんたー","prefecture":28,"lon":135.216343,"lat":34.658578,"lines":[99648],"next":[9964810,9964808,1161302,9964809,9964806]},
{"code":9964808,"station":"京コンピュータ前","phonetic":"けいこんぴゅーたまえ","prefecture":28,"lon":135.221865,"lat":34.654892,"lines":[99648],"next":[9964906,9964809,9964807,9964811,9964810]},
{"code":9964809,"station":"神戸空港","phonetic":"こうべくうこう","prefecture":28,"lon":135.229042,"lat":34.637194,"lines":[99648],"next":[1161302,9964808,3200119,9962502,9964906,3200118,3200123,9964704,9964807,1162803,9964702]},
{"code":9964810,"station":"南公園","phonetic":"みなみこうえん","prefecture":28,"lon":135.217007,"lat":34.664666,"lines":[99648],"next":[9964811,9964807,9964806,9964808]},
{"code":9964811,"station":"中埠頭","phonetic":"なかふとう","prefecture":28,"lon":135.217096,"lat":34.669266,"lines":[99648],"next":[9964810,9964805,9964906,3500128,9964812,9964808,9964806]},
{"code":9964812,"station":"北埠頭","phonetic":"きたふとう","prefecture":28,"lon":135.214632,"lat":34.673566,"lines":[99648],"next":[3500129,9964805,3500128,9964804,9964811,3500131,3500130,9964803]},
{"code":9964903,"station":"南魚崎","phonetic":"みなみうおざき","prefecture":28,"lon":135.267661,"lat":34.706751,"lines":[99649],"next":[9964904,3500124,3500123,3500122,3500126]},
{"code":9964904,"station":"アイランド北口","phonetic":"あいらんどきたぐち","prefecture":28,"lon":135.268750,"lat":34.692853,"lines":[99649],"next":[9964905,3500122,9964903,3500127,3500126]},
{"code":9964905,"station":"アイランドセンター","phonetic":"あいらんどせんたー","prefecture":28,"lon":135.269347,"lat":34.689103,"lines":[99649],"next":[9964904,3500128,9964906,3500127,3500121,3500122]},
{"code":9964906,"station":"マリンパーク","phonetic":"まりんぱーく","prefecture":28,"lon":135.270077,"lat":34.684176,"lines":[99649],"next":[3500121,9964808,9962502,9964905,9964811,3500304,9964809,3500120,3500128]},
{"code":5000133,"station":"住吉公園","closed":true,"phonetic":"すみよしこうえん","prefecture":27,"lon":135.490511,"lat":34.613126,"lines":[99628],"next":[9962810,3200105,9962913,9962010,3200106]}
],
"voronoi":{
"points":[
135.494727,34.613942,135.499420,34.615104,135.445061,34.832492,135.445463,34.833333,135.445599,34.833617,135.130225,34.650819,135.132382,34.655427,135.431196,34.538762,135.444624,34.527093,135.462871,34.577366,135.467795,34.577710,135.353180,34.804013,135.364350,34.801783,135.066057,34.714565,135.072180,34.714990,135.233265,34.666652,135.233308,34.666667,135.245297,34.670644,135.490222,34.611003,135.490694,34.612569,135.472769,34.582933,135.479490,34.576661,135.212416,34.864826,135.235931,34.858265,135.292644,34.534514,135.295518,34.500000,135.326099,34.675929,135.326261,34.676423,135.194634,34.683255,135.194641,34.685540,135.256962,34.762591,135.259395,34.750000,135.262538,34.733733,135.490372,34.647605,135.495434,34.649499,135.227125,34.874479,135.240764,34.871331,135.352959,34.742174,135.364422,34.739569,135.495906,34.707938,135.500000,34.708929,135.400928,34.810819,135.401345,34.807783,135.488339,34.749161,135.499030,34.750000,135.500000,34.750076,135.213542,34.670085,135.213646,34.668282,135.227860,34.706683,135.234200,34.685150,135.484950,34.824997,135.491098,34.831414,135.201798,34.739404,135.209405,34.743413,135.125951,34.651363,135.401441,34.685246,135.402686,34.682460,135.170685,34.682050,135.170748,34.679375,135.192143,34.691872,135.059613,34.716423,135.061509,34.715485,135.237260,34.683676,135.256160,34.720677,135.415848,34.813598,135.104513,34.845349,135.127399,34.839971,135.058870,34.902162,135.062607,34.916667,135.074023,34.960976,135.083333,34.961122,135.166667,34.962433,135.187034,34.962753,135.397875,34.541871,135.416667,34.514723,135.423760,34.504477,135.493472,34.607173,135.495274,34.609971,135.494204,34.615903,135.495915,34.619170,135.490295,34.678895,135.490509,34.671580,135.371925,34.712718,135.377018,34.719017,135.411983,34.687011,135.416438,34.686538,135.232262,34.808023,135.237757,34.761068,135.477305,34.563638,135.478555,34.565238,135.491545,34.697050,135.494171,34.696875,135.215061,34.895387,135.215685,34.890233,135.242127,34.681907,135.242553,34.682616,135.492865,34.621117,135.495619,34.620063,135.214582,34.661850,135.221980,34.661043,135.497020,34.624477,135.491739,34.616404,135.393885,34.588472,135.416667,34.612308,135.425907,34.621976,135.045958,34.815231,135.066337,34.833333,135.074914,34.840951,135.410578,34.577151,135.416667,34.573912,135.450753,34.555783,135.201430,34.697366,135.201975,34.695882,135.490764,34.699966,135.450144,34.769493,135.480599,34.779812,135.240981,34.858510,135.250000,34.844599,135.252639,34.840530,135.488609,34.616336,135.491780,34.613209,135.169418,34.662750,135.170170,34.666667,135.170789,34.669887,135.471163,34.579666,135.232426,34.808731,135.245955,34.822929,135.075016,34.974500,135.083333,34.975813,135.166667,34.988969,135.204283,34.994907,135.445714,34.833568,135.446789,34.833333,135.368688,34.799314,135.370508,34.797135,135.176786,34.682328,135.177537,34.687638,135.268708,34.724662,135.270337,34.721174,135.445693,34.844157,135.447839,34.855785,135.405059,34.748238,135.415926,34.736405,135.000000,34.756903,135.415170,34.692464,135.416667,34.694272,135.432678,34.713622,135.309843,34.753333,135.312269,34.750000,135.314160,34.747402,135.083333,34.852411,135.088081,34.858873,135.484025,34.616282,135.484721,34.617272,135.477613,34.673319,135.479898,34.668192,135.343010,34.506173,135.351424,34.500000,135.492262,34.621452,135.461450,34.757945,135.461966,34.756695,135.368488,34.750014,135.376460,34.757177,135.232334,34.713884,135.242903,34.722895,135.250000,34.683719,135.302237,34.691459,135.427023,34.888967,135.457648,34.871546,135.373717,34.862082,135.377298,34.833333,135.377908,34.828432,135.418490,34.758896,135.421428,34.757135,135.387807,34.574285,135.416667,34.551140,135.429936,34.540499,135.485289,34.756666,135.487046,34.765720,135.488508,34.728523,135.492140,34.733781,135.212893,34.798562,135.450277,34.530973,135.451323,34.535930,135.497054,34.661384,135.497685,34.662856,135.120505,34.500000,135.125983,34.504439,135.497807,34.695540,135.500000,34.697378,135.147786,34.835056,135.161017,34.837380,135.058781,34.635186,135.059284,34.655186,135.212969,34.701779,135.219009,34.688519,135.385416,34.778541,135.395620,34.771400,135.194222,34.656773,135.195546,34.650138,135.225707,34.687788,135.135951,34.674112,135.137563,34.666667,135.139284,34.658726,135.381012,34.574811,135.482388,34.686971,135.491790,34.685961,135.482443,34.668446,135.483034,34.669726,135.455206,34.565771,135.456168,34.558395,135.067084,34.666667,135.067294,34.656865,135.488133,34.704304,135.494516,34.706195,135.437388,34.686328,135.450289,34.680107,135.442283,34.588702,135.442283,34.620233,135.345311,34.840770,135.346490,34.853738,135.485564,34.582141,135.488151,34.582551,135.188228,34.685402,135.189169,34.695239,135.481774,34.880735,135.500000,34.906208,135.084030,34.865571,135.245557,34.687238,135.250000,34.687945,135.294670,34.695057,135.097977,34.658414,135.105143,34.658912,135.413840,34.837113,135.416648,34.833333,135.416667,34.833308,135.421007,34.827465,135.183802,34.680409,135.191041,34.675152,135.485346,34.619970,135.481127,34.775880,135.492384,34.719461,135.500000,34.727077,135.397128,34.574871,135.416667,34.563598,135.444626,34.547467,135.224234,34.718818,135.464493,34.551740,135.467631,34.553377,135.463155,34.576522,135.463336,34.568537,135.221365,34.885516,135.248302,34.884806,135.153030,34.691866,135.160403,34.696812,135.209028,34.711937,135.220018,34.707044,135.492639,34.681719,135.444442,34.827936,135.443521,34.538196,135.481421,34.785753,135.497390,34.784192,135.346839,34.833333,135.347386,34.830668,135.451613,34.698300,135.456711,34.696064,135.260390,34.833333,135.262129,34.831718,135.460260,34.677482,135.467170,34.675177,135.273074,34.719663,135.495948,34.619608,135.498406,34.619946,135.496289,34.632304,135.500000,34.630695,135.490480,34.694838,135.490747,34.694876,135.479837,34.692117,135.481170,34.692152,135.150171,34.661214,135.441997,34.521151,135.442060,34.520089,135.347768,34.855537,135.482785,34.630722,135.486478,34.631087,135.344415,34.766113,135.385008,34.780214,135.191987,34.679094,135.166880,34.676683,135.205433,34.718360,135.409887,35.000000,135.415933,34.938996,135.454077,34.675737,135.450281,34.719576,135.462187,34.720772,135.350831,34.735217,135.356687,34.732255,135.151861,34.658429,135.166667,34.590796,135.168300,34.583333,135.170148,34.574893,135.474875,34.741192,135.480974,34.728810,135.493939,34.658757,135.496771,34.651638,135.424060,34.523288,135.435367,34.524831,135.315515,34.684106,135.440656,34.538346,135.445533,34.527803,135.497776,34.700253,135.500000,34.698075,135.081676,34.617363,135.083333,34.610305,135.089665,34.583333,135.109227,34.500000,135.244065,34.714789,135.250000,34.695502,135.250247,34.694698,135.492867,34.625816,135.000000,34.878150,135.001149,34.878282,135.191799,34.669092,135.192330,34.666667,135.193451,34.661552,135.125707,34.684644,135.128002,34.677368,135.495862,34.649799,135.190568,34.693886,135.200177,34.694421,135.481784,34.533873,135.491606,34.543874,135.493518,34.670771,135.496667,34.678366,135.288255,34.780891,135.289969,34.784639,135.480837,34.708044,135.206961,34.638544,135.132944,34.745662,135.136364,34.741446,135.463876,34.689182,135.001462,34.601636,135.004986,34.606961,135.086158,34.657148,135.097270,34.658600,135.166245,34.688160,135.166667,34.687580,135.326896,34.843323,135.333333,34.846745,135.301453,34.948480,135.305109,34.956788,135.399362,34.727355,135.410583,34.730230,135.444542,34.738069,135.460509,34.741991,135.482294,34.819735,135.486756,34.799939,135.182485,34.683328,135.175082,34.672773,135.219998,34.752459,135.233519,34.758325,135.456776,34.792826,135.468637,34.795869,135.498300,34.635054,135.498610,34.638335,135.428682,34.581996,135.495625,34.844781,135.115480,34.703608,135.116955,34.704503,135.481156,34.579146,135.048200,34.725050,135.050701,34.723875,135.132718,34.746738,135.446346,34.590016,135.446821,34.590356,135.210920,34.666667,135.000000,34.844008,135.007049,34.858078,135.449482,34.777948,135.478093,34.788394,135.371385,34.729580,135.378072,34.728176,135.500000,34.647894,135.416667,34.578780,135.344795,34.764177,135.099470,34.666667,135.109763,34.704410,135.493469,34.561075,135.495825,34.550821,135.298046,34.545542,135.306293,34.554903,135.461155,34.742806,135.461575,34.750000,135.392425,34.586746,135.416667,34.603028,135.173323,34.722302,135.181514,34.733140,135.411951,34.687002,135.168040,34.661560,135.284252,34.731183,135.285086,34.727852,135.342830,34.643002,135.381737,34.666667,135.398514,34.676871,135.470572,34.664879,135.470827,34.665057,135.487845,34.651007,135.483682,34.593460,135.488459,34.591677,135.492074,34.719493,135.475149,34.635202,135.489947,34.645457,135.000000,34.961013,135.011591,34.941631,135.478378,34.573064,135.344215,34.732857,135.488272,34.608430,135.488861,34.603208,135.416667,34.686548,135.418237,34.686620,135.106581,34.639796,135.126226,34.583333,135.148193,34.520201,135.162657,34.705943,135.165505,34.708034,135.498996,34.692010,135.500000,34.692684,135.498973,34.652855,135.500000,34.652762,135.442817,34.729030,135.277136,34.771230,135.480776,34.659929,135.483917,34.663977,135.492753,34.595738,135.493008,34.595265,135.417577,34.737648,135.420018,34.750000,135.491808,34.719067,135.021002,34.742421,135.025734,34.750000,135.042599,34.777007,135.222763,34.989015,135.250000,34.993100,135.282719,34.998009,135.410150,34.876190,135.416667,34.881415,135.425646,34.888615,135.050340,34.786215,135.071494,34.833333,135.333333,34.515569,135.336284,34.513062,135.483788,34.672193,135.283911,34.723714,135.410641,34.910827,135.415023,34.889429,135.492319,34.733782,135.417074,34.819480,135.196113,34.912693,135.202382,34.898606,135.321262,34.737627,135.326883,34.738141,135.250000,34.825127,135.443260,34.706182,135.449654,34.704812,135.063043,34.750000,135.083333,34.792952,135.099720,34.827640,135.186612,34.701120,135.188078,34.696857,135.463784,34.596361,135.466353,34.620518,135.138886,34.656878,135.358098,34.573103,135.363622,34.572649,135.477848,34.681168,135.478422,34.682036,135.474477,34.681245,135.346945,34.810769,135.199037,34.700373,135.479677,34.588836,135.484515,34.583333,135.498673,34.767047,135.500000,34.766066,135.104482,34.845377,135.166667,34.891061,135.253365,34.657362,135.321004,34.598284,135.142447,34.650850,135.414997,34.918746,135.415837,34.916667,135.416667,34.914612,135.141579,34.832815,135.166293,34.750000,135.166631,34.748868,135.243379,34.684318,135.389039,34.709002,135.455025,34.809093,135.393680,34.850583,135.395710,34.849442,135.193100,34.738242,135.050036,34.655909,135.184947,34.688419,135.414972,34.500000,135.047652,34.656813,135.048623,34.656321,135.456707,34.565602,135.431400,34.808614,135.143223,34.625706,135.214844,34.667009,135.232523,34.666667,135.386695,34.731983,135.376757,34.759102,135.482820,34.566179,135.176365,34.677998,135.181989,34.680725,135.277831,34.707162,135.282727,34.700940,135.496314,34.593482,135.500000,34.596684,135.474474,34.691942,135.425962,34.642346,135.315050,34.745065,135.389749,34.729519,135.172975,34.557655,135.333333,34.745739,135.335056,34.745589,135.431394,34.583333,135.454611,34.540777,135.235291,34.710821,135.458190,34.693132,135.201873,34.863065,135.110721,34.660102,135.121680,34.644262,135.497354,34.701434,135.166667,34.748826,135.175586,34.738361,135.331376,34.687770,135.000000,34.947682,135.343531,34.752999,135.343592,34.753411,135.450716,34.706570,135.497801,34.702905,135.445191,34.547225,135.452526,34.552919,135.336132,34.705164,135.338158,34.718692,135.331300,34.789203,135.333333,34.789614,135.000000,34.905287,135.022777,34.883455,135.425146,34.685757,135.158388,34.664668,135.160279,34.666667,135.166030,34.672744,135.483085,34.580837,135.290246,35.000000,135.468539,34.876686,135.182972,34.839671,135.208390,34.843436,135.482525,34.590526,135.498448,34.641523,135.500000,34.641205,135.480864,34.612275,135.480690,34.787326,135.445381,34.666822,135.452778,34.669775,135.494403,34.612366,135.063250,34.655638,135.497536,34.589614,135.500000,34.589421,135.492905,34.602179,135.493805,34.603271,135.464643,34.650654,135.468736,34.656430,135.229221,34.714729,135.487839,34.750000,135.488101,34.749315,135.167762,34.927088,135.193481,34.916667,135.196064,34.915620,135.454707,34.666667,135.415826,34.923574,135.297527,34.725620,135.497342,34.640612,135.446222,34.771947,135.333479,34.735127,135.337102,34.746001,135.300117,34.692852,135.168111,34.531729,135.250000,34.537581,135.291670,34.540559,135.214732,34.687421,135.139380,34.674125,135.140998,34.673662,135.326063,34.786960,135.481153,34.599980,135.000000,34.994947,135.074508,34.984300,135.416667,34.686278,135.433914,34.666667,135.439968,34.659782,135.499433,34.671108,135.500000,34.671023,135.018501,34.666667,135.019717,34.671308,135.459558,34.637926,135.464565,34.650233,135.188874,34.806526,135.193007,34.804522,135.084651,34.657522,135.058283,34.500000,135.058590,34.583333,135.472978,34.586687,135.476615,34.583333,135.480744,34.677475,135.492980,34.638209,135.493573,34.640594,135.473591,34.692140,135.474758,34.695186,135.210991,34.704439,135.220773,34.706973,135.015798,34.674437,135.431612,34.510016,135.443810,34.500000,135.500000,34.634671,135.071201,34.656646,135.497662,34.678086,135.000000,34.694195,135.472149,34.666667,135.034215,34.663394,135.040556,34.661702,135.235724,34.750000,135.160992,34.528305,135.163795,34.529855,135.476198,34.509524,135.145958,34.667660,135.146607,34.666667,135.235188,34.759583,135.275069,34.837747,135.293873,34.916667,135.487443,34.586598,135.420328,34.654503,135.425419,34.644376,135.466468,34.500203,135.494534,34.660768,135.472538,34.722135,135.179971,34.583333,135.185020,34.601868,135.468045,34.501008,135.468756,34.500000,135.298703,34.730751,135.495284,34.631432,135.416667,34.837738,135.495030,34.544920,135.500000,34.543574,135.497969,34.693416,135.442875,34.800098,135.450087,34.780764,135.474053,34.589184,135.255294,34.703183,135.259432,34.716382,135.040537,34.637584,135.491655,34.670421,135.426311,34.643614,135.451219,34.637927,135.398354,34.768578,135.496284,34.628687,135.000000,34.598833,135.302401,34.981846,135.500000,34.785646,135.321192,34.574655,135.416667,34.626735,135.404480,34.758524,135.404960,34.750000,135.474153,34.561054,135.265627,34.716190,135.075034,35.000000,135.421607,34.500000,135.216369,34.750000,135.217308,34.750888,135.458037,34.636777,135.480865,34.600276,135.457605,34.542118,135.477873,34.524216,135.466870,34.596008,135.477991,34.601699,135.299513,34.787680,135.321980,34.833333,135.114689,34.644006,135.122500,34.636883,135.158229,34.681893,135.121910,34.667947,135.122981,34.666667,135.387104,34.740709,135.082309,34.658153,135.083333,34.665892,135.083436,34.666667,135.089373,34.711519,135.478162,34.567999,135.486017,34.656891,135.487998,34.653773,135.393892,34.796614,135.237272,34.760861,135.448871,34.633582,135.416667,34.768703,135.419507,34.768723,135.251324,34.718722,135.150268,34.833333,135.166667,34.821946,135.358571,34.708131,135.370476,34.711670,135.490703,34.663715,135.500000,34.622028,135.370295,34.865998,135.452448,34.637121,135.382978,34.873391,135.492514,34.685221,135.333333,34.781263,135.338592,34.777141,135.491307,34.508149,135.495905,34.500000,135.495566,34.584024,135.496944,34.583333,135.500000,34.581801,135.341134,34.748710,135.386708,34.877275,135.128604,34.757271,135.161509,34.750000,135.355915,34.869965,135.254482,34.698727,135.499754,34.626000,135.500000,34.625356,135.475485,34.666667,135.250000,34.762039,135.000000,34.877038,135.322080,34.500000,135.415639,34.734891,135.487018,34.609570,135.384351,34.788057,135.496723,34.633953,135.162426,34.676137,135.164752,34.674761,135.375730,34.868771,135.416667,34.864788,135.434757,34.863028,135.115712,34.662468,135.446020,34.833333,135.471123,34.814080,135.462284,34.710201,135.466705,34.704508,135.489339,34.666667,135.490586,34.666061,135.497710,34.663871,135.499677,34.666667,135.500000,34.667126,135.450909,34.802267,135.321123,34.583333,135.480384,34.583333,135.416667,34.640632,135.418644,34.640569,135.160407,34.696820,135.493505,34.625852,135.210473,34.688784,135.481655,34.691291,135.041495,34.916667,135.447551,34.721155,135.500000,34.730453,135.141484,34.583333,135.440543,34.659602,135.490347,34.664245,135.416663,34.790561,135.416667,34.790520,135.417956,34.777093,135.152328,34.659804,135.158598,34.662130,135.408465,34.666667,135.416667,34.658257,135.137268,34.708912,135.138723,34.716179,135.368483,34.750000,135.416667,34.733768,135.423573,34.726222,135.436252,34.759803,135.441687,34.771220,135.499796,34.626116,135.045696,34.727797,135.269715,34.830639,135.331645,34.688189,135.151878,34.675248,135.469979,34.703798,135.478656,34.706025,135.077614,34.583333,135.083333,34.554542,135.094168,34.500000,135.408078,34.830711,135.341855,34.750000,135.328587,34.916667,135.333333,34.908555,135.469104,35.000000,135.500000,34.971806,135.480080,34.677901,135.157229,34.667665,135.166667,34.680542,135.492271,34.573816,135.500000,34.569846,135.000000,34.826806,135.001471,34.833333,135.491875,34.691113,135.466254,34.500000,135.500000,34.678541,135.214827,34.666667,135.389431,34.707777,135.399053,34.689011,135.451311,34.864298,135.191799,34.669094,135.058801,34.892100,135.320599,34.790868,135.333333,34.800487,135.465138,34.723697,135.498911,34.642904,135.431482,34.723031,135.416667,34.819989,135.488014,34.583333,135.413853,34.916667,135.476611,34.562381,135.146962,34.732341,135.166667,34.724837,135.500000,34.619040,135.004789,34.880070,135.104579,34.841545,135.106151,34.833333,135.117441,34.774361,135.439498,34.712443,135.367278,34.583333,135.416667,34.638366,135.423973,34.772469,135.438736,34.773282,135.349107,34.702381,135.363875,34.733745,135.390294,34.794465,135.468952,34.555767,135.105408,34.583333,135.176270,34.681959,135.166667,34.531102,135.500000,34.777755,135.247713,34.666667,135.250000,34.662901,135.196104,34.632096,135.364891,34.572621,135.166667,34.676491,135.319527,34.789366,135.092811,34.711855,135.140182,34.835321,135.327933,34.666667,135.333333,34.639379,135.333647,34.637792,135.465805,34.807808,135.431995,34.511879,135.250000,34.840703,135.250000,34.886840,135.274897,34.916667,135.166667,34.709382,135.170323,34.713624,135.333333,34.538271,135.395554,34.500000,135.436834,34.744392,135.416667,34.698476,135.221439,34.707859,135.282364,34.753205,135.500000,34.659753,135.381098,34.750000,135.000000,34.883025,135.480712,34.612198,135.199198,34.693402,135.155827,34.812667,135.445277,34.666667,135.175370,34.672804,135.107842,34.750000,135.367922,34.811997,135.000000,34.664469,135.000333,34.666667,135.002493,34.680913,135.480792,34.697796,135.159944,34.661387,135.156856,34.668088,135.478663,34.705970,135.379255,34.790161,135.455076,34.583333,135.364919,34.734416,135.428601,34.791922,135.433079,34.802254,135.487501,34.630755,135.458199,34.636065,135.459742,34.547034,135.333333,34.744019,135.500000,34.818681,135.343428,34.754098,135.416667,34.790562,135.416667,34.857547,135.346143,34.750000,135.477416,34.510349,135.500000,34.718108,135.469982,34.666667,135.467838,34.689632,135.500000,34.801794,135.000000,34.682785,135.416667,34.776764,135.166667,34.791023,135.187212,34.750000,135.042490,34.666667,135.047461,34.750000,135.265325,34.710526,135.083333,34.866304,135.384563,34.854275,135.392450,34.833333,135.452454,34.865995,135.468830,34.690974,135.016466,34.881530,135.416667,34.528535,135.333333,34.790579,135.153577,34.916667,135.166667,34.926284,135.494600,34.611262,135.166667,34.706314,135.176725,34.691420,135.416667,34.874619,135.407815,34.839977,135.408609,34.839760,135.491748,34.833333,135.500000,34.770851,135.307746,34.757647,135.333333,34.755102,135.250000,34.694305,135.496616,34.670158,135.480352,34.707958,135.193696,34.658402,135.472791,34.583333,135.182984,34.688374,135.333333,34.689561,135.255248,34.700880,135.302944,34.732449,135.308742,34.750000,135.500000,34.609547,135.010454,34.676656,135.169165,34.839950,135.250000,34.655997,135.500000,34.656938,135.236557,34.916667,135.250000,34.929974,135.166667,34.661531,135.416667,34.736963,135.083333,34.639731,135.023166,34.626925,135.416667,34.889303,135.310033,34.728840,135.166667,34.870678,135.000000,34.746266,135.000000,34.755208,135.036785,34.500000,135.044188,34.583333,135.047650,34.622303,135.500000,34.664265,135.302768,35.000000,135.197165,34.916667,135.250000,34.966900,135.500000,34.614909,135.120461,34.666667,135.416667,34.938127,135.434785,34.916667,135.333333,34.694576,135.244899,34.720137,135.250000,34.719014,135.500000,34.637993,135.416667,34.813335,135.499986,34.687279,135.491248,34.581177,135.201762,34.666667,135.211115,34.672421,135.500000,34.511834,135.333333,34.574145,135.500000,34.737510,135.028220,34.666667,135.494518,34.583333,135.500000,34.843329,135.152317,34.583333,135.434339,34.852476,135.500000,34.603201,135.284696,34.750000,135.408004,34.833333,135.436622,34.750000,135.500000,34.687276,135.500000,34.556301,135.333333,34.636811,135.206813,34.833333,135.166667,34.740104,135.000000,34.788314,135.416667,34.851088,135.461741,34.873844,135.101710,34.833333,135.210588,34.680932,135.472538,34.589548,135.416667,34.817528,135.483030,34.666667,135.166667,34.604401,135.169152,34.583333,135.490735,34.666667,135.416667,34.922663,135.422203,34.916667,135.195036,35.000000,135.157615,34.666667,135.347865,34.500000,135.500000,34.643887,135.416667,34.758847,135.497223,34.666667,135.166667,34.839162,135.166667,34.801775,135.282638,34.750000,135.141290,34.833333,135.000000,34.614481,135.008774,34.666667,135.500000,34.567855,135.333333,34.735193,135.389162,34.583333,135.500000,34.703581,135.166667,34.672361,135.271745,34.833333,135.333333,34.816582,135.341629,34.833333,135.131444,34.750000,135.000000,34.515432,135.022534,34.583333,135.083333,34.657877,135.358046,34.833333,135.416667,34.843743,135.166667,34.835113,135.171103,34.833333,135.083333,34.712738,135.080739,34.750000,135.083333,34.760611,135.500000,34.626311,135.361883,34.500000
],
"groups":[
{"lon":135000,"lat":34500,"size":84,"index":[610,611,791,792,958,959,1029,1030]},
{"lon":135000,"lat":34583,"size":84,"index":[192,193,211,212,312,313,341,342,500,193,503,504,567,212,341,603,611,192,212,625,629,630,661,504,667,341,694,695,567,791,625,694,879,880,630,909,625,312,630,503,504,500,193,567,312,951,342,952,959,960,981,629,342,629,952,503,1018,1019,960,500,1030,661,694,1031,960,192,952,661]},
{"lon":135000,"lat":34666,"size":84,"index":[13,14,60,61,13,211,370,371,438,439,371,464,603,604,621,604,627,370,61,13,438,785,621,60,371,60,880,881,905,881,909,61,785,910,881,943,956,438,604,981,785,370,943,621,1019,943,14,1036,14,1037]},
{"lon":135000,"lat":34750,"size":84,"index":[105,106,143,105,439,440,447,448,440,447,464,465,805,806,910,447,957,440,995,105,1037,1038]},
{"lon":135000,"lat":34833,"size":84,"index":[67,68,106,107,107,150,320,321,376,377,448,107,548,549,734,321,764,67,806,377,549,815,321,828,871,828,815,912,917,549,815,67,377,917,828,917]},
{"lon":135000,"lat":34916,"size":84,"index":[68,69,69,70,127,128,412,413,537,413,596,597,597,676,413,764,597,127,69,127]},
{"lon":135083,"lat":34500,"size":84,"index":[186,187,314,315,421,422,187,422,632,633,767,632,792,793,841,187,633,843,984,633,422,632]},
{"lon":135083,"lat":34583,"size":84,"index":[5,6,54,5,202,203,231,232,203,279,297,298,313,314,343,344,344,385,420,421,471,203,471,487,5,507,531,532,551,552,609,343,636,279,688,689,692,6,695,696,745,54,232,531,689,767,773,774,344,231,297,773,420,688,232,688,343,841,551,774,774,883,532,54,531,745,883,949,231,420,951,609,745,966,487,507,507,984,487,297,279,773,883,1003,1009,551,6,471,532,689,1031,609]},
{"lon":135083,"lat":34666,"size":84,"index":[201,202,253,254,325,326,338,339,345,346,367,368,372,338,385,386,423,424,492,493,493,534,552,553,592,593,635,636,690,254,691,692,696,697,727,493,740,741,254,760,201,592,777,778,326,201,593,788,593,635,801,740,345,802,825,826,386,367,741,849,851,386,368,338,424,861,851,877,690,740,884,801,368,777,697,851,424,923,778,825,966,691,691,326,367,325,760,423,741,553,635,884,760,345,592,253,339,778,372,994,777,423,801,1009,325,253,788,884,553,1024,339,825,1028,372,1036,697,788,690]},
{"lon":135083,"lat":34750,"size":84,"index":[465,466,491,492,707,708,726,727,830,831,491,874,877,831,874,907,831,726,466,998,874,1015,1017,491,726,1028,1038,466]},
{"lon":135083,"lat":34833,"size":84,"index":[65,66,150,151,190,191,227,151,483,484,190,707,151,483,829,830,66,852,483,65,912,227,227,920,852,190,66,955,65,829,998,829,191,1014,852,1017,191,1034]},
{"lon":135083,"lat":34916,"size":84,"index":[70,71,128,129,920,921]},
{"lon":135166,"lat":34500,"size":84,"index":[299,300,300,523,588,589,523,646,588,523,843,588,1004,300]},
{"lon":135166,"lat":34583,"size":84,"index":[15,16,98,99,121,122,198,199,298,299,323,324,337,99,198,375,398,121,99,15,199,98,509,15,646,647,98,810,845,846,847,337,398,647,935,198,337,945,949,398,121,935,647,847,324,976,199,847,1003,1004,324,935]},
{"lon":135166,"lat":34666,"size":84,"index":[16,17,28,29,46,47,48,49,52,53,57,58,59,29,49,62,94,95,111,112,122,123,135,136,163,164,95,165,194,195,200,49,223,224,228,229,237,238,53,246,255,256,238,287,288,58,52,289,316,317,322,323,328,329,346,57,357,237,123,358,375,47,395,396,195,200,467,468,478,111,46,62,95,494,499,52,501,468,508,509,513,514,528,494,534,535,289,255,47,508,246,574,591,195,62,94,528,316,223,287,468,224,255,619,256,620,58,358,631,164,53,678,535,396,467,478,111,619,28,762,163,528,802,288,810,508,322,814,826,395,842,135,17,845,849,288,329,112,619,194,238,814,861,862,620,867,873,329,876,322,501,223,876,513,29,873,224,328,908,499,862,395,923,924,287,28,194,256,228,932,924,937,57,842,762,591,494,228,48,574,937,501,842,513,94,17,970,971,976,977,867,48,112,762,164,970,135,514,478,289,136,357,396,499,358,876,867,246,574,163,977,46,59,873,994,535,357,937,316,970,814,999,862,467,620,200,999,977,514,237,999,591,1024,123,328,59,924,136]},
{"lon":135166,"lat":34750,"size":84,"index":[86,87,125,126,181,86,359,360,126,461,607,608,360,631,360,637,678,679,607,359,702,87,708,607,87,733,608,181,637,702,86,125,608,637,907,908,679,359,181,702,993,126,1015,679,1035,125]},
{"lon":135166,"lat":34833,"size":84,"index":[22,23,35,36,92,93,116,117,251,252,22,35,457,458,484,457,530,22,557,558,578,579,251,35,558,858,252,859,23,116,558,23,458,92,944,530,92,947,93,251,955,458,579,963,530,93,944,557,36,116,557,993,579,457,1014,944,36,252,1034,1035]},
{"lon":135166,"lat":34916,"size":84,"index":[71,72,129,130,441,442,130,441,577,578,72,441,921,577,947,948,963,964,577,72,1008,130]},
{"lon":135250,"lat":34500,"size":84,"index":[24,25,389,390,389,449,589,590,390,670,24,735,756,670,590,24,390,863,590,389,670,979]},
{"lon":135250,"lat":34583,"size":84,"index":[485,486,486,756,846,485,853,854,945,485,486,992]},
{"lon":135250,"lat":34666,"size":84,"index":[26,27,31,32,63,32,137,138,148,149,165,166,229,230,138,270,307,26,317,318,399,400,270,452,459,460,515,516,521,459,149,524,149,521,459,536,582,307,587,166,582,650,659,660,675,138,516,230,706,659,706,63,318,729,27,536,536,787,26,853,729,516,400,582,460,894,166,307,63,660,911,675,932,318,787,938,729,939,939,911,940,941,452,400,911,515,650,940,940,954,954,521,787,969,971,706,32,137,987,650,954,27,137,399,270,515,230,587,1016,399,460,1021,939,659,660,675,452,587]},
{"lon":135250,"lat":34750,"size":84,"index":[30,31,147,148,266,267,334,335,30,430,461,267,546,547,594,546,686,687,594,717,733,30,267,786,816,817,430,334,686,850,430,868,850,816,546,919,850,594,786,335,930,931,930,147,941,147,334,930,868,987,868,1016,335,686,786,1025,816,1026]},
{"lon":135250,"lat":34833,"size":84,"index":[117,118,118,266,347,348,638,639,687,347,796,797,638,347,858,118,859,860,1025,638]},
{"lon":135250,"lat":34916,"size":84,"index":[349,350,442,443,443,555,639,349,668,350,350,796,860,349,948,668,668,962,964,443]},
{"lon":135333,"lat":34500,"size":84,"index":[73,74,108,109,156,157,174,175,204,174,243,244,108,383,449,450,174,243,472,473,473,502,450,156,472,833,848,204,863,864,73,918,473,848,243,108,979,472,848,73,156,1010,204,1022,450,1040]},
{"lon":135333,"lat":34583,"size":84,"index":[102,103,393,394,393,102,401,402,102,671,401,758,775,776,833,834,854,855,855,401,992,855,1022,393]},
{"lon":135333,"lat":34666,"size":84,"index":[37,38,55,56,82,83,84,85,141,142,144,145,295,296,351,352,380,381,397,84,402,403,415,295,85,418,83,495,403,56,381,510,495,522,524,525,544,545,522,351,585,586,85,598,56,397,544,296,351,55,525,586,673,141,693,141,709,710,586,724,352,736,84,144,724,415,403,775,38,779,736,780,724,795,352,397,811,812,495,811,837,838,83,381,510,522,144,866,870,693,38,888,585,545,812,55,894,525,899,37,545,415,938,837,295,37,838,888,142,950,736,142,969,544,837,709,710,82,709,380,710,812,296,838,510,693,888,380,82,811,1021,585]},
{"lon":135333,"lat":34750,"size":84,"index":[11,12,41,42,42,64,133,134,161,162,170,171,196,197,234,235,262,263,285,286,285,384,477,11,384,511,538,539,547,134,197,665,672,673,701,42,665,704,717,718,738,286,770,771,779,161,41,794,795,538,817,477,794,821,738,839,477,263,162,870,839,701,878,171,886,738,718,886,896,384,770,897,538,899,197,906,914,41,919,11,286,196,718,285,665,672,701,770,931,896,162,511,896,539,171,839,539,161,64,973,878,133,134,886,988,794,12,133,64,1001,672,1012,511,196,263,12,1026,1027,1032,878]},
{"lon":135333,"lat":34833,"size":84,"index":[169,170,219,220,233,234,219,262,220,282,348,220,444,445,453,454,489,490,497,498,233,652,713,169,715,444,725,454,282,728,742,743,797,728,728,713,453,823,742,715,497,898,913,914,444,925,926,927,927,233,454,953,713,742,725,453,926,988,498,926,498,996,913,497,715,725,169,913,1027,219,282,1032,927,1033]},
{"lon":135333,"lat":34916,"size":84,"index":[290,291,488,489,581,291,823,488,291,967,488,581,581,1006]},
{"lon":135416,"lat":34500,"size":84,"index":[7,8,9,10,20,21,74,75,88,89,109,110,124,20,175,176,182,183,209,210,221,222,244,245,247,248,249,250,259,183,280,281,305,306,308,309,330,331,365,209,21,369,383,365,387,388,259,245,124,414,176,7,480,221,505,250,512,387,365,526,183,527,542,543,369,554,280,8,613,369,622,623,182,634,281,643,648,649,653,654,309,182,250,674,677,75,110,543,682,683,698,414,75,622,719,720,722,723,89,512,757,554,803,804,808,643,822,222,554,221,824,331,414,21,9,249,840,674,622,857,305,857,331,653,857,281,648,634,8,309,887,9,210,247,682,893,10,698,542,527,248,840,900,683,543,893,176,308,683,330,918,305,110,210,698,89,20,936,653,388,634,900,308,259,10,124,505,840,975,803,7,306,719,978,306,280,209,505,512,803,975,982,245,542,388,991,527,682,824,88,893,247,249,88,248,330,900,719,387,1020,222,975,643,648,674,824]},
{"lon":135416,"lat":34583,"size":84,"index":[0,1,18,19,33,34,76,77,78,79,96,97,97,100,101,78,103,104,119,120,152,153,158,96,184,185,217,218,153,239,271,272,273,274,283,284,78,0,303,304,158,319,327,304,363,364,97,271,373,374,327,382,394,218,404,405,406,33,407,408,410,411,416,417,427,428,431,432,433,434,304,427,469,470,479,480,239,158,517,518,104,520,526,217,559,407,560,561,562,152,120,566,568,569,570,571,434,517,572,573,580,572,583,364,283,239,573,404,595,433,599,600,605,410,606,572,566,0,612,613,615,616,363,624,616,583,405,628,605,606,559,640,641,642,644,184,651,273,658,479,663,664,651,666,671,520,680,605,681,417,684,685,284,615,699,700,218,703,699,711,272,712,703,714,152,19,104,703,721,722,730,731,405,732,642,663,562,737,273,739,641,600,750,751,752,753,658,757,758,759,761,100,517,568,101,96,600,768,769,711,685,681,776,641,100,730,730,784,721,568,573,431,76,571,34,819,640,822,272,827,700,303,615,739,834,759,432,769,411,33,119,101,184,869,872,562,19,120,768,875,79,271,606,406,431,699,373,887,891,651,714,680,374,892,681,595,583,560,410,283,640,408,902,404,566,922,411,616,711,644,417,570,185,752,666,784,664,714,416,76,936,612,470,872,408,434,77,942,737,18,427,946,769,751,34,327,680,892,185,961,1,965,364,972,922,77,18,922,433,570,892,470,79,1,982,721,217,373,891,319,739,363,768,664,571,986,153,119,284,891,520,663,479,559,303,644,374,469,595,407,1000,658,1002,432,751,1005,406,700,319,761,819,1011,560,819,1000,612,1013,752,684,1000,759,642,761,666,784,1039,685,872,469,684,737,416]},
{"lon":135416,"lat":34666,"size":84,"index":[39,40,43,44,80,81,90,91,113,90,145,146,154,155,179,180,188,189,205,206,207,208,213,214,215,216,241,242,80,257,264,265,268,269,275,276,277,278,216,292,293,294,301,302,155,207,310,311,332,333,336,213,268,340,353,354,391,392,179,409,409,241,418,419,425,426,91,310,429,353,435,436,336,437,208,451,180,455,462,463,474,475,269,476,215,264,519,277,265,529,533,310,293,540,533,541,550,215,214,541,213,113,564,565,529,340,575,576,565,580,113,533,598,599,601,602,614,80,617,618,333,626,628,154,43,180,645,302,188,655,662,332,626,601,576,43,716,257,732,155,437,39,748,749,208,750,753,754,206,716,763,275,429,765,455,766,780,781,789,790,154,800,476,474,278,763,807,655,626,809,419,550,276,90,294,818,820,146,146,832,749,789,435,865,866,781,294,748,875,564,540,748,882,278,550,564,832,765,790,885,81,662,391,301,241,901,292,268,269,902,340,903,865,353,354,818,916,617,265,749,903,916,419,462,475,205,933,601,276,807,655,425,934,336,463,264,91,188,257,333,437,409,451,81,790,934,818,645,950,435,800,614,332,933,614,451,820,429,302,179,882,275,645,934,617,519,425,974,301,576,455,980,832,462,618,277,618,885,903,476,463,540,216,529,989,865,354,391,974,990,214,39,716,974,765,293,781,820,207,1002,1005,662,763,205,519,475,474,800,933,1013,565,292,885,882,541,1023,916,789,206,807]},
{"lon":135416,"lat":34750,"size":84,"index":[2,3,44,45,50,51,114,115,132,50,159,160,172,173,177,178,235,236,240,178,258,2,260,261,159,240,355,356,361,362,378,379,392,160,436,173,456,236,481,482,258,496,506,258,563,356,177,575,584,378,114,159,656,657,236,2,261,669,704,705,746,747,755,361,771,772,172,705,782,783,783,584,821,456,835,836,261,844,160,177,856,747,115,240,836,783,889,890,51,895,897,889,356,904,906,772,747,355,379,563,496,856,51,928,481,929,506,890,115,260,856,362,584,114,355,50,657,361,772,835,178,481,973,506,755,496,782,989,890,656,563,260,378,657,1001,456,1012,172,173,782,362,379,889,836,705,835,656,755]},
{"lon":135416,"lat":34833,"size":84,"index":[3,4,131,132,139,140,167,168,225,226,225,366,445,446,490,167,556,225,652,139,743,744,131,746,446,167,744,813,4,139,898,744,813,915,925,915,4,131,928,366,953,446,968,556,366,983,985,140,996,985,997,556,168,997,1007,997,140,813,1033,985,915,168]},
{"lon":135416,"lat":34916,"size":84,"index":[798,799,967,968,1006,1007]}
]
}
}