{
"stations":[
{"code":1190529,"name":"喜々津","lon":129.986270,"lat":32.832743,"lines":[11905],"next":[1190528,1190533,1190530,1192212,1190531]},
{"code":1190530,"name":"市布","lon":129.965831,"lat":32.818986,"lines":[11905],"next":[1190534,1190533,1190529,1190531,1190535]},
{"code":1190531,"name":"肥前古賀","lon":129.951571,"lat":32.798463,"lines":[11905],"next":[9991203,9991209,1190528,1190532,1190535,1190530,9991401,9991204,1190529]},
{"code":1190532,"name":"現川","lon":129.926453,"lat":32.791180,"lines":[11905],"next":[9991402,9991401,1190536,1190531,9991306,1190535]},
{"code":1190533,"name":"東園","lon":129.962591,"lat":32.847091,"lines":[11905],"next":[1190534,1190529,1190530,1192212]},
{"code":1190534,"name":"大草","lon":129.938972,"lat":32.860232,"lines":[11905],"next":[1192209,1190533,1190530,1192212,1192211,1190535]},
{"code":1190535,"name":"本川内","lon":129.899916,"lat":32.831792,"lines":[11905],"next":[1190536,1190537,1190531,1190530,1190532,1190534,1192209]},
{"code":1190536,"name":"長与","lon":129.879434,"lat":32.818981,"lines":[11905],"next":[1190535,1190537,1190532,9991306,9991303,9991302,9991305]},
{"code":1190537,"name":"高田(長崎)","lon":129.869457,"lat":32.819475,"lines":[11905],"next":[1192208,9991302,1190536,1190538,1190535,1192209,9991301,1192204]},
{"code":1190538,"name":"道ノ尾","lon":129.852997,"lat":32.804329,"lines":[11905],"next":[9991309,1192203,1190537,1192204,1192202,1190540,9991310,9991301,9991134]},
{"code":1190539,"name":"西浦上","lon":129.859206,"lat":32.790245,"lines":[11905],"next":[9991306,9991308,9991303,9991301,9991309,9991307,9991302,9991305,9991304]},
{"code":9991303,"name":"昭和町通り","lon":129.860694,"lat":32.790630,"lines":[99913,99914],"next":[9991302,1190539,1190536,9991304,9991305]},
{"code":1190540,"name":"浦上","lon":129.863304,"lat":32.765767,"lines":[11905],"next":[9991311,9991611,9991310,1190538,9991315,9991312,9991314,9991610,9991134,9991313]},
{"code":9991313,"name":"浦上駅前","lon":129.864171,"lat":32.765481,"lines":[99913,99914],"next":[9991315,9991312,9991314,1190540]},
{"code":1190541,"name":"長崎(長崎)","lon":129.870515,"lat":32.753085,"lines":[11905],"next":[9991321,9991315,9991319,9991318,9991317,9991316,9991320]},
{"code":9991318,"name":"長崎駅前","lon":129.871874,"lat":32.752380,"lines":[99913,99914],"next":[9991317,9991319,1190541,9991406]},
{"code":1192208,"name":"松原(長崎)","lon":129.946190,"lat":32.977380,"lines":[11922],"next":[1190537,1192204,1192209,1190517,1190524,1192206,1192207]},
{"code":1192209,"name":"竹松","lon":129.953035,"lat":32.939959,"lines":[11922],"next":[1190534,1190524,1192208,1192210,1190537,1190535,1192211]},
{"code":1192210,"name":"諏訪","lon":129.960277,"lat":32.923627,"lines":[11922],"next":[1190524,1192212,1192209,1192211]},
{"code":1192211,"name":"大村(長崎)","lon":129.962238,"lat":32.911439,"lines":[11922],"next":[1190534,1192210,1192212,1192209]},
{"code":1192212,"name":"岩松","lon":129.981218,"lat":32.890513,"lines":[11922],"next":[1190524,1190525,1192210,1190527,1190534,1190533,1190529,1190528,1192211]},
{"code":9991301,"name":"赤迫","lon":129.857948,"lat":32.793732,"lines":[99913,99914],"next":[1190539,9991302,1190537,9991309,1190538]},
{"code":9991302,"name":"住吉(長崎)","lon":129.859836,"lat":32.792073,"lines":[99913,99914],"next":[1190537,9991303,9991301,1190536,1190539]},
{"code":9991304,"name":"千歳町(長崎)","lon":129.860952,"lat":32.789620,"lines":[99913,99914],"next":[9991305,9991303,1190539]},
{"code":9991305,"name":"若葉町","lon":129.861596,"lat":32.787744,"lines":[99913,99914],"next":[9991304,9991306,1190539,9991303,1190536]},
{"code":9991306,"name":"長崎大学前","lon":129.862282,"lat":32.785759,"lines":[99913,99914],"next":[1190539,1190536,9991307,1190532,9991402,9991305]},
{"code":9991307,"name":"岩屋橋","lon":129.862282,"lat":32.781935,"lines":[99913,99914],"next":[9991308,9991311,9991402,9991306,1190539,9991309]},
{"code":9991308,"name":"浦上車庫前","lon":129.861381,"lat":32.779680,"lines":[99913,99914],"next":[9991307,1190539,9991309]},
{"code":9991309,"name":"大橋(長崎)","lon":129.861467,"lat":32.777713,"lines":[99913,99914],"next":[9991310,1190538,1190539,9991308,9991311,9991301,9991307]},
{"code":9991310,"name":"松山町(長崎)","lon":129.862132,"lat":32.773437,"lines":[99913,99914],"next":[9991309,1190540,1190538,9991311]},
{"code":9991311,"name":"浜口町","lon":129.863784,"lat":32.770551,"lines":[99913,99914],"next":[9991403,9991307,9991312,1190540,9991404,9991309,9991310,9991402]},
{"code":9991312,"name":"大学病院前","lon":129.864171,"lat":32.769017,"lines":[99913,99914],"next":[9991315,9991313,9991311,9991316,1190540,9991404]},
{"code":9991314,"name":"茂里町","lon":129.864557,"lat":32.763965,"lines":[99913,99914],"next":[9991313,9991315,1190540]},
{"code":9991315,"name":"銭座町","lon":129.865801,"lat":32.761475,"lines":[99913,99914],"next":[9991312,9991313,1190541,9991610,9991321,1190540,9991316,9991314]},
{"code":9991316,"name":"宝町(長崎)","lon":129.868913,"lat":32.757830,"lines":[99913,99914],"next":[9991312,9991404,9991315,9991317,1190541]},
{"code":9991317,"name":"八千代町","lon":129.870436,"lat":32.754979,"lines":[99913,99914],"next":[9991318,9991406,1190541,9991316,9991404]},
{"code":9991319,"name":"五島町","lon":129.872217,"lat":32.749411,"lines":[99913],"next":[9991318,1190541,9991506,9991406,9991320]},
{"code":9991320,"name":"大波止","lon":129.872046,"lat":32.745116,"lines":[99913],"next":[9991506,9991321,9991322,9991323,1190541,9991319]},
{"code":9991321,"name":"出島","lon":129.871681,"lat":32.743871,"lines":[99913],"next":[1190541,9991320,9991315,9991609,9991322,9991610]},
{"code":9991322,"name":"築町","lon":129.874942,"lat":32.742869,"lines":[99913,99916],"next":[9991320,9991323,9991324,9991321,9991609,9991325]},
{"code":9991323,"name":"西浜町","lon":129.876015,"lat":32.743735,"lines":[99913,99915,99916],"next":[9991322,9991320,9991324,9991506]},
{"code":9991324,"name":"観光通り","lon":129.877775,"lat":32.743483,"lines":[99913,99915],"next":[9991506,9991322,9991323,9991325]},
{"code":9991325,"name":"思案橋","lon":129.880264,"lat":32.742725,"lines":[99913,99915],"next":[9991326,9991506,9991612,9991322,9991609,9991324,9991405]},
{"code":9991326,"name":"正覚寺下","lon":129.882109,"lat":32.741425,"lines":[99913,99915],"next":[9991325,9992113,9991402,9991612,9991209,9991403,9991405,9991401]},
{"code":9991401,"name":"蛍茶屋","lon":129.894254,"lat":32.751135,"lines":[99914,99915,99916],"next":[9991209,1190532,9991402,1190531,9991326]},
{"code":9991402,"name":"新中川町","lon":129.890435,"lat":32.752362,"lines":[99914,99915,99916],"next":[1190532,9991307,9991326,9991401,9991306,9991403,9991311]},
{"code":9991403,"name":"新大工町","lon":129.886701,"lat":32.752380,"lines":[99914,99915,99916],"next":[9991311,9991404,9991405,9991326,9991402]},
{"code":9991404,"name":"諏訪神社前","lon":129.884083,"lat":32.752596,"lines":[99914,99915,99916],"next":[9991403,9991405,9991316,9991406,9991311,9991317,9991312]},
{"code":9991405,"name":"公会堂前","lon":129.880650,"lat":32.749420,"lines":[99914,99915,99916],"next":[9991506,9991406,9991404,9991403,9991326,9991325]},
{"code":9991406,"name":"桜町(長崎)","lon":129.875500,"lat":32.750792,"lines":[99914],"next":[9991405,9991506,9991404,9991317,9991318,9991319]},
{"code":9991506,"name":"賑橋","lon":129.878204,"lat":32.746785,"lines":[99915,99916],"next":[9991405,9991320,9991325,9991406,9991324,9991319,9991323]},
{"code":9991609,"name":"市民病院前(長崎)","lon":129.872410,"lat":32.740523,"lines":[99916],"next":[9991611,9991610,9991321,9991322,9991325,9991612]},
{"code":9991610,"name":"大浦海岸通り","lon":129.870608,"lat":32.737861,"lines":[99916],"next":[9991611,9991315,9991609,9991321,1190540]},
{"code":9991611,"name":"大浦天主堂下","lon":129.870780,"lat":32.736408,"lines":[99916],"next":[9991610,1190540,9991609,9991612,9992125,1193036,5000194,9991133,9991134,9992121]},
{"code":9991612,"name":"石橋(長崎)","lon":129.872432,"lat":32.734269,"lines":[99916],"next":[9992121,9992113,9991326,9991611,9992120,9991325,9991609]}
],
"voronoi":{
"points":[129.878544,32.761142,129.881522,32.769773,129.903563,32.908250,129.996177,32.923151,129.873623,32.802622,129.876139,32.800790,129.874798,32.747157,129.874878,32.746861,129.825695,32.741015,129.833333,32.742569,129.846542,32.745258,129.870343,32.913441,129.902223,32.907818,129.602315,32.904401,129.666667,32.916214,129.712474,32.924623,129.843935,32.926410,129.875845,32.847497,129.849335,32.967592,129.902456,32.994494,129.864789,32.753795,129.873456,32.751058,129.875707,32.756198,129.857345,32.768781,129.859246,32.768590,129.998508,32.862919,130.000000,32.855338,129.877750,32.737198,129.929907,32.666667,130.000000,32.571881,129.876644,32.741858,129.877474,32.738029,129.878209,32.759224,129.879221,32.754408,129.953557,32.884494,129.885403,32.794861,129.894212,32.790313,129.885032,32.748127,129.885947,32.746256,129.866554,32.778921,129.873364,32.777606,129.871899,32.754091,129.889593,32.779747,129.893899,32.783847,129.717132,32.747356,129.757937,32.759422,129.874951,32.747505,129.500000,32.869780,129.547119,32.893550,129.877129,32.745246,129.879575,32.744928,129.894701,32.784523,130.000000,32.925569,129.871980,32.777158,129.821345,32.776944,129.833333,32.777468,129.857862,32.791731,129.859787,32.791067,129.833333,32.745458,129.849780,32.755027,129.887397,32.776795,129.884704,32.833333,129.902668,32.804614,129.930836,32.823020,129.933093,32.826518,129.877915,32.749506,129.500000,32.689320,129.666667,32.733867,129.864274,32.767249,129.874194,32.744894,129.881690,32.746001,129.883865,32.745876,129.859401,32.788039,129.879014,32.794772,129.826452,32.937969,129.833333,32.946877,129.873016,32.742408,129.873509,32.744011,129.829186,32.936641,129.873975,32.737523,129.874279,32.737403,129.987801,32.861983,129.900997,32.778680,129.888694,32.778430,129.587045,32.948813,129.602920,33.000000,129.761473,32.724205,129.833333,32.732712,129.863356,32.764466,129.863506,32.747607,129.937601,32.829971,129.939471,32.833333,129.961652,32.873200,129.566891,32.500000,129.666667,32.577059,129.782690,32.666667,129.833333,32.705780,129.854446,32.783759,129.754711,32.927659,129.868281,32.741377,129.862139,32.747344,129.966768,32.833333,129.970717,32.833789,129.886142,32.775376,130.000000,32.864094,129.857688,32.751397,129.847083,32.745439,129.610059,32.979314,129.858996,33.000000,129.868892,32.804283,129.870127,32.750674,130.000000,32.951013,129.956672,32.733914,130.000000,32.681441,129.812406,32.775331,129.874254,32.767249,129.876933,32.767828,129.854684,32.783847,129.833333,32.937400,130.000000,32.967886,129.833333,32.771148,129.877463,32.737609,129.889898,32.744133,129.951833,32.666667,130.000000,32.606421,129.619112,33.000000,129.874202,32.767228,129.877517,32.737414,129.928676,32.833333,129.933208,32.827110,130.000000,32.780029,129.883244,32.796094,129.765100,33.000000,129.833333,32.782881,129.888533,32.745172,129.833333,32.933764,129.833333,32.842216,129.841507,32.833333,129.867780,32.804781,129.666667,32.965013,129.703812,33.000000,129.855853,32.784648,129.797951,32.772156,129.833333,32.788687,130.000000,32.996178,129.833333,32.779412,129.875144,32.833333,129.833333,32.765112,129.860080,32.789935,129.907206,33.000000,129.500000,32.657624,129.535513,32.666667,129.666667,32.700064,129.631082,33.000000,129.971023,32.833333,130.000000,32.790282],
"groups":[
{"lon":129500,"lat":32500,"size":167,"index":[93,94,150,151]},
{"lon":129500,"lat":32666,"size":167,"index":[66,67,151,152]},
{"lon":129500,"lat":32833,"size":167,"index":[13,14,47,48,84,85,84,107,107,125,48,13,13,139,48,84,107,153]},
{"lon":129666,"lat":32500,"size":167,"index":[94,95]},
{"lon":129666,"lat":32666,"size":167,"index":[8,9,44,45,54,55,8,58,67,44,86,8,86,87,95,96,114,54,45,120,114,133,142,143,45,142,54,145,44,147,142,114,152,86]},
{"lon":129666,"lat":32833,"size":167,"index":[14,15,74,75,74,78,98,74,78,118,15,132,78,135,15,98,98,136,139,140]},
{"lon":129833,"lat":32500,"size":167,"index":[28,29,123,124]},
{"lon":129833,"lat":32666,"size":167,"index":[0,1,4,5,6,7,9,10,20,0,21,22,23,24,27,28,30,31,32,33,35,36,37,38,39,40,20,41,42,43,21,46,49,50,7,49,43,51,41,22,53,40,55,39,56,57,58,59,37,60,61,62,63,64,65,33,24,68,69,30,70,71,72,73,76,77,46,65,79,80,77,69,51,82,60,83,87,79,88,68,89,6,90,91,27,71,96,80,97,39,6,46,10,99,100,89,90,101,103,60,105,20,106,105,99,76,56,109,109,4,89,110,36,51,1,103,112,113,65,70,115,116,117,43,106,100,120,53,121,31,122,123,110,21,100,77,83,42,88,126,97,117,80,127,128,129,126,115,64,130,73,131,127,27,24,103,133,56,22,32,38,134,134,122,116,1,129,90,137,138,138,109,63,112,141,72,62,63,5,131,76,121,31,50,59,88,143,138,69,7,131,35,50,70,121,127,30,49,36,62,33,37,40,42,122,82,145,97,64,129,105,116,4,146,147,23,68,115,57,148,32,0,134,83,59,126,117,141,72,148,10,106,71,38,110,41,23,53,57,5,99,79,148,73,141,35,154,155,82,112]},
{"lon":129833,"lat":32833,"size":167,"index":[2,3,11,12,16,11,16,17,18,19,25,26,12,34,3,52,17,61,75,18,12,2,81,25,91,92,101,102,25,104,18,108,2,111,118,119,11,128,34,92,135,16,34,3,136,137,19,144,102,81,146,17,19,149,92,81,102,154]}
]
}
}