{
"stations":[
{"code":2100908,"name":"新藤原","lon":139.732963,"lat":36.852505,"lines":[99341,21009],"next":[1131930,9934107,2100906,9934102,2100904,9934104,2100903,2100907,1131929]},
{"code":9934102,"name":"龍王峡","lon":139.718542,"lat":36.860909,"lines":[99341],"next":[2100908,9934103,2100906,2100907,9934104]},
{"code":9934103,"name":"川治温泉","lon":139.703775,"lat":36.884036,"lines":[99341],"next":[9934105,2100326,2100906,9934104,9934102,2100905,2100909]},
{"code":9934104,"name":"川治湯元","lon":139.702772,"lat":36.895126,"lines":[99341],"next":[9934105,9934103,2100908,9934107,9934102]},
{"code":9934105,"name":"湯西川温泉","lon":139.688240,"lat":36.929482,"lines":[99341],"next":[9934103,2100326,9934104,9934107,5000080,9931217,9934106]},
{"code":9934106,"name":"中三依温泉","lon":139.696140,"lat":36.985843,"lines":[99341],"next":[9934108,9921621,9934107,5000080,9934105]},
{"code":1131923,"name":"宇都宮","lon":139.898389,"lat":36.559246,"lines":[11319,11340,50022],"next":[1131922,9933008,2100811,1131924,9933007,2100812]},
{"code":1131924,"name":"岡本(栃木)","lon":139.944363,"lat":36.598182,"lines":[11319],"next":[1131925,2100812,9933013,9933008,1131923,1131926]},
{"code":1131925,"name":"宝積寺","lon":139.979487,"lat":36.631703,"lines":[11319,11334],"next":[1131924,1131926,1133402,9933013]},
{"code":1131926,"name":"氏家","lon":139.962100,"lat":36.681696,"lines":[11319],"next":[1131927,1131925,2100812,1133403,1133402,1131924]},
{"code":1131927,"name":"蒲須坂","lon":139.950461,"lat":36.720727,"lines":[11319],"next":[1131926,1134005,1131928,2100812,1133403,1133404]},
{"code":1131928,"name":"片岡","lon":139.945665,"lat":36.754557,"lines":[11319],"next":[2100903,1131927,1131930,1134005,1131929,1133404]},
{"code":1131929,"name":"矢板","lon":139.932912,"lat":36.806550,"lines":[11319],"next":[1131930,2100903,1131928,2100908]},
{"code":1131930,"name":"野崎(栃木)","lon":139.957752,"lat":36.843722,"lines":[11319],"next":[9934107,2100908,1133404,1131929,1131928,1131931]},
{"code":1131931,"name":"西那須野","lon":139.986383,"lat":36.883726,"lines":[11319],"next":[1133405,1133404,1131932,1131930,9934107]},
{"code":1134002,"name":"鶴田","lon":139.858818,"lat":36.538319,"lines":[11340],"next":[1134003,2100811,2100810,2100809,2100812]},
{"code":1134003,"name":"鹿沼","lon":139.762961,"lat":36.571222,"lines":[11340],"next":[2100319,2100318,1134002,2100812,1134004,2100320,2100809]},
{"code":1134004,"name":"文挟","lon":139.727778,"lat":36.637716,"lines":[11340],"next":[1134005,2100812,2100320,1134003,2100321,2100322]},
{"code":1134005,"name":"下野大沢","lon":139.732367,"lat":36.686427,"lines":[11340],"next":[2100322,1134004,2100324,1131927,1131928,2100323,2100903,2100812]},
{"code":1134006,"name":"今市","lon":139.687348,"lat":36.720388,"lines":[11340],"next":[2100325,2100323,2100324,1134007,2100322]},
{"code":1134007,"name":"日光","lon":139.622150,"lat":36.747400,"lines":[11340],"next":[2100326,2100904,2100322,2100321,2100325,1134006,2100905]},
{"code":2100326,"name":"東武日光","lon":139.619750,"lat":36.748233,"lines":[21003],"next":[1134007,9934103,9934105,2100905,9931217,2100321]},
{"code":2100317,"name":"楡木","lon":139.745164,"lat":36.507497,"lines":[21003],"next":[2100316,2100809,2101010,2100808,2100318]},
{"code":2100318,"name":"樅山","lon":139.741875,"lat":36.532667,"lines":[21003],"next":[1134003,2101010,2100319,2100321,2100317,2100809,2100320]},
{"code":2100319,"name":"新鹿沼","lon":139.744780,"lat":36.556998,"lines":[21003],"next":[1134003,2100318,2100320]},
{"code":2100320,"name":"北鹿沼","lon":139.737646,"lat":36.580811,"lines":[21003],"next":[1134004,2100319,1134003,2100321,2100318]},
{"code":2100321,"name":"板荷","lon":139.707739,"lat":36.619476,"lines":[21003],"next":[9931217,2100322,1134007,9931216,2100318,1134004,2100320,2100326,2101010]},
{"code":2100322,"name":"下小代","lon":139.713849,"lat":36.651303,"lines":[21003],"next":[1134005,1134007,2100321,2100323,1134004,1134006]},
{"code":2100323,"name":"明神","lon":139.712301,"lat":36.676566,"lines":[21003],"next":[1134006,2100322,1134005,2100324]},
{"code":2100324,"name":"下今市","lon":139.692666,"lat":36.725630,"lines":[21003,21009],"next":[2100903,1134005,1134006,2100325,2100902,2100323]},
{"code":2100325,"name":"上今市","lon":139.681026,"lat":36.727962,"lines":[21003],"next":[1134006,2100904,1134007,2100324,2100902]},
{"code":2100809,"name":"西川田","lon":139.850247,"lat":36.514227,"lines":[21008],"next":[2100810,2100317,2100808,1131922,1134002,2100318,1134003]},
{"code":2100810,"name":"江曽島","lon":139.860818,"lat":36.530951,"lines":[21008],"next":[2100809,2100811,1134002,1131922]},
{"code":2100811,"name":"南宇都宮","lon":139.872017,"lat":36.543783,"lines":[21008],"next":[1134002,2100810,1131923,1131922,2100812]},
{"code":2100812,"name":"東武宇都宮","lon":139.880427,"lat":36.559373,"lines":[21008],"next":[1131924,1134004,1131926,1134003,1131927,1131923,1134002,2100811,1134005]},
{"code":2100902,"name":"大谷向","lon":139.691916,"lat":36.732240,"lines":[21009],"next":[2100903,2100904,2100325,2100324]},
{"code":2100903,"name":"大桑(栃木)","lon":139.713546,"lat":36.760790,"lines":[21009],"next":[2100902,2100324,1131928,1131929,2100904,1134005,2100908]},
{"code":2100904,"name":"新高徳","lon":139.710623,"lat":36.779816,"lines":[21009],"next":[2100905,2100909,1134007,2100325,2100908,2100906,2100902,2100903]},
{"code":2100905,"name":"小佐越","lon":139.706465,"lat":36.802252,"lines":[21009],"next":[2100904,2100326,2100909,9934103,1134007]},
{"code":2100909,"name":"東武ワールドスクウェア","lon":139.709083,"lat":36.808333,"lines":[21009],"next":[2100904,2100905,2100906,9934103]},
{"code":2100906,"name":"鬼怒川温泉","lon":139.716552,"lat":36.822622,"lines":[21009],"next":[9934103,2100908,2100904,2100909,2100907,9934102]},
{"code":2100907,"name":"鬼怒川公園","lon":139.722870,"lat":36.841000,"lines":[21009],"next":[2100906,2100908,9934102]}
],
"voronoi":{
"points":[139.511953,36.500000,139.528578,36.519372,139.630249,36.658859,139.709025,36.703716,139.771593,36.541458,139.796782,36.527682,139.856700,36.562109,139.867240,36.536650,139.722646,36.851376,139.748275,36.895355,139.889303,36.544521,139.609212,36.530616,139.634391,36.505822,139.500000,36.984601,139.750000,36.949559,139.759552,36.948221,139.619364,36.652942,139.711740,36.635208,139.687158,36.728353,139.721553,36.732255,139.748428,36.571066,139.750000,36.569057,139.848859,36.937734,139.855718,36.946996,139.838499,36.722109,139.846713,36.669882,139.633032,36.681476,139.655655,36.750000,139.663105,36.772565,139.711022,36.704515,139.732182,36.725943,139.796670,36.527027,139.796889,36.523608,139.902780,36.521537,139.956015,36.503973,139.824687,36.594966,139.830171,36.649339,140.000000,36.745005,139.992512,36.793608,140.000000,36.792593,139.500000,36.763408,139.507485,36.750000,139.577368,36.624827,139.737282,36.661392,139.750000,36.827379,139.761211,36.817544,140.000000,36.843733,139.622501,36.840427,139.625906,36.840539,139.831788,36.652489,139.625062,36.882507,139.743675,36.893235,139.863732,36.658947,139.889809,36.615987,139.956153,36.504093,139.685983,36.843406,139.750000,36.821398,139.769569,36.943632,139.805933,36.936198,139.971196,36.519889,139.570622,36.547779,139.959715,36.500000,140.000000,36.533354,139.578541,36.625628,139.731158,36.795225,139.880217,36.995572,139.881462,37.000000,139.622417,36.655855,139.684362,36.551873,139.657202,36.549487,139.734995,36.609659,139.660264,36.842948,139.749652,36.796224,139.750000,36.612261,139.765019,36.614866,139.711794,37.000000,139.750000,36.958577,139.822834,36.785566,139.829497,36.753623,139.860432,36.500000,139.870504,36.513126,139.671722,36.767646,139.678654,36.750000,139.791192,36.500000,139.730442,36.664999,140.000000,36.910358,139.678203,36.765098,139.667168,36.844384,139.806922,36.543211,139.500000,36.538307,139.750000,36.935354,139.686749,36.726314,139.848548,36.669086,140.000000,36.714249,139.579604,36.866968,139.621708,36.750000,139.642147,36.808889,139.829414,36.750553,139.531513,36.521895,139.577040,36.622341,139.500000,36.556757,139.659657,36.781974,139.750000,36.776128,139.818038,36.786581,139.750000,36.896577,139.886362,36.519961,139.750000,36.520929,139.817026,36.786892,139.842817,36.500000,139.847026,36.890828,139.500000,36.637578,139.500000,36.897049,139.981714,36.660498,140.000000,36.687298,139.954288,36.500000,139.843488,36.530202,140.000000,36.631341,139.750000,36.660194,139.750000,36.544036,139.934215,36.643978,139.750000,36.796176,139.639083,36.500000,139.698131,36.750000,139.750000,36.730453,139.827231,36.750000,140.000000,36.575047,139.829591,36.750000,139.993149,37.000000,140.000000,36.992909,139.750000,36.575215],
"groups":[
{"lon":139500,"lat":36500,"size":250,"index":[0,1,2,3,11,12,16,17,18,19,20,21,26,27,29,30,41,42,17,43,19,30,60,11,63,16,16,67,42,63,68,20,69,70,70,73,67,2,82,18,2,84,89,1,26,91,91,3,63,95,1,98,29,84,60,99,100,98,17,70,91,18,12,106,67,26,110,99,99,42,69,68,43,117,68,118,12,121,3,29,122,19,98,60,30,123,84,43,11,69,20,129]},
{"lon":139500,"lat":36750,"size":250,"index":[8,9,13,14,27,28,40,41,8,44,47,48,50,51,55,56,48,64,51,9,71,72,75,76,81,82,81,86,87,51,50,90,94,47,95,96,101,64,101,28,86,102,9,104,96,101,28,81,87,55,71,87,111,94,48,71,64,72,72,120,47,96,86,122,94,50,55,8]},
{"lon":139750,"lat":36500,"size":250,"index":[4,5,6,7,6,10,21,4,24,25,31,32,33,34,35,36,24,37,49,25,52,53,34,54,36,49,53,59,54,61,59,62,10,53,73,74,54,59,35,6,79,80,83,32,5,88,92,93,7,105,74,36,106,31,32,108,112,113,114,34,88,115,112,116,92,52,117,49,118,4,52,119,80,105,123,124,119,125,126,24,119,112,115,7,88,35,10,33,25,92,105,33,31,5,129,74,115,80]},
{"lon":139750,"lat":36750,"size":250,"index":[14,15,22,23,38,39,44,45,23,46,56,45,57,58,65,66,76,15,77,78,65,85,90,57,78,38,97,78,23,65,58,22,102,103,104,58,107,103,77,109,45,107,109,38,120,107,103,77,124,97,109,22,97,126,15,57,127,128]}
]
}
}