{
"stations":[
{"code":1141301,"station":"豊橋","phonetic":"とよはし","prefecture":23,"lon":137.382128,"lat":34.762734,"lines":[11413,11502,30001,50024],"next":[9952004,1141302,9952001,9952006,9952101,9952003,9952002]},
{"code":9952001,"station":"新豊橋","phonetic":"しんとよはし","prefecture":23,"lon":137.383375,"lat":34.762272,"lines":[99520],"next":[1141301,9952101,9952002,9952102]},
{"code":9952101,"station":"駅前","phonetic":"えきまえ","prefecture":23,"lon":137.383132,"lat":34.763879,"lines":[99521],"next":[9952001,1141301,1141302,9952102,9952104]},
{"code":1141302,"station":"船町","phonetic":"ふなまち","prefecture":23,"lon":137.374001,"lat":34.775809,"lines":[11413],"next":[1141301,9952006,9952105,9952009,1141305,9952104,9952011,9952101,1141303]},
{"code":1141303,"station":"下地","phonetic":"しもじ","prefecture":23,"lon":137.370612,"lat":34.780939,"lines":[11413],"next":[9952011,1141304,1141305,1141302,1150211]},
{"code":1141304,"station":"小坂井","phonetic":"こざかい","prefecture":23,"lon":137.363056,"lat":34.797544,"lines":[11413],"next":[3000102,1150211,1141303,3000203,1141305]},
{"code":1141305,"station":"牛久保","phonetic":"うしくぼ","prefecture":23,"lon":137.381671,"lat":34.808563,"lines":[11413],"next":[9952105,9952108,3000204,9952109,1141302,3000205,9952106,1141303,1141304,9952107,3000203]},
{"code":1141306,"station":"豊川(愛知)","phonetic":"とよかわ","prefecture":23,"lon":137.397157,"lat":34.822519,"lines":[11413],"next":[1141307,3000205,3000203,9952112,9952110,9952113,9952111]},
{"code":3000205,"station":"豊川稲荷","phonetic":"とよかわいなり","prefecture":23,"lon":137.396058,"lat":34.821755,"lines":[30002],"next":[1141306,9952110,1141305,3000203,9952109,3000204]},
{"code":1141307,"station":"三河一宮","phonetic":"みかわいちのみや","prefecture":23,"lon":137.414549,"lat":34.847911,"lines":[11413],"next":[1141309,1141306,3000203,1141308,3000202,9952113,3000106]},
{"code":1141308,"station":"長山","phonetic":"ながやま","prefecture":23,"lon":137.431458,"lat":34.864449,"lines":[11413],"next":[1141309,3000106,1141307,3000107,1141310,3000108]},
{"code":1141309,"station":"江島","phonetic":"えじま","prefecture":23,"lon":137.441518,"lat":34.868029,"lines":[11413],"next":[1141307,1141310,9952113,1141308,9950534,9950533,9950535]},
{"code":1141310,"station":"東上","phonetic":"とうじょう","prefecture":23,"lon":137.455236,"lat":34.876278,"lines":[11413],"next":[1141309,9950533,1141312,1141311,3000108,1141308]},
{"code":1141311,"station":"野田城","phonetic":"のだじょう","prefecture":23,"lon":137.477861,"lat":34.889282,"lines":[11413],"next":[1141310,9950532,1141312,9950533]},
{"code":1141312,"station":"新城","phonetic":"しんしろ","prefecture":23,"lon":137.493040,"lat":34.901112,"lines":[11413],"next":[1141313,9952410,1141310,3000108,3000522,1141311,9950532]},
{"code":1150208,"station":"新所原","phonetic":"しんじょはら","prefecture":22,"lon":137.484399,"lat":34.723205,"lines":[11502,99505],"next":[9950536,1150206,1150209,9952010,1150207,9950535,9952113]},
{"code":1150209,"station":"二川","phonetic":"ふたがわ","prefecture":23,"lon":137.438966,"lat":34.725809,"lines":[11502],"next":[9952010,9952114,9952008,1150208,9952113,9952007,9952006,9952005]},
{"code":1150211,"station":"西小坂井","phonetic":"にしこざかい","prefecture":23,"lon":137.352499,"lat":34.797080,"lines":[11502],"next":[9952011,1141304,3000103,1150212,3000102,1141303]},
{"code":1150212,"station":"愛知御津","phonetic":"あいちみと","prefecture":23,"lon":137.316492,"lat":34.812624,"lines":[11502],"next":[3000105,9952011,1150211,3000103,3000104,1150213]},
{"code":1150213,"station":"三河大塚","phonetic":"みかわおおつか","prefecture":23,"lon":137.282870,"lat":34.815744,"lines":[11502],"next":[3000107,9952015,1150214,3000106,9952016,3000105,9952011,9952012,1150212]},
{"code":1150214,"station":"三河三谷","phonetic":"みかわみや","prefecture":23,"lon":137.247795,"lat":34.818546,"lines":[11502],"next":[3000407,9952016,1150213,1150215,3000107,3000108,3000406]},
{"code":1150215,"station":"蒲郡","phonetic":"がまごおり","prefecture":23,"lon":137.226459,"lat":34.823078,"lines":[11502,30004],"next":[1150214,3000108,3000407,3000408,3000109,3000409]},
{"code":1150216,"station":"三河塩津","phonetic":"みかわしおつ","prefecture":23,"lon":137.201261,"lat":34.825295,"lines":[11502],"next":[3000409,3000408,1150217]},
{"code":3000409,"station":"蒲郡競艇場前","phonetic":"がまごおりきょうていじょうまえ","prefecture":23,"lon":137.202014,"lat":34.825545,"lines":[30004],"next":[3000110,1150217,1150216,3000109,3000408,1150215,1150218]},
{"code":1150217,"station":"三ヶ根","phonetic":"さんがね","prefecture":23,"lon":137.176348,"lat":34.836449,"lines":[11502],"next":[3000409,3000404,3000408,1150218,3000405,3000403,1150216]},
{"code":1150218,"station":"幸田","phonetic":"こうだ","prefecture":23,"lon":137.164470,"lat":34.859926,"lines":[11502],"next":[1150242,3000313,1150217,3000403,3000110,3000409,3000309]},
{"code":1150242,"station":"相見","phonetic":"あいみ","prefecture":23,"lon":137.160331,"lat":34.887667,"lines":[11502],"next":[3000309,3000316,3000110,3000111,1150218,3000306,1150219]},
{"code":1150219,"station":"岡崎","phonetic":"おかざき","prefecture":23,"lon":137.157243,"lat":34.925417,"lines":[11502,99511],"next":[3000111,9951102,3000113,1150242,3000306,1150220,3000112]},
{"code":1150220,"station":"西岡崎","phonetic":"にしおかざき","prefecture":23,"lon":137.123187,"lat":34.946572,"lines":[11502],"next":[3000304,3000116,3000305,3000115,3000306,1150219,3000303,9951102]},
{"code":1150221,"station":"安城","phonetic":"あんじょう","prefecture":23,"lon":137.087160,"lat":34.959986,"lines":[11502],"next":[1150222,3000303,3000304,3000302,3000117]},
{"code":1150222,"station":"三河安城","phonetic":"みかわあんじょう","prefecture":23,"lon":137.060918,"lat":34.969680,"lines":[11502,50024],"next":[3000506,3000316,1150221,3000118,1150223,3000305,3000307,3000304,3000117]},
{"code":1150223,"station":"東刈谷","phonetic":"ひがしかりや","prefecture":23,"lon":137.043525,"lat":34.977410,"lines":[11502],"next":[3000118,3000506,3000508,3000507,1150240,3000513,1150222]},
{"code":1150240,"station":"野田新町","phonetic":"のだしんまち","prefecture":23,"lon":137.028078,"lat":34.983527,"lines":[11502],"next":[1150224,3000508,3000513,3000119,1150223,3000511]},
{"code":1150224,"station":"刈谷","phonetic":"かりや","prefecture":23,"lon":137.008878,"lat":34.991156,"lines":[11502,30005],"next":[3000509,3000508,3000120,1150240,1150225,3000511]},
{"code":3000102,"station":"伊奈","phonetic":"いな","prefecture":23,"lon":137.354743,"lat":34.802857,"lines":[30001],"next":[1141304,3000103,3000203,1150211]},
{"code":3000103,"station":"小田渕","phonetic":"おだぶち","prefecture":23,"lon":137.345590,"lat":34.814739,"lines":[30001],"next":[1150211,3000102,3000104,1150212,3000202,3000203]},
{"code":3000104,"station":"国府(愛知)","phonetic":"こう","prefecture":23,"lon":137.328101,"lat":34.837520,"lines":[30001,30002],"next":[3000202,3000103,1150212,3000105]},
{"code":3000105,"station":"御油","phonetic":"ごゆ","prefecture":23,"lon":137.321443,"lat":34.846113,"lines":[30001],"next":[1150212,3000202,1150213,3000106,3000104]},
{"code":3000106,"station":"名電赤坂","phonetic":"めいでんあかさか","prefecture":23,"lon":137.311152,"lat":34.859331,"lines":[30001],"next":[3000107,1150213,1141308,3000105,3000202,1141307]},
{"code":3000107,"station":"名電長沢","phonetic":"めいでんながさわ","prefecture":23,"lon":137.288298,"lat":34.871623,"lines":[30001],"next":[1150213,3000106,1150214,1141308,3000108]},
{"code":3000108,"station":"本宿(愛知)","phonetic":"もとじゅく","prefecture":23,"lon":137.260014,"lat":34.893025,"lines":[30001],"next":[1150215,1141312,3000109,1141310,3000521,3000107,1150214,1141308,3000522]},
{"code":3000109,"station":"名電山中","phonetic":"めいでんやまなか","prefecture":23,"lon":137.242829,"lat":34.899474,"lines":[30001],"next":[3000521,3000409,3000110,3000108,1150215]},
{"code":3000110,"station":"藤川","phonetic":"ふじかわ","prefecture":23,"lon":137.218428,"lat":34.913304,"lines":[30001],"next":[3000409,1150242,9951105,3000109,3000111,1150218,3000521,3000112]},
{"code":3000111,"station":"美合","phonetic":"みあい","prefecture":23,"lon":137.196317,"lat":34.923763,"lines":[30001],"next":[1150219,1150242,3000112,3000110]},
{"code":3000112,"station":"男川","phonetic":"おとがわ","prefecture":23,"lon":137.183296,"lat":34.937461,"lines":[30001],"next":[9951105,3000111,9951104,3000113,3000110,1150219]},
{"code":3000113,"station":"東岡崎","phonetic":"ひがしおかざき","prefecture":23,"lon":137.167333,"lat":34.951904,"lines":[30001],"next":[9951103,1150219,9951102,3000114,3000112,9951104]},
{"code":3000114,"station":"岡崎公園前","phonetic":"おかざきこうえんまえ","prefecture":23,"lon":137.153309,"lat":34.954984,"lines":[30001],"next":[3000115,3000113,9951102,9951103]},
{"code":9951103,"station":"中岡崎","phonetic":"なかおかざき","prefecture":23,"lon":137.152723,"lat":34.956231,"lines":[99511],"next":[3000115,3000113,9951104,3000114]},
{"code":3000115,"station":"矢作橋","phonetic":"やはぎばし","prefecture":23,"lon":137.139957,"lat":34.961149,"lines":[30001],"next":[9951103,9951104,3000114,3000116,1150220,9951106,9951102,9951105]},
{"code":3000116,"station":"宇頭","phonetic":"うとう","prefecture":23,"lon":137.118103,"lat":34.971367,"lines":[30001],"next":[1150220,3000115,3000303,9951106,3000302,9951107,3000117]},
{"code":3000117,"station":"新安城","phonetic":"しんあんじょう","prefecture":23,"lon":137.085443,"lat":34.986885,"lines":[30001,30003],"next":[3000118,3000302,9951107,3000515,3000514,3000116,1150221,1150222]},
{"code":3000118,"station":"牛田(愛知)","phonetic":"うしだ","prefecture":23,"lon":137.060946,"lat":34.999294,"lines":[30001],"next":[3000117,1150223,3000513,1150222,3000514]},
{"code":9950536,"station":"アスモ前","phonetic":"あすもまえ","prefecture":22,"lon":137.494050,"lat":34.727685,"lines":[99505],"next":[1150208,9950538,9950535,1150207]},
{"code":3000202,"station":"八幡(愛知)","phonetic":"やわた","prefecture":23,"lon":137.352113,"lat":34.829160,"lines":[30002],"next":[3000104,3000203,3000105,1141307,3000106,3000103]},
{"code":3000203,"station":"諏訪町","phonetic":"すわちょう","prefecture":23,"lon":137.370479,"lat":34.823464,"lines":[30002],"next":[3000202,1141307,1141306,3000204,1141304,3000205,3000102,3000103,1141305]},
{"code":3000204,"station":"稲荷口","phonetic":"いなりぐち","prefecture":23,"lon":137.387703,"lat":34.818435,"lines":[30002],"next":[3000203,1141305,3000205]},
{"code":3000302,"station":"北安城","phonetic":"きたあんじょう","prefecture":23,"lon":137.092146,"lat":34.964677,"lines":[30003],"next":[3000117,3000303,3000116,1150221]},
{"code":3000303,"station":"南安城","phonetic":"みなみあんじょう","prefecture":23,"lon":137.092457,"lat":34.951976,"lines":[30003],"next":[3000302,1150221,3000116,1150220,3000304]},
{"code":3000304,"station":"碧海古井","phonetic":"へきかいふるい","prefecture":23,"lon":137.090863,"lat":34.937230,"lines":[30003],"next":[1150220,3000305,1150221,3000303,1150222]},
{"code":3000305,"station":"堀内公園","phonetic":"ほりうちこうえん","prefecture":23,"lon":137.089636,"lat":34.927834,"lines":[30003],"next":[1150220,3000304,3000316,1150222,3000306]},
{"code":3000306,"station":"桜井(愛知)","phonetic":"さくらい","prefecture":23,"lon":137.088345,"lat":34.917477,"lines":[30003],"next":[1150242,1150219,1150220,3000316,3000305]},
{"code":3000316,"station":"南桜井(愛知)","phonetic":"みなみさくらい","prefecture":23,"lon":137.077210,"lat":34.906302,"lines":[30003],"next":[1150242,3000309,3000308,1150222,3000307,3000305,3000306]},
{"code":3000307,"station":"米津","phonetic":"よねづ","prefecture":23,"lon":137.060993,"lat":34.892822,"lines":[30003],"next":[3000502,3000503,3000506,3000504,3000316,3000505,3000308,1150222]},
{"code":3000308,"station":"桜町前","phonetic":"さくらまちまえ","prefecture":23,"lon":137.062444,"lat":34.880107,"lines":[30003],"next":[3000310,3000316,3000309,3000502,3000307]},
{"code":3000309,"station":"西尾口","phonetic":"にしおぐち","prefecture":23,"lon":137.062661,"lat":34.870647,"lines":[30003],"next":[1150242,3000316,3000308,3000313,3000310,1150218]},
{"code":3000310,"station":"西尾","phonetic":"にしお","prefecture":23,"lon":137.057789,"lat":34.863917,"lines":[30003],"next":[3000311,3000308,3000313,3000501,3000309,3000502]},
{"code":3000311,"station":"福地","phonetic":"ふくち","prefecture":23,"lon":137.048579,"lat":34.844663,"lines":[30003],"next":[3000310,3000920,3000501,3000313,3000315]},
{"code":3000313,"station":"上横須賀","phonetic":"かみよこすか","prefecture":23,"lon":137.071883,"lat":34.829941,"lines":[30003],"next":[3000403,1150218,3000310,3000402,3000309,3000315,3000311]},
{"code":3000315,"station":"吉良吉田","phonetic":"きらよしだ","prefecture":23,"lon":137.071017,"lat":34.794043,"lines":[30003,30004],"next":[3000920,3000921,3000402,9952016,3101502,1151211,3000313,3001006,3000311]},
{"code":3000402,"station":"三河鳥羽","phonetic":"みかわとば","prefecture":23,"lon":137.104984,"lat":34.793214,"lines":[30004],"next":[3000315,3000313,3000403,9952016]},
{"code":3000403,"station":"西幡豆","phonetic":"にしはず","prefecture":23,"lon":137.121271,"lat":34.792431,"lines":[30004],"next":[3000313,1150218,9952016,3000402,3000404,1150217]},
{"code":3000404,"station":"東幡豆","phonetic":"ひがしはず","prefecture":23,"lon":137.145645,"lat":34.789693,"lines":[30004],"next":[1150217,9952016,3000405,3000403]},
{"code":3000405,"station":"こどもの国(愛知)","phonetic":"こどものくに","prefecture":23,"lon":137.162721,"lat":34.788791,"lines":[30004],"next":[3000406,3000408,3000404,9952016,3000407,1150217]},
{"code":3000406,"station":"西浦","phonetic":"にしうら","prefecture":23,"lon":137.178617,"lat":34.790030,"lines":[30004],"next":[9952016,3000405,3000407,1150214]},
{"code":3000407,"station":"形原","phonetic":"かたはら","prefecture":23,"lon":137.184594,"lat":34.798607,"lines":[30004],"next":[1150214,1150215,3000408,3000406,3000405]},
{"code":3000408,"station":"三河鹿島","phonetic":"みかわかしま","prefecture":23,"lon":137.189687,"lat":34.813313,"lines":[30004],"next":[1150215,3000409,3000407,1150217,1150216,3000405]},
{"code":3000511,"station":"重原","phonetic":"しげはら","prefecture":23,"lon":137.023727,"lat":34.994824,"lines":[30005],"next":[3000119,3000120,1150224,1150240]},
{"code":9951102,"station":"六名","phonetic":"むつな","prefecture":23,"lon":137.152004,"lat":34.941132,"lines":[99511],"next":[1150219,3000113,3000114,1150220,3000115]},
{"code":9951104,"station":"北岡崎","phonetic":"きたおかざき","prefecture":23,"lon":137.157736,"lat":34.972301,"lines":[99511],"next":[3000115,9951103,3000112,3000113,9951105]},
{"code":9951105,"station":"大門(愛知)","phonetic":"だいもん","prefecture":23,"lon":137.154883,"lat":34.982411,"lines":[99511],"next":[3000112,3000521,3000110,9951108,9951104,9951110,9951106,3000115,9951109]},
{"code":9951106,"station":"北野桝塚","phonetic":"きたのますづか","prefecture":23,"lon":137.139457,"lat":34.996289,"lines":[99511],"next":[3000116,9951107,9951108,9951105,3000115]},
{"code":9952002,"station":"柳生橋","phonetic":"やぎゅうばし","prefecture":23,"lon":137.388470,"lat":34.754790,"lines":[99520],"next":[9952103,9952108,9952001,9952102,9952003,9952107,1141301]},
{"code":9952003,"station":"小池","phonetic":"こいけ","prefecture":23,"lon":137.388076,"lat":34.748891,"lines":[99520],"next":[9952109,9952108,9952002,9952004,1141301,9952114]},
{"code":9952004,"station":"愛知大学前","phonetic":"あいちだいがくまえ","prefecture":23,"lon":137.385754,"lat":34.741682,"lines":[99520],"next":[1141301,9952006,9952114,9952003,9952005]},
{"code":9952005,"station":"南栄","phonetic":"みなみさかえ","prefecture":23,"lon":137.385446,"lat":34.735920,"lines":[99520],"next":[9952006,9952004,1150209,9952114]},
{"code":9952006,"station":"高師","phonetic":"たかし","prefecture":23,"lon":137.381674,"lat":34.727068,"lines":[99520],"next":[9952004,1141301,1141302,9952005,9952008,1150209,9952009,9952007]},
{"code":9952007,"station":"芦原","phonetic":"あしはら","prefecture":23,"lon":137.380122,"lat":34.718433,"lines":[99520],"next":[9952008,1150209,9952006]},
{"code":9952008,"station":"植田(豊橋鉄道)","phonetic":"うえた","prefecture":23,"lon":137.373047,"lat":34.711085,"lines":[99520],"next":[9952009,1150209,9952010,9952007,9952006]},
{"code":9952009,"station":"向ヶ丘","phonetic":"むこうがおか","prefecture":23,"lon":137.367556,"lat":34.706351,"lines":[99520],"next":[9952010,9952008,1141302,9952011,9952006]},
{"code":9952010,"station":"大清水","phonetic":"おおしみず","prefecture":23,"lon":137.358863,"lat":34.695966,"lines":[99520],"next":[1150209,9952012,9952013,9952009,9952008,1150206,1150208,9952011]},
{"code":9952011,"station":"老津","phonetic":"おいつ","prefecture":23,"lon":137.335360,"lat":34.692344,"lines":[99520],"next":[1150211,1150212,1141303,9952012,1150213,1141302,9952010,9952009]},
{"code":9952012,"station":"杉山","phonetic":"すぎやま","prefecture":23,"lon":137.320759,"lat":34.680301,"lines":[99520],"next":[9952010,9952011,1150213,9952013,9952015]},
{"code":9952013,"station":"やぐま台","phonetic":"やぐまだい","prefecture":23,"lon":137.309427,"lat":34.673809,"lines":[99520],"next":[9952010,9952015,1150206,9952014,9952012]},
{"code":9952014,"station":"豊島","phonetic":"としま","prefecture":23,"lon":137.293737,"lat":34.667459,"lines":[99520],"next":[3101515,1150206,9952015,9952013,1150204,9952016]},
{"code":9952015,"station":"神戸(愛知)","phonetic":"かんべ","prefecture":23,"lon":137.278044,"lat":34.668253,"lines":[99520],"next":[1150213,9952013,9952016,9952014,9952012]},
{"code":9952016,"station":"三河田原","phonetic":"みかわたはら","prefecture":23,"lon":137.269172,"lat":34.666875,"lines":[99520],"next":[3101502,1150214,9952015,3000406,3000315,1150213,3101505,3101515,3000403,3000404,3000405,3000402,9952014]},
{"code":9952102,"station":"駅前大通","phonetic":"えきまえおおどおり","prefecture":23,"lon":137.385707,"lat":34.763209,"lines":[99521],"next":[9952103,9952104,9952002,9952001,9952101]},
{"code":9952103,"station":"新川(愛知)","phonetic":"しんかわ","prefecture":23,"lon":137.389483,"lat":34.762857,"lines":[99521],"next":[9952102,9952002,9952106,9952104,9952107]},
{"code":9952104,"station":"札木","phonetic":"ふだぎ","prefecture":23,"lon":137.390299,"lat":34.765959,"lines":[99521],"next":[9952105,9952106,9952102,1141302,9952103,9952101]},
{"code":9952105,"station":"市役所前(愛知)","phonetic":"しやくしょまえ","prefecture":23,"lon":137.392488,"lat":34.767369,"lines":[99521],"next":[1141305,9952104,1141302,9952106]},
{"code":9952106,"station":"豊橋公園前","phonetic":"とよはしこうえんまえ","prefecture":23,"lon":137.395406,"lat":34.766841,"lines":[99521],"next":[9952104,1141305,9952103,9952107,9952105]},
{"code":9952107,"station":"東八町","phonetic":"ひがしはっちょう","prefecture":23,"lon":137.400341,"lat":34.765924,"lines":[99521],"next":[9952108,1141305,9952002,9952106,9952103]},
{"code":9952108,"station":"前畑","phonetic":"まえはた","prefecture":23,"lon":137.404718,"lat":34.765818,"lines":[99521],"next":[9952002,1141305,9952003,9952107,9952109]},
{"code":9952109,"station":"東田坂上","phonetic":"あずまださかうえ","prefecture":23,"lon":137.408495,"lat":34.765783,"lines":[99521],"next":[9952114,9952110,9952003,1141305,3000205,9952108]},
{"code":9952110,"station":"東田","phonetic":"あずまだ","prefecture":23,"lon":137.413151,"lat":34.765360,"lines":[99521],"next":[9952111,3000205,9952109,9952114,1141306]},
{"code":9952111,"station":"競輪場前(愛知)","phonetic":"けいりんじょうまえ","prefecture":23,"lon":137.416778,"lat":34.765078,"lines":[99521],"next":[9952110,9952112,1141306,9952114]},
{"code":9952112,"station":"井原(愛知)","phonetic":"いはら","prefecture":23,"lon":137.421885,"lat":34.764232,"lines":[99521,50038],"next":[9952114,9952113,1141306,9952111]},
{"code":9952113,"station":"赤岩口","phonetic":"あかいわぐち","prefecture":23,"lon":137.429931,"lat":34.763403,"lines":[99521],"next":[1141309,9952112,1150209,1141306,1141307,1150208,9950535,9952114]},
{"code":9952114,"station":"運動公園前(愛知)","phonetic":"うんどうこうえんまえ","prefecture":23,"lon":137.422314,"lat":34.758450,"lines":[99521,50038],"next":[1150209,9952109,9952112,9952110,9952004,9952003,9952111,9952113,9952005]}
],
"voronoi":{
"points":[
137.000000,34.939074,137.028592,34.940481,137.418741,34.761092,137.425680,34.761607,137.293483,34.747395,137.310869,34.750122,137.209730,34.869516,137.283685,35.000000,137.044650,34.812639,137.057724,34.833333,137.066837,34.847759,137.017219,34.595517,137.055716,34.566947,137.347454,34.735219,137.365390,34.725538,137.384409,34.839684,137.388824,34.833333,137.414409,34.796529,137.358303,34.785359,137.377631,34.794155,137.124106,34.910062,137.124832,34.903764,137.443387,34.809506,137.461700,34.812839,137.378092,34.817529,137.397649,34.805579,137.414095,34.929163,137.448198,34.833333,137.449828,34.828754,137.301332,34.831976,137.310350,34.830642,137.254056,34.855761,137.333333,34.960530,137.363199,35.000000,137.093396,34.958353,137.107527,34.958699,137.387223,34.759044,137.387775,34.764965,137.324861,34.747832,137.325619,34.747531,137.343705,34.803820,137.359206,34.815761,137.462338,34.500000,137.462509,34.521192,137.357731,34.798372,137.287883,34.843460,137.296893,34.837614,137.384065,34.774052,137.385309,34.776110,137.472299,34.761906,137.500000,34.702232,137.025584,34.893450,137.031034,34.921747,137.025822,34.882368,137.078406,34.888369,137.267592,34.845431,137.062183,34.562310,137.089732,34.500000,137.135823,34.830689,137.141050,34.833333,137.166667,34.846294,137.203624,34.864992,137.169636,34.802659,137.231708,34.759404,137.083152,34.594985,137.104980,34.623352,137.024648,34.952303,137.027370,34.942619,137.167924,34.936514,137.212233,34.985486,137.164661,34.813745,137.166667,34.813051,137.213771,34.796737,137.377528,34.752558,137.379713,34.754303,137.409498,34.750985,137.413614,34.796288,137.425190,34.800023,137.429842,34.801996,137.000000,34.544850,137.412595,34.732924,137.436426,34.745081,137.261953,34.742604,137.273747,34.666667,137.282861,34.607988,137.229181,34.997920,137.137579,34.978689,137.144303,34.973968,137.410182,34.720150,137.471462,34.762676,137.137652,34.828400,137.369208,34.911182,137.445349,34.833333,137.176499,34.917963,137.072707,35.000000,137.075044,34.996741,137.227151,34.773847,137.239681,34.740060,137.396475,34.758857,137.396761,34.757846,137.280299,34.742004,137.282640,34.733702,137.417465,34.797384,137.000000,34.822710,137.004956,34.833333,137.021750,34.869326,137.126150,34.960098,137.138073,34.946381,137.376755,34.768458,137.021951,34.870765,137.287759,34.704788,137.321044,34.666667,137.333333,34.645216,137.416526,34.500000,137.480779,34.813048,137.500000,34.794453,137.482476,34.815448,137.496345,34.830938,137.452637,34.566688,137.193943,34.890143,137.198763,34.879222,137.187202,34.827294,137.207536,34.807652,137.189906,34.833333,137.195134,34.845009,137.176076,34.907956,137.384364,34.839010,137.386620,34.833333,137.406873,34.794566,137.407428,34.794914,137.066704,34.944978,137.076997,34.972842,137.000000,34.891091,137.025334,34.888795,137.281789,34.742421,137.053915,34.934097,137.057808,34.936768,137.420841,34.652034,137.031780,34.923606,137.178048,34.694742,137.406437,34.747484,137.407170,34.746598,137.208054,34.869830,137.049458,34.875077,137.099932,34.876234,137.000000,34.597702,137.134321,34.926506,137.166251,34.937151,137.114930,34.879852,137.471721,34.833333,137.112929,34.870931,137.477567,34.811082,137.337871,34.826916,137.358578,34.817550,137.149211,34.966143,137.162387,34.962033,137.463231,34.751523,137.406556,34.666667,137.412106,34.660228,137.331726,34.744704,137.333333,34.741008,137.343488,34.717667,137.409573,34.737988,137.363660,34.739974,137.147796,34.668327,137.155628,34.816596,137.049726,34.990349,137.057086,34.984491,137.333333,34.744555,137.333821,34.744509,137.142456,34.949019,137.159007,34.947460,137.006727,34.975282,137.012547,34.972416,137.079778,34.853127,137.084484,35.000000,137.333333,34.927964,137.365917,34.988545,137.115188,34.835691,137.119382,34.841212,137.285429,34.500000,137.164332,34.814108,137.166667,34.815454,137.333333,34.757339,137.393354,34.763497,137.491724,34.748267,137.500000,34.735597,137.239787,34.833333,137.244871,34.857268,137.367139,34.892450,137.386166,34.758697,137.393325,34.763666,137.398253,34.790900,137.084902,34.666667,137.088439,34.811582,137.363474,34.833333,137.374356,34.868421,137.102090,34.979794,137.110384,34.997250,137.017997,34.986131,137.035853,34.931227,137.042776,34.931233,137.113080,34.860672,137.384340,34.763240,137.385694,34.768440,137.014571,35.000000,137.391217,34.789053,137.039974,34.991004,137.415117,34.677658,137.417572,34.666667,137.143414,34.951095,137.161692,34.959684,137.371877,34.750130,137.069540,34.925080,137.232105,34.970820,137.252169,35.000000,137.285830,34.666667,137.382946,34.763029,137.115068,34.995577,137.134824,34.978650,137.166667,34.936992,137.409794,34.737508,137.113696,34.866530,137.402195,34.752052,137.403176,34.792572,137.025774,34.881886,137.068833,34.984480,137.000000,34.991200,137.116089,34.636437,137.106714,34.942976,137.109111,34.956605,137.079608,34.973008,137.414359,34.757432,137.389190,34.789527,137.384763,34.849661,137.408600,34.833333,137.212092,34.803061,137.075280,34.946374,137.032043,35.000000,137.036787,34.993368,137.365683,34.810815,137.339720,34.745438,137.344297,34.745380,137.402701,34.792364,137.000000,34.899338,137.131692,34.833333,137.146145,34.666667,137.112573,34.833333,137.110497,34.929888,137.410124,34.717498,137.480898,34.813190,137.116448,34.919233,137.333333,34.679928,137.344272,34.666667,137.352974,34.656117,137.034506,34.933685,137.166667,34.980279,137.156751,35.000000,137.037747,34.992879,137.040499,35.000000,137.107063,34.666667,137.115075,34.833333,137.000000,34.952376,137.259397,34.742839,137.330491,34.821251,137.458367,34.666667,137.485390,35.000000,137.500000,34.974759,137.166667,34.809277,137.333333,34.752627,137.332088,34.799275,137.333333,34.799763,137.368195,34.810095,137.449083,35.000000,137.500000,34.899647,137.349813,34.861219,137.366889,34.892110,137.500000,34.630772,137.300263,34.833333,137.500000,34.806005,137.266626,34.833333,137.000000,34.642946,137.007285,34.634816,137.232472,35.000000,137.351348,34.666667,137.000000,34.792847,137.166667,34.684804,137.403771,35.000000,137.500000,34.876529,137.340105,34.833333,137.333333,34.865985,137.366491,35.000000,137.000000,34.705771,137.004015,34.666667,137.218320,34.864774,137.000000,34.995436,137.001757,35.000000,137.382707,34.833333,137.238025,34.860551,137.417155,34.500000,137.000000,34.925538,137.000000,34.915579,137.166667,34.907187,137.499661,34.833333,137.500000,34.833579,137.475109,35.000000,137.500000,34.931951,137.108903,35.000000,137.119484,34.666667,137.313823,34.833333,137.333333,34.848450,137.403006,34.750856,137.000000,34.877115,137.000000,34.974764,137.199010,34.833333,137.166667,34.874433,137.290356,35.000000,137.333333,34.823433,137.052632,35.000000,137.378856,35.000000,137.500000,34.747049,137.215147,34.833333,137.399175,35.000000,137.494969,34.833333,137.404415,34.666667,137.166667,34.964047,137.125691,35.000000,137.303188,34.666667,137.333333,34.592181,137.370640,34.500000
],
"groups":[
{"lon":137000,"lat":34500,"size":167,"index":[11,12,56,57,64,65,79,12,145,11,12,56,64,193,65,228,228,246,65,260,281,282,56,64,293,282,228,308,282,11]},
{"lon":137000,"lat":34666,"size":167,"index":[8,9,58,59,70,71,58,90,103,104,164,165,181,182,193,194,90,165,181,70,245,58,246,164,194,247,8,194,260,261,70,268,165,181,285,8,164,286,292,293,308,90]},
{"lon":137000,"lat":34833,"size":167,"index":[0,1,9,10,20,21,34,35,51,52,53,54,59,60,66,67,86,87,94,95,104,105,106,107,105,109,130,131,132,133,135,136,52,138,143,144,146,147,148,21,144,150,133,51,154,155,136,130,166,167,170,171,172,173,10,174,95,175,178,179,143,174,197,198,173,199,200,201,202,179,205,199,207,166,210,211,135,213,20,146,218,219,211,155,147,220,150,222,225,143,167,226,227,172,229,230,231,197,170,210,130,237,238,239,237,34,244,51,179,245,247,178,229,248,225,53,67,1,199,239,213,251,255,200,87,256,107,170,138,200,86,257,35,230,258,259,261,178,150,148,1,255,198,218,226,131,262,67,202,222,133,53,255,167,251,20,171,211,131,231,174,202,295,296,146,107,231,34,201,54,300,138,301,52,54,144,21,302,213,148,258,207,87,154,307,198,173,66,230,106,201,135,219,86,312,109,313,172,197,35,109,225,222,315,105,10,248,251,237,229,166,318,226,95,239,258,66,207,155,325,218,326,171,147,210,154,106,219,136,248]},
{"lon":137166,"lat":34500,"size":167,"index":[83,84,111,112,84,180,84,216,327,328]},
{"lon":137166,"lat":34666,"size":167,"index":[4,5,29,30,38,39,5,38,62,63,71,72,82,83,72,96,63,97,100,101,101,110,101,111,121,122,121,123,100,134,62,139,4,29,159,160,159,168,182,121,38,183,96,187,216,110,139,97,122,236,96,63,134,252,236,72,134,4,263,82,30,264,268,62,39,269,270,271,278,29,263,280,286,139,82,100,264,270,5,270,97,263,30,309,314,122,264,317,39,159,236,321,110,327]},
{"lon":137166,"lat":34833,"size":167,"index":[6,7,31,32,45,46,55,45,60,61,68,69,69,85,68,93,119,120,123,124,125,93,120,142,125,119,45,176,187,188,124,61,214,215,93,214,220,68,142,6,61,142,256,85,46,278,280,55,85,283,46,290,6,294,31,55,294,298,302,125,119,214,309,310,298,188,188,31,124,314,315,120,298,316,321,294,325,69]},
{"lon":137333,"lat":34500,"size":167,"index":[42,43,112,113,118,43,137,118,157,158,158,137,209,137,253,254,118,265,43,277,284,254,254,299,324,158,328,329]},
{"lon":137333,"lat":34666,"size":167,"index":[2,3,13,14,16,17,18,19,22,23,24,25,27,28,36,37,40,41,40,44,47,48,49,50,73,74,75,76,77,78,80,81,88,80,89,49,92,28,98,99,17,102,108,47,114,115,76,17,116,117,127,25,128,129,140,141,28,23,25,129,149,116,151,114,152,153,81,156,13,157,160,161,141,162,163,88,168,169,102,77,183,18,37,184,2,77,185,186,156,89,190,36,191,192,153,195,153,41,203,204,206,192,208,209,89,151,212,73,217,203,78,22,108,217,162,221,223,224,74,190,140,128,212,162,99,223,232,102,19,233,235,22,41,240,241,242,192,243,204,37,23,151,191,184,14,249,14,208,114,250,241,108,252,253,242,163,163,221,3,81,169,13,169,241,48,191,265,156,269,233,3,78,271,40,240,272,203,190,184,98,250,279,141,75,243,224,161,284,75,232,152,289,47,204,250,116,24,297,44,240,49,185,117,303,98,243,272,19,74,217,73,311,249,208,233,206,224,128,221,80,36,99,317,152,185,320,272,24,311,140,48,206,232,2,323,117,223,311,161,324,44,18,129,76,249,88,242,212]},
{"lon":137333,"lat":34833,"size":167,"index":[15,16,26,27,32,33,91,92,126,127,26,149,176,177,189,91,195,196,126,15,234,235,189,196,196,234,15,234,266,267,273,274,275,276,287,288,289,275,276,189,290,276,177,291,297,126,177,91,303,304,305,306,310,275,319,26,322,323]}
]
}
}