[{"code":1150910,"station":"大河原(京都)","phonetic":"おおかわら","prefecture":26,"lon":135.987635,"lat":34.771750,"lines":[11509],"next":[1150911,1150909,3300601,9960406],"voronoi":{"pivot":[135.954568,34.873320],"points":[0,0,-17438,-7512,45480,-191584,37907,152984]}},
{"code":1150911,"station":"笠置","phonetic":"かさぎ","prefecture":26,"lon":135.934289,"lat":34.759086,"lines":[11509],"next":[1150910,3300601,3100533,1150912,3100534,3300208,1161815,1163702,1163703,1150909],"voronoi":{"pivot":[135.971721,34.661318],"points":[0,0,-33639,-14114,-205,191,-28412,33768,-15935,158300,7622,16596,5549,5240,30429,4508,45480,-191584,277,-6623]}},
{"code":1150912,"station":"加茂(京都)","phonetic":"かも","prefecture":26,"lon":135.869609,"lat":34.752575,"lines":[11509,11607],"next":[1161816,1150911,3102019,1161815,1163702,1160702,1161817,1161818],"voronoi":{"pivot":[135.844691,34.768027],"points":[0,0,15199,36721,5841,7692,27800,27024,15935,-158300,-2766,1380,-47483,29315,-13678,36897]}},
{"code":3100103,"station":"大阪上本町","phonetic":"おおさかうえほんまち","prefecture":27,"lon":135.522189,"lat":34.665513,"lines":[31005,31001],"next":[9961914,1162316,9961916,1162318,9961915,1162317],"voronoi":{"pivot":[135.526332,34.663023],"points":[0,0,-5309,-4301,-3067,3541,2107,8243,4753,2665,1732,-2306]}},
{"code":1162317,"station":"鶴橋","phonetic":"つるはし","prefecture":27,"lon":135.530605,"lat":34.665282,"lines":[31005,11623,99622],"next":[1162316,1162318,9962210,3100103],"voronoi":{"pivot":[135.537206,34.667908],"points":[0,0,2479,-10158,-13353,5273,216,7842]}},
{"code":3100503,"station":"今里(近畿日本鉄道)","phonetic":"いまざと","prefecture":27,"lon":135.549917,"lat":34.664788,"lines":[31005],"next":[9962213,9962210,9962211,9962212,1162318],"voronoi":{"pivot":[135.550441,34.658030],"points":[0,0,3256,6326,-4579,5325,-8795,-12960,773,-2686]}},
{"code":3100504,"station":"布施","phonetic":"ふせ","prefecture":27,"lon":135.563516,"lat":34.664092,"lines":[31005,31020],"next":[9962112,3100505,1164103,9962213,1164102,9962212,9962211],"voronoi":{"pivot":[135.564655,34.673408],"points":[0,0,2703,-1629,716,-10018,-4603,-6481,-1287,991,-3488,9903,2409,5736]}},
{"code":3100505,"station":"俊徳道","phonetic":"しゅんとくみち","prefecture":27,"lon":135.571777,"lat":34.658224,"lines":[31005],"next":[1164104,1164105,3100504,1164103,3102002,9962213],"voronoi":{"pivot":[135.563471,34.655280],"points":[0,0,4603,6481,3224,-237,63,-15,1850,-8052,-9732,1798]}},
{"code":1164104,"station":"JR俊徳道","phonetic":"じぇいあーるしゅんとくみち","prefecture":27,"lon":135.572421,"lat":34.658372,"lines":[11641],"next":[3100506,3100505,1164105,3102003,3102002],"voronoi":{"pivot":[135.571361,34.661509],"points":[0,0,1850,-8052,501,-128,5854,3579,-2362,3851]}},
{"code":3100506,"station":"長瀬","phonetic":"ながせ","prefecture":27,"lon":135.577612,"lat":34.649880,"lines":[31005],"next":[1164104,3102004,1164108,3100507,3102003,1164105],"voronoi":{"pivot":[135.573712,34.653329],"points":[0,0,5854,3579,5688,-1573,4235,-3631,-14625,-9929,-615,563]}},
{"code":3100507,"station":"弥刀","phonetic":"みと","prefecture":27,"lon":135.583412,"lat":34.641337,"lines":[31005],"next":[3100508,1160715,1164108,1164106,3100506,3102004],"voronoi":{"pivot":[135.589490,34.651704],"points":[0,0,-14625,-9929,1470,-8018,1929,-1976,2958,91,16608,17573]}},
{"code":3100508,"station":"久宝寺口","phonetic":"きゅうほうじぐち","prefecture":27,"lon":135.590548,"lat":34.634593,"lines":[31005],"next":[3100507,1160714,3100509,3102004,3102005,1160715],"voronoi":{"pivot":[135.581221,34.631871],"points":[0,0,16608,17573,613,23,4069,-2535,-7601,-20597,-2081,-791]}},
{"code":3100509,"station":"近鉄八尾","phonetic":"きんてつやお","prefecture":27,"lon":135.603591,"lat":34.629780,"lines":[31005],"next":[1160714,3100508,3102005,3102006,3100510],"voronoi":{"pivot":[135.612642,34.645497],"points":[0,0,-10130,1436,-7601,-20597,15296,-7890,3206,26706]}},
{"code":3100510,"station":"河内山本","phonetic":"かわちやまもと","prefecture":27,"lon":135.619317,"lat":34.627892,"lines":[31005,31021],"next":[3102007,3102102,1160714,3100511,3102006,3100509],"voronoi":{"pivot":[135.621918,34.645388],"points":[0,0,9339,-2028,-951,-14682,-19440,-11610,-660,1377,3206,26706]}},
{"code":3100511,"station":"高安","phonetic":"たかやす","prefecture":27,"lon":135.624403,"lat":34.619376,"lines":[31005],"next":[3102103,1160714,1160713,3100510,3102102,3100512],"voronoi":{"pivot":[135.614348,34.612384],"points":[0,0,-3228,1419,-253,3266,19440,11610,2879,-6768,193,-5762]}},
{"code":3100512,"station":"恩智","phonetic":"おんぢ","prefecture":27,"lon":135.626308,"lat":34.609747,"lines":[31005],"next":[3102103,3100513,1160713,3102402,3100511],"voronoi":{"pivot":[135.641133,34.604153],"points":[0,0,239,-1667,-17878,-28,-9146,9926,19031,3765]}},
{"code":3100513,"station":"法善寺","phonetic":"ほうぜんじ","prefecture":27,"lon":135.626331,"lat":34.595176,"lines":[31005],"next":[1160712,3100514,3102402,3100512,1160713],"voronoi":{"pivot":[135.618851,34.592998],"points":[0,0,4997,-1718,22851,3297,-5327,7908,-17878,-28]}},
{"code":3100514,"station":"堅下","phonetic":"かたしも","prefecture":27,"lon":135.627331,"lat":34.588246,"lines":[31005],"next":[3102402,1160711,3101202,3100513,1160710,3100515,1160712],"voronoi":{"pivot":[135.623847,34.591280],"points":[0,0,22851,3297,2700,-2809,-462,-1155,-4165,-2808,-16693,-3602,-1638,580]}},
{"code":3100515,"station":"安堂","phonetic":"あんどう","prefecture":27,"lon":135.629064,"lat":34.580213,"lines":[31005],"next":[3100315,3101202,1160711,3100514,3100516],"voronoi":{"pivot":[135.644772,34.587805],"points":[0,0,-16693,-3602,-3214,-10024,3593,-2622,2699,1327]}},
{"code":3100516,"station":"河内国分","phonetic":"かわちこくぶ","prefecture":27,"lon":135.635684,"lat":34.566754,"lines":[31005],"next":[3100517,3100317,3100515,3100315,1160711],"voronoi":{"pivot":[135.631156,34.572884],"points":[0,0,-2699,-1327,-1463,-14102,5085,-3313,12456,10342]}},
{"code":3100517,"station":"大阪教育大前","phonetic":"おおさかきょういくだいまえ","prefecture":27,"lon":135.645139,"lat":34.555366,"lines":[31005],"next":[3100516,3100317,3100518,1160710,3100318,1160711],"voronoi":{"pivot":[135.657002,34.561861],"points":[0,0,-1658,-22370,-19956,6689,-3309,7962,12456,10342,6838,2757]}},
{"code":3100518,"station":"関屋(奈良)","phonetic":"せきや","prefecture":29,"lon":135.667778,"lat":34.553688,"lines":[31005],"next":[1163603,3100318,3100519,3100517,3100319,1160710],"voronoi":{"pivot":[135.683199,34.564985],"points":[0,0,-6760,-19151,-13718,-17076,-7376,10733,1658,22370,25525,6058]}},
{"code":3100519,"station":"二上","phonetic":"にじょう","prefecture":29,"lon":135.688110,"lat":34.546511,"lines":[31005],"next":[3100520,1163603,1163604,3100518,3100320,3100319],"voronoi":{"pivot":[135.695118,34.540979],"points":[0,0,2745,8684,284,1487,-14949,13836,-6760,-19151,17962,-5156]}},
{"code":3100520,"station":"近鉄下田","phonetic":"きんてつしもだ","prefecture":29,"lon":135.704033,"lat":34.541478,"lines":[31005],"next":[1163605,3100519,1163604,3100521,3100320],"voronoi":{"pivot":[135.707280,34.530450],"points":[0,0,3007,6227,-12424,12986,-2745,-8684,11063,-11675]}},
{"code":3100521,"station":"五位堂","phonetic":"ごいどう","prefecture":29,"lon":135.717937,"lat":34.534763,"lines":[31005],"next":[1163604,1163603,3100522,3100520,3101705,3101704,1163605],"voronoi":{"pivot":[135.707280,34.530450],"points":[0,0,3007,6227,13591,19751,1875,1118,6526,-2853,4608,-4320,-10636,-18591]}},
{"code":3100522,"station":"築山","phonetic":"つきやま","prefecture":29,"lon":135.733036,"lat":34.526125,"lines":[31005],"next":[3100524,3100323,1163605,3100521,3100523,3101704],"voronoi":{"pivot":[135.736887,34.550372],"points":[0,0,-10636,-18591,-1361,-12886,6839,-4534,19191,27811,434,2234]}},
{"code":3100523,"station":"大和高田","phonetic":"やまとたかだ","prefecture":29,"lon":135.742264,"lat":34.519757,"lines":[31005],"next":[3100324,1163606,3100524,3100522,3100323],"voronoi":{"pivot":[135.737638,34.513503],"points":[0,0,14095,10161,-812,18508,-19191,-27811,426,-795]}},
{"code":3100524,"station":"松塚","phonetic":"まつづか","prefecture":29,"lon":135.761507,"lat":34.520601,"lines":[31005],"next":[1163606,3100522,3100523,3101704,3101703,3101701,1163713,3100525],"voronoi":{"pivot":[135.766531,34.544804],"points":[0,0,-7935,1098,-7241,-1496,-434,-2234,812,-18508,3283,-11542,11801,4192,2362,26264]}},
{"code":3100525,"station":"真菅","phonetic":"ますが","prefecture":29,"lon":135.772806,"lat":34.519585,"lines":[31005],"next":[3101701,3100215,3100212,3100214,1163713,3100213,3100524],"voronoi":{"pivot":[135.772908,34.540763],"points":[0,0,8057,-7847,2969,-11277,-2862,-8383,-3038,-5293,-11218,8352,2362,26264]}},
{"code":3100214,"station":"大和八木","phonetic":"やまとやぎ","prefecture":29,"lon":135.791484,"lat":34.513208,"lines":[31005,31002],"next":[3100527,1163712,3100213,3100525,3100215],"voronoi":{"pivot":[135.803398,34.516359],"points":[0,0,8,226,-19471,5054,-2862,-8383,12028,-2397]}},
{"code":3100527,"station":"耳成","phonetic":"みみなし","prefecture":29,"lon":135.815071,"lat":34.512409,"lines":[31005],"next":[1163708,3100528,3100213,3100216,3100214,1163711,1163712,3100212],"voronoi":{"pivot":[135.821779,34.533700],"points":[0,0,311,-10336,-5657,-33249,-9864,10449,-3172,15795,8,226,11056,17486,3575,2587]}},
{"code":3100528,"station":"大福","phonetic":"だいふく","prefecture":29,"lon":135.829756,"lat":34.512851,"lines":[31005],"next":[3100527,1163711,1163709,1163710,1163708],"voronoi":{"pivot":[135.821779,34.533700],"points":[0,0,311,-10336,17035,-37007,-1303,35303,-6747,8820]}},
{"code":1163710,"station":"桜井(奈良)","phonetic":"さくらい","prefecture":29,"lon":135.846516,"lat":34.513470,"lines":[31005,11637],"next":[1163711,3100714,3100530,3100528,3100703,1163709],"voronoi":{"pivot":[135.837822,34.521659],"points":[0,0,1303,-35303,2057,-15930,15970,-15909,7429,-52,-7333,64466]}},
{"code":3100530,"station":"大和朝倉","phonetic":"やまとあさくら","prefecture":29,"lon":135.868933,"lat":34.516020,"lines":[31005],"next":[3100714,1163708,1163710,3100531,1163709],"voronoi":{"pivot":[135.857248,34.518932],"points":[0,0,7333,-64466,45038,-8701,-31128,107453,-5528,-5313]}},
{"code":3100531,"station":"長谷寺","phonetic":"はせでら","prefecture":29,"lon":135.906453,"lat":34.526889,"lines":[31005],"next":[1163705,1163708,3100715,1163707,3100532,3100714,3100530,1163706],"voronoi":{"pivot":[135.924795,34.621902],"points":[0,0,11707,-188572,-500,212,-26382,12222,-31128,107453,1484,5324,10203,21350,13469,20315]}},
{"code":3100532,"station":"榛原","phonetic":"はいばら","prefecture":29,"lon":135.954747,"lat":34.529887,"lines":[31005],"next":[3100716,1151315,3100531,3100715,1151023,3100533,1163703,1163705,1163704],"voronoi":{"pivot":[135.930178,34.631307],"points":[0,0,-5383,-9404,11707,-188572,13773,-10504,136484,-90307,10096,7136,1139,19599,-164964,275554,-1883,-2137]}},
{"code":1160115,"station":"瀬田(滋賀)","phonetic":"せた","prefecture":25,"lon":135.925673,"lat":34.987223,"lines":[11601],"next":[3300607,3300601,3300605,1160114,3300602,1160116,9960406],"voronoi":{"pivot":[135.975443,34.909935],"points":[0,0,-55776,61608,-6145,10023,-3176,10991,463,13758,3926,17628,74446,-97081]}},
{"code":1160116,"station":"石山","phonetic":"いしやま","prefecture":25,"lon":135.900228,"lat":34.979870,"lines":[11601],"next":[3300604,3300602,3300603,3300605,1160115],"voronoi":{"pivot":[135.901266,34.976448],"points":[0,0,-2627,6560,6545,6148,5162,3401,3176,-10991]}},
{"code":3300603,"station":"京阪石山","phonetic":"けいはんいしやま","prefecture":25,"lon":135.899656,"lat":34.979641,"lines":[33006],"next":[3300602,1160116,3300604,3300601],"voronoi":{"pivot":[135.901266,34.976448],"points":[0,0,-2627,6560,-21826,-17167,9991,3044]}},
{"code":1160117,"station":"膳所","phonetic":"ぜぜ","prefecture":25,"lon":135.880539,"lat":34.999373,"lines":[11601],"next":[3300610,1160118,3300606,3300608,3300609,3300705],"voronoi":{"pivot":[135.869308,34.986773],"points":[0,0,2077,9107,6217,5733,5363,-3504,-4416,-12635,-7153,-9220]}},
{"code":3300609,"station":"京阪膳所","phonetic":"けいはんぜぜ","prefecture":25,"lon":135.880833,"lat":34.999823,"lines":[33006],"next":[3300608,3300610,1160117],"voronoi":{"pivot":[135.891453,35.016392],"points":[0,0,-13851,-14778,5363,-3504]}},
{"code":1160119,"station":"山科","phonetic":"やましな","prefecture":26,"lon":135.816647,"lat":34.992636,"lines":[11601,11605,99611],"next":[9961109,3300615,3300703,3300616,3300702,3300701],"voronoi":{"pivot":[135.819835,35.028467],"points":[0,0,1069,-1178,2578,-3329,-3038,-30457,-12431,-3914,7305,31129]}},
{"code":3300702,"station":"京阪山科","phonetic":"けいはんやましな","prefecture":26,"lon":135.816835,"lat":34.992039,"lines":[33007],"next":[9961106,1160119,3300701,3300703],"voronoi":{"pivot":[135.808014,34.989589],"points":[0,0,-660,-2436,12965,-296,126,6646]}},
{"code":1160120,"station":"京都","phonetic":"きょうと","prefecture":26,"lon":135.757748,"lat":34.985465,"lines":[11601,11605,11602,11614,11618,31025,99610,50024],"next":[9961012,3102502,9961010,1161416,3300104,1161802],"voronoi":{"pivot":[135.761906,34.989727],"points":[0,0,-10388,2059,-1055,-4640,5907,-5581,7529,2253,125,365]}},
{"code":3300601,"station":"石山寺","phonetic":"いしやまでら","prefecture":25,"lon":135.903470,"lat":34.967122,"lines":[33006],"next":[3300208,3300207,1150911,1160115,3300602,3300705,1150910,3300603,3300604,9960406,1161808,9961103],"voronoi":{"pivot":[135.865727,34.917623],"points":[0,0,15945,-22726,25030,-33598,30429,4508,17438,7512,20875,36616,-55776,61608,-32863,-2658,-9991,-3044,-8078,-3595,-9223,-16855,4281,-24215]}},
{"code":3300602,"station":"唐橋前","phonetic":"からはしまえ","prefecture":25,"lon":135.902970,"lat":34.973304,"lines":[33006],"next":[3300603,1160116,3300601,1160115],"voronoi":{"pivot":[135.886805,34.968885],"points":[0,0,14462,7563,12256,5118,6145,-10023]}},
{"code":3300604,"station":"粟津(滋賀)","phonetic":"あわづ","prefecture":25,"lon":135.895607,"lat":34.984789,"lines":[33006],"next":[1160116,3300603,3300705,3300601,3300606,3300605],"voronoi":{"pivot":[135.889408,34.985023],"points":[0,0,-18326,-12355,-2346,-10421,8078,3595,21826,17167,6545,6148]}},
{"code":3300605,"station":"瓦ヶ浜","phonetic":"かわらがはま","prefecture":25,"lon":135.894696,"lat":34.988266,"lines":[33006],"next":[3300606,3300607,1160115,1160116,3300604],"voronoi":{"pivot":[135.889408,34.985023],"points":[0,0,10512,12902,10890,8391,-463,-13758,-5162,-3401]}},
{"code":3300606,"station":"中ノ庄","phonetic":"なかのしょう","prefecture":25,"lon":135.891516,"lat":34.990857,"lines":[33006],"next":[3300605,3300607,3300705,1160117,3300608,3300604],"voronoi":{"pivot":[135.899920,34.997924],"points":[0,0,-16911,-8561,-4460,-3889,-7153,-9220,-314,-3587,18326,12355]}},
{"code":3300607,"station":"膳所本町","phonetic":"ぜぜほんまち","prefecture":25,"lon":135.889249,"lat":34.995335,"lines":[33006],"next":[3300608,3300606,1160504,1160115,3300605,1160114],"voronoi":{"pivot":[135.910810,35.006316],"points":[0,0,-10890,-8391,-16911,-8561,29599,47315,246,101,1882,-12836]}},
{"code":3300608,"station":"錦","phonetic":"にしき","prefecture":25,"lon":135.885649,"lat":34.997587,"lines":[33006],"next":[3300607,3300610,3300606,1160117,3300609,1160504],"voronoi":{"pivot":[135.903567,35.033444],"points":[0,0,-12115,-17053,-8488,-18282,-4416,-12635,4460,3889,29599,47315]}},
{"code":3300701,"station":"御陵","phonetic":"みささぎ","prefecture":26,"lon":135.801637,"lat":34.996158,"lines":[33007,99611],"next":[9961105,3300106,3300103,1161802,9961109,3300702,9961106,1160119,3300104],"voronoi":{"pivot":[135.790654,34.978108],"points":[0,0,1732,-2431,8494,4710,6474,6767,660,2436,7305,31129,-30251,-29057,8,-572,345,-1707]}},
{"code":3300703,"station":"四宮","phonetic":"しのみや","prefecture":26,"lon":135.823996,"lat":34.991903,"lines":[33007],"next":[9961106,1160119,3300704,3300615,3300614,3300702],"voronoi":{"pivot":[135.820318,34.986858],"points":[0,0,10031,-7371,1197,35374,-5090,6059,-2974,3041,-3038,-30457]}},
{"code":3300704,"station":"追分(滋賀)","phonetic":"おいわけ","prefecture":25,"lon":135.837528,"lat":34.991445,"lines":[33007],"next":[3300705,3300703,9961105,9961104,9961106,3300614],"voronoi":{"pivot":[135.852059,34.954243],"points":[0,0,-9594,7870,-9395,11447,-2720,5927,1197,35374,11999,-8003]}},
{"code":3300705,"station":"大谷(滋賀)","phonetic":"おおたに","prefecture":25,"lon":135.854116,"lat":34.994129,"lines":[33007],"next":[3300704,3300606,9961104,9961103,3300614,3300706,3300604,3300601,1160118,1160117],"voronoi":{"pivot":[135.869308,34.986773],"points":[0,0,-9681,11501,-15626,8558,-455,25,8513,-52615,5436,-6835,2018,-2016,9223,16855,2346,10421,314,3587]}},
{"code":1160202,"station":"西大路","phonetic":"にしおおじ","prefecture":26,"lon":135.731702,"lat":34.981077,"lines":[11602],"next":[3102503,3400304,1161416,1161402,3102504,1160216,3102502,3400306,3400305],"voronoi":{"pivot":[135.717623,34.978091],"points":[0,0,39,-711,13891,-18201,7664,10059,2735,7981,49,911,-8476,12618,-2112,1621,-1473,49]}},
{"code":1160216,"station":"桂川(京都)","phonetic":"かつらがわ","prefecture":26,"lon":135.710391,"lat":34.964814,"lines":[11602],"next":[1160202,3400306,1160203,3102504,3400307],"voronoi":{"pivot":[135.706008,34.971764],"points":[0,0,11653,5616,13891,-18201,4,-616,-24366,1434]}},
{"code":1160203,"station":"向日町","phonetic":"むこうまち","prefecture":26,"lon":135.709804,"lat":34.954838,"lines":[11602],"next":[3102506,3400307,3400309,1160216,3102505,3102504,3400308,3300113],"voronoi":{"pivot":[135.733675,34.938879],"points":[0,0,-569,13238,-1550,6447,-24366,1434,-888,-645,2437,-13187,23072,-11033,1768,3186]}},
{"code":1160204,"station":"長岡京","phonetic":"ながおかきょう","prefecture":26,"lon":135.700882,"lat":34.923483,"lines":[11602],"next":[3400328,3300114,3400309,3400310],"voronoi":{"pivot":[135.695534,34.917127],"points":[0,0,7825,-8977,22712,20909,-28244,3056]}},
{"code":1160205,"station":"山崎(京都)","phonetic":"やまざき","prefecture":26,"lon":135.679124,"lat":34.892257,"lines":[11602],"next":[1160215,3400311,3300116,3400312,3400328],"voronoi":{"pivot":[135.649421,34.918266],"points":[0,0,21926,-31602,3680,-2858,3401,1707,5233,17034]}},
{"code":3400311,"station":"大山崎","phonetic":"おおやまざき","prefecture":26,"lon":135.681637,"lat":34.891485,"lines":[34003],"next":[3300116,1160205,3400328,3300115],"voronoi":{"pivot":[135.683660,34.902548],"points":[0,0,-5233,-17034,12733,3524,3687,9887]}},
{"code":1160215,"station":"島本","phonetic":"しまもと","prefecture":27,"lon":135.663385,"lat":34.881337,"lines":[11602],"next":[1160205,1161409,3400328,3400310,3400314,3400313,1160206,3400312],"voronoi":{"pivot":[135.663210,34.876545],"points":[0,0,-33370,6288,-2381,3039,-28637,44062,22651,10688,246,-164,27701,-22191,21926,-31602]}},
{"code":1160206,"station":"高槻","phonetic":"たかつき","prefecture":27,"lon":135.617016,"lat":34.851200,"lines":[11602],"next":[3400314,3400315,1161409,9962705,1160215,1160207],"voronoi":{"pivot":[135.615326,34.827318],"points":[0,0,12134,58553,-28637,44062,-25462,-2340,-1150,-25218,40347,-70853]}},
{"code":1160207,"station":"摂津富田","phonetic":"せっつとんだ","prefecture":27,"lon":135.593360,"lat":34.837729,"lines":[11602],"next":[1160217,3400315,9962705,1160206],"voronoi":{"pivot":[135.572210,34.902376],"points":[0,0,-8174,-32408,17966,-30703,30555,-7742]}},
{"code":1160217,"station":"JR総持寺","phonetic":"じぇいあーるそうじじ","prefecture":27,"lon":135.577778,"lat":34.828611,"lines":[11602],"next":[9962704,3400317,1160208,3400315,1160207,9962705,3400316],"voronoi":{"pivot":[135.580222,34.821988],"points":[0,0,-12095,1956,-14737,17112,1112,9458,9535,19454,17966,-30703,1046,-2368]}},
{"code":1160208,"station":"茨木","phonetic":"いばらき","prefecture":27,"lon":135.562080,"lat":34.815091,"lines":[11602],"next":[9962608,3400317,1160217,9962704,9962703,3400318,9962702],"voronoi":{"pivot":[135.561356,34.808176],"points":[0,0,8158,1967,-1388,13800,-14737,17112,-5915,-10697,-140,-1324,1490,-7296]}},
{"code":1160209,"station":"千里丘","phonetic":"せんりおか","prefecture":27,"lon":135.551512,"lat":34.791502,"lines":[11602],"next":[3400327,9962702,9962607,1160210,9962608,9962610,3400318],"voronoi":{"pivot":[135.556592,34.799114],"points":[0,0,-11077,1943,-6046,-3922,-3951,-5536,9073,-6113,14409,6233,-901,5501]}},
{"code":1160210,"station":"岸辺","phonetic":"きしべ","prefecture":27,"lon":135.541613,"lat":34.776812,"lines":[11602],"next":[1160211,3400327,9962607,1160209,3400803,3400320,3400319,9965201],"voronoi":{"pivot":[135.546126,34.783550],"points":[0,0,-1534,1935,-9073,6113,-8538,-3253,-3173,-6683,9407,-12427,6119,-2517,1290,445]}},
{"code":1160211,"station":"吹田(JR)","phonetic":"すいた","prefecture":27,"lon":135.523642,"lat":34.763209,"lines":[11602],"next":[1160210,3400804,3400803,3400806,3400807,3400808,3400321,3400320,3400805],"voronoi":{"pivot":[135.523637,34.781576],"points":[0,0,170,87,9407,-12427,-7243,-14043,-1304,-1001,-93,21,-7850,13942,368,3903,1773,3991]}},
{"code":1160212,"station":"東淀川","phonetic":"ひがしよどがわ","prefecture":27,"lon":135.503915,"lat":34.739380,"lines":[11602],"next":[9961802,3400323,1164110,1160213,3400322],"voronoi":{"pivot":[135.510153,34.737549],"points":[0,0,-3185,-2397,-6532,2569,2998,9716,6931,-5052]}},
{"code":1160213,"station":"新大阪","phonetic":"しんおおさか","prefecture":27,"lon":135.501852,"lat":34.734136,"lines":[11602,11629,11641,99618,50024,50025],"next":[3400324,9961804,9961802,3400323,1160212],"voronoi":{"pivot":[135.500436,34.737721],"points":[0,0,-8117,-3938,10037,-4350,2261,-625,2351,6344]}},
{"code":1160702,"station":"木津(京都)","phonetic":"きづ","prefecture":26,"lon":135.824794,"lat":34.735962,"lines":[11607,11617,11618],"next":[3102019,1161702,1160703,1161818,1150912],"voronoi":{"pivot":[135.845538,34.748755],"points":[0,0,-31029,-7645,-1306,-15453,26044,-14835,19969,1036]}},
{"code":1160703,"station":"平城山","phonetic":"ならやま","prefecture":29,"lon":135.810252,"lat":34.710431,"lines":[11607,11618],"next":[3102018,3102019,3102525,3102524,1160702,1161702],"voronoi":{"pivot":[135.805943,34.723865],"points":[0,0,-9917,-13979,4222,-12156,19740,389,19260,12703,-26044,14835]}},
{"code":1160704,"station":"奈良","phonetic":"なら","prefecture":29,"lon":135.818935,"lat":34.680482,"lines":[11607,11618,11637],"next":[1163702,3102019,3102018,1160705],"voronoi":{"pivot":[135.825626,34.677018],"points":[0,0,-6135,13634,-15496,-25631,4280,-3793]}},
{"code":1160705,"station":"郡山(奈良)","phonetic":"こおりやま","prefecture":29,"lon":135.790441,"lat":34.648335,"lines":[11607],"next":[1163704,3102018,3100206,3100203,3100204,1163703,3100205,1163702,1160704],"voronoi":{"pivot":[135.803996,34.665022],"points":[0,0,-65,36,-1476,-479,-18085,-12200,4573,-19309,14409,-4996,2984,3926,3768,26027,-1828,3202]}},
{"code":1160706,"station":"大和小泉","phonetic":"やまとこいずみ","prefecture":29,"lon":135.763488,"lat":34.622226,"lines":[11607],"next":[3100207,3101608,3101605,3101606,3100205,1160707,3100206],"voronoi":{"pivot":[135.745190,34.653662],"points":[0,0,-1784,-2799,-8639,-17989,-172,-1437,26641,-31797,9700,12077,2584,21404]}},
{"code":1160707,"station":"法隆寺","phonetic":"ほうりゅうじ","prefecture":29,"lon":135.738604,"lat":34.601377,"lines":[11607],"next":[3101707,3101608,3101706,3101705,3101609,3100208,3101703,3101704,3100207,1160706],"voronoi":{"pivot":[135.734595,34.631437],"points":[0,0,-6299,-7730,-7330,-15702,7990,-11965,13382,-6257,10641,-676,7865,3198,441,409,298,4056,-347,2870]}},
{"code":1160708,"station":"王寺","phonetic":"おうじ","prefecture":29,"lon":135.704005,"lat":34.597448,"lines":[11607,11636,31016],"next":[3101707,3101611,3101610,1163602,1160709,3101708],"voronoi":{"pivot":[135.701113,34.601291],"points":[0,0,-807,-282,-3730,-9450,1861,-3583,10987,-76,1043,2057]}},
{"code":3101708,"station":"新王寺","phonetic":"しんおうじ","prefecture":29,"lon":135.704337,"lat":34.597722,"lines":[31017],"next":[3101610,1160708,3101707,3101609],"voronoi":{"pivot":[135.710466,34.589957],"points":[0,0,-9354,11334,15147,6072,3491,-39]}},
{"code":1160709,"station":"三郷(奈良)","phonetic":"さんごう","prefecture":29,"lon":135.687484,"lat":34.588867,"lines":[11607],"next":[3102402,1160708,1163602,1160710,1163603,3101611],"voronoi":{"pivot":[135.698436,34.587975],"points":[0,0,-10414,-16349,-5190,-2754,-16275,26859,7494,10175,22524,-14348]}},
{"code":1160710,"station":"河内堅上","phonetic":"かわちかたかみ","prefecture":27,"lon":135.662956,"lat":34.574005,"lines":[11607],"next":[1160711,3102402,1163603,3100514,1160709,3100518,3100517],"voronoi":{"pivot":[135.682527,34.567919],"points":[0,0,305,953,-16275,26859,-17159,-3963,-462,-1155,2437,-23372,5629,-5380]}},
{"code":1160711,"station":"高井田(JR)","phonetic":"たかいだ","prefecture":27,"lon":135.638645,"lat":34.571470,"lines":[11607],"next":[1160710,3100514,3100515,3100516,3100517],"voronoi":{"pivot":[135.644536,34.564484],"points":[0,0,-13379,8400,13615,14921,4165,2808,2437,-23372]}},
{"code":1160712,"station":"柏原(大阪)","phonetic":"かしわら","prefecture":27,"lon":135.623410,"lat":34.586681,"lines":[11607,31012],"next":[1160713,3100314,3100513,3101202,3100514],"voronoi":{"pivot":[135.615153,34.581395],"points":[0,0,-9017,4657,12714,6946,4997,-1718,2593,-6497]}},
{"code":1160713,"station":"志紀","phonetic":"しき","prefecture":27,"lon":135.615998,"lat":34.600248,"lines":[11607],"next":[3100314,1160712,9961926,1160714,3100511,3100313,3100512,3100513],"voronoi":{"pivot":[135.614348,34.612384],"points":[0,0,-3228,1419,-12026,-13329,894,-10648,4891,-3757,1258,-16,12714,6946,4643,9459]}},
{"code":1160714,"station":"八尾","phonetic":"やお","prefecture":27,"lon":135.597136,"lat":34.617265,"lines":[11607],"next":[3100508,1160715,3100509,3100511,1160713,3100510,9961926],"voronoi":{"pivot":[135.586490,34.609797],"points":[0,0,6339,15747,2081,791,15296,-7890,660,-1377,253,-3266,-12026,-13329]}},
{"code":1160715,"station":"久宝寺","phonetic":"きゅうほうじ","prefecture":27,"lon":135.583988,"lat":34.622558,"lines":[11607,11641],"next":[3100507,9961925,9961924,1160714,9961926,1164106,3100508],"voronoi":{"pivot":[135.586490,34.609797],"points":[0,0,-2516,153,-7575,3814,-2305,3095,4169,14921,2958,91,11608,-6327]}},
{"code":1160716,"station":"加美","phonetic":"かみ","prefecture":27,"lon":135.566939,"lat":34.626888,"lines":[11607],"next":[1164108,9961924,1160717,1164106,9961922],"voronoi":{"pivot":[135.557970,34.623805],"points":[0,0,2285,8857,7602,-59,-241,-14733,-7898,503]}},
{"code":1164106,"station":"新加美","phonetic":"しんかみ","prefecture":27,"lon":135.568588,"lat":34.626861,"lines":[11641],"next":[1160716,9961924,3100507,1164108,1160715],"voronoi":{"pivot":[135.574094,34.616859],"points":[0,0,-6478,1011,241,14733,8477,1153,1929,-1976]}},
{"code":1160717,"station":"平野(JR)","phonetic":"ひらの","prefecture":27,"lon":135.551612,"lat":34.630842,"lines":[11607],"next":[1164108,1160716,9961922,9962214,1160718],"voronoi":{"pivot":[135.558523,34.636228],"points":[0,0,1733,-3565,-2285,-8857,-16428,4585,4947,9471]}},
{"code":1160718,"station":"東部市場前","phonetic":"とうぶしじょうまえ","prefecture":27,"lon":135.537802,"lat":34.638056,"lines":[11607],"next":[9962213,3100304,9961922,1162318,3100302,3100303,1162319,9962214,1160717],"voronoi":{"pivot":[135.541542,34.628390],"points":[0,0,-185,-121,-5503,3096,-4996,7544,1527,6659,2545,3693,5766,2796,1669,-1920,4124,-12276]}},
{"code":1160719,"station":"天王寺","phonetic":"てんのうじ","prefecture":27,"lon":135.513219,"lat":34.647836,"lines":[11607,11623,11626,99618,99619],"next":[9962308,3100301,9961916,9961812,9962801,1162319],"voronoi":{"pivot":[135.514309,34.646800],"points":[0,0,-5553,986,378,3394,2099,2215,7038,-601,33,-2859]}},
{"code":3100301,"station":"大阪阿部野橋","phonetic":"おおさかあべのばし","prefecture":27,"lon":135.515056,"lat":34.645495,"lines":[31003],"next":[1162319,1160719,9961918,9961919,3100302,9962801],"voronoi":{"pivot":[135.518304,34.649935],"points":[0,0,1711,-5823,-1247,-2645,-2082,-654,-3289,3242,912,2745]}},
{"code":9962801,"station":"天王寺駅前","phonetic":"てんのうじえきまえ","prefecture":27,"lon":135.512929,"lat":34.646202,"lines":[99628],"next":[9961918,9961812,1160719,3100301],"voronoi":{"pivot":[135.508756,34.647785],"points":[0,0,-735,-2398,5376,-1333,912,2745]}},
{"code":1160720,"station":"新今宮","phonetic":"しんいまみや","prefecture":27,"lon":135.501076,"lat":34.650149,"lines":[11607,11623,32001,32007],"next":[1160721,3200704,9962903,3200702,9962902,9961811],"voronoi":{"pivot":[135.502934,34.652495],"points":[0,0,-1257,-4577,-1069,-304,-4746,2186,909,1838,2203,1218]}},
{"code":9961812,"station":"動物園前","phonetic":"どうぶつえんまえ","prefecture":27,"lon":135.504413,"lat":34.648815,"lines":[99618,99623],"next":[9961918,9962903,1160719,9962308,9962801,9962902],"voronoi":{"pivot":[135.502843,34.647615],"points":[0,0,4512,-3008,665,781,735,2398,378,3394,-3504,650]}},
{"code":9962902,"station":"新今宮駅前","phonetic":"しんいまみやえきまえ","prefecture":27,"lon":135.503333,"lat":34.649529,"lines":[99629],"next":[3200702,9962903,9962308,9961812,1160720],"voronoi":{"pivot":[135.503518,34.652682],"points":[0,0,2111,-853,-2786,-4215,-1167,303,1257,4577]}},
{"code":1161416,"station":"梅小路京都西","phonetic":"うめこうじきょうとにし","prefecture":26,"lon":135.743167,"lat":34.988778,"lines":[11614],"next":[3102502,1160202,9961010,1160120,1161402],"voronoi":{"pivot":[135.733524,34.990749],"points":[0,0,8476,-12618,8462,9015,1055,4640,-445,1134]}},
{"code":1161402,"station":"丹波口","phonetic":"たんばぐち","prefecture":26,"lon":135.742396,"lat":34.995010,"lines":[11614],"next":[1160202,9961010,1161416,3400304,9961201],"voronoi":{"pivot":[135.740404,35.002761],"points":[0,0,-8991,-10391,2112,-1621,17548,2171,-29,2038]}},
{"code":1161702,"station":"西木津","phonetic":"にしきづ","prefecture":26,"lon":135.803507,"lat":34.737762,"lines":[11617],"next":[3102524,1161818,1160702,3102523,1160703,3102522],"voronoi":{"pivot":[135.798620,34.741244],"points":[0,0,99,-11472,7223,-5907,7261,1792,1306,15453,-6053,8455]}},
{"code":1161703,"station":"祝園","phonetic":"ほうその","prefecture":26,"lon":135.792107,"lat":34.760170,"lines":[11617],"next":[3102520,1161704,3102522,3102523,3102308,3102521],"voronoi":{"pivot":[135.789206,34.752013],"points":[0,0,-15860,-4559,-4293,-322,-14462,17054,33320,5769,8808,1101]}},
{"code":3102521,"station":"新祝園","phonetic":"しんほうその","prefecture":26,"lon":135.792657,"lat":34.759953,"lines":[31025],"next":[3102522,1161817,3102520,1161818,1161703],"voronoi":{"pivot":[135.789206,34.752013],"points":[0,0,18192,4563,1301,3908,-7103,11306,-4877,-734]}},
{"code":1161704,"station":"下狛","phonetic":"しもこま","prefecture":26,"lon":135.788574,"lat":34.780579,"lines":[11617],"next":[1161712,1161703,3102519,3102520,3102308,1161706],"voronoi":{"pivot":[135.789694,34.786202],"points":[0,0,-1782,-16248,-33320,-5769,-15153,10133,163,712,19318,7824]}},
{"code":3102520,"station":"狛田","phonetic":"こまだ","prefecture":26,"lon":135.789568,"lat":34.780470,"lines":[31025],"next":[3102519,1161703,1161816,1161817,3102521,1161704],"voronoi":{"pivot":[135.800486,34.788341],"points":[0,0,3941,-3503,-2831,-13049,-4877,-734,-8808,-1101,1782,16248]}},
{"code":1161705,"station":"JR三山木","phonetic":"じぇいあーるみやまき","prefecture":26,"lon":135.784578,"lat":34.798334,"lines":[11617],"next":[3102518,3102519,1161706],"voronoi":{"pivot":[135.785522,34.794704],"points":[0,0,-22396,-9156,21650,18956]}},
{"code":3102518,"station":"三山木","phonetic":"みやまき","prefecture":26,"lon":135.785905,"lat":34.798435,"lines":[31025],"next":[1161705,1161816,1161706,3102517,3102519,1161815],"voronoi":{"pivot":[135.792989,34.811265],"points":[0,0,-6197,-4569,-2016,-2191,746,-9800,11116,2366,-901,11373]}},
{"code":1161706,"station":"同志社前","phonetic":"どうししゃまえ","prefecture":26,"lon":135.778633,"lat":34.805124,"lines":[11617],"next":[1161712,1161707,3102518,3102519,1161708,1161705,1161704,3102517],"voronoi":{"pivot":[135.763405,34.806733],"points":[0,0,-20654,-12877,-3825,-4287,676,-14538,19318,7824,4206,2694,21650,18956,2016,2191]}},
{"code":1161707,"station":"京田辺","phonetic":"きょうたなべ","prefecture":26,"lon":135.768664,"lat":34.821114,"lines":[11617],"next":[1161708,1161706,3102517,3102516,3102515],"voronoi":{"pivot":[135.769311,34.811327],"points":[0,0,-5907,-4595,-20654,-12877,19879,38623,9539,-2128]}},
{"code":1161708,"station":"大住","phonetic":"おおすみ","prefecture":26,"lon":135.749874,"lat":34.830785,"lines":[11617],"next":[1161707,3102515,1161712,1161709,1161710,1161706,3102514,1161711],"voronoi":{"pivot":[135.738925,34.789569],"points":[0,0,3825,4287,19879,38623,-5392,13198,-15268,15029,-6791,-60390,701,-5322,42,-121]}},
{"code":1161709,"station":"松井山手","phonetic":"まついやまて","prefecture":26,"lon":135.727617,"lat":34.833288,"lines":[11617],"next":[1161710,1161708,3102514,3300502,3102513],"voronoi":{"pivot":[135.736812,34.870630],"points":[0,0,-28743,-16739,27109,-53576,6791,60390,-3059,6793]}},
{"code":1161710,"station":"長尾(大阪)","phonetic":"ながお","prefecture":27,"lon":135.713091,"lat":34.825938,"lines":[11617],"next":[1161709,3300117,1161708,1161711,3300502,3300118],"voronoi":{"pivot":[135.702403,34.852525],"points":[0,0,5666,1367,27109,-53576,701,-5322,-45964,41441,1881,4983]}},
{"code":1161711,"station":"藤阪","phonetic":"ふじさか","prefecture":27,"lon":135.702748,"lat":34.814466,"lines":[11617],"next":[3300303,1161712,3300118,3300302,1161710,1161708,3300304],"voronoi":{"pivot":[135.735922,34.794872],"points":[0,0,-42,121,-45964,41441,-10390,-13133,25,-1417,528,-3354,1185,-3612]}},
{"code":1161712,"station":"津田","phonetic":"つだ","prefecture":27,"lon":135.697946,"lat":34.801373,"lines":[11617],"next":[1161706,1161704,1161713,1161708,3300306,3300305,1161711,3300304,3300308,3300307,3102307,3102308],"voronoi":{"pivot":[135.735055,34.771129],"points":[0,0,-1585,-519,-15148,5114,-14768,6617,-14015,7525,-5918,9154,-2441,9795,83,6104,54658,-20046,3004,-5304,676,-14538,-163,-712]}},
{"code":1161713,"station":"河内磐船","phonetic":"かわちいわふね","prefecture":27,"lon":135.684592,"lat":34.776501,"lines":[11617],"next":[1161714,1161712,3300307,3300306],"voronoi":{"pivot":[135.672589,34.775235],"points":[0,0,1821,-4204,29144,11310,-14015,7525]}},
{"code":1161714,"station":"星田","phonetic":"ほしだ","prefecture":27,"lon":135.663455,"lat":34.767346,"lines":[11617],"next":[1161713,3300305,1161715,3300123,3300307,3300308,3300306],"voronoi":{"pivot":[135.674410,34.771030],"points":[0,0,580,-1973,312,-22181,-29922,25692,6290,11849,9896,-2348,11023,-6835]}},
{"code":1161715,"station":"寝屋川公園","phonetic":"ねやがわこうえん","prefecture":27,"lon":135.653276,"lat":34.755491,"lines":[11617],"next":[1161714,3300308,3300123,1161716,3102601,3300124,3102306],"voronoi":{"pivot":[135.678780,34.726730],"points":[0,0,-342,-233,-41261,34115,1813,7051,6391,4905,29922,-25692,5822,-15916]}},
{"code":1161716,"station":"忍ケ丘","phonetic":"しのぶがおか","prefecture":27,"lon":135.645232,"lat":34.745762,"lines":[11617],"next":[3102601,1161715,1161717,3300124,3300125],"voronoi":{"pivot":[135.628044,34.743343],"points":[0,0,48682,-18481,1712,1635,-41261,34115,-8874,-12053]}},
{"code":1161717,"station":"四条畷","phonetic":"しじょうなわて","prefecture":27,"lon":135.639297,"lat":34.730128,"lines":[11617],"next":[3102601,1161716,1161718,3300125],"voronoi":{"pivot":[135.618661,34.728116],"points":[0,0,53182,-10619,4882,7365,-48682,18481]}},
{"code":1161718,"station":"野崎(大阪)","phonetic":"のざき","prefecture":27,"lon":135.636942,"lat":34.718334,"lines":[11617],"next":[3102601,3102304,3102011,1161717,1161719,3300125],"voronoi":{"pivot":[135.617575,34.727155],"points":[0,0,21826,-27871,2939,302,28328,15223,1176,2688,-53182,10619]}},
{"code":1161719,"station":"住道","phonetic":"すみのどう","prefecture":27,"lon":135.621496,"lat":34.706238,"lines":[11617],"next":[3300125,1161720,3102303,3102302,3102304,3300126,9962417,1161718],"voronoi":{"pivot":[135.632632,34.694265],"points":[0,0,-19223,-1955,-794,477,-5738,18490,4800,13117,4901,2512,996,250,21826,-27871]}},
{"code":1161720,"station":"鴻池新田","phonetic":"こうのいけしんでん","prefecture":27,"lon":135.597679,"lat":34.698847,"lines":[11617],"next":[1161721,1161719,9962416,9962417,3102302,3102301],"voronoi":{"pivot":[135.612615,34.692786],"points":[0,0,-5738,18490,-16824,-4874,-3022,-4425,4870,-12350,6598,-1891]}},
{"code":1161721,"station":"徳庵","phonetic":"とくあん","prefecture":27,"lon":135.581386,"lat":34.692423,"lines":[11617],"next":[1161720,1164102,9962113,9962415,3102301,1161722,9962416],"voronoi":{"pivot":[135.591901,34.689627],"points":[0,0,-9386,-7228,-9565,5786,-135,89,-1288,5395,10253,7980,5251,328]}},
{"code":1161722,"station":"放出","phonetic":"はなてん","prefecture":27,"lon":135.563296,"lat":34.688103,"lines":[11617,11641],"next":[1161723,9962415,9962414,9962112,1161721,1164102],"voronoi":{"pivot":[135.564808,34.680501],"points":[0,0,-11251,7627,1349,5287,12304,2898,4318,-2643,1288,-5395]}},
{"code":1161723,"station":"鴫野","phonetic":"しぎの","prefecture":27,"lon":135.544995,"lat":34.692769,"lines":[11617,11641,99652],"next":[1161722,9962414,9962112,1162314,9962111,9962413,1161724],"voronoi":{"pivot":[135.539028,34.692456],"points":[0,0,2300,-5772,10860,223,1368,1220,1349,5287,-77,127,-13949,4981]}},
{"code":1161724,"station":"京橋(大阪)","phonetic":"きょうばし","prefecture":27,"lon":135.534253,"lat":34.696047,"lines":[11617,33001,11623,11625,99624],"next":[1162314,1162502,9961906,9962413,1164113,9961907,1161723,9962411],"voronoi":{"pivot":[135.539028,34.692456],"points":[0,0,1851,6066,-394,1228,-4117,2696,-4458,1342,-3324,-2155,949,-4690,3981,-4656]}},
{"code":1161802,"station":"東福寺","phonetic":"とうふくじ","prefecture":26,"lon":135.769778,"lat":34.981371,"lines":[11618,33001],"next":[9961012,3300104,3300106,3300701,1160120],"voronoi":{"pivot":[135.763899,34.983817],"points":[0,0,1472,-6448,25283,738,-5233,11275,-21397,-5200]}},
{"code":1161803,"station":"稲荷","phonetic":"いなり","prefecture":26,"lon":135.770707,"lat":34.966758,"lines":[11618],"next":[9961104,9961105,3300108,1161804,3300107,3300106],"voronoi":{"pivot":[135.774210,34.970589],"points":[0,0,-6827,-4416,20864,-4595,3272,884,1059,8032,-262,1946]}},
{"code":1161804,"station":"JR藤森","phonetic":"じぇいあーるふじのもり","prefecture":26,"lon":135.775695,"lat":34.948278,"lines":[11618],"next":[3300110,1161805,3102507,9961104,3300204,9961102,9961103,1161803,3300108,3300203,3300109],"voronoi":{"pivot":[135.772368,34.952158],"points":[0,0,113,-10289,1594,-1506,4575,-1178,8689,4030,3090,3350,2394,8790,-295,4221,-1009,2887,-3272,-884,-2850,-989]}},
{"code":1161805,"station":"桃山","phonetic":"ももやま","prefecture":26,"lon":135.771673,"lat":34.932647,"lines":[11618],"next":[3300203,1161804,3102508,3300202,3102507],"voronoi":{"pivot":[135.768878,34.935388],"points":[0,0,-442,-3864,8451,-5638,1762,13299,-4575,1178]}},
{"code":1161806,"station":"六地蔵(JR)","phonetic":"ろくじぞう","prefecture":26,"lon":135.797335,"lat":34.932843,"lines":[11618,99611],"next":[9961102,3300205,3300204,1161807],"voronoi":{"pivot":[135.798602,34.928999],"points":[0,0,-2668,492,-2826,13730,14437,-12445]}},
{"code":1161807,"station":"木幡(JR)","phonetic":"こはた","prefecture":26,"lon":135.798901,"lat":34.924962,"lines":[11618],"next":[3300205,1161806,9961102,1161808],"voronoi":{"pivot":[135.794602,34.916273],"points":[0,0,3999,12726,8943,1777,13100,-4276]}},
{"code":1161808,"station":"黄檗","phonetic":"おうばく","prefecture":26,"lon":135.803665,"lat":34.912831,"lines":[11618,33002],"next":[9961103,3102510,9961102,3300207,3300601,3102509,3300205,1161807],"voronoi":{"pivot":[135.836395,34.926313],"points":[0,0,27399,-5136,1933,-3553,-73410,-14168,-5887,6470,100,1627,8073,4720,26042,10227]}},
{"code":1161809,"station":"宇治(JR)","phonetic":"うじ","prefecture":26,"lon":135.800629,"lat":34.890437,"lines":[11618],"next":[1161812,3300207,3300208,1161811,3102510,1161814,1161810,1161813],"voronoi":{"pivot":[135.828808,34.859046],"points":[0,0,-28733,37940,-7387,4940,-295,-2122,1980,-22007,10048,-12415,3163,-1773,20227,-4555]}},
{"code":1161810,"station":"JR小倉","phonetic":"じぇいあーるおぐら","prefecture":26,"lon":135.785962,"lat":34.889117,"lines":[11618],"next":[1161809,3102510,3102511,1161811],"voronoi":{"pivot":[135.788044,34.880044],"points":[0,0,-7483,7551,11832,12209,1980,-22007]}},
{"code":1161811,"station":"新田(京都)","phonetic":"しんでん","prefecture":26,"lon":135.780707,"lat":34.874314,"lines":[11618],"next":[1161809,3102511,3102512,3102513,1161810,1161812],"voronoi":{"pivot":[135.785166,34.865008],"points":[0,0,-6355,3974,91,9074,9142,1988,6329,-2247,10048,-12415]}},
{"code":1161812,"station":"城陽","phonetic":"じょうよう","prefecture":26,"lon":135.781071,"lat":34.855536,"lines":[11618],"next":[1161809,3102514,3102513,3102515,1161811,1161813],"voronoi":{"pivot":[135.780778,34.845859],"points":[0,0,-2425,1289,-2860,11459,9674,6400,19255,374,3163,-1773]}},
{"code":1161813,"station":"長池","phonetic":"ながいけ","prefecture":26,"lon":135.789801,"lat":34.842351,"lines":[11618],"next":[1161814,3102515,3102516,1161809,1161812],"voronoi":{"pivot":[135.780778,34.845859],"points":[0,0,1984,-15572,2588,-2012,42462,30778,-20227,4555]}},
{"code":1161814,"station":"山城青谷","phonetic":"やましろあおだに","prefecture":26,"lon":135.800111,"lat":34.828127,"lines":[11618],"next":[3300208,1161813,1161815,1161809,3102517,3102516],"voronoi":{"pivot":[135.785349,34.828276],"points":[0,0,42462,30778,997,-8,31142,-2863,-68711,-39992,-3602,3900]}},
{"code":1161815,"station":"山城多賀","phonetic":"やましろたが","prefecture":26,"lon":135.806000,"lat":34.818009,"lines":[11618],"next":[3300208,3102517,1161814,1161816,1150911,1150912,3102518],"voronoi":{"pivot":[135.792989,34.811265],"points":[0,0,-1749,4926,68711,39992,41202,-123,-7622,-16596,-27800,-27024,-69994,-3996]}},
{"code":1161816,"station":"玉水","phonetic":"たまみず","prefecture":26,"lon":135.807022,"lat":34.800108,"lines":[11618],"next":[1161817,3102518,3102520,1150912,1161815,3102519],"voronoi":{"pivot":[135.804428,34.784838],"points":[0,0,55462,19909,5841,7692,-69994,-3996,901,-11373,3849,-8729]}},
{"code":1161817,"station":"棚倉","phonetic":"たなくら","prefecture":26,"lon":135.816141,"lat":34.774705,"lines":[11618],"next":[1161818,1161816,3102520,3102521,1150912],"voronoi":{"pivot":[135.804428,34.784838],"points":[0,0,-2831,-13049,7103,-11306,35991,7543,15199,36721]}},
{"code":1161818,"station":"上狛","phonetic":"かみこま","prefecture":26,"lon":135.821225,"lat":34.750447,"lines":[11618],"next":[1161817,1161702,1160702,3102521,3102522,1150912],"voronoi":{"pivot":[135.814510,34.741110],"points":[0,0,-6053,8455,-1058,7010,1301,3908,35991,7543,848,-19271]}},
{"code":3102502,"station":"東寺","phonetic":"とうじ","prefecture":26,"lon":135.752553,"lat":34.979967,"lines":[31025],"next":[9961012,1161416,1160120,3102503,1160202],"voronoi":{"pivot":[135.741952,34.977220],"points":[0,0,13824,-323,594,4668,-5907,5581,-8462,-9015]}},
{"code":3102503,"station":"十条(近畿日本鉄道)","phonetic":"じゅうじょう","prefecture":26,"lon":135.752413,"lat":34.973980,"lines":[31025],"next":[1160202,9961013,3102502,3102504,9961012],"voronoi":{"pivot":[135.755150,34.969621],"points":[0,0,-15934,-382,2735,7981,13824,-323,886,-1264]}},
{"code":3102504,"station":"上鳥羽口","phonetic":"かみとばぐち","prefecture":26,"lon":135.752625,"lat":34.965135,"lines":[31025],"next":[9961014,1160202,1160216,1160203,9961013,3102505,3102503],"voronoi":{"pivot":[135.739217,34.969239],"points":[0,0,-7664,-10059,4,-616,1550,-6447,20210,8429,3692,7226,-1858,1849]}},
{"code":3102505,"station":"竹田(京都)","phonetic":"たけだ","prefecture":26,"lon":135.756091,"lat":34.956825,"lines":[31025,99610],"next":[3300109,1160203,3102506,3102504,9961014],"voronoi":{"pivot":[135.753317,34.960546],"points":[0,0,-20210,-8429,569,-13238,29456,14735,14,4664]}},
{"code":3102506,"station":"伏見(京都)","phonetic":"ふしみ","prefecture":26,"lon":135.761479,"lat":34.946054,"lines":[31025],"next":[1160203,3300110,3300112,3300109,3300111,3102505,3300113],"voronoi":{"pivot":[135.733580,34.938318],"points":[0,0,96,560,29456,14735,449,-365,2610,-9273,-11622,-6443,-2271,-488]}},
{"code":3102507,"station":"近鉄丹波橋","phonetic":"きんてつたんばばし","prefecture":26,"lon":135.766262,"lat":34.938299,"lines":[31025],"next":[3300111,1161804,1161805,3300110,3102508],"voronoi":{"pivot":[135.764061,34.936093],"points":[0,0,4895,6794,3524,-1019,1594,-1506,-5196,-4975]}},
{"code":3300111,"station":"丹波橋","phonetic":"たんばばし","prefecture":26,"lon":135.765457,"lat":34.938879,"lines":[33001],"next":[3300110,3102507,3102508,3300112,3102506],"voronoi":{"pivot":[135.768957,34.942888],"points":[0,0,-4895,-6794,-1100,-16,-8393,1455,11622,6443]}},
{"code":3102508,"station":"桃山御陵前","phonetic":"ももやまごりょうまえ","prefecture":26,"lon":135.765537,"lat":34.933349,"lines":[31025],"next":[3300202,1161805,3300111,3300112,3102507],"voronoi":{"pivot":[135.764061,34.936093],"points":[0,0,-1100,-16,3624,-5650,1851,1096,442,3864]}},
{"code":3300112,"station":"伏見桃山","phonetic":"ふしみももやま","prefecture":26,"lon":135.764368,"lat":34.932599,"lines":[33001],"next":[3300202,3102506,3300111,3102508,3300113],"voronoi":{"pivot":[135.766586,34.930428],"points":[0,0,-3624,5650,-8393,1455,-2271,-488,12000,-8792]}},
{"code":3102509,"station":"向島","phonetic":"むかいじま","prefecture":26,"lon":135.769681,"lat":34.914924,"lines":[31025],"next":[3300202,3300113,3102511,3300203,3300205,3300114,3102510,1161808],"voronoi":{"pivot":[135.786430,34.909925],"points":[0,0,-28850,-16127,-9701,-2761,-2873,14014,20313,16159,12297,969,7042,-6112,1872,-4515]}},
{"code":3102510,"station":"小倉(京都)","phonetic":"おぐら","prefecture":26,"lon":135.781914,"lat":34.893040,"lines":[31025],"next":[1161809,1161808,3102511,3102509,1161810,3300207],"voronoi":{"pivot":[135.792317,34.903455],"points":[0,0,-5887,6470,-28850,-16127,22982,-6204,11832,12209,295,2122]}},
{"code":3102511,"station":"伊勢田","phonetic":"いせだ","prefecture":26,"lon":135.778990,"lat":34.882208,"lines":[31025],"next":[3300114,3102509,1161811,3102510,3102512,1161810],"voronoi":{"pivot":[135.778903,34.878055],"points":[0,0,-32777,8202,1753,4780,9701,2761,22982,-6204,7483,-7551]}},
{"code":3102512,"station":"大久保(京都)","phonetic":"おおくぼ","prefecture":26,"lon":135.777024,"lat":34.874351,"lines":[31025],"next":[3102511,3300114,3102513,1161811],"voronoi":{"pivot":[135.778812,34.868981],"points":[0,0,-37141,8594,4455,8682,32777,-8202]}},
{"code":3102513,"station":"久津川","phonetic":"くつがわ","prefecture":26,"lon":135.774847,"lat":34.864943,"lines":[31025],"next":[3102514,3300502,3300114,3102512,1161811,1161812,1161709],"voronoi":{"pivot":[135.775492,34.858607],"points":[0,0,9674,6400,-6355,3974,-37141,8594,-4858,-6942,0,-3,2098,-3132]}},
{"code":3102514,"station":"寺田(京都)","phonetic":"てらだ","prefecture":26,"lon":135.772011,"lat":34.853275,"lines":[31025],"next":[3102513,1161812,1161708,1161709,3102515],"voronoi":{"pivot":[135.757238,34.845677],"points":[0,0,-15268,15029,-3059,6793,36582,-8891,2860,-11459]}},
{"code":3102515,"station":"富野荘","phonetic":"とのしょう","prefecture":26,"lon":135.772922,"lat":34.840201,"lines":[31025],"next":[1161708,1161813,3102514,1161707,3102516,1161812],"voronoi":{"pivot":[135.778352,34.847148],"points":[0,0,-21115,-1472,5392,-13198,9539,-2128,10593,-63,-1984,15572]}},
{"code":3102516,"station":"新田辺","phonetic":"しんたなべ","prefecture":26,"lon":135.772805,"lat":34.820492,"lines":[31025],"next":[3102517,1161707,1161813,1161814,3102515],"voronoi":{"pivot":[135.772169,34.830351],"points":[0,0,-2857,-19023,18326,8763,-2288,8185,-2588,2012]}},
{"code":3102517,"station":"興戸","phonetic":"こうど","prefecture":26,"lon":135.778638,"lat":34.808293,"lines":[31025],"next":[3102516,1161815,1161707,3102518,1161814,1161706],"voronoi":{"pivot":[135.763405,34.806733],"points":[0,0,5907,4595,18326,8763,3602,-3900,1749,-4926,-6197,-4569]}},
{"code":3102519,"station":"近鉄宮津","phonetic":"きんてつみやづ","prefecture":26,"lon":135.787391,"lat":34.791453,"lines":[31025],"next":[3102520,1161706,3102518,1161704,1161705,1161816],"voronoi":{"pivot":[135.796638,34.797070],"points":[0,0,-11116,-2366,-22396,-9156,-4206,-2694,30774,3348,10793,2139]}},
{"code":3102522,"station":"木津川台","phonetic":"きづがわだい","prefecture":26,"lon":135.795996,"lat":34.746641,"lines":[31025],"next":[3102523,3102521,1161703,1161702,1161818],"voronoi":{"pivot":[135.807399,34.756576],"points":[0,0,-18192,-4563,-15860,-4559,25274,-6209,9836,8321]}},
{"code":3102523,"station":"山田川","phonetic":"やまだがわ","prefecture":26,"lon":135.793794,"lat":34.737678,"lines":[31025],"next":[3102308,3102522,1161703,1161702,3102524],"voronoi":{"pivot":[135.798620,34.741244],"points":[0,0,-25274,6209,-4293,-322,3718,-13783,25948,-3576]}},
{"code":3102524,"station":"高の原","phonetic":"たかのはら","prefecture":29,"lon":135.791839,"lat":34.723494,"lines":[31025],"next":[1161702,1160703,3102308,3102525,3102523],"voronoi":{"pivot":[135.805943,34.723865],"points":[0,0,-9917,-13979,-24431,8124,1177,15338,25948,-3576]}},
{"code":3102525,"station":"平城","phonetic":"へいじょう","prefecture":29,"lon":135.784524,"lat":34.701496,"lines":[31025],"next":[3102308,1160703,3102018,3102524,3102016,3100201],"voronoi":{"pivot":[135.772978,34.699398],"points":[0,0,-2599,17051,1216,1561,24431,-8124,4222,-12156,-1664,-2715]}},
{"code":3100201,"station":"大和西大寺","phonetic":"やまとさいだいじ","prefecture":29,"lon":135.783169,"lat":34.693580,"lines":[31025,31020,31002],"next":[3102018,3102016,3100202,3102525],"voronoi":{"pivot":[135.772978,34.699398],"points":[0,0,-2490,-12415,25939,728,2157,7304]}},
{"code":3102018,"station":"新大宮","phonetic":"しんおおみや","prefecture":29,"lon":135.810744,"lat":34.685434,"lines":[31025,31020],"next":[1160705,1160703,3100202,3100201,3100203,3102019,3102525,1160704],"voronoi":{"pivot":[135.819987,34.698119],"points":[0,0,-19740,-389,-1664,-2715,-2157,-7304,1955,-12310,5549,-10344,65,-36,15496,25631]}},
{"code":3102019,"station":"近鉄奈良","phonetic":"きんてつなら","prefecture":29,"lon":135.827472,"lat":34.684323,"lines":[31025,31020],"next":[1160702,1160703,3102018,1150912,1160704,1163702],"voronoi":{"pivot":[135.825626,34.677018],"points":[0,0,-6135,13634,496,7467,19260,12703,19969,1036,47483,-29315]}},
{"code":3300103,"station":"清水五条","phonetic":"きよみずごじょう","prefecture":26,"lon":135.768378,"lat":34.995691,"lines":[33001],"next":[3300104,9961010,9961009,3400301,3300102,9961109,3300701],"voronoi":{"pivot":[135.785067,34.991662],"points":[0,0,-1025,1813,-13459,6030,-5639,758,-1082,-1422,303,-6004,20910,-1747]}},
{"code":3300104,"station":"七条","phonetic":"しちじょう","prefecture":26,"lon":135.767846,"lat":34.989322,"lines":[33001],"next":[3300103,1161802,1160120,9961010,3300701],"voronoi":{"pivot":[135.764023,34.984183],"points":[0,0,-2118,5544,2260,3110,20910,-1747,345,-1707]}},
{"code":3300106,"station":"鳥羽街道","phonetic":"とばかいどう","prefecture":26,"lon":135.770004,"lat":34.973632,"lines":[33001],"next":[9961012,9961013,1161802,3300701,9961105,1161803,3300107],"voronoi":{"pivot":[135.764936,34.972030],"points":[0,0,-502,3556,936,1783,25283,738,1732,-2431,-70,-3236,-18106,-1851]}},
{"code":3300107,"station":"伏見稲荷","phonetic":"ふしみいなり","prefecture":26,"lon":135.769279,"lat":34.968966,"lines":[33001],"next":[9961013,3300108,9961014,1161803,3300106],"voronoi":{"pivot":[135.767383,34.966174],"points":[0,0,-3833,-710,-487,916,1874,5651,9273,-1441]}},
{"code":3300108,"station":"深草","phonetic":"ふかくさ","prefecture":26,"lon":135.770154,"lat":34.964247,"lines":[33001],"next":[3300107,1161803,3300109,9961014,1161804],"voronoi":{"pivot":[135.785396,34.960590],"points":[0,0,-21231,-105,-616,4979,3833,710,20864,-4595]}},
{"code":3300109,"station":"藤森","phonetic":"ふじのもり","prefecture":26,"lon":135.770191,"lat":34.956782,"lines":[33001],"next":[3300110,3102505,9961014,3102506,3300108,1161804],"voronoi":{"pivot":[135.764166,34.960485],"points":[0,0,-1020,-2207,-14,-4664,449,-365,8787,-1091,13029,8432]}},
{"code":3300110,"station":"墨染","phonetic":"すみぞめ","prefecture":26,"lon":135.769126,"lat":34.948206,"lines":[33001],"next":[1161804,3300109,3300111,3102506,3102507],"voronoi":{"pivot":[135.768957,34.942888],"points":[0,0,-2766,1088,-2610,9273,8787,-1091,113,-10289]}},
{"code":3300113,"station":"中書島","phonetic":"ちゅうしょじま","prefecture":26,"lon":135.760174,"lat":34.926875,"lines":[33001,33002],"next":[3400309,3300114,3102509,3300202,3102506,1160203,3300112],"voronoi":{"pivot":[135.765318,34.921211],"points":[0,0,-20313,-16159,-14080,26166,886,3915,1768,3186,18718,-1274,12000,-8792]}},
{"code":3300114,"station":"淀","phonetic":"よど","prefecture":26,"lon":135.718435,"lat":34.904416,"lines":[33001],"next":[1160204,3300113,3102511,3400328,3300115,3102512,3102513,3102509,3300502,3400309],"voronoi":{"pivot":[135.745005,34.905051],"points":[0,0,2873,-14014,-1753,-4780,-4455,-8682,-4858,-6942,-14001,11175,-21246,19859,1793,6482,22712,20909,4855,2159]}},
{"code":3300115,"station":"八幡市","phonetic":"やわたし","prefecture":26,"lon":135.699960,"lat":34.884651,"lines":[33001,33005],"next":[3400328,3300114,3300502,3400311,3300116],"voronoi":{"pivot":[135.691160,34.889038],"points":[0,0,3687,9887,6718,2743,21246,-19859,-30683,1402]}},
{"code":3300116,"station":"橋本(京都)","phonetic":"はしもと","prefecture":26,"lon":135.684251,"lat":34.882042,"lines":[33001],"next":[3400311,1160205,3400312,3300502,3300117,3300115],"voronoi":{"pivot":[135.691105,34.866996],"points":[0,0,-13208,5858,-2870,10952,3401,1707,12733,3524,968,-5827]}},
{"code":3300117,"station":"樟葉","phonetic":"くずは","prefecture":27,"lon":135.675352,"lat":34.861977,"lines":[33001],"next":[3400312,3300502,1161710,3400313,3300116,3300118],"voronoi":{"pivot":[135.661666,34.857670],"points":[0,0,8378,11449,7853,3735,13208,-5858,11299,-14472,-10607,-11107]}},
{"code":3300118,"station":"牧野","phonetic":"まきの","prefecture":27,"lon":135.665584,"lat":34.843868,"lines":[33001],"next":[3300302,1161711,3400314,3400313,3300119,1161710,3300117],"voronoi":{"pivot":[135.661666,34.857670],"points":[0,0,-16024,-2252,-989,-6937,30032,-23746,4841,-1434,10390,13133,1881,4983]}},
{"code":3300119,"station":"御殿山","phonetic":"ごてんやま","prefecture":27,"lon":135.653969,"lat":34.829178,"lines":[33001],"next":[3400314,3300302,3300121,3300120,3300118],"voronoi":{"pivot":[135.654792,34.821327],"points":[0,0,-17892,7091,-3726,3062,11478,17002,30032,-23746]}},
{"code":3300120,"station":"枚方市","phonetic":"ひらかたし","prefecture":27,"lon":135.648814,"lat":34.816171,"lines":[33001,33003],"next":[3300303,3300121,3300302,3300119],"voronoi":{"pivot":[135.636901,34.828417],"points":[0,0,11783,-23715,1277,1649,4832,14975]}},
{"code":3300121,"station":"枚方公園","phonetic":"ひらかたこうえん","prefecture":27,"lon":135.639465,"lat":34.811526,"lines":[33001],"next":[3400315,3300303,3400314,3300119,3300122,3300120],"voronoi":{"pivot":[135.647097,34.796297],"points":[0,0,-33287,22563,2865,5655,16500,6965,3726,-3062,11783,-23715]}},
{"code":3300122,"station":"光善寺","phonetic":"こうぜんじ","prefecture":27,"lon":135.630124,"lat":34.797745,"lines":[33001],"next":[3400316,3400315,3300304,3300123,9962610,3300121,3300303,3400317],"voronoi":{"pivot":[135.607673,34.812733],"points":[0,0,6136,6127,33287,-22563,767,-2284,211,-1760,-49533,-3029,-258,4295,3531,10240]}},
{"code":3300123,"station":"香里園","phonetic":"こうりえん","prefecture":27,"lon":135.630927,"lat":34.784613,"lines":[33001],"next":[3300305,9962610,1161715,3300304,3300122,1161714,3300124],"voronoi":{"pivot":[135.598353,34.787911],"points":[0,0,188,1312,49533,3029,3167,-6126,429,-1709,-6290,-11849,-6391,-4905]}},
{"code":3300124,"station":"寝屋川市","phonetic":"ねやがわし","prefecture":27,"lon":135.620603,"lat":34.763893,"lines":[33001],"next":[9961901,9962612,1161715,9962610,1161716,3300125,3300123],"voronoi":{"pivot":[135.598353,34.787911],"points":[0,0,-3266,-5924,-334,-11586,1105,-3246,32444,-18596,8874,12053,1813,7051]}},
{"code":3300125,"station":"萱島","phonetic":"かやしま","prefecture":27,"lon":135.611180,"lat":34.747453,"lines":[33001],"next":[1161719,9961901,3300126,1161716,3300124,1161717,1161718],"voronoi":{"pivot":[135.628044,34.743343],"points":[0,0,259,5216,-32444,18596,-54,-872,20774,-39378,996,250,1087,961]}},
{"code":3300126,"station":"大和田(大阪)","phonetic":"おおわだ","prefecture":27,"lon":135.602667,"lat":34.742962,"lines":[33001],"next":[9961901,1161719,9962417,3300127,3300125],"voronoi":{"pivot":[135.611678,34.724393],"points":[0,0,-11173,4370,-7402,27388,2702,10132,20774,-39378]}},
{"code":3300127,"station":"古川橋","phonetic":"ふるかわばし","prefecture":27,"lon":135.591484,"lat":34.739940,"lines":[33001],"next":[9962417,3300128,9961901,3300126],"voronoi":{"pivot":[135.593103,34.756152],"points":[0,0,-7312,-10155,3961,-17688,10753,455]}},
{"code":3300128,"station":"門真市","phonetic":"かどまし","prefecture":27,"lon":135.583224,"lat":34.738090,"lines":[33001,99626],"next":[3300129,9961901,3300127,9962416,9962417],"voronoi":{"pivot":[135.585790,34.745997],"points":[0,0,-6796,-2974,1974,-18517,35,-4,8748,3807]}},
{"code":3300129,"station":"西三荘","phonetic":"にしさんそう","prefecture":27,"lon":135.575900,"lat":34.737309,"lines":[33001],"next":[9961901,9962416,3300128,9961902,9965205,3300130],"voronoi":{"pivot":[135.569981,34.739556],"points":[0,0,283,5146,8730,-1679,1974,-18517,-6405,-1047,-1921,1855]}},
{"code":3300130,"station":"守口市","phonetic":"もりぐちし","prefecture":27,"lon":135.565273,"lat":34.735323,"lines":[33001],"next":[3300129,3300131,9965205,9961902],"voronoi":{"pivot":[135.572643,34.725314],"points":[0,0,-4952,1632,-6705,7783,8996,4827]}},
{"code":3300131,"station":"土居","phonetic":"どい","prefecture":27,"lon":135.559763,"lat":34.730577,"lines":[33001],"next":[9965205,9961902,3300132,3300130,9961903],"voronoi":{"pivot":[135.557248,34.730381],"points":[0,0,4795,-4071,5647,635,-6705,7783,-2766,1529]}},
{"code":3300132,"station":"滝井","phonetic":"たきい","prefecture":27,"lon":135.557463,"lat":34.727868,"lines":[33001],"next":[9961903,3300131,3300133,9965205],"voronoi":{"pivot":[135.558349,34.724349],"points":[0,0,-4809,3355,3708,2677,4795,-4071]}},
{"code":3300133,"station":"千林","phonetic":"せんばやし","prefecture":27,"lon":135.554741,"lat":34.723966,"lines":[33001],"next":[3300134,9965205,3300132,9961904,9965206,9961903],"voronoi":{"pivot":[135.551827,34.727748],"points":[0,0,147,-5222,4443,-2985,94,38,1839,4771,-4809,3355]}},
{"code":3300134,"station":"森小路","phonetic":"もりしょうじ","prefecture":27,"lon":135.551686,"lat":34.719419,"lines":[33001],"next":[9961904,9965206,3300133,9961905,3300135],"voronoi":{"pivot":[135.550070,34.715454],"points":[0,0,-3016,4206,4919,2865,4443,-2985,-3748,-5869]}},
{"code":3300135,"station":"関目","phonetic":"せきめ","prefecture":27,"lon":135.546953,"lat":34.712520,"lines":[33001],"next":[9962414,3300134,9965207,9965206,3300136,9962413,9961905],"voronoi":{"pivot":[135.548041,34.714578],"points":[0,0,-3337,-4400,5256,-3570,3206,200,869,1072,-1367,5792,-2598,1783]}},
{"code":9965207,"station":"関目成育","phonetic":"せきめせいいく","prefecture":27,"lon":135.546353,"lat":34.712975,"lines":[99652],"next":[9961905,3300136,3300135,9961906],"voronoi":{"pivot":[135.541301,34.712891],"points":[0,0,6741,1686,-3337,-4400,-2785,1451]}},
{"code":3300136,"station":"野江","phonetic":"のえ","prefecture":27,"lon":135.543356,"lat":34.707223,"lines":[33001],"next":[9965207,1164113,9961906,3300135,9962413],"voronoi":{"pivot":[135.543061,34.702226],"points":[0,0,-1276,8998,134,404,2785,-1451,5256,-3570]}},
{"code":1164113,"station":"JR野江","phonetic":"じぇいあーるのえ","prefecture":27,"lon":135.541389,"lat":34.706944,"lines":[11641],"next":[9961906,3300136,1161724,9962413],"voronoi":{"pivot":[135.540485,34.699751],"points":[0,0,-4117,2696,5417,8778,1276,-8998]}},
{"code":3300138,"station":"天満橋","phonetic":"てんまばし","prefecture":27,"lon":135.516633,"lat":34.690200,"lines":[33001,33008,99619],"next":[1162502,3300139,9962108,1162503,9961913],"voronoi":{"pivot":[135.512065,34.685692],"points":[0,0,-1008,1175,909,5574,7503,3324,4220,-9204]}},
{"code":3300139,"station":"北浜(大阪)","phonetic":"きたはま","prefecture":27,"lon":135.506830,"lat":34.691799,"lines":[33001,99623],"next":[9961911,3300140,1162503,3300138,3300802,9962108],"voronoi":{"pivot":[135.503564,34.686806],"points":[0,0,625,4930,6789,1556,688,-496,300,-354,-909,-5574]}},
{"code":3300802,"station":"なにわ橋","phonetic":"なにわばし","prefecture":27,"lon":135.506594,"lat":34.692829,"lines":[33008],"next":[3300139,3300803,3300140,9961911,9961910],"voronoi":{"pivot":[135.504592,34.698150],"points":[0,0,-672,-2834,270,-3581,6789,1556,-5807,5347]}},
{"code":3300140,"station":"淀屋橋","phonetic":"よどやばし","prefecture":27,"lon":135.501648,"lat":34.692456,"lines":[33001,99618],"next":[3300139,3300803,9962108,9961808,9962002,3300802],"voronoi":{"pivot":[135.503919,34.695317],"points":[0,0,-4923,-3307,990,-4730,3001,-761,577,287,625,4930]}},
{"code":3300803,"station":"大江橋","phonetic":"おおえばし","prefecture":27,"lon":135.500412,"lat":34.694296,"lines":[33008],"next":[3300804,3300140,9962002,3300802,9961910,1162504],"voronoi":{"pivot":[135.497807,34.695540],"points":[0,0,162,-2125,1028,-1406,4923,3307,672,2834,-4208,-451]}},
{"code":3300202,"station":"観月橋","phonetic":"かんげつきょう","prefecture":26,"lon":135.768642,"lat":34.928103,"lines":[33002],"next":[3300112,3102508,3102509,1161805,3300113,3300203],"voronoi":{"pivot":[135.765318,34.921211],"points":[0,0,-1021,7042,2288,2175,1851,1096,8451,-5638,728,-3706]}},
{"code":3300203,"station":"桃山南口","phonetic":"ももやまみなみぐち","prefecture":26,"lon":135.783683,"lat":34.931056,"lines":[33002],"next":[3300204,1161805,3300205,3102509,1161804,3300202],"voronoi":{"pivot":[135.776888,34.925886],"points":[0,0,1762,13299,8689,4030,1673,-16787,-4354,-10360,-7042,6112]}},
{"code":3300204,"station":"六地蔵(京阪電気鉄道)","phonetic":"ろくじぞう","prefecture":26,"lon":135.793322,"lat":34.932017,"lines":[33002],"next":[3300203,3300205,1161806,1161804,9961102],"voronoi":{"pivot":[135.790428,34.946564],"points":[0,0,-3090,-3350,1673,-16787,6922,3063,-2826,13730]}},
{"code":3300205,"station":"木幡(京阪電気鉄道)","phonetic":"こわた","prefecture":26,"lon":135.796047,"lat":34.925859,"lines":[33002],"next":[3300204,3300203,1161806,1161807,3102509,1161808],"voronoi":{"pivot":[135.786530,34.911553],"points":[0,0,-1872,4515,4354,10360,6922,3063,2668,-492,-3999,-12726]}},
{"code":3300207,"station":"三室戸","phonetic":"みむろど","prefecture":26,"lon":135.806339,"lat":34.898976,"lines":[33002],"next":[1161809,3300601,3300208,1161808,3102510],"voronoi":{"pivot":[135.800075,34.896986],"points":[0,0,81596,-2088,-15945,22726,-73410,-14168,372,-1530]}},
{"code":3300208,"station":"宇治(京阪電気鉄道)","phonetic":"うじ","prefecture":26,"lon":135.806229,"lat":34.894678,"lines":[33002],"next":[3300601,1161814,1161809,1161815,3300207,1150911],"voronoi":{"pivot":[135.901153,34.856060],"points":[0,0,-41202,123,-31142,2863,-28733,37940,81596,-2088,25030,-33598]}},
{"code":3300502,"station":"男山山上","phonetic":"おとこやまさんじょう","prefecture":26,"lon":135.699796,"lat":34.881061,"lines":[33005],"next":[3300117,3102513,1161710,3300115,1161709,3300116,3300114],"voronoi":{"pivot":[135.722811,34.881808],"points":[0,0,-30683,1402,-1024,-16214,11299,-14472,5666,1367,28743,16739,0,3]}},
{"code":3400305,"station":"西京極","phonetic":"にしきょうごく","prefecture":26,"lon":135.718462,"lat":34.992459,"lines":[34003],"next":[3400902,9961213,9961204,1160202,3400306,3400304],"voronoi":{"pivot":[135.724427,34.999327],"points":[0,0,-7061,2094,-10917,-1991,943,-9349,10231,-11989,12317,14327]}},
{"code":3400306,"station":"桂","phonetic":"かつら","prefecture":26,"lon":135.703302,"lat":34.979522,"lines":[34003,34009],"next":[1160216,3400307,3400902,1160202,3400305],"voronoi":{"pivot":[135.707391,34.990081],"points":[0,0,-26548,-17981,25165,-335,11653,5616,-39,711]}},
{"code":3400307,"station":"洛西口","phonetic":"らくさいぐち","prefecture":26,"lon":135.703096,"lat":34.964081,"lines":[34003],"next":[3400308,1160203,3400306,3400310,3400902,3400903,1160216],"voronoi":{"pivot":[135.706008,34.971764],"points":[0,0,-25165,335,-28448,-7653,-11092,-4554,24462,-6702,40537,6162,888,645]}},
{"code":3400308,"station":"東向日","phonetic":"ひがしむこう","prefecture":26,"lon":135.704646,"lat":34.953885,"lines":[34003],"next":[3400307,3400309,3400310,1160203],"voronoi":{"pivot":[135.669024,34.951810],"points":[0,0,-3259,1380,40537,6162,2437,-13187]}},
{"code":3400309,"station":"西向日","phonetic":"にしむこう","prefecture":26,"lon":135.702657,"lat":34.939892,"lines":[34003],"next":[3300113,1160203,1160204,3400308,3300114,3400310],"voronoi":{"pivot":[135.726071,34.929059],"points":[0,0,4855,2159,886,3915,-23072,11033,-39715,5645,28802,-19696]}},
{"code":3400310,"station":"長岡天神","phonetic":"ながおかてんじん","prefecture":26,"lon":135.692330,"lat":34.924791,"lines":[34003],"next":[3400328,1161409,9960504,3400903,3400307,1160215,3400308,3400309,1160204],"voronoi":{"pivot":[135.669024,34.951810],"points":[0,0,-3259,1380,-24462,6702,-1197,-65,-4006,-3881,-14627,-15325,246,-164,73814,-23331,2293,14988]}},
{"code":3400328,"station":"西山天王山","phonetic":"にしやまてんのうざん","prefecture":26,"lon":135.688507,"lat":34.912696,"lines":[34003],"next":[3400310,3300115,1160204,1160215,3300114,3400311,1160205],"voronoi":{"pivot":[135.649421,34.918266],"points":[0,0,-27701,22191,73814,-23331,7825,-8977,-1793,-6482,-6718,-2743,-11187,3623]}},
{"code":3400312,"station":"水無瀬","phonetic":"みなせ","prefecture":27,"lon":135.667853,"lat":34.877745,"lines":[34003],"next":[3300117,1160205,3300116,3400313,1160215],"voronoi":{"pivot":[135.663210,34.876545],"points":[0,0,6833,-7425,7853,3735,-2870,10952,-3680,2858]}},
{"code":3400313,"station":"上牧(大阪)","phonetic":"かんまき","prefecture":27,"lon":135.661629,"lat":34.872018,"lines":[34003],"next":[3300117,3400312,3300118,1160215,3400314],"voronoi":{"pivot":[135.661666,34.857670],"points":[0,0,8378,11449,-6833,7425,-33370,6288,15801,-27414]}},
{"code":3400314,"station":"高槻市","phonetic":"たかつきし","prefecture":27,"lon":135.623265,"lat":34.849905,"lines":[34003],"next":[1160206,3300119,3300121,3400315,1160215,3300118,3400313],"voronoi":{"pivot":[135.644652,34.848482],"points":[0,0,-11478,-17002,-16500,-6965,-1349,2804,12134,58553,2381,-3039,15801,-27414]}},
{"code":3400315,"station":"富田(大阪)","phonetic":"とんだ","prefecture":27,"lon":135.592721,"lat":34.835207,"lines":[34003],"next":[3300121,1160217,1160207,3300122,1160206,3400314,3400316],"voronoi":{"pivot":[135.613810,34.818859],"points":[0,0,2865,5655,-1349,2804,-2768,4204,-30555,7742,1046,-2368,24625,-24164]}},
{"code":3400316,"station":"総持寺","phonetic":"そうじじ","prefecture":27,"lon":135.584920,"lat":34.827257,"lines":[34003],"next":[3300122,3400315,1160217,3400317],"voronoi":{"pivot":[135.607673,34.812733],"points":[0,0,-24625,24164,-2827,-14909,21593,-18229]}},
{"code":3400317,"station":"茨木市","phonetic":"いばらきし","prefecture":27,"lon":135.575815,"lat":34.816472,"lines":[34003],"next":[1160217,1160208,3400318,9962610,3400316,3300122],"voronoi":{"pivot":[135.598283,34.793519],"points":[0,0,-15566,6655,-13203,9970,-1388,13800,12095,-1956,21593,-18229]}},
{"code":3400318,"station":"南茨木","phonetic":"みなみいばらき","prefecture":27,"lon":135.565152,"lat":34.802351,"lines":[34003,99626],"next":[9962608,3400317,1160209,9962610,1160208],"voronoi":{"pivot":[135.582717,34.800174],"points":[0,0,-24618,-2954,-1507,1894,4764,9063,8158,1967]}},
{"code":3400327,"station":"摂津市","phonetic":"せっつし","prefecture":27,"lon":135.553715,"lat":34.786409,"lines":[34003],"next":[1160209,1160210,9962611,9962610,3400319],"voronoi":{"pivot":[135.546126,34.783550],"points":[0,0,-1534,1935,14409,6233,2438,-4052,-8017,-9483]}},
{"code":3400319,"station":"正雀","phonetic":"しょうじゃく","prefecture":27,"lon":135.545657,"lat":34.775454,"lines":[34003],"next":[9962611,9965201,3400327,1160210],"voronoi":{"pivot":[135.553421,34.778184],"points":[0,0,2582,-9314,-15380,-1706,5502,16387]}},
{"code":3400320,"station":"相川","phonetic":"あいかわ","prefecture":27,"lon":135.533853,"lat":34.757942,"lines":[34003],"next":[1160210,9965202,3400321,9965201,1160211],"voronoi":{"pivot":[135.539333,34.766719],"points":[0,0,1435,-8661,-2191,-4183,-12606,1318,7243,14043]}},
{"code":3400321,"station":"上新庄","phonetic":"かみしんじょう","prefecture":27,"lon":135.533114,"lat":34.750873,"lines":[34003],"next":[9965202,9965203,1164111,3400320,3400808,1160211],"voronoi":{"pivot":[135.538578,34.753875],"points":[0,0,711,-5693,-6574,-10505,-4502,5861,-3545,10654,1304,1001]}},
{"code":3400322,"station":"淡路","phonetic":"あわじ","prefecture":27,"lon":135.516527,"lat":34.738827,"lines":[34003,34008],"next":[1164110,3400810,3400808,1160212,1164112,1164111,3400323],"voronoi":{"pivot":[135.510153,34.737549],"points":[0,0,212,4836,3969,1972,1707,-751,7178,-12818,-1160,-1070,-5690,2765]}},
{"code":1164111,"station":"JR淡路","phonetic":"じぇいあーるあわじ","prefecture":27,"lon":135.519861,"lat":34.740694,"lines":[11641],"next":[3400808,3400321,1164112,9965203,3400322],"voronoi":{"pivot":[135.516041,34.743605],"points":[0,0,12172,-68,4502,-5861,107,-848,-9603,-6041]}},
{"code":3400323,"station":"崇禅寺","phonetic":"そうぜんじ","prefecture":27,"lon":135.510186,"lat":34.731048,"lines":[34003],"next":[1160213,1160212,3400324,3400810,3400322],"voronoi":{"pivot":[135.505481,34.727095],"points":[0,0,-865,1713,2351,6344,3185,2397,6216,-5066]}},
{"code":3400902,"station":"上桂","phonetic":"かみかつら","prefecture":26,"lon":135.696069,"lat":34.990201,"lines":[34009],"next":[9961213,3400305,9961206,3400903,3400306,3400307,9961207],"voronoi":{"pivot":[135.706024,34.999836],"points":[0,0,424,-406,943,-9349,-26548,-17981,-28448,-7653,48670,37740,669,-113]}},
{"code":9961010,"station":"五条(京都)","phonetic":"ごじょう","prefecture":26,"lon":135.759687,"lat":34.995252,"lines":[99610],"next":[9961009,3300103,1161416,1160120,9961201,1161402,3400303,3300104],"voronoi":{"pivot":[135.761906,34.989727],"points":[0,0,-10388,2059,-445,1134,-29,2038,2653,3774,14,17,10152,92,303,-6004]}},
{"code":9961012,"station":"九条(京都)","phonetic":"くじょう","prefecture":26,"lon":135.759664,"lat":34.979062,"lines":[99610],"next":[3102502,1161802,1160120,3300106,9961013,3102503],"voronoi":{"pivot":[135.755775,34.976897],"points":[0,0,594,4668,7529,2253,1472,-6448,-936,-1783,-7773,46]}},
{"code":9961013,"station":"十条(京都市交通局)","phonetic":"じゅうじょう","prefecture":26,"lon":135.759623,"lat":34.972168,"lines":[99610],"next":[3102503,3300106,9961012,3300107,3102504,9961014],"voronoi":{"pivot":[135.757009,34.967771],"points":[0,0,-1858,1849,1511,6012,7773,-46,502,-3556,-1874,-5651]}},
{"code":9961014,"station":"くいな橋","phonetic":"くいなばし","prefecture":26,"lon":135.757441,"lat":34.962674,"lines":[99610],"next":[3102504,3300109,9961013,3300108,3300107,3102505],"voronoi":{"pivot":[135.753317,34.960546],"points":[0,0,3692,7226,6054,-1392,487,-916,616,-4979,-1020,-2207]}},
{"code":9961102,"station":"石田(京都)","phonetic":"いしだ","prefecture":26,"lon":135.803995,"lat":34.940569,"lines":[99611],"next":[1161806,1161808,1161804,1161807,3300204,9961103],"voronoi":{"pivot":[135.792823,34.955355],"points":[0,0,-2394,-8790,2679,-3344,14437,-12445,13100,-4276,15750,-187]}},
{"code":9961103,"station":"醍醐(京都)","phonetic":"だいご","prefecture":26,"lon":135.810769,"lat":34.950732,"lines":[99611],"next":[1161808,3300705,9961104,1161804,3300601,9961102],"voronoi":{"pivot":[135.863794,34.921177],"points":[0,0,-4281,24215,-2018,2016,-64967,12168,295,-4221,43572,-29042]}},
{"code":9961104,"station":"小野(京都)","phonetic":"おの","prefecture":26,"lon":135.812733,"lat":34.961218,"lines":[99611],"next":[9961105,3300705,1161803,1161804,9961103,3300704],"voronoi":{"pivot":[135.857494,34.947407],"points":[0,0,-64967,12168,-1009,2887,1059,8032,49887,-8382,9594,-7870]}},
{"code":9961105,"station":"椥辻","phonetic":"なぎつじ","prefecture":26,"lon":135.814658,"lat":34.972675,"lines":[99611],"next":[9961104,3300701,3300704,1161803,3300106,9961106],"voronoi":{"pivot":[135.800879,34.980386],"points":[0,0,-8494,-4710,-70,-3236,262,-1946,49887,-8382,-9395,11447]}},
{"code":9961106,"station":"東野(京都)","phonetic":"ひがしの","prefecture":26,"lon":135.816602,"lat":34.981841,"lines":[99611],"next":[3300703,3300702,9961105,3300704,3300701],"voronoi":{"pivot":[135.820318,34.986858],"points":[0,0,10031,-7371,2720,-5927,-32190,6827,6474,6767]}},
{"code":1162311,"station":"天満","phonetic":"てんま","prefecture":27,"lon":135.512233,"lat":34.704923,"lines":[11623],"next":[1162312,1162503,3400811,9962302],"voronoi":{"pivot":[135.509447,34.707028],"points":[0,0,7117,1966,44,-7225,-2731,-439]}},
{"code":9962302,"station":"扇町(大阪)","phonetic":"おうぎまち","prefecture":27,"lon":135.510800,"lat":34.703809,"lines":[99623],"next":[9961909,9961910,1162503,9961911,1162311,3400811],"voronoi":{"pivot":[135.513876,34.701331],"points":[0,0,-1207,-498,-6949,-316,-109,437,3340,6071,495,4]}},
{"code":1162312,"station":"桜ノ宮","phonetic":"さくらのみや","prefecture":27,"lon":135.520944,"lat":34.704976,"lines":[11623],"next":[1162311,3400811,9961907,1162503,1162502],"voronoi":{"pivot":[135.518520,34.712761],"points":[0,0,-1956,-3767,44,-7225,3514,-3480,7811,3356]}},
{"code":1162314,"station":"大阪城公園","phonetic":"おおさかじょうこうえん","prefecture":27,"lon":135.534482,"lat":34.688580,"lines":[11623],"next":[1161724,9962111,1161723,1162315,9962411],"voronoi":{"pivot":[135.539028,34.692456],"points":[0,0,2300,-5772,-1820,-2502,-11508,685,5516,7420]}},
{"code":1162315,"station":"森ノ宮","phonetic":"もりのみや","prefecture":27,"lon":135.533996,"lat":34.680412,"lines":[11623,99621,99624],"next":[9962111,9962411,9961913,1162314,1162316],"voronoi":{"pivot":[135.525366,34.678277],"points":[0,0,522,5814,2113,776,11508,-685,251,-8205]}},
{"code":1162316,"station":"玉造","phonetic":"たまつくり","prefecture":27,"lon":135.532901,"lat":34.673559,"lines":[11623,99624],"next":[3100103,1162317,9961914,9961913,9962210,1162315,9962111],"voronoi":{"pivot":[135.539760,34.675977],"points":[0,0,-14394,2300,-137,-256,-413,-4851,1732,-2306,10658,-2957,3100,7134]}},
{"code":1162318,"station":"桃谷","phonetic":"ももだに","prefecture":27,"lon":135.527908,"lat":34.658453,"lines":[11623],"next":[1162317,9961916,1160718,9962210,9962213,3100103,1162319,3100503],"voronoi":{"pivot":[135.540696,34.652058],"points":[0,0,-5766,-2796,-13929,5933,21,3527,5309,4301,13353,-5273,638,-1028,773,-2686]}},
{"code":1162319,"station":"寺田町","phonetic":"てらだちょう","prefecture":27,"lon":135.523437,"lat":34.647957,"lines":[11623],"next":[9961916,3100302,3100301,1162318,1160718,1160719],"voronoi":{"pivot":[135.518270,34.652793],"points":[0,0,2731,2401,13929,-5933,-2545,-3693,-12371,-1457,-1711,5823]}},
{"code":1162502,"station":"大阪城北詰","phonetic":"おおさかじょうきたづめ","prefecture":27,"lon":135.525538,"lat":34.694283,"lines":[11625],"next":[9961907,1161724,3300138,9961913,1162503,1162312,9962411],"voronoi":{"pivot":[135.524058,34.686315],"points":[0,0,-368,246,-4220,9204,652,2524,7811,3356,654,-12,949,-4690]}},
{"code":1162503,"station":"大阪天満宮","phonetic":"おおさかてんまんぐう","prefecture":27,"lon":135.513442,"lat":34.697404,"lines":[11625],"next":[1162311,9962302,9961911,1162312,3300139,1162502,3300138],"voronoi":{"pivot":[135.511967,34.692442],"points":[0,0,-300,354,1003,8037,1207,498,2731,439,3514,-3480,-652,-2524]}},
{"code":9961911,"station":"南森町","phonetic":"みなみもりまち","prefecture":27,"lon":135.511078,"lat":34.697699,"lines":[99619,99623],"next":[3300139,1162503,9962302,9961910,3300802],"voronoi":{"pivot":[135.511667,34.692796],"points":[0,0,1003,8037,-6949,-316,-549,-1878,5807,-5347]}},
{"code":1162602,"station":"美章園","phonetic":"びしょうえん","prefecture":27,"lon":135.523765,"lat":34.638411,"lines":[11626],"next":[9961920,3100303,3100302,9961919],"voronoi":{"pivot":[135.523781,34.633166],"points":[0,0,6651,5521,-10914,1870,3133,-7585]}},
{"code":1162603,"station":"南田辺","phonetic":"みなみたなべ","prefecture":27,"lon":135.520860,"lat":34.625551,"lines":[11626],"next":[9961814,3100305,9961921,9961920,1162604,9961815],"voronoi":{"pivot":[135.515159,34.627730],"points":[0,0,5899,2875,5214,-9112,-772,-2325,-339,-483,-5762,2877]}},
{"code":1162604,"station":"鶴ケ丘","phonetic":"つるがおか","prefecture":27,"lon":135.517088,"lat":34.617999,"lines":[11626],"next":[1162605,3100306,9961815,1162603,3100305],"voronoi":{"pivot":[135.519399,34.621563],"points":[0,0,-8610,-4594,12327,-7500,1585,2081,460,7136]}},
{"code":1162605,"station":"長居","phonetic":"ながい","prefecture":27,"lon":135.512769,"lat":34.610900,"lines":[11626,99618],"next":[1162604,9962808,9962807,9961815,9961817,1162606,3100306,3200708],"voronoi":{"pivot":[135.506452,34.615376],"points":[0,0,1739,2170,2598,-577,12327,-7500,-1140,-4625,-10000,18,-7175,4849,537,3401]}},
{"code":1162606,"station":"我孫子町","phonetic":"あびこちょう","prefecture":27,"lon":135.506670,"lat":34.601873,"lines":[11626],"next":[1162605,1162607,3200709,9961817,3200710,3200708],"voronoi":{"pivot":[135.511976,34.604862],"points":[0,0,-4291,-8544,-5486,2277,-791,4591,2721,5991,672,534]}},
{"code":1162607,"station":"杉本町","phonetic":"すぎもとちょう","prefecture":27,"lon":135.503034,"lat":34.593113,"lines":[11626],"next":[1162608,3200711,1162606,3200710,9961817,9961818],"voronoi":{"pivot":[135.507685,34.596317],"points":[0,0,-5486,2277,-5885,-5112,1222,-3868,13131,-1028,917,1096]}},
{"code":1162608,"station":"浅香","phonetic":"あさか","prefecture":27,"lon":135.502423,"lat":34.585303,"lines":[11626],"next":[1162607,1162609,3200711,9961818],"voronoi":{"pivot":[135.508027,34.577777],"points":[0,0,-12462,6247,1970,5590,13131,-1028]}},
{"code":1164110,"station":"南吹田","phonetic":"みなみすいた","prefecture":27,"lon":135.511250,"lat":34.749444,"lines":[11641],"next":[3400322,9961404,9961802,3400806,1160212,3400807,3400808],"voronoi":{"pivot":[135.510185,34.757024],"points":[0,0,-4522,-670,-4050,-6152,1821,-2766,6931,-5052,3969,1972,2904,8452]}},
{"code":1164112,"station":"城北公園通","phonetic":"しろきたこうえんどおり","prefecture":27,"lon":135.530694,"lat":34.723472,"lines":[11641],"next":[9961907,9961906,3400810,9961904,9961905,1164111,3400322,9965203],"voronoi":{"pivot":[135.532822,34.736828],"points":[0,0,-9603,-6041,-1160,-1070,-2692,-10416,12667,-4311,5328,2731,2573,4695,-178,9734]}},
{"code":1164102,"station":"高井田中央","phonetic":"たかいだちゅうおう","prefecture":27,"lon":135.572362,"lat":34.678764,"lines":[11641],"next":[1164103,1161721,9962112,9962113,3100504,1161722],"voronoi":{"pivot":[135.564808,34.680501],"points":[0,0,-152,-7093,2703,-1629,5220,-40,372,16447,-135,89]}},
{"code":9962113,"station":"高井田(OsakaMetro)","phonetic":"たかいだ","prefecture":27,"lon":135.573113,"lat":34.678747,"lines":[99621],"next":[3102002,1161721,1164102,1164103,3102003,3102301],"voronoi":{"pivot":[135.572951,34.688185],"points":[0,0,-372,-16447,3493,-214,1568,7,4876,2763,0,8105]}},
{"code":1164103,"station":"JR河内永和","phonetic":"じぇいあーるかわちえいわ","prefecture":27,"lon":135.572255,"lat":34.664717,"lines":[11641],"next":[3102002,1164102,3100505,3100504,9962113],"voronoi":{"pivot":[135.572579,34.671738],"points":[0,0,-5220,40,716,-10018,3224,-237,4773,10001]}},
{"code":3102002,"station":"河内永和","phonetic":"かわちえいわ","prefecture":27,"lon":135.573179,"lat":34.664276,"lines":[31020],"next":[9962113,1164103,3102003,3100505,1164104],"voronoi":{"pivot":[135.571361,34.661509],"points":[0,0,-63,15,4773,10001,1568,7,-435,-10773]}},
{"code":1164105,"station":"JR長瀬","phonetic":"じぇいあーるながせ","prefecture":27,"lon":135.570168,"lat":34.649516,"lines":[11641],"next":[1164108,9962214,1164104,3100505,9962213,3100506],"voronoi":{"pivot":[135.573712,34.653329],"points":[0,0,-501,128,-9732,1798,-1917,-8407,393,-1058,12294,-3452]}},
{"code":1164108,"station":"衣摺加美北","phonetic":"きずりかみきた","prefecture":27,"lon":135.567028,"lat":34.638333,"lines":[11641],"next":[1160717,1160716,1164105,3100507,9962214,3100506,1164106],"voronoi":{"pivot":[135.574864,34.641774],"points":[0,0,-615,563,-12294,3452,-3433,-9562,1733,-3565,7602,-59,8477,1153]}},
{"code":9961810,"station":"なんば","phonetic":"なんば","prefecture":27,"lon":135.500277,"lat":34.666316,"lines":[99618,99620,99622],"next":[3100101,1160722,9961809,3100102,3200101],"voronoi":{"pivot":[135.497685,34.662856],"points":[0,0,24,1015,4770,6780,109,0,514,-4496]}},
{"code":3100102,"station":"近鉄日本橋","phonetic":"きんてつにっぽんばし","prefecture":27,"lon":135.505818,"lat":34.666949,"lines":[31001],"next":[9962207,9962306,9961810,9961809,3200101,9962308],"voronoi":{"pivot":[135.507625,34.660975],"points":[0,0,-4523,5179,-514,4496,522,355,2199,-154,2382,-9878]}},
{"code":9962207,"station":"日本橋(大阪)","phonetic":"にっぽんばし","prefecture":27,"lon":135.506635,"lat":34.667146,"lines":[99622,99623],"next":[9962306,3100102,9961915,9962407,9962308,9961916],"voronoi":{"pivot":[135.508190,34.660930],"points":[0,0,-499,44,-2382,9878,4654,173,1255,-879,0,-6579]}},
{"code":3100302,"station":"河堀口","phonetic":"こぼれぐち","prefecture":27,"lon":135.524237,"lat":34.641166,"lines":[31003],"next":[9961919,1162319,3100303,1160718,1162602,3100301],"voronoi":{"pivot":[135.518767,34.641466],"points":[0,0,751,-910,10914,-1870,426,223,1527,6659,-12371,-1457]}},
{"code":3100303,"station":"北田辺","phonetic":"きたたなべ","prefecture":27,"lon":135.528934,"lat":34.632184,"lines":[31003],"next":[3100304,3100302,1162602,1160718,9961920],"voronoi":{"pivot":[135.535854,34.631365],"points":[0,0,-4996,7544,-426,-223,-6651,-5521,5098,-4392]}},
{"code":3100304,"station":"今川(大阪)","phonetic":"いまがわ","prefecture":27,"lon":135.531148,"lat":34.626226,"lines":[31003],"next":[3100303,1160718,9961922,9961921,9961920],"voronoi":{"pivot":[135.535854,34.631365],"points":[0,0,5503,-3096,-228,-787,-14796,-5920,2546,7211]}},
{"code":3100305,"station":"針中野","phonetic":"はりなかの","prefecture":27,"lon":135.533078,"lat":34.616969,"lines":[31003],"next":[9961922,3100306,1162603,9961921,1162604,9961923],"voronoi":{"pivot":[135.541606,34.611342],"points":[0,0,-16906,208,460,7136,339,483,15408,142,1538,-5917]}},
{"code":3100306,"station":"矢田(大阪)","phonetic":"やた","prefecture":27,"lon":135.532942,"lat":34.605926,"lines":[31003],"next":[9961817,3100307,1162604,3100305,9961923,1162605],"voronoi":{"pivot":[135.521975,34.604844],"points":[0,0,3546,-10080,18704,2388,-2619,14190,-16906,208,-1585,-2081]}},
{"code":3100307,"station":"河内天美","phonetic":"かわちあまみ","prefecture":27,"lon":135.535509,"lat":34.585823,"lines":[31003],"next":[9961817,3100306,9961923,3100309,3100310,9961818,3100308],"voronoi":{"pivot":[135.527426,34.576923],"points":[0,0,-3222,15532,1318,2309,18704,2388,7469,-5113,-523,-1102,-4651,-4689]}},
{"code":3100308,"station":"布忍","phonetic":"ぬのせ","prefecture":27,"lon":135.539415,"lat":34.577824,"lines":[31003],"next":[3100309,9961819,3200717,3100307,9961818],"voronoi":{"pivot":[135.526808,34.573420],"points":[0,0,5550,-13131,3714,-1352,10449,27310,-19095,-9325]}},
{"code":3100309,"station":"高見ノ里","phonetic":"たかみのさと","prefecture":27,"lon":135.546189,"lat":34.575232,"lines":[31003],"next":[3200717,3200718,3100308,3100307,3100310],"voronoi":{"pivot":[135.551171,34.590937],"points":[0,0,-4651,-4689,-10449,-27310,4648,-2782,11610,-3380]}},
{"code":3100310,"station":"河内松原","phonetic":"かわちまつばら","prefecture":27,"lon":135.557097,"lat":34.575563,"lines":[31003],"next":[9961924,3100311,3200718,3100307,9961925,3100309,9961923],"voronoi":{"pivot":[135.559305,34.592846],"points":[0,0,7344,-4580,-5133,-40748,-9186,5258,-1158,38161,523,1102,6609,1067]}},
{"code":3100311,"station":"恵我ノ荘","phonetic":"えがのしょう","prefecture":27,"lon":135.572751,"lat":34.573591,"lines":[31003],"next":[3200718,3100310,3200719,9961925,3100312,3200720,9961926],"voronoi":{"pivot":[135.571283,34.588089],"points":[0,0,-4634,177,-5133,-40748,2944,-3041,6992,-4083,1607,-696,7548,44593]}},
{"code":3100312,"station":"高鷲","phonetic":"たかわし","prefecture":27,"lon":135.584503,"lat":34.571602,"lines":[31003],"next":[3100316,3102202,3200720,3100311,9961926,3100313],"voronoi":{"pivot":[135.589181,34.584967],"points":[0,0,-8574,-677,-7548,-44593,2753,-1824,4832,2234,8766,12358]}},
{"code":3100313,"station":"藤井寺","phonetic":"ふじいでら","prefecture":27,"lon":135.594046,"lat":34.571669,"lines":[31003],"next":[3100314,1160713,3100316,3100312,9961926],"voronoi":{"pivot":[135.589181,34.584967],"points":[0,0,229,-32502,15406,13239,63,20364,-4891,3757]}},
{"code":3100314,"station":"土師ノ里","phonetic":"はじのさと","prefecture":27,"lon":135.615622,"lat":34.571603,"lines":[31003],"next":[1160713,3100315,1160712,3100313,3101202,3100316],"voronoi":{"pivot":[135.604816,34.565705],"points":[0,0,63,20364,1258,-16,9017,-4657,6491,-6104,-8642,-12652]}},
{"code":3100315,"station":"道明寺","phonetic":"どうみょうじ","prefecture":27,"lon":135.620399,"lat":34.568340,"lines":[31003,31012],"next":[3101202,3100314,3100515,3100316,3100516,3100317],"voronoi":{"pivot":[135.620115,34.556969],"points":[0,0,-7112,5671,8642,12652,3220,-1112,3593,-2622,-1463,-14102]}},
{"code":3100316,"station":"古市(大阪)","phonetic":"ふるいち","prefecture":27,"lon":135.609092,"lat":34.554160,"lines":[31003,31022],"next":[3102202,3100312,3100317,3100315,3100313,3100314],"voronoi":{"pivot":[135.604816,34.565705],"points":[0,0,-15406,-13239,-8766,-12358,27379,-1698,12092,18559,-7112,5671]}},
{"code":3100317,"station":"駒ヶ谷","phonetic":"こまがたに","prefecture":27,"lon":135.621999,"lat":34.545751,"lines":[31003],"next":[3102202,3100318,3100316,3100516,3100517,3100315],"voronoi":{"pivot":[135.620115,34.556969],"points":[0,0,-12092,-18559,13774,-8861,13592,16632,-3309,7962,-5085,3313]}},
{"code":3100318,"station":"上ノ太子","phonetic":"かみのたいし","prefecture":27,"lon":135.637634,"lat":34.532974,"lines":[31003],"next":[3100320,3100321,3102203,3100317,3100319,3100518,3102202,3100517],"voronoi":{"pivot":[135.635388,34.546180],"points":[0,0,-13592,-16632,8767,-25889,27484,-35509,7312,30140,131,8498,-2770,21970,-7376,10733]}},
{"code":3100319,"station":"二上山","phonetic":"にじょうざん","prefecture":29,"lon":135.685974,"lat":34.539070,"lines":[31003],"next":[3100318,3100519,3100320,3100518],"voronoi":{"pivot":[135.662720,34.528758],"points":[0,0,2770,-21970,28910,33890,-17962,5156]}},
{"code":3100320,"station":"二上神社口","phonetic":"にじょうじんじゃぐち","prefecture":29,"lon":135.694140,"lat":34.532104,"lines":[31003],"next":[3100318,1163605,3100321,3100519,3100319,3100520],"voronoi":{"pivot":[135.706091,34.528807],"points":[0,0,-40731,-30517,131,8498,28910,33890,718,300,11063,-11675]}},
{"code":3100321,"station":"当麻寺","phonetic":"たいまでら","prefecture":29,"lon":135.705897,"lat":34.516412,"lines":[31003],"next":[3102203,3100318,1163605,3100322,3100320],"voronoi":{"pivot":[135.665360,34.498290],"points":[0,0,-7312,-30140,341,-2938,55935,54424,-8233,9171]}},
{"code":3100322,"station":"磐城","phonetic":"いわき","prefecture":29,"lon":135.710869,"lat":34.511302,"lines":[31003],"next":[3100323,1163605,3102203,3100321,3101804,3101802],"voronoi":{"pivot":[135.718183,34.517852],"points":[0,0,-3860,1785,-55935,-54424,412,-6391,12081,5604,41434,30742]}},
{"code":3100323,"station":"尺土","phonetic":"しゃくど","prefecture":29,"lon":135.721404,"lat":34.508577,"lines":[31003,31018],"next":[1163605,3100322,3100324,3100522,3100523,3101802],"voronoi":{"pivot":[135.712315,34.495167],"points":[0,0,5868,22684,6707,1044,6839,-4534,426,-795,-872,-12619]}},
{"code":3100324,"station":"高田市","phonetic":"たかだし","prefecture":29,"lon":135.742119,"lat":34.507145,"lines":[31003],"next":[3101802,3100523,3100323,1163606,3100325,1163607],"voronoi":{"pivot":[135.752669,34.508510],"points":[0,0,-15031,4994,-5482,63,-872,-12619,751,-615,11908,-3977]}},
{"code":3101202,"station":"柏原南口","phonetic":"かしわらみなみぐち","prefecture":27,"lon":135.624956,"lat":34.581530,"lines":[31012],"next":[3100315,3100514,3100515,3100314,1160712],"voronoi":{"pivot":[135.615153,34.581395],"points":[0,0,6491,-6104,3220,-1112,3214,10024,-1638,580]}},
{"code":3102003,"station":"河内小阪","phonetic":"かわちこさか","prefecture":27,"lon":135.581500,"lat":34.663940,"lines":[31020],"next":[3102004,3102301,3102002,9962113,1164104,3100506],"voronoi":{"pivot":[135.585713,34.672045],"points":[0,0,-3198,2250,-4876,-2763,-435,-10773,2362,-3851,5688,-1573]}},
{"code":3102004,"station":"八戸ノ里","phonetic":"やえのさと","prefecture":27,"lon":135.589475,"lat":34.663721,"lines":[31020],"next":[3102003,3100506,3102301,3102005,3100507,3100508,3102302],"voronoi":{"pivot":[135.598443,34.649468],"points":[0,0,-613,-23,-8340,2259,-4235,3631,459,16710,12622,-2053,748,-774]}},
{"code":3102005,"station":"若江岩田","phonetic":"わかえいわた","prefecture":27,"lon":135.608315,"lat":34.663110,"lines":[31020],"next":[3102006,3102302,3102004,3100509,3100508],"voronoi":{"pivot":[135.612642,34.645497],"points":[0,0,1066,26928,-14624,-3207,-641,-19750,4069,-2535]}},
{"code":3102006,"station":"河内花園","phonetic":"かわちはなぞの","prefecture":27,"lon":135.618347,"lat":34.662713,"lines":[31020],"next":[3102303,3102007,3102005,3102302,3100509,3100510],"voronoi":{"pivot":[135.613413,34.645152],"points":[0,0,-771,345,1066,26928,1329,1122,7864,-2589,-982,-25569]}},
{"code":3102007,"station":"東花園","phonetic":"ひがしはなぞの","prefecture":27,"lon":135.626808,"lat":34.662388,"lines":[31020],"next":[3102102,3100510,3102006,3102008,3102304,3102303],"voronoi":{"pivot":[135.622900,34.670957],"points":[0,0,-982,-25569,9339,-2028,1080,430,968,27888,-884,700]}},
{"code":3102008,"station":"瓢箪山(大阪)","phonetic":"ひょうたんやま","prefecture":27,"lon":135.639143,"lat":34.661960,"lines":[31020],"next":[3102304,3102007,3102009,3102102],"voronoi":{"pivot":[135.632338,34.643791],"points":[0,0,968,27888,5715,-539,21997,-25765]}},
{"code":3102009,"station":"枚岡","phonetic":"ひらおか","prefecture":27,"lon":135.648067,"lat":34.669579,"lines":[31020],"next":[3102304,3102102,3102605,3102008,3101607,3102010],"voronoi":{"pivot":[135.671814,34.650224],"points":[0,0,-3327,-6056,-7470,1207,-21997,25765,5671,3873,23359,-12589]}},
{"code":3102010,"station":"額田(大阪)","phonetic":"ぬかた","prefecture":27,"lon":135.651086,"lat":34.675181,"lines":[31020],"next":[3102605,3102011,3102304,3102009],"voronoi":{"pivot":[135.644692,34.675012],"points":[0,0,3380,6980,18160,-7428,1819,-12141]}},
{"code":3102011,"station":"石切","phonetic":"いしきり","prefecture":27,"lon":135.654996,"lat":34.684739,"lines":[31020],"next":[3102304,3102602,1161718,3102601,3102604,3102010,3102605],"voronoi":{"pivot":[135.671424,34.701016],"points":[0,0,-481,12325,-275,1469,-28328,-15223,5732,-17594,18160,-7428,4994,24788]}},
{"code":3101601,"station":"生駒","phonetic":"いこま","prefecture":29,"lon":135.698006,"lat":34.693082,"lines":[31020,31023,31016],"next":[3102306,3102013,3101602,3102601],"voronoi":{"pivot":[135.687537,34.720286],"points":[0,0,18367,-12585,-1774,-16368,-4675,-5429]}},
{"code":3102601,"station":"鳥居前","phonetic":"とりいまえ","prefecture":29,"lon":135.696151,"lat":34.692439,"lines":[31026],"next":[1161718,1161717,1161716,1161715,3102602,3102011,3102306,3101601,3101602],"voronoi":{"pivot":[135.697848,34.683432],"points":[0,0,-26905,29909,-275,1469,1176,2688,4882,7365,1712,1635,342,233,8758,-6445,11918,-34382]}},
{"code":3102013,"station":"東生駒","phonetic":"ひがしいこま","prefecture":29,"lon":135.710488,"lat":34.691729,"lines":[31020],"next":[3101601,3101602,3101603,3102014,3102306],"voronoi":{"pivot":[135.723853,34.681334],"points":[0,0,-4118,630,-15604,9369,1774,16368,15586,-3375]}},
{"code":3102014,"station":"富雄","phonetic":"とみお","prefecture":29,"lon":135.734825,"lat":34.694229,"lines":[31020],"next":[3101604,3100204,3102015,3101605,3102306,3101603,3102307,3102013,3102308],"voronoi":{"pivot":[135.738465,34.713186],"points":[0,0,-9481,-3656,-7493,-5204,2362,-22992,6434,-9172,11223,-10173,4397,-3052,2569,3557,-9438,50380]}},
{"code":3102015,"station":"学園前(奈良)","phonetic":"がくえんまえ","prefecture":29,"lon":135.749713,"lat":34.697018,"lines":[31020],"next":[3102016,3102014,3102308,3100204,3100203],"voronoi":{"pivot":[135.752317,34.665894],"points":[0,0,-3842,-3400,-9438,50380,15351,-1411,3157,-38931]}},
{"code":3102016,"station":"菖蒲池","phonetic":"あやめいけ","prefecture":29,"lon":135.761331,"lat":34.697960,"lines":[31020],"next":[3102015,3100202,3100201,3100203,3102525,3102308],"voronoi":{"pivot":[135.754389,34.711463],"points":[0,0,3157,-38931,5013,4011,7929,10441,2490,12415,-2599,17051]}},
{"code":3102102,"station":"服部川","phonetic":"はっとりがわ","prefecture":27,"lon":135.641102,"lat":34.626481,"lines":[31021],"next":[3102103,3102007,3100510,3102009,3101607,3100511,3102008,3102402],"voronoi":{"pivot":[135.668487,34.644167],"points":[0,0,-7470,1207,-28680,-1584,-1080,-430,-951,-14682,2879,-6768,19116,2981,16802,16658]}},
{"code":3102103,"station":"信貴山口","phonetic":"しぎさんぐち","prefecture":27,"lon":135.642118,"lat":34.619967,"lines":[31021,31024],"next":[3102402,3102102,3100512,3100511],"voronoi":{"pivot":[135.641133,34.604153],"points":[0,0,11169,20739,-19116,-2981,193,-5762]}},
{"code":3102202,"station":"喜志","phonetic":"きし","prefecture":27,"lon":135.607137,"lat":34.522647,"lines":[31022],"next":[3100317,3200721,3102204,3100316,3200720,3100312,3100318,3102203],"voronoi":{"pivot":[135.579300,34.522311],"points":[0,0,-293,141,-2284,6331,-912,9090,4832,2234,27379,-1698,13774,-8861,8767,-25889]}},
{"code":3102203,"station":"富田林","phonetic":"とんだばやし","prefecture":27,"lon":135.600413,"lat":34.504166,"lines":[31022],"next":[3100321,3100318,3102204,3102205,3102206,3100322,3101804,3102202],"voronoi":{"pivot":[135.658047,34.468150],"points":[0,0,341,-2938,412,-6391,-1366,-4570,-28379,17103,-5501,4389,-44254,46568,51263,-18652]}},
{"code":3102204,"station":"富田林西口","phonetic":"とんだばやしにしぐち","prefecture":27,"lon":135.596347,"lat":34.500302,"lines":[31022],"next":[3102202,3102203,3102205,3200721],"voronoi":{"pivot":[135.579300,34.522311],"points":[0,0,44254,-46568,-46243,31419,1696,15290]}},
{"code":3102301,"station":"長田(大阪)","phonetic":"ながた","prefecture":27,"lon":135.591919,"lat":34.678747,"lines":[31023,99621],"next":[3102302,3102003,3102004,1161720,9962113,1161721],"voronoi":{"pivot":[135.582516,34.682399],"points":[0,0,0,-8105,3198,-2250,12622,-2053,164,17745,-6598,1891]}},
{"code":3102302,"station":"荒本","phonetic":"あらもと","prefecture":27,"lon":135.604912,"lat":34.678627,"lines":[31023],"next":[3102301,1161719,3102005,3102006,3102303,1161720,3102004],"voronoi":{"pivot":[135.598335,34.669992],"points":[0,0,164,17745,14116,5050,794,-477,1627,-18763,-1329,-1122,-14624,-3207]}},
{"code":3102303,"station":"吉田(大阪)","phonetic":"よした","prefecture":27,"lon":135.624135,"lat":34.680294,"lines":[31023],"next":[3102006,1161719,3102007,3102304,3102302],"voronoi":{"pivot":[135.622900,34.670957],"points":[0,0,9521,1421,211,21886,-19223,-1955,1627,-18763]}},
{"code":3102304,"station":"新石切","phonetic":"しんいしきり","prefecture":27,"lon":135.640859,"lat":34.680133,"lines":[31023],"next":[3102011,3102008,3102009,1161718,1161719,3102007,3102303,3102010],"voronoi":{"pivot":[135.644692,34.675012],"points":[0,0,-5671,-3873,-5715,539,-884,700,211,21886,6768,5020,2939,302,5732,-17594]}},
{"code":3102306,"station":"白庭台","phonetic":"しらにわだい","prefecture":29,"lon":135.716686,"lat":34.720345,"lines":[31023],"next":[3101601,3300308,3102307,3102014,3102601,1161715,3102013],"voronoi":{"pivot":[135.728984,34.709529],"points":[0,0,-25118,35902,-22741,-14471,-2345,-4230,8758,-6445,18367,-12585,15586,-3375]}},
{"code":3102307,"station":"学研北生駒","phonetic":"がっけんきたいこま","prefecture":29,"lon":135.723038,"lat":34.724789,"lines":[31023],"next":[3102308,3300308,3102306,3102014,1161712],"voronoi":{"pivot":[135.738465,34.713186],"points":[0,0,-9481,-3656,-25118,35902,29605,25178,1585,519]}},
{"code":3102308,"station":"学研奈良登美ヶ丘","phonetic":"がっけんならとみがおか","prefecture":29,"lon":135.752424,"lat":34.726518,"lines":[31023],"next":[3102525,3102523,3102307,3102015,3102524,1161703,3102014,1161712,3102016,1161704],"voronoi":{"pivot":[135.739438,34.774319],"points":[0,0,-4383,-3190,3409,-57943,573,-312,15351,-1411,15990,4987,1216,1561,1177,15338,-3718,13783,-14462,17054]}},
{"code":3102402,"station":"高安山","phonetic":"たかやすやま","prefecture":27,"lon":135.653794,"lat":34.613679,"lines":[31024],"next":[3102103,3101611,3100514,3101607,1160710,1160709,3100513,3101609,3101608,3100512,3102102],"voronoi":{"pivot":[135.677316,34.627164],"points":[0,0,1341,-4342,113,-1598,-4718,-15318,-7494,-10175,-17159,-3963,-2700,2809,-5327,7908,-239,1667,11169,20739,16802,16658]}},
{"code":3200101,"station":"難波","phonetic":"なんば","prefecture":27,"lon":135.501949,"lat":34.663570,"lines":[32001,32007],"next":[1160722,9962308,3200702,3100102,9961810,9961811],"voronoi":{"pivot":[135.497054,34.661384],"points":[0,0,632,1472,5417,3299,4523,-5179,-4014,-1715,-2990,149]}},
{"code":3200702,"station":"今宮戎","phonetic":"いまみやえびす","prefecture":27,"lon":135.501530,"lat":34.655137,"lines":[32007],"next":[9962308,9962902,1160720,3200101,9961811],"voronoi":{"pivot":[135.498973,34.652855],"points":[0,0,3960,-361,585,188,93,6578,-2990,149]}},
{"code":3200715,"station":"中百舌鳥","phonetic":"なかもず","prefecture":27,"lon":135.504454,"lat":34.556232,"lines":[32007,99616],"next":[3200716,9961820,1162611,9961602,3200714],"voronoi":{"pivot":[135.495825,34.550821],"points":[0,0,-795,-5901,6772,-1833,2107,3054,2205,18184]}},
{"code":9961820,"station":"なかもず","phonetic":"なかもず","prefecture":27,"lon":135.505790,"lat":34.556070,"lines":[99618],"next":[3200714,9961819,3200715,3200716],"voronoi":{"pivot":[135.503908,34.546140],"points":[0,0,2205,18184,336,526,7532,-6007]}},
{"code":3200716,"station":"白鷺","phonetic":"しらさぎ","prefecture":27,"lon":135.513148,"lat":34.550235,"lines":[32007],"next":[9961602,3200715,3200717,9961819,9961820],"voronoi":{"pivot":[135.503908,34.546140],"points":[0,0,-2107,-3054,10977,-8680,13751,23186,-12548,1251]}},
{"code":3200717,"station":"初芝","phonetic":"はつしば","prefecture":27,"lon":135.526491,"lat":34.542322,"lines":[32007],"next":[3100309,9961819,3200718,3100308,3200716,9961602],"voronoi":{"pivot":[135.512779,34.534406],"points":[0,0,13751,23186,5828,2697,3714,-1352,4648,-2782,-21950,-36335]}},
{"code":3200718,"station":"萩原天神","phonetic":"はぎはらてんじん","prefecture":27,"lon":135.535094,"lat":34.537125,"lines":[32007],"next":[9961602,3100311,3100310,3100309,3200717,3200719,9961603],"voronoi":{"pivot":[135.564460,34.544477],"points":[0,0,-2944,3041,-9186,5258,-11610,3380,-21950,-36335,5,-29,1178,-692]}},
{"code":3200719,"station":"北野田","phonetic":"きたのだ","prefecture":27,"lon":135.543177,"lat":34.522949,"lines":[32007],"next":[3200720,3200718,3100311,9961603],"voronoi":{"pivot":[135.571452,34.540393],"points":[0,0,-6992,4083,-44507,-25377,9778,-11954]}},
{"code":3200720,"station":"狭山","phonetic":"さやま","prefecture":27,"lon":135.548137,"lat":34.516725,"lines":[32007],"next":[3102202,3200719,3200721,3100312,3100311,9961603],"voronoi":{"pivot":[135.529731,34.507145],"points":[0,0,41721,33248,1607,-696,2753,-1824,912,-9090,-41738,-31427]}},
{"code":3200721,"station":"大阪狭山市","phonetic":"おおさかさやまし","prefecture":27,"lon":135.557234,"lat":34.504643,"lines":[32007],"next":[3102202,3200722,3200720,9961603,3102205,3102204],"voronoi":{"pivot":[135.577311,34.507162],"points":[0,0,-1216,-3216,-40704,-9050,-406,2460,41738,31427,2284,-6331]}},
{"code":3300302,"station":"宮之阪","phonetic":"みやのさか","prefecture":27,"lon":135.656630,"lat":34.813649,"lines":[33003],"next":[3300118,3300119,1161711,3300120,3300303],"voronoi":{"pivot":[135.649960,34.806351],"points":[0,0,4832,14975,19892,3409,4841,-1434,25,-1417]}},
{"code":3300303,"station":"星ヶ丘(大阪)","phonetic":"ほしがおか","prefecture":27,"lon":135.659755,"lat":34.807696,"lines":[33003],"next":[1161711,3300121,3300120,3300122,3300304,3300302],"voronoi":{"pivot":[135.680078,34.818530],"points":[0,0,-32215,-24518,-767,2284,1587,8406,1277,1649,29590,15533]}},
{"code":3300304,"station":"村野","phonetic":"むらの","prefecture":27,"lon":135.664221,"lat":34.801828,"lines":[33003],"next":[3300305,3300123,3300122,1161712,3300303,1161711],"voronoi":{"pivot":[135.680078,34.818530],"points":[0,0,-32215,-24518,211,-1760,3167,-6126,29939,22688,83,6104]}},
{"code":3300305,"station":"郡津","phonetic":"こうづ","prefecture":27,"lon":135.669868,"lat":34.794376,"lines":[33003],"next":[3300123,1161714,3300304,1161712,3300306],"voronoi":{"pivot":[135.681181,34.808814],"points":[0,0,-29939,-22688,429,-1709,9896,-2348,22055,16950]}},
{"code":3300306,"station":"交野市","phonetic":"かたのし","prefecture":27,"lon":135.675595,"lat":34.786924,"lines":[33003],"next":[1161712,1161713,3300305,1161714],"voronoi":{"pivot":[135.661567,34.782070],"points":[0,0,22055,16950,5918,-9154,-16950,-14631]}},
{"code":3300307,"station":"河内森","phonetic":"かわちもり","prefecture":27,"lon":135.685617,"lat":34.773860,"lines":[33003],"next":[3300308,1161713,1161714,1161712],"voronoi":{"pivot":[135.703554,34.782341],"points":[0,0,-29144,-11310,580,-1973,43332,6666]}},
{"code":3300308,"station":"私市","phonetic":"きさいち","prefecture":27,"lon":135.686569,"lat":34.767671,"lines":[33003],"next":[3300307,3102306,1161715,3102307,1161712,1161714],"voronoi":{"pivot":[135.674990,34.769058],"points":[0,0,43332,6666,15148,-5114,-29605,-25178,-22741,-14471,-5822,15916]}},
{"code":3400801,"station":"北千里","phonetic":"きたせんり","prefecture":27,"lon":135.511110,"lat":34.819870,"lines":[34008],"next":[9962703,9962705,3400704,9962704,9961401,3400802],"voronoi":{"pivot":[135.520993,34.825063],"points":[0,0,-15457,16430,-9911,3289,-4526,-13367,15025,-21494,14055,4119]}},
{"code":3400802,"station":"山田(大阪)","phonetic":"やまだ","prefecture":27,"lon":135.515692,"lat":34.804237,"lines":[34008,99626],"next":[3400803,9961401,9962607,3400801,9962703],"voronoi":{"pivot":[135.520178,34.814040],"points":[0,0,-14055,-4119,-1531,-7150,20876,-12158,-3684,21813]}},
{"code":3400803,"station":"南千里","phonetic":"みなみせんり","prefecture":27,"lon":135.508794,"lat":34.792393,"lines":[34008],"next":[9962607,3400804,3400802,9961402,9961401,1160211,1160210],"voronoi":{"pivot":[135.523808,34.781662],"points":[0,0,-170,-87,-21447,5291,1928,15505,474,399,20876,-12158,1512,-2267]}},