[{"code":1123131,"station":"白石(宮城)","phonetic":"しろいし","prefecture":4,"lon":140.626164,"lat":38.003581,"lines":[11231],"next":[1123129,1123130,1121716,1123132,1121616,5000231,1123128],"voronoi":{"pivot":[140.504323,38.002868],"points":[0,0,94696,-29225,46937,39791,-151556,120576,-12372,-7739,-43349,-84801,34141,-23701]}},
{"code":1123132,"station":"東白石","phonetic":"ひがししろいし","prefecture":4,"lon":140.651109,"lat":38.034935,"lines":[11231],"next":[1121714,1121712,1121716,1123131,1123133,5000231,1121709,1121715],"voronoi":{"pivot":[140.581195,38.172342],"points":[0,0,15568,1026,81960,-17264,-8625,-153765,-24141,11095,-151556,120576,32517,25615,6618,3418]}},
{"code":1123133,"station":"北白川","phonetic":"きたしらかわ","prefecture":4,"lon":140.692613,"lat":38.032607,"lines":[11231],"next":[9921319,1123134,9921316,1123132,1121709,9921320,9921321,5000231],"voronoi":{"pivot":[140.707534,37.971970],"points":[0,0,9393,10677,10173,15219,1434,3361,-48484,154825,-1328,53,-8625,-153765,18204,-29264]}},
{"code":1123134,"station":"大河原(宮城)","phonetic":"おおがわら","prefecture":4,"lon":140.740142,"lat":38.047491,"lines":[11231],"next":[1123133,9921321,1123135,1121709,9921322],"voronoi":{"pivot":[140.707295,38.160518],"points":[0,0,-27244,-4467,48484,-154825,21959,15615,11554,17431]}},
{"code":1123135,"station":"船岡(宮城)","phonetic":"ふなおか","prefecture":4,"lon":140.767366,"lat":38.059298,"lines":[11231],"next":[1123134,9921322,1121708,9921323,1121709,1123136],"voronoi":{"pivot":[140.744903,38.165444],"points":[0,0,-23172,-635,-14436,-4290,54753,-126246,9706,3729,14700,35872]}},
{"code":1123136,"station":"槻木","phonetic":"つきのき","prefecture":4,"lon":140.809992,"lat":38.078640,"lines":[11231,99213],"next":[9921801,1121708,1123027,9921323,1123137,1123135],"voronoi":{"pivot":[140.744903,38.165444],"points":[0,0,26346,6583,20625,-4207,45690,-73562,-11900,-48087,-39210,27703]}},
{"code":1123137,"station":"岩沼","phonetic":"いわぬま","prefecture":4,"lon":140.863783,"lat":38.112050,"lines":[11231,11230],"next":[9921801,1123027,1123136,1123139,9921704,1123138],"voronoi":{"pivot":[140.914187,38.078552],"points":[0,0,-76624,15706,-45690,73562,86,13,9912,-3084,99319,-52730]}},
{"code":1123138,"station":"館腰","phonetic":"たてこし","prefecture":4,"lon":140.880208,"lat":38.142987,"lines":[11231,11230],"next":[9921704,9921703,9921702,1123137,1123139],"voronoi":{"pivot":[140.801871,38.164749],"points":[0,0,99319,-52730,3159,26926,-2584,5768,-19105,13189]}},
{"code":1123139,"station":"名取","phonetic":"なとり","prefecture":4,"lon":140.882753,"lat":38.173017,"lines":[11231,11230,99217],"next":[9921702,9921801,1123137,1123140,1123138,9921417],"voronoi":{"pivot":[140.793411,38.168650],"points":[0,0,-1452,-818,9912,-3084,80789,-6847,15644,26959,-47222,1052]}},
{"code":1123140,"station":"南仙台","phonetic":"みなみせんだい","prefecture":4,"lon":140.883296,"lat":38.197384,"lines":[11231,11230],"next":[9921417,1123141,9921813,9921703,9921702,1123139],"voronoi":{"pivot":[140.851083,38.185912],"points":[0,0,27804,21366,47374,-336,2196,-3020,-14211,-12845,-15941,-6217]}},
{"code":1123141,"station":"太子堂","phonetic":"たいしどう","prefecture":4,"lon":140.883436,"lat":38.217110,"lines":[11231,11230],"next":[9921811,9921417,9921416,9921813,1123140,1123142],"voronoi":{"pivot":[140.925340,38.209105],"points":[0,0,920,-2162,-47374,336,-2417,10376,5506,5019,40749,-10727]}},
{"code":1123142,"station":"長町","phonetic":"ながまち","prefecture":4,"lon":140.885986,"lat":38.226797,"lines":[11231,11230,99214],"next":[9921811,9921416,9921810,9921414,1123141],"voronoi":{"pivot":[140.881975,38.222674],"points":[0,0,-2080,9088,30039,-5836,7689,-6791,5101,-7188]}},
{"code":1123143,"station":"仙台(JR)","phonetic":"せんだい","prefecture":4,"lon":140.882158,"lat":38.260027,"lines":[11231,11217,11222,11230,50022,50026],"next":[9921409,1121702,9921411,1122201,9921410,9921808],"voronoi":{"pivot":[140.882448,38.255823],"points":[0,0,-1181,165,-400,7082,914,4611,691,1508,5457,-1476]}},
{"code":1123144,"station":"東仙台","phonetic":"ひがしせんだい","prefecture":4,"lon":140.920204,"lat":38.276512,"lines":[11231,50026],"next":[1122207,9921403,1121702,1123145,1122206,1122205,9921404],"voronoi":{"pivot":[140.903799,38.289656],"points":[0,0,-171,-7642,9011,-8214,14452,-2480,4990,24882,-11275,15993,-15643,-19926]}},
{"code":1123145,"station":"岩切","phonetic":"いわきり","prefecture":4,"lon":140.954617,"lat":38.300773,"lines":[11231,50026],"next":[1122209,1123144,9921403,1123148,9921401,1122207,1123146,1122208,9921402],"voronoi":{"pivot":[140.920947,38.316266],"points":[0,0,-142,-4070,11275,-15993,13960,-9797,19325,2723,1017,483,746,15421,-38593,42635,-5058,-16674]}},
{"code":1123146,"station":"新利府","phonetic":"しんりふ","prefecture":4,"lon":140.972609,"lat":38.317059,"lines":[11231],"next":[1123147,1123149,1123145,9921401,1123148],"voronoi":{"pivot":[140.967128,38.305033],"points":[0,0,-38593,42635,1510,22698,57523,-55758,-1984,-2644]}},
{"code":1123147,"station":"利府","phonetic":"りふ","prefecture":4,"lon":140.984652,"lat":38.329483,"lines":[11231],"next":[1123149,1122214,1122215,1122105,1122104,1123146,1123152,9921401,1123150,1122216],"voronoi":{"pivot":[140.988628,38.406269],"points":[0,0,-35857,42437,-5429,-376,-21778,-4263,4482,-73702,57523,-55758,7622,2525,10421,13047,3778,12141,553,6647]}},
{"code":1123148,"station":"陸前山王","phonetic":"りくぜんさんのう","prefecture":4,"lon":140.979170,"lat":38.299586,"lines":[11231,50026],"next":[1122209,1122210,1123145,1123149,1123146],"voronoi":{"pivot":[140.967128,38.305033],"points":[0,0,-746,-15421,5918,-2617,15096,4873,-1812,20096]}},
{"code":1123149,"station":"国府多賀城","phonetic":"こくふたがじょう","prefecture":4,"lon":140.994110,"lat":38.300933,"lines":[11231,50026],"next":[1123147,1123146,1122211,1123150,1123148,1122210],"voronoi":{"pivot":[140.987397,38.291868],"points":[0,0,-1812,20096,1984,2644,7622,2525,8786,-15696,-10196,-12382]}},
{"code":1121702,"station":"東照宮","phonetic":"とうしょうぐう","prefecture":4,"lon":140.886820,"lat":38.277262,"lines":[11217],"next":[1123143,1122205,9921808,9921408,1123144,9921404,1122204,9921405,9921407,9921409,1122203,1121703],"voronoi":{"pivot":[140.877520,38.276172],"points":[0,0,1081,-3745,367,-519,3505,-2719,5457,-1476,1354,-70,7971,3005,2175,2474,4198,8892,171,7642,-15653,-2722,-9704,-7158]}},
{"code":1121703,"station":"北仙台","phonetic":"きたせんだい","prefecture":4,"lon":140.869885,"lat":38.281594,"lines":[11217,99214],"next":[9921407,9921405,1121704,1121702],"voronoi":{"pivot":[140.863778,38.298031],"points":[0,0,-4018,-20329,17760,-1530,922,3604]}},
{"code":1121704,"station":"北山(宮城)","phonetic":"きたやま","prefecture":4,"lon":140.851876,"lat":38.285154,"lines":[11217],"next":[9921407,1121722,1121703,9921804,9921401,9921402,9921803,9921405],"voronoi":{"pivot":[140.862912,38.304874],"points":[0,0,-4749,5504,-40732,30989,34980,-68624,1747,-133,2061,418,3540,4675,4018,20329]}},
{"code":1121722,"station":"東北福祉大前","phonetic":"とうほくふくしだいまえ","prefecture":4,"lon":140.842683,"lat":38.280468,"lines":[11217],"next":[1121704,1121705,9921401,9921803,1121707],"voronoi":{"pivot":[140.806301,38.351302],"points":[0,0,11131,-9935,34980,-68624,-9203,-3382,-33079,53432]}},
{"code":1121705,"station":"国見(宮城)","phonetic":"くにみ","prefecture":4,"lon":140.833500,"lat":38.274783,"lines":[11217],"next":[9921802,1121722,1121706,9921803,1121707],"voronoi":{"pivot":[140.828997,38.264411],"points":[0,0,10750,934,3462,4015,-33079,53432,393,-12196]}},
{"code":1121706,"station":"葛岡","phonetic":"くずおか","prefecture":4,"lon":140.818583,"lat":38.268816,"lines":[11217],"next":[1121707,1121705,9921802],"voronoi":{"pivot":[140.797073,38.226042],"points":[0,0,13450,84554,18474,-46185]}},
{"code":1121707,"station":"陸前落合","phonetic":"りくぜんおちあい","prefecture":4,"lon":140.789896,"lat":38.273379,"lines":[11217],"next":[1121706,9921401,1121708,9921802,9921801,1121722,1121705],"voronoi":{"pivot":[140.810130,38.322793],"points":[0,0,-3829,28509,-34152,62354,5658,-223643,16037,28076,3229,7954,13450,84554]}},
{"code":1121708,"station":"愛子","phonetic":"あやし","prefecture":4,"lon":140.761517,"lat":38.272661,"lines":[11217],"next":[1123136,1121710,9921401,1121707,9921801,1121709,1123135],"voronoi":{"pivot":[140.771248,38.172026],"points":[0,0,6558,17986,-5658,223643,-6298,14874,-28092,-89858,-16028,-173863,23172,635]}},
{"code":1121709,"station":"陸前白沢","phonetic":"りくぜんしらさわ","prefecture":4,"lon":140.702333,"lat":38.278117,"lines":[11217],"next":[1121712,1123134,1121710,1121708,1123132,1123133,1123135],"voronoi":{"pivot":[140.707295,38.160518],"points":[0,0,-27244,-4467,-1328,53,-81960,17264,16457,29020,124539,136283,-16028,-173863]}},
{"code":1121710,"station":"熊ケ根","phonetic":"くまがね","prefecture":4,"lon":140.680633,"lat":38.297947,"lines":[11217],"next":[1121708,1121712,1121709,1122106,9921401],"voronoi":{"pivot":[140.762148,38.457911],"points":[0,0,-33415,25608,-115514,-281130,124539,136283,28092,89858]}},
{"code":1121712,"station":"作並","phonetic":"さくなみ","prefecture":4,"lon":140.632467,"lat":38.317738,"lines":[11217],"next":[1121709,1121714,1123132,1122106,1122116,1121710],"voronoi":{"pivot":[140.694259,38.518320],"points":[0,0,-37830,3298,-75235,-349275,15568,1026,16457,29020,115514,281130]}},
{"code":1121714,"station":"奥新川","phonetic":"おくにっかわ","prefecture":4,"lon":140.594329,"lat":38.325953,"lines":[11217],"next":[1123132,1121629,1121712,1122117,1122118,1121715,1121630,1122116],"voronoi":{"pivot":[140.608094,38.530518],"points":[0,0,-7917,359,-5274,-530,-32432,-29621,-4682,-6441,-24254,-331242,47659,9299,75235,349275]}},
{"code":1122201,"station":"あおば通","phonetic":"あおばどおり","prefecture":4,"lon":140.878514,"lat":38.260749,"lines":[11222],"next":[9921410,9921411,9921409,1123143,9921806],"voronoi":{"pivot":[140.876211,38.255306],"points":[0,0,4657,7765,914,4611,-6336,-7921,729,-4465]}},
{"code":9921410,"station":"仙台(仙台市交通局)","phonetic":"せんだい","prefecture":4,"lon":140.879928,"lat":38.259901,"lines":[99214,99218],"next":[1122201,9921411,1123143],"voronoi":{"pivot":[140.876211,38.255306],"points":[0,0,4657,7765,400,-7082]}},
{"code":1122203,"station":"榴ヶ岡","phonetic":"つつじがおか","prefecture":4,"lon":140.893782,"lat":38.258792,"lines":[11222],"next":[9921808,9921809,9921810,1121702,1122204],"voronoi":{"pivot":[140.897255,38.270648],"points":[0,0,-7971,-3005,714,-12369,10052,-950,461,619]}},
{"code":1122204,"station":"宮城野原","phonetic":"みやぎのはら","prefecture":4,"lon":140.905155,"lat":38.261150,"lines":[11222],"next":[1122205,9921810,9921811,1121702,1122203],"voronoi":{"pivot":[140.897255,38.270648],"points":[0,0,2175,2474,14109,-15896,-780,-1271,-12248,-1012]}},
{"code":1122205,"station":"陸前原ノ町","phonetic":"りくぜんはらのまち","prefecture":4,"lon":140.910638,"lat":38.266017,"lines":[11222],"next":[9921811,1122204,1121702,1122206,1123144],"voronoi":{"pivot":[140.903627,38.282014],"points":[0,0,-4198,-8892,14109,-15896,3694,2599,-4594,13975]}},
{"code":1122206,"station":"苦竹","phonetic":"にがたけ","prefecture":4,"lon":140.918867,"lat":38.268722,"lines":[11222],"next":[9921812,9921811,1123144,1122205,1122207],"voronoi":{"pivot":[140.927090,38.271320],"points":[0,0,-14452,2480,4594,-13975,11335,1296,1131,1064]}},
{"code":1122207,"station":"小鶴新田","phonetic":"こづるしんでん","prefecture":4,"lon":140.935446,"lat":38.273455,"lines":[11222],"next":[1123144,9921812,1122206,1123145,1122208],"voronoi":{"pivot":[140.929698,38.262185],"points":[0,0,-2608,9135,4990,24882,13960,-9797,1600,-24133]}},
{"code":1122208,"station":"福田町","phonetic":"ふくだまち","prefecture":4,"lon":140.958252,"lat":38.274967,"lines":[11222],"next":[9921813,1122209,9921812,1123145,1122207],"voronoi":{"pivot":[140.948447,38.261510],"points":[0,0,11795,-3777,5124,31395,-19325,-2723,1600,-24133]}},
{"code":1122209,"station":"陸前高砂","phonetic":"りくぜんたかさご","prefecture":4,"lon":140.967607,"lat":38.273440,"lines":[11222],"next":[1123148,1123145,1122210,1122208,9921813],"voronoi":{"pivot":[140.960241,38.257733],"points":[0,0,5124,31395,1017,483,5918,-2617,21524,-51583]}},
{"code":1122210,"station":"中野栄","phonetic":"なかのさかえ","prefecture":4,"lon":140.985236,"lat":38.280796,"lines":[11222],"next":[1123148,1122209,9921813,1122211,1123149],"voronoi":{"pivot":[141.057953,38.170051],"points":[0,0,-64129,65361,-21524,51583,15096,4873,6384,-2813]}},
{"code":1123025,"station":"浜吉田","phonetic":"はまよしだ","prefecture":4,"lon":140.890083,"lat":38.002195,"lines":[11230],"next":[1123024,1123022,9921704,9921321,1123023,1123026],"voronoi":{"pivot":[140.833559,37.988729],"points":[0,0,122,-2683,184770,-5641,51352,7160,62979,18212,-201545,57718]}},
{"code":1123026,"station":"亘理","phonetic":"わたり","prefecture":4,"lon":140.861317,"lat":38.039776,"lines":[11230],"next":[9921322,9921321,9921323,9921704,1123025,1123027],"voronoi":{"pivot":[140.825719,38.045964],"points":[0,0,-2840,-19678,8873,-33954,1808,-3603,97678,74766,-8266,5719]}},
{"code":1123027,"station":"逢隈","phonetic":"おおくま","prefecture":4,"lon":140.854669,"lat":38.067584,"lines":[11230],"next":[1123137,1123136,9921704,9921323,1123026],"voronoi":{"pivot":[140.825719,38.045964],"points":[0,0,-55,206,11900,48087,76624,-15706,8784,-9337]}},
{"code":9921322,"station":"岡","phonetic":"おか","prefecture":4,"lon":140.782755,"lat":38.019246,"lines":[99213],"next":[9921323,1123026,9921321,1123135,1123134],"voronoi":{"pivot":[140.771754,38.038001],"points":[0,0,51125,-11715,8873,-33954,-81258,24509,11554,17431]}},
{"code":9921323,"station":"東船岡","phonetic":"ひがしふなおか","prefecture":4,"lon":140.789824,"lat":38.050095,"lines":[99213],"next":[9921322,1123136,1123027,1123026,1123135],"voronoi":{"pivot":[140.771754,38.038001],"points":[0,0,51125,-11715,2840,19678,-55,206,-39210,27703]}},
{"code":9921401,"station":"泉中央","phonetic":"いずみちゅうおう","prefecture":4,"lon":140.880796,"lat":38.323167,"lines":[99214],"next":[1122105,1121707,1122106,1121708,1121722,1123145,1121704,1123147,9921402,1123146,1121710],"voronoi":{"pivot":[140.762148,38.457911],"points":[0,0,136852,-7845,26563,-5998,4482,-73702,-1510,-22698,-5058,-16674,-65314,-20616,-40732,30989,-11131,9935,-34152,62354,-6298,14874]}},
{"code":9921402,"station":"八乙女","phonetic":"やおとめ","prefecture":4,"lon":140.884037,"lat":38.312899,"lines":[99214],"next":[9921405,9921404,9921403,1121704,9921401,1123145],"voronoi":{"pivot":[140.858164,38.310378],"points":[0,0,4749,-5504,684,-155,6567,-153,50784,11700,2530,14728]}},
{"code":9921403,"station":"黒松(宮城)","phonetic":"くろまつ","prefecture":4,"lon":140.886285,"lat":38.303142,"lines":[99214],"next":[1123144,1123145,9921402,9921404],"voronoi":{"pivot":[140.920806,38.312195],"points":[0,0,142,4070,-50784,-11700,34999,-12296]}},
{"code":9921404,"station":"旭ヶ丘(宮城)","phonetic":"あさひがおか","prefecture":4,"lon":140.883633,"lat":38.295593,"lines":[99214],"next":[9921402,1121702,1123144,9921405,9921403],"voronoi":{"pivot":[140.903799,38.289656],"points":[0,0,-15653,-2722,-24549,17784,6567,-153,34999,-12296]}},
{"code":9921405,"station":"台原","phonetic":"だいのはら","prefecture":4,"lon":140.878512,"lat":38.288524,"lines":[99214],"next":[9921402,1121703,1121702,9921404,1121704],"voronoi":{"pivot":[140.862912,38.304874],"points":[0,0,684,-155,24549,-17784,-9704,-7158,-14664,18255]}},
{"code":9921407,"station":"北四番丁","phonetic":"きたよばんちょう","prefecture":4,"lon":140.869070,"lat":38.272137,"lines":[99214],"next":[9921805,1121703,1121704,9921804,1121702,9921408],"voronoi":{"pivot":[140.877520,38.276172],"points":[0,0,-17760,1530,-3540,-4675,5702,-5776,1567,-580,15112,5756]}},
{"code":9921408,"station":"勾当台公園","phonetic":"こうとうだいこうえん","prefecture":4,"lon":140.871292,"lat":38.266304,"lines":[99214],"next":[9921409,9921806,1121702,9921407,9921805],"voronoi":{"pivot":[140.872359,38.263098],"points":[0,0,6608,8810,-367,519,-15112,-5756,4379,-4208]}},
{"code":9921409,"station":"広瀬通","phonetic":"ひろせどおり","prefecture":4,"lon":140.875736,"lat":38.262971,"lines":[99214],"next":[9921408,1123143,1122201,1121702,9921806],"voronoi":{"pivot":[140.872359,38.263098],"points":[0,0,6608,8810,3505,-2719,-691,-1508,-6336,-7921]}},
{"code":9921411,"station":"五橋","phonetic":"いつつばし","prefecture":4,"lon":140.881014,"lat":38.251861,"lines":[99214],"next":[1122201,1123143,9921410,9921809,9921808,9921805,9921806,9921412],"voronoi":{"pivot":[140.869003,38.246776],"points":[0,0,390,936,6781,7584,36,10,5057,683,1181,-165,4641,-3456,-97,-1570]}},
{"code":9921412,"station":"愛宕橋","phonetic":"あたごばし","prefecture":4,"lon":140.882036,"lat":38.247290,"lines":[99214],"next":[9921805,9921413,9921809,9921416,9921414,9921411],"voronoi":{"pivot":[140.888215,38.247270],"points":[0,0,-10106,-9269,-2698,-1096,-11080,2674,4672,7196,17989,4022]}},
{"code":9921413,"station":"河原町(宮城)","phonetic":"かわらまち","prefecture":4,"lon":140.887702,"lat":38.241112,"lines":[99214],"next":[9921412,9921810,9921809,9921414],"voronoi":{"pivot":[140.878109,38.238002],"points":[0,0,10106,9269,10359,-5547,2157,-4688]}},
{"code":9921414,"station":"長町一丁目","phonetic":"ながまちいっちょうめ","prefecture":4,"lon":140.887402,"lat":38.234085,"lines":[99214],"next":[9921412,9921810,1123142,9921413,9921416],"voronoi":{"pivot":[140.875411,38.236905],"points":[0,0,2698,1096,22622,-966,9203,-11110,-30039,5836]}},
{"code":9921416,"station":"長町南","phonetic":"ながまちみなみ","prefecture":4,"lon":140.876570,"lat":38.224642,"lines":[99214],"next":[9921801,9921417,9921412,1123142,1123141,9921805,9921414],"voronoi":{"pivot":[140.881975,38.222674],"points":[0,0,-5506,-5019,-19167,11095,5663,10335,1366,495,11080,-2674,4484,-5144]}},
{"code":9921417,"station":"富沢","phonetic":"とみざわ","prefecture":4,"lon":140.870460,"lat":38.214087,"lines":[99214],"next":[9921416,9921801,1123141,1123140,1123139],"voronoi":{"pivot":[140.793411,38.168650],"points":[0,0,63891,60099,19167,-11095,2417,-10376,-27804,-21366]}},
{"code":9921702,"station":"杜せきのした","phonetic":"もりせきのした","prefecture":4,"lon":140.895738,"lat":38.165482,"lines":[99217],"next":[1123139,9921703,1123138,1123140],"voronoi":{"pivot":[140.901765,38.144713],"points":[0,0,-19105,13189,15644,26959,15941,6217]}},
{"code":9921703,"station":"美田園","phonetic":"みたぞの","prefecture":4,"lon":140.917404,"lat":38.159650,"lines":[99217],"next":[9921813,1123138,9921702,1123140,9921704],"voronoi":{"pivot":[140.904349,38.138944],"points":[0,0,-2584,5768,12480,46365,14211,12845,60285,-22079]}},
{"code":9921704,"station":"仙台空港","phonetic":"せんだいくうこう","prefecture":4,"lon":140.928771,"lat":38.137289,"lines":[99217],"next":[1122211,1123138,1123025,9921813,1123027,1123026,1122222,1123137,1122223,9921703,1123022],"voronoi":{"pivot":[141.132783,38.005778],"points":[0,0,-201545,57718,-8266,5719,-8784,9337,-12997,33467,3159,26926,84392,42899,70157,-12939,163102,-80939,30850,-28089,59604,-56287]}},
{"code":9921801,"station":"八木山動物公園","phonetic":"やぎやまどうぶつこうえん","prefecture":4,"lon":140.843472,"lat":38.242778,"lines":[99218],"next":[9921804,1123137,1123136,9921416,9921417,9921803,1123139,1121708,9921805,1121707,9921802],"voronoi":{"pivot":[140.852859,38.249419],"points":[0,0,5196,-4025,4911,-6309,-5663,-10335,-63891,-60099,-1452,-818,-86,-13,-20625,4207,6558,17986,16037,28076,50778,34355]}},
{"code":9921802,"station":"青葉山","phonetic":"あおばやま","prefecture":4,"lon":140.835222,"lat":38.254972,"lines":[99218],"next":[1121705,9921803,1121707,9921801,1121706],"voronoi":{"pivot":[140.839746,38.265346],"points":[0,0,4875,-12902,-50778,-34355,3229,7954,31924,38369]}},
{"code":9921803,"station":"川内(宮城)","phonetic":"かわうち","prefecture":4,"lon":140.850000,"lat":38.260556,"lines":[99218],"next":[9921802,9921801,1121705,1121722,1121704,9921804],"voronoi":{"pivot":[140.852412,38.272743],"points":[0,0,-9203,-3382,-3462,-4015,4875,-12902,8237,-3025,1300,23191]}},
{"code":9921804,"station":"国際センター(宮城)","phonetic":"こくさいせんたー","prefecture":4,"lon":140.856944,"lat":38.260167,"lines":[99218],"next":[9921801,9921407,1121704,9921805,9921803],"voronoi":{"pivot":[140.852859,38.249419],"points":[0,0,5196,-4025,3867,21858,-5702,5776,-2061,-418]}},
{"code":9921805,"station":"大町西公園","phonetic":"おおまちにしこうえん","prefecture":4,"lon":140.864167,"lat":38.258889,"lines":[99218],"next":[9921412,9921407,9921416,9921801,9921411,9921408,9921806,9921804],"voronoi":{"pivot":[140.858055,38.245393],"points":[0,0,4911,-6309,1366,495,4672,7196,390,936,-1526,14752,-4379,4208,-1567,580]}},
{"code":9921806,"station":"青葉通一番町","phonetic":"あおばどおりいちばんちょう","prefecture":4,"lon":140.872222,"lat":38.259722,"lines":[99218],"next":[9921408,1122201,9921411,9921409,9921805],"voronoi":{"pivot":[140.867868,38.262463],"points":[0,0,4492,635,3086,-3338,729,-4465,-6781,-7584]}},
{"code":9921808,"station":"宮城野通","phonetic":"みやぎのどおり","prefecture":4,"lon":140.885833,"lat":38.258333,"lines":[99218],"next":[1122203,9921809,1121702,9921411,1123143],"voronoi":{"pivot":[140.889283,38.267643],"points":[0,0,714,-12369,-2908,-2907,-4641,3456,5481,11890]}},
{"code":9921809,"station":"連坊","phonetic":"れんぼう","prefecture":4,"lon":140.893056,"lat":38.251111,"lines":[99218],"next":[9921808,9921413,9921412,9921411,1122203,9921810],"voronoi":{"pivot":[140.898574,38.241723],"points":[0,0,-10359,5547,-1223,3527,97,1570,2908,2907,10052,-950]}},
{"code":9921810,"station":"薬師堂(宮城)","phonetic":"やくしどう","prefecture":4,"lon":140.906111,"lat":38.249583,"lines":[99218],"next":[9921413,1122204,9921811,1122203,9921809,9921414,1123142],"voronoi":{"pivot":[140.912759,38.255955],"points":[0,0,-12248,-1012,-461,-619,-1475,-12601,2157,-4688,9203,-11110,7689,-6791]}},
{"code":9921811,"station":"卸町(宮城)","phonetic":"おろしまち","prefecture":4,"lon":140.920833,"lat":38.251528,"lines":[99218],"next":[1122205,1123141,1122206,1123142,9921810,9921812,1122204,9921813],"voronoi":{"pivot":[140.925340,38.209105],"points":[0,0,-2616,2842,-5101,7188,-4865,36821,780,1271,3694,2599,11335,1296,-1729,-45773]}},
{"code":9921812,"station":"六丁の目","phonetic":"ろくちょうのめ","prefecture":4,"lon":140.935556,"lat":38.250972,"lines":[99218],"next":[1122206,9921811,1122207,1122208,9921813],"voronoi":{"pivot":[140.926839,38.215349],"points":[0,0,1729,45773,1131,1064,17942,87,806,-762]}},
{"code":9921813,"station":"荒井(宮城)","phonetic":"あらい","prefecture":4,"lon":140.948611,"lat":38.244861,"lines":[99218],"next":[9921703,1122208,9921704,1123141,1122211,1123140,1122210,9921812,9921811,1122209],"voronoi":{"pivot":[140.960241,38.257733],"points":[0,0,-11795,3777,-21608,-46162,-1498,-6244,920,-2162,2196,-3020,60285,-22079,70157,-12939,-945,1146,-64129,65361]}}
]