{
  "code":1006,
  "name":"上越新幹線(上越線)",
  "color":"#00B3E6",
  "station_list":[
    {"code":100508,"id":"61e081","name":"越後湯沢","name_kana":"えちごゆざわ","lat":36.935799,"lng":138.809227,"prefecture":15,"lines":[11342,1005,1006],"attr":"cool","postal_code":"949-6101","address":"南魚沼郡湯沢町大字湯沢","next":[1134218,100602,1140722,1134217,1133514,1140721,1133512,1140723,1134219],"voronoi":{"lat":36.860039,"lng":138.675968,"delta_lat":[0,-33804,-17695,-31370,-8499,-1709,103658,25111,69276],"delta_lng":[0,-12899,-5436,-7257,17919,6433,120140,16258,26721]}},
    {"code":100602,"id":"8efad8","name":"ガーラ湯沢","name_kana":"がーらゆざわ","lat":36.950795,"lng":138.799503,"prefecture":15,"lines":[1006],"attr":"cool","postal_code":"949-6101","address":"新潟県南魚沼郡湯沢町大字湯沢","next":[1134219,1140723,100508,1140726,1140724,1134221,1140725],"voronoi":{"lat":36.964962,"lng":138.709343,"delta_lat":[0,-1470,-103452,104968,220,14258,-13305],"delta_lng":[0,-667,-32709,161879,146,-114440,-13282]}}
  ],
  "north":36.95154,
  "south":36.93397,
  "east":138.81079,
  "west":138.79903,
  "polyline_list":[
    {
      "start":"越後湯沢",
      "end":"ガーラ湯沢",
      "lat":36.93397,
      "lng":138.81079,
      "delta_lat":[0,228,69,92,115,46,14,40,78,63,73,48,14,22,27,38,116,56,65,67,12,107,40,52,275],
      "delta_lng":[0,-201,-54,-80,-99,-26,-7,-24,-59,-58,-63,-49,-14,-27,-29,-42,-92,-29,-20,-21,-4,-49,-16,-20,-94]
    }
  ]
}