{
  "code":10105,
  "id":"55863d",
  "name":"興浜北線",
  "name_kana":"こうひんほくせん",
  "name_formal":"国鉄興浜北線",
  "station_size":9,
  "company_code":0,
  "closed":true,
  "station_list":[
    {"code":1112215,"id":"db2e33","name":"浜頓別","name_kana":"はまとんべつ","closed":true,"lat":45.124639,"lng":142.361111,"prefecture":1,"lines":[11122,10105],"postal_code":"098-5705","address":"北海道枝幸郡浜頓別町中央南１１","open_date":"1918-08-25","closed_date":"1989-05-01","next":[1112214,1010502,1112216],"voronoi":{"lat":45.117915,"lng":142.317676,"delta_lat":[0,-36387,134812],"delta_lng":[0,54036,9403]},"impl":false},
    {"code":1010502,"id":"a79522","name":"頓別","name_kana":"とんべつ","closed":true,"lat":45.12275,"lng":142.388194,"prefecture":1,"lines":[10105],"postal_code":"098-5701","address":"北海道枝幸郡浜頓別町字浜頓別","open_date":"1956-02-26","closed_date":"1985-07-01","next":[1112221,1112214,1112216,1112215,1010503],"voronoi":{"lat":45.064872,"lng":142.384837,"delta_lat":[0,16656,134812,231231,304197],"delta_lng":[0,-13126,9403,105318,263401]},"impl":false},
    {"code":1010503,"id":"1ebe33","name":"豊牛","name_kana":"とようし","closed":true,"lat":45.100044,"lng":142.430925,"prefecture":1,"lines":[10105],"postal_code":"098-5702","address":"北海道枝幸郡浜頓別町字豊寒別","open_date":"1936-07-10","closed_date":"1985-07-01","next":[1112214,1010502,1112221,1010504,1011722],"voronoi":{"lat":45.751767,"lng":142.749833,"delta_lat":[0,-686896,-40511,5861171,152398],"delta_lng":[0,-364996,9781,4543373,89138]},"impl":false},
    {"code":1010504,"id":"c70773","name":"豊浜(北海道)","original_name":"豊浜","name_kana":"とよはま","closed":true,"lat":45.078389,"lng":142.458861,"prefecture":1,"lines":[10105],"postal_code":"098-5703","address":"北海道枝幸郡浜頓別町字斜内","open_date":"1956-02-26","closed_date":"1985-07-01","next":[1010507,1010505,1011722,1112212,1112213,1010503,1112214],"voronoi":{"lat":45.004622,"lng":142.39851,"delta_lat":[0,-11465,715152,5089722,87500,-5861171,-585],"delta_lng":[0,4374,593699,3890512,50896,-4543373,15]},"impl":false},
    {"code":1010505,"id":"6e97a5","name":"斜内","name_kana":"しゃない","closed":true,"lat":45.063861,"lng":142.476361,"prefecture":1,"lines":[10105],"postal_code":"098-5703","address":"北海道枝幸郡浜頓別町字斜内","open_date":"1936-07-10","closed_date":"1985-07-01","next":[1010504,1010506,1010507,1112212,1112211,1112210],"voronoi":{"lat":44.964411,"lng":142.411042,"delta_lat":[0,12138,16608,715152,-511510,-240574],"delta_lng":[0,-3868,-4289,593699,-379979,-201562]},"impl":false},
    {"code":1010506,"id":"1600b5","name":"目梨泊","name_kana":"めなしどまり","closed":true,"lat":45.035444,"lng":142.510278,"prefecture":1,"lines":[10105],"postal_code":"098-5816","address":"北海道枝幸郡枝幸町目梨泊１６０７","open_date":"1936-07-10","closed_date":"1985-07-01","next":[1010505,1112210,1010508,1010507],"voronoi":{"lat":45.003709,"lng":142.504977,"delta_lat":[0,-56189,8705,240574],"delta_lng":[0,-87478,-2457,201562]},"impl":false},
    {"code":1010507,"id":"0e6e0b","name":"山臼","name_kana":"やまうす","closed":true,"lat":45.024139,"lng":142.529833,"prefecture":1,"lines":[10105],"postal_code":"098-5816","address":"北海道枝幸郡枝幸町目梨泊","open_date":"1956-02-26","closed_date":"1985-07-01","next":[1010504,1010406,1010509,1112120,1011722,1010505,1010403,1010508,1010506],"voronoi":{"lat":45.708309,"lng":142.996583,"delta_lat":[0,5089722,-4121043,-772465,-39569,-390381,-440122,-30742,193090],"delta_lng":[0,3890512,-2363156,-653082,-37946,-400242,-785066,-142626,111627]},"impl":false},
    {"code":1010508,"id":"9e450f","name":"問牧","name_kana":"といまき","closed":true,"lat":44.995333,"lng":142.536042,"prefecture":1,"lines":[10105],"postal_code":"098-5815","address":"北海道枝幸郡枝幸町問牧１０３６","open_date":"1936-07-10","closed_date":"1985-07-01","next":[1112210,1010509,1112203,1010507,1010506],"voronoi":{"lat":44.947521,"lng":142.417499,"delta_lat":[0,-36215,-28993,152139,-30742],"delta_lng":[0,3175,20837,206092,-142626]},"impl":false},
    {"code":1010509,"id":"22153e","name":"北見枝幸","name_kana":"きたみえさし","closed":true,"lat":44.939361,"lng":142.577361,"prefecture":1,"lines":[10105],"postal_code":"098-5823","address":"北海道枝幸郡枝幸町三笠町１４８３","open_date":"1936-07-10","closed_date":"1985-07-01","next":[1010406,1010507,1010508,1112203,1011404],"voronoi":{"lat":45.474573,"lng":143.43267,"delta_lat":[0,-440122,-152139,-137339,-5274],"delta_lng":[0,-785066,-206092,55623,251361]},"impl":false}
  ],
  "closed_date":"1985-07-01",
  "impl":false
}