{
  "code":10108,
  "id":"3aa3ce",
  "name":"渚滑線",
  "name_kana":"しょこつせん",
  "name_formal":"国鉄渚滑線",
  "station_size":12,
  "company_code":0,
  "closed":true,
  "station_list":[
    {"code":1112122,"id":"3cfec7","name":"渚滑","name_kana":"しょこつ","closed":true,"lat":44.372833,"lng":143.3195,"prefecture":1,"lines":[11121,10108],"postal_code":"099-5171","address":"北海道紋別市渚滑町４丁目１３０","open_date":"1921-03-25","closed_date":"1989-05-01","next":[1112120,1010802,1112124,1010803,1010804,1112123,1112121],"voronoi":{"lat":44.614247,"lng":143.413586,"delta_lat":[0,-259159,-14177,4386,3540,47441,186508],"delta_lng":[0,-82479,-8764,-8350,-3046,-23860,105379]},"impl":false},
    {"code":1010802,"id":"5a776c","name":"元西","name_kana":"もとにし","closed":true,"lat":44.356278,"lng":143.286583,"prefecture":1,"lines":[10108],"postal_code":"099-5173","address":"北海道紋別市渚滑町元西３７３","open_date":"1956-05-01","closed_date":"1985-04-01","next":[1112122,1010803,1112121],"voronoi":{"lat":44.348838,"lng":143.310946,"delta_lat":[0,4642,42799],"delta_lng":[0,-89484,65624]},"impl":false},
    {"code":1010803,"id":"f3e516","name":"下渚滑","name_kana":"しもしょこつ","closed":true,"lat":44.343958,"lng":143.285944,"prefecture":1,"lines":[10108],"postal_code":"099-5351","address":"北海道紋別市上渚滑町下渚滑１３","open_date":"1923-11-05","closed_date":"1985-04-01","next":[1010805,1010809,1010804,1010802,1112121,1112122,1010807,1010806],"voronoi":{"lat":44.307871,"lng":143.23113,"delta_lat":[0,37426,3540,4642,-26373,-13800,-6217,224],"delta_lng":[0,82862,-3046,-89484,-50270,16977,26834,14072]},"impl":false},
    {"code":1010804,"id":"902ae9","name":"十六号線","name_kana":"じゅうろくごうせん","closed":true,"lat":44.325139,"lng":143.294444,"prefecture":1,"lines":[10108],"postal_code":"099-5351","address":"北海道紋別市上渚滑町下渚滑２０５−１","open_date":"1955-12-25","closed_date":"1985-04-01","next":[1112124,1010803,1010805,1112122],"voronoi":{"lat":44.3188,"lng":143.332876,"delta_lat":[0,-10929,37426,-4386],"delta_lng":[0,-101745,82862,8350]},"impl":false},
    {"code":1010805,"id":"218ce9","name":"中渚滑","name_kana":"なかしょこつ","closed":true,"lat":44.304444,"lng":143.296667,"prefecture":1,"lines":[10108],"postal_code":"099-5352","address":"北海道紋別市上渚滑町中渚滑","open_date":"1923-11-05","closed_date":"1985-04-01","next":[1010803,1010806,1112125,1010804,1112124],"voronoi":{"lat":44.272181,"lng":143.346173,"delta_lat":[0,35132,558,10929,-4682],"delta_lng":[0,-117098,2055,101745,4066]},"impl":false},
    {"code":1010806,"id":"0f2024","name":"上東","name_kana":"じょうとう","closed":true,"lat":44.2725,"lng":143.287083,"prefecture":1,"lines":[10108],"postal_code":"099-5353","address":"北海道紋別市上渚滑町上東","open_date":"1955-12-25","closed_date":"1985-04-01","next":[1112126,1010807,1010805,1010803,1112125],"voronoi":{"lat":44.178482,"lng":143.370495,"delta_lat":[0,128607,224,-35132,-25771],"delta_lng":[0,-155492,14072,117098,14171]},"impl":false},
    {"code":1010807,"id":"d85605","name":"上渚滑","name_kana":"かみしょこつ","closed":true,"lat":44.242778,"lng":143.2625,"prefecture":1,"lines":[10108],"postal_code":"099-5354","address":"北海道紋別市上渚滑町１１丁目３６","open_date":"1923-11-05","closed_date":"1985-04-01","next":[1112126,1010806,1112127,1010808,1112128,1010803,1010809,1111621,1111622],"voronoi":{"lat":44.147906,"lng":143.374421,"delta_lat":[0,-13283,168152,10532,-6217,-128607,-4585,-20265,-4817],"delta_lng":[0,-42832,-139494,-3926,26834,155492,1430,3451,389]},"impl":false},
    {"code":1010808,"id":"2730f1","name":"奥東","name_kana":"おくとう","closed":true,"lat":44.2225,"lng":143.238056,"prefecture":1,"lines":[10108],"postal_code":"099-5362","address":"北海道紋別市上渚滑町奥東１０９","open_date":"1955-12-25","closed_date":"1985-04-01","next":[1111621,1010807,1010809],"voronoi":{"lat":44.134623,"lng":143.331589,"delta_lat":[0,168152,-213266],"delta_lng":[0,-139494,39748]},"impl":false},
    {"code":1010809,"id":"bb5e20","name":"滝ノ下","name_kana":"たきのした","closed":true,"lat":44.211333,"lng":143.178139,"prefecture":1,"lines":[10108],"postal_code":"099-5552","address":"北海道紋別郡滝上町滝下１０６９−２","open_date":"1923-11-05","closed_date":"1985-04-01","next":[1112114,1010803,1010810,1112121,1112119,1010807,1010811,1010808,1112116,1111621],"voronoi":{"lat":44.076113,"lng":143.214428,"delta_lat":[0,232852,8930,9462,6009,197,-6456,-13800,-10532,-213266],"delta_lng":[0,-99965,-2458,10882,15005,15349,17951,16977,3926,39748]},"impl":false},
    {"code":1010810,"id":"5e6e11","name":"雄鎮内","name_kana":"ゆうちんない","closed":true,"lat":44.195556,"lng":143.141389,"prefecture":1,"lines":[10108],"postal_code":"099-5544","address":"北海道紋別郡滝上町雄鎮内３８３−１０","open_date":"1955-12-25","closed_date":"1985-04-01","next":[1010809,1111619,1111621,1111620,1010811],"voronoi":{"lat":44.308964,"lng":143.114464,"delta_lat":[0,-232852,-6289,-15290,-13655],"delta_lng":[0,99965,-6120,-28492,-39481]},"impl":false},
    {"code":1010811,"id":"ddd012","name":"濁川","name_kana":"にごりかわ","closed":true,"lat":44.1925,"lng":143.109722,"prefecture":1,"lines":[10108],"postal_code":"099-5541","address":"北海道紋別郡滝上町濁川中央２４１７−２","open_date":"1924-10-21","closed_date":"1985-04-01","next":[1111617,1010812,1112114,1010809,1111619,1010810],"voronoi":{"lat":44.308964,"lng":143.114464,"delta_lat":[0,8930,-8222,-279784,4553,6437],"delta_lng":[0,-2458,-17982,-8993,41488,13817]},"impl":false},
    {"code":1010812,"id":"a87225","name":"北見滝ノ上","name_kana":"きたみたきのうえ","closed":true,"lat":44.19375,"lng":143.070833,"prefecture":1,"lines":[10108],"postal_code":"099-5605","address":"北海道紋別郡滝上町字サクルー原野","open_date":"1923-11-05","closed_date":"1985-04-01","next":[1112114,1111616,1112109,1112112,1010811,1112110,1112111,1111617],"voronoi":{"lat":43.997563,"lng":142.945633,"delta_lat":[0,85889,26290,46502,128331,14926,10172,-279784],"delta_lng":[0,-97560,10930,33639,140604,23079,37699,-8993]},"impl":false}
  ],
  "closed_date":"1985-04-01",
  "impl":false
}