{
  "code":10106,
  "id":"3bb173",
  "name":"根北線",
  "name_kana":"こんぽくせん",
  "name_formal":"国鉄根北線",
  "station_size":7,
  "company_code":0,
  "closed":true,
  "station_list":[
    {"code":1111709,"id":"e4a553","name":"知床斜里","name_kana":"しれとこしゃり","lat":43.910749,"lng":144.661647,"prefecture":1,"lines":[11117,10106],"attr":"cool","postal_code":"099-4112","address":"斜里郡斜里町港町","next":[1111711,1010605,1112313,1010607,1010606,1112221,1111702,1111710,1010604,1011722,1111708,1010602],"voronoi":{"lat":45.319094,"lng":145.499421,"delta_lat":[0,70558,273238,27893841,35016648,-57502708,-6110036,-352838,-682869,-30783,-2887,1300320],"delta_lng":[0,38917,148989,15024288,18603331,-32267706,-2307358,-96438,-52042,48665,39921,748265]},"impl":true},
    {"code":1010602,"id":"2e49fa","name":"以久科","name_kana":"いくしな","closed":true,"lat":43.885194,"lng":144.706056,"prefecture":1,"lines":[10106],"postal_code":"099-4127","address":"北海道斜里郡斜里町字以久科南２５","open_date":"1957-11-10","closed_date":"1970-12-01","next":[1111710,1010604,1010603,1111709],"voronoi":{"lat":43.891257,"lng":144.679988,"delta_lat":[0,-47215,951806,395729],"delta_lng":[0,10630,525598,212037]},"impl":false},
    {"code":1010603,"id":"2b457e","name":"西二線","name_kana":"にしにせん","closed":true,"lat":43.879028,"lng":144.717222,"prefecture":1,"lines":[10106],"postal_code":"099-4127","address":"北海道斜里郡斜里町字以久科南","closed_date":"1970-12-01","next":[1010602,1010604,1111710],"voronoi":{"lat":43.844042,"lng":144.690617,"delta_lat":[0,951806,-990006],"delta_lng":[0,525598,-522697]},"impl":false},
    {"code":1010604,"id":"686a33","name":"下越川","name_kana":"しもこしかわ","closed":true,"lat":43.866694,"lng":144.740583,"prefecture":1,"lines":[10106],"postal_code":"099-4131","address":"北海道斜里郡斜里町字越川","open_date":"1957-11-10","closed_date":"1970-12-01","next":[1010602,1010605,1111709,1010603,1111710],"voronoi":{"lat":44.795848,"lng":145.216216,"delta_lat":[0,395729,127516,-1572650,59399],"delta_lng":[0,212037,71168,-811666,5764]},"impl":false},
    {"code":1010605,"id":"2670cd","name":"十四号","name_kana":"じゅうよんごう","closed":true,"lat":43.859167,"lng":144.755167,"prefecture":1,"lines":[10106],"postal_code":"099-4131","address":"北海道斜里郡斜里町字越川","closed_date":"1970-12-01","next":[1111709,1010604,1111710,1010606,1111712],"voronoi":{"lat":43.745778,"lng":144.687647,"delta_lat":[0,665,1572650,70558,-1674702],"delta_lng":[0,107,811666,38917,-846778]},"impl":false},
    {"code":1010606,"id":"1854bd","name":"十六号","name_kana":"じゅうろくごう","closed":true,"lat":43.851667,"lng":144.77,"prefecture":1,"lines":[10106],"postal_code":"099-4131","address":"北海道斜里郡斜里町字越川","closed_date":"1970-12-01","next":[1111709,1111712,1010605,1010607],"voronoi":{"lat":43.677041,"lng":144.694349,"delta_lat":[0,37909,1674702,273238],"delta_lng":[0,-2790,846778,148989]},"impl":false},
    {"code":1010607,"id":"5c7206","name":"越川","name_kana":"こしかわ","closed":true,"lat":43.842333,"lng":144.788667,"prefecture":1,"lines":[10106],"postal_code":"099-4131","address":"北海道斜里郡斜里町字越川","open_date":"1957-11-10","closed_date":"1970-12-01","next":[1111714,1111709,1112311,1112308,1111712,1112312,1112313,1112307,1010606],"voronoi":{"lat":43.677041,"lng":144.694349,"delta_lat":[0,-4832,-13834,6215,10625,46758,223463,29611295,-27893841],"delta_lng":[0,90,6060,85162,49256,50203,176025,15650469,-15024288]},"impl":false}
  ],
  "closed_date":"1970-12-01",
  "impl":false
}