{
  "code":10103,
  "id":"22bef0",
  "name":"岩内線",
  "name_kana":"いわないせん",
  "name_formal":"国鉄岩内線",
  "station_size":6,
  "company_code":0,
  "closed":true,
  "station_list":[
    {"code":1110212,"id":"f6aa1e","name":"小沢","name_kana":"こざわ","lat":42.97185,"lng":140.677657,"prefecture":1,"lines":[11102,10103],"attr":"heat","postal_code":"048-2142","address":"岩内郡共和町小沢","next":[1010221,1110210,1110211,1110213,1110209,1010302],"voronoi":{"lat":42.888558,"lng":140.640175,"delta_lat":[0,29,12216,72475,3030,40268],"delta_lng":[0,676,33500,75035,2206,-73813]},"impl":true},
    {"code":1010302,"id":"d17f1b","name":"国富","name_kana":"くにとみ","closed":true,"lat":42.978889,"lng":140.653694,"prefecture":1,"lines":[10103],"postal_code":"048-2143","address":"北海道岩内郡共和町国富６３−５","open_date":"1913-09-21","closed_date":"1985-07-01","next":[1110208,1010303,1110212,1110213,1110209],"voronoi":{"lat":43.016576,"lng":140.67778,"delta_lat":[0,33914,-160629,-3113,1810],"delta_lng":[0,-34118,-23236,9780,9970]},"impl":false},
    {"code":1010303,"id":"88730b","name":"幌似","name_kana":"ほろに","closed":true,"lat":42.984667,"lng":140.61375,"prefecture":1,"lines":[10103],"postal_code":"045-0121","address":"北海道岩内郡共和町幌似９６−７","open_date":"1919-12-05","closed_date":"1985-07-01","next":[1110208,1010304,1010302,1110213],"voronoi":{"lat":43.100879,"lng":140.61577,"delta_lat":[0,-207094,-3925,160629],"delta_lng":[0,-36871,41527,23236]},"impl":false},
    {"code":1010304,"id":"8ea4ea","name":"前田","name_kana":"まえだ","closed":true,"lat":42.991111,"lng":140.577556,"prefecture":1,"lines":[10103],"postal_code":"048-2201","address":"北海道岩内郡共和町前田１１−２","open_date":"1912-11-01","closed_date":"1985-07-01","next":[1110208,1010306,1010303,1110214,1110207,1110213,1010305],"voronoi":{"lat":42.958493,"lng":140.550583,"delta_lat":[0,-62018,-3402,712,207094,12027,19449],"delta_lng":[0,7851,13054,7411,36871,-4345,-16373]},"impl":false},
    {"code":1010305,"id":"b772eb","name":"西前田(北海道)","original_name":"西前田","name_kana":"にしまえだ","closed":true,"lat":43.000056,"lng":140.542583,"prefecture":1,"lines":[10103],"postal_code":"045-0031","address":"北海道岩内郡共和町梨野舞納１９","open_date":"1963-10-01","closed_date":"1985-07-01","next":[1010306,1010304,1110216,1111551,1110214],"voronoi":{"lat":43.601837,"lng":140.292432,"delta_lat":[0,1446785,587,-2090715,173862],"delta_lng":[0,-1070309,-1235,1329695,44469]},"impl":false},
    {"code":1010306,"id":"94ccac","name":"岩内","name_kana":"いわない","closed":true,"lat":42.983361,"lng":140.516333,"prefecture":1,"lines":[10103],"postal_code":"045-0003","address":"北海道岩内郡岩内町字万代４７-４","open_date":"1912-11-01","closed_date":"1985-07-01","next":[1010305,1010304,1111551,9911105,1110207,9911103,1110206],"voronoi":{"lat":42.901144,"lng":140.364929,"delta_lat":[0,4384,2355788,-212108,-2090715,-62018,-9317],"delta_lng":[0,-4383,-1578353,438695,1329695,7851,-132152]},"impl":false}
  ],
  "closed_date":"1985-07-01",
  "impl":false
}