{
  "code":10109,
  "id":"acad3d",
  "name":"白糠線",
  "name_kana":"しらぬかせん",
  "name_formal":"国鉄白糠線",
  "station_size":8,
  "company_code":0,
  "closed":true,
  "station_list":[
    {"code":1110725,"id":"0fc1f4","name":"白糠","name_kana":"しらぬか","lat":42.956161,"lng":144.076879,"prefecture":1,"lines":[11107,10109],"attr":"heat","postal_code":"088-0301","address":"白糠郡白糠町東１条南１丁目","next":[1110726,1110723,1110731,1110722,1010902,1110724],"voronoi":{"lat":42.960204,"lng":144.041744,"delta_lat":[0,41664,-515507,-201428,151414,365165],"delta_lng":[0,48132,194502,22726,-76343,-169803]},"impl":true},
    {"code":1010902,"id":"d81770","name":"上白糠","name_kana":"かみしらぬか","closed":true,"lat":42.995556,"lng":144.042778,"prefecture":1,"lines":[10109],"postal_code":"088-0341","address":"北海道白糠郡白糠町茶路基線","open_date":"1964-10-07","closed_date":"1983-10-23","next":[1010903,1110725,1110726,1110724,9911910],"voronoi":{"lat":43.001868,"lng":144.089876,"delta_lat":[0,-41664,26051,64997,-6100],"delta_lng":[0,-48132,-36318,85672,8434]},"impl":false},
    {"code":1010903,"id":"9a6f4c","name":"共栄(国鉄)","original_name":"共栄","name_kana":"きょうえい","closed":true,"lat":43.019722,"lng":144.024444,"prefecture":1,"lines":[10109],"postal_code":"088-0342","address":"北海道白糠郡白糠町茶路基線","open_date":"1974-07-25","closed_date":"1983-10-23","next":[1110724,1010904,1010905,1010902,9911910],"voronoi":{"lat":43.056147,"lng":144.086651,"delta_lat":[0,-57233,-144,-12514,64997],"delta_lng":[0,-137787,-131,56693,85672]},"impl":false},
    {"code":1010904,"id":"6e47f1","name":"茶路","name_kana":"ちゃろ","closed":true,"lat":43.037778,"lng":144.016944,"prefecture":1,"lines":[10109],"postal_code":"088-0300","address":"北海道白糠郡白糠町茶路基線１１７","open_date":"1964-10-07","closed_date":"1983-10-23","next":[1010905,9911910,9911911,9911913,1010903],"voronoi":{"lat":42.998913,"lng":143.948863,"delta_lat":[0,121839,-820,-6559,-57227],"delta_lng":[0,85784,1902,10829,39272]},"impl":false},
    {"code":1010905,"id":"f5746c","name":"縫別","name_kana":"ぬいべつ","closed":true,"lat":43.076111,"lng":143.9625,"prefecture":1,"lines":[10109],"postal_code":"088-0343","address":"北海道白糠郡白糠町茶路基線","open_date":"1964-10-07","closed_date":"1983-10-23","next":[1010906,1010904,1110723,1010908,1010903,9911913,1110724,9911914,9912003],"voronoi":{"lat":42.993728,"lng":143.897452,"delta_lat":[0,140389,32795,-323,-45836,-121839,-144,-11347,1715],"delta_lng":[0,51925,41267,400,43604,-85784,-131,-31568,-10678]},"impl":false},
    {"code":1010906,"id":"3e5917","name":"上茶路","name_kana":"かみちゃろ","closed":true,"lat":43.098611,"lng":143.901667,"prefecture":1,"lines":[10109],"postal_code":"088-0343","address":"北海道白糠郡白糠町上茶路西１線７２−３","open_date":"1964-10-07","closed_date":"1983-10-23","next":[1010905,9912006,1010908,9912003,9910908,1010907,9912004],"voronoi":{"lat":42.993728,"lng":143.897452,"delta_lat":[0,140389,-2934,-73698,-3929,-32929,-24942],"delta_lng":[0,51925,-30873,-166100,-372,63723,69251]},"impl":false},
    {"code":1010907,"id":"4b57cb","name":"下北進","name_kana":"しもほくしん","closed":true,"lat":43.140556,"lng":143.883056,"prefecture":1,"lines":[10109],"postal_code":"088-0344","address":"北海道白糠郡白糠町上茶路基線","open_date":"1972-09-08","closed_date":"1983-10-23","next":[1010908,9910908,9910909,9910916,1010906],"voronoi":{"lat":43.057484,"lng":143.752403,"delta_lat":[0,156016,24494,3167,-109979],"delta_lng":[0,-8487,3264,3959,167364]},"impl":false},
    {"code":1010908,"id":"dbc26c","name":"北進","name_kana":"ほくしん","closed":true,"lat":43.16,"lng":143.895833,"prefecture":1,"lines":[10109],"postal_code":"088-0344","address":"北海道白糠郡白糠町上茶路基線","open_date":"1972-09-08","closed_date":"1983-10-23","next":[9910918,1010907,1010906,9911914,1010905,9910916,1010114,9910917],"voronoi":{"lat":43.358797,"lng":143.909506,"delta_lat":[0,-5464,-186422,-32795,-2934,109979,30791,84326],"delta_lng":[0,24627,56511,-41267,-30873,-167364,33390,119926]},"impl":false}
  ],
  "closed_date":"1983-10-23",
  "impl":false
}