{
  "code":10102,
  "id":"458cfe",
  "name":"胆振線",
  "name_kana":"いぶりせん",
  "name_formal":"国鉄胆振線",
  "station_size":22,
  "company_code":0,
  "closed":true,
  "station_list":[
    {"code":1110410,"id":"2fed5c","name":"伊達紋別","name_kana":"だてもんべつ","lat":42.469395,"lng":140.855802,"prefecture":1,"lines":[11104,10102],"attr":"eco","postal_code":"052-0032","address":"伊達市山下町","next":[1110411,1110413,1110409,1010202,1110119],"voronoi":{"lat":42.381245,"lng":140.807306,"delta_lat":[0,109319,51,-166291,-1101],"delta_lng":[0,84332,-36746,-142487,2302]},"impl":true},
    {"code":1010202,"id":"dae925","name":"上長和","name_kana":"かみながわ","closed":true,"lat":42.511833,"lng":140.855861,"prefecture":1,"lines":[10102],"postal_code":"052-0036","address":"北海道伊達市上長和町３９９−１９","open_date":"1940-12-15","closed_date":"1986-11-01","next":[1110411,1110409,1110408,1110410,1010203],"voronoi":{"lat":42.564921,"lng":140.826128,"delta_lat":[0,-46357,-27948,-51,9249],"delta_lng":[0,-1074,29838,36746,23241]},"impl":false},
    {"code":1010203,"id":"186471","name":"壮瞥","name_kana":"そうべつ","closed":true,"lat":42.5525,"lng":140.885694,"prefecture":1,"lines":[10102],"postal_code":"052-0101","address":"北海道有珠郡壮瞥町字滝之町２８７−７","open_date":"1940-12-15","closed_date":"1986-11-01","next":[1110407,1010204,1010213,1110408,1110411,1010202,1010211],"voronoi":{"lat":42.681968,"lng":140.874044,"delta_lat":[0,1159,-114523,-3684,-65107,-1699,182466],"delta_lng":[0,-51325,1834,1576,88751,31882,-69366]},"impl":false},
    {"code":1010204,"id":"677108","name":"久保内","name_kana":"くぼない","closed":true,"lat":42.579333,"lng":140.956278,"prefecture":1,"lines":[10102],"postal_code":"052-0112","address":"北海道有珠郡壮瞥町字久保内８９−６","open_date":"1940-12-15","closed_date":"1986-11-01","next":[1010203,1110412,1010205,1010206,1110411,1010211,1010210],"voronoi":{"lat":42.676626,"lng":140.919355,"delta_lat":[0,3955,-182466,-7734,-15120,127658,63255],"delta_lng":[0,-41959,69366,13104,40475,-10646,-41195]},"impl":false},
    {"code":1010205,"id":"8c6d23","name":"蟠渓","name_kana":"ばんけい","closed":true,"lat":42.585194,"lng":141.026556,"prefecture":1,"lines":[10102],"postal_code":"052-0113","address":"北海道有珠郡壮瞥町字蟠溪１８−１１","open_date":"1940-12-15","closed_date":"1986-11-01","next":[1110412,1010207,1110415,1010204,1010206,1110423,1110422,1010208,1110424],"voronoi":{"lat":42.580493,"lng":141.133189,"delta_lat":[0,25554,-3129,-127658,-4009,-673,33533,41843,25020],"delta_lng":[0,-75296,-68198,10646,5010,3110,72855,45990,21575]},"impl":false},
    {"code":1010206,"id":"f38ba9","name":"北湯沢","name_kana":"きたゆざわ","closed":true,"lat":42.623944,"lng":141.024778,"prefecture":1,"lines":[10102],"postal_code":"052-0316","address":"北海道伊達市大滝区北湯沢温泉町３００","open_date":"1940-12-15","closed_date":"1986-11-01","next":[1010205,1010210,1010204,1010207],"voronoi":{"lat":42.673711,"lng":141.000635,"delta_lat":[0,-7537,-63255,3129],"delta_lng":[0,-52136,41195,68198]},"impl":false},
    {"code":1010207,"id":"f02d75","name":"優徳","name_kana":"ゆうとく","closed":true,"lat":42.641667,"lng":141.045722,"prefecture":1,"lines":[10102],"postal_code":"052-0317","address":"北海道伊達市大滝区優徳町８６−１７","open_date":"1940-12-15","closed_date":"1986-11-01","next":[1010205,1010210,1010208,1010209,1010206],"voronoi":{"lat":42.580493,"lng":141.133189,"delta_lat":[0,98182,1285,-6250,-67663],"delta_lng":[0,-90086,-27444,-15023,57257]},"impl":false},
    {"code":1010208,"id":"27d8fd","name":"新大滝","name_kana":"しんおおたき","closed":true,"lat":42.672889,"lng":141.07975,"prefecture":1,"lines":[10102],"postal_code":"052-0301","address":"北海道伊達市大滝区本町１０３−１９","open_date":"1940-12-15","closed_date":"1986-11-01","next":[1110425,1110424,1110429,1010207,1110426,1110427,1110428,1010205,1010209,9911014],"voronoi":{"lat":42.792274,"lng":141.200554,"delta_lat":[0,-113598,-98182,-9519,2947,10797,29829,24357,38167,71939],"delta_lng":[0,-157451,90086,15692,6431,16609,29730,19322,25592,30323]},"impl":false},
    {"code":1010209,"id":"5f6d8d","name":"尾路遠","name_kana":"おろえん","closed":true,"lat":42.715278,"lng":141.049167,"prefecture":1,"lines":[10102],"postal_code":"044-0442","address":"北海道伊達市大滝区宮城町清原喜茂別線","open_date":"1941-10-12","next":[1010216,9911015,9911020,9911014,1010210,1010211,1010207,1010208],"voronoi":{"lat":42.678676,"lng":141.043103,"delta_lat":[0,1285,132203,24198,9860,-44020,-4267,-5661],"delta_lng":[0,-27444,43539,16064,16246,96049,5853,7144]},"impl":false},
    {"code":1010210,"id":"3b9442","name":"御園","name_kana":"みその","closed":true,"lat":42.728278,"lng":141.009694,"prefecture":1,"lines":[10102],"postal_code":"044-0454","address":"北海道虻田郡喜茂別町字金山２","open_date":"1941-10-12","closed_date":"1986-11-01","next":[1010207,1010211,1010206,1010209,1010204],"voronoi":{"lat":42.673711,"lng":141.000635,"delta_lat":[0,6250,132203,-135538,-10452],"delta_lng":[0,15023,43539,-139843,29145]},"impl":false},
    {"code":1010211,"id":"9a1056","name":"北鈴川","name_kana":"きたすずかわ","closed":true,"lat":42.765306,"lng":140.973806,"prefecture":1,"lines":[10102],"postal_code":"044-0451","address":"北海道虻田郡喜茂別町字鈴川８","open_date":"1941-10-12","closed_date":"1986-11-01","next":[1010213,1010216,1010212,1010210,1010204,1010209,1010203],"voronoi":{"lat":42.681968,"lng":140.874044,"delta_lat":[0,1636,136244,16513,-24198,-135538,3955],"delta_lng":[0,905,105085,95228,-16064,-139843,-41959]},"impl":false},
    {"code":1010212,"id":"eff19e","name":"喜茂別","name_kana":"きもべつ","closed":true,"lat":42.799972,"lng":140.928861,"prefecture":1,"lines":[10102],"postal_code":"044-0201","address":"北海道虻田郡喜茂別町字喜茂別１−２２","open_date":"1928-10-21","closed_date":"1986-11-01","next":[1010214,1010216,1010211,1010213],"voronoi":{"lat":42.838725,"lng":140.931598,"delta_lat":[0,-18877,-136244,134108],"delta_lng":[0,48435,-105085,38817]},"impl":false},
    {"code":1010213,"id":"7627ef","name":"留産","name_kana":"るさん","closed":true,"lat":42.810778,"lng":140.891528,"prefecture":1,"lines":[10102],"postal_code":"044-0212","address":"北海道虻田郡喜茂別町字留産２１","open_date":"1928-10-21","closed_date":"1986-11-01","next":[1010211,1010212,1010218,1010203,1110209,1110407,1110406,1110210,1010214],"voronoi":{"lat":42.826543,"lng":140.840332,"delta_lat":[0,-23803,-55338,-40865,-19279,-4131,-1159,1636,134108],"delta_lng":[0,-39283,-12378,401,25219,8428,51325,905,38817]},"impl":false},
    {"code":1010214,"id":"73644b","name":"南京極","name_kana":"みなみきょうごく","closed":true,"lat":42.829722,"lng":140.893806,"prefecture":1,"lines":[10102],"postal_code":"044-0132","address":"北海道虻田郡京極町字更進４１７−２","open_date":"1928-10-21","closed_date":"1986-11-01","next":[1010212,1010216,1010218,1010217,1010215,1010213],"voronoi":{"lat":42.838725,"lng":140.931598,"delta_lat":[0,8834,-4706,-8150,-8160,-8831],"delta_lng":[0,-5613,-53696,-22725,-9233,73434]},"impl":false},
    {"code":1010215,"id":"c2b5a2","name":"東京極","name_kana":"ひがしきょうごく","closed":true,"lat":42.859528,"lng":140.891194,"prefecture":1,"lines":[10102],"postal_code":"044-0121","address":"北海道虻田郡京極町字三崎２１８−７","open_date":"1962-12-17","closed_date":"1986-11-01","next":[1010216,1010217,1010214],"voronoi":{"lat":42.842854,"lng":140.87229,"delta_lat":[0,66383,-61677],"delta_lng":[0,44549,9147]},"impl":false},
    {"code":1010216,"id":"1274c2","name":"脇方","name_kana":"わきかた","closed":true,"lat":42.869111,"lng":140.955806,"prefecture":1,"lines":[10102],"postal_code":"044-0123","address":"北海道虻田郡京極町字脇方９５２","open_date":"1920-07-15","closed_date":"1970-11-01","next":[1110303,1010215,1010211,1010212,1010214,1010219,1010209,9911020,1110218,1010217,1110302],"voronoi":{"lat":43.020337,"lng":141.011975,"delta_lat":[0,-174116,-9860,-16513,18877,8834,61677,61103,64399,619,-6611],"delta_lng":[0,79532,-16246,-95228,-48435,-5613,-9147,-1985,14447,6601,40293]},"impl":false},
    {"code":1010217,"id":"efbc6c","name":"京極","name_kana":"きょうごく","closed":true,"lat":42.866667,"lng":140.880556,"prefecture":1,"lines":[10102],"postal_code":"044-0101","address":"北海道虻田郡京極町字京極２３","open_date":"1919-11-15","closed_date":"1986-11-01","next":[1010219,1010214,1010215,1010216,1010218],"voronoi":{"lat":42.97034,"lng":140.914854,"delta_lat":[0,-61103,-66383,-8150,95064],"delta_lng":[0,1985,-44549,-22725,39132]},"impl":false},
    {"code":1010218,"id":"b78c2e","name":"北岡","name_kana":"きたおか","closed":true,"lat":42.879222,"lng":140.850056,"prefecture":1,"lines":[10102],"postal_code":"044-0111","address":"北海道虻田郡京極町字北岡３２","open_date":"1960-10-01","closed_date":"1986-11-01","next":[1010214,1010219,1110210,1010213,1010220,1010217],"voronoi":{"lat":42.858478,"lng":140.809984,"delta_lat":[0,-35982,-19755,23803,8160,95064],"delta_lng":[0,-13689,4753,39283,9233,39132]},"impl":false},
    {"code":1010219,"id":"19a5fd","name":"寒別","name_kana":"かんべつ","closed":true,"lat":42.896306,"lng":140.834583,"prefecture":1,"lines":[10102],"postal_code":"044-0071","address":"北海道虻田郡倶知安町字寒別６７９−１","open_date":"1919-11-15","closed_date":"1986-11-01","next":[1010220,1010217,1110213,1110215,1010216,1110218,1010218,1110217],"voronoi":{"lat":43.034738,"lng":140.929301,"delta_lat":[0,-64399,-40572,-71290,152288,29009,4352,-1609],"delta_lng":[0,-14447,-26157,-78712,16088,35168,17519,24072]},"impl":false},
    {"code":1010220,"id":"d3a200","name":"参郷","name_kana":"さんごう","closed":true,"lat":42.900611,"lng":140.793833,"prefecture":1,"lines":[10102],"postal_code":"044-0072","address":"北海道虻田郡倶知安町字八幡２９８","open_date":"1960-10-01","closed_date":"1986-11-01","next":[1010219,1010221,1010218,1110213,1110210],"voronoi":{"lat":42.858478,"lng":140.809984,"delta_lat":[0,152288,-16070,-141320,-30880],"delta_lng":[0,16088,-28712,-23634,22569]},"impl":false},
    {"code":1010221,"id":"15c4bd","name":"六郷","name_kana":"ろくごう","closed":true,"lat":42.904583,"lng":140.770083,"prefecture":1,"lines":[10102],"postal_code":"044-0004","address":"北海道虻田郡倶知安町北４条東８丁目３１","open_date":"1919-11-15","closed_date":"1986-11-01","next":[1110212,1110211,1110213,1010220,1110210],"voronoi":{"lat":42.862805,"lng":140.762597,"delta_lat":[0,110473,3030,18388,-141320],"delta_lng":[0,-13210,2206,45768,-23634]},"impl":false},
    {"code":1110211,"id":"b3c49c","name":"倶知安","name_kana":"くっちゃん","lat":42.90164,"lng":140.745471,"prefecture":1,"lines":[11102,10102],"attr":"heat","postal_code":"044-0051","address":"虻田郡倶知安町北三条西４丁目","next":[1010221,1110212,1110210],"voronoi":{"lat":42.900803,"lng":140.674352,"delta_lat":[0,72475,-110473],"delta_lng":[0,75035,13210]},"impl":true}
  ],
  "closed_date":"1986-11-01",
  "impl":false
}