{
  "code":10101,
  "id":"2668b4",
  "name":"相生線",
  "name_kana":"あいおいせん",
  "name_formal":"国鉄相生線",
  "station_size":14,
  "company_code":0,
  "closed":true,
  "station_list":[
    {"code":1111638,"id":"c145da","name":"美幌","name_kana":"びほろ","lat":43.836967,"lng":144.10563,"prefecture":1,"lines":[11116,10101],"attr":"cool","postal_code":"092-0015","address":"網走郡美幌町字新町３丁目","next":[1010102,1010103,1111639,1111637],"voronoi":{"lat":43.834614,"lng":144.042859,"delta_lat":[0,-8558,6919,77905],"delta_lng":[0,20523,89365,-78540]},"impl":true},
    {"code":1010102,"id":"c08402","name":"旭通","name_kana":"あさひどおり","closed":true,"lat":43.821778,"lng":144.106806,"prefecture":1,"lines":[10101],"postal_code":"092-0043","address":"北海道網走郡美幌町字東３条南１丁目５−３","open_date":"1955-08-20","closed_date":"1985-04-01","next":[1111715,1010103,1111638,1111639],"voronoi":{"lat":43.832975,"lng":144.152746,"delta_lat":[0,-6919,-131341,39520],"delta_lng":[0,-89365,204664,23143]},"impl":false},
    {"code":1010103,"id":"93352f","name":"上美幌","name_kana":"かみびほろ","closed":true,"lat":43.788361,"lng":144.085361,"prefecture":1,"lines":[10101],"postal_code":"092-0030","address":"北海道網走郡美幌町字美富","open_date":"1924-11-17","closed_date":"1985-04-01","next":[1010102,1111637,1010104,1111638,1111715],"voronoi":{"lat":43.662228,"lng":144.253031,"delta_lat":[0,156601,15784,-8558,-131341],"delta_lng":[0,-227175,17003,20523,204664]},"impl":false},
    {"code":1010104,"id":"43b1e8","name":"豊幌(国鉄)","original_name":"豊幌","name_kana":"とよほろ","closed":true,"lat":43.774056,"lng":144.0755,"prefecture":1,"lines":[10101],"postal_code":"092-0183","address":"北海道網走郡美幌町字豊幌","open_date":"1955-08-20","closed_date":"1985-04-01","next":[1111715,1010105,1111636,1111716,1111637,1010103],"voronoi":{"lat":43.818829,"lng":144.025856,"delta_lat":[0,-16115,-1232,-163595,13552,10789],"delta_lng":[0,-22670,-714,237920,8186,4453]},"impl":false},
    {"code":1010105,"id":"019424","name":"活汲","name_kana":"かっくみ","closed":true,"lat":43.743111,"lng":144.054222,"prefecture":1,"lines":[10101],"postal_code":"092-0206","address":"北海道網走郡津別町字活汲８１３−３１","open_date":"1924-11-17","closed_date":"1985-04-01","next":[1010108,1010104,1010109,1111636,1010106,1111716],"voronoi":{"lat":43.801483,"lng":144.002472,"delta_lat":[0,-6160,-98235,-10802,-76777,28379],"delta_lng":[0,-5949,69619,12965,147386,13899]},"impl":false},
    {"code":1010106,"id":"a9670e","name":"達美","name_kana":"たつみ","closed":true,"lat":43.723583,"lng":144.026667,"prefecture":1,"lines":[10101],"postal_code":"092-0203","address":"北海道網走郡津別町字達美１４７","open_date":"1956-05-01","closed_date":"1985-04-01","next":[1111633,1111636,1010105,1010108,1111635,1111634,1010107],"voronoi":{"lat":43.751422,"lng":143.954052,"delta_lat":[0,11923,17668,12009,2301,-98235,3312],"delta_lng":[0,7601,16285,15103,3482,69619,-9624]},"impl":false},
    {"code":1010107,"id":"4d8a99","name":"津別","name_kana":"つべつ","closed":true,"lat":43.71025,"lng":144.020028,"prefecture":1,"lines":[10101],"postal_code":"092-0218","address":"北海道網走郡津別町字東４条５２−１","open_date":"1924-11-17","closed_date":"1985-04-01","next":[1010108,9910932,1111633,1010106],"voronoi":{"lat":43.751422,"lng":143.954052,"delta_lat":[0,-16080,-18454,-16488],"delta_lng":[0,-12569,-8053,123088]},"impl":false},
    {"code":1010108,"id":"b5f2a5","name":"高校前(北海道)","original_name":"高校前","name_kana":"こうこうまえ","closed":true,"lat":43.7005,"lng":144.018722,"prefecture":1,"lines":[10101],"postal_code":"092-0225","address":"北海道網走郡津別町字共和７−１","open_date":"1955-08-20","closed_date":"1985-04-01","next":[1010107,1010105,9910932,1010110,1010106,1010109],"voronoi":{"lat":43.68796,"lng":143.979601,"delta_lat":[0,24997,3931,-16488,-3312,-10802],"delta_lng":[0,-48158,1987,123088,9624,12965]},"impl":false},
    {"code":1010109,"id":"aef41c","name":"恩根","name_kana":"おんね","closed":true,"lat":43.674111,"lng":144.018278,"prefecture":1,"lines":[10101],"postal_code":"092-0225","address":"北海道網走郡津別町字共和相生津別(停)線","open_date":"1956-09-20","closed_date":"1985-04-01","next":[1111716,1010105,1010110,1010108,1010114,1010111],"voronoi":{"lat":43.549313,"lng":144.209441,"delta_lat":[0,60195,76777,1674,-67918,-45602],"delta_lng":[0,17051,-147386,-99506,65204,76969]},"impl":false},
    {"code":1010110,"id":"c9e650","name":"本岐","name_kana":"ほんき","closed":true,"lat":43.64875,"lng":143.991861,"prefecture":1,"lines":[10101],"postal_code":"092-0351","address":"北海道網走郡津別町字本岐２０９−１","open_date":"1925-11-15","closed_date":"1985-04-01","next":[1010108,9910931,1010109,1010111,9910932],"voronoi":{"lat":43.68796,"lng":143.979601,"delta_lat":[0,-67918,37381,25305,30229],"delta_lng":[0,65204,-162615,17808,31445]},"impl":false},
    {"code":1010111,"id":"ec0382","name":"大昭","name_kana":"たいしょう","closed":true,"lat":43.617333,"lng":143.984639,"prefecture":1,"lines":[10101],"postal_code":"092-0357","address":"北海道網走郡津別町字大昭","open_date":"1956-05-01","closed_date":"1985-04-01","next":[1010112,1010110,1010114,9910931,1010109],"voronoi":{"lat":43.620041,"lng":144.044804,"delta_lat":[0,37381,-8795,-72093,-2095],"delta_lng":[0,-162615,-8365,203794,44155]},"impl":false},
    {"code":1010112,"id":"8f8c88","name":"開拓","name_kana":"かいたく","closed":true,"lat":43.603278,"lng":143.979667,"prefecture":1,"lines":[10101],"postal_code":"092-0362","address":"北海道網走郡津別町字布川","open_date":"1956-05-01","closed_date":"1985-04-01","next":[1010111,9910931,1010113,9910930,1010114],"voronoi":{"lat":43.575917,"lng":144.053957,"delta_lat":[0,46603,25438,669,-72093],"delta_lng":[0,-201719,20863,723,203794]},"impl":false},
    {"code":1010113,"id":"11241b","name":"布川","name_kana":"ぬのかわ","closed":true,"lat":43.583917,"lng":143.975194,"prefecture":1,"lines":[10101],"postal_code":"092-0362","address":"北海道網走郡津別町字布川９３−１","open_date":"1947-09-20","closed_date":"1985-04-01","next":[9910930,1010114,1010112,9910920],"voronoi":{"lat":43.611191,"lng":143.841383,"delta_lat":[0,11329,-46603,-31051],"delta_lng":[0,10855,201719,-202841]},"impl":false},
    {"code":1010114,"id":"ffd6d2","name":"北見相生","name_kana":"きたみあいおい","closed":true,"lat":43.544722,"lng":143.981194,"prefecture":1,"lines":[10101],"postal_code":"092-0361","address":"北海道網走郡津別町字相生５７２","open_date":"1925-11-15","closed_date":"1985-04-01","next":[9911914,9910918,1010113,9910920,1111716,1010111,1010908,1010109,1010112],"voronoi":{"lat":43.575917,"lng":144.053957,"delta_lat":[0,-31051,-5463,-180606,-5464,77422,118558,25126,2095],"delta_lng":[0,-202841,-40,58429,24627,278060,-2751,-87668,-44155]},"impl":false}
  ],
  "closed_date":"1985-04-01",
  "impl":false
}