{
  "code":10110,
  "id":"53eb02",
  "name":"瀬棚線",
  "name_kana":"せたなせん",
  "name_formal":"国鉄瀬棚線",
  "station_size":11,
  "company_code":0,
  "closed":true,
  "station_list":[
    {"code":1110136,"id":"ae2ac1","name":"国縫","name_kana":"くんぬい","lat":42.439319,"lng":140.320885,"prefecture":1,"lines":[11101,10110],"attr":"eco","postal_code":"049-3462","address":"山越郡長万部町字国縫","next":[1110137,1110129,1011002,1110135],"voronoi":{"lat":42.432595,"lng":140.288631,"delta_lat":[0,42564,-113767,-13179],"delta_lng":[0,19507,174358,-53272]},"impl":true},
    {"code":1011002,"id":"6cfae2","name":"茶屋川","name_kana":"ちゃやがわ","closed":true,"lat":42.461417,"lng":140.272667,"prefecture":1,"lines":[10110],"postal_code":"049-3465","address":"北海道山越郡長万部町字茶屋川５４","open_date":"1929-12-13","closed_date":"1987-03-16","next":[1110137,1110136,1011003,1110135,1110202],"voronoi":{"lat":42.47516,"lng":140.308138,"delta_lat":[0,-42564,-25023,131665,-21344],"delta_lng":[0,-19507,-60020,19184,50732]},"impl":false},
    {"code":1011003,"id":"91582a","name":"美利河","name_kana":"ぴりか","closed":true,"lat":42.47175,"lng":140.20175,"prefecture":1,"lines":[10110],"postal_code":"049-4151","address":"北海道瀬棚郡今金町字美利河１９６−１","open_date":"1929-12-13","closed_date":"1987-03-16","next":[1011007,1011002,1011005,9911104,1110202,1110134,1011004,1110135,1110203,9911105,9911102],"voronoi":{"lat":42.636222,"lng":140.116003,"delta_lat":[0,8321,87,-33951,-16528,-189977,257,3141,131665,45710,34483],"delta_lng":[0,-52746,-1002,7944,8394,147397,308,2313,19184,-39970,-47769]},"impl":false},
    {"code":1011004,"id":"77cd1f","name":"花石","name_kana":"はないし","closed":true,"lat":42.444444,"lng":140.166556,"prefecture":1,"lines":[10110],"postal_code":"049-4153","address":"北海道瀬棚郡今金町字花石３８５","open_date":"1929-12-13","closed_date":"1987-03-16","next":[1110134,1011003,1110133,1011005],"voronoi":{"lat":42.362135,"lng":140.199668,"delta_lat":[0,42039,189977,-256852],"delta_lng":[0,26322,-147397,91236]},"impl":false},
    {"code":1011005,"id":"98ff7c","name":"北住吉","name_kana":"きたすみよし","closed":true,"lat":42.4225,"lng":140.104778,"prefecture":1,"lines":[10110],"postal_code":"049-4156","address":"北海道瀬棚郡今金町字住吉","open_date":"1956-12-25","closed_date":"1987-03-16","next":[1110133,1110132,1011003,1011006,1011007,1011004],"voronoi":{"lat":42.594151,"lng":140.078593,"delta_lat":[0,16528,-16494,-338532,56176,25470],"delta_lng":[0,-8394,-964,35394,49023,16177]},"impl":false},
    {"code":1011006,"id":"6bb918","name":"種川","name_kana":"たねかわ","closed":true,"lat":42.418861,"lng":140.069972,"prefecture":1,"lines":[10110],"postal_code":"049-4324","address":"北海道瀬棚郡今金町字種川２８６","open_date":"1930-10-30","closed_date":"1987-03-16","next":[1110132,1011008,1011007,1011005,1110131],"voronoi":{"lat":42.255653,"lng":140.104629,"delta_lat":[0,338532,-301206,-144023,92721],"delta_lng":[0,-35394,-48088,-1778,75442]},"impl":false},
    {"code":1011007,"id":"feb36b","name":"今金","name_kana":"いまがね","closed":true,"lat":42.427806,"lng":140.013944,"prefecture":1,"lines":[10110],"postal_code":"049-4308","address":"北海道瀬棚郡今金町字今金７４０−５","open_date":"1930-10-30","closed_date":"1987-03-16","next":[1011003,1011006,1011008,9911105,1011005,1011009],"voronoi":{"lat":42.64463,"lng":140.062254,"delta_lat":[0,-33951,-16494,-301206,218750,180913],"delta_lng":[0,7944,-964,-48088,-44193,4320]},"impl":false},
    {"code":1011008,"id":"39bc59","name":"神丘","name_kana":"かみおか","closed":true,"lat":42.420028,"lng":139.975444,"prefecture":1,"lines":[10110],"postal_code":"049-4327","address":"北海道瀬棚郡今金町字神丘３６７−２","open_date":"1961-04-01","closed_date":"1987-03-16","next":[1110131,1011006,1011007,1011010,1011009,1111901],"voronoi":{"lat":42.148957,"lng":140.019369,"delta_lat":[0,144023,218750,-184526,-217152,16128],"delta_lng":[0,1778,-44193,-45093,15191,59576]},"impl":false},
    {"code":1011009,"id":"b7717c","name":"丹羽","name_kana":"にわ","closed":true,"lat":42.429667,"lng":139.936,"prefecture":1,"lines":[10110],"postal_code":"049-4433","address":"北海道久遠郡せたな町北檜山区丹羽３８−１","open_date":"1932-11-01","closed_date":"1987-03-16","next":[9911105,1011011,1011008,1011007,1011010],"voronoi":{"lat":42.452546,"lng":139.897287,"delta_lat":[0,261146,-21049,-180913,-184526],"delta_lng":[0,58050,25936,-4320,-45093]},"impl":false},
    {"code":1011010,"id":"2db5a3","name":"北檜山","name_kana":"きたひやま","closed":true,"lat":42.413056,"lng":139.875778,"prefecture":1,"lines":[10110],"postal_code":"049-4501","address":"北海道久遠郡せたな町北檜山区北檜山４５１−２","open_date":"1932-11-01","closed_date":"1987-03-16","next":[1111901,1112612,1011008,1111902,1011011,1011009],"voronoi":{"lat":42.452546,"lng":139.897287,"delta_lat":[0,-844927,79341,195189,227903,217152],"delta_lng":[0,-1277966,347413,477494,502823,-15191]},"impl":false},
    {"code":1011011,"id":"3cdc56","name":"瀬棚","name_kana":"せたな","closed":true,"lat":42.448222,"lng":139.852528,"prefecture":1,"lines":[10110],"postal_code":"049-4816","address":"北海道久遠郡せたな町瀬棚区本町７９２−２","open_date":"1932-11-01","closed_date":"1987-03-16","next":[9941807,1111553,1011009,1112612,1120419,9911105,9970213,9970305,1170223,1170516,1111551,1011010],"voronoi":{"lat":42.713692,"lng":139.955338,"delta_lat":[0,3856493,1007506,10846779,-1554263,-10261298,-2255727,-790692,-2063736,18840,90025,844927],"delta_lng":[0,-3509060,-1612779,-17649842,1412518,10103733,2260229,823305,3654465,2811373,370042,1277966]},"impl":false}
  ],
  "closed_date":"1987-03-16",
  "impl":false
}