{
  "code":10117,
  "id":"c70741",
  "name":"湧網線",
  "name_kana":"ゆうもうせん",
  "name_formal":"国鉄湧網線",
  "station_size":30,
  "company_code":0,
  "closed":true,
  "station_list":[
    {"code":1112134,"id":"548cce","name":"中湧別","name_kana":"なかゆうべつ","closed":true,"lat":44.185389,"lng":143.595889,"prefecture":1,"lines":[11121,10117],"postal_code":"099-6329","address":"北海道紋別郡湧別町中湧別中町３０２０","open_date":"1916-11-21","closed_date":"1989-05-01","next":[1011702,1112131,1112135,1112133],"voronoi":{"lat":44.158678,"lng":143.610679,"delta_lat":[0,21674,21673,-8048],"delta_lng":[0,-35268,21291,13110]},"impl":false},
    {"code":1011702,"id":"3d4222","name":"五鹿山","name_kana":"ごかざん","closed":true,"lat":44.186083,"lng":143.624139,"prefecture":1,"lines":[10117],"postal_code":"099-6322","address":"北海道紋別郡湧別町北兵村３区３３６","open_date":"1958-07-01","closed_date":"1987-03-20","next":[1112134,1112133,1011703,1112132,1112135],"voronoi":{"lat":44.207117,"lng":143.639205,"delta_lat":[0,-771,-12370,-35299,-23013],"delta_lng":[0,-6320,-23073,867,13753]},"impl":false},
    {"code":1011703,"id":"a93b7e","name":"福島(北海道)","original_name":"福島","name_kana":"ふくしま","closed":true,"lat":44.181833,"lng":143.644694,"prefecture":1,"lines":[10117],"postal_code":"099-6413","address":"北海道紋別郡湧別町福島３７７−１","open_date":"1955-12-25","closed_date":"1987-03-20","next":[1112136,1112135,1112132,1011704,1112137,1011702],"voronoi":{"lat":44.135664,"lng":143.624431,"delta_lat":[0,-15612,-3778,-4247,147809,-52719],"delta_lng":[0,5329,1813,3275,92516,-88160]},"impl":false},
    {"code":1011704,"id":"dc7fe5","name":"芭露","name_kana":"ばろう","closed":true,"lat":44.151389,"lng":143.693333,"prefecture":1,"lines":[10117],"postal_code":"093-0731","address":"北海道紋別郡湧別町芭露２３３４−２","open_date":"1935-10-20","closed_date":"1987-03-20","next":[1011721,1011705,1112137,1112132,1011716,1011717,1011703,1011707],"voronoi":{"lat":44.383537,"lng":143.89508,"delta_lat":[0,41815,15670,-181185,-147809,-29644,99941,106745],"delta_lng":[0,9153,1182,-178051,-92516,7183,131978,94153]},"impl":false},
    {"code":1011705,"id":"aadb0d","name":"志撫子","name_kana":"しぶし","closed":true,"lat":44.113056,"lng":143.722361,"prefecture":1,"lines":[10117],"postal_code":"093-0652","address":"北海道紋別郡湧別町志撫子","open_date":"1955-12-25","closed_date":"1987-03-20","next":[1011704,1112137,1011706,1011707],"voronoi":{"lat":44.119741,"lng":143.744482,"delta_lat":[0,-64077,26719,99941],"delta_lng":[0,-103671,1220,131978]},"impl":false},
    {"code":1011706,"id":"d53fe9","name":"計呂地","name_kana":"けろち","closed":true,"lat":44.102944,"lng":143.728611,"prefecture":1,"lines":[10117],"postal_code":"093-0651","address":"北海道紋別郡湧別町計呂地２６２０","open_date":"1935-10-20","closed_date":"1987-03-20","next":[1011707,1011709,1011708,1011705,1112137,1111624],"voronoi":{"lat":44.068722,"lng":143.729117,"delta_lat":[0,13485,37534,-64077,-19146,-11211],"delta_lng":[0,8508,6858,-103671,-2023,6373]},"impl":false},
    {"code":1011707,"id":"22f6c7","name":"浜床丹","name_kana":"はまとこたん","closed":true,"lat":44.098417,"lng":143.753389,"prefecture":1,"lines":[10117],"postal_code":"093-0532","address":"北海道常呂郡佐呂間町字若里３１","open_date":"1956-08-20","closed_date":"1987-03-20","next":[1011708,1011706,1011716,1011715,1011713,1011705,1011704],"voronoi":{"lat":44.182324,"lng":143.774009,"delta_lat":[0,-62583,-37534,48559,4669,13741,139893],"delta_lng":[0,-29527,-6858,109563,3179,4231,13565]},"impl":false},
    {"code":1011708,"id":"da9a2d","name":"床丹","name_kana":"とこたん","closed":true,"lat":44.083,"lng":143.760222,"prefecture":1,"lines":[10117],"postal_code":"093-0532","address":"北海道常呂郡佐呂間町字若里２１９","open_date":"1936-10-17","closed_date":"1987-03-20","next":[1011707,1011713,1011709,1011706,1011712],"voronoi":{"lat":44.061673,"lng":143.799102,"delta_lat":[0,7049,13485,48559,-40906],"delta_lng":[0,-69986,8508,109563,-23024]},"impl":false},
    {"code":1011709,"id":"dbedee","name":"若里","name_kana":"わかさと","closed":true,"lat":44.048528,"lng":143.75675,"prefecture":1,"lines":[10117],"postal_code":"093-0532","address":"北海道常呂郡佐呂間町字若里５７９","open_date":"1955-12-25","closed_date":"1987-03-20","next":[1011708,1111625,1011712,1011706,1011710,1111624],"voronoi":{"lat":44.025308,"lng":143.645161,"delta_lat":[0,43415,-7049,-5685,-99750,9790],"delta_lng":[0,83955,69986,-1918,-133339,-3876]},"impl":false},
    {"code":1011710,"id":"a64994","name":"佐呂間","name_kana":"さろま","closed":true,"lat":44.019306,"lng":143.778611,"prefecture":1,"lines":[10117],"postal_code":"093-0503","address":"北海道常呂郡佐呂間町字幸町１９","open_date":"1936-10-17","closed_date":"1987-03-20","next":[1111625,1111629,1011712,1111630,1111631,1011709,1111626,1011711],"voronoi":{"lat":44.055989,"lng":143.797184,"delta_lat":[0,-99750,-8310,-30612,-929,-8383,2298,144513],"delta_lng":[0,-133339,2009,11999,1379,84491,15905,17715]},"impl":false},
    {"code":1011711,"id":"1dfb20","name":"堺橋","name_kana":"さかいばし","closed":true,"lat":44.015833,"lng":143.806944,"prefecture":1,"lines":[10117],"postal_code":"093-0508","address":"北海道常呂郡字知来佐呂間町","open_date":"1956-12-20","closed_date":"1987-03-20","next":[1011713,1111632,1111635,1111636,1011712,1111631,1011710],"voronoi":{"lat":43.944327,"lng":143.857396,"delta_lat":[0,-19355,-3729,-7738,-2551,-652,144513],"delta_lng":[0,6870,-4535,-10709,-15660,-53733,17715]},"impl":false},
    {"code":1011712,"id":"8a384a","name":"興生沢","name_kana":"こうせいざわ","closed":true,"lat":44.025556,"lng":143.824833,"prefecture":1,"lines":[10117],"postal_code":"093-0508","address":"北海道常呂郡佐呂間町字知来","open_date":"1955-12-25","closed_date":"1987-03-20","next":[1011713,1011709,1011710,1011708,1011711],"voronoi":{"lat":44.054816,"lng":143.797343,"delta_lat":[0,1173,5685,28187,-145533],"delta_lng":[0,-159,1918,25061,33232]},"impl":false},
    {"code":1011713,"id":"f356ec","name":"知来","name_kana":"ちらい","closed":true,"lat":44.031639,"lng":143.851472,"prefecture":1,"lines":[10117],"postal_code":"093-0508","address":"北海道常呂郡佐呂間町字知来４３５−４","open_date":"1953-10-22","closed_date":"1987-03-20","next":[1011708,1011711,1011714,1011712,1011707,1111636,1011715],"voronoi":{"lat":43.93492,"lng":143.884023,"delta_lat":[0,-9948,19355,145533,40906,4669,-33552],"delta_lng":[0,-19758,-6870,-33232,23024,3179,10736]},"impl":false},
    {"code":1011714,"id":"db655d","name":"紅葉橋","name_kana":"もみじばし","closed":true,"lat":44.036833,"lng":143.889306,"prefecture":1,"lines":[10117],"postal_code":"093-0424","address":"北海道常呂郡佐呂間町字仁倉","open_date":"1955-12-25","closed_date":"1987-03-20","next":[1111637,1011713,1011715,1111636],"voronoi":{"lat":43.963863,"lng":143.951995,"delta_lat":[0,138020,-166963,12956],"delta_lng":[0,-90893,22921,45361]},"impl":false},
    {"code":1011715,"id":"2666e3","name":"仁倉","name_kana":"にくら","closed":true,"lat":44.050278,"lng":143.909722,"prefecture":1,"lines":[10117],"postal_code":"093-0424","address":"北海道常呂郡佐呂間町字仁倉２９５−３","open_date":"1953-10-22","closed_date":"1987-03-20","next":[1111637,1011707,1011714,1011718,1011716,1011713],"voronoi":{"lat":43.963863,"lng":143.951995,"delta_lat":[0,18159,22050,145104,-13741,-33552],"delta_lng":[0,34207,-6748,-124857,-4231,10736]},"impl":false},
    {"code":1011716,"id":"5ed721","name":"浜佐呂間","name_kana":"はまさろま","closed":true,"lat":44.079917,"lng":143.944167,"prefecture":1,"lines":[10117],"postal_code":"093-0423","address":"北海道常呂郡佐呂間町字浜佐呂間３１３","open_date":"1952-12-06","closed_date":"1987-03-20","next":[1011707,1011718,1011704,1011717,1011715],"voronoi":{"lat":44.149176,"lng":143.854597,"delta_lat":[0,139893,94467,-372495,-6969],"delta_lng":[0,13565,26918,84222,152]},"impl":false},
    {"code":1011717,"id":"030672","name":"北見富丘","name_kana":"きたみとみおか","closed":true,"lat":44.088333,"lng":143.981389,"prefecture":1,"lines":[10117],"postal_code":"093-0332","address":"北海道北見市常呂町富丘","open_date":"1952-12-06","closed_date":"1987-03-20","next":[1011704,1011718,1011716,1011721,1011720],"voronoi":{"lat":44.011042,"lng":143.979302,"delta_lat":[0,372495,41815,-181777,-111875],"delta_lng":[0,-84222,9153,69523,33474]},"impl":false},
    {"code":1011718,"id":"5dffa2","name":"東富丘","name_kana":"ひがしとみおか","closed":true,"lat":44.081389,"lng":144.011389,"prefecture":1,"lines":[10117],"postal_code":"093-0332","address":"北海道北見市富丘常呂町","open_date":"1956-05-01","closed_date":"1987-03-20","next":[1011716,1111637,1011726,1011717,1011725,1011715,1011720,1011719],"voronoi":{"lat":44.112901,"lng":144.020109,"delta_lat":[0,18798,-120658,-6969,-22050,-1703,8003,19709],"delta_lng":[0,-12879,-27928,152,6748,29746,5402,9282]},"impl":false},
    {"code":1011719,"id":"94ef54","name":"北見共立","name_kana":"きたみきょうりつ","closed":true,"lat":44.08375,"lng":144.034917,"prefecture":1,"lines":[10117],"postal_code":"093-0214","address":"北海道北見市常呂町共立","open_date":"1952-12-06","closed_date":"1987-03-20","next":[1011725,1011724,1011718,1011720],"voronoi":{"lat":44.112901,"lng":144.020109,"delta_lat":[0,-104870,57799,11644],"delta_lng":[0,10523,39263,1980]},"impl":false},
    {"code":1011720,"id":"805b8c","name":"土佐","name_kana":"とさ","closed":true,"lat":44.109653,"lng":144.052644,"prefecture":1,"lines":[10117],"postal_code":"093-0213","address":"北海道北見市常呂町土佐１１４","open_date":"1956-01-07","closed_date":"1972-02-08","next":[1011721,1011724,1011717,1011718,1011719],"voronoi":{"lat":44.112901,"lng":144.020109,"delta_lat":[0,18798,111875,-153622,-12478],"delta_lng":[0,-12879,-33474,106662,-8543]},"impl":false},
    {"code":1011721,"id":"48ad83","name":"常呂","name_kana":"ところ","closed":true,"lat":44.122861,"lng":144.071667,"prefecture":1,"lines":[10117],"postal_code":"090-0000","address":"北海道北見市常呂町中央町","open_date":"1936-10-10","closed_date":"1987-03-20","next":[1011722,1112132,1011704,1011720,1112123,1011717,1011723,1011724],"voronoi":{"lat":44.095113,"lng":144.086706,"delta_lat":[0,1518388,-1183,-1171296,-15670,-181777,-153622,4010],"delta_lng":[0,80896,-394,-261792,-1182,69523,106662,5576]},"impl":false},
    {"code":1011722,"id":"13e43e","name":"常呂港","name_kana":"ところこう","closed":true,"lat":44.121106,"lng":144.104608,"prefecture":1,"lines":[10117],"postal_code":"093-0202","address":"北海道北見市常呂町東浜８−２２","open_date":"1956-01-07","closed_date":"1972-02-08","next":[1112120,1011721,1111702,1112221,1112123,1010504,1010507,1111642,1011723,1111709,1010503],"voronoi":{"lat":51.07067,"lng":147.04724,"delta_lat":[0,-6110036,-713036,-68756,-83730,1518388,654620,408868,4121043,87500,152398],"delta_lng":[0,-2307358,-440610,-46543,-166023,80896,209953,146385,2363156,50896,89138]},"impl":false},
    {"code":1011723,"id":"2d0d44","name":"能取","name_kana":"のとろ","closed":true,"lat":44.094056,"lng":144.11825,"prefecture":1,"lines":[10117],"postal_code":"093-0241","address":"北海道網走市字能取２４４−２６能取交通公園","open_date":"1936-10-10","closed_date":"1987-03-20","next":[1011729,1011722,1011727,1011724,1111642,1011721],"voronoi":{"lat":44.093963,"lng":144.085995,"delta_lat":[0,-30099,16724,26020,72235,-83730],"delta_lng":[0,73093,35782,18431,39428,-166023]},"impl":false},
    {"code":1011724,"id":"dbaddf","name":"中能取","name_kana":"なかのとろ","closed":true,"lat":44.071183,"lng":144.108831,"prefecture":1,"lines":[10117],"postal_code":"093-0241","address":"北海道網走市字能取","open_date":"1956-01-07","closed_date":"1972-02-08","next":[1011725,1011719,1011720,1011723,1011727,1011721],"voronoi":{"lat":44.089953,"lng":144.080419,"delta_lat":[0,-12478,-11644,-20093,18126,30099],"delta_lng":[0,-8543,-1980,66925,22267,-73093]},"impl":false},
    {"code":1011725,"id":"d5a36e","name":"北見平和","name_kana":"きたみへいわ","closed":true,"lat":44.039917,"lng":144.099444,"prefecture":1,"lines":[10117],"postal_code":"093-0136","address":"北海道網走市字平和１７−９","open_date":"1949-10-20","closed_date":"1987-03-20","next":[1011726,1011724,1011719,1011718,1011727],"voronoi":{"lat":44.06583,"lng":144.069896,"delta_lat":[0,-57799,-19709,51768,5647],"delta_lng":[0,-39263,-9282,112801,2669]},"impl":false},
    {"code":1011726,"id":"e75311","name":"卯原内","name_kana":"うばらない","closed":true,"lat":44.013889,"lng":144.111389,"prefecture":1,"lines":[10117],"postal_code":"093-0135","address":"北海道網走市字卯原内８９−１卯原内交通公園（旧湧網線卯原内駅跡）","open_date":"1935-10-10","closed_date":"1987-03-20","next":[1011725,1011727,1111637,1111639,1111640,1011718],"voronoi":{"lat":44.04009,"lng":144.134152,"delta_lat":[0,-80145,-22371,-5972,48717,8003],"delta_lng":[0,-1295,-36987,-21611,-58310,5402]},"impl":false},
    {"code":1011727,"id":"7814b2","name":"二見中央","name_kana":"ふたみちゅうおう","closed":true,"lat":44.013167,"lng":144.156056,"prefecture":1,"lines":[10117],"postal_code":"093-0132","address":"北海道網走市字二見ケ岡７８","open_date":"1956-05-01","closed_date":"1987-03-20","next":[1011729,1011726,1111640,1011723,1011725,1011724,1011728],"voronoi":{"lat":44.080587,"lng":144.19487,"delta_lat":[0,-16724,-18126,-5647,-80145,420,101240],"delta_lng":[0,-35782,-22267,-2669,-1295,2794,59123]},"impl":false},
    {"code":1011728,"id":"3c68a2","name":"二見ヶ岡","name_kana":"ふたみがおか","closed":true,"lat":44.004083,"lng":144.171611,"prefecture":1,"lines":[10117],"postal_code":"093-0132","address":"北海道網走市字二見ケ岡６２","open_date":"1935-10-10","closed_date":"1987-03-20","next":[1111641,1111640,1011729,1011727],"voronoi":{"lat":43.960365,"lng":144.13565,"delta_lat":[0,-421,34502,67159],"delta_lng":[0,39197,29439,-9513]},"impl":false},
    {"code":1011729,"id":"1eff4a","name":"大曲(北海道)","original_name":"大曲","name_kana":"おおまがり","closed":true,"lat":44.012778,"lng":144.233,"prefecture":1,"lines":[10117],"postal_code":"093-0045","address":"北海道網走市大曲１丁目１３-２０","open_date":"1955-12-25","closed_date":"1987-03-20","next":[1011727,1111642,1111641,1011728,1011723],"voronoi":{"lat":43.979676,"lng":144.255869,"delta_lat":[0,14771,67159,18982,26020],"delta_lng":[0,-51583,-9513,96,18431]},"impl":false},
    {"code":1111642,"id":"05b582","name":"網走","name_kana":"あばしり","lat":44.019873,"lng":144.254156,"prefecture":1,"lines":[11116,11117,10117],"attr":"cool","postal_code":"093-0046","address":"網走市新町２丁目","next":[1111703,1011729,1111702,1011722,1111641,1011723],"voronoi":{"lat":44.106608,"lng":144.2133,"delta_lat":[0,-126932,-200,2006,266117,-68756],"delta_lng":[0,42569,319,1771,41312,-46543]},"impl":true}
  ],
  "closed_date":"1987-03-20",
  "impl":false
}