{
  "code":10118,
  "id":"3699e8",
  "name":"JR池北線",
  "name_kana":"じぇいあーるちほくせん",
  "name_formal":"JR池北線",
  "station_size":32,
  "company_code":1,
  "closed":true,
  "station_list":[
    {"code":1110714,"id":"c2dabf","name":"池田(北海道)","original_name":"池田","name_kana":"いけだ","lat":42.922186,"lng":143.453033,"prefecture":1,"lines":[11107,10118,99109],"attr":"eco","postal_code":"083-0091","address":"中川郡池田町東１条１丁目","next":[9910902,1110715,1110713,1110712],"voronoi":{"lat":42.869846,"lng":143.413075,"delta_lat":[0,77113,5883,-107122],"delta_lng":[0,33771,118850,-148929]},"impl":true},
    {"code":9910902,"id":"6dacff","name":"様舞","name_kana":"さままい","closed":true,"lat":42.972222,"lng":143.450556,"prefecture":1,"lines":[10118,99109],"postal_code":"083-0004","address":"北海道中川郡池田町字様舞","closed_date":"2006-04-21","next":[1110712,1110713,9910903,1110714,9910904,1110715],"voronoi":{"lat":42.981812,"lng":143.547228,"delta_lat":[0,33643,-4491,-64005,5883,9985],"delta_lng":[0,-195512,3168,91963,118850,23142]},"impl":false},
    {"code":9910903,"id":"32a1e7","name":"高島(北海道)","original_name":"高島","name_kana":"たかしま","closed":true,"lat":43.023164,"lng":143.459322,"prefecture":1,"lines":[10118,99109],"postal_code":"089-3152","address":"北海道中川郡池田町字高島","open_date":"1910-09-22","closed_date":"2006-04-21","next":[1010709,1010708,1010706,9910902,1010707,9910904,1110712],"voronoi":{"lat":43.031007,"lng":143.333786,"delta_lat":[0,55992,8228,18515,10610,-142540,33643],"delta_lng":[0,17558,3905,12150,9675,170153,-195512]},"impl":false},
    {"code":9910904,"id":"7f55a1","name":"大森(北海道)","original_name":"大森","name_kana":"おおもり","closed":true,"lat":43.061111,"lng":143.491111,"prefecture":1,"lines":[10118,99109],"postal_code":"089-3151","address":"北海道中川郡池田町字大森２６３−１４","open_date":"1968-10-01","closed_date":"2006-04-21","next":[1110715,1010709,9910902,9910903,1010710,9910905],"voronoi":{"lat":43.181081,"lng":143.419916,"delta_lat":[0,-36543,-20185,-142540,-18985,553],"delta_lng":[0,-30512,-12330,170153,41611,11716]},"impl":false},
    {"code":9910905,"id":"a14377","name":"勇足","name_kana":"ゆうたり","closed":true,"lat":43.088975,"lng":143.524692,"prefecture":1,"lines":[10118,99109],"postal_code":"089-3281","address":"北海道中川郡本別町勇足元町２４−１４","open_date":"1910-09-22","closed_date":"2006-04-21","next":[1110715,9910907,9910910,1010710,9910904,9910906],"voronoi":{"lat":43.173388,"lng":143.487427,"delta_lat":[0,9320,-1627,-217700,-180,66387],"delta_lng":[0,-66538,-972,180638,1756,-20703]},"impl":false},
    {"code":9910906,"id":"ee5c3e","name":"南本別","name_kana":"みなみほんべつ","closed":true,"lat":43.105494,"lng":143.549914,"prefecture":1,"lines":[10118,99109],"postal_code":"089-3282","address":"北海道中川郡本別町勇足３３","open_date":"1962-12-01","closed_date":"2006-04-21","next":[9910909,9910910,9910907,9910905],"voronoi":{"lat":43.173388,"lng":143.487427,"delta_lat":[0,633,-30334,-114099],"delta_lng":[0,25366,55291,13524]},"impl":false},
    {"code":9910908,"id":"66693a","name":"本別","name_kana":"ほんべつ","closed":true,"lat":43.125894,"lng":143.613511,"prefecture":1,"lines":[10118,99109],"postal_code":"089-3334","address":"北海道中川郡本別町北３丁目１−１","open_date":"1910-09-22","closed_date":"2006-04-21","next":[9912006,1010907,9910909,1010906,9910907],"voronoi":{"lat":43.053556,"lng":143.752032,"delta_lat":[0,3929,156016,-68911,-139719],"delta_lng":[0,372,-8487,-160855,111980]},"impl":false},
    {"code":9910909,"id":"4f78a7","name":"仙美里","name_kana":"せんびり","closed":true,"lat":43.179531,"lng":143.590533,"prefecture":1,"lines":[10118,99109],"postal_code":"089-3664","address":"北海道中川郡本別町仙美里元町１６６−２０","open_date":"1910-09-22","closed_date":"2006-04-21","next":[9910906,9910910,9910907,9910915,9910908,9910911,1010907,9910913,9910916],"voronoi":{"lat":43.241617,"lng":143.738762,"delta_lat":[0,10052,1454,-9425,-69678,-30334,903,68911,24494],"delta_lng":[0,-37407,-41651,-44515,-102396,55291,14978,160855,3264]},"impl":false},
    {"code":9910910,"id":"a7fd31","name":"足寄","name_kana":"あしょろ","closed":true,"lat":43.244314,"lng":143.54645,"prefecture":1,"lines":[10118,99109],"postal_code":"089-3701","address":"北海道足寄郡足寄町北１条１丁目１","open_date":"1910-09-22","closed_date":"2006-04-21","next":[9910909,1010711,9910905,1010710,1010712,9910911,9910906],"voronoi":{"lat":43.243699,"lng":143.615189,"delta_lat":[0,75845,-13001,-92662,-31173,-9320,633],"delta_lng":[0,-180495,-4102,-11471,1768,66538,25366]},"impl":false},
    {"code":9910911,"id":"b6dd49","name":"愛冠","name_kana":"あいかっぷ","closed":true,"lat":43.292367,"lng":143.566642,"prefecture":1,"lines":[10118,99109],"postal_code":"089-3708","address":"北海道足寄郡足寄町愛冠３５−１２","open_date":"1946-09-10","closed_date":"2006-04-21","next":[1010712,9910912,9910909,9910910,9910913],"voronoi":{"lat":43.243699,"lng":143.615189,"delta_lat":[0,75845,53556,-92449,-27527],"delta_lng":[0,-180495,5969,182271,36770]},"impl":false},
    {"code":9910912,"id":"017035","name":"西一線","name_kana":"にしいっせん","closed":true,"lat":43.319147,"lng":143.580225,"prefecture":1,"lines":[10118,99109],"postal_code":"089-4142","address":"北海道足寄郡足寄町上利別","open_date":"1960-05-01","closed_date":"2006-04-21","next":[1010712,9910914,9910911,9910913],"voronoi":{"lat":43.373099,"lng":143.440662,"delta_lat":[0,77939,-91294,-79094],"delta_lng":[0,816,119560,61895]},"impl":false},
    {"code":9910913,"id":"abda10","name":"塩幌","name_kana":"しおほろ","closed":true,"lat":43.331361,"lng":143.595833,"prefecture":1,"lines":[10118,99109],"postal_code":"089-4142","address":"北海道足寄郡足寄町上利別１８１−４","open_date":"1961-02-01","closed_date":"2006-04-21","next":[9910914,9910915,9910909,9910912,9910911],"voronoi":{"lat":43.28065,"lng":143.622934,"delta_lat":[0,79094,-37103,-70972,1454],"delta_lng":[0,-61895,80983,59333,-41651]},"impl":false},
    {"code":9910914,"id":"eb8818","name":"上利別","name_kana":"かみとしべつ","closed":true,"lat":43.351928,"lng":143.605256,"prefecture":1,"lines":[10118,99109],"postal_code":"089-4141","address":"北海道足寄郡足寄町上利別本町２０−１１","open_date":"1910-09-22","closed_date":"2006-04-21","next":[9910913,9910915,1010712,9910921,9910912,9910922],"voronoi":{"lat":43.506781,"lng":143.436029,"delta_lat":[0,-55743,-91294,-37103,174169,13667],"delta_lng":[0,5450,119560,80983,-84841,-43504]},"impl":false},
    {"code":9910915,"id":"0de704","name":"笹森","name_kana":"ささもり","closed":true,"lat":43.369644,"lng":143.641625,"prefecture":1,"lines":[10118,99109],"postal_code":"089-4251","address":"北海道足寄郡足寄町大誉地","open_date":"1948-08-01","closed_date":"2006-04-21","next":[9910914,9910919,9910916,9910909,9910913,9910921],"voronoi":{"lat":43.49681,"lng":143.557181,"delta_lat":[0,-174169,-70972,-10052,240578,9169],"delta_lng":[0,84841,59333,37407,-133061,-17074]},"impl":false},
    {"code":9910916,"id":"69113a","name":"大誉地","name_kana":"およち","closed":true,"lat":43.391944,"lng":143.681944,"prefecture":1,"lines":[10118,99109],"postal_code":"089-4252","address":"北海道足寄郡足寄町大誉地本町２０−１１","open_date":"1913-10-11","closed_date":"2006-04-21","next":[9910917,9910915,1010908,1010907,9910919,9910909],"voronoi":{"lat":43.241617,"lng":143.738762,"delta_lat":[0,240578,-16195,-194048,-30791,-3167],"delta_lng":[0,-133061,53002,125827,-33390,-3959]},"impl":false},
    {"code":9910917,"id":"7dce55","name":"薫別","name_kana":"くんべつ","closed":true,"lat":43.414567,"lng":143.716833,"prefecture":1,"lines":[10118,99109],"postal_code":"089-4300","address":"北海道足寄郡陸別町","open_date":"1958-09-10","closed_date":"2006-04-21","next":[9910916,9910918,1010908,9910919],"voronoi":{"lat":43.466,"lng":143.658703,"delta_lat":[0,-194048,84326,109200],"delta_lng":[0,125827,119926,-225203]},"impl":false},
    {"code":9910918,"id":"43f113","name":"陸別","name_kana":"りくべつ","closed":true,"lat":43.4675,"lng":143.7425,"prefecture":1,"lines":[10118,99109],"postal_code":"089-4300","address":"北海道足寄郡陸別町字陸別原野基線６９","open_date":"1910-09-22","closed_date":"2006-04-21","next":[1010114,1010908,9910920,9910917,9910919],"voronoi":{"lat":43.539404,"lng":143.851076,"delta_lat":[0,-180606,-2519,109200,60744],"delta_lng":[0,58429,-5050,-225203,123202]},"impl":false},
    {"code":9910919,"id":"4b0b53","name":"分線","name_kana":"ぶんせん","closed":true,"lat":43.514419,"lng":143.719367,"prefecture":1,"lines":[10118,99109],"postal_code":"089-4352","address":"北海道足寄郡陸別町字分線","open_date":"1958-09-10","closed_date":"2006-04-21","next":[9910915,9910920,9910921,9910916,9910917,9910918],"voronoi":{"lat":43.533342,"lng":143.666229,"delta_lat":[0,-41977,-9169,-16195,-522,60744],"delta_lng":[0,-77602,17074,53002,20550,123202]},"impl":false},
    {"code":9910920,"id":"266950","name":"川上","name_kana":"かわかみ","closed":true,"lat":43.546622,"lng":143.72105,"prefecture":1,"lines":[10118,99109],"postal_code":"089-4353","address":"北海道足寄郡陸別町字川上","open_date":"1920-06-01","closed_date":"2006-04-21","next":[9910921,1010114,9910930,9910918,9910919,9910929,9910928,1010113],"voronoi":{"lat":43.539404,"lng":143.851076,"delta_lat":[0,-13181,7119,99754,-8345,-10119,-3440,-66325],"delta_lng":[0,-48622,-136226,99686,37847,29861,7761,9733]},"impl":false},
    {"code":9910921,"id":"60b99b","name":"小利別","name_kana":"しょうとしべつ","closed":true,"lat":43.588172,"lng":143.679472,"prefecture":1,"lines":[10118,99109],"postal_code":"089-4300","address":"北海道足寄郡陸別町字小利別本通","open_date":"1911-09-25","closed_date":"2006-04-21","next":[9910923,9910925,9910920,9910927,9910924,9910926,9910914,9910928,9910919,9910922,9910915],"voronoi":{"lat":43.49681,"lng":143.557181,"delta_lat":[0,13667,127982,12796,496,-205,-1481,-11585,-5385,-99754,-41977],"delta_lng":[0,-43504,126765,29671,3236,49291,6192,27752,9331,-99686,-77602]},"impl":false},
    {"code":9910922,"id":"35702f","name":"置戸","name_kana":"おけと","closed":true,"lat":43.677008,"lng":143.589783,"prefecture":1,"lines":[10118,99109],"postal_code":"099-1100","address":"北海道常呂郡置戸町字置戸４５６","open_date":"1911-09-25","closed_date":"2006-04-21","next":[9910923,1010712,1111619,1111627,1010713,9910921,9910914,1111628,1010717,1111618],"voronoi":{"lat":43.706248,"lng":143.349818,"delta_lat":[0,30162,-3714,-94237,-127982,-3696,7355,44415,124592,10387],"delta_lng":[0,204621,29861,56142,-126765,-77648,-9007,-43814,-47407,5268]},"impl":false},
    {"code":9910923,"id":"4e6b7f","name":"豊住","name_kana":"とよずみ","closed":true,"lat":43.701361,"lng":143.630661,"prefecture":1,"lines":[10118,99109],"postal_code":"099-1365","address":"北海道常呂郡置戸町字豊住６３","open_date":"1955-08-20","closed_date":"2006-04-21","next":[9910922,9910921,1111628,1111629,9910924],"voronoi":{"lat":43.743845,"lng":143.629639,"delta_lat":[0,-1857,-9292,-94237,12796],"delta_lng":[0,-16860,-28479,56142,29671]},"impl":false},
    {"code":9910924,"id":"cfd95b","name":"境野","name_kana":"さかいの","closed":true,"lat":43.714242,"lng":143.660128,"prefecture":1,"lines":[10118,99109],"postal_code":"099-1361","address":"北海道常呂郡置戸町字境野","open_date":"1922-08-01","closed_date":"2006-04-21","next":[9910921,1111629,9910925,9910923],"voronoi":{"lat":43.651752,"lng":143.673349,"delta_lat":[0,112651,-20557,-92590],"delta_lng":[0,-5873,-37837,40474]},"impl":false},
    {"code":9910925,"id":"2e24d1","name":"西訓子府","name_kana":"にしくんねっぷ","closed":true,"lat":43.715278,"lng":143.68,"prefecture":1,"lines":[10118,99109],"postal_code":"099-1424","address":"北海道常呂郡訓子府町字西富","closed_date":"2006-04-21","next":[9910921,1111629,9910926,9910924],"voronoi":{"lat":43.651547,"lng":143.72264,"delta_lat":[0,121001,-8145,-112651],"delta_lng":[0,-45400,-9764,5873]},"impl":false},
    {"code":9910926,"id":"471a5f","name":"西富","name_kana":"にしとみ","closed":true,"lat":43.727597,"lng":143.712833,"prefecture":1,"lines":[10118,99109],"postal_code":"099-1424","address":"北海道常呂郡訓子府町字西富１２３","open_date":"1955-08-20","closed_date":"2006-04-21","next":[9910921,9910925,9910927,1111630,1111629],"voronoi":{"lat":43.772548,"lng":143.67724,"delta_lat":[0,-121001,-1481,118666,22226],"delta_lng":[0,45400,6192,-5095,-34832]},"impl":false},
    {"code":9910927,"id":"a5ef65","name":"訓子府","name_kana":"くんねっぷ","closed":true,"lat":43.728683,"lng":143.738125,"prefecture":1,"lines":[10118,99109],"postal_code":"099-1436","address":"北海道常呂郡訓子府町元町","open_date":"1911-09-25","closed_date":"2006-04-21","next":[1111630,9910921,9910928,9910926],"voronoi":{"lat":43.768731,"lng":143.723736,"delta_lat":[0,-6454,-123797,11585],"delta_lng":[0,23692,9155,-27752]},"impl":false},
    {"code":9910928,"id":"3d86fb","name":"穂波","name_kana":"ほなみ","closed":true,"lat":43.730417,"lng":143.761572,"prefecture":1,"lines":[10118,99109],"postal_code":"099-1402","address":"北海道常呂郡訓子府町字穂波","closed_date":"2006-04-21","next":[1111630,9910927,9910921,9910929,9910920],"voronoi":{"lat":43.633095,"lng":143.765915,"delta_lat":[0,5385,123797,1396,-138923],"delta_lng":[0,-9331,-9155,17862,38471]},"impl":false},
    {"code":9910929,"id":"6f129c","name":"日ノ出","name_kana":"ひので","closed":true,"lat":43.737067,"lng":143.785586,"prefecture":1,"lines":[10118,99109],"postal_code":"099-1401","address":"北海道常呂郡訓子府町字日出２８−８７","open_date":"1947-02-11","closed_date":"2006-04-21","next":[9910928,9910920,9910930,1111630],"voronoi":{"lat":43.763673,"lng":143.76529,"delta_lat":[0,-138923,-10119,159828],"delta_lng":[0,38471,29861,-46536]},"impl":false},
    {"code":9910930,"id":"f2c3e4","name":"広郷","name_kana":"ひろさと","closed":true,"lat":43.743717,"lng":143.808425,"prefecture":1,"lines":[10118,99109],"postal_code":"099-1585","address":"北海道北見市上ところ５７９","closed_date":"2006-04-21","next":[1010113,1111631,9910920,9910931,9910929,1010112,1111630],"voronoi":{"lat":43.774459,"lng":143.787086,"delta_lat":[0,-159828,-3440,11329,25438,126597,408],"delta_lng":[0,46536,7761,10855,20863,-62069,-23440]},"impl":false},
    {"code":9910931,"id":"2b27d3","name":"上常呂","name_kana":"かみところ","closed":true,"lat":43.757731,"lng":143.837008,"prefecture":1,"lines":[10118,99109],"postal_code":"099-1585","address":"北海道北見市上ところ６８２−２","open_date":"1911-09-25","closed_date":"2006-04-21","next":[1111631,1010112,9910932,1010110,1111632,9910930,1010111],"voronoi":{"lat":43.648627,"lng":143.873825,"delta_lat":[0,-669,126597,7419,-2244,-97003,-25305],"delta_lng":[0,-723,-62069,12874,22251,53840,-17808]},"impl":false},
    {"code":9910932,"id":"3d933d","name":"北光社","name_kana":"ほっこうしゃ","closed":true,"lat":43.775858,"lng":143.869667,"prefecture":1,"lines":[10118,99109],"postal_code":"099-1583","address":"北海道北見市北上１２","closed_date":"2006-04-21","next":[1010108,1111633,9910931,1010110,1111632,1010107],"voronoi":{"lat":43.804173,"lng":143.869882,"delta_lat":[0,-24443,-97003,30229,3931,18454],"delta_lng":[0,-23725,53840,31445,1987,8053]},"impl":false},
    {"code":1111633,"id":"8705c2","name":"北見","name_kana":"きたみ","lat":43.805504,"lng":143.898167,"prefecture":1,"lines":[11116,10118,99109],"attr":"cool","postal_code":"090-0040","address":"北見市大通西１丁目","next":[1010106,9910932,1111632,1010107,1111634],"voronoi":{"lat":43.853136,"lng":143.867814,"delta_lat":[0,-48962,-68832,16080,11923],"delta_lng":[0,2068,71600,12569,7601]},"impl":true}
  ],
  "closed_date":"1989-06-04",
  "impl":false
}