{
  "code":10112,
  "id":"7c09a5",
  "name":"富内線",
  "name_kana":"とみうちせん",
  "name_formal":"国鉄富内線",
  "station_size":15,
  "company_code":0,
  "closed":true,
  "station_list":[
    {"code":1111105,"id":"b4d92f","name":"鵡川","name_kana":"むかわ","lat":42.578953,"lng":141.923892,"prefecture":1,"lines":[11111,10112],"attr":"eco","postal_code":"054-0023","address":"勇払郡むかわ町末広２丁目","next":[1111106,1111104,1011202],"voronoi":{"lat":42.630099,"lng":141.916983,"delta_lat":[0,-100422,44349],"delta_lng":[0,-29347,59617]},"impl":true},
    {"code":1011202,"id":"384002","name":"豊城","name_kana":"とよしろ","closed":true,"lat":42.596261,"lng":141.955953,"prefecture":1,"lines":[10112],"postal_code":"054-0003","address":"北海道勇払郡むかわ町豊城４４５−１２","open_date":"1922-07-24","closed_date":"1986-11-01","next":[1111104,1011203,1111106,1111105,1011205,1110504],"voronoi":{"lat":42.702893,"lng":141.911409,"delta_lat":[0,-72794,-56073,-5468,80431,87178],"delta_lng":[0,5575,30270,23528,28682,-48416]},"impl":false},
    {"code":1011203,"id":"afcfe3","name":"春日(北海道)","original_name":"春日","name_kana":"かすが","closed":true,"lat":42.580628,"lng":141.999792,"prefecture":1,"lines":[10112],"postal_code":"054-0002","address":"北海道勇払郡むかわ町春日３２４","open_date":"1922-07-24","closed_date":"1986-11-01","next":[1111107,1011205,1011202,1011204,1111106],"voronoi":{"lat":42.561835,"lng":142.049945,"delta_lat":[0,62075,25080,-80431,-27763],"delta_lng":[0,-21682,-28799,-28682,15472]},"impl":false},
    {"code":1011204,"id":"204615","name":"旭岡","name_kana":"あさひおか","closed":true,"lat":42.607767,"lng":142.077489,"prefecture":1,"lines":[10112],"postal_code":"054-0001","address":"北海道勇払郡むかわ町旭岡５８","open_date":"1922-07-24","closed_date":"1986-11-01","next":[1011209,1011205,1111110,1111107,1011206,1011203,1111108,1111109],"voronoi":{"lat":42.543078,"lng":142.11264,"delta_lat":[0,1316,17440,62075,21896,-20991,-36551,-24321],"delta_lng":[0,-34701,-27994,-21682,107252,56516,21727,-37305]},"impl":false},
    {"code":1011205,"id":"7b3c20","name":"栄(北海道)","original_name":"栄","name_kana":"さかえ","closed":true,"lat":42.658056,"lng":142.067222,"prefecture":1,"lines":[10112],"postal_code":"054-0141","address":"北海道勇払郡むかわ町穂別栄","open_date":"1923-06-12","closed_date":"1986-11-01","next":[1011206,1011204,1011203,1110505,1111005,1110504,1011202],"voronoi":{"lat":42.736168,"lng":141.951047,"delta_lat":[0,21286,5798,10737,-128183,-21896,25080],"delta_lng":[0,9013,3738,29775,141941,-107252,-28799]},"impl":false},
    {"code":1011206,"id":"a1e055","name":"豊田(北海道)","original_name":"豊田","name_kana":"とよた","closed":true,"lat":42.7125,"lng":142.116389,"prefecture":1,"lines":[10112],"postal_code":"054-0144","address":"北海道勇払郡むかわ町穂別豊田","open_date":"1923-11-11","closed_date":"1986-11-01","next":[1011205,1011209,1111005,1011204,1011207],"voronoi":{"lat":42.783549,"lng":142.007067,"delta_lat":[0,-9561,-128183,-20991,86321],"delta_lng":[0,-13493,141941,56516,-2844]},"impl":false},
    {"code":1011207,"id":"d6fd92","name":"穂別","name_kana":"ほべつ","closed":true,"lat":42.760131,"lng":142.135328,"prefecture":1,"lines":[10112],"postal_code":"054-0211","address":"北海道勇払郡むかわ町穂別４０−９","open_date":"1923-11-11","closed_date":"1986-11-01","next":[1111007,1011209,1111006,1011208,1011206,1111005],"voronoi":{"lat":42.871914,"lng":142.128021,"delta_lat":[0,10699,-163333,-8145,72414,4965],"delta_lng":[0,19120,44807,-2761,-182120,4686]},"impl":false},
    {"code":1011208,"id":"6bde03","name":"富内","name_kana":"とみうち","closed":true,"lat":42.783303,"lng":142.219797,"prefecture":1,"lines":[10112],"postal_code":"054-0364","address":"北海道勇払郡むかわ町穂別富内６１","open_date":"1923-11-11","closed_date":"1986-11-01","next":[9911804,1111007,1011209,1111013,1011210,1011214,1011207,1011213,1011212],"voronoi":{"lat":42.817863,"lng":142.3037,"delta_lat":[0,-51566,-47016,163333,33085,31704,-41257,-33381,-38671],"delta_lng":[0,-37748,-74004,-44807,27683,66218,48009,10570,5296]},"impl":false},
    {"code":1011209,"id":"658df9","name":"幌毛志","name_kana":"ほろけし","closed":true,"lat":42.717289,"lng":142.261736,"prefecture":1,"lines":[10112],"postal_code":"055-0412","address":"北海道沙流郡平取町字幌毛志","open_date":"1958-11-15","closed_date":"1986-11-01","next":[1011206,1011204,1011208,1011207,1111110,1011211,1011210,1111111],"voronoi":{"lat":42.605338,"lng":142.313478,"delta_lat":[0,160959,-47016,-8145,-86321,-36551,-20364,-6992],"delta_lng":[0,-47527,-74004,-2761,2844,21727,62585,43742]},"impl":false},
    {"code":1011210,"id":"389509","name":"振内","name_kana":"ふれない","closed":true,"lat":42.727439,"lng":142.296111,"prefecture":1,"lines":[10112],"postal_code":"055-0411","address":"北海道沙流郡平取町振内町１５１","open_date":"1958-11-15","closed_date":"1986-11-01","next":[1011211,1011212,1011208,1011209],"voronoi":{"lat":42.766296,"lng":142.265952,"delta_lat":[0,51566,-18416,-194109],"delta_lng":[0,37748,9433,346]},"impl":false},
    {"code":1011211,"id":"5de2a1","name":"仁世宇","name_kana":"にせう","closed":true,"lat":42.7275,"lng":142.330411,"prefecture":1,"lines":[10112],"postal_code":"055-0414","address":"北海道沙流郡平取町字岩知志１８０−１","open_date":"1964-11-05","closed_date":"1986-11-01","next":[1111115,1011210,1011212,1011209,1111114,1111113,1111117,1111112,1111111],"voronoi":{"lat":42.540925,"lng":142.391415,"delta_lat":[0,-345,-1883,4021,10928,245800,-194109,-44430,-10587],"delta_lng":[0,2166,38747,52410,38505,-210111,346,6606,27458]},"impl":false},
    {"code":1011212,"id":"6e8982","name":"岩知志","name_kana":"いわちし","closed":true,"lat":42.771183,"lng":142.381514,"prefecture":1,"lines":[10112],"postal_code":"055-0414","address":"北海道沙流郡平取町字岩知志１３１","open_date":"1964-11-05","closed_date":"1986-11-01","next":[1011211,1111117,1011210,1111121,1011213,1111119,1011208],"voronoi":{"lat":42.817863,"lng":142.3037,"delta_lat":[0,-18416,-245800,7693,13249,44122,215383],"delta_lng":[0,9433,210111,52067,46449,100224,-417067]},"impl":false},
    {"code":1011213,"id":"206bd6","name":"日高岩内","name_kana":"ひだかいわない","closed":true,"lat":42.808056,"lng":142.400556,"prefecture":1,"lines":[10112],"postal_code":"055-2316","address":"北海道沙流郡日高町字三岩","open_date":"1964-11-05","closed_date":"1986-11-01","next":[1110703,1011214,1011208,1011212,1111121],"voronoi":{"lat":42.618711,"lng":142.721983,"delta_lat":[0,215383,38671,-172169,-78643],"delta_lng":[0,-417067,-5296,407777,23222]},"impl":false},
    {"code":1011214,"id":"352fe9","name":"日高三岡","name_kana":"ひだかみつおか","closed":true,"lat":42.845556,"lng":142.416389,"prefecture":1,"lines":[10112],"postal_code":"055-2316","address":"北海道沙流郡日高町字三岩","open_date":"1964-11-05","closed_date":"1986-11-01","next":[1011215,1011213,1111013,1011208,1110703],"voronoi":{"lat":42.872765,"lng":142.299621,"delta_lat":[0,33381,3435,-166152,-42833],"delta_lng":[0,-10570,31070,377497,9780]},"impl":false},
    {"code":1011215,"id":"42cea4","name":"日高町","name_kana":"ひだかちょう","closed":true,"lat":42.881833,"lng":142.432356,"prefecture":1,"lines":[10112],"postal_code":"055-2305","address":"北海道沙流郡日高町新町３丁目３９６−２０","open_date":"1964-11-05","closed_date":"1986-11-01","next":[1110703,1111013,1011214,1111014],"voronoi":{"lat":42.743428,"lng":142.697617,"delta_lat":[0,166152,58650,-171087],"delta_lng":[0,-377497,202153,166774]},"impl":false}
  ],
  "closed_date":"1986-11-01",
  "impl":false
}