{
  "code":10115,
  "id":"11a57b",
  "name":"広尾線",
  "name_kana":"ひろおせん",
  "name_formal":"国鉄広尾線",
  "station_size":17,
  "company_code":0,
  "closed":true,
  "station_list":[
    {"code":1110709,"id":"ca7327","name":"帯広","name_kana":"おびひろ","lat":42.917997,"lng":143.20195,"prefecture":1,"lines":[11107,10107,10115],"attr":"cool","postal_code":"080-0012","address":"帯広市西２条南１２丁目","next":[1010702,1011503,1110708,1110710,1011502],"voronoi":{"lat":42.891606,"lng":143.200574,"delta_lat":[0,-9563,52117,-2846,-10234],"delta_lng":[0,-29374,15141,44317,-999]},"impl":true},
    {"code":1011502,"id":"ee8b6d","name":"依田","name_kana":"よだ","closed":true,"lat":42.893333,"lng":143.226944,"prefecture":1,"lines":[10115],"postal_code":"089-0571","address":"北海道中川郡幕別町字依田２５１","open_date":"1957-12-25","closed_date":"1987-02-02","next":[1110710,1110711,1011503,1110709],"voronoi":{"lat":42.863849,"lng":143.267477,"delta_lat":[0,-1580,29337,29474],"delta_lng":[0,238,-67141,29085]},"impl":false},
    {"code":1011503,"id":"55e92a","name":"北愛国","name_kana":"きたあいこく","closed":true,"lat":42.871083,"lng":143.217222,"prefecture":1,"lines":[10115],"postal_code":"089-1181","address":"北海道帯広市愛国町４６６−３","open_date":"1953-11-15","closed_date":"1987-02-02","next":[1011504,1110709,1110711,1011502,1110708],"voronoi":{"lat":42.879665,"lng":143.168591,"delta_lat":[0,-89038,71643,29337,-9563],"delta_lng":[0,128456,-29333,-67141,-29374]},"impl":false},
    {"code":1011504,"id":"a7a878","name":"愛国","name_kana":"あいこく","closed":true,"lat":42.837139,"lng":143.193694,"prefecture":1,"lines":[10115],"postal_code":"089-1181","address":"北海道帯広市愛国町基線４１−２","open_date":"1929-11-02","closed_date":"1987-02-02","next":[1011503,1110708,1110707,1011509,1011505,1011506,1110711],"voronoi":{"lat":42.744548,"lng":143.312036,"delta_lat":[0,14065,91779,24041,5232,-89038,-43118],"delta_lng":[0,-40494,-150380,30988,16441,128456,27749]},"impl":false},
    {"code":1011505,"id":"0adfe4","name":"大正(北海道)","original_name":"大正","name_kana":"たいしょう","closed":true,"lat":42.791944,"lng":143.166111,"prefecture":1,"lines":[10115],"postal_code":"089-1242","address":"北海道帯広市大正町東１線１００−４","open_date":"1929-09-02","closed_date":"1987-02-02","next":[1011507,1110707,1110706,1110705,1011506,1011504],"voronoi":{"lat":42.850391,"lng":143.121162,"delta_lat":[0,-3895,-19298,-45686,-1672,-21228],"delta_lng":[0,-12930,-24835,-45601,4981,228765]},"impl":false},
    {"code":1011506,"id":"fd1599","name":"幸福","name_kana":"こうふく","closed":true,"lat":42.74525,"lng":143.161778,"prefecture":1,"lines":[10115],"postal_code":"089-1246","address":"北海道帯広市幸福町東１線１６１−１","open_date":"1956-11-01","closed_date":"1987-02-02","next":[1011508,1011505,1011507,1011504,1011509],"voronoi":{"lat":42.758612,"lng":143.271543,"delta_lat":[0,21228,-80192,23442,21457],"delta_lng":[0,-228765,141966,92885,34408]},"impl":false},
    {"code":1011507,"id":"14eb10","name":"中札内","name_kana":"なかさつない","closed":true,"lat":42.695778,"lng":143.133833,"prefecture":1,"lines":[10115],"postal_code":"089-1342","address":"北海道河西郡中札内村東２条南３丁目５","open_date":"1929-11-02","closed_date":"1987-02-02","next":[1111121,1011505,1111124,1011508,1110705,1011506,1110704,1111122,1111129],"voronoi":{"lat":42.699649,"lng":143.184744,"delta_lat":[0,80192,1672,-39888,-136961,-48540,-24052,-75180,-12794],"delta_lng":[0,-141966,-4981,-99470,-170525,39538,21385,94018,31680]},"impl":false},
    {"code":1011508,"id":"7cdf3f","name":"更別","name_kana":"さらべつ","closed":true,"lat":42.648611,"lng":143.186167,"prefecture":1,"lines":[10115],"postal_code":"089-1512","address":"北海道河西郡更別村中央町９２−１１８","open_date":"1930-10-10","closed_date":"1987-02-02","next":[1011511,1011509,1111129,1011506,1011512,1011507],"voronoi":{"lat":42.444097,"lng":142.954423,"delta_lat":[0,-14509,63883,44901,184718,-23442],"delta_lng":[0,26682,114830,61468,120226,-92885]},"impl":false},
    {"code":1011509,"id":"261131","name":"上更別","name_kana":"かみさらべつ","closed":true,"lat":42.609306,"lng":143.246556,"prefecture":1,"lines":[10115],"postal_code":"089-1581","address":"北海道河西郡更別村字上更別２","open_date":"1930-10-10","closed_date":"1987-02-02","next":[1011508,1110712,1011511,1011504,1110711,1110715,1011510,1011506],"voronoi":{"lat":42.747509,"lng":143.324797,"delta_lat":[0,-2371,-13681,-10186,-149939,-32959,184718,21457],"delta_lng":[0,13705,36229,9875,-124012,-103191,120226,34408]},"impl":false},
    {"code":1011510,"id":"a74cca","name":"忠類","name_kana":"ちゅうるい","closed":true,"lat":42.564667,"lng":143.300528,"prefecture":1,"lines":[10115],"postal_code":"089-1709","address":"北海道中川郡幕別町忠類幸町５１１−４","open_date":"1930-10-10","closed_date":"1987-02-02","next":[1110715,1011512,1110716,1011513,1110717,1011514,1011511,1011509],"voronoi":{"lat":42.713788,"lng":143.395481,"delta_lat":[0,-80221,-142758,-140,14450,9872,56340,149939],"delta_lng":[0,85205,99077,-4110,-222947,-29909,-62204,124012]},"impl":false},
    {"code":1011511,"id":"4dae73","name":"十勝東和","name_kana":"とかちとうわ","closed":true,"lat":42.53225,"lng":143.271167,"prefecture":1,"lines":[10115],"postal_code":"089-2105","address":"北海道広尾郡大樹町字大樹","open_date":"1960-04-15","closed_date":"1987-02-02","next":[1011508,1011509,1011512,1011510],"voronoi":{"lat":42.493471,"lng":143.095934,"delta_lat":[0,44901,32959,-56340],"delta_lng":[0,61468,103191,62204]},"impl":false},
    {"code":1011512,"id":"40b4a8","name":"大樹","name_kana":"たいき","closed":true,"lat":42.488333,"lng":143.275333,"prefecture":1,"lines":[10115],"postal_code":"089-2146","address":"北海道広尾郡大樹町寿通１丁目１１−１","open_date":"1930-10-10","closed_date":"1987-02-02","next":[1011513,1011510,1011508,1011515,1011511,1111130,1111129],"voronoi":{"lat":42.385045,"lng":143.023971,"delta_lat":[0,18113,101961,9872,-21520,-63883,-41290],"delta_lng":[0,126876,201859,-29909,-226863,-114830,39412]},"impl":false},
    {"code":1011513,"id":"2c880b","name":"石坂","name_kana":"いしざか","closed":true,"lat":42.452806,"lng":143.293278,"prefecture":1,"lines":[10115],"postal_code":"089-2125","address":"北海道広尾郡大樹町字石坂６１９","open_date":"1932-11-05","closed_date":"1987-02-02","next":[1011512,1011514,1011515,1011510],"voronoi":{"lat":42.403694,"lng":143.207318,"delta_lat":[0,-536,101961,-14450],"delta_lng":[0,-56471,201859,222947]},"impl":false},
    {"code":1011514,"id":"f094c9","name":"豊似","name_kana":"とよに","closed":true,"lat":42.398222,"lng":143.306167,"prefecture":1,"lines":[10115],"postal_code":"089-2446","address":"北海道広尾郡広尾町字紋別１８−４５","open_date":"1932-11-05","closed_date":"1987-02-02","next":[1011513,1011516,1011515,1011510,1110717],"voronoi":{"lat":42.368298,"lng":143.331485,"delta_lat":[0,35397,86975,140,-92285],"delta_lng":[0,-124167,368335,4110,116088]},"impl":false},
    {"code":1011515,"id":"475c9f","name":"野塚","name_kana":"のづか","closed":true,"lat":42.356222,"lng":143.294194,"prefecture":1,"lines":[10115],"postal_code":"089-2561","address":"北海道広尾郡広尾町字野塚","open_date":"1932-11-05","closed_date":"1987-02-02","next":[1111130,1011517,1011514,1011513,1011512,1011516],"voronoi":{"lat":42.403694,"lng":143.207318,"delta_lat":[0,-536,-18113,-111867,44206,50913],"delta_lng":[0,-56471,-126876,71287,172442,63785]},"impl":false},
    {"code":1011516,"id":"33e2d8","name":"新生","name_kana":"しんせい","closed":true,"lat":42.334611,"lng":143.311444,"prefecture":1,"lines":[10115],"postal_code":"089-2561","address":"北海道広尾郡広尾町字野塚１３","open_date":"1960-04-15","closed_date":"1987-02-02","next":[1011514,1110717,1011517,1110720,1011515],"voronoi":{"lat":42.398525,"lng":143.695852,"delta_lat":[0,-56234,-51592,26686,50913],"delta_lng":[0,84049,48718,-560918,63785]},"impl":false},
    {"code":1011517,"id":"d47880","name":"広尾(北海道)","original_name":"広尾","name_kana":"ひろお","closed":true,"lat":42.296083,"lng":143.309611,"prefecture":1,"lines":[10115],"postal_code":"089-2627","address":"北海道広尾郡広尾町丸山通北２丁目１０１","open_date":"1932-11-05","closed_date":"1987-02-02","next":[9920830,9920816,1110806,1011516,1011515,1110720,1110803,9920829,1110804,9920831,1111130],"voronoi":{"lat":40.099069,"lng":144.395912,"delta_lat":[0,-140531,-302824,-202260,1720882,374251,85398,656714,26686,-44206,-1938133],"delta_lng":[0,259346,577660,433831,-891678,-225296,-53153,-668004,-560918,-172442,872181]},"impl":false}
  ],
  "closed_date":"1987-02-02",
  "impl":false
}