{
  "code":1011,
  "id":"444fde",
  "name":"北海道新幹線",
  "name_kana":"ほっかいどうしんかんせん",
  "station_size":4,
  "company_code":1,
  "color":"#2BC431",
  "station_list":[
    {"code":100423,"id":"6d47f7","name":"新青森","name_kana":"しんあおもり","lat":40.8275,"lng":140.693472,"prefecture":2,"lines":[1004,1011,11202],"attr":"cool","postal_code":"038-0003","address":"青森県青森市大字石江字高間140-2","open_date":"1986-11-01","next":[9920608,1120263,1120502,1120264,1120120],"voronoi":{"lat":40.844465,"lng":140.713641,"delta_lat":[0,-3100,-60174,-44148,24560],"delta_lng":[0,-30562,-1464,27329,7042]},"impl":true},
    {"code":101102,"id":"7b5595","name":"奥津軽いまべつ","name_kana":"おくつがるいまべつ","lat":41.144877,"lng":140.51563,"prefecture":2,"lines":[1011,11118],"attr":"cool","postal_code":"030-1505","address":"青森県東津軽郡今別町大字大川平清川","next":[1120513,1111801,9920112,1120514,1120511,1120515],"voronoi":{"lat":41.160518,"lng":140.52638,"delta_lat":[0,-95563,-2495,83689,44714,46461],"delta_lng":[0,-72406,6022,151157,51328,39020]},"impl":true},
    {"code":101103,"id":"95d372","name":"木古内","name_kana":"きこない","lat":41.677642,"lng":140.434004,"prefecture":1,"lines":[1011,11118,11119,99108,11126],"attr":"eco","postal_code":"049-0422","address":"上磯郡木古内町本町","open_date":"1930-10-25","next":[1111909,1111908,1112602,1111911],"voronoi":{"lat":41.746396,"lng":140.414293,"delta_lat":[0,-31002,-59891,-7962],"delta_lng":[0,-3632,17538,48809]},"impl":true},
    {"code":101104,"id":"fbe0a2","name":"新函館北斗","name_kana":"しんはこだてほくと","lat":41.9054,"lng":140.646525,"prefecture":1,"lines":[1011,11101],"attr":"eco","postal_code":"041-1242","address":"北海道北斗市市渡","open_date":"1902-12-10","next":[1110108,1111918,1111916,1110107,1111917,1110105],"voronoi":{"lat":41.865447,"lng":140.654063,"delta_lat":[0,-139,-1875,6405,63251,-2828],"delta_lng":[0,-548,-23744,-92785,137248,8248]},"impl":true}
  ],
  "north":41.90512,
  "south":40.82663,
  "east":140.6936,
  "west":140.23157,
  "polyline_list":[
    {
      "start":"新青森",
      "end":"新函館北斗",
      "lat":40.82663,
      "lng":140.6936,
      "delta_lat":[0,263,311,306,240,201,195,195,194,181,229,233,189,188,182,227,220,358,363,506,591,1343,1220,2322,544,584,596,700,649,583,454,337,337,362,545,1269,1127,1710,2318,233,375,486,356,498,278,1824,2264,1255,472,394,420,537,336,420,310,297,388,336,278,252,200,162,142,187,187,226,143,161,200,278,594,1557,619,239,259,348,426,336,458,549,426,548,368,445,755,1935,464,352,274,503,322,413,483,510,786,1005,2565,2319,1841,1236,540,612,521,251,129,148,210,137,103,238,483,424,483,366,438,334,585,592,585,379,1247,1304,1568,2287,1451,533,501,359,520,360,571,1271,1187,295,359,411,1565,1789,500,487,410,404,564,487,269,955,852,385,512,782,410,339,346,198,237,282,615,307,333,250,294,314,281,359,595,1305,864,518,506,319,346,479,768,1093,620,275,294,320,230,294,288,278,322,305,265,272,255,253,169,179,156,144,118,122,80,99,111,96],
      "delta_lng":[0,-9,-17,-8,-43,-69,-86,-120,-137,-176,-245,-232,-171,-172,-137,-138,-111,-189,-197,-266,-327,-729,-670,-1261,-275,-206,-154,-138,-86,-137,-172,-154,-189,-223,-361,-927,-806,-1219,-1631,-163,-223,-266,-180,-258,-146,-961,-1185,-652,-292,-317,-387,-515,-283,-403,-283,-335,-481,-523,-481,-524,-566,-515,-601,-721,-755,-859,-463,-481,-480,-532,-1082,-2601,-1072,-352,-361,-395,-412,-274,-292,-292,-189,-154,-52,-26,9,52,-52,-69,-120,-232,-188,-318,-386,-464,-729,-859,-1871,-1682,-1374,-927,-274,-292,-172,-111,-95,-206,-362,-187,-103,-137,-198,-146,-94,-43,9,25,95,214,258,249,987,1018,1262,1819,1159,420,447,429,609,455,901,2017,1872,437,447,437,1743,1982,575,576,412,480,610,575,283,1064,961,404,481,798,429,463,507,377,507,695,1845,816,686,404,403,395,335,326,463,936,652,447,566,421,566,798,1357,1896,1073,369,292,258,120,120,77,24,-15,-58,-86,-133,-180,-219,-172,-210,-236,-249,-270,-309,-305,-352,-416,-408]
    }
  ],
  "impl":true
}