{
  "code":10116,
  "id":"7bb4d5",
  "name":"万字線",
  "name_kana":"まんじせん",
  "name_formal":"国鉄万字線",
  "station_size":6,
  "company_code":0,
  "closed":true,
  "station_list":[
    {"code":1110513,"id":"4b68e1","name":"志文","name_kana":"しぶん","lat":43.158903,"lng":141.744443,"prefecture":1,"lines":[11105,10116],"attr":"eco","postal_code":"068-0841","address":"岩見沢市志文本町１条４丁目","next":[1110326,1110512,1110327,1011602],"voronoi":{"lat":43.143688,"lng":141.708863,"delta_lat":[0,41303,-11723,-38147],"delta_lng":[0,32596,35603,2044]},"impl":true},
    {"code":1011602,"id":"aa1d17","name":"上志文","name_kana":"かみしぶん","closed":true,"lat":43.162472,"lng":141.811028,"prefecture":1,"lines":[10116],"postal_code":"068-0836","address":"北海道岩見沢市上志文町１３５２−１４","open_date":"1914-11-11","closed_date":"1985-04-01","next":[1110327,1112503,1112502,1110512,1011603,1110513,1110510,9911511],"voronoi":{"lat":43.098389,"lng":141.828441,"delta_lat":[0,11742,24990,38147,15346,6303,-4548,-91897],"delta_lng":[0,-34575,-14761,-2044,12394,33509,20948,-4249]},"impl":false},
    {"code":1011603,"id":"3dca93","name":"朝日(北海道)","original_name":"朝日","name_kana":"あさひ","closed":true,"lat":43.159556,"lng":141.874083,"prefecture":1,"lines":[10116],"postal_code":"068-3185","address":"北海道岩見沢市朝日町１７６","open_date":"1919-11-11","closed_date":"1985-04-01","next":[1112503,1112506,1011604,9911511,1112505,9911513,1011602],"voronoi":{"lat":43.19986,"lng":141.857572,"delta_lat":[0,-4910,-2699,-91387,-8355,5962,91897],"delta_lng":[0,27452,6536,7593,-47445,-12045,4249]},"impl":false},
    {"code":1011604,"id":"5bb23a","name":"美流渡","name_kana":"みると","closed":true,"lat":43.162889,"lng":141.914194,"prefecture":1,"lines":[10116],"postal_code":"068-3171","address":"北海道岩見沢市栗沢町美流渡本町５０−２","open_date":"1914-11-11","closed_date":"1985-04-01","next":[1111012,1112508,1011605,9911513,9911522,1011603,1112506],"voronoi":{"lat":43.192251,"lng":141.89156,"delta_lat":[0,-91387,-3264,1897,6033,94808,2753],"delta_lng":[0,7593,22121,3986,10972,23180,-8984]},"impl":false},
    {"code":1011605,"id":"47db40","name":"万字","name_kana":"まんじ","closed":true,"lat":43.14625,"lng":141.98225,"prefecture":1,"lines":[10116],"postal_code":"068-3153","address":"北海道岩見沢市栗沢町万字仲町１２９−３","open_date":"1914-11-11","closed_date":"1985-04-01","next":[9911808,1011606,1011604,9911522,1112508,1112509],"voronoi":{"lat":43.202638,"lng":141.965872,"delta_lat":[0,-2299,-94808,-407,114697,10835],"delta_lng":[0,-6460,-23180,3900,148022,5128]},"impl":false},
    {"code":1011606,"id":"1a3052","name":"万字炭山","name_kana":"まんじたんざん","closed":true,"lat":43.135639,"lng":141.990472,"prefecture":1,"lines":[10116],"postal_code":"068-3155","address":"北海道岩見沢市栗沢町万字寿町１","open_date":"1914-11-11","closed_date":"1985-04-01","next":[1011605,9911522,9911808],"voronoi":{"lat":43.084627,"lng":142.032596,"delta_lat":[0,20497,114697],"delta_lng":[0,-92463,148022]},"impl":false}
  ],
  "closed_date":"1985-04-01",
  "impl":false
}