{
  "code":10113,
  "id":"6cec35",
  "name":"羽幌線",
  "name_kana":"はぼろせん",
  "name_formal":"国鉄羽幌線",
  "station_size":39,
  "company_code":0,
  "closed":true,
  "station_list":[
    {"code":1111312,"id":"0b8d3a","name":"留萌","name_kana":"るもい","lat":43.942848,"lng":141.651433,"prefecture":1,"lines":[11113,10113,99112,99121],"attr":"cool","postal_code":"077-0005","address":"留萌市船場町２丁目","next":[1111313,9911202,1111311,1011302],"voronoi":{"lat":43.951194,"lng":141.637273,"delta_lat":[0,-46303,26290,24150],"delta_lng":[0,21540,17158,-23141]},"impl":true},
    {"code":1011302,"id":"cf83f6","name":"三泊","name_kana":"さんとまり","closed":true,"lat":43.965472,"lng":141.645417,"prefecture":1,"lines":[10113],"postal_code":"077-0002","address":"北海道留萌市塩見町８８−３","open_date":"1927-10-25","closed_date":"1987-03-30","next":[1111321,1011303,1111315,9911202,1111312,1111313],"voronoi":{"lat":43.955331,"lng":141.65283,"delta_lat":[0,23068,63024,-31099,-22545,-36585],"delta_lng":[0,10731,-197641,28748,40114,102491]},"impl":false},
    {"code":1011303,"id":"aca49f","name":"臼谷","name_kana":"うすや","closed":true,"lat":43.999444,"lng":141.65625,"prefecture":1,"lines":[10113],"postal_code":"078-3302","address":"北海道留萌郡小平町字臼谷５６−１","open_date":"1947-12-25","closed_date":"1987-03-30","next":[1011306,9911203,1011302,1111321,1011307,1011304,9911202],"voronoi":{"lat":43.978399,"lng":141.663561,"delta_lat":[0,63024,18949,-2935,-1611,-57342,-18695],"delta_lng":[0,-197641,-21045,102528,8999,125161,-11403]},"impl":false},
    {"code":1011304,"id":"d1dadd","name":"小平(北海道)","original_name":"小平","name_kana":"おびら","closed":true,"lat":44.017028,"lng":141.664306,"prefecture":1,"lines":[10113],"postal_code":"078-3301","address":"北海道留萌郡字小平町小平町","open_date":"1927-10-25","closed_date":"1987-03-30","next":[1011305,1011303,1011306,9911204,9911203],"voronoi":{"lat":43.998485,"lng":141.681563,"delta_lat":[0,57342,-8711,-34744,-9786],"delta_lng":[0,-125161,93640,41097,-3967]},"impl":false},
    {"code":1011305,"id":"b48339","name":"花岡(北海道)","original_name":"花岡","name_kana":"はなおか","closed":true,"lat":44.038056,"lng":141.682083,"prefecture":1,"lines":[10113],"postal_code":"078-3311","address":"北海道留萌郡小平町字花岡","open_date":"1956-08-20","closed_date":"1987-03-30","next":[9911204,1011304,9911206,1011306,9911205],"voronoi":{"lat":44.078229,"lng":141.739848,"delta_lat":[0,-31113,-34744,29553,15115],"delta_lng":[0,-89806,41097,38424,7089]},"impl":false},
    {"code":1011306,"id":"3a9724","name":"大椴","name_kana":"おおとど","closed":true,"lat":44.074056,"lng":141.669611,"prefecture":1,"lines":[10113],"postal_code":"078-3457","address":"北海道留萌郡小平町字大椴６７","open_date":"1927-10-25","closed_date":"1987-03-30","next":[1011303,1011305,9911206,1011307,1011304],"voronoi":{"lat":44.078229,"lng":141.739848,"delta_lat":[0,40678,-61469,-1611,-8711],"delta_lng":[0,18355,-210800,8999,93640]},"impl":false},
    {"code":1011307,"id":"869750","name":"富岡(北海道)","original_name":"富岡","name_kana":"とみおか","closed":true,"lat":44.109111,"lng":141.659389,"prefecture":1,"lines":[10113],"postal_code":"078-3456","address":"北海道留萌郡小平町字鬼鹿富岡","open_date":"1956-05-13","closed_date":"1987-03-30","next":[1111321,9911206,9911207,1011303,1011306,1011308],"voronoi":{"lat":44.104144,"lng":141.361009,"delta_lat":[0,-43771,-2935,61469,17764,2277],"delta_lng":[0,83866,102528,210800,12382,1241]},"impl":false},
    {"code":1011308,"id":"d6e5db","name":"鬼鹿","name_kana":"おにしか","closed":true,"lat":44.149444,"lng":141.655972,"prefecture":1,"lines":[10113],"postal_code":"078-3441","address":"北海道留萌郡小平町字鬼鹿港町３４６−５","open_date":"1928-10-01","closed_date":"1987-03-30","next":[1111321,1011309,9911207,1011310,1011307],"voronoi":{"lat":44.151853,"lng":141.782125,"delta_lat":[0,30646,4268,-82623,34804],"delta_lng":[0,-294686,-314900,188470,410817]},"impl":false},
    {"code":1011309,"id":"22b82d","name":"千松","name_kana":"せんまつ","closed":true,"lat":44.180167,"lng":141.659167,"prefecture":1,"lines":[10113],"postal_code":"078-3452","address":"北海道留萌郡小平町字鬼鹿千松５１−３","open_date":"1963-06-01","closed_date":"1987-03-30","next":[1011308,9911208,9911207,1011311,1011312,1011310],"voronoi":{"lat":44.182498,"lng":141.487438,"delta_lat":[0,-30646,1493,2498,41076,2080],"delta_lng":[0,294686,1527,1657,-63218,-19345]},"impl":false},
    {"code":1011310,"id":"5171c1","name":"力昼","name_kana":"りきびる","closed":true,"lat":44.210972,"lng":141.656806,"prefecture":1,"lines":[10113],"postal_code":"078-3541","address":"北海道苫前郡苫前町字力昼","open_date":"1931-08-15","closed_date":"1987-03-30","next":[1011314,1011313,1011311,1011308,1111321,1011309],"voronoi":{"lat":44.182498,"lng":141.487438,"delta_lat":[0,4268,94189,-17203,-10325,-54428],"delta_lng":[0,-314900,-258305,594186,78277,116049]},"impl":false},
    {"code":1011311,"id":"2c9b31","name":"番屋ノ沢","name_kana":"ばんやのさわ","closed":true,"lat":44.226667,"lng":141.664167,"prefecture":1,"lines":[10113],"postal_code":"078-3541","address":"北海道苫前郡苫前町字力昼６４４−１","open_date":"1955-03-26","closed_date":"1987-03-30","next":[1011313,1011312,1011309,1011310],"voronoi":{"lat":44.253427,"lng":141.586696,"delta_lat":[0,-2425,-54083,2080],"delta_lng":[0,96187,39207,-19345]},"impl":false},
    {"code":1011312,"id":"33464e","name":"古丹別","name_kana":"こたんべつ","closed":true,"lat":44.261222,"lng":141.711833,"prefecture":1,"lines":[10113],"postal_code":"078-3621","address":"北海道苫前郡苫前町字古丹別１８８−４１","open_date":"1931-08-15","closed_date":"1987-03-30","next":[9911306,9911208,1011315,1011311,1011313,1011314,9911304,1011316,1011309],"voronoi":{"lat":44.19692,"lng":141.72209,"delta_lat":[0,54083,47626,221,13333,1842,-23580,-81767,-52834],"delta_lng":[0,-39207,15420,197,30511,30975,35723,66966,-77367]},"impl":false},
    {"code":1011313,"id":"1d5435","name":"上平","name_kana":"うえひら","closed":true,"lat":44.27625,"lng":141.665417,"prefecture":1,"lines":[10113],"postal_code":"078-3631","address":"北海道苫前郡苫前町字香川２６４","open_date":"1932-09-01","closed_date":"1987-03-30","next":[1011311,1011314,1011312,1011310],"voronoi":{"lat":44.251002,"lng":141.682883,"delta_lat":[0,47626,-34876,-10325],"delta_lng":[0,15420,-189884,78277]},"impl":false},
    {"code":1011314,"id":"dd3db9","name":"苫前","name_kana":"とままえ","closed":true,"lat":44.307861,"lng":141.659611,"prefecture":1,"lines":[10113],"postal_code":"078-3701","address":"北海道苫前郡苫前町字苫前３９４−１","open_date":"1932-09-01","closed_date":"1987-03-30","next":[1111551,1011310,1011333,1011313,1110216,1011312,1111321,1011321,1011315],"voronoi":{"lat":44.298629,"lng":141.698303,"delta_lat":[0,-34876,17203,178669,326341,8022,-117222,-33661,-344255],"delta_lng":[0,-189884,-594186,-610671,-423074,538377,764073,69722,445840]},"impl":false},
    {"code":1011315,"id":"c4d56e","name":"興津(北海道)","original_name":"興津","name_kana":"おこつ","closed":true,"lat":44.334194,"lng":141.679944,"prefecture":1,"lines":[10113],"postal_code":"078-3713","address":"北海道苫前郡苫前町字興津","open_date":"1956-09-01","closed_date":"1987-03-30","next":[1011312,1011316,1011321,1011317,1011314],"voronoi":{"lat":44.312183,"lng":141.729012,"delta_lat":[0,98049,211477,21396,-344255],"delta_lng":[0,-100249,-327962,-48140,445840]},"impl":false},
    {"code":1011316,"id":"a97f2c","name":"羽幌","name_kana":"はぼろ","closed":true,"lat":44.36075,"lng":141.705917,"prefecture":1,"lines":[10113],"postal_code":"078-4107","address":"北海道苫前郡羽幌町南７条４丁目","open_date":"1932-09-01","closed_date":"1987-03-30","next":[1011315,1011317,9911302,1011312,9911304,9911303],"voronoi":{"lat":44.36192,"lng":141.74041,"delta_lat":[0,7203,41108,-98049,1842,6232],"delta_lng":[0,-5245,-106402,100249,30975,-1364]},"impl":false},
    {"code":1011317,"id":"d2b332","name":"下ノ滝","name_kana":"しものたき","closed":true,"lat":44.394986,"lng":141.719144,"prefecture":1,"lines":[10113],"postal_code":"078-4140","address":"北海道苫前郡羽幌町字汐見","open_date":"1956-11-01","closed_date":"1972-02-08","next":[1011320,1011321,1011319,1011316,1011315,9911302,1011318],"voronoi":{"lat":44.369123,"lng":141.735165,"delta_lat":[0,41108,211477,-106225,-26086,-8367,-84992],"delta_lng":[0,-106402,-327962,298257,48243,11394,76957]},"impl":false},
    {"code":1011318,"id":"d77b3c","name":"築別","name_kana":"ちくべつ","closed":true,"lat":44.412361,"lng":141.738333,"prefecture":1,"lines":[10113,99113],"postal_code":"078-4141","address":"北海道苫前郡羽幌町字築別９９０","open_date":"1941-12-09","closed_date":"1987-03-30","next":[1011319,9911302,1011317],"voronoi":{"lat":44.481031,"lng":141.658694,"delta_lat":[0,-60740,-24252],"delta_lng":[0,108592,-31635]},"impl":false},
    {"code":1011319,"id":"654f39","name":"天塩有明","name_kana":"てしおありあけ","closed":true,"lat":44.449111,"lng":141.758889,"prefecture":1,"lines":[10113],"postal_code":"078-4411","address":"北海道苫前郡初山別村字有明４８−９","open_date":"1957-11-06","closed_date":"1987-03-30","next":[1011318,9911303,9911306,9911307,1011320,9911309,1011317,9911302,9911304,9911308],"voronoi":{"lat":44.449283,"lng":141.836648,"delta_lat":[0,40115,-8367,-60740,-1147,1086,18678,1333,1176,5827],"delta_lng":[0,-189348,11394,108592,9255,11724,42590,1336,838,2773]},"impl":false},
    {"code":1011320,"id":"565365","name":"天塩栄","name_kana":"てしおさかえ","closed":true,"lat":44.480972,"lng":141.765639,"prefecture":1,"lines":[10113],"postal_code":"078-4412","address":"北海道苫前郡初山別村字栄１６３","open_date":"1957-11-06","closed_date":"1987-03-30","next":[9911309,1011317,1011319,1011321],"voronoi":{"lat":44.515484,"lng":141.599058,"delta_lat":[0,-26086,-40115,52303],"delta_lng":[0,48243,189348,36112]},"impl":false},
    {"code":1011321,"id":"1a8d80","name":"初山別","name_kana":"しょさんべつ","closed":true,"lat":44.532944,"lng":141.768278,"prefecture":1,"lines":[10113],"postal_code":"078-4421","address":"北海道苫前郡初山別村字初山別１２２−１１","open_date":"1957-11-06","closed_date":"1987-03-30","next":[1011333,1011317,1011326,1011330,1011320,1011325,1011315,1011322,9911309,1011323,1011314],"voronoi":{"lat":44.676765,"lng":141.182938,"delta_lat":[0,1642,-7557,-9801,-26253,-30209,-99525,-3477,13898,106225,21396],"delta_lng":[0,28975,216009,57165,107827,79507,204258,-3919,-273703,-298257,-48140]},"impl":false},
    {"code":1011322,"id":"1342b5","name":"豊岬","name_kana":"とよさき","closed":true,"lat":44.57325,"lng":141.787917,"prefecture":1,"lines":[10113],"postal_code":"078-4432","address":"北海道苫前郡初山別村字明里２０","open_date":"1958-10-18","closed_date":"1987-03-30","next":[9911309,1011323,1011324,1011321],"voronoi":{"lat":44.546918,"lng":141.949104,"delta_lat":[0,18574,39095,-99525],"delta_lng":[0,-55147,-221536,204258]},"impl":false},
    {"code":1011323,"id":"ec96f5","name":"天塩大沢","name_kana":"てしおおおさわ","closed":true,"lat":44.5945,"lng":141.791667,"prefecture":1,"lines":[10113],"postal_code":"078-4400","address":"北海道苫前郡初山別村字大沢","open_date":"1958-10-18","closed_date":"1987-03-30","next":[1011324,1011322,1011325,1011321],"voronoi":{"lat":44.634797,"lng":141.592915,"delta_lat":[0,-13532,-55772,39095],"delta_lng":[0,178316,122727,-221536]},"impl":false},
    {"code":1011324,"id":"825b7c","name":"共成","name_kana":"きょうせい","closed":true,"lat":44.623472,"lng":141.804833,"prefecture":1,"lines":[10113],"postal_code":"078-4433","address":"北海道苫前郡初山別村字共成","open_date":"1958-10-18","closed_date":"1987-03-30","next":[1011323,1111536,1011326,1011322,1011325,9911309],"voronoi":{"lat":44.676012,"lng":141.930513,"delta_lat":[0,-8642,-46106,-55772,-18574,14395],"delta_lng":[0,-55029,-104254,122727,55147,38122]},"impl":false},
    {"code":1011325,"id":"639f6d","name":"歌越","name_kana":"うたこし","closed":true,"lat":44.644639,"lng":141.795472,"prefecture":1,"lines":[10113],"postal_code":"098-3532","address":"北海道天塩郡遠別町字歌越","open_date":"1958-10-18","closed_date":"1987-03-30","next":[1011326,1011323,1011321,1011324],"voronoi":{"lat":44.621265,"lng":141.77123,"delta_lat":[0,13532,26253,6321],"delta_lng":[0,-178316,-107827,390397]},"impl":false},
    {"code":1011326,"id":"28da70","name":"天塩金浦","name_kana":"てしおかなうら","closed":true,"lat":44.6875,"lng":141.794778,"prefecture":1,"lines":[10113],"postal_code":"098-3533","address":"北海道天塩郡遠別町字金浦","open_date":"1958-10-18","closed_date":"1987-03-30","next":[1011330,1011325,1011321,1011327,1011324,1111536],"voronoi":{"lat":44.667371,"lng":141.875484,"delta_lat":[0,-6321,9801,47568,-27792,-14614],"delta_lng":[0,-390397,-57165,261124,238214,3253]},"impl":false},
    {"code":1011327,"id":"ee986f","name":"遠別","name_kana":"えんべつ","closed":true,"lat":44.724167,"lng":141.799056,"prefecture":1,"lines":[10113],"postal_code":"098-3543","address":"北海道天塩郡遠別町字本町６丁目２６−２","open_date":"1936-10-23","closed_date":"1987-03-30","next":[1011326,1011330,1011328,1111536],"voronoi":{"lat":44.752739,"lng":141.922327,"delta_lat":[0,-19392,-14929,-27792],"delta_lng":[0,-192198,-41082,238214]},"impl":false},
    {"code":1011328,"id":"88145e","name":"啓明","name_kana":"けいめい","closed":true,"lat":44.756111,"lng":141.795833,"prefecture":1,"lines":[10113],"postal_code":"098-3503","address":"北海道天塩郡遠別町字啓明１","open_date":"1956-05-01","closed_date":"1987-03-30","next":[1111536,1011330,1011329,1011327,1111541],"voronoi":{"lat":44.799261,"lng":141.904375,"delta_lat":[0,-48575,-17339,19392,29110],"delta_lng":[0,-147868,-26379,192198,1397]},"impl":false},
    {"code":1011329,"id":"cb2e95","name":"丸松","name_kana":"まるまつ","closed":true,"lat":44.769639,"lng":141.791389,"prefecture":1,"lines":[10113],"postal_code":"098-3504","address":"北海道天塩郡遠別町字丸松５５","open_date":"1936-10-23","closed_date":"1987-03-30","next":[1111541,1011330,1011331,1011328],"voronoi":{"lat":44.750686,"lng":141.756507,"delta_lat":[0,68467,15323,-35215],"delta_lng":[0,71774,41464,34630]},"impl":false},
    {"code":1011330,"id":"823ece","name":"北里","name_kana":"きたさと","closed":true,"lat":44.784636,"lng":141.777083,"prefecture":1,"lines":[10113],"postal_code":"098-3501","address":"北海道天塩郡遠別町字北里","open_date":"1956-05-01","closed_date":"1970-09-07","next":[1011329,1011326,1011332,1011333,1011321,1011331,1011328,1011327],"voronoi":{"lat":44.750686,"lng":141.756507,"delta_lat":[0,68467,-49138,-61702,-29906,-7557,47568,14929],"delta_lng":[0,71774,-262057,-249274,-105037,216009,261124,41082]},"impl":false},
    {"code":1011331,"id":"b5c453","name":"更岸","name_kana":"さらきし","closed":true,"lat":44.832778,"lng":141.768056,"prefecture":1,"lines":[10113],"postal_code":"098-3314","address":"北海道天塩郡天塩町字サラキシ","open_date":"1936-10-23","closed_date":"1987-03-30","next":[1011332,1011329,1111541,1111542,1011330],"voronoi":{"lat":44.770016,"lng":141.566224,"delta_lat":[0,105003,-9730,-30812,-15323],"delta_lng":[0,279998,9027,14496,-41464]},"impl":false},
    {"code":1011332,"id":"aa11f6","name":"干拓","name_kana":"かんたく","closed":true,"lat":44.855444,"lng":141.759556,"prefecture":1,"lines":[10113],"postal_code":"098-3314","address":"北海道天塩郡天塩町字サラキシ","open_date":"1955-12-02","closed_date":"1987-03-30","next":[1011333,1111542,1011330,1011331,1011334],"voronoi":{"lat":44.875018,"lng":141.846223,"delta_lat":[0,-105003,-61702,183260,2756],"delta_lng":[0,-279998,-249274,493362,22375]},"impl":false},
    {"code":1011333,"id":"bf0ccd","name":"天塩","name_kana":"てしお","closed":true,"lat":44.885806,"lng":141.748278,"prefecture":1,"lines":[10113],"postal_code":"098-3312","address":"北海道天塩郡天塩町字川口５６９９−１３","open_date":"1935-06-30","closed_date":"1987-03-30","next":[1011321,1111549,1011332,1111551,1011314,1011330,1011334],"voronoi":{"lat":44.975597,"lng":141.215807,"delta_lat":[0,-17586,-164023,-117222,1642,29906,183260],"delta_lng":[0,-115145,-681797,764073,28975,105037,493362]},"impl":false},
    {"code":1011334,"id":"dc6c82","name":"中川口","name_kana":"なかかわぐち","closed":true,"lat":44.914306,"lng":141.752306,"prefecture":1,"lines":[10113],"postal_code":"098-3312","address":"北海道天塩郡天塩町字川口","open_date":"1956-05-01","closed_date":"1987-03-30","next":[1111542,1011335,1011337,1011333,1111549,1011332,1111546],"voronoi":{"lat":44.917433,"lng":141.815836,"delta_lat":[0,-8053,-15050,-2756,84023,20591,-5038],"delta_lng":[0,13086,3766,-22375,-594505,114312,104671]},"impl":false},
    {"code":1011335,"id":"2b351f","name":"北川口","name_kana":"きたかわぐち","closed":true,"lat":44.944028,"lng":141.758056,"prefecture":1,"lines":[10113],"postal_code":"098-3312","address":"北海道天塩郡天塩町字川口","open_date":"1935-06-30","closed_date":"1987-03-30","next":[1011334,1011336,1011337,1111546],"voronoi":{"lat":44.99115,"lng":141.434791,"delta_lat":[0,-73717,34797,38739],"delta_lng":[0,381045,-34343,-242788]},"impl":false},
    {"code":1011336,"id":"28e7a0","name":"西振老","name_kana":"にしふらおい","closed":true,"lat":44.967317,"lng":141.761772,"prefecture":1,"lines":[10113],"postal_code":"098-3300","address":"北海道天塩郡天塩町字下サロベツ","open_date":"1956-05-01","closed_date":"1970-09-07","next":[1011335,1011337,1111546],"voronoi":{"lat":44.990969,"lng":141.538705,"delta_lat":[0,-38739,50348],"delta_lng":[0,242788,-14696]},"impl":false},
    {"code":1011337,"id":"d9f0ff","name":"振老","name_kana":"ふらおい","closed":true,"lat":44.975556,"lng":141.79,"prefecture":1,"lines":[10113],"postal_code":"098-3300","address":"北海道天塩郡字下サロベツ天塩町","open_date":"1935-06-30","closed_date":"1987-03-30","next":[1011334,1011335,1011336,1111542,1011338,1111546],"voronoi":{"lat":45.002578,"lng":141.766797,"delta_lat":[0,-50348,-34797,-8053,10580,97254],"delta_lng":[0,14696,34343,13086,2614,-36377]},"impl":false},
    {"code":1011338,"id":"aa907e","name":"作返","name_kana":"さくかえし","closed":true,"lat":44.989167,"lng":141.826389,"prefecture":1,"lines":[10113],"postal_code":"098-3313","address":"北海道天塩郡天塩町字サツカヘシ","open_date":"1955-12-02","closed_date":"1987-03-30","next":[1111545,1111544,1111542,1111546,1111543,1011337],"voronoi":{"lat":45.017213,"lng":141.795159,"delta_lat":[0,10262,-39097,-18790,-46241,-3388],"delta_lng":[0,7223,51321,-1165,-19035,-1967]},"impl":false},
    {"code":1111545,"id":"a37100","name":"幌延","name_kana":"ほろのべ","lat":45.014503,"lng":141.84569,"prefecture":1,"lines":[11115,10113],"attr":"eco","postal_code":"098-3211","address":"天塩郡幌延町１条南１丁目","next":[1011338,1111547,1111546,1112224,1111544],"voronoi":{"lat":45.131272,"lng":141.896692,"delta_lat":[0,-69846,-33951,-39097,129779],"delta_lng":[0,-85522,-8788,51321,105828]},"impl":true}
  ],
  "closed_date":"1987-03-30",
  "impl":false
}