{
  "code":10209,
  "id":"118677",
  "name":"矢島線",
  "name_kana":"やしません",
  "name_formal":"国鉄矢島線",
  "station_size":9,
  "company_code":0,
  "closed":true,
  "station_list":[
    {"code":1121450,"id":"abb69c","name":"羽後本荘","name_kana":"うごほんじょう","lat":39.386877,"lng":140.057632,"prefecture":5,"lines":[11214,99210,10209],"attr":"eco","postal_code":"015-0858","address":"由利本荘市西梵天","next":[9921002,1121449,1121453,9921003,1121451,9921006],"voronoi":{"lat":39.442011,"lng":140.028014,"delta_lat":[0,3465,-45484,-30625,2218,12698],"delta_lng":[0,-68663,45748,65340,35472,18756]},"impl":true},
    {"code":9921002,"id":"37df05","name":"薬師堂(秋田)","original_name":"薬師堂","name_kana":"やくしどう","lat":39.368008,"lng":140.048788,"prefecture":5,"lines":[99210,10209],"attr":"eco","postal_code":"015-0041","address":"由利本荘市薬師堂山崎１-１０","open_date":"1922-08-01","next":[1121450,9921003,1121449],"voronoi":{"lat":39.399993,"lng":140.005099,"delta_lat":[0,-30625,-19754],"delta_lng":[0,65340,-31268]},"impl":true},
    {"code":9921003,"id":"cd7c14","name":"子吉","name_kana":"こよし","lat":39.350399,"lng":140.059913,"prefecture":5,"lines":[99210,10209],"attr":"eco","postal_code":"015-0044","address":"由利本荘市玉ノ池","open_date":"1922-08-01","next":[9921006,9921005,1121449,9921002,1121450,9921004],"voronoi":{"lat":39.355869,"lng":140.095009,"delta_lat":[0,15716,-2218,-19754,-23035,27504],"delta_lng":[0,10902,-35472,-31268,1594,52641]},"impl":true},
    {"code":9921004,"id":"417b1c","name":"鮎川","name_kana":"あゆかわ","lat":39.328693,"lng":140.071254,"prefecture":5,"lines":[99210,10209],"attr":"eco","postal_code":"015-0362","address":"由利本荘市東鮎川","open_date":"1922-08-01","next":[1121448,9921005,9921008,9921010,1121449,9921003],"voronoi":{"lat":39.326578,"lng":140.040764,"delta_lat":[0,-40389,-29871,15442,10258,72064],"delta_lng":[0,-14432,10896,20745,8365,27067]},"impl":true},
    {"code":9921005,"id":"6cb125","name":"黒沢(由利高原鉄道)","original_name":"黒沢","name_kana":"くろさわ","lat":39.320388,"lng":140.093365,"prefecture":5,"lines":[99210,10209],"attr":"eco","postal_code":"015-0361","address":"秋田県由利本荘市黒沢","open_date":"1922-08-01","next":[9921007,9921006,9921003,9921004,9921008],"voronoi":{"lat":39.306185,"lng":140.098916,"delta_lat":[0,49685,-1787,-72064,23751],"delta_lng":[0,-3907,-1603,-27067,32411]},"impl":true},
    {"code":9921007,"id":"d7deed","name":"前郷","name_kana":"まえごう","lat":39.312649,"lng":140.112727,"prefecture":5,"lines":[99210,10209],"attr":"cool","postal_code":"015-0341","address":"由利本荘市前郷","open_date":"1922-08-01","next":[9921005,1120223,9921008,9921009,9922101,1121451,9921006,9921012],"voronoi":{"lat":39.309706,"lng":140.245802,"delta_lat":[0,-9730,5793,415,81900,16403,-439,-87202],"delta_lng":[0,-89764,-57289,166,65464,95950,531,7347]},"impl":true},
    {"code":9921009,"id":"06704a","name":"西滝沢","name_kana":"にしたきさわ","lat":39.278319,"lng":140.116448,"prefecture":5,"lines":[99210,10209],"attr":"cool","postal_code":"015-0333","address":"由利本荘市山本","open_date":"1937-12-15","next":[9921007,9921012,9921008,9921010],"voronoi":{"lat":39.273815,"lng":140.068952,"delta_lat":[0,26162,9730,-37093],"delta_lng":[0,87087,89764,-79077]},"impl":true},
    {"code":9921011,"id":"93099e","name":"川辺","name_kana":"かわべ","lat":39.248842,"lng":140.12036,"prefecture":5,"lines":[99210,10209],"attr":"heat","postal_code":"015-0412","address":"由利本荘市矢島町川辺","open_date":"1938-10-21","next":[9921012,1121445,9921010,1121448],"voronoi":{"lat":39.184543,"lng":140.020193,"delta_lat":[0,-39530,121450,-25389],"delta_lng":[0,15283,120974,-121396]},"impl":true},
    {"code":9921012,"id":"39089c","name":"矢島","name_kana":"やしま","lat":39.230305,"lng":140.13897,"prefecture":5,"lines":[99210,10209],"attr":"heat","postal_code":"015-0404","address":"由利本荘市矢島町七日町","open_date":"1938-10-21","next":[9921010,1120208,1120205,9921011,1121445,9921009,9922202,9922101,1120207,1121441,9921007,1120206],"voronoi":{"lat":39.082135,"lng":140.202793,"delta_lat":[0,-43394,53894,52378,121450,6150,37093,7140,-65614,-104988,-15910,-4439],"delta_lng":[0,-103363,-49411,-14543,120974,10276,79077,22405,25118,-12841,-10455,-4740]},"impl":true}
  ],
  "closed_date":"1985-10-01",
  "impl":false
}