{
  "code":10204,
  "id":"9879cb",
  "name":"宮古線",
  "name_kana":"みやこせん",
  "name_formal":"国鉄宮古線",
  "station_size":4,
  "company_code":0,
  "closed":true,
  "station_list":[
    {"code":1121318,"id":"805656","name":"宮古","name_kana":"みやこ","lat":39.640287,"lng":141.946454,"prefecture":3,"lines":[11213,99207,99208,10204],"attr":"eco","postal_code":"027-0076","address":"宮古市栄町","open_date":"1934-11-06","next":[9920823,9920822,9920825,9920826],"voronoi":{"lat":39.663981,"lng":141.949317,"delta_lat":[0,-34159,-34,36374],"delta_lng":[0,-15662,16272,26045]},"impl":true},
    {"code":9920826,"id":"40b59b","name":"一の渡","name_kana":"いちのわたり","lat":39.686895,"lng":141.94264,"prefecture":3,"lines":[99207,99208,10204],"attr":"eco","postal_code":"027-0097","address":"宮古市崎山","next":[1121317,1121318,9920827,9920828,9920823,9920825,1121316],"voronoi":{"lat":39.675876,"lng":141.89806,"delta_lat":[0,-11895,2181,12842,26330,-21632,-489],"delta_lng":[0,51256,26655,39913,-54006,-77418,341]},"impl":true},
    {"code":9920827,"id":"dd1c5e","name":"佐羽根","name_kana":"さばね","lat":39.711131,"lng":141.935868,"prefecture":3,"lines":[99207,99208,10204],"attr":"eco","postal_code":"027-0067","address":"宮古市大字田代","next":[1120709,9920830,1121315,9920826,1121316,9920828],"voronoi":{"lat":39.683703,"lng":141.884461,"delta_lat":[0,34932,22239,41828,-13507,-63860],"delta_lng":[0,-37901,-18754,37487,50470,46116]},"impl":true},
    {"code":9920828,"id":"03bf08","name":"田老","name_kana":"たろう","lat":39.731848,"lng":141.964556,"prefecture":3,"lines":[99207,99208,10204],"attr":"eco","postal_code":"027-0351","address":"宮古市田老小林","next":[9920829,9920830,9920823,9920826,9920827],"voronoi":{"lat":39.769194,"lng":141.915762,"delta_lat":[0,77,-91120,853,26330],"delta_lng":[0,2527,121959,-24364,-54006]},"impl":true}
  ],
  "closed_date":"1984-04-01",
  "impl":false
}