{
  "code":10206,
  "id":"f6ee4e",
  "name":"丸森線",
  "name_kana":"まるもりせん",
  "name_formal":"国鉄丸森線",
  "station_size":5,
  "company_code":0,
  "closed":true,
  "station_list":[
    {"code":1123136,"id":"5d3f17","name":"槻木","name_kana":"つきのき","lat":38.07864,"lng":140.809992,"prefecture":4,"lines":[11231,99213,10206],"attr":"cool","postal_code":"989-1756","address":"柴田郡柴田町大字槻木字畑中","next":[9921801,1121708,1123027,9921323,1123137,1123135],"voronoi":{"lat":38.165444,"lng":140.744903,"delta_lat":[0,6583,-4207,-73562,-48087,27703],"delta_lng":[0,26346,20625,45690,-11900,-39210]},"impl":true},
    {"code":9921323,"id":"746650","name":"東船岡","name_kana":"ひがしふなおか","lat":38.050095,"lng":140.789824,"prefecture":4,"lines":[99213,10206],"attr":"cool","postal_code":"989-1611","address":"柴田郡柴田町大字上名生字横橋","next":[9921322,1123136,1123027,1123026,1123135],"voronoi":{"lat":38.038001,"lng":140.771754,"delta_lat":[0,-11715,19678,206,27703],"delta_lng":[0,51125,2840,-55,-39210]},"impl":true},
    {"code":9921322,"id":"1b78c3","name":"岡","name_kana":"おか","lat":38.019246,"lng":140.782755,"prefecture":4,"lines":[99213,10206],"attr":"eco","postal_code":"981-1524","address":"角田市岡字白岩","next":[9921323,1123026,9921321,1123135,1123134],"voronoi":{"lat":38.038001,"lng":140.771754,"delta_lat":[0,-11715,-33954,24509,17431],"delta_lng":[0,51125,8873,-81258,11554]},"impl":true},
    {"code":9921320,"id":"3ff903","name":"角田","name_kana":"かくだ","lat":37.979282,"lng":140.772388,"prefecture":4,"lines":[99213,10206],"attr":"eco","postal_code":"981-1505","address":"角田市角田字流","next":[9921321,1123024,9921319,1123133],"voronoi":{"lat":37.976403,"lng":140.831079,"delta_lat":[0,-15715,21958,15219],"delta_lng":[0,-1726,-112425,10173]},"impl":true},
    {"code":9921317,"id":"c4e4e1","name":"丸森","name_kana":"まるもり","lat":37.930641,"lng":140.761606,"prefecture":4,"lines":[99213,10206],"attr":"heat","postal_code":"981-2103","address":"伊具郡丸森町舘矢間字山田土手下","next":[9921319,1123020,1123021,9921316,9921318,1123023],"voronoi":{"lat":37.858354,"lng":140.828141,"delta_lat":[0,-37831,-60530,199506,-7783,-66252],"delta_lng":[0,-20432,-47281,-45238,33440,80739]},"impl":true}
  ],
  "closed_date":"1986-07-01",
  "impl":false
}