{
  "code":10205,
  "id":"c9ecce",
  "name":"盛線",
  "name_kana":"さかりせん",
  "name_formal":"国鉄盛線",
  "station_size":6,
  "company_code":0,
  "closed":true,
  "station_list":[
    {"code":9920801,"id":"30420b","name":"盛","name_kana":"さかり","lat":39.086372,"lng":141.710734,"prefecture":3,"lines":[99208,99219,10205],"attr":"eco","postal_code":"022-0003","address":"大船渡市盛町字東町裏","next":[1120840,9920806,9920802,1120834,1120918,1120921,1120919,1120818],"voronoi":{"lat":39.064515,"lng":141.668621,"delta_lat":[0,28706,31083,42895,3218,-18803,-5269,-52088],"delta_lng":[0,66484,18176,-13340,-10650,-100182,-13666,26990]},"impl":true},
    {"code":9920802,"id":"da0f6d","name":"陸前赤崎","name_kana":"りくぜんあかさき","lat":39.068623,"lng":141.741086,"prefecture":3,"lines":[99208,99219,10205],"attr":"heat","postal_code":"022-0007","address":"大船渡市赤崎町字大洞","next":[1120823,1120838,1120824,9920803,9920801,9920805,1120839,9920806,1120840],"voronoi":{"lat":39.084791,"lng":141.731585,"delta_lat":[0,-13868,-13564,-12356,-12787,47120,32261,12706,-31083],"delta_lng":[0,-1849,3393,10538,19157,11637,-12204,-8977,-18176]},"impl":true},
    {"code":9920803,"id":"5e598e","name":"綾里","name_kana":"りょうり","lat":39.054318,"lng":141.799012,"prefecture":3,"lines":[99208,99219,10205],"attr":"heat","postal_code":"022-0211","address":"大船渡市三陸町綾里字宮野","next":[1120836,9920805,1122314,9920804,9920802,1120822,1120823,1122412,1122418,1122417,1120821],"voronoi":{"lat":38.521634,"lng":142.110291,"delta_lat":[0,-29703,-143929,-607388,1334762,3960,-47120,-20990,-14155,-119018,-255548],"delta_lng":[0,30751,169240,1039320,-1554671,-20470,-11637,4295,6355,69760,167040]},"impl":true},
    {"code":9920805,"id":"40c3c3","name":"甫嶺","name_kana":"ほれい","lat":39.093394,"lng":141.806571,"prefecture":3,"lines":[99208,99219,10205],"attr":"heat","postal_code":"022-0101","address":"大船渡市三陸町越喜来字甫嶺","next":[9920803,9920802,9920806,9920804],"voronoi":{"lat":39.111597,"lng":141.762258,"delta_lat":[0,-32261,-3960,25105],"delta_lng":[0,12204,20470,48354]},"impl":true},
    {"code":9920806,"id":"e946dc","name":"三陸","name_kana":"さんりく","lat":39.117194,"lng":141.809836,"prefecture":3,"lines":[99208,99219,10205],"attr":"cool","postal_code":"022-0101","address":"大船渡市三陸町越喜来字肥田","next":[9920801,9920802,9920805,1120921,9920804,9920807],"voronoi":{"lat":39.177491,"lng":141.767725,"delta_lat":[0,-10293,-42895,-12706,-11116,2926],"delta_lng":[0,-27785,13340,8977,81028,19125]},"impl":true},
    {"code":9920807,"id":"bef61f","name":"吉浜(岩手)","original_name":"吉浜","name_kana":"よしはま","lat":39.151122,"lng":141.836382,"prefecture":3,"lines":[99208,99219,10205],"attr":"cool","postal_code":"022-0102","address":"大船渡市三陸町吉浜字上野","next":[9920808,1120921,9920804,1120922,9920806],"voronoi":{"lat":39.177491,"lng":141.767725,"delta_lat":[0,16490,4695,-171102,75833],"delta_lng":[0,21601,14172,349077,-290165]},"impl":true}
  ],
  "closed_date":"1984-04-01",
  "impl":false
}