{
  "code":10207,
  "id":"130c36",
  "name":"阿仁合線",
  "name_kana":"あにあいせん",
  "name_formal":"国鉄阿仁合線",
  "station_size":16,
  "company_code":0,
  "closed":true,
  "station_list":[
    {"code":1120245,"id":"c8613d","name":"鷹ノ巣(鷹巣)","name_kana":"たかのす","lat":40.232059,"lng":140.369816,"prefecture":5,"lines":[11202,99209,10207],"attr":"cool","postal_code":"018-3321","address":"北秋田市松葉町","next":[9920903,1120246,9920907,9920902,1120244],"voronoi":{"lat":40.203266,"lng":140.379553,"delta_lat":[0,-21847,566,186789,-65807],"delta_lng":[0,28711,16053,-126933,19791]},"impl":true},
    {"code":9920903,"id":"1b8f2d","name":"縄文小ヶ田","name_kana":"じょうもんおがた","lat":40.204973,"lng":140.349206,"prefecture":5,"lines":[99209,10207],"attr":"eco","postal_code":"018-3454","address":"秋田県北秋田市脇神字小ヶ田","open_date":"1963-12-10","next":[9920904,1120245,9920902,9920907,1120244,9920906],"voronoi":{"lat":40.18142,"lng":140.408264,"delta_lat":[0,21847,20040,-19878,-27486,16],"delta_lng":[0,-28711,-45183,-5296,58689,3227]},"impl":true},
    {"code":9920904,"id":"b64929","name":"大野台","name_kana":"おおのだい","lat":40.186975,"lng":140.340777,"prefecture":5,"lines":[99209,10207],"attr":"eco","postal_code":"018-4231","address":"北秋田市上杉","open_date":"1965-04-20","next":[9920903,9920905,1120244,9920906],"voronoi":{"lat":40.167887,"lng":140.350392,"delta_lat":[0,16410,19131,-27486],"delta_lng":[0,-40053,18734,58689]},"impl":true},
    {"code":9920905,"id":"383db2","name":"合川","name_kana":"あいかわ","lat":40.161033,"lng":140.330148,"prefecture":5,"lines":[99209,10207],"attr":"eco","postal_code":"018-4221","address":"北秋田市下杉","open_date":"1934-12-10","next":[1120243,1120244,1120237,9922704,9920911,9920904,9920906],"voronoi":{"lat":40.032077,"lng":140.248607,"delta_lat":[0,-1475,10289,31612,100201,11593,-16410],"delta_lng":[0,-2640,-10454,-14867,54625,35069,40053]},"impl":true},
    {"code":9920906,"id":"3bf4a7","name":"上杉","name_kana":"かみすぎ","lat":40.146533,"lng":140.349495,"prefecture":5,"lines":[99209,10207],"attr":"eco","postal_code":"018-4231","address":"北秋田市上杉","open_date":"1965-11-21","next":[9920910,9920907,9920905,9920904,9920903,9920911],"voronoi":{"lat":40.056737,"lng":140.299846,"delta_lat":[0,119221,-16,-8055,-135810,17644],"delta_lng":[0,91143,-3227,-37370,-101786,38487]},"impl":true},
    {"code":9920907,"id":"e68df1","name":"米内沢","name_kana":"よないざわ","lat":40.128199,"lng":140.373477,"prefecture":5,"lines":[99209,10207],"attr":"eco","postal_code":"018-4301","address":"北秋田市米内沢","open_date":"1934-12-10","next":[9920906,1120246,9920910,9920903,9920908,1120245],"voronoi":{"lat":40.179949,"lng":140.434595,"delta_lat":[0,-94117,-29095,119221,5461,566],"delta_lng":[0,-56340,-78409,91143,17274,16053]},"impl":true},
    {"code":9920908,"id":"2872e1","name":"桂瀬","name_kana":"かつらせ","lat":40.101634,"lng":140.417854,"prefecture":5,"lines":[99209,10207],"attr":"eco","postal_code":"018-4516","address":"北秋田市桂瀬","open_date":"1935-11-15","next":[1121225,1120246,9920909,1120248,9920907,1120247,9920910],"voronoi":{"lat":40.085832,"lng":140.378255,"delta_lat":[0,94117,2685,-4804,-2056,-94745,526],"delta_lng":[0,56340,20042,27432,4560,78190,-172561]},"impl":true},
    {"code":9920909,"id":"7a79c8","name":"阿仁前田","name_kana":"あにまえだ","lat":40.061322,"lng":140.417731,"prefecture":5,"lines":[99209,10207],"attr":"eco","postal_code":"018-4513","address":"北秋田市小又","open_date":"1935-11-15","next":[1121224,9920911,9920912,1121225,9920919,9920908,9920910],"voronoi":{"lat":40.081556,"lng":140.392259,"delta_lat":[0,-526,-767,-14669,-56892,9236,23050],"delta_lng":[0,172561,832,9813,-82268,-34533,-38282]},"impl":true},
    {"code":9920910,"id":"a553fc","name":"前田南","name_kana":"まえだみなみ","lat":40.050604,"lng":140.40227,"prefecture":5,"lines":[99209,10207],"attr":"eco","postal_code":"018-4514","address":"北秋田市五味堀","open_date":"1963-12-10","next":[9920906,9920907,9920911,9920908,9920909],"voronoi":{"lat":40.049722,"lng":140.287094,"delta_lat":[0,7016,29095,-4277,-40568],"delta_lng":[0,12753,78409,14003,28123]},"impl":true},
    {"code":9920911,"id":"d37f3b","name":"小渕","name_kana":"こぶち","lat":40.033817,"lng":140.40117,"prefecture":5,"lines":[99209,10207],"attr":"eco","postal_code":"018-4602","address":"北秋田市阿仁小渕","open_date":"1936-09-25","next":[9920909,9922704,9920905,9920912,9920910,9920906],"voronoi":{"lat":40.040988,"lng":140.420382,"delta_lat":[0,-23050,-2316,14981,1475,17644],"delta_lng":[0,38282,-207983,-4714,2640,38487]},"impl":true},
    {"code":9920912,"id":"8ab524","name":"阿仁合","name_kana":"あにあい","lat":40.000782,"lng":140.401538,"prefecture":5,"lines":[99209,10207],"attr":"eco","postal_code":"018-4613","address":"北秋田市阿仁銀山","open_date":"1936-09-25","next":[9920919,9922704,9920909,9920911,9920913,9920914],"voronoi":{"lat":40.008701,"lng":140.493196,"delta_lat":[0,9236,-2316,-31831,9238,7448],"delta_lng":[0,-34533,-207983,6309,201675,28682]},"impl":true},
    {"code":9920913,"id":"3069c8","name":"荒瀬","name_kana":"あらせ","lat":39.980085,"lng":140.402486,"prefecture":5,"lines":[99209,10207],"attr":"eco","postal_code":"018-4621","address":"北秋田市阿仁荒瀬","open_date":"1963-10-15","next":[9920914,9920915,9922704,9920912],"voronoi":{"lat":39.983791,"lng":140.25699,"delta_lat":[0,-59928,21627,47539],"delta_lng":[0,7496,91805,102374]},"impl":true},
    {"code":9920914,"id":"6aad41","name":"萱草","name_kana":"かやくさ","lat":39.95846,"lng":140.412528,"prefecture":5,"lines":[99209,10207],"attr":"eco","postal_code":"018-4745","address":"北秋田市阿仁萱草","open_date":"1963-10-15","next":[9920913,9920919,9920915,9920918,9920912,9920916],"voronoi":{"lat":39.94737,"lng":140.437026,"delta_lat":[0,-1880,47539,7448,-15272,-22957],"delta_lng":[0,-80736,102374,28682,-5759,-13994]},"impl":true},
    {"code":9920915,"id":"bfa46b","name":"笑内","name_kana":"おかしない","lat":39.935151,"lng":140.413071,"prefecture":5,"lines":[99209,10207],"attr":"eco","postal_code":"018-4743","address":"北秋田市阿仁笑内","open_date":"1963-10-15","next":[1120225,9920916,9920913,9920914,9922704],"voronoi":{"lat":39.841011,"lng":140.261909,"delta_lat":[0,-33110,139469,-1880,-21627],"delta_lng":[0,64743,110374,-80736,-91805]},"impl":true},
    {"code":9920916,"id":"f93e17","name":"岩野目","name_kana":"いわのめ","lat":39.921248,"lng":140.430639,"prefecture":5,"lines":[99209,10207],"attr":"eco","postal_code":"018-4742","address":"北秋田市阿仁幸屋渡","open_date":"1963-10-15","next":[9920918,9920915,1120225,9920917,9920914],"voronoi":{"lat":39.94737,"lng":140.437026,"delta_lat":[0,-139469,-15799,152405,17741],"delta_lng":[0,-110374,26025,111997,2919]},"impl":true},
    {"code":9920917,"id":"659ef0","name":"比立内","name_kana":"ひたちない","lat":39.905078,"lng":140.452643,"prefecture":5,"lines":[99209,10207],"attr":"heat","postal_code":"018-4735","address":"北秋田市阿仁比立内","open_date":"1963-10-15","next":[9920922,9920926,9920921,9920916,1120224,9920918,1120225,9920925],"voronoi":{"lat":39.799774,"lng":140.477857,"delta_lat":[0,14490,130243,-152405,-38675,-1025,1814,39283],"delta_lng":[0,9772,-22955,-111997,52354,2226,3938,61809]},"impl":true}
  ],
  "closed_date":"1986-11-01",
  "impl":false
}