{
  "code":10203,
  "id":"85455b",
  "name":"久慈線",
  "name_kana":"くじせん",
  "name_formal":"国鉄久慈線",
  "station_size":6,
  "company_code":0,
  "closed":true,
  "station_list":[
    {"code":1120625,"id":"083ed1","name":"久慈","name_kana":"くじ","lat":40.190391,"lng":141.770891,"prefecture":3,"lines":[11206,99207,99208,10203],"attr":"heat","postal_code":"028-0061","address":"久慈市中央３","next":[9920513,1120623,9920840,1120624],"voronoi":{"lat":40.225042,"lng":141.759948,"delta_lat":[0,-32139,-92558,68347],"delta_lng":[0,-221143,3863,263818]},"impl":true},
    {"code":9920840,"id":"1531a9","name":"陸中宇部","name_kana":"りくちゅううべ","lat":40.132441,"lng":141.785904,"prefecture":3,"lines":[99207,99208,10203],"attr":"heat","postal_code":"028-8111","address":"久慈市宇部町","next":[1120708,9920513,9920837,1120625,1120706,1120624,9920838,9920839],"voronoi":{"lat":40.168693,"lng":141.806486,"delta_lat":[0,-68347,-68228,-27260,-8444,71803,29609,69496],"delta_lng":[0,-263818,-5510,79448,62167,83071,27551,34292]},"impl":true},
    {"code":9920839,"id":"dfe7dc","name":"陸中野田","name_kana":"りくちゅうのだ","lat":40.116115,"lng":141.81899,"prefecture":3,"lines":[99207,99208,10203],"attr":"heat","postal_code":"028-8201","address":"九戸郡野田村大字野田","next":[9920836,1120624,9920835,9920838,9920840],"voronoi":{"lat":40.097826,"lng":141.789394,"delta_lat":[0,33605,38289,68887,-71285],"delta_lng":[0,125059,60728,89678,-241173]},"impl":true},
    {"code":9920837,"id":"e6ac89","name":"野田玉川","name_kana":"のだたまがわ","lat":40.082728,"lng":141.828874,"prefecture":3,"lines":[99207,99208,10203],"attr":"cool","postal_code":"028-8202","address":"九戸郡野田村大字玉川","next":[1120708,1120709,9920838,9920840,9920836],"voronoi":{"lat":40.068217,"lng":141.761844,"delta_lat":[0,-71803,-20178,-2111,135883],"delta_lng":[0,-83071,59707,11823,136886]},"impl":true},
    {"code":9920836,"id":"c74f12","name":"堀内","name_kana":"ほりない","lat":40.051895,"lng":141.859481,"prefecture":3,"lines":[99207,99208,10203],"attr":"cool","postal_code":"028-8301","address":"下閉伊郡普代村馬場野","next":[9920839,9920834,1120709,9920838,9920835,9920837],"voronoi":{"lat":40.131431,"lng":141.914454,"delta_lat":[0,38289,-155988,-44889,5282,135883],"delta_lng":[0,60728,-127133,-82786,-14960,136886]},"impl":true},
    {"code":9920834,"id":"c00464","name":"普代","name_kana":"ふだい","lat":40.002492,"lng":141.886269,"prefecture":3,"lines":[99207,99208,10203],"attr":"cool","postal_code":"028-8332","address":"下閉伊郡普代村銅屋","next":[9920836,9920835,1120709,9920833],"voronoi":{"lat":39.920536,"lng":141.841455,"delta_lat":[0,48306,44889,15607],"delta_lng":[0,-76193,82786,149405]},"impl":true}
  ],
  "closed_date":"1984-04-01",
  "impl":false
}