{
  "code":10208,
  "id":"915b59",
  "name":"角館線",
  "name_kana":"かくのだてせん",
  "name_formal":"国鉄角館線",
  "station_size":6,
  "company_code":0,
  "closed":true,
  "station_list":[
    {"code":1121111,"id":"7013a6","name":"角館","name_kana":"かくのだて","lat":39.591716,"lng":140.570988,"prefecture":5,"lines":[11211,99209,10208],"attr":"heat","postal_code":"014-0373","address":"仙北市角館町岩瀬","next":[1121110,9920928,9920927,1121112],"voronoi":{"lat":39.614407,"lng":140.503726,"delta_lat":[0,822,-6534,-61644],"delta_lng":[0,6481,71306,41516]},"impl":true},
    {"code":9920928,"id":"af08ba","name":"羽後太田","name_kana":"うごおおた","lat":39.627304,"lng":140.574249,"prefecture":5,"lines":[99209,10208],"attr":"cool","postal_code":"014-1116","address":"仙北市田沢湖角館東前郷","open_date":"1970-11-01","next":[1121109,1121111,1121110,9920927],"voronoi":{"lat":39.615229,"lng":140.510206,"delta_lat":[0,-6534,37377,9004],"delta_lng":[0,71306,21132,786]},"impl":true},
    {"code":9920927,"id":"87919d","name":"西明寺","name_kana":"さいみょうじ","lat":39.653175,"lng":140.563191,"prefecture":5,"lines":[99209,10208],"attr":"cool","postal_code":"014-0515","address":"仙北市西木町門屋六本杉","open_date":"1970-11-01","next":[9920926,1121111,1121113,1121112,1121109,1120222,9920928,9920924],"voronoi":{"lat":39.655076,"lng":140.603431,"delta_lat":[0,-39847,-822,1926,3349,17504,50226,-1144],"delta_lng":[0,-93224,-6481,-30805,-15783,-9682,166968,3837]},"impl":true},
    {"code":9920926,"id":"b8a474","name":"八津","name_kana":"やつ","lat":39.687701,"lng":140.552805,"prefecture":5,"lines":[99209,10208],"attr":"cool","postal_code":"014-0516","address":"仙北市西木町小山田","open_date":"1970-11-01","next":[9920927,9920917,1120224,1120222,9920924,9920925],"voronoi":{"lat":39.754216,"lng":140.411196,"delta_lat":[0,-1814,-102830,-12386,50226,5468],"delta_lng":[0,-3938,30582,9616,166968,-8229]},"impl":true},
    {"code":9920925,"id":"b3cd4c","name":"羽後長戸呂","name_kana":"うごながとろ","lat":39.727689,"lng":140.565383,"prefecture":5,"lines":[99209,10208],"attr":"cool","postal_code":"014-0602","address":"仙北市西木町桧木内","open_date":"1970-11-01","next":[9920924,9920922,9920926,9920917],"voronoi":{"lat":39.770588,"lng":140.554967,"delta_lat":[0,-77708,61336,39283],"delta_lng":[0,51227,-194999,61809]},"impl":true},
    {"code":9920924,"id":"830792","name":"松葉","name_kana":"まつば","lat":39.744107,"lng":140.590288,"prefecture":5,"lines":[99209,10208],"attr":"cool","postal_code":"014-0602","address":"仙北市西木町桧木内","open_date":"1970-11-01","next":[9920922,9920925,9920923,1121108,1121109,9920926,9920927],"voronoi":{"lat":39.687412,"lng":140.614423,"delta_lat":[0,5468,77708,843,-42352,-39671,-3140],"delta_lng":[0,-8229,-51227,11676,91379,-29476,-10286]},"impl":true}
  ],
  "closed_date":"1986-11-01",
  "impl":false
}