{
  "code":10801,
  "id":"86a2b4",
  "name":"鍛冶屋原線",
  "name_kana":"かじやばらせん",
  "station_size":5,
  "company_code":0,
  "closed":true,
  "station_list":[
    {"code":1180222,"id":"4ce1dd","name":"板野","name_kana":"いたの","lat":34.141971,"lng":134.465512,"prefecture":36,"lines":[11802,10801],"attr":"eco","postal_code":"779-0105","address":"板野郡板野町大寺字平田","next":[1180223,1080102,1180305,1180221],"voronoi":{"lat":34.111522,"lng":134.487362,"delta_lat":[0,-6665,55691,4488],"delta_lng":[0,-25956,-3923,9783]}},
    {"code":1080102,"id":"ea3d58","name":"犬伏","name_kana":"いぬぶし","closed":true,"lat":34.141029,"lng":134.452139,"prefecture":36,"lines":[10801],"attr":"unknown","postal_code":"779-0108","address":"徳島県板野郡板野町犬伏大坪４２","next":[1080103,1180305,1180222,1180306,1180221],"voronoi":{"lat":34.158466,"lng":134.435031,"delta_lat":[0,-53475,-646,512,55691],"delta_lng":[0,19406,5858,1112,-3923]}},
    {"code":1080103,"id":"b09af5","name":"羅漢","name_kana":"らかん","closed":true,"lat":34.134115,"lng":134.433087,"prefecture":36,"lines":[10801],"attr":"unknown","postal_code":"779-0114","address":"徳島県板野郡板野町羅漢吉田１５−１","next":[1080102,1180306,1080104,1180221],"voronoi":{"lat":34.104991,"lng":134.454437,"delta_lat":[0,-4329,63662,-5858],"delta_lng":[0,-24554,-11661,16809]}},
    {"code":1080104,"id":"775b04","name":"神宅","name_kana":"かんやけ","closed":true,"lat":34.130807,"lng":134.415028,"prefecture":36,"lines":[10801],"attr":"unknown","postal_code":"771-1320","address":"徳島県板野郡上板町神宅北屋敷３２−２","next":[1080105,1180306,1180220,1080103,1180307,1180221,1180219],"voronoi":{"lat":34.172474,"lng":134.371203,"delta_lat":[0,-72372,188,372,63662,8706,1940],"delta_lng":[0,55932,1980,768,-11661,-12419,-16556]}},
    {"code":1080105,"id":"4e684d","name":"鍛冶屋原","name_kana":"かじやはら","closed":true,"lat":34.119559,"lng":134.400474,"prefecture":36,"lines":[10801],"attr":"unknown","postal_code":"771-1301","address":"徳島県板野郡上板町鍛冶屋原妙楽寺１−２","next":[1180309,1080104,1180310,1180311,1180308,1180218,1180219,1180307,1180217],"voronoi":{"lat":34.161834,"lng":134.32007,"delta_lat":[0,-30243,-20861,-11494,-2609,3474,72372,302,-5825],"delta_lng":[0,22178,21502,21203,33404,8777,-55932,-19817,-21088]}}
  ],
  "closed_date":"1972-01-16"
}