{
  "code":10901,
  "id":"3ee6bc",
  "name":"勝田線",
  "name_kana":"かつたせん",
  "name_formal":"国鉄勝田線",
  "station_size":7,
  "company_code":0,
  "closed":true,
  "station_list":[
    {"code":1190230,"id":"2becef","name":"吉塚","name_kana":"よしづか","lat":33.607142,"lng":130.423674,"prefecture":40,"lines":[11902,11908,10901],"attr":"heat","postal_code":"812-0046","address":"福岡市博多区吉塚本町","next":[9990501,1190810,9990502,1190229,100319,9990603,9990605,9990604],"voronoi":{"lat":33.604121,"lng":130.419345,"delta_lat":[0,-5546,-686,4515,545,7220,2609,-366],"delta_lng":[0,2783,3855,10202,218,-2050,-9912,-781]}},
    {"code":1090102,"id":"2c592d","name":"御手洗","name_kana":"みたらい","closed":true,"lat":33.606696,"lng":130.451582,"prefecture":40,"lines":[10901],"attr":"unknown","postal_code":"811-2233","address":"福岡県糟屋郡志免町別府北２丁目９-１１志免鉄道公園 (旧御手洗駅)","next":[1190809,1090103,1190810,9990501],"voronoi":{"lat":33.604314,"lng":130.442704,"delta_lat":[0,15815,-7260,-12074],"delta_lng":[0,15716,1894,-6741]}},
    {"code":1090103,"id":"ec14f1","name":"上亀山","name_kana":"かみかめやま","closed":true,"lat":33.602196,"lng":130.459642,"prefecture":40,"lines":[10901],"attr":"unknown","postal_code":"811-2205","address":"福岡県糟屋郡志免町別府１丁目２１-１７","next":[1090102,9990501,1190809,1090104],"voronoi":{"lat":33.578904,"lng":130.463429,"delta_lat":[0,21891,12074,-14616],"delta_lng":[0,-9856,6741,12347]}},
    {"code":1090104,"id":"53ba29","name":"志免","name_kana":"しめ","closed":true,"lat":33.590614,"lng":130.483917,"prefecture":40,"lines":[10901],"attr":"unknown","postal_code":"811-2244","address":"福岡県糟屋郡志免町志免中央２丁目７","next":[1191707,1090105,1191708,1190809,1190303,9990501,1090103,3600107,1191709],"voronoi":{"lat":33.57926,"lng":130.493016,"delta_lat":[0,-14419,7870,2651,3542,19349,677,-3312,-9118],"delta_lng":[0,-11446,-16037,-2761,657,9232,1101,16400,3985]}},
    {"code":1090105,"id":"e81c05","name":"下宇美","name_kana":"しもうみ","closed":true,"lat":33.572974,"lng":130.506139,"prefecture":40,"lines":[10901],"attr":"unknown","postal_code":"811-2122","address":"福岡県糟屋郡宇美町明神坂２丁目８","next":[1191710,1090104,3600109,1191711,1191709,3600107,3600108],"voronoi":{"lat":33.560639,"lng":130.484057,"delta_lat":[0,4201,14419,429,-5405,-25579,1877],"delta_lng":[0,-2487,11446,6183,12203,-13068,-3563]}},
    {"code":1191711,"id":"d9ebe0","name":"宇美","name_kana":"うみ","lat":33.569251,"lng":130.513426,"prefecture":40,"lines":[11917,10901],"attr":"heat","postal_code":"811-2101","address":"糟屋郡宇美町大字宇美","next":[3600110,1190805,1090105,1090107,3600109,1191710],"voronoi":{"lat":33.574283,"lng":130.511402,"delta_lat":[0,-25579,-4168,-199,43477,1351],"delta_lng":[0,-13068,5529,384,40599,-1645]}},
    {"code":1090107,"id":"820dec","name":"筑前勝田","name_kana":"ちくぜんかつた","closed":true,"lat":33.555198,"lng":130.528475,"prefecture":40,"lines":[10901],"attr":"unknown","postal_code":"811-2132","address":"福岡県糟屋郡宇美町原田４丁目１９","next":[1190805,1191203,3600110,1190803,3600203,1190804,3600111,1191711],"voronoi":{"lat":33.583575,"lng":130.554838,"delta_lat":[0,-11273,-26571,-4364,-5598,1456,7113,43477],"delta_lng":[0,16305,11802,-607,-69053,-3095,-5942,40599]}}
  ],
  "closed_date":"1985-04-01"
}