{
  "code":10902,
  "id":"cd818e",
  "name":"宮之城線",
  "name_kana":"みやのじょうせん",
  "name_formal":"国鉄宮之城線",
  "station_size":20,
  "company_code":0,
  "closed":true,
  "station_list":[
    {"code":101011,"id":"425db5","name":"川内(鹿児島)","original_name":"川内","name_kana":"せんだい","lat":31.813726,"lng":130.31213,"prefecture":46,"lines":[1010,11904,99921,10902],"attr":"cool","postal_code":"895-0024","address":"薩摩川内市鳥追町","next":[1090202,9992127,1090205,1090204,1190402],"voronoi":{"lat":31.808956,"lng":130.285158,"delta_lat":[0,26630,-4776,-27972,-8977],"delta_lng":[0,29222,19187,14218,823]}},
    {"code":1090202,"id":"e4ff2d","name":"薩摩白浜","name_kana":"さつましらはま","closed":true,"lat":31.855948,"lng":130.32264,"prefecture":46,"lines":[10902],"attr":"unknown","postal_code":"895-0001","address":"鹿児島県薩摩川内市白浜町２６７","next":[101011,9992126,9992127,1090204,9992125,9992124,1090203],"voronoi":{"lat":31.934858,"lng":130.302836,"delta_lat":[0,-37857,-6342,-960,-54113,-4776,6508],"delta_lng":[0,-23026,-2276,15,36831,19187,3116]}},
    {"code":1090203,"id":"7dc9fc","name":"楠元","name_kana":"くすもと","closed":true,"lat":31.860642,"lng":130.336167,"prefecture":46,"lines":[10902],"attr":"unknown","postal_code":"895-0002","address":"鹿児島県薩摩川内市楠元町１７１","next":[1090204,9992117,1090210,9992123,1090209,1090202,9992124,9992118],"voronoi":{"lat":31.961903,"lng":130.320738,"delta_lat":[0,-17218,-9828,-97540,55609,19157,55538,147],"delta_lng":[0,-13053,-4849,33847,52690,-3602,-20570,-10173]}},
    {"code":1090204,"id":"3f5e1e","name":"吉野山","name_kana":"よしのやま","closed":true,"lat":31.838059,"lng":130.360001,"prefecture":46,"lines":[10902],"attr":"unknown","postal_code":"895-0003","address":"鹿児島県薩摩川内市中村町６９８０−４","next":[1090203,1090202,1090209,1090205,1090206,101011],"voronoi":{"lat":31.830809,"lng":130.333566,"delta_lat":[0,6508,55609,-12867,-33562,-43660],"delta_lng":[0,3116,52690,6260,-10118,-37730]}},
    {"code":1090205,"id":"bdf645","name":"樋脇","name_kana":"ひわき","closed":true,"lat":31.82003,"lng":130.380863,"prefecture":46,"lines":[10902],"attr":"unknown","postal_code":"895-1202","address":"鹿児島県薩摩川内市樋脇町塔之原８１４","next":[1190403,1190406,1090206,1090204,1090207,101011,1190402],"voronoi":{"lat":31.739312,"lng":130.384251,"delta_lat":[0,-7848,21046,93987,-43660,-8977,-12861],"delta_lng":[0,25985,-1131,-23591,-37730,823,4791]}},
    {"code":1090206,"id":"c0918b","name":"上樋脇","name_kana":"かみひわき","closed":true,"lat":31.825364,"lng":130.402114,"prefecture":46,"lines":[10902],"attr":"unknown","postal_code":"895-1202","address":"鹿児島県薩摩川内市樋脇町塔之原８０５８","next":[1090207,1090205,1090209,1090204,1090208],"voronoi":{"lat":31.8703,"lng":130.40705,"delta_lat":[0,9759,-33562,-93987,100329],"delta_lng":[0,-11417,-10118,23591,9715]}},
    {"code":1090207,"id":"01ba9c","name":"入来","name_kana":"いりき","closed":true,"lat":31.822669,"lng":130.429945,"prefecture":46,"lines":[10902],"attr":"unknown","postal_code":"895-1401","address":"鹿児島県薩摩川内市入来町副田５８６０−２","next":[1090208,1190753,1190752,1190409,1090206,1190408,1090205,1190406],"voronoi":{"lat":31.731465,"lng":130.410237,"delta_lat":[0,21046,100329,-67990,-10580,-57885,-765,9428],"delta_lng":[0,-1131,9715,116613,-5880,-37708,-18360,-53008]}},
    {"code":1090208,"id":"6f9b44","name":"薩摩山崎","name_kana":"さつまやまざき","closed":true,"lat":31.85802,"lng":130.450556,"prefecture":46,"lines":[10902],"attr":"unknown","postal_code":"895-1722","address":"鹿児島県薩摩郡さつま町久富木８７６−５","next":[1090207,1090209,1190752,1090211,1090215,1090206,1190751],"voronoi":{"lat":31.860196,"lng":130.518934,"delta_lat":[0,9660,445,-17461,-67990,6549,18603],"delta_lng":[0,-17777,-94107,11771,116613,5414,13383]}},
    {"code":1090209,"id":"b4e30e","name":"船木","name_kana":"ふなき","closed":true,"lat":31.882169,"lng":130.45067,"prefecture":46,"lines":[10902],"attr":"unknown","postal_code":"895-1804","address":"鹿児島県薩摩郡さつま町船木３８３７","next":[1090204,1090206,1090208,1090203,1090211,1090210],"voronoi":{"lat":31.912083,"lng":130.385771,"delta_lat":[0,-19157,-12867,-9759,-445,15929],"delta_lng":[0,3602,6260,11417,94107,-17719]}},
    {"code":1090210,"id":"932a43","name":"宮之城","name_kana":"みやのじょう","closed":true,"lat":31.905365,"lng":130.456916,"prefecture":46,"lines":[10902],"attr":"unknown","postal_code":"895-1803","address":"鹿児島県薩摩郡さつま町宮之城屋地２０３６−４","next":[9992117,1090203,1090211,1090212,1090209],"voronoi":{"lat":31.912083,"lng":130.385771,"delta_lat":[0,55538,6767,-57442,-31162],"delta_lng":[0,-20570,9782,92798,15657]}},
    {"code":1090211,"id":"4063fd","name":"佐志","name_kana":"さし","closed":true,"lat":31.918751,"lng":130.483557,"prefecture":46,"lines":[10902],"attr":"unknown","postal_code":"895-1802","address":"鹿児島県薩摩郡さつま町田原１８２−１６","next":[1090212,1090215,1090210,1090208,1090214,1090209,1090213],"voronoi":{"lat":31.899354,"lng":130.515664,"delta_lat":[0,-39158,9660,15929,31162,14607,-7933],"delta_lng":[0,3269,-17777,-17719,-15657,18636,19998]}},
    {"code":1090212,"id":"15536d","name":"薩摩湯田","name_kana":"さつまゆだ","closed":true,"lat":31.931835,"lng":130.473301,"prefecture":46,"lines":[10902],"attr":"unknown","postal_code":"895-1817","address":"鹿児島県薩摩郡さつま町湯田９４−２","next":[1090213,9992117,1090211,101010,1090210],"voronoi":{"lat":31.974388,"lng":130.374983,"delta_lat":[0,29910,20329,-93074,-14607],"delta_lng":[0,32041,27711,51682,-18636]}},
    {"code":1090213,"id":"038776","name":"薩摩鶴田","name_kana":"さつまつるだ","closed":true,"lat":31.942835,"lng":130.493111,"prefecture":46,"lines":[10902],"attr":"unknown","postal_code":"895-2101","address":"鹿児島県薩摩郡さつま町鶴田１７３７","next":[1090212,1090214,1090217,1090211,1090219,101010],"voronoi":{"lat":32.024627,"lng":130.434735,"delta_lat":[0,-93074,-7933,71614,35014,34521],"delta_lng":[0,51682,19998,16269,-14746,-29758]}},
    {"code":1090214,"id":"fc6715","name":"薩摩求名","name_kana":"さつまぐみょう","closed":true,"lat":31.935201,"lng":130.526714,"prefecture":46,"lines":[10902],"attr":"unknown","postal_code":"895-2201","address":"鹿児島県薩摩郡さつま町求名２１８８−２３","next":[1090217,1090213,1090211,1090215],"voronoi":{"lat":31.899354,"lng":130.515664,"delta_lat":[0,24267,71614,-37723],"delta_lng":[0,-9250,16269,31073]}},
    {"code":1090215,"id":"c096eb","name":"広橋","name_kana":"ひろはし","closed":true,"lat":31.923807,"lng":130.54411,"prefecture":46,"lines":[10902],"attr":"unknown","postal_code":"895-2201","address":"鹿児島県薩摩郡さつま町求名１２５０３","next":[1090217,1090216,1090211,1090208,1190751,1090214],"voronoi":{"lat":31.949718,"lng":130.565635,"delta_lat":[0,-133296,-6421,50194,39158,58158],"delta_lng":[0,2860,-14264,-35297,-3269,38092]}},
    {"code":1090216,"id":"2ac031","name":"薩摩永野","name_kana":"さつまながの","closed":true,"lat":31.924754,"lng":130.588251,"prefecture":46,"lines":[10902],"attr":"unknown","postal_code":"895-2203","address":"鹿児島県薩摩郡さつま町永野８８４","next":[1190751,1090217,1192603,1090215,1190750,1090218,1192606],"voronoi":{"lat":31.955988,"lng":130.651974,"delta_lat":[0,3111,-9381,-133296,6838,8584,14976],"delta_lng":[0,-16744,-69595,2860,30415,24790,10869]}},
    {"code":1090217,"id":"244feb","name":"針持","name_kana":"はりもち","closed":true,"lat":31.97978,"lng":130.580834,"prefecture":46,"lines":[10902],"attr":"unknown","postal_code":"895-2442","address":"鹿児島県伊佐市大口針持４２９６−８","next":[1090216,1090215,1090214,1090218,1090213,1090219],"voronoi":{"lat":32.030249,"lng":130.507937,"delta_lat":[0,-35014,-37723,-7793,9381,52199],"delta_lng":[0,14746,31073,11878,69595,-64418]}},
    {"code":1090218,"id":"9f9e1f","name":"西太良","name_kana":"にしたら","closed":true,"lat":32.008027,"lng":130.603723,"prefecture":46,"lines":[10902],"attr":"unknown","postal_code":"895-2441","address":"鹿児島県伊佐市大口曽木１５６９−１","next":[1192519,1090217,1090219,1090220,1192602,1192603,1090216],"voronoi":{"lat":31.959099,"lng":130.63523,"delta_lat":[0,52199,20023,-3233,-32798,-38290,-1012],"delta_lng":[0,-64418,67301,32263,977,-18342,-1037]}},
    {"code":1090219,"id":"6dd9ff","name":"羽月","name_kana":"はつき","closed":true,"lat":32.032029,"lng":130.596582,"prefecture":46,"lines":[10902],"attr":"unknown","postal_code":"895-2524","address":"鹿児島県伊佐市大口堂崎５２５−３羽月鉄道記念公園","next":[101010,1090218,1090217,1090213,101009,1090220],"voronoi":{"lat":32.011299,"lng":130.570811,"delta_lat":[0,18950,34521,31280,559,-65287],"delta_lng":[0,-62874,-29758,7499,597,151837]}},
    {"code":1090220,"id":"6e3bf4","name":"薩摩大口","name_kana":"さつまおおくち","closed":true,"lat":32.060977,"lng":130.609029,"prefecture":46,"lines":[10902],"attr":"unknown","postal_code":"895-2513","address":"鹿児島県伊佐市大口上町２-１","next":[1192518,1192513,1090218,1192512,1192511,9992110,1192510,101009,1192519,1090219,9992111],"voronoi":{"lat":32.164172,"lng":130.552955,"delta_lat":[0,161,-6610,-11291,-1770,-110093,-6480,3233,65287,43395,19358],"delta_lng":[0,39672,28845,35303,3624,12435,-2458,-32263,-151837,36098,20890]}}
  ],
  "closed_date":"1987-01-10"
}