{
  "code":11103,
  "id":"1f0306",
  "name":"JR函館本線(小樽～旭川)",
  "name_kana":"じぇいあーるはこだてほんせん",
  "station_size":48,
  "company_code":1,
  "station_list":[
    {"code":1110219,"id":"078e9b","name":"小樽","name_kana":"おたる","lat":43.197172,"lng":140.993653,"prefecture":1,"numbering":[{"symbol":"S","color":"#ED1C23","index":"15"}],"lines":[11102,11103],"attr":"cool","postal_code":"047-0032","address":"小樽市稲穂２丁目","next":[1011103,1011102,1110302,1110218],"voronoi":{"lat":43.202927,"lng":140.997148,"delta_lat":[0,-17800,-56161,88718],"delta_lng":[0,-1408,-42004,6719]},"impl":true},
    {"code":1110302,"id":"d2ca10","name":"南小樽","name_kana":"みなみおたる","lat":43.186529,"lng":141.007883,"prefecture":1,"numbering":[{"symbol":"S","color":"#ED1C23","index":"14"}],"lines":[11103,10111],"attr":"cool","postal_code":"047-0015","address":"小樽市住吉町","next":[1011103,1110303,1011102,1110218,1010216,1110219],"voronoi":{"lat":43.204882,"lng":141.020261,"delta_lat":[0,1815,-177951,6611,93609,56161],"delta_lng":[0,4498,-48565,-40293,17834,42004]},"impl":true},
    {"code":1110303,"id":"61908a","name":"小樽築港","name_kana":"おたるちっこう","lat":43.180752,"lng":141.029051,"prefecture":1,"numbering":[{"symbol":"S","color":"#ED1C23","index":"13"}],"lines":[11103],"attr":"cool","postal_code":"047-0008","address":"小樽市築港","next":[1010216,9911020,1011103,1110302,1110304],"voronoi":{"lat":43.206698,"lng":141.02476,"delta_lat":[0,-177951,-8409,11183,204988],"delta_lng":[0,-48565,35781,18107,22831]},"impl":true},
    {"code":1110304,"id":"5cc8d7","name":"朝里","name_kana":"あさり","lat":43.176868,"lng":141.063923,"prefecture":1,"numbering":[{"symbol":"S","color":"#ED1C23","index":"12"}],"lines":[11103],"attr":"cool","postal_code":"047-0151","address":"小樽市朝里１丁目","next":[1111212,1110305,9911020,1111321,1011103,1110303],"voronoi":{"lat":43.569015,"lng":141.219044,"delta_lat":[0,-17104,-11576,-488293,-20521,204988],"delta_lng":[0,25073,389,-170313,-44111,22831]},"impl":true},
    {"code":1110305,"id":"1242f0","name":"銭函","name_kana":"ぜにばこ","lat":43.143403,"lng":141.159868,"prefecture":1,"numbering":[{"symbol":"S","color":"#ED1C23","index":"11"}],"lines":[11103],"attr":"cool","postal_code":"047-0261","address":"小樽市銭函２丁目","next":[1111209,1111212,1110304,1110307,9911019,1110306,9911020],"voronoi":{"lat":43.052042,"lng":141.074193,"delta_lat":[0,488293,-42054,-44439,-206129,-192556,-2522],"delta_lng":[0,170313,6747,2445,-44583,-59066,-42437]},"impl":true},
    {"code":1110306,"id":"f3c5c3","name":"ほしみ","name_kana":"ほしみ","lat":43.13373,"lng":141.191402,"prefecture":1,"numbering":[{"symbol":"S","color":"#ED1C23","index":"10"}],"lines":[11103],"attr":"cool","postal_code":"006-0859","address":"札幌市手稲区手稲星置１条９丁目","next":[9911018,1110308,1110305,1110307,9911019],"voronoi":{"lat":43.051518,"lng":141.193014,"delta_lat":[0,22451,173744,-192556,-524],"delta_lng":[0,4000,12102,-59066,4088]},"impl":true},
    {"code":1110307,"id":"e29082","name":"星置","name_kana":"ほしおき","lat":43.132375,"lng":141.210856,"prefecture":1,"numbering":[{"symbol":"S","color":"#ED1C23","index":"09"}],"lines":[11103],"attr":"cool","postal_code":"006-0851","address":"札幌市手稲区星置１条３丁目","next":[1110308,1111209,1110305,1110306,1111208],"voronoi":{"lat":43.309456,"lng":141.273378,"delta_lat":[0,144386,-206129,-173744,219913],"delta_lng":[0,-19680,-44583,-12102,77662]},"impl":true},
    {"code":1110308,"id":"9ef90a","name":"稲穂","name_kana":"いなほ","lat":43.128115,"lng":141.222919,"prefecture":1,"numbering":[{"symbol":"S","color":"#ED1C23","index":"08"}],"lines":[11103],"attr":"cool","postal_code":"006-0831","address":"札幌市手稲区曙１条３丁目","next":[1111208,9911017,1110307,1110309,1110306,9911018],"voronoi":{"lat":43.051518,"lng":141.193014,"delta_lat":[0,22451,219913,-45666,-197918,1083],"delta_lng":[0,4000,77662,5502,-74715,-11963]},"impl":true},
    {"code":1110309,"id":"1035b2","name":"手稲","name_kana":"ていね","lat":43.120238,"lng":141.243785,"prefecture":1,"numbering":[{"symbol":"S","color":"#ED1C23","index":"07"}],"lines":[11103],"attr":"eco","postal_code":"006-0021","address":"札幌市手稲区手稲本町１条４丁目","next":[9911017,1111208,1110308,1110310],"voronoi":{"lat":43.248215,"lng":141.280177,"delta_lat":[0,-197918,-904,136026],"delta_lng":[0,-74715,3852,83842]},"impl":true},
    {"code":1110310,"id":"68063b","name":"稲積公園","name_kana":"いなづみこうえん","lat":43.112023,"lng":141.257113,"prefecture":1,"numbering":[{"symbol":"S","color":"#ED1C23","index":"06"}],"lines":[11103],"attr":"eco","postal_code":"006-0011","address":"札幌市手稲区富丘１条４丁目","next":[1111205,9911017,9910101,1111208,1110311,1110309],"voronoi":{"lat":43.178337,"lng":141.295345,"delta_lat":[0,-25425,-57849,-45937,267,136026],"delta_lng":[0,295,-35019,-50527,-779,83842]},"impl":true},
    {"code":1110311,"id":"267989","name":"発寒","name_kana":"はっさむ","lat":43.099819,"lng":141.277273,"prefecture":1,"numbering":[{"symbol":"S","color":"#ED1C23","index":"05"}],"lines":[11103],"attr":"eco","postal_code":"063-0829","address":"札幌市西区発寒９条１３丁目","next":[1111205,1110310,1110312,9910101,1111204],"voronoi":{"lat":43.119347,"lng":141.301074,"delta_lat":[0,-24549,265,57849,-24964],"delta_lng":[0,-15034,-25420,35019,5659]},"impl":true},
    {"code":1110312,"id":"f6eb05","name":"発寒中央","name_kana":"はっさむちゅうおう","lat":43.089271,"lng":141.294497,"prefecture":1,"numbering":[{"symbol":"S","color":"#ED1C23","index":"04"}],"lines":[11103],"attr":"eco","postal_code":"063-0826","address":"札幌市西区発寒十条３丁目","next":[9910103,1111204,9910102,9910101,1110311,1110313],"voronoi":{"lat":43.119347,"lng":141.301074,"delta_lat":[0,-24549,-5123,-8151,1159,14713],"delta_lng":[0,-15034,-205,11851,1637,8736]},"impl":true},
    {"code":1110313,"id":"82a246","name":"琴似(JR)","original_name":"琴似","name_kana":"ことに","lat":43.081599,"lng":141.307418,"prefecture":1,"numbering":[{"symbol":"S","color":"#ED1C23","index":"03"}],"lines":[11103],"attr":"eco","postal_code":"063-0812","address":"札幌市西区琴似2条2丁目","next":[1111204,1111203,9910104,9910103,1110312],"voronoi":{"lat":43.096995,"lng":141.308476,"delta_lat":[0,-18495,-2723,6906,14713],"delta_lng":[0,6696,-4642,-11206,8736]},"impl":true},
    {"code":1110314,"id":"f18414","name":"桑園","name_kana":"そうえん","lat":43.070744,"lng":141.332036,"prefecture":1,"numbering":[{"symbol":"S","color":"#ED1C23","index":"02"}],"lines":[11103,11112],"attr":"eco","postal_code":"060-0011","address":"札幌市中央区北１１条西１５丁目","next":[9910204,9910104,9910206,1111203,9910107,9910203,9910205,9910108,9910404,9910105],"voronoi":{"lat":43.065669,"lng":141.323205,"delta_lat":[0,10331,8148,-1296,-6732,-7343,-811,-4004,-376,1381],"delta_lng":[0,-301,9544,1966,4974,1833,-194,-5422,-1744,-10239]},"impl":true},
    {"code":1110315,"id":"7a3b57","name":"札幌","name_kana":"さっぽろ","lat":43.068612,"lng":141.350768,"prefecture":1,"numbering":[{"index":"01"}],"lines":[11103,11109,11112],"attr":"eco","postal_code":"060-0806","address":"札幌市北区北６条西４丁目","next":[9910306,9910110,9910206,9910205],"voronoi":{"lat":43.069618,"lng":141.359161,"delta_lat":[0,-3395,2896,3742],"delta_lng":[0,-2569,-13843,9837]},"impl":true},
    {"code":1110316,"id":"280d07","name":"苗穂","name_kana":"なえぼ","lat":43.068262,"lng":141.373477,"prefecture":1,"numbering":[{"symbol":"H","color":"#0072BC","index":"02"}],"lines":[11103,11109],"attr":"eco","postal_code":"060-0033","address":"札幌市中央区北３条東１３丁目","next":[9910305,9910110,9910304,1110920,9910111],"voronoi":{"lat":43.06308,"lng":141.367881,"delta_lat":[0,6158,6180,-1823,-11313],"delta_lng":[0,-3312,7051,21738,-14086]},"impl":true},
    {"code":1110317,"id":"e3ad39","name":"白石(JR)","original_name":"白石","name_kana":"しろいし","lat":43.054715,"lng":141.413612,"prefecture":1,"numbering":[{"symbol":"H","color":"#0072BC","index":"03"}],"lines":[11103,11109,99110],"attr":"eco","postal_code":"003-0029","address":"札幌市白石区平和通3丁目北6","open_date":"1903-04-21","next":[9910303,9910114,1110920,1110916,9910113,9910304,9910115,1111210,1110919,1111211],"voronoi":{"lat":43.048566,"lng":141.425067,"delta_lat":[0,-2162,1574,2223,12327,13061,23272,8837,301,58],"delta_lng":[0,-4503,-12422,-3118,-6131,271,16394,8337,1995,18145]},"impl":true},
    {"code":1110318,"id":"11bbb0","name":"厚別","name_kana":"あつべつ","lat":43.045154,"lng":141.46369,"prefecture":1,"numbering":[{"symbol":"A","color":"#FFA500","index":"04"}],"lines":[11103],"attr":"eco","postal_code":"004-0055","address":"札幌市厚別区厚別中央５条４丁目","next":[1110915,1110319,9910118,9910119,9910117,1110916],"voronoi":{"lat":43.041471,"lng":141.450509,"delta_lat":[0,-3405,710,5512,5411,31159],"delta_lng":[0,5448,9730,4078,3455,-19961]},"impl":true},
    {"code":1110319,"id":"a2c9cc","name":"森林公園(北海道)","original_name":"森林公園","name_kana":"しんりんこうえん","lat":43.056456,"lng":141.481332,"prefecture":1,"numbering":[{"symbol":"A","color":"#FFA500","index":"05"}],"lines":[11103],"attr":"eco","postal_code":"004-0071","address":"札幌市厚別区厚別北１条４丁目","next":[9910119,1110318,1110320,1110914,1110916],"voronoi":{"lat":43.049698,"lng":141.47322,"delta_lat":[0,-11451,2392,64005,-23787],"delta_lng":[0,24103,16094,-65372,5214]},"impl":true},
    {"code":1110320,"id":"c252d3","name":"大麻","name_kana":"おおあさ","lat":43.072382,"lng":141.496925,"prefecture":1,"numbering":[{"symbol":"A","color":"#FFA500","index":"06"}],"lines":[11103],"attr":"eco","postal_code":"069-0854","address":"江別市大麻中町","next":[1110914,1110916,1111211,1111212,1110319,1110321,9911504],"voronoi":{"lat":43.038478,"lng":141.54035,"delta_lat":[0,96065,-5401,-20583,-3914,-64005,-4620],"delta_lng":[0,-58888,-13250,-21857,1689,65372,27021]},"impl":true},
    {"code":1110321,"id":"c3e3ba","name":"野幌","name_kana":"のっぽろ","lat":43.092559,"lng":141.52984,"prefecture":1,"numbering":[{"symbol":"A","color":"#FFA500","index":"07"}],"lines":[11103,99115],"attr":"eco","postal_code":"069-0813","address":"江別市野幌町","next":[1110322,1111212,9911502,1110320,9911504],"voronoi":{"lat":43.038478,"lng":141.54035,"delta_lat":[0,96065,14511,-21686,-60693],"delta_lng":[0,-58888,17469,14955,35881]},"impl":true},
    {"code":1110322,"id":"7639c9","name":"高砂(北海道)","original_name":"高砂","name_kana":"たかさご","lat":43.100084,"lng":141.540752,"prefecture":1,"numbering":[{"symbol":"A","color":"#FFA500","index":"08"}],"lines":[11103],"attr":"eco","postal_code":"067-0074","address":"江別市高砂町","next":[1110321,1111212,1111213,1110323,9911503,9911502],"voronoi":{"lat":43.108811,"lng":141.546456,"delta_lat":[0,49604,-2007,-7354,-21686,-40752],"delta_lng":[0,-31253,-9075,-7196,14955,34877]},"impl":true},
    {"code":1110323,"id":"29e12b","name":"江別","name_kana":"えべつ","lat":43.110189,"lng":141.55679,"prefecture":1,"numbering":[{"symbol":"A","color":"#FFA500","index":"09"}],"lines":[11103],"attr":"eco","postal_code":"067-0071","address":"江別市萩ケ岡","next":[1110324,1110322,1111213,9911503,1111214,9911504],"voronoi":{"lat":43.098455,"lng":141.577082,"delta_lat":[0,10355,49604,11705,1495,-60305],"delta_lng":[0,-30626,-31253,30436,26402,23330]},"impl":true},
    {"code":1110324,"id":"a1b538","name":"豊幌","name_kana":"とよほろ","lat":43.136446,"lng":141.62466,"prefecture":1,"numbering":[{"symbol":"A","color":"#FFA500","index":"10"}],"lines":[11103],"attr":"eco","postal_code":"067-0021","address":"江別市豊幌","next":[1110323,1110325,1111214,9911506,9911505,1111215,9911504],"voronoi":{"lat":43.096977,"lng":141.633715,"delta_lat":[0,8939,93522,-9238,-18586,-60305,-8768],"delta_lng":[0,24688,-44699,-18160,-23503,23330,12333]},"impl":true},
    {"code":1110325,"id":"5194bd","name":"幌向","name_kana":"ほろむい","lat":43.151348,"lng":141.655839,"prefecture":1,"numbering":[{"symbol":"A","color":"#FFA500","index":"11"}],"lines":[11103],"attr":"eco","postal_code":"069-0371","address":"岩見沢市幌向南１条３丁目","next":[1111216,1110512,1110324,1110326,9911506,1111215,9911507],"voronoi":{"lat":43.105194,"lng":141.67555,"delta_lat":[0,722,93522,24669,6225,-90441,-29416],"delta_lng":[0,-17147,-44699,26788,12496,46293,-10862]},"impl":true},
    {"code":1110326,"id":"9c1411","name":"上幌向","name_kana":"かみほろむい","lat":43.18183,"lng":141.715391,"prefecture":1,"numbering":[{"symbol":"A","color":"#FFA500","index":"12"}],"lines":[11103],"attr":"eco","postal_code":"069-0362","address":"岩見沢市上幌向南１条４丁目","next":[1110513,1111219,1110512,1111220,1110325,1111216,1110327],"voronoi":{"lat":43.263786,"lng":141.701367,"delta_lat":[0,-2439,-10341,-20674,-90441,3796,41303],"delta_lng":[0,-8581,-23363,-16435,46293,9582,32596]},"impl":true},
    {"code":1110327,"id":"b5182e","name":"岩見沢","name_kana":"いわみざわ","lat":43.204201,"lng":141.759359,"prefecture":1,"numbering":[{"symbol":"A","color":"#FFA500","index":"13"}],"lines":[11103,11105,11125],"attr":"eco","postal_code":"068-0034","address":"岩見沢市有明町南","next":[1011602,1110328,1111220,1112502,1110513,1110326],"voronoi":{"lat":43.173267,"lng":141.777061,"delta_lat":[0,15346,69553,26014,-20394,-78796],"delta_lng":[0,12394,-28379,-28450,-31260,40092]},"impl":true},
    {"code":1110328,"id":"8027ba","name":"峰延","name_kana":"みねのぶ","lat":43.264694,"lng":141.814673,"prefecture":1,"numbering":[{"symbol":"A","color":"#FFA500","index":"14"}],"lines":[11103],"attr":"eco","postal_code":"072-0000","address":"美唄市峰延","next":[1111221,1110329,1112503,1111222,1110327,1112504,1112502,1111220],"voronoi":{"lat":43.291535,"lng":141.739903,"delta_lat":[0,32269,-65467,-2830,-12570,15229,26014,357],"delta_lng":[0,47670,61062,-1055,-40778,-45725,-28450,188]},"impl":true},
    {"code":1110329,"id":"a0b8dc","name":"光珠内","name_kana":"こうしゅない","lat":43.292658,"lng":141.844655,"prefecture":1,"numbering":[{"symbol":"A","color":"#FFA500","index":"15"}],"lines":[11103],"attr":"eco","postal_code":"072-0000","address":"美唄市光珠内","next":[1110328,1110330,1111222,1112504,1110331],"voronoi":{"lat":43.337218,"lng":141.797876,"delta_lat":[0,-13413,-65467,19071,34533],"delta_lng":[0,-10304,61062,29179,-24923]},"impl":true},
    {"code":1110330,"id":"0ae16e","name":"南美唄","name_kana":"みなみびばい","closed":true,"lat":43.313683,"lng":141.873786,"prefecture":1,"lines":[11103],"postal_code":"072-0823","address":"北海道美唄市南美唄町下４条７７−５","open_date":"1931-12-01","closed_date":"1973-09-09","next":[9911702,1110329,1112504,1110331,1112507],"voronoi":{"lat":43.278201,"lng":141.890121,"delta_lat":[0,-793,34533,20233,-38685],"delta_lng":[0,-12307,-24923,29696,27114]},"impl":false},
    {"code":1110331,"id":"22c94d","name":"美唄","name_kana":"びばい","lat":43.330751,"lng":141.862157,"prefecture":1,"numbering":[{"symbol":"A","color":"#FFA500","index":"16"}],"lines":[11103,99117],"attr":"eco","postal_code":"072-0012","address":"美唄市東一条南２丁目","next":[9911702,1111222,1111223,1110330,1110332,1110329],"voronoi":{"lat":43.337218,"lng":141.797876,"delta_lat":[0,1288,25581,-17702,-14210,-20233],"delta_lng":[0,433,21332,61766,1179,-29696]},"impl":true},
    {"code":1110332,"id":"245613","name":"茶志内","name_kana":"ちゃしない","lat":43.369842,"lng":141.87336,"prefecture":1,"numbering":[{"symbol":"A","color":"#FFA500","index":"17"}],"lines":[11103],"attr":"eco","postal_code":"079-0261","address":"美唄市茶志内町","next":[9911703,9911702,1111223,1111224,1111225,1110331,1110333],"voronoi":{"lat":43.405608,"lng":141.85105,"delta_lat":[0,-12319,-22305,-6897,-17702,30592,7469],"delta_lng":[0,-13450,-15755,-2204,61766,36884,5127]},"impl":true},
    {"code":1110333,"id":"4a6a5a","name":"奈井江","name_kana":"ないえ","lat":43.423718,"lng":141.889115,"prefecture":1,"numbering":[{"symbol":"A","color":"#FFA500","index":"18"}],"lines":[11103],"attr":"eco","postal_code":"079-0313","address":"空知郡奈井江町本町１区","next":[1110337,1111225,9911703,1111226,1110334,1110332,9911706,1110336],"voronoi":{"lat":43.407322,"lng":141.962483,"delta_lat":[0,-12384,-10492,21162,17935,27235,-20595,-16732],"delta_lng":[0,-14307,-24758,-72368,1811,19076,70004,15625]},"impl":true},
    {"code":1110334,"id":"a40d71","name":"豊沼","name_kana":"とよぬま","lat":43.464224,"lng":141.901032,"prefecture":1,"numbering":[{"symbol":"A","color":"#FFA500","index":"19"}],"lines":[11103],"attr":"eco","postal_code":"073-0138","address":"砂川市豊沼町","next":[1111227,1110336,1110333,1111226,1111229,1110335,1111228],"voronoi":{"lat":43.486139,"lng":141.880565,"delta_lat":[0,-13614,-42343,20595,15785,2735,9220],"delta_lng":[0,46240,15136,-70004,-1712,413,3474]},"impl":true},
    {"code":1110335,"id":"cbc4f3","name":"砂川","name_kana":"すながわ","lat":43.493468,"lng":141.909642,"prefecture":1,"numbering":[{"symbol":"A","color":"#FFA500","index":"20"}],"lines":[11103,11120],"attr":"eco","postal_code":"073-0152","address":"砂川市東２条北２丁目","next":[1112002,1111229,1110340,1111230,1110336,1110334],"voronoi":{"lat":43.486139,"lng":141.880565,"delta_lat":[0,29041,8072,3199,-50472,-3454],"delta_lng":[0,4964,11859,22380,7936,-899]},"impl":true},
    {"code":1110336,"id":"d91d96","name":"下鶉","name_kana":"しもうずら","closed":true,"lat":43.482444,"lng":141.952,"prefecture":1,"lines":[11103],"postal_code":"073-0222","address":"北海道空知郡上砂川町下鶉南１条１丁目３-９","open_date":"1959-12-18","closed_date":"1994-05-16","next":[1112002,1110337,1110334,1110335,1110333],"voronoi":{"lat":43.430182,"lng":141.941942,"delta_lat":[0,42343,3454,23321,-85850],"delta_lng":[0,-15136,899,29399,463]},"impl":false},
    {"code":1110337,"id":"84b12f","name":"鶉","name_kana":"うずら","closed":true,"lat":43.4825,"lng":141.962389,"prefecture":1,"lines":[11103],"postal_code":"073-0221","address":"北海道空知郡上砂川町鶉本町北２丁目２-３","open_date":"1948-12-01","closed_date":"1994-05-16","next":[1110333,1112003,1110336,1112002,9911706,1110338,1110339],"voronoi":{"lat":43.499952,"lng":141.969159,"delta_lat":[0,10823,-11475,-85850,-6129,269,28495],"delta_lng":[0,-4191,-7864,463,4917,6938,2671]},"impl":false},
    {"code":1110338,"id":"c93f8a","name":"東鶉","name_kana":"ひがしうずら","closed":true,"lat":43.483194,"lng":141.9775,"prefecture":1,"lines":[11103],"postal_code":"073-0211","address":"北海道空知郡上砂川町東鶉北１条３丁目１","open_date":"1959-12-18","closed_date":"1994-05-16","next":[1112003,1110337,1110339],"voronoi":{"lat":43.436086,"lng":141.972092,"delta_lat":[0,63867,-15477],"delta_lng":[0,-2934,15477]},"impl":false},
    {"code":1110339,"id":"ea7baf","name":"上砂川","name_kana":"かみすながわ","closed":true,"lat":43.479889,"lng":141.99025,"prefecture":1,"lines":[11103],"postal_code":"073-0201","address":"北海道空知郡上砂川町中央北１条１丁目１-１","open_date":"1926-08-01","closed_date":"1994-05-16","next":[1112005,1112004,1112003,9911706,1110337,9911612,1110338],"voronoi":{"lat":43.488867,"lng":141.996517,"delta_lat":[0,-7728,-54950,-31982,13383,28495,48390],"delta_lng":[0,20542,49100,-7222,-89515,2671,12543]},"impl":false},
    {"code":1110340,"id":"514b6b","name":"滝川","name_kana":"たきかわ","lat":43.555278,"lng":141.900807,"prefecture":1,"numbering":[{"symbol":"A","color":"#FFA500","index":"21"}],"lines":[11103,11106],"attr":"eco","postal_code":"073-0031","address":"滝川市栄町４丁目","next":[1110602,1111232,1111230,1112002,1110335,1110341,1111231],"voronoi":{"lat":43.597047,"lng":141.906795,"delta_lat":[0,-14339,-38836,-17421,-3199,37070,26593],"delta_lng":[0,29505,9163,-25694,-22380,-13504,11875]},"impl":true},
    {"code":1110341,"id":"ec27fb","name":"江部乙","name_kana":"えべおつ","lat":43.627564,"lng":141.935937,"prefecture":1,"numbering":[{"symbol":"A","color":"#FFA500","index":"22"}],"lines":[11103],"attr":"heat","postal_code":"079-0462","address":"滝川市江部乙町西町１２丁目","next":[1110602,1111234,1111235,1111232,1110340,1111233,1110342],"voronoi":{"lat":43.669726,"lng":141.92954,"delta_lat":[0,-8045,-49151,-3429,-12054,-14339,52856],"delta_lng":[0,-8458,-20678,821,5569,29505,63759]},"impl":true},
    {"code":1110342,"id":"a30b2a","name":"妹背牛","name_kana":"もせうし","lat":43.690841,"lng":141.966591,"prefecture":1,"numbering":[{"symbol":"A","color":"#FFA500","index":"23"}],"lines":[11103],"attr":"heat","postal_code":"079-0500","address":"雨竜郡妹背牛町字妹背牛","next":[1111236,1111235,1110602,1110343,1111302,1111303,1110341],"voronoi":{"lat":43.669726,"lng":141.92954,"delta_lat":[0,11331,49383,-608,-27372,-63268,-3628],"delta_lng":[0,-1814,7875,40804,29107,25441,-30895]},"impl":true},
    {"code":1110343,"id":"57162b","name":"深川","name_kana":"ふかがわ","lat":43.721021,"lng":142.041642,"prefecture":1,"numbering":[{"symbol":"A","color":"#FFA500","index":"24"}],"lines":[11103,11113,11124],"attr":"heat","postal_code":"074-0001","address":"深川市１条","next":[1110602,1110344,1110342,1111302,1112402,1110603],"voronoi":{"lat":43.71502,"lng":142.087383,"delta_lat":[0,31406,-43965,-63268,-1554,2644],"delta_lng":[0,-47575,-34295,25441,3725,62413]},"impl":true},
    {"code":1110344,"id":"8a48bf","name":"納内","name_kana":"おさむない","lat":43.732509,"lng":142.130072,"prefecture":1,"numbering":[{"symbol":"A","color":"#FFA500","index":"25"}],"lines":[11103],"attr":"heat","postal_code":"078-0151","address":"深川市納内町字納内","next":[1110343,1110603,1110345,1112407,1112406,1112402,1110605,1112403],"voronoi":{"lat":43.777445,"lng":142.108335,"delta_lat":[0,-62425,-74737,-2538,-2075,165337,-1965,-7029],"delta_lng":[0,-20952,9709,5530,63963,-744,-13194,-27911]},"impl":true},
    {"code":1110345,"id":"78e3a3","name":"神居古潭","name_kana":"かむいこたん","closed":true,"lat":43.732834,"lng":142.202224,"prefecture":1,"lines":[11103],"attr":"unknown","postal_code":"078-0185","address":"北海道旭川市神居町神居古潭","next":[1110344,1110605,1111405,1110606,1110346,1112407,1111406],"voronoi":{"lat":43.648875,"lng":142.280471,"delta_lat":[0,178729,-26598,-165337,-10926,-6626,10129],"delta_lng":[0,-78421,-36209,744,26696,81020,2680]},"impl":true},
    {"code":1110346,"id":"207f69","name":"伊納","name_kana":"いのう","lat":43.763305,"lng":142.27167,"prefecture":1,"numbering":[{"symbol":"A","color":"#FFA500","index":"26"}],"lines":[11103],"attr":"heat","postal_code":"070-8052","address":"旭川市江丹別町春日","next":[1111404,1111402,1111403,1112409,1110345,1112407,1110347,1111405],"voronoi":{"lat":43.6857,"lng":142.297609,"delta_lat":[0,22058,38030,134883,-13329,-39738,-178729,11640],"delta_lng":[0,7561,8025,-65077,-23019,-23049,78421,6425]},"impl":true},
    {"code":1110347,"id":"7b3ef7","name":"近文","name_kana":"ちかぶみ","lat":43.789193,"lng":142.325327,"prefecture":1,"numbering":[{"symbol":"A","color":"#FFA500","index":"27"}],"lines":[11103],"attr":"heat","postal_code":"070-0821","address":"旭川市近文町１９丁目","next":[1111510,1110348,1111402,1112409,1111511,1111503,1111504,1110346],"voronoi":{"lat":43.880671,"lng":142.248118,"delta_lat":[0,53155,-9449,-21398,-42924,-64598,-42046,-7623],"delta_lng":[0,54130,24966,29450,9827,-9798,-33275,-10223]},"impl":true},
    {"code":1110348,"id":"e3f638","name":"旭川","name_kana":"あさひかわ","lat":43.763492,"lng":142.357803,"prefecture":1,"numbering":[{"symbol":"A","color":"#FFA500","index":"28"}],"lines":[11103,11114,11115,11116],"attr":"heat","postal_code":"070-0030","address":"旭川市宮下通８丁目","next":[1111503,1110347,1111502,1111402],"voronoi":{"lat":43.753411,"lng":142.323418,"delta_lat":[0,42046,-15549,-25423],"delta_lng":[0,33275,9611,796]},"impl":true}
  ],
  "north":43.79102,
  "south":43.04344,
  "east":142.35949,
  "west":140.99317,
  "polyline_list":[
    {
      "start":"小樽",
      "end":"札幌",
      "lat":43.19808,
      "lng":140.99317,
      "delta_lat":[0,-192,-38,-11,-60,-50,-19,-12,-9,-9,-7,-7,-8,-5,-5,-5,-5,-6,-6,-5,-10,-3,-1,0,0,-3,-3,-4,-4,-6,-5,-5,-7,-9,-18,-20,-47,-90,-54,-28,-59,-29,-12,-38,-28,-19,-27,-11,-26,-17,-29,-33,-102,-10,-75,-25,-5,-17,-10,-16,-34,-22,-24,-6,-9,-6,-8,-4,-2,-1,-3,-3,-1,1,7,10,2,2,0,-16,-10,-7,-12,-7,-15,-6,-8,-9,-16,-7,-17,-5,-10,-11,-19,-5,-14,-20,-22,-26,-6,-2,-5,0,4,8,10,12,3,13,8,6,7,6,3,-9,-18,-36,-22,-20,-43,-31,-23,-25,-7,-7,-18,-10,-8,-3,-1,1,1,1,1,7,6,7,9,6,3,15,5,5,8,21,9,5,5,1,0,-2,-2,-1,-2,-3,0,-5,-2,-6,-4,-10,-4,-5,0,-3,-2,-7,-8,-12,-13,-15,-26,-8,-21,-3,-23,-17,-16,-5,-10,-16,-4,-25,-34,-77,-18,-8,-5,-16,-16,-16,-12,-18,-52,-23,-9,-5,-30,-15,-7,-16,-20,-9,-7,-25,-17,-12,-47,-14,-6,-4,-2,-4,-1,-3,-8,-3,-17,-1,-8,-2,-4,-4,-4,-4,-7,-10,-18,-25,-3,-20,-18,-1,-25,-9,-14,-23,-18,-23,-44,-41,-69,-103,-76,-29,-19,-12,-47,-8,-19,-13,-26,-22,-27,-22,-30,-17,-9,-5,-18,-19,-51,-41,-24,-23,-16,-36,-45,-30,-25,-42,-57,-99,-37,-27,-17,-22,-28,-15,-15,-37,-28,-30,-21,-10,-8,-18,-9,-8,-3,-7,-14,-12,-30,-20,-2,-18,-22,-17,-14,-6,-5,-2,-2,1,-4,-9,-5,-4,-7,-11,-16,-10,-18,-48,-8,-5,-7,-7,-13,-22,-21,-16,-25,-31,-26,-73,-26,-14,-14,-9,-18,-23,-19,-10,-6,-8,-15,-36,-21,-16,-17,-1,-13,-14,-24,-45,-45,-29,-21,-7,-5,-2,-67,-17,-18,-18,-12,-19,-9,-25,-18,-31,-90,-27,-14,-21,-16,-36,-23,-24,-19,-17,-56,-39,-40,-34,-23,-45,-6,-41,-17,-71,-96,-26,-28,-35,-7,-26,-9,-7,-16,-18,-17,-7,0,3,12,9,27,11,5,1,-2,-4,-5,-11,-15,-13,-14,-13,-17,-20,-67,-64,-74,-60,-78,-22,-7,-53,-8,-22,-13,-7,-19,-10,-20,-14,-4,-10,-6,-17,-10,-8,-19,-21,-10,-22,-16,-3,-13,-33,-27,-7,-53,-14,-43,-22,-17,-43,-86,-30,-119,-58,-29,-351,-243,-82,-310,-237,-18,-271,-288,-95,-542,-238,-104,-120,-81,-176,-133,-91,-22,-80,-69,-115,-15,-68,-15,-15,-31,-38,-12,-111,-33,-58,-87,-78,-43,-23,-58,-32,-132,-132,-41,-27,-35,-12,-54,-16,-77,-23,-81,-81,-19,-15,-6,-8,-11,-7,0,1,3,11,17,4,16,13,13,25,14,35,4,8,9,8],
      "delta_lng":[0,102,21,7,34,31,13,11,9,10,10,9,14,11,10,12,13,20,22,20,43,26,25,24,29,39,24,25,18,19,16,15,13,16,28,28,51,84,54,31,74,35,17,49,34,25,37,15,32,20,32,38,152,17,117,39,8,28,15,26,52,36,38,11,23,14,20,17,11,15,20,39,34,47,70,63,19,24,56,134,40,23,47,30,56,19,34,36,64,26,63,19,39,46,70,23,54,73,88,91,63,23,48,45,40,47,52,42,12,44,30,20,30,40,44,55,71,149,63,25,35,32,28,39,15,13,43,37,32,24,12,61,47,5,18,43,36,33,51,35,12,81,25,30,38,112,43,45,44,37,45,30,85,16,76,32,19,38,22,46,40,80,104,88,14,42,26,33,34,31,23,29,55,14,42,6,47,39,45,18,41,70,15,110,176,337,78,37,13,48,43,32,18,18,57,26,9,8,34,23,13,26,39,19,29,125,94,47,137,44,25,30,58,235,77,175,86,24,119,13,56,10,34,32,26,28,32,34,47,54,3,39,31,1,46,15,24,36,28,46,98,109,207,305,203,83,55,48,191,29,62,43,70,65,94,76,120,72,29,13,32,25,49,38,22,31,32,87,118,76,54,77,89,135,64,52,38,65,66,32,24,57,44,49,42,22,22,68,51,63,15,21,33,29,63,42,7,51,76,72,94,45,56,51,65,158,155,87,53,26,22,37,34,21,32,78,18,14,20,31,38,54,44,29,36,43,38,105,39,21,27,21,47,58,49,34,20,35,35,65,37,37,63,3,42,38,55,103,98,82,66,20,15,8,179,37,37,37,23,31,14,31,20,32,97,37,26,51,51,143,93,97,81,68,232,158,163,136,94,187,23,166,68,289,383,104,118,159,45,164,106,65,188,196,171,171,39,155,202,92,205,101,83,41,48,34,36,47,51,36,34,24,34,29,106,104,112,97,119,37,11,83,18,45,32,20,65,41,70,55,12,37,27,62,38,31,69,82,43,81,59,9,51,123,103,28,152,34,97,46,33,85,152,52,198,98,50,572,405,134,505,388,30,446,471,159,886,391,175,195,137,291,220,149,36,132,111,190,24,119,26,28,64,87,27,258,80,134,199,184,97,55,131,74,306,309,95,60,87,27,121,38,179,52,189,205,52,47,32,34,75,79,52,61,32,86,101,24,81,66,46,89,83,270,25,56,92,105]
    },
    {
      "start":"札幌",
      "end":"豊幌",
      "lat":43.06887,
      "lng":141.35498,
      "delta_lat":[0,-1,0,0,-4,-2,-1,-1,-6,-1,-2,-3,-1,1,-4,-2,-2,0,6,26,19,35,13,3,1,0,-3,-6,-10,-14,-19,-15,-24,-62,-18,-42,-7,-28,-14,-12,-26,-13,-16,-6,-17,-26,-30,-84,-190,-83,-87,-10,-14,-123,-203,-192,-182,-8,-40,-44,-39,-104,-49,-70,-36,-58,-30,-28,-21,-21,-14,-11,-3,-6,-19,-16,-3,-15,-10,-25,-31,-19,-21,-6,-15,-28,-6,-2,-18,-14,-14,-25,-17,-6,-4,-18,-18,-10,-29,-21,-5,-15,-5,-11,-10,-1,-2,0,8,7,42,64,65,65,133,88,15,38,70,37,28,46,29,37,45,63,48,90,30,32,128,185,176,142,46,42,25,32,77,46,41,223,6,204,139,63,30,33,20,19,47,28,22,11,37,34,52,29,1,22,16,20,25,15,18,17,49,97,205,44,149,180,52,203,43,61,47,93,31,58,63,35,72,108,75,14,26,124,40,71,125,348,64,88,237,152,62,106,25,58,28,75,69,10,54,156,53,82,43,57,22,8,0,-5,-8,-38,-34,-8,1,8,16,13,10,21,25,76,36,30,14,8,4,4,3,2,0,0,-2,-3,-3,-1,2,3,9,8,4,11,26,18,5,35,20,24,17,13,37,38,84,192,85,108,66,35,76,76,53,25,44,114,85,32,14,23,25,62,50,157,20,62,57,14,32,41,47,48,81,89,52,66,55,30,18,17,8,5,3,1,3,2],
      "delta_lng":[0,16,5,46,202,146,41,84,449,15,157,224,39,44,165,60,94,63,138,308,211,379,137,100,41,42,27,30,53,54,47,33,40,117,33,70,14,67,36,29,61,24,31,11,28,42,53,138,318,144,142,18,24,205,343,322,298,16,66,74,63,173,81,127,82,146,98,119,115,148,108,92,19,45,156,110,29,106,63,126,162,88,105,27,91,165,34,13,91,61,59,116,75,27,20,83,79,39,134,89,27,69,24,65,66,13,19,165,103,76,126,205,178,177,362,250,42,102,188,85,54,80,41,49,56,60,34,46,13,13,49,79,68,64,21,24,17,23,62,40,39,248,7,227,152,68,36,44,31,31,85,66,55,30,114,96,164,99,4,76,52,46,55,30,32,31,73,138,291,64,215,260,78,290,62,89,66,136,47,82,91,51,105,159,110,20,38,172,58,102,180,506,94,128,341,227,91,151,37,87,48,143,133,18,101,293,94,151,82,132,81,75,71,60,36,160,180,94,79,75,90,52,30,66,71,220,104,103,71,55,33,48,68,98,123,122,193,327,116,171,45,47,54,30,11,34,59,33,11,49,20,22,14,9,21,15,39,89,39,50,30,17,44,70,66,42,90,239,179,62,30,53,50,132,105,329,42,127,117,31,66,82,99,98,157,187,104,141,112,67,56,66,42,63,83,125,119,39]
    },
    {
      "start":"豊幌",
      "end":"野幌",
      "lat":43.13953,
      "lng":141.63587,
      "delta_lat":[0,6,4,9,11,14,18,14,14,28,37,12,34,145,23,24,50,128],
      "delta_lng":[0,53,25,48,50,48,55,38,33,60,64,19,45,179,27,32,61,148]
    },
    {
      "start":"豊幌",
      "end":"野幌",
      "lat":43.13953,
      "lng":141.63587,
      "delta_lat":[0,19,25,12,12,25,18,19,27,20,16,24,19,2,37,79,24,25,54,27,16,71],
      "delta_lng":[0,51,84,45,38,76,43,40,47,34,25,33,28,3,48,98,30,32,68,36,23,103]
    },
    {
      "start":"野幌",
      "end":"妹背牛１",
      "lat":43.14524,
      "lng":141.64572,
      "delta_lat":[0,33,116,85,82,64,53,34,105,29,55,44,83,91,30,45,41,33,64,39,55,21,43,92,245,203,23,30,61,17,70,88,22,135,156,109,94,102,107,96,106,94,91,86,108,105,96,16,120,40,97,95,106,103,95,43,68,34,19,49,52,63,35,51,32,71,41,67,28,49,43,53,36,60,36,32,27,44,11,27,26,44,22,44,51,22,40,64,39,123,176,82,11,47,137,233,125,73,25,58,60,29,48,42,43,74,92,230,373,48,117,201,460,447,79,82,39,221,180,37,56,44,90,261,140,250,211,112,183,259,67,185,136,79,142,121,234,467,253,423,519,477,277,178,196,145,91,65,47,61,14,19,26,55,130,31,162,420,488,57,28,343,161,78,89,206,531,46,25,85,223,100,298,213,365,2098,140,34,325,325,145,521,395,28,748,706,50,28,747,17,1336,112,63,41,123,55,124,172,263,1022,702,164,1009,239,35,343,66,28,154,41,124,276,23,185,45,418,1444,25,12,25,83,296,238,255,35,103,63,38,333,101,64,24,61,192,52,302,130,137,176,143,30,100,59,79,67,78,66,37,58,66,60,154,188,212,32,25,50,63,28,12,23,28,11,178,15,158,42,28,21,109,163,86,65,57,75,77,74,66,35,54,46,41,45,12,46,76,37,38,129,72,27,335,33,107,76,29,107,130,81,46,289,130,147,76,268,81,210,239,97,145,160,20,414,184,209,111,278,126,144,267,444,127,164,108,452,36,428,402,621,176,390,714,259,275,136,26,376,440,268,427,388],
      "delta_lng":[0,39,148,109,108,93,93,63,208,61,111,86,161,185,60,88,82,65,129,76,112,40,89,182,489,404,46,58,125,32,139,177,43,263,309,211,188,199,208,189,201,187,179,168,215,204,187,28,235,80,191,191,206,198,178,77,126,69,38,86,84,101,50,87,56,112,63,102,45,95,89,99,75,112,69,72,84,148,37,89,80,114,48,85,99,44,76,124,73,258,340,157,23,91,268,457,251,143,43,74,75,29,46,33,30,47,49,103,172,22,55,91,209,205,36,37,18,100,84,19,38,33,96,276,151,265,235,121,199,277,72,197,150,81,151,129,251,498,272,452,559,514,295,191,215,155,101,81,47,53,12,15,19,39,67,13,50,127,142,17,8,99,48,23,25,62,156,12,7,22,67,29,86,57,106,601,39,11,94,94,42,153,116,9,219,209,15,8,219,5,395,32,20,11,35,15,37,48,75,302,207,46,296,71,9,101,20,8,48,11,37,83,6,56,13,121,425,8,3,7,24,86,70,74,11,30,18,15,98,32,19,7,18,56,15,90,35,41,52,47,9,28,12,3,-2,-11,-24,-12,-34,-44,-56,-163,-208,-237,-36,-22,-38,-59,-28,-13,-25,-28,-13,-194,-17,-172,-46,-30,-22,-118,-177,-75,-48,-33,-34,-25,-11,-2,1,8,12,16,25,6,26,42,18,17,39,31,13,175,16,60,38,15,53,61,41,20,141,63,71,37,131,38,105,113,48,70,77,11,201,86,101,54,134,60,69,130,213,59,82,52,218,16,208,194,299,82,191,346,124,132,67,13,182,212,130,208,190]
    },
    {
      "start":"妹背牛１",
      "end":"妹背牛２",
      "lat":43.6655,
      "lng":141.95428,
      "delta_lat":[0,34,15,201,57,50,99,39,217,88,45,81],
      "delta_lng":[0,28,11,109,31,28,47,18,105,43,16,21]
    },
    {
      "start":"妹背牛１",
      "end":"妹背牛２",
      "lat":43.6655,
      "lng":141.95428,
      "delta_lat":[0,40,13,156,106,42,103,53,205,156,52],
      "delta_lng":[0,8,4,66,56,21,49,28,104,89,32]
    },
    {
      "start":"妹背牛２",
      "end":"旭川",
      "lat":43.67476,
      "lng":141.95885,
      "delta_lat":[0,187,21,626,164,497,249,307,92,75,38,25,45,50,20,26,30,35,39,21,11,15,17,44,41,11,35,96,157,265,250,229,348,311,88,47,27,43,25,84,25,18,16,40,373,63,8,219,10,101,125,36,13,10,8,3,1,1,0,4,0,1,2,5,6,0,1,1,0,1,0,0,2,2,4,4,0,9,5,18,17,14,34,74,45,32,106,306,162,215,215,39,192,170,106,122,89,165,216,33,37,38,34,32,25,20,23,24,5,2,-1,-6,-12,-11,-21,-12,-12,-27,-8,-37,-14,-18,-12,-10,-5,-4,-1,-2,2,9,4,11,28,15,15,24,32,31,52,47,41,51,108,107,125,216,183,58,61,47,52,104,90,55,57,73,57,45,25,64,40,21,25,78,15,123,143,101,26,34,43,21,22,51,28,29,65,29,49,62,42,102,55,24,69,42,45,22,15,12,6,-2,-6,-13,-10,-12,-8,-5,-1,-2,-2,4,5,21,6,2,18,23,27,30,8,6,0,3,1,-1,-5,-14,-26,-34,-40,-30,-25,-24,-37,-57,-70,-81,-76,-128,-146,-139,-4,-147,-223,-107,-42,-16,-12,-19,-104,-105,-31,-52,-111,-26,-142,-33,-51,-105,-24,-39,-35,-43,-29,-25,-12,-11,-7,-21,-4,-9,-9,-9,-10,-17,-19,-4,-21,-31,-15,-20,-36,-90],
      "delta_lng":[0,89,10,303,78,240,120,149,46,40,27,22,40,56,28,39,50,69,84,47,30,43,49,146,130,38,111,302,496,855,793,741,1112,1000,282,151,90,137,79,274,81,57,53,131,1213,203,24,715,31,330,396,140,65,70,114,161,356,75,38,1184,113,31,982,1277,645,60,358,102,255,642,63,47,752,743,766,744,191,395,195,705,355,85,107,219,108,73,214,621,327,431,436,80,388,344,215,245,170,280,388,59,73,76,75,78,71,79,110,97,31,29,41,90,168,117,173,98,63,140,35,147,55,87,97,134,44,53,40,88,79,89,44,89,110,45,36,46,38,32,48,36,25,24,44,42,49,88,75,19,22,13,16,30,27,21,23,32,30,29,18,47,37,22,32,113,22,166,181,120,30,40,50,34,35,98,56,57,148,64,101,105,68,143,79,34,97,65,74,43,47,48,51,41,51,88,62,101,107,81,21,86,72,67,56,199,50,20,153,154,167,175,47,74,7,46,51,59,51,73,103,114,110,71,42,37,49,60,69,63,68,128,147,155,4,156,215,103,41,17,12,19,103,97,29,47,105,25,135,33,50,102,24,38,35,45,32,31,17,17,12,44,9,22,26,30,30,60,73,15,76,125,61,78,123,314]
    }
  ],
  "impl":true
}