{
  "code":11115,
  "id":"19f8a4",
  "name":"JR宗谷本線",
  "name_kana":"じぇいあーるそうやほんせん",
  "station_size":53,
  "company_code":1,
  "color":"#954A35",
  "station_list":[
    {"code":1110342,"id":"e3f638","name":"旭川","name_kana":"あさひかわ","lat":43.763492,"lng":142.357803,"prefecture":1,"numbering":[{"symbol":"A","color":"#F7931D","index":"28"}],"lines":[11103,11114,11115,11116],"attr":"heat","postal_code":"070-0030","address":"旭川市宮下通８丁目","next":[1111503,1110341,1111502,1111402],"voronoi":{"lat":43.753411,"lng":142.323418,"delta_lat":[0,42046,-15549,-25423],"delta_lng":[0,33275,9611,796]}},
    {"code":1111502,"id":"e2d592","name":"旭川四条","name_kana":"あさひかわよじょう","lat":43.764056,"lng":142.375815,"prefecture":1,"numbering":[{"symbol":"A","color":"#F7931D","index":"29"}],"lines":[11115,11116],"attr":"heat","postal_code":"078-8214","address":"旭川市四条通１８丁目","next":[1111604,1111404,1111403,1111503,1110342,1111402],"voronoi":{"lat":43.754486,"lng":142.3671,"delta_lat":[0,25423,-17055,-23931,1486,5393],"delta_lng":[0,-796,30633,12066,-14906,-17588]}},
    {"code":1111503,"id":"8c1ae4","name":"新旭川","name_kana":"しんあさひかわ","lat":43.780174,"lng":142.384789,"prefecture":1,"numbering":[{"symbol":"A","color":"#F7931D","index":"30"}],"lines":[11115,11116],"attr":"heat","postal_code":"070-0028","address":"旭川市東八条６丁目","next":[1111504,1110342,1111502,1110341,1111604],"voronoi":{"lat":43.779909,"lng":142.366304,"delta_lat":[0,15549,64598,-43183,-54019],"delta_lng":[0,-9611,9798,29591,855]}},
    {"code":1111504,"id":"a24ea9","name":"永山","name_kana":"ながやま","lat":43.814158,"lng":142.434382,"prefecture":1,"numbering":[{"symbol":"W","index":"31"}],"lines":[11115],"attr":"heat","postal_code":"079-8411","address":"旭川市永山１条１９丁目","next":[1111505,1111510,1111503,1111606,1111507,1111506,1111604,1110341,1111605],"voronoi":{"lat":43.793239,"lng":142.426806,"delta_lat":[0,23634,43183,42924,-55,-25626,-17559,-56748,-5352],"delta_lng":[0,-30725,-29591,-9827,402,41877,20921,35491,-5453]}},
    {"code":1111505,"id":"b83a30","name":"北永山","name_kana":"きたながやま","lat":43.826736,"lng":142.454493,"prefecture":1,"numbering":[{"symbol":"W","index":"32"}],"lines":[11115],"attr":"heat","postal_code":"079-8431","address":"旭川市永山町１５丁目","next":[1111504,1111607,1111606,1111506],"voronoi":{"lat":43.859739,"lng":142.419863,"delta_lat":[0,-56748,2171,24481],"delta_lng":[0,35491,8383,18789]}},
    {"code":1111506,"id":"5a2f9e","name":"南比布","name_kana":"みなみぴっぷ","lat":43.853342,"lng":142.467271,"prefecture":1,"numbering":[{"symbol":"W","index":"33"}],"lines":[11115],"attr":"heat","postal_code":"078-0311","address":"上川郡比布町南１線５号","next":[1111607,1111504,1111608,1111507,1111505,1111609],"voronoi":{"lat":43.859181,"lng":142.494128,"delta_lat":[0,18118,-17559,-30096,2009,13254],"delta_lng":[0,-95186,20921,62663,5255,7428]}},
    {"code":1111507,"id":"d01dfe","name":"比布","name_kana":"ぴっぷ","lat":43.874478,"lng":142.471294,"prefecture":1,"numbering":[{"symbol":"W","index":"34"}],"lines":[11115],"attr":"heat","postal_code":"078-0341","address":"上川郡比布町市街地","next":[1111610,1111504,1111509,1111508,1111506,1111510,1111609],"voronoi":{"lat":43.859181,"lng":142.494128,"delta_lat":[0,18118,25626,1832,-1249,-20050,-11773],"delta_lng":[0,-95186,-41877,10637,26276,104047,337]}},
    {"code":1111508,"id":"48febd","name":"北比布","name_kana":"きたぴっぷ","lat":43.901728,"lng":142.476545,"prefecture":1,"numbering":[{"symbol":"W","index":"35"}],"lines":[11115],"attr":"heat","postal_code":"078-0325","address":"上川郡比布町北５線１０号","next":[1111507,1111509,1111610],"voronoi":{"lat":43.903507,"lng":142.393979,"delta_lat":[0,-20050,34987],"delta_lng":[0,104047,18472]}},
    {"code":1111509,"id":"606441","name":"蘭留","name_kana":"らんる","lat":43.925072,"lng":142.473699,"prefecture":1,"numbering":[{"symbol":"W","index":"36"}],"lines":[11115],"attr":"heat","postal_code":"078-0329","address":"上川郡比布町北９線１４号","next":[1111510,1111611,1111507,1111508,1111610],"voronoi":{"lat":43.918444,"lng":142.516497,"delta_lat":[0,-14937,1249,76439,-44327],"delta_lng":[0,-122519,-26276,177134,-10803]}},
    {"code":1111510,"id":"a76210","name":"塩狩","name_kana":"しおかり","lat":43.96794,"lng":142.4552,"prefecture":1,"numbering":[{"symbol":"W","index":"37"}],"lines":[11115],"attr":"heat","postal_code":"098-0125","address":"上川郡和寒町塩狩","next":[1111504,1111509,1110341,1111511,1111611,1111507],"voronoi":{"lat":43.981196,"lng":142.544837,"delta_lat":[0,143190,-200008,-21398,-55,1832],"delta_lng":[0,78155,-295778,29450,402,10637]}},
    {"code":1111511,"id":"f06bdc","name":"和寒","name_kana":"わっさむ","lat":44.026932,"lng":142.415309,"prefecture":1,"numbering":[{"symbol":"W","index":"38"}],"lines":[11115],"attr":"heat","postal_code":"098-0133","address":"上川郡和寒町北町","next":[1111612,1111520,1111510,1111515,1110341,1111512,1111611],"voronoi":{"lat":44.139975,"lng":142.632486,"delta_lat":[0,1240,-20795,-168521,-27522,200008,4490],"delta_lng":[0,-7523,-111886,-258579,72715,295778,3452]}},
    {"code":1111512,"id":"cee556","name":"東六線","name_kana":"ひがしろくせん","lat":44.068723,"lng":142.388073,"prefecture":1,"numbering":[{"symbol":"W","index":"39"}],"lines":[11115],"attr":"heat","postal_code":"098-0300","address":"上川郡剣淵町第１０区","next":[1111515,1110341,1111514,1111511,1111513],"voronoi":{"lat":44.120446,"lng":142.497424,"delta_lat":[0,-26,-168521,5910,149530],"delta_lng":[0,15654,-258579,-26330,177667]}},
    {"code":1111513,"id":"5ffc00","name":"剣淵","name_kana":"けんぶち","lat":44.09643,"lng":142.364754,"prefecture":1,"numbering":[{"symbol":"W","index":"40"}],"lines":[11115],"attr":"heat","postal_code":"098-0300","address":"上川郡剣淵町栄町","next":[1110340,1111307,1110341,1110339,1111514,1111304,1111306,1111305,1111512],"voronoi":{"lat":44.234789,"lng":141.990757,"delta_lat":[0,-152410,-49634,-21953,-16662,-17579,-16379,-2362,149530],"delta_lng":[0,77302,28552,14605,12669,27259,58617,18408,177667]}},
    {"code":1111514,"id":"720553","name":"北剣淵","name_kana":"きたけんぶち","lat":44.139423,"lng":142.377955,"prefecture":1,"numbering":[{"symbol":"W","index":"41"}],"lines":[11115],"attr":"cool","postal_code":"098-0300","address":"上川郡剣淵町第１３区","next":[1111517,1111518,1111307,1111515,1111512,1111513],"voronoi":{"lat":44.234789,"lng":141.990757,"delta_lat":[0,27507,-9481,-13278,-119090,-13107],"delta_lng":[0,-15962,65800,73673,383156,-91588]}},
    {"code":1111515,"id":"c54df5","name":"士別","name_kana":"しべつ","lat":44.172536,"lng":142.388247,"prefecture":1,"numbering":[{"symbol":"W","index":"42"}],"lines":[11115],"attr":"cool","postal_code":"095-0023","address":"士別市西３条８丁目","next":[1111517,1111512,1111511,1111514,1111516,1111520],"voronoi":{"lat":44.12042,"lng":142.513077,"delta_lat":[0,26,119090,-14072,-83462,-787],"delta_lng":[0,-15654,-383156,119934,389244,1518]}},
    {"code":1111516,"id":"cc5db8","name":"下士別","name_kana":"しもしべつ","lat":44.210583,"lng":142.396405,"prefecture":1,"numbering":[{"symbol":"W","index":"43"}],"lines":[11115],"attr":"cool","postal_code":"095-0061","address":"士別市下士別町","next":[1111520,1111515,1111517],"voronoi":{"lat":44.142003,"lng":142.623446,"delta_lat":[0,83462,748],"delta_lng":[0,-389244,255174]}},
    {"code":1111517,"id":"63ce2a","name":"多寄","name_kana":"たよろ","lat":44.241296,"lng":142.396315,"prefecture":1,"numbering":[{"symbol":"W","index":"44"}],"lines":[11115],"attr":"cool","postal_code":"098-0475","address":"士別市多寄町３６線東","next":[1111515,1111514,1111519,1111520,1111518,1111516],"voronoi":{"lat":44.227597,"lng":142.487811,"delta_lat":[0,26335,-1117,-13278,-14072,748],"delta_lng":[0,-53007,-394210,73673,119934,255174]}},
    {"code":1111518,"id":"c2f2d1","name":"瑞穂","name_kana":"みずほ","lat":44.266349,"lng":142.396244,"prefecture":1,"numbering":[{"symbol":"W","index":"45"}],"lines":[11115],"attr":"cool","postal_code":"098-0475","address":"士別市多寄町３１線東","next":[1111307,1111514,1111519,1111527,1111517,1111526],"voronoi":{"lat":44.338138,"lng":142.200167,"delta_lat":[0,-51612,-24231,-9481,1117,102975],"delta_lng":[0,-244908,19535,65800,394210,-105040]}},
    {"code":1111519,"id":"2afba8","name":"風連","name_kana":"ふうれん","lat":44.292238,"lng":142.421624,"prefecture":1,"numbering":[{"symbol":"W","index":"46"}],"lines":[11115],"attr":"cool","postal_code":"098-0504","address":"名寄市風連町本町","next":[1111517,1111520,1111521,1111526,1111518,1111523],"voronoi":{"lat":44.369328,"lng":142.369097,"delta_lat":[0,-12422,-102975,-26335,108091,33148],"delta_lng":[0,-39332,105040,53007,-63896,-43478]}},
    {"code":1111520,"id":"9718c2","name":"東風連","name_kana":"ひがしふうれん","lat":44.316748,"lng":142.463087,"prefecture":1,"numbering":[{"symbol":"W","index":"47"}],"lines":[11115],"attr":"cool","postal_code":"098-0512","address":"名寄市風連町東風連","next":[1111519,1111516,1111612,1111511,1111517,1111617,1111515,1111521,1111616],"voronoi":{"lat":44.302396,"lng":142.936708,"delta_lat":[0,33291,-108091,-1384,-84210,-787,-1240,109874,33556],"delta_lng":[0,-512792,63896,1564,134070,1518,7523,240232,51718]}},
    {"code":1111521,"id":"a105d5","name":"名寄","name_kana":"なよろ","lat":44.349403,"lng":142.465207,"prefecture":1,"numbering":[{"symbol":"W","index":"48"}],"lines":[11115],"attr":"cool","postal_code":"096-0001","address":"名寄市東１条南６丁目","next":[1111519,1111617,1111522,1111520,1111523],"voronoi":{"lat":44.368835,"lng":142.380438,"delta_lat":[0,-33148,-33291,30491,38031],"delta_lng":[0,43478,512792,21230,-572323]}},
    {"code":1111522,"id":"07fbee","name":"日進(北海道)","name_kana":"にっしん","lat":44.381713,"lng":142.467354,"prefecture":1,"numbering":[{"symbol":"W","index":"49"}],"lines":[11115],"attr":"cool","postal_code":"096-0066","address":"名寄市字日進","next":[1111623,1111523,1111521,1111617,1111621],"voronoi":{"lat":44.906976,"lng":143.203348,"delta_lat":[0,-536057,-38031,11662,512219],"delta_lng":[0,-817734,572323,8702,221387]}},
    {"code":1111523,"id":"b1e6c6","name":"北星","name_kana":"ほくせい","lat":44.441569,"lng":142.428116,"prefecture":1,"numbering":[{"symbol":"W","index":"50"}],"lines":[11115],"attr":"cool","postal_code":"098-2181","address":"名寄市智恵文北星","next":[1111526,1111524,1111522,1111519,1111534,1111521,1111623,1111525],"voronoi":{"lat":44.918666,"lng":142.914096,"delta_lat":[0,215337,-227027,-536057,-2083,493,21672,32540],"delta_lng":[0,368483,-79230,-817734,-5177,-11341,7561,18566]}},
    {"code":1111524,"id":"20fbb7","name":"智恵文","name_kana":"ちえぶん","lat":44.455553,"lng":142.414772,"prefecture":1,"numbering":[{"symbol":"W","index":"51"}],"lines":[11115],"attr":"cool","postal_code":"098-2181","address":"名寄市智恵文１１線","next":[1111530,1111523,1111534,1111525,1111529],"voronoi":{"lat":44.868829,"lng":142.825967,"delta_lat":[0,49837,-495125,126800,105038],"delta_lng":[0,88128,-518872,33445,107633]}},
    {"code":1111525,"id":"70501f","name":"智北","name_kana":"ちほく","lat":44.46103,"lng":142.394007,"prefecture":1,"numbering":[{"symbol":"W","index":"52"}],"lines":[11115],"attr":"cool","postal_code":"098-2181","address":"名寄市字智恵文","next":[1111526,1111527,1111528,1111529,1111524,1111523],"voronoi":{"lat":44.391,"lng":142.376658,"delta_lat":[0,101724,32109,7979,17528,-126800],"delta_lng":[0,6115,16214,7138,22544,-33445]}},
    {"code":1111526,"id":"759eaa","name":"南美深","name_kana":"みなみびふか","lat":44.462604,"lng":142.367822,"prefecture":1,"numbering":[{"symbol":"W","index":"53"}],"lines":[11115],"attr":"cool","postal_code":"098-2205","address":"中川郡美深町字美深","next":[1111523,1111525,1111519,1111518,1111527],"voronoi":{"lat":44.338138,"lng":142.200167,"delta_lat":[0,18768,12422,21672,101724],"delta_lng":[0,129597,39332,7561,6115]}},
    {"code":1111527,"id":"3fe000","name":"美深","name_kana":"びふか","lat":44.482951,"lng":142.350597,"prefecture":1,"numbering":[{"symbol":"W","index":"54"}],"lines":[11115],"attr":"cool","postal_code":"098-2238","address":"中川郡美深町字開運町","next":[1111525,1111528,1111518,1111307,1111526],"voronoi":{"lat":44.524833,"lng":142.398986,"delta_lat":[0,-224214,-14093,51612,154586],"delta_lng":[0,-462701,18974,244908,182605]}},
    {"code":1111528,"id":"0d983c","name":"初野","name_kana":"はつの","lat":44.512808,"lng":142.336129,"prefecture":1,"numbering":[{"symbol":"W","index":"55"}],"lines":[11115],"attr":"cool","postal_code":"098-2211","address":"中川郡美深町字富岡","next":[1111525,1111530,1111527,1111531,1111307,1111529,1111536],"voronoi":{"lat":44.303915,"lng":141.931491,"delta_lat":[0,-3295,224214,7979,-22604,-505,-69820],"delta_lng":[0,4795,462701,7138,-229242,-1623,-134462]}},
    {"code":1111529,"id":"84db5f","name":"紋穂内","name_kana":"もんぽない","lat":44.538761,"lng":142.33357,"prefecture":1,"numbering":[{"symbol":"W","index":"56"}],"lines":[11115],"attr":"cool","postal_code":"098-2366","address":"中川郡美深町字紋穂内","next":[1111525,1111530,1111528,1111524],"voronoi":{"lat":44.510209,"lng":142.176882,"delta_lat":[0,22604,17528,105038],"delta_lng":[0,229242,22544,107633]}},
    {"code":1111530,"id":"10f875","name":"恩根内","name_kana":"おんねない","lat":44.598486,"lng":142.309447,"prefecture":1,"numbering":[{"symbol":"W","index":"57"}],"lines":[11115],"attr":"cool","postal_code":"098-2361","address":"中川郡美深町字恩根内","next":[1111533,1111524,1111534,1111528,1111529,1111531],"voronoi":{"lat":44.779068,"lng":142.588795,"delta_lat":[0,89760,-213450,-145170,-505,160278],"delta_lng":[0,237173,-289666,-359419,-1623,168115]}},
    {"code":1111531,"id":"06c3fa","name":"豊清水","name_kana":"とよしみず","lat":44.639503,"lng":142.270342,"prefecture":1,"numbering":[{"symbol":"W","index":"58"}],"lines":[11115],"attr":"cool","postal_code":"098-2368","address":"中川郡美深町字清水","next":[1111532,1111533,1111536,1111528,1111530],"voronoi":{"lat":44.509704,"lng":142.17526,"delta_lat":[0,-69820,140458,87282,2358],"delta_lng":[0,-134462,66171,191167,45239]}},
    {"code":1111532,"id":"85ab7b","name":"天塩川温泉","name_kana":"てしおがわおんせん","lat":44.665041,"lng":142.258682,"prefecture":1,"numbering":[{"symbol":"W","index":"59"}],"lines":[11115],"attr":"cool","postal_code":"098-2502","address":"中川郡音威子府村字咲来","next":[1111531,1111536,1111533,1111535],"voronoi":{"lat":44.611647,"lng":142.118731,"delta_lat":[0,-31306,87282,25790],"delta_lng":[0,-11762,191167,-80271]}},
    {"code":1111533,"id":"0c931f","name":"咲来","name_kana":"さっくる","lat":44.692702,"lng":142.267569,"prefecture":1,"numbering":[{"symbol":"W","index":"60"}],"lines":[11115],"attr":"cool","postal_code":"098-2502","address":"中川郡音威子府村字咲来","next":[1111530,1111531,1111535,1111534,1111532],"voronoi":{"lat":44.669982,"lng":142.343375,"delta_lat":[0,109087,-76290,-9365,-25790],"delta_lng":[0,245420,-364733,-6197,80271]}},
    {"code":1111534,"id":"c43c2f","name":"音威子府","name_kana":"おといねっぷ","lat":44.729448,"lng":142.259883,"prefecture":1,"numbering":[{"symbol":"W","index":"61"}],"lines":[11115],"attr":"cool","postal_code":"098-2501","address":"中川郡音威子府村字音威子府","next":[1111530,1111553,1111535,1111623,1111539,1111533,1111523,1111524,1111642,1111538],"voronoi":{"lat":44.95024,"lng":142.261655,"delta_lat":[0,-247461,76290,89760,49837,215337,1398221,407005,-935825,-716015],"delta_lng":[0,-37594,364733,237173,88128,368483,742116,144814,-1103861,-558833]}},
    {"code":1111535,"id":"14e305","name":"筬島","name_kana":"おさしま","lat":44.738883,"lng":142.197777,"prefecture":1,"numbering":[{"symbol":"W","index":"62"}],"lines":[11115],"attr":"cool","postal_code":"098-2500","address":"中川郡音威子府村字物満内","next":[1111534,1111533,1111536,1111537,1111532,1111538],"voronoi":{"lat":44.89479,"lng":142.207731,"delta_lat":[0,-141180,-141963,81766,9365,247461],"delta_lng":[0,-84146,-4855,99134,6197,37594]}},
    {"code":1111536,"id":"babcad","name":"佐久","name_kana":"さく","lat":44.743986,"lng":142.048562,"prefecture":1,"numbering":[{"symbol":"W","index":"63"}],"lines":[11115],"attr":"cool","postal_code":"098-2622","address":"中川郡中川町字佐久","next":[1111312,1111531,1111532,1111535,1111537,1111542,1111541,1111311,1111307,1111528],"voronoi":{"lat":44.580342,"lng":142.106969,"delta_lat":[0,31306,141963,60116,-283114,-23076,-199703,-3764,-155,135969],"delta_lng":[0,11762,4855,-152404,-421499,-30767,402866,8879,830,109307]}},
    {"code":1111537,"id":"930c71","name":"天塩中川","name_kana":"てしおなかがわ","lat":44.81186,"lng":142.075335,"prefecture":1,"numbering":[{"symbol":"W","index":"64"}],"lines":[11115],"attr":"cool","postal_code":"098-2802","address":"中川郡中川町字中川","next":[1111541,1111536,1111535,1111538],"voronoi":{"lat":44.75361,"lng":142.123586,"delta_lat":[0,60116,1578,79486],"delta_lng":[0,-152404,1130,235420]}},
    {"code":1111538,"id":"f56bc6","name":"歌内","name_kana":"うたない","lat":44.880493,"lng":142.052162,"prefecture":1,"numbering":[{"symbol":"W","index":"65"}],"lines":[11115],"attr":"cool","postal_code":"098-2801","address":"中川郡中川町字歌内","next":[1111540,1111539,1111541,1111537,1111535,1111534],"voronoi":{"lat":44.95024,"lng":142.261655,"delta_lat":[0,-55449,-79486,24852,18166,429066],"delta_lng":[0,-53924,-235420,6678,14285,513540]}},
    {"code":1111539,"id":"94f056","name":"問寒別","name_kana":"といかんべつ","lat":44.91233,"lng":142.025562,"prefecture":1,"numbering":[{"symbol":"W","index":"66"}],"lines":[11115],"attr":"cool","postal_code":"098-2943","address":"天塩郡幌延町字問寒別","next":[1111540,1111534,1111538,1111553,1111552,1111548],"voronoi":{"lat":45.719569,"lng":142.654699,"delta_lat":[0,283834,-716015,-429066,492940,52898],"delta_lng":[0,410948,-558833,-513540,169069,44995]}},
    {"code":1111540,"id":"c30d20","name":"糠南","name_kana":"ぬかなん","lat":44.920778,"lng":142.000931,"prefecture":1,"numbering":[{"symbol":"W","index":"67"}],"lines":[11115],"attr":"cool","postal_code":"098-3200","address":"天塩郡幌延町字糠南","next":[1111538,1111541,1111544,1111542,1111539,1111548],"voronoi":{"lat":45.334911,"lng":142.147617,"delta_lat":[0,-338857,-16469,-139428,18166,492940],"delta_lng":[0,-183534,-4479,19385,14285,169069]}},
    {"code":1111541,"id":"e5576c","name":"雄信内","name_kana":"おのっぷない","lat":44.911735,"lng":141.935888,"prefecture":1,"numbering":[{"symbol":"W","index":"68"}],"lines":[11115],"attr":"cool","postal_code":"098-3251","address":"天塩郡幌延町字雄興","next":[1111542,1111540,1111537,1111538,1111536],"voronoi":{"lat":44.530613,"lng":141.549683,"delta_lat":[0,448972,-139428,-24852,-1578],"delta_lng":[0,409922,19385,-6678,-1130]}},
    {"code":1111542,"id":"da9e14","name":"安牛","name_kana":"やすうし","lat":44.949809,"lng":141.894187,"prefecture":1,"numbering":[{"symbol":"W","index":"69"}],"lines":[11115],"attr":"cool","postal_code":"098-3226","address":"天塩郡幌延町字開進","next":[1111544,1111541,1111312,1111540,1111536,1111543,1111546],"voronoi":{"lat":44.985636,"lng":141.935864,"delta_lat":[0,10418,-16469,-448972,-23076,1012,362506],"delta_lng":[0,28219,-4479,-409922,-30767,-4198,232849]}},
    {"code":1111543,"id":"87174b","name":"南幌延","name_kana":"みなみほろのべ","lat":44.965084,"lng":141.884892,"prefecture":1,"numbering":[{"symbol":"W","index":"70"}],"lines":[11115],"attr":"eco","postal_code":"098-3200","address":"天塩郡幌延町字南幌延","next":[1111544,1111545,1111546,1111542],"voronoi":{"lat":44.871054,"lng":141.747566,"delta_lat":[0,46203,49097,19281],"delta_lng":[0,26284,61892,100122]}},
    {"code":1111544,"id":"d62b10","name":"上幌延","name_kana":"かみほろのべ","lat":44.985787,"lng":141.880905,"prefecture":1,"numbering":[{"symbol":"W","index":"71"}],"lines":[11115],"attr":"eco","postal_code":"098-3225","address":"天塩郡幌延町字上幌延","next":[1111543,1111542,1111540,1111545,1111548],"voronoi":{"lat":45.307726,"lng":142.114114,"delta_lat":[0,-341371,19281,10418,338857],"delta_lng":[0,-278371,100122,28219,183534]}},
    {"code":1111545,"id":"a37100","name":"幌延","name_kana":"ほろのべ","lat":45.014503,"lng":141.84569,"prefecture":1,"numbering":[{"symbol":"W","index":"72"}],"lines":[11115],"attr":"eco","postal_code":"098-3211","address":"天塩郡幌延町１条南１丁目","next":[1111547,1111546,1111543,1111544,1111548],"voronoi":{"lat":44.966354,"lng":141.835743,"delta_lat":[0,-49097,144169,237928,8371],"delta_lng":[0,-61892,37319,291329,11615]}},
    {"code":1111546,"id":"3b9263","name":"下沼","name_kana":"しもぬま","lat":45.037146,"lng":141.758218,"prefecture":1,"numbering":[{"symbol":"W","index":"73"}],"lines":[11115],"attr":"eco","postal_code":"098-3228","address":"天塩郡幌延町字下沼","next":[1111551,1111313,1111548,1111545,1111547,1111321,1111543,1111312,1111549,1111542],"voronoi":{"lat":44.508548,"lng":141.514718,"delta_lat":[0,13977,30591,123107,183102,220754,6927,-25580,-144169,-46203],"delta_lng":[0,-143230,-272604,-630120,450691,662393,104873,124449,-37319,-26284]}},
    {"code":1111547,"id":"fa21b1","name":"豊富","name_kana":"とよとみ","lat":45.104624,"lng":141.772088,"prefecture":1,"numbering":[{"symbol":"W","index":"74"}],"lines":[11115],"attr":"eco","postal_code":"098-4100","address":"天塩郡豊富町字上サロベツ","next":[1111545,1111548,1111546],"voronoi":{"lat":45.299355,"lng":142.102498,"delta_lat":[0,-212348,-25580],"delta_lng":[0,-415778,124449]}},
    {"code":1111548,"id":"9fbda9","name":"徳満","name_kana":"とくみつ","lat":45.145838,"lng":141.751039,"prefecture":1,"numbering":[{"symbol":"W","index":"75"}],"lines":[11115],"attr":"eco","postal_code":"098-4137","address":"天塩郡豊富町字徳満","next":[1111552,1111547,1111549,1111546,1111539,1111544,1111545,1111540,1111550],"voronoi":{"lat":45.40416,"lng":142.207338,"delta_lat":[0,-52898,-16352,-27185,-8371,-212348,-6927,219470,33154],"delta_lng":[0,-44995,-14726,-33504,-11615,-415778,-104873,303276,57113]}},
    {"code":1111549,"id":"bcd162","name":"兜沼","name_kana":"かぶとぬま","lat":45.220236,"lng":141.6972,"prefecture":1,"numbering":[{"symbol":"W","index":"76"}],"lines":[11115],"attr":"eco","postal_code":"098-4451","address":"天塩郡豊富町字兜沼","next":[1111548,1111550,1111551,1111546],"voronoi":{"lat":45.29955,"lng":141.885124,"delta_lat":[0,-111642,-328582,220754],"delta_lng":[0,-362316,-603353,662393]}},
    {"code":1111550,"id":"a6c845","name":"勇知","name_kana":"ゆうち","lat":45.259339,"lng":141.685151,"prefecture":1,"numbering":[{"symbol":"W","index":"77"}],"lines":[11115],"attr":"eco","postal_code":"098-4581","address":"稚内市字抜海村上勇知","next":[1111551,1111552,1111549,1111548],"voronoi":{"lat":45.29955,"lng":141.885124,"delta_lat":[0,-111642,141446,3350],"delta_lng":[0,-362316,200541,218888]}},
    {"code":1111551,"id":"23728c","name":"抜海","name_kana":"ばっかい","lat":45.316866,"lng":141.644576,"prefecture":1,"numbering":[{"symbol":"W","index":"78"}],"lines":[11115],"attr":"eco","postal_code":"097-0036","address":"稚内市字抜海村クトネベツ","next":[1111546,1111552,1111550,1110204,1110214,1110216,1111321,1111549,1111553],"voronoi":{"lat":48.428875,"lng":132.204863,"delta_lat":[0,-2685543,-371797,-663907,-31404,183102,328582,141446,54925],"delta_lng":[0,5309938,897918,1664128,391916,450691,603353,200541,-116135]}},
    {"code":1111552,"id":"975c91","name":"南稚内","name_kana":"みなみわっかない","lat":45.398166,"lng":141.683026,"prefecture":1,"numbering":[{"symbol":"W","index":"79"}],"lines":[11115],"attr":"eco","postal_code":"097-0005","address":"稚内市大黒１丁目","next":[1111551,1111548,1111550,1111553,1111539],"voronoi":{"lat":45.384278,"lng":141.607214,"delta_lat":[0,-54925,3350,71457,315409],"delta_lng":[0,116135,218888,265102,447361]}},
    {"code":1111553,"id":"945f52","name":"稚内","name_kana":"わっかない","lat":45.416995,"lng":141.676999,"prefecture":1,"numbering":[{"symbol":"W","index":"80"}],"lines":[11115],"attr":"eco","postal_code":"097-0022","address":"稚内市中央３丁目","next":[1111709,1110204,1111534,1111642,1111552,1170223,1111539,1111702,9991120,9970305,1111551],"voronoi":{"enclosed":false,"lat":144.706056,"lng":30.661305,"delta_lat":[0,-70827533,-16568055,-4413637,-4467956,-3044596,335291,283834,935825,1415486,2747375,89275527],"delta_lng":[0,70593630,17076941,4921447,8951541,9402350,1047486,410948,1103861,767360,1481594,45054193]}}
  ],
  "north":45.41688,
  "south":43.75951,
  "east":142.47862,
  "west":141.64465,
  "polyline_list":[
    {
      "start":"旭川",
      "end":"士別",
      "lat":43.76389,
      "lng":142.35635,
      "delta_lat":[0,-90,-29,-84,-20,-25,-36,-34,-18,-13,-36,-30,-19,-3,-1,2,0,2,8,18,23,14,16,17,23,71,34,104,84,5,22,43,4,4,191,75,222,83,25,21,38,65,37,158,19,340,119,130,107,123,151,57,33,18,28,38,91,253,124,86,72,39,48,188,145,24,99,151,83,104,93,45,1,28,36,36,78,42,49,52,122,8,85,126,99,26,177,42,116,69,119,55,107,277,69,43,236,13,52,80,127,117,16,29,154,52,109,104,42,27,23,39,37,25,41,40,69,111,274,72,238,169,112,18,39,39,401,21,358,69,61,23,153,738,546,227,118,134,137,105,739,75,815,134,757,66,583,55,349,38,20,30,33,63,45,41,203,49,186,90,170,246,179,107,207,76,17,115,159,118,161,280,47,143,121,41,33,46,114,166,27,139,42,47,52,54,37,36,37,34,39,42,67,45,9,31,21,28,43,63,91,101,33,33,31,34,52,70,32,37,35,21,12,54,41,34,30,16,19,10,3,-4,3,13,30,31,85,71,53,46,54,49,73,157,252,234,27,280,67,64,68,241,28,164,216,58,24,30,36,60,96,65,35,60,11,191,26,846,174,84,41,37,38,120,220,172,237,26,31,80,29,16,14,10,13,16,23,14,45,2,25,11,12,14,12,20,19,27,57,42,50,47,268,551,151,413,162,599,35,120,676,796,511,285,46,5,26,352,63,315,317,205,170,42,35,63,56,39,98,97,10,46,71,49,56,37,40,27,38,51,54,21,16,39,10,32,36,39,34,17,22,15,17,17,19,16,21,21,23,21,12,14,18,14,21,12,21,24,205,102,80,113,14,30,73,161,77,73,155,51,124,56,74,34,60,112,48,123,14,79,26,70,40,50,41,54,10,47,33,16,18,22,11,81,243,174,213,661,141,663,70,67,221,51,5,45,96,519,141,413,321,135,47,320,229,312,23,27,6,93,102,49,133,97],
      "delta_lng":[0,314,104,282,68,61,82,77,52,41,143,121,77,17,18,27,17,35,41,58,45,25,20,18,19,40,21,55,49,3,13,24,3,2,105,41,124,51,15,13,23,39,18,80,9,182,66,71,62,71,90,42,20,17,25,43,132,397,201,140,117,52,66,235,180,32,123,221,123,161,151,74,1,53,81,86,194,99,114,111,205,12,136,195,155,45,276,67,185,109,192,87,172,438,110,70,378,21,85,128,201,190,27,46,245,80,176,168,56,30,23,31,21,14,19,13,21,28,57,13,41,30,3,0,6,7,83,5,68,12,12,4,26,144,106,44,20,27,26,19,141,14,158,27,150,13,114,12,61,6,0,-3,-6,-21,-17,-18,-89,-23,-82,-39,-73,-106,-77,-49,-88,-34,-8,-49,-70,-51,-72,-121,-21,-63,-53,-19,-23,-45,-137,-203,-32,-169,-45,-33,-20,-4,5,11,19,23,44,69,127,92,17,56,25,26,25,17,19,19,-1,-10,-17,-33,-63,-87,-34,-28,-13,-1,0,-4,-12,-23,-27,-31,-44,-63,-72,-53,-41,-58,-67,-41,-81,-62,-35,-15,-9,4,7,25,39,31,3,37,8,0,-9,-57,-6,-38,-51,-18,-9,-12,-21,-44,-68,-45,-19,-29,-5,-86,-12,-382,-79,-38,-25,-25,-33,-124,-235,-185,-255,-29,-33,-93,-40,-28,-35,-34,-57,-88,-154,-107,-327,-13,-173,-43,-38,-35,-22,-25,-21,-28,-60,-38,-44,-32,-176,-361,-99,-272,-106,-391,-23,-80,-441,-521,-333,-187,-29,-3,-16,-233,-42,-205,-207,-133,-114,-32,-30,-69,-75,-58,-149,-147,-13,-70,-105,-77,-85,-57,-60,-43,-58,-76,-84,-32,-23,-61,-16,-51,-51,-57,-54,-24,-27,-18,-15,-16,-14,-11,-9,-9,-6,-3,-1,0,3,2,3,4,7,7,62,32,27,33,5,9,22,50,24,23,46,17,40,15,25,10,18,35,15,38,4,25,7,23,12,16,13,16,2,16,10,5,5,8,2,23,69,55,67,206,44,205,19,19,70,15,2,14,29,160,43,131,97,41,14,100,69,97,7,10,2,28,29,16,40,27]
    },
    {
      "start":"士別",
      "end":"稚内",
      "lat":44.17383,
      "lng":142.38841,
      "delta_lat":[0,114,95,184,45,51,55,45,145,259,175,45,74,55,62,69,66,44,47,32,61,85,26,131,67,123,52,98,71,66,84,80,91,15,479,422,72,232,263,496,142,361,489,52,479,422,70,259,260,450,192,127,344,243,574,84,73,50,182,61,61,60,32,53,105,65,148,266,94,190,262,206,429,231,112,161,211,134,229,341,85,5,33,26,23,13,54,190,104,142,152,129,31,28,129,58,60,28,49,30,39,41,44,56,66,44,90,237,317,271,631,161,34,577,137,154,39,131,102,77,77,14,136,100,45,33,78,53,55,25,53,17,32,59,77,223,25,24,24,133,120,58,103,44,47,43,45,54,37,44,144,211,145,83,354,205,160,60,127,102,76,11,17,90,93,56,71,5,58,67,68,51,63,30,33,77,80,42,70,12,7,43,16,52,43,35,73,69,62,155,114,25,78,124,100,55,93,48,56,49,78,52,43,38,71,75,30,32,107,55,134,96,52,50,14,108,49,12,19,9,10,10,8,6,6,3,2,-3,0,-2,-1,-1,-2,-3,2,2,4,7,8,11,13,12,21,27,43,46,30,24,18,27,16,28,23,27,73,25,8,22,27,24,89,70,25,26,66,56,113,33,25,29,57,17,51,86,22,17,11,35,7,37,2,34,81,116,33,44,78,69,74,106,77,43,18,60,86,124,68,53,36,44,48,26,27,26,33,67,29,161,262,136,45,64,94,39,12,18,32,29,18,29,27,25,46,48,31,18,41,63,19,23,11,19,34,51,22,8,18,9,5,-1,-5,-11,-17,-10,-9,-29,-38,-56,-19,-25,-9,-9,-6,-9,-6,-7,-14,-2,-20,-8,-6,-3,-4,0,-3,-4,-10,-19,-2,-1,0,2,10,14,14,1,5,1,-6,-18,-27,-19,-9,-10,-5,-1,3,8,12,10,18,23,46,24,14,7,14,25,70,42,61,31,36,42,40,43,39,47,43,45,50,39,41,55,4,64,31,46,72,46,42,51,46,33,23,57,80,39,69,56,10,106,68,58,7,8,15,62,62,58,77,12,158,88,29,103,120,87,55,111,103,107,62,48,15,113,112,63,72,47,35,27,45,82,32,3,49,46,31,35,76,31,55,14,52,52,56,2,49,56,51,51,55,54,51,55,52,55,106,107,52,46,66,47,50,56,52,56,18,11,11,25,18,28,25,31,18,8,30,51,18,35,56,55,52,52,53,55,3,48,56,48,56,52,53,30,24,28,30,30,27,27,27,25,32,24,30,24,30,25,30,25,29,31,13,13,10,13,26,20,16,15,19,18,37,37,42,22,21,22,30,26,26,32,24,26,30,21,38,52,58,73,67,27,54,56,55,55,54,58,56,60,31,21,58,54,57,55,59,53,57,54,59,54,57,55,28,31,26,26,57,32,21,57,51,56,55,56,53,57,25,29,34,25,53,57,55,58,56,59,32,21,59,58,58,28,26,31,26,24,13,12,27,27,23,22,23,24,40,39,34,37,36,20,23,20,23,23,28,50,57,53,56,54,54,50,53,49,56,48,55,51,35,16,50,52,52,51,50,53,49,54,51,55,50,53,52,51,52,23,32,28,31,26,34,32,44,25,34,37,23,49,35,49,41,51,38,48,44,2,49,22,21,52,14,20,41,15,25,31,62,58,59,68,92,71,79,68,71,69,71,83,81,85,79,110,28,34,103,98,51,32,29,27,27,53,56,41,36,36,24,18,19,21,26,25,4,26,38,34,32,41,45,29,35,43,40,61,70,36,4,53,36,26,53,34,51,36,36,35,42,38,33,22,32,4,26,58,39,45,24,30,32,26,24,26,22,24,27,32,40,43,56,56,22,23,46,40,54,23,29,16,16,21,30,22,34,32,56,26,38,31,15,16,20,19,36,23,42,31,24,32,31,26,14,10,10,11,8,8,7,6,5,5,2,1,2,2,4,5,7,4,5,7,14,9,8,10,13,18,13,15,28,19,23,17,22,16,16,28,39,32,39,48,38,24,19,22,28,15,13,5,23,24,29,24,17,15,17,19,22,21,20,23,44,25,15,13,39,42,41,42,34,32,67,55,64,53,2,36,18,18,19,19,21,27,21,16,16,21,17,13,24,18,22,11,12,17,25,23,13,22,14,21,26,21,14,31,31,32,20,25,20,29,19,8,57,69,52,39,45,31,34,35,22,27,32,38,36,83,62,46,74,57,52,43,41,73,99,71,52,37,38,69,56,13,34,18,95,10,42,48,25,20,20,27,28,30,35,31,37,44,21,42,76,48,68,48,60,38,33,26,33,31,27,44,61,53,65,21,22,43,26,91,99,111,158,86,82,60,61,47,3,69,68,66,53,46,42,78,94,51,24,28,81,69,78,39,20,81,46,70,113,48,82,177,58,33,45,25,30,22,13,25,31,40,20,19,51,22,17,26,25,26,26,21,37,33,24,28,23,24,32,19,25,22,42,54,12,23,46,50,69,42,43,45,5,42,50,82,49,42,38,34,19,7,8,9,2,4,4,2,4,3,2,3,1,-1,-4,-6,-17,-13,-14,-17,-28,-22,-28,-14,-24,-15,-25,-23,-15,-18,-26,-37,-24,-29,-23,-29,-61,-52,-60,-22,-15,-13,-21,-33,-23,-17,-11,-8,-15,-8,-7,-7,-7,-10,-7,-4,-2,-2,2,2,5,5,6,9,24,53,26,26,26,26,10,7,6,5,3,1,2,4,0,0,0,1,2,4,2,1,1,-2,-2,-4,-5,-6,-10,-14,-8,-23,-10,-9,-3,-1,-1,1,2,5,19,26,22,12,15,13,17,17,25,37,40,16,20,4,15,22,4,15,6,19,24,1,21,5,24,19,14,6,12,18,22,19,18,17,16,16,12,9,7,11,6,8,6,5,3,9,9,7,7,9,7,3,6,7,5,5,6,5,5,12,13,13,18,20,18,18,13,11,175,133,63,64,43,42,3,90,87,44,23,16,21,22,10,9,13,16,11,10,6,7,4,3,2,-1,-1,-3,-4,-2,-4,-6,-8,-10,-12,-13,-9,-9,-20,-5,-12,-24,-19,-24,-14,-39,-21,-21,-16,-26,-39,-10,-17,-16,-11,-15,-23,-50,-30,-21,-19,-34,-28,-27,-55,-52,-54,-46,-8,-55,-52,-60,-50,-29,-28,-26,-28,-50,-51,-31,-30,-48,-52,-50,-55,-49,-56,-36,-15,-53,-15,-14,-19,-19,-20,-13,-16,-10,-11,-8,-4,-2,-1,0,2,3,5,5,8,23,8,8,16,17,10,13,13,42,44,55,12,10,37,14,28,17,18,21,21,21,18,23,25,16,10,24,25,11,10,10,9,17,10,7,9,8,11,19,8,8,8,10,9,15,11,14,22,25,18,12,12,19,18,16,16,9,8,12,13,10,7,6,6,4,4,3,4,3,1,4,2,3,2,3,7,8,12,23,11,9,7,9,5,2,3,2,2,0,0,0,0,-2,-4,-6,-4,-4,-3,-2,0,0,1,2,3,3,3,5,8,6,1,12,10,10,11,10,11,12,17,12,12,12,17,27,31,32,19,20,43,50,29,32,46,28,30,27,25,24,38,53,27,27,29,25,34,26,18,23,15,27,13,11,10,13,11,14,24,28,44,50,43,55,39,19,11,9,7,17,16,18,14,13,12,13,11,7,7,1,4,3,0,1,4,4,6,4,5,7,19,18,11,9,11,4,2,1,0,-1,-2,-3,-9,-17,-8,-9,-9,-9,-9,-7,-3,-19,-16,-13,-13,-18,-21,-24,-20,-20,-22,-8,-21,-28,-37,-33,-30,-25,-4,-6,-8,-28,-13,-10,-16,-25,-11,-1,-10,-38,-16,-76,-53,-30,-41,-25,-29,-27,-39,-21,-21,-26,-32,-18,-14,-23,-33,-26,-31,-26,-26,-23,-27,-19,-19,-17,-49,-142,-15,-89,-42,-36,-35,-22,-23,-22,-20,-26,-27,-21,-24,-29,-33,-38,-17,-17,-21,-8,-5,-4,-3,0,2,4,0,7,7,11,15,11,14,12,5,3,2,0,-1,-3,-6,-4,-6,-6,-7,-7,-2,-1,-4,1,2,5,7,8,2,4,14,15,23,11,0,13,10,8,12,7,1,-2,-4,-6,-8,-13,-24,-7,-3,-2,0,0,2,2,3,3,1,2,2,2,2,0,1,3,6,7,8,14,10,10,1,6,8,9,11,29,13,7,2,1,-2,-2,0,5,6,6,7,7,11,17,49,59,21,24,42,30,30,31,28,31,39,29,36,48,39,52,56,53,57,50,28,21,1,62,2,19,29,24,3,28,41,63,46,35,39,24,46,40,38,27,14,21,21,26,28,15,28,32,33,31,38,140,132,13,36,36,36,33,34,60,77,50,122,102,58,43,40,12,75,93,78,106,39,42,36,57,30,45,63,45,2,18,55,211,209,140,146,120,62,28,54,71,27,33,326,96,49,38,77,53,66,82,48,40,11,80,170,173,129,50,188,99,83,123,179,166,110,118,68,48,33,41,203,77,68,64,22,181,195,120,193,128,29,150,123,127,105,48,23,38,111,155,26,93,207,194,12,18,30,40,141,128,55,34,18,31,12,21,24,22,23,26,24,34,36,53,13,17,71,46,52,43,18,15,16,15,20,31,66,107,160,182,20,94,10,10,13,17,18,20,29,41,36,33,32,41,76,33,27,26,24,23,27,24,15,19,28,34,13,30,10,12,11,10,10,14,46,15,13,17,17,12,17,23,52,69,84,11,11,10,15,18,16,18,18,15,45,65,15,15,15,17,22,25,26,37,32,35,28,31,32,49,75,88,14,144,11,16,21,26,19,20,30,25,21,19,21,21,27,56,36,53,54,134,65,124,104,50,30,27,23,23,19,24,27,22,26,21,16,38,55,77,20,74,64,86,48,13,10,15,13,9,11,16,13,11,10,10,12,15,15,10,5,13,26,23,3,2,0,0,-3,-5,-5,-9,-24,-6,-5,-5,-3,-4,-2,0,1,2,1,5,5,7,12,9,10,17,15,18,15,18,22,29,19,14,17,14,15,16,17,14,18,18,19,18,24,33,64,79,98,2,70,21,17,21,28,31,30,43,74,39,18,17,19,18,104,42,78,22,24,24,14,20,28,21,20,20,23,18,27,23,12,12,18,17,16,17,18,18,14,14,23,68,65,44,62,72,37,22,67,83,35,26,27,51,17,14,12,13,18,18,20,17,13,7,4,4,9,3,4,1,3,3,6,4,3,2,47,27,7,6,12,23,14,6,4,1,1,1,0,-1,-2,-5,-1,-2,-6,-7,-6,-7,-20,-29,-44,-29,-14,-14,-8,-64,-63,-29,-8,-10,-7,-6,-4,-1,-2,0,0,1,2,4,5,14,3,9,5,4,2,0,-1,-1,-1,-1,-3,-4,-6,-8,-5,-11,-13,-16,-14,-4,-7,-16,-27,-41,-32,-4,-48,-25,-12,-10,-7,-28,-23,-14,-18,-18,-13,-30,-29,-37,-32,-25,-8,-10,-6,-8,-6,-7,-11,-5,-7,-11,-11,-25,-26,-30,-37,-38,-31,-43,-18,-13,-11,-7,-6,-4,-3,0,1,3,4,7,17,23,8,15,10,10,35,29,25,32,53,44,50,35,27,18,24,15,19,8,11,4,1,-2,-2,-7,-9,-19,-13,-47,-16,-18,-7,-4,-5,-4,-8,-1,-1,0,1,3,5,3,5,3,5,6,6,5,5,7,5,4,5,9,11,17,24,23,15,27,18,16,21,18,21,52,18,15,90,86,53,29,19,38,65,31,16,15,15,54,53,30,28,23,23,23,35,36,45,35,30,28,28,42,57,62,46,27,32,35,29,34,22,27,228,167,216,126,50,24,29,25,21,32,44,47,37,30,72,130,159,184,191,142,121,6,55,9,105,68,33,43,207,183,167,74,83,48,38,65,16,16,14,14,121,197,56,60,50,26,21,20,13,22,38,33,25,25,36,38,39,37,24,36,34,46,49,41,32,26,32,30,17,34,28,24,29,36,24,21,20,20,19,21,32,62,20,12,12,11,25,20,11,14,22,21,42,34,29,27,23,26,30,22,24,31,33,40,39,128,85,49,85,68,41,25,22,21,21,26,26,33,21,30,39,27,23,20,19,25,13,19,17,7,7,8,8,60,42,31,31,178,131,70,45,15,38,4,5,4,5,4,51,46,17,14,15,8,8,9,147,147,86,66,117,114,122,64,34,38,33,34,36,73,69,98,67,34,43,120,122,61,22,15,15,12,7,7,6,2,3,4,5,7,7,3,9,8,8,8,8,3,4,5,4,4,8,14,36,39,95,45,32,10,10,13,13,16,15,15,16,24,25,13,9,5,2,1,-10,-7,-3,0,2,2,3,6,8,12,16,20,19,31,41,34,45,29,75,55,25,24,25,48,52,79,114,69,49,34,29,24,20,21,57,128,83,58,99,98,77,209,218,50,30,30,103,106,316,154,115,118,119,174,162,32,28,47,112,363,352,48,94,151,86,138,76,68,73,38,44,32,26,38,40,38,24,30,35,20,13,11,23,17,11,12,1,8,20,15,15,12,6,7,9,15,22,19,20,38,25,22,29,34,36,49,105,29,32,23,21,21,22,26,6,11,11,3,54,233,184,4,168,165,118,48,28,31,23,10,31,11,29,23,25,36,38,20,29,32,28,46,222,39,49,83,102,160,75,50,241,155,63,21,24,80,213,11,24,21,9,25,53,36,51,34,27,23,109,102,20,22,23,29,54,232,98,36,3,29,43,88,348,339,31,295,292,292,35,30,350,282,178,121,297,281,180,244,301,38,170,84,110,103,100,310,20,177,118,105,194,263,185,57,74,121,162,174,76,30,55,66,50,522,42,23,24,27,31,29,15,26,18,23,3,31,133,97,199,57,61,53,28,31,57,54,70,67,76,91,63,143,43,31,20,15,14,27,20,18,12,20,12,24,16,37,51,19,13,12,12,16,22,40,51,102,74,16,26,10,15,28,47,57,53,37,46,88,51,41,32,38,114,114,71,25,19,18,16,17,23,27,26,19,19,27,22,19,17,25,19,4,38,54,17,82,48,16,18,27,22,20,23,21,29,34,47,50,23,15,19,18,26,25,35,28,31,10,6,13,15,12,10,7,5,7,6,7,7,12,22,16,19,22,21,23,21,31,24,25,104,107,44,30,27,41,27,58,23,17,130,17,225,10,100,15,12,67,56,61,48,142,162,57,44,18,18,19,15,19,17,39,32,15,46,72,336,309,21,23,15,14,14,16,15,15,15,3,32,65,12,11,11,11,13,19,25,14,18,20,17,15,26,35,148,132,26,21,18,16,15,20,21,18,7,11,17,67,49,17,19,19,24,23,41,29,14,19,128,44,39,26,16,12,40,20,12,10,7,10,23,20,6,7,20,9,11,14,44,11,8,17,18,41,23,42,22,20,8,8,10,9,25,19,25,13,9,11,9,10,14,16,5,2,2,2,3,6,0,-2,-31,-2,-1,4,4,0,4,4,6,21,14,12,16,9,41,17,14,23,42,109,203,107,89,181,275,191,74,14,109,20,16,19,38,139,224,70,184,35,16,14,16,13,11,12,23,31,26,21,62,14,60,141,182,218,53,150,171,232,45,118,109,23,22,26,33,45,33,36,23,23,21,24,20,48,50,28,27,25,27,22,20,22,58,41,25,19,33,25,29,39,27,26,22,20,17,22,26,20,16,19,18,16,21,23,17,21,22,24,30,33,33,28,28,10,24,37,34,35,50,99,56,13,19,15,18,33,24,23,20,20,19,22,21,17,18,28,21,13,23,30,28,28,12,17,23,29,27,33,37,25,29,26,21,19,15,17,23,11,9,12,33,50,33,14,91,29,27,27,33,29,33,22,38,34,19,19,77,21,24,33,31,26,22,28,25,28,2,27,22,16,45,72,21,12,19,24,25,26,28,22,26,37,33,35,34,13,25,27,22,25,29,24,23,15,20,12,11,12,10,15,19,22,23,32,25,65,88,35,70,33,28,38,44,29,30,39,29,27,53,48,29,19,23,30,26,32,33,33,34,25,30,48,33,31,35,32,29,24,29,27,23,29,33,25,17,17,23,15,22,19,26,25,79,44,28,34,41,35,32,37,27,20,34,40,86,51,46,57,56,56,35,29,49,1,49,27,26,5,29,4,42,70,47,29,28,39,15,10,36,42,15,13,13,2,20,23,32,39,110,23,127,73,53,40,33,1,107],
      "delta_lng":[0,36,29,54,9,4,-6,-8,-44,-85,-56,-8,-17,-4,0,16,32,27,37,32,68,92,29,143,73,126,52,89,45,24,18,3,1,0,1,-3,0,1,2,-3,0,0,-6,0,-4,-5,0,-1,-1,3,0,2,0,1,-1,0,0,0,5,14,27,40,26,53,115,75,170,313,108,223,301,235,491,263,130,184,242,156,267,390,104,5,41,40,43,27,126,431,245,331,349,298,72,64,301,137,141,53,74,35,40,35,31,28,25,6,0,3,-3,0,0,-1,0,-3,2,-2,-2,0,-1,1,-1,0,-2,4,2,2,10,14,22,15,41,18,33,66,80,222,26,26,27,135,108,53,93,30,28,10,5,-11,-13,-26,-92,-133,-93,-52,-224,-130,-100,-38,-81,-68,-47,-7,-11,-57,-52,-21,-11,0,0,18,34,40,65,39,45,129,140,77,93,16,10,87,47,127,72,52,63,39,14,23,14,0,6,-3,-13,-20,-46,-38,-50,-51,-56,-39,-33,-37,-67,-68,-34,-47,-149,-71,-153,-115,-59,-57,-17,-126,-72,-19,-31,-22,-27,-35,-39,-34,-31,-32,-37,-102,-106,-89,-43,-36,-84,-88,-79,-39,-44,-43,-36,-33,-34,-30,-42,-42,-65,-59,-34,-20,-15,-18,-8,-13,-6,-7,-6,-3,0,-3,-7,-8,-40,-28,-9,-5,-7,1,6,1,-5,-9,-25,-9,-33,-56,-19,-17,-11,-47,-10,-71,-5,-64,-164,-222,-62,-87,-153,-135,-143,-205,-152,-78,-32,-102,-134,-184,-99,-79,-46,-53,-51,-24,-22,-20,-23,-44,-15,-88,-144,-75,-26,-36,-51,-21,-6,-9,-12,-14,-9,-22,-26,-24,-53,-67,-42,-20,-41,-60,-21,-31,-21,-37,-81,-127,-61,-22,-68,-54,-51,-77,-85,-68,-84,-29,-29,-66,-79,-113,-47,-66,-33,-33,-31,-88,-63,-71,-82,-11,-110,-58,-64,-43,-118,-88,-39,-38,-54,-101,-42,-36,-31,-26,-69,-73,-77,-16,-70,-46,-61,-90,-127,-87,-33,-48,-64,-49,-70,-49,-47,-36,-51,-45,-86,-46,-26,-13,-26,-45,-127,-76,-111,-54,-58,-61,-52,-53,-48,-53,-48,-52,-58,-42,-47,-61,-5,-72,-36,-53,-78,-46,-38,-43,-34,-22,-14,-29,-38,-19,-33,-26,-5,-51,-33,-27,-3,-4,-7,-29,-28,-27,-38,-6,-76,-45,-14,-49,-58,-41,-27,-53,-50,-52,-28,-23,-8,-54,-53,-31,-33,-17,-13,-11,-20,-41,-14,-3,-22,-24,-18,-22,-48,-18,-28,-8,-24,-26,-26,-1,-24,-26,-26,-23,-26,-25,-26,-27,-25,-24,-51,-52,-25,-21,-33,-21,-25,-26,-24,-24,-5,-4,-2,0,1,5,6,10,7,3,14,22,8,15,25,24,22,25,25,30,1,26,29,27,29,26,23,12,7,7,6,1,0,-2,-5,-7,-11,-11,-13,-14,-15,-14,-13,-11,-9,-5,-4,-2,-4,-6,-17,-17,-14,-17,-27,-28,-63,-57,-53,-22,-23,-18,-21,-14,-10,-10,-7,-3,-2,-1,2,4,6,6,5,4,5,9,7,6,6,9,7,8,4,3,7,6,8,7,8,7,6,8,6,4,0,-4,-5,-6,-8,-8,-19,-10,-7,-17,-17,-17,-18,-17,-15,-12,-3,-2,-1,0,2,4,8,6,4,5,2,1,-1,-2,-6,-4,-5,-8,-8,-9,-6,-6,-17,-18,-18,-20,-23,-27,-50,-57,-59,-63,-60,-26,-28,-24,-22,-18,-18,-25,-24,-20,-23,-25,-31,-29,-30,-30,-32,-29,-32,-30,-21,-9,-29,-31,-31,-29,-32,-29,-29,-31,-27,-29,-27,-31,-32,-29,-35,-15,-19,-21,-24,-22,-31,-30,-44,-26,-36,-38,-25,-51,-38,-51,-44,-52,-39,-50,-48,-2,-51,-23,-19,-39,-10,-12,-22,-4,-7,-8,-11,-8,-9,-10,-15,-12,-12,-10,-11,-12,-10,-14,-12,-14,-11,-17,-4,-6,-16,-18,-12,-10,-11,-13,-14,-35,-45,-34,-35,-37,-33,-28,-30,-35,-49,-42,-7,-43,-64,-57,-57,-70,-74,-47,-59,-71,-67,-103,-113,-61,-6,-89,-59,-44,-90,-55,-85,-62,-58,-59,-70,-63,-54,-35,-56,-7,-45,-96,-65,-72,-36,-42,-42,-32,-24,-24,-21,-21,-23,-25,-34,-34,-46,-46,-18,-18,-39,-32,-45,-19,-23,-14,-16,-21,-31,-23,-34,-31,-55,-29,-37,-34,-17,-25,-33,-32,-61,-38,-70,-53,-40,-55,-50,-47,-25,-21,-22,-28,-26,-29,-33,-28,-35,-54,-26,-18,-27,-14,-43,-50,-47,-32,-28,-28,-38,-21,-17,-18,-20,-21,-14,-12,-21,-15,-11,-7,-5,-4,-1,1,3,6,8,13,14,13,11,19,29,19,18,7,36,36,40,28,17,11,10,11,10,6,5,3,2,4,3,3,14,11,11,10,8,6,9,7,8,6,0,6,0,-1,-3,-5,-9,-15,-13,-14,-18,-22,-19,-17,-31,-28,-34,-18,-16,-25,-32,-28,-16,-22,-14,-18,-18,-14,-9,-16,-15,-12,-6,-5,-4,-1,-1,0,1,2,0,3,3,2,4,4,4,5,8,10,10,25,19,17,29,27,26,24,24,51,68,48,35,24,26,47,39,9,23,12,66,6,30,33,17,10,8,9,4,3,-1,-3,-6,-10,-5,-8,-16,-11,-13,-10,-13,-6,-3,0,4,9,13,24,33,29,36,11,11,23,13,51,54,60,86,48,46,31,34,27,0,28,25,19,13,10,9,14,15,9,3,0,-4,-11,-16,-11,-6,-26,-16,-26,-45,-20,-35,-73,-22,-13,-12,-6,-7,-3,-1,-2,1,5,5,7,29,11,6,4,3,0,-4,-7,-12,-16,-17,-20,-21,-25,-41,-27,-41,-40,-76,-98,-21,-41,-84,-92,-129,-77,-76,-83,-8,-80,-90,-149,-90,-78,-71,-60,-38,-19,-22,-29,-5,-15,-16,-15,-18,-18,-14,-33,-47,-28,-45,-43,-67,-33,-31,-32,-43,-29,-30,-16,-20,-11,-18,-13,-7,-9,-10,-12,-6,-5,-5,-8,-18,-13,-16,-9,-7,-8,-15,-26,-23,-20,-17,-12,-27,-16,-16,-19,-20,-39,-33,-24,-23,-28,-28,-26,-29,-24,-21,-28,-68,-140,-70,-70,-71,-70,-26,-21,-21,-23,-21,-13,-15,-76,-9,-70,-54,-23,-34,-50,-27,-20,-25,-27,-26,-28,-19,-23,-32,-44,-28,-69,-33,-41,-20,-15,-33,-23,-22,-27,-67,-77,-66,-32,-37,-27,-34,-27,-36,-55,-57,-25,-30,-6,-21,-32,-4,-18,-6,-20,-22,-2,-18,-4,-20,-18,-13,-5,-12,-21,-27,-25,-28,-30,-32,-34,-29,-23,-25,-46,-31,-41,-36,-40,-36,-77,-88,-73,-76,-80,-75,-22,-60,-73,-44,-42,-32,-23,-20,-38,-31,-27,-33,-33,-30,-23,-15,-13,-196,-149,-70,-71,-48,-47,-3,-101,-96,-50,-27,-22,-31,-34,-18,-18,-28,-41,-38,-42,-32,-41,-40,-34,-39,-46,-40,-40,-42,-22,-28,-34,-31,-38,-35,-31,-16,-17,-30,-7,-18,-32,-22,-23,-10,-25,-14,-17,-17,-33,-50,-13,-20,-18,-10,-14,-15,-36,-21,-13,-13,-19,-14,-13,-20,-18,-18,-13,-2,-14,-15,-16,-14,-9,-9,-9,-12,-19,-22,-15,-17,-29,-29,-28,-33,-27,-33,-21,-9,-30,-7,-11,-18,-22,-28,-24,-32,-28,-33,-43,-27,-31,-17,-23,-41,-32,-26,-22,-30,-59,-21,-18,-24,-22,-14,-14,-12,-31,-31,-40,-9,-6,-22,-7,-10,-6,-5,-7,-4,-5,-8,-10,-15,-11,-9,-21,-26,-13,-13,-14,-15,-38,-22,-17,-23,-31,-42,-76,-26,-23,-21,-21,-19,-24,-14,-15,-23,-24,-19,-15,-14,-27,-29,-28,-29,-22,-20,-33,-33,-27,-25,-29,-22,-20,-27,-35,-42,-41,-36,-77,-40,-45,-16,-23,-33,-31,-40,-67,-35,-32,-24,-33,-20,-18,-21,-19,-23,-19,-7,-19,-21,-17,-79,-86,-77,-73,-83,-37,-46,-39,-37,-43,-40,-21,-21,-27,-23,-18,-3,-25,-21,-15,-16,-12,-13,-11,-13,-8,-6,-7,-4,-5,-2,1,1,4,9,11,7,6,9,6,3,4,2,2,0,1,-1,-3,-5,-4,-10,-7,-7,-8,-5,-14,-6,-7,-5,-9,-8,-11,-20,-25,-39,-44,-40,-47,-34,-18,-9,-12,-10,-27,-28,-33,-30,-27,-30,-45,-36,-29,-33,-7,-35,-43,-50,-17,-21,-18,-15,-9,-4,-16,-40,-48,-33,-40,-61,-40,-41,-37,-27,-31,-25,-28,-60,-91,-59,-60,-60,-36,-28,-21,-7,-41,-40,-38,-44,-51,-51,-50,-41,-31,-27,-9,-22,-24,-26,-18,-11,-6,-1,0,-1,-5,-3,-2,-6,-10,-5,0,-6,-28,-12,-56,-40,-20,-18,-8,-5,-4,-3,0,2,2,3,1,1,7,10,10,15,12,15,10,9,5,3,1,1,0,0,0,-1,-2,-4,-3,-5,-9,-9,-15,-19,-16,-21,-30,-37,-53,-28,-34,-49,-30,-40,-40,-49,-52,-43,-46,-3,-55,-39,-49,-63,-53,-63,-81,-36,-47,-40,-64,-47,-51,-69,-47,-56,-61,-65,-75,-33,-21,-74,-60,-42,-50,-37,-48,-15,-32,-101,-116,-168,-80,-3,-100,-75,-66,-81,-72,-58,-51,-52,-48,-47,-78,-147,-66,-49,-39,-64,-12,-105,-220,-128,-161,-73,-115,-96,-137,-62,-3,-78,-53,-39,-39,-33,-49,-26,-24,-3,-12,-17,-19,-29,-81,-47,-40,-36,-28,-54,-58,-58,-66,-41,-32,-30,-21,-33,-44,-117,-136,-51,-54,-99,-63,-50,-45,-32,-27,-27,-13,-11,-6,1,5,9,13,17,18,12,9,0,33,1,12,19,17,3,21,37,61,49,41,49,35,65,55,54,32,17,18,16,17,13,7,10,7,5,4,3,20,15,4,6,9,16,18,24,58,77,39,90,77,51,53,61,23,131,173,142,200,73,72,49,54,22,28,32,12,0,6,3,13,13,9,16,15,1,0,-4,-9,-5,-6,-61,-18,-4,4,15,9,16,22,10,6,1,7,2,-1,1,2,21,12,10,11,21,21,11,16,19,17,11,15,71,28,25,22,8,63,67,41,67,44,10,52,39,43,29,6,0,-5,-22,-38,-4,-21,-48,-48,-2,-1,3,8,27,28,10,7,2,3,-1,-4,-9,-10,-12,-18,-16,-27,-31,-47,-13,-14,-61,-37,-36,-26,-10,-5,-3,-2,-3,0,3,1,4,3,0,2,0,0,-2,-3,-2,-4,-11,-14,-16,-18,-19,-28,-58,-27,-24,-26,-25,-25,-37,-33,-18,-30,-44,-57,-21,-47,-16,-15,-13,-10,-8,-9,-25,-11,-10,-13,-17,-13,-18,-27,-70,-87,-114,-17,-18,-19,-28,-34,-33,-37,-38,-32,-98,-134,-28,-27,-26,-24,-30,-29,-31,-39,-28,-30,-22,-24,-21,-30,-45,-52,-8,-85,-5,-8,-8,-9,-6,-4,-5,-4,-5,-6,-6,-7,-11,-21,-13,-21,-20,-51,-23,-48,-40,-23,-18,-17,-15,-18,-16,-24,-26,-27,-31,-32,-24,-60,-89,-122,-33,-120,-103,-136,-77,-21,-18,-24,-20,-16,-20,-30,-27,-23,-24,-30,-43,-53,-62,-49,-20,-76,-159,-146,-23,-20,-31,-49,-49,-43,-36,-50,-121,-26,-26,-32,-27,-27,-31,-28,-50,-20,-13,-34,-24,-28,-36,-20,-20,-26,-16,-20,-13,-15,-13,-15,-10,-6,-5,-2,-2,0,2,3,4,7,10,10,21,32,59,78,93,2,69,19,15,14,19,17,13,19,34,20,11,11,12,13,79,30,59,13,12,9,4,2,3,2,-1,-2,-5,-6,-7,-9,-6,-8,-13,-15,-14,-16,-20,-20,-21,-22,-41,-117,-115,-76,-103,-125,-63,-38,-114,-149,-65,-50,-51,-97,-36,-26,-24,-27,-38,-41,-46,-41,-36,-21,-12,-14,-43,-14,-28,-19,-107,-63,-107,-49,-34,-13,-208,-108,-31,-23,-52,-108,-65,-42,-38,-14,-37,-36,-4,-7,-19,-41,-7,-13,-40,-27,-24,-21,-49,-59,-86,-52,-26,-25,-11,-131,-128,-60,-22,-32,-27,-29,-24,-18,-24,-44,-10,-16,-22,-25,-21,-60,-17,-48,-27,-33,-31,-22,-47,-24,-15,-8,-26,-22,-27,-31,-18,-32,-40,-44,-39,-9,-19,-36,-56,-79,-60,-6,-73,-38,-24,-20,-16,-64,-58,-31,-36,-36,-26,-54,-49,-64,-58,-55,-20,-27,-22,-29,-26,-34,-51,-28,-25,-35,-33,-72,-65,-77,-89,-96,-77,-113,-46,-38,-38,-40,-36,-44,-40,-27,-41,-40,-34,-42,-74,-79,-21,-30,-16,-15,-60,-49,-41,-45,-81,-72,-88,-64,-53,-37,-62,-46,-75,-40,-77,-51,-69,-42,-26,-58,-48,-77,-37,-105,-37,-57,-26,-18,-28,-23,-59,-16,-14,-39,-100,-79,-142,-70,-103,-82,-126,-136,-132,-123,-135,-136,-87,-73,-25,-37,-43,-51,-55,-46,-26,-39,-23,-19,-21,-16,-17,-35,-11,-7,-35,-31,-22,-13,-11,-28,-49,-29,-23,-23,-28,-131,-132,-59,-42,-29,-24,-20,-20,-20,-15,-7,-1,2,5,16,27,26,14,2,2,-1,-5,-9,-9,-13,-115,-84,-106,-64,-27,-16,-27,-28,-30,-53,-86,-89,-65,-39,-79,-128,-153,-179,-188,-139,-121,-6,-53,-9,-100,-62,-22,-26,-82,-75,-64,-29,-34,-26,-23,-43,-13,-14,-11,-12,-93,-149,-45,-41,-34,-17,-15,-12,-6,-12,-15,-10,-2,4,7,13,18,26,21,36,45,80,82,57,36,21,19,12,5,4,0,-3,-11,-17,-17,-18,-21,-26,-28,-41,-73,-139,-48,-36,-41,-54,-133,-98,-47,-47,-51,-36,-51,-30,-17,-12,-5,-5,0,1,8,15,22,38,48,154,105,62,110,88,51,30,21,15,12,12,6,7,-1,-5,-13,-15,-17,-18,-19,-32,-21,-36,-40,-20,-21,-22,-23,-184,-131,-72,-62,-245,-183,-96,-69,-27,-69,-10,-10,-10,-16,-13,-178,-158,-52,-39,-29,-15,-14,-10,-170,-146,-88,-68,-119,-108,-128,-68,-41,-53,-50,-60,-74,-161,-146,-224,-149,-82,-91,-264,-271,-136,-51,-43,-49,-53,-40,-49,-62,-28,-118,-133,-161,-289,-281,-183,-418,-364,-294,-339,-269,-42,-40,-50,-37,-35,-35,-54,-141,-136,-335,-160,-115,-36,-44,-69,-88,-78,-84,-80,-89,-141,-150,-77,-57,-57,-60,-96,-177,-145,-69,-45,-31,-34,-31,-39,-34,-44,-51,-47,-39,-51,-66,-53,-71,-45,-108,-85,-35,-37,-38,-78,-83,-123,-179,-98,-71,-39,-34,-21,-18,-17,-45,-101,-61,-43,-71,-72,-61,-157,-165,-37,-19,-16,-41,-37,-102,-56,-36,-38,-40,-59,-48,-6,-5,-4,-5,-16,-20,-8,-19,-45,-23,-39,-24,-16,-14,-9,-4,0,2,8,14,19,18,27,41,26,20,20,47,38,32,49,4,36,93,59,59,53,27,28,25,37,51,41,38,58,33,24,28,30,28,31,61,18,19,18,18,19,23,30,8,13,14,4,78,362,279,7,258,251,181,70,37,29,17,7,21,6,14,8,5,3,-4,-4,-8,-10,-16,-33,-165,-28,-37,-61,-75,-116,-56,-38,-176,-115,-43,-11,-13,-31,-83,-5,-10,-8,-4,-11,-23,-22,-36,-33,-31,-27,-133,-119,-18,-20,-17,-19,-31,-128,-55,-17,-1,-14,-12,-24,-99,-95,-9,-83,-82,-84,-11,-9,-101,-80,-50,-34,-84,-79,-52,-70,-84,-15,-51,-23,-32,-30,-28,-91,-5,-53,-35,-30,-58,-76,-53,-15,-23,-34,-45,-50,-20,-9,-16,-18,-14,-144,-16,-9,-14,-15,-21,-21,-11,-25,-25,-39,-5,-62,-278,-200,-413,-121,-131,-113,-63,-65,-124,-118,-144,-148,-168,-197,-137,-310,-91,-69,-46,-46,-50,-99,-74,-69,-48,-74,-44,-88,-58,-140,-189,-61,-29,-25,-18,-19,-20,-35,-42,-84,-63,-17,-34,-14,-22,-47,-78,-99,-92,-63,-76,-143,-85,-72,-55,-62,-194,-195,-121,-38,-26,-22,-17,-12,-18,-18,-15,-8,-6,-6,-3,-1,1,3,5,1,10,13,4,21,11,9,9,18,15,14,21,24,41,54,75,85,36,20,24,21,27,25,32,29,38,14,8,24,31,34,36,27,31,54,41,39,28,31,59,34,33,30,23,18,14,18,10,9,36,38,15,12,6,12,5,4,-2,-4,-51,-3,-15,-2,-27,-7,-8,-58,-54,-61,-43,-130,-152,-53,-41,-17,-13,-14,-9,-10,-8,-15,-9,-3,-8,-11,-44,-40,-5,-8,-7,-10,-11,-13,-14,-17,-18,-8,-52,-110,-18,-12,-11,-12,-9,-12,-15,-5,-5,-4,-2,-2,0,6,28,28,6,4,7,7,10,12,17,18,7,11,23,91,65,22,17,14,18,13,14,7,2,0,-18,-8,-10,-9,-8,-9,-36,-22,-14,-13,-14,-19,-55,-47,-13,-12,-34,-14,-13,-16,-42,-12,-4,-7,-7,-19,-11,-23,-11,-12,-6,-7,-7,-11,-28,-26,-36,-22,-16,-24,-20,-23,-47,-75,-30,-24,-36,-65,-121,-217,-146,-27,-182,-19,-14,-273,-106,-9,-36,-30,-27,-65,-47,-30,-36,-15,-49,-19,-15,-19,-30,-67,-123,-66,-54,-107,-168,-117,-41,-8,-58,-9,-5,-3,-6,-6,-1,-1,-4,0,2,3,3,3,4,3,13,19,18,20,74,20,80,197,255,310,72,208,236,325,60,160,147,24,18,18,18,18,8,2,2,-3,-5,-9,-7,-21,-21,-9,-5,0,3,5,7,13,32,18,11,5,1,-1,-6,-13,-17,-26,-19,-28,-24,-38,-56,-50,-40,-34,-28,-24,-26,-24,-16,-16,-13,-13,-11,-10,-6,-2,3,1,7,13,15,21,40,77,41,7,8,4,6,3,0,-1,-6,-8,-12,-15,-18,-16,-20,-30,-23,-14,-17,-18,-12,-7,-1,-2,0,4,5,11,16,13,26,31,33,38,42,63,143,55,39,36,76,90,62,23,163,57,51,38,39,24,22,8,9,0,0,-4,-27,-5,-4,0,4,5,10,21,22,32,2,39,42,38,142,239,56,29,38,34,25,25,18,12,12,10,5,6,8,4,9,15,15,22,35,42,50,54,87,65,57,50,36,36,36,33,28,29,17,32,34,14,24,10,7,5,4,0,-4,-9,-9,-12,-28,-32,-15,-9,-9,-9,-3,-4,-1,3,10,10,14,28,20,13,13,7,3,0,-1,-7,-7,-15,-19,-18,-16,-17,-31,-22,-36,-36,-54,-55,-181,-98,-62,-81,-93,-81,-72,-81,-48,-32,-48,-50,-91,-49,-46,-56,-48,-47,-25,-16,-21,-1,-14,-8,-3,0,-2,0,0,5,3,6,12,19,8,6,24,30,11,7,9,0,11,7,11,7,14,2,14,10,8,6,3,1,4]
    }
  ]
}