{
  "code":11116,
  "id":"5c7488",
  "name":"JR石北本線",
  "name_kana":"じぇいあーるせきほくほんせん",
  "station_size":42,
  "company_code":1,
  "color":"#F7931D",
  "symbol":"A",
  "station_list":[
    {"code":1110342,"id":"e3f638","name":"旭川","name_kana":"あさひかわ","lat":43.763492,"lng":142.357803,"prefecture":1,"numbering":[{"index":"28"}],"lines":[11103,11114,11115,11116],"attr":"heat","postal_code":"070-0030","address":"旭川市宮下通８丁目","next":[1111503,1110341,1111502,1111402],"voronoi":{"lat":43.753411,"lng":142.323418,"delta_lat":[0,42046,-15549,-25423],"delta_lng":[0,33275,9611,796]}},
    {"code":1111502,"id":"e2d592","name":"旭川四条","name_kana":"あさひかわよじょう","lat":43.764056,"lng":142.375815,"prefecture":1,"numbering":[{"index":"29"}],"lines":[11115,11116],"attr":"heat","postal_code":"078-8214","address":"旭川市四条通１８丁目","next":[1111604,1111404,1111403,1111503,1110342,1111402],"voronoi":{"lat":43.754486,"lng":142.3671,"delta_lat":[0,25423,-17055,-23931,1486,5393],"delta_lng":[0,-796,30633,12066,-14906,-17588]}},
    {"code":1111503,"id":"8c1ae4","name":"新旭川","name_kana":"しんあさひかわ","lat":43.780174,"lng":142.384789,"prefecture":1,"numbering":[{"index":"30"}],"lines":[11115,11116],"attr":"heat","postal_code":"070-0028","address":"旭川市東八条６丁目","next":[1111504,1110342,1111502,1110341,1111604],"voronoi":{"lat":43.779909,"lng":142.366304,"delta_lat":[0,15549,64598,-43183,-54019],"delta_lng":[0,-9611,9798,29591,855]}},
    {"code":1111604,"id":"51f3bc","name":"南永山","name_kana":"みなみながやま","lat":43.78055,"lng":142.40853,"prefecture":1,"numbering":[{"index":"31"}],"lines":[11116],"attr":"heat","postal_code":"079-8420","address":"旭川市永山十条３丁目","next":[1111502,1111504,1111405,1111404,1111503,1111605],"voronoi":{"lat":43.816873,"lng":142.396081,"delta_lat":[0,-54019,-23931,-4665,-1035,60016],"delta_lng":[0,855,12066,7524,3046,7234]}},
    {"code":1111605,"id":"7392ba","name":"東旭川","name_kana":"ひがしあさひかわ","lat":43.776571,"lng":142.441544,"prefecture":1,"numbering":[{"index":"32"}],"lines":[11116],"attr":"heat","postal_code":"078-8253","address":"旭川市東旭川北三条５丁目","next":[1111407,1111606,1111405,1111504,1111604],"voronoi":{"lat":43.733222,"lng":142.419573,"delta_lat":[0,-11879,-8221,84517,-4401],"delta_lng":[0,14789,33562,-18022,-23095]}},
    {"code":1111606,"id":"34937a","name":"北日ノ出","name_kana":"きたひので","lat":43.781813,"lng":142.466127,"prefecture":1,"numbering":[{"index":"33"}],"lines":[11116],"attr":"heat","postal_code":"078-8203","address":"旭川市東旭川町日ノ出","next":[1111407,1111504,1111505,1111408,1111409,1111605,1111607],"voronoi":{"lat":43.805162,"lng":142.463737,"delta_lat":[0,-2171,-5352,-84517,-1808,-6592,2127],"delta_lng":[0,-8383,-5453,18022,4006,60263,25886]}},
    {"code":1111607,"id":"126e16","name":"桜岡","name_kana":"さくらおか","lat":43.801812,"lng":142.486968,"prefecture":1,"numbering":[{"index":"34"}],"lines":[11116],"attr":"heat","postal_code":"078-8204","address":"旭川市東旭川町桜岡","next":[1111505,1111506,1111409,1111606,1111608],"voronoi":{"lat":43.706849,"lng":142.558078,"delta_lat":[0,98313,24481,2009,-125966],"delta_lng":[0,-94341,18789,5255,99303]}},
    {"code":1111608,"id":"9f9414","name":"当麻","name_kana":"とうま","lat":43.825477,"lng":142.516987,"prefecture":1,"numbering":[{"index":"35"}],"lines":[11116],"attr":"heat","postal_code":"078-1300","address":"上川郡当麻町市街","next":[1111614,1111611,1111609,1111506,1111409,1111613,1111607],"voronoi":{"lat":43.831652,"lng":142.487781,"delta_lat":[0,13254,-12537,-22186,-19127,-92461,7091],"delta_lng":[0,7428,87688,24898,4786,13870,-39367]}},
    {"code":1111609,"id":"b5baf6","name":"将軍山","name_kana":"しょうぐんざん","lat":43.857455,"lng":142.521559,"prefecture":1,"numbering":[{"index":"36"}],"lines":[11116],"attr":"eco","postal_code":"078-1334","address":"上川郡当麻町北星２区","next":[1111611,1111610,1111608,1111507,1111506],"voronoi":{"lat":43.859181,"lng":142.494128,"delta_lat":[0,12504,-13193,-26122,12537],"delta_lng":[0,4234,66788,17747,-87688]}},
    {"code":1111610,"id":"682d13","name":"伊香牛","name_kana":"いかうし","lat":43.876025,"lng":142.525227,"prefecture":1,"numbering":[{"index":"37"}],"lines":[11116],"attr":"eco","postal_code":"078-1333","address":"上川郡当麻町伊香牛","next":[1111507,1111609,1111508,1111611,1111509],"voronoi":{"lat":43.918444,"lng":142.516497,"delta_lat":[0,-34987,-11773,-13193,78377],"delta_lng":[0,-18472,337,66788,-31117]}},
    {"code":1111611,"id":"9490c7","name":"愛別","name_kana":"あいべつ","lat":43.898635,"lng":142.582176,"prefecture":1,"numbering":[{"index":"38"}],"lines":[11116],"attr":"eco","postal_code":"078-1401","address":"上川郡愛別町字愛別","next":[1111609,1111608,1111509,1111612,1111510,1111613,1111610,1111511],"voronoi":{"lat":44.124386,"lng":142.622992,"delta_lat":[0,-143190,-44327,-78377,-26122,-22186,27657,291035],"delta_lng":[0,-78155,-10803,31117,17747,24898,9037,9611]}},
    {"code":1111612,"id":"660425","name":"中愛別","name_kana":"なかあいべつ","lat":43.896216,"lng":142.655424,"prefecture":1,"numbering":[{"index":"39"}],"lines":[11116],"attr":"eco","postal_code":"078-1652","address":"上川郡愛別町字中央","next":[1111511,1111613,1111520,1111611,1111616],"voronoi":{"lat":43.943909,"lng":142.74178,"delta_lat":[0,-106068,291035,11100,109874],"delta_lng":[0,-124948,9611,6043,240232]}},
    {"code":1111613,"id":"2109c8","name":"愛山","name_kana":"あいざん","lat":43.866442,"lng":142.680699,"prefecture":1,"numbering":[{"index":"40"}],"lines":[11116],"attr":"eco","postal_code":"078-1653","address":"上川郡愛別町字愛山","next":[1111612,1111616,1111608,1111615,1111614,1111611],"voronoi":{"lat":43.943909,"lng":142.74178,"delta_lat":[0,-30999,-23375,-98478,19127,27657],"delta_lng":[0,-6450,-14835,-107914,-4786,9037]}},
    {"code":1111614,"id":"8cc98a","name":"安足間","name_kana":"あんたろま","lat":43.852011,"lng":142.693868,"prefecture":1,"numbering":[{"index":"41"}],"lines":[11116],"attr":"eco","postal_code":"078-1653","address":"上川郡愛別町字愛山","next":[1111608,1111409,1111615,1111613],"voronoi":{"lat":43.791057,"lng":142.612581,"delta_lat":[0,-92461,-16448,207387],"delta_lng":[0,13870,17971,76073]}},
    {"code":1111615,"id":"a81e7a","name":"東雲(北海道)","name_kana":"とううん","lat":43.843693,"lng":142.716544,"prefecture":1,"numbering":[{"index":"42"}],"lines":[11116],"attr":"eco","postal_code":"078-1731","address":"上川郡上川町東雲","next":[1111616,1111409,1111614,1111613],"voronoi":{"lat":43.550375,"lng":142.769999,"delta_lat":[0,131772,207387,23375],"delta_lng":[0,-125577,76073,14835]}},
    {"code":1111616,"id":"14af3a","name":"上川","name_kana":"かみかわ","lat":43.848508,"lng":142.766895,"prefecture":1,"numbering":[{"index":"43"}],"lines":[11116],"attr":"eco","postal_code":"078-1741","address":"上川郡上川町中央町","next":[1111617,1111412,1111615,1111613,1111409,1111612,1110618,1111520],"voronoi":{"lat":43.481269,"lng":142.983917,"delta_lat":[0,-10819,47872,32054,362534,30999,305941,33556],"delta_lng":[0,-126454,-61734,-25730,-34669,6450,130938,51718]}},
    {"code":1111617,"id":"1a3f91","name":"上白滝","name_kana":"かみしらたき","closed":true,"lat":43.876501,"lng":143.1444,"prefecture":1,"numbering":[{"index":"44"}],"lines":[11116],"attr":"unknown","postal_code":"099-0127","address":"紋別郡遠軽町上白滝","open_date":"1932-10-01","closed_date":"2016-03-26","next":[1111618,1111619,1111616,1110618,1110708,1111621,1111521,1111522,1111520],"voronoi":{"lat":44.332887,"lng":142.957938,"delta_lat":[0,11662,-67683,-252394,-619412,-1779,77987,802137,18991],"delta_lng":[0,8702,45915,118650,135030,-83831,-198486,-59481,12271]}},
    {"code":1111618,"id":"8f0137","name":"白滝","name_kana":"しらたき","lat":43.884435,"lng":143.180795,"prefecture":1,"numbering":[{"index":"45"}],"lines":[11116],"attr":"eco","postal_code":"099-0111","address":"紋別郡遠軽町白滝","next":[1110713,1111617,1111627,1111619,1110708],"voronoi":{"lat":43.405035,"lng":143.284942,"delta_lat":[0,284095,335342,-619412,-301],"delta_lng":[0,58917,-212654,135030,17632]}},
    {"code":1111619,"id":"711b96","name":"旧白滝","name_kana":"きゅうしらたき","closed":true,"lat":43.919905,"lng":143.236729,"prefecture":1,"numbering":[{"index":"46"}],"lines":[11116],"attr":"unknown","postal_code":"099-0102","address":"紋別郡遠軽町旧白滝","open_date":"1947-02-11","closed_date":"2016-03-26","next":[1111617,1111627,1111620,1111621,1111618],"voronoi":{"lat":43.755621,"lng":143.367006,"delta_lat":[0,407399,113846,-252394,-335342],"delta_lng":[0,-255128,-99324,118650,212654]}},
    {"code":1111620,"id":"e6f14b","name":"下白滝","name_kana":"しもしらたき","closed":true,"lat":43.944553,"lng":143.276088,"prefecture":1,"numbering":[{"index":"47"}],"lines":[11116],"attr":"unknown","postal_code":"099-0101","address":"紋別郡遠軽町下白滝","open_date":"1929-08-12","closed_date":"2016-03-26","next":[1111627,1111622,1111619,1111626,1111621],"voronoi":{"lat":44.163021,"lng":143.111879,"delta_lat":[0,-407399,60239,45749,40989],"delta_lng":[0,255128,28801,3695,-18167]}},
    {"code":1111621,"id":"28757f","name":"丸瀬布","name_kana":"まるせっぷ","lat":44.006354,"lng":143.335817,"prefecture":1,"numbering":[{"index":"48"}],"lines":[11116],"attr":"cool","postal_code":"099-0203","address":"紋別郡遠軽町丸瀬布中町","next":[1111617,1111522,1111619,1111622,1111623,1111620],"voronoi":{"lat":44.225288,"lng":143.37224,"delta_lat":[0,631481,-512219,-67683,-113846,-260422],"delta_lng":[0,-184214,-221387,45915,99324,269457]}},
    {"code":1111622,"id":"41c614","name":"瀬戸瀬","name_kana":"せとせ","lat":44.008753,"lng":143.420937,"prefecture":1,"numbering":[{"index":"49"}],"lines":[11116],"attr":"cool","postal_code":"099-0342","address":"紋別郡遠軽町字瀬戸瀬西町","next":[1111623,1111620,1111626,1111624,1111625,1111621],"voronoi":{"lat":44.225288,"lng":143.37224,"delta_lat":[0,-209276,-34442,-43338,-76622,40989],"delta_lng":[0,108121,-4628,-18892,-57339,-18167]}},
    {"code":1111623,"id":"0e8284","name":"遠軽","name_kana":"えんがる","lat":44.060278,"lng":143.520667,"prefecture":1,"numbering":[{"index":"50"}],"lines":[11116],"attr":"cool","postal_code":"099-0415","address":"紋別郡遠軽町岩見通南１丁目","next":[1111522,1111534,1111622,1111636,1111637,1111642,1111621,1111624,1111523],"voronoi":{"lat":46.532223,"lng":144.024694,"delta_lat":[0,-2176822,-206614,-61442,-71334,209276,631481,50207,227027],"delta_lng":[0,-119913,-77540,-30469,-316411,-108121,-184214,15322,79230]}},
    {"code":1111624,"id":"f1bfba","name":"安国","name_kana":"やすくに","lat":43.993322,"lng":143.535762,"prefecture":1,"numbering":[{"index":"51"}],"lines":[11116],"attr":"cool","postal_code":"099-0622","address":"紋別郡遠軽町生田原安国","next":[1111636,1111631,1111622,1111625,1111630,1111623],"voronoi":{"lat":44.016012,"lng":143.480362,"delta_lat":[0,-34442,-19462,44298,66554,14386],"delta_lng":[0,-4628,230717,39618,45674,5030]}},
    {"code":1111625,"id":"b476e2","name":"生野(北海道)","name_kana":"いくの","lat":43.959928,"lng":143.532945,"prefecture":1,"numbering":[{"index":"52"}],"lines":[11116],"attr":"cool","postal_code":"099-0701","address":"紋別郡遠軽町生田原","next":[1111630,1111626,1111624,1111622],"voronoi":{"lat":43.938231,"lng":143.456842,"delta_lat":[0,11147,12729,19462],"delta_lng":[0,240270,9339,-230717]}},
    {"code":1111626,"id":"e99cb4","name":"生田原","name_kana":"いくたはら","lat":43.923674,"lng":143.534627,"prefecture":1,"numbering":[{"index":"53"}],"lines":[11116],"attr":"cool","postal_code":"099-0701","address":"紋別郡遠軽町生田原","next":[1111622,1111625,1111630,1111620,1111629,1111627],"voronoi":{"lat":43.81586,"lng":143.395808,"delta_lat":[0,45749,76622,11147,-31279,-31330],"delta_lng":[0,3695,57339,240270,-18011,-49879]}},
    {"code":1111627,"id":"bbc234","name":"金華","name_kana":"かねはな","closed":true,"lat":43.803484,"lng":143.57114,"prefecture":1,"numbering":[{"index":"54"}],"lines":[11116],"attr":"unknown","postal_code":"091-0021","address":"北見市留辺蘂町金華","open_date":"1914-10-05","closed_date":"2016-03-26","next":[1111620,1111619,1111629,1111618,1110713,1111628,1111626],"voronoi":{"lat":43.837936,"lng":143.611778,"delta_lat":[0,-445594,12694,284095,66491,60239,70909],"delta_lng":[0,-251662,-75175,58917,23148,28801,233414]}},
    {"code":1111628,"id":"34cd62","name":"西留辺蘂","name_kana":"にしるべしべ","lat":43.785345,"lng":143.603257,"prefecture":1,"numbering":[{"index":"55"}],"lines":[11116],"attr":"cool","postal_code":"091-0027","address":"北見市留辺蘂町旭西３３４番地の１","next":[1111629,1110713,1111627],"voronoi":{"lat":43.338346,"lng":143.616985,"delta_lat":[0,53996,445594],"delta_lng":[0,-256868,251662]}},
    {"code":1111629,"id":"f1781b","name":"留辺蘂","name_kana":"るべしべ","lat":43.785534,"lng":143.621394,"prefecture":1,"numbering":[{"index":"56"}],"lines":[11116],"attr":"cool","postal_code":"091-0002","address":"北見市留辺蘂町東町","next":[1111630,1111628,1111627,1110713,1110724,1111626,1110714],"voronoi":{"lat":43.338079,"lng":143.618136,"delta_lat":[0,266,499590,48834,31330,-593062,-5461],"delta_lng":[0,-1152,-5206,17443,49879,45731,-11814]}},
    {"code":1111630,"id":"9b9cc9","name":"相内","name_kana":"あいのない","lat":43.795948,"lng":143.756449,"prefecture":1,"numbering":[{"index":"57"}],"lines":[11116],"attr":"cool","postal_code":"099-0871","address":"北見市相内町","next":[1111629,1111625,1111632,1111631,1111626,1111624,1110724],"voronoi":{"lat":43.633302,"lng":143.813009,"delta_lat":[0,373103,-44298,-12729,-31279,-593062,33103],"delta_lng":[0,-66940,-39618,-9339,-18011,45731,111338]}},
    {"code":1111631,"id":"6ade48","name":"東相内","name_kana":"ひがしあいのない","lat":43.805466,"lng":143.809499,"prefecture":1,"numbering":[{"index":"58"}],"lines":[11116],"attr":"cool","postal_code":"099-0878","address":"北見市東相内町","next":[1111632,1111636,1111630,1111624],"voronoi":{"lat":44.006405,"lng":143.746069,"delta_lat":[0,-373103,311491,128166],"delta_lng":[0,66940,22833,-44099]}},
    {"code":1111632,"id":"f7c7e4","name":"西北見","name_kana":"にしきたみ","lat":43.803114,"lng":143.841586,"prefecture":1,"numbering":[{"index":"59"}],"lines":[11116],"attr":"cool","postal_code":"090-0055","address":"北見市緑町６丁目","next":[1111636,1111631,1111630,1111633,1111634,1111635,1110724],"voronoi":{"lat":43.35814,"lng":143.836169,"delta_lat":[0,275162,311491,-1058,-40160,-50440,-484817],"delta_lng":[0,-23161,22833,505,16838,14630,20478]}},
    {"code":1111633,"id":"8705c2","name":"北見","name_kana":"きたみ","lat":43.805504,"lng":143.898167,"prefecture":1,"numbering":[{"index":"60"}],"lines":[11116],"attr":"cool","postal_code":"090-0040","address":"北見市大通西１丁目","next":[1110726,1111638,1111716,1111632,1110724,1111634,1110727],"voronoi":{"lat":43.445352,"lng":144.058903,"delta_lat":[0,263118,144665,-484817,10783,5146,14324],"delta_lng":[0,-39904,-151185,20478,83745,18426,46746]}},
    {"code":1111634,"id":"4ec5b7","name":"柏陽","name_kana":"はくよう","lat":43.824911,"lng":143.916737,"prefecture":1,"numbering":[{"index":"61"}],"lines":[11116],"attr":"cool","postal_code":"090-0012","address":"北見市並木町","next":[1111638,1111632,1111633,1111635],"voronoi":{"lat":43.70847,"lng":144.019,"delta_lat":[0,144665,50440,-160750],"delta_lng":[0,-151185,-14630,163623]}},
    {"code":1111635,"id":"8e21a7","name":"愛し野","name_kana":"いとしの","lat":43.841426,"lng":143.932962,"prefecture":1,"numbering":[{"index":"62"}],"lines":[11116],"attr":"cool","postal_code":"099-2103","address":"北見市端野町三区","next":[1111638,1111636,1111634,1111632],"voronoi":{"lat":43.742825,"lng":144.016807,"delta_lat":[0,26674,174236,-40160],"delta_lng":[0,689,-181150,16838]}},
    {"code":1111636,"id":"c44e3b","name":"端野","name_kana":"たんの","lat":43.851172,"lng":143.942336,"prefecture":1,"numbering":[{"index":"63"}],"lines":[11116],"attr":"cool","postal_code":"099-2104","address":"北見市端野町端野","next":[1111632,1111637,1111624,1111635,1111638,1111631,1111623],"voronoi":{"lat":44.087345,"lng":143.796772,"delta_lat":[0,-14386,-128166,-1058,-174236,4326,374962],"delta_lng":[0,-5030,44099,505,181150,376,-190631]}},
    {"code":1111637,"id":"797c75","name":"緋牛内","name_kana":"ひうしない","lat":43.880431,"lng":143.999887,"prefecture":1,"numbering":[{"index":"64"}],"lines":[11116],"attr":"cool","postal_code":"099-2231","address":"北見市端野町緋牛内","next":[1111636,1111641,1111640,1111642,1111639,1111623,1111638],"voronoi":{"lat":43.95099,"lng":144.074308,"delta_lat":[0,139793,27411,237207,-206614,-374962,137054],"delta_lng":[0,-29022,-10419,-130085,-77540,190631,56334]}},
    {"code":1111638,"id":"c145da","name":"美幌","name_kana":"びほろ","lat":43.836967,"lng":144.10563,"prefecture":1,"numbering":[{"index":"65"}],"lines":[11116],"attr":"cool","postal_code":"092-0015","address":"網走郡美幌町字新町３丁目","next":[1111635,1111716,1111715,1111636,1111634,1111633,1111639,1111637],"voronoi":{"lat":43.713331,"lng":144.273364,"delta_lat":[0,-58064,-209914,263118,34355,26674,4326,137054],"delta_lng":[0,-36395,-178066,-39904,-2192,689,376,56334]}},
    {"code":1111639,"id":"069441","name":"西女満別","name_kana":"にしめまんべつ","lat":43.880057,"lng":144.148372,"prefecture":1,"numbering":[{"index":"66"}],"lines":[11116],"attr":"cool","postal_code":"099-2301","address":"網走郡大空町女満別本郷","next":[1111714,1111705,1111704,1111637,1111638,1111640,1111715],"voronoi":{"lat":43.762995,"lng":144.310549,"delta_lat":[0,50700,3578,133718,-40111,-197549,36746],"delta_lng":[0,-19491,-1840,-214910,-101,199158,31332]}},
    {"code":1111640,"id":"f2910a","name":"女満別","name_kana":"めまんべつ","lat":43.915886,"lng":144.170665,"prefecture":1,"numbering":[{"index":"67"}],"lines":[11116],"attr":"cool","postal_code":"099-2310","address":"網走郡大空町女満別本通１丁目","next":[1111641,1111637,1111704,1111639],"voronoi":{"lat":43.95099,"lng":144.074308,"delta_lat":[0,139793,-231402,-42109],"delta_lng":[0,-29022,229144,14788]}},
    {"code":1111641,"id":"395441","name":"呼人","name_kana":"よびと","lat":43.963695,"lng":144.218945,"prefecture":1,"numbering":[{"index":"68"}],"lines":[11116],"attr":"cool","postal_code":"099-2421","address":"網走市呼人","next":[1111640,1111637,1111642,1111703,1111704],"voronoi":{"lat":43.914677,"lng":144.27188,"delta_lat":[0,64799,138719,-27411,-231402],"delta_lng":[0,-15691,-221322,10419,229144]}},
    {"code":1111642,"id":"05b582","name":"網走","name_kana":"あばしり","lat":44.019873,"lng":144.254156,"prefecture":1,"numbering":[{"index":"69"}],"lines":[11116,11117],"attr":"cool","postal_code":"093-0046","address":"網走市新町２丁目","next":[1111703,1111553,1111702,1111641,1111637,1111623,1111534],"voronoi":{"lat":46.532223,"lng":144.024694,"delta_lat":[0,-2176822,-237207,-138719,2006,4373233,-1415486],"delta_lng":[0,-119913,130085,221322,1771,678909,-767360]}}
  ],
  "north":44.06099,
  "south":43.75951,
  "east":144.2554,
  "west":142.35635,
  "polyline_list":[
    {
      "start":"遠軽スイッチバック",
      "end":"遠軽",
      "lat":44.05708,
      "lng":143.51854,
      "delta_lat":[0,93,156,142],
      "delta_lng":[0,62,103,97]
    },
    {
      "start":"遠軽スイッチバック",
      "end":"網走",
      "lat":44.05708,
      "lng":143.51854,
      "delta_lat":[0,-31,-21,-22,-19,-22,-23,-28,-29,-61,-52,-15,-16,-25,-23,-115,-57,-46,-38,-35,-68,-70,-127,-26,-27,-28,-21,-26,-29,-32,-39,-33,-25,-29,-33,-22,-28,-19,-25,-20,-27,-46,-8,-34,-84,-81,-14,-15,-18,-23,-28,-20,-30,-16,-12,-20,-21,-21,-15,-20,-20,-27,-30,-32,-23,-20,-17,-20,-18,-20,-22,-26,-27,-50,-90,-83,-84,-193,-37,-170,-285,-79,-239,-48,-236,-42,-11,-85,-327,-324,-74,-130,-206,-213,-78,-20,-24,-31,-47,-24,-46,-70,-733,-73,-250,-33,-63,-21,-26,-36,-66,-19,-27,-16,-25,-7,-15,-28,-32,-32,-752,-539,-31,-12,-11,-14,-15,-19,-11,-15,-19,-14,-13,-19,-15,-11,-9,-10,-10,-10,-13,-10,-10,-18,-11,-9,-25,-11,-13,-23,-9,-6,-4,-11,-14,-18,-19,-18,-15,-20,-17,-23,-35,-30,-23,-25,-18,-16,-18,-19,-44,-487,-67,-529,-15,-6,-8,-10,-12,-12,-13,-11,-9,-12,-10,-5,-6,-8,-12,-10,-9,-6,-10,-10,-13,-11,-7,-2,-9,-15,-13,-8,-16,-11,-11,-12,-23,-14,-10,-10,-14,-11,-19,-22,-10,-12,-502,-198,-32,-25,-16,-15,-12,-13,-29,-38,-22,-19,-160,-14,-13,-15,-15,-12,-12,-15,-14,-9,-12,-10,-11,-15,-11,-9,-9,-32,-14,-37,-13,-10,-9,-7,-11,-11,-16,-10,-9,-15,-11,-12,-13,-13,-11,-24,-14,-8,-11,-29,-44,-17,-24,-37,-20,-19,-21,-18,-13,-11,-14,-28,-22,-15,-15,-17,-23,-15,-8,-9,-7,-3,-5,-8,-10,-9,-9,-9,-62,-13,-11,-11,-12,-12,-14,-12,-16,-16,-14,-16,-14,-11,-12,-81,-149,-87,-283,-134,-16,-67,-103,-113,-102,-88,-52,-23,-17,-19,-21,-31,-23,-33,-39,-14,-23,-14,-11,-16,-28,-14,-1,-17,-37,-61,-23,-30,-21,-28,-20,-27,-33,-104,-62,-52,-36,-28,-43,-23,-62,-40,-57,-29,-28,-8,-25,-27,-61,-160,-236,-109,-139,-97,-7,-64,-92,-108,-111,-127,-91,-63,-58,-22,-16,-19,-41,-23,-50,-73,-51,-23,-10,-12,-24,-34,-26,-16,-20,-16,-15,-14,-21,-15,-19,-30,-34,-13,-19,-113,-97,-82,-8,-47,-68,-21,-53,-56,-54,-45,-23,-21,-52,-95,-38,-12,-8,-11,-18,-31,-21,-34,-22,-30,-53,-65,-8,-48,-27,-13,-13,-14,-12,-10,-9,-66,-39,-68,-70,-26,-16,-21,-19,-14,-15,-47,-39,-28,-18,-11,-19,-60,-46,-54,-18,-13,-4,-11,-103,-69,-51,-43,-25,-40,-78,-47,-25,-24,-99,-45,-40,-18,-14,-14,-16,-13,-17,-22,-32,-36,-12,-29,-17,-11,-23,-62,-37,-17,-19,-13,-15,-14,-9,-8,-8,-9,-41,-26,-35,-18,-13,-12,-21,-17,-21,-85,-57,-13,-17,-24,-27,-14,-8,-13,-11,-14,-21,-26,-12,-27,-31,-43,-38,-35,-34,-38,-4,-31,-28,-13,-45,-6,-13,-7,-6,-10,-33,-140,-8,-25,-26,-19,-20,-15,-14,-17,-19,-16,-17,-11,-37,-20,-8,-20,-16,-18,-18,-18,-16,-16,-27,-25,-35,-56,-51,-36,-10,-14,-23,-58,-19,-14,-12,-8,-18,-24,-20,-27,-26,-61,-17,-24,-20,-28,-59,-10,-13,-12,-14,-24,-26,-65,-19,-20,-28,-15,-26,-17,-20,-19,-16,-12,-8,-10,-10,-28,-18,-29,-6,-8,-8,-5,-5,-13,-14,-13,-23,-56,-98,-115,-131,-25,-21,-19,-24,-23,-16,-15,-17,-25,-43,-94,-11,-22,-23,-27,-25,-31,-65,-152,-37,-41,-27,-34,-25,-18,-25,-43,-101,-104,-80,-58,-75,-45,-21,-18,-15,-17,-31,-31,-30,-23,-18,-37,-161,-40,-26,-35,-21,-24,-23,-50,-22,-37,-11,-14,-32,-62,-25,-37,-26,-50,-78,-147,-15,-83,-92,-9,-5,-11,-3,-4,-10,-9,-16,-20,-20,-16,-18,-29,-34,-17,-18,-21,-17,-16,-10,-13,-8,-6,-5,-4,-3,0,1,0,3,3,8,13,14,27,15,15,9,14,13,13,14,10,5,19,17,13,12,17,14,3,3,1,-1,-2,-8,-20,-41,-13,-6,-21,-19,-23,-39,-30,-24,-15,-12,-8,-5,-1,0,2,4,5,7,10,13,7,13,33,94,34,32,21,12,7,7,24,27,1,21,10,3,1,-2,-4,-5,-1,-1,-3,0,2,23,4,19,21,21,4,20,23,5,15,21,22,7,5,22,15,11,15,4,12,32,46,10,13,22,30,39,11,33,34,29,20,39,35,10,12,12,20,33,12,17,29,19,5,46,54,28,8,28,14,21,27,48,47,50,41,8,52,30,24,42,66,12,36,47,60,17,7,6,19,3,4,9,22,13,5,10,9,14,2,2,3,-1,-3,-3,-2,-3,-5,-11,-3,-16,-12,-25,-6,-43,-37,-39,-44,-9,-16,-15,1,8,9,6,7,10,19,17,4,8,10,1,9,7,-1,-4,-13,-13,-8,-16,-24,-13,-19,-63,-51,-71,-25,-4,0,4,4,6,9,15,14,17,29,27,17,54,188,146,76,66,55,81,134,23,301,108,302,132,155,422,4,56,4,423,232,132,257,21,48,18,31,26,22,104,112,104,48,57,81,106,42,78,106,135,49,101,41,125,31,45,55,59,30,23,9,14,44,19,23,18,26,20,18,17,13,11,11,6,2,4,4,0,-2,-2,-8,-6,-25,-34,-7,-17,-22,-25,-23,-9,-13,-6,-7,0,0,0,2,4,4,5,8,9,13,9,17,34,29,70,44,50,22,28,47,30,53,21,21,21,32,18,25,13,16,15,17,44,90,80,7,22,66,28,85,69,38,34,32,16,27,21,19,16,20,61,24,10,17,104,103,81,3,42,69,47,29,23,27,57,43,102,89,30,29,23,40,18,14,11,15,21,25,10,7,6,6,7,1,-2,-4,-14,-10,-13,-20,-9,-4,-5,1,1,3,4,6,13,8,32,14,7,25,14,12,28,33,40,55,40,13,6,4,-1,-4,-1,-12,-8,-11,-9,-21,-52,-46,-60,-16,-7,-10,-9,-10,-11,-14,-15,-25,-38,-30,-33,-46,-45,-31,-20,-19,-26,-21,-18,-15,-6,-20,-10,-9,-10,-14,-7,-4,-5,-18,-15,-3,-5,-5,-9,-8,-11,-3,-16,-21,-26,-19,-29,-37,-55,-52,-46,-50,-48,-49,-67,-68,-18,-14,-14,-17,-15,-17,-15,-9,-1,-11,-10,-9,-11,-15,-39,-70,-15,-9,-5,-6,-7,-3,-3,-3,-3,-2,-4,-6,-8,-13,-17,-21,-17,-14,-21,-28,-33,-15,-89,-47,-15,-11,-9,-11,-9,-8,-7,-9,-13,-5,-8,-8,-8,-11,-12,-12,-16,-16,-16,-17,-18,-17,-19,-21,-19,-18,-38,-22,-17,-21,-23,-24,-2,-14,-15,-12,-21,-18,-18,-14,-21,-17,-16,-14,-13,-16,-35,-40,-17,-15,-15,-14,-16,-10,-12,-12,-9,-7,-5,-6,-5,-3,-1,-2,0,0,2,5,12,15,3,14,24,27,45,24,9,6,6,5,3,4,3,1,-1,-3,-4,-9,-9,-11,-12,-13,-15,-27,-32,-93,-9,-69,-14,-12,-15,-11,-9,-8,-10,-7,-8,-6,-6,-5,-4,-4,-2,0,1,3,5,8,10,12,18,23,29,46,29,17,27,49,51,43,50,25,9,11,11,11,8,7,6,5,2,2,-1,-2,-1,-6,-12,-20,-28,-44,-50,-51,-5,-6,-6,-8,-9,-10,-9,-17,-17,-20,-20,-18,-19,-17,-22,-39,-68,-112,-121,-129,-181,-17,-18,-111,-27,-127,-69,-12,-28,-57,-37,-21,-37,-71,-62,-87,-47,-24,-116,-82,-17,-18,-13,-16,-15,-7,-8,-7,-4,-3,-3,1,3,3,4,5,5,10,7,11,14,16,3,11,9,10,68,45,70,38,27,39,34,81,298,263,1,32,20,17,17,23,20,20,21,23,23,26,29,33,191,41,22,20,23,29,27,21,27,29,29,19,26,16,8,50,24,17,22,17,10,11,15,18,21,24,19,15,17,102,31,17,15,19,21,23,22,22,19,18,19,128,124,117,22,12,9,10,11,13,20,12,14,15,22,18,16,30,17,18,16,19,18,14,17,19,20,19,20,18,21,25,25,21,24,25,26,21,17,4,26,70,20,18,21,43,19,16,19,17,18,14,13,14,13,16,9,7,27,341,125,15,11,12,15,25,25,14,16,15,17,19,10,10,12,20,54,10,12,25,43,141,152,63,7,8,8,8,10,13,12,13,14,13,13,14,17,14,12,14,14,13,36,14,49,63,26,16,13,16,16,18,19,18,21,19,152,74,12,15,16,29,30,86,114,63,27,17,15,21,22,19,21,22,19,24,23,27,23,48,25,25,25,33,26,27,25,42,26,30,29,25,41,24,30,20,22,10,164,14,15,15,16,14,16,13,20,19,17,18,16,16,14,14,16,17,15,17,14,15,15,16,14,11,12,13,70,81,17,225,39,58,15,12,13,15,17,78,71,30,15,197,19,18,24,15,10,15,16,27,33,17,15,21,29,25,26,28,40,62,68,33,30,34,23,22,22,42,26,44,21,17,26,40,46,22,56,71,132,111,128,134,85,14,25,14,18,24,24,18,20,20,20,25,21,20,41,55,59,47,57,26,56,35,27,23,19,24,49,34,9,68,69,61,100,37,34,29,63,21,19,24,44,32,19,17,25,29,32,29,38,2,44,65,61,33,20,17,17,17,14,16,14,17,14,40,32,11,19,27,34,12,5,4,5,13,5,4,7,6,4,6,6,3,0,-2,-4,-5,-6,-10,-11,-15,-36,-13,-13,-9,-4,-2,-9,-4,-9,-2,1,2,6,15,12,21,8,10,17,6,7,7,10,6,8,15,14,9,13,34,33,31,52,19,18,16,25,19,31,15,27,15,14,55,73,227,128,79,50,46,28,22,24,26,23,17,20,16,29,58,79,37,18,16,15,18,20,16,18,17,21,22,3,10,15,19,15,18,14,19,38,35,13,13,19,25,22,26,24,21,20,20,14,49,70,86,33,12,12,13,18,15,14,26,12,37,59,88,22,17,14,20,19,17,29,20,29,22,14,15,17,21,22,20,20,10,11,49,106,84,12,34,13,13,14,16,22,24,19,14,19,21,16,17,18,15,17,17,10,9,10,9,10,12,15,16,17,18,17,20,22,27,40,24,45,33,49,8,22,24,27,36,37,16,18,22,27,27,18,16,14,14,20,12,15,16,17,16,15,17,16,14,32,32,32,10,10,19,27,23,16,8,6,5,13,17,5,6,6,8,9,14,13,12,12,16,15,9,20,43,43,29,47,43,35,42,47,43,4,57,52,34,21,19,17,16,19,17,22,21,19,15,14,12,16,12,12,15,8,6,8,14,11,15,12,9,17,28,38,30,46,52,14,42,51,61,9,34,21,15,13,19,14,10,9,5,4,3,6,4,20,8,28,37],
      "delta_lng":[0,-16,-9,-7,-4,-5,-3,-1,1,3,6,2,3,7,8,48,24,24,19,17,33,31,51,8,6,7,2,2,0,-5,-7,-9,-9,-12,-17,-15,-20,-17,-24,-24,-37,-66,-10,-48,-119,-119,-18,-18,-19,-22,-25,-14,-20,-9,-7,-9,-9,-8,-3,-4,-4,-3,-2,-2,2,2,3,2,6,7,9,11,16,28,54,48,53,116,23,102,169,49,143,30,143,25,6,52,195,197,44,80,124,128,47,10,10,13,18,8,14,18,206,21,71,7,15,3,5,3,4,0,0,-3,-2,-1,-3,-8,-10,-13,-301,-216,-11,-4,-2,-2,0,2,2,4,6,6,6,12,10,9,9,11,12,12,17,15,17,32,19,12,35,13,14,22,7,5,3,7,7,8,8,6,5,4,4,5,3,1,-1,-3,-1,-3,-5,-4,-14,-162,-22,-176,-7,-1,-5,-7,-9,-9,-11,-11,-10,-15,-14,-8,-10,-15,-24,-23,-22,-20,-36,-41,-53,-40,-22,-8,-24,-40,-30,-15,-27,-18,-15,-17,-27,-17,-11,-10,-12,-9,-16,-15,-6,-7,-248,-98,-14,-11,-6,-6,-3,-4,-5,-3,-1,1,18,0,4,4,5,4,6,9,10,7,10,10,12,17,18,13,17,66,35,80,25,15,12,10,13,10,13,9,7,7,6,5,3,3,1,3,0,-1,-2,-6,-7,-2,-1,1,1,4,4,5,5,4,7,16,16,12,12,18,29,19,13,13,14,4,11,20,26,22,27,30,261,43,33,30,23,23,24,19,22,19,14,14,13,8,9,43,77,45,149,67,9,36,56,61,53,43,24,10,4,6,3,5,1,0,-3,-4,-4,-4,-4,-6,-11,-8,0,-10,-25,-43,-13,-18,-11,-12,-5,-7,-7,-19,-14,-11,-4,-3,-2,-1,4,3,10,6,5,4,7,9,24,68,98,47,59,41,1,29,36,45,46,53,38,29,26,11,9,13,32,20,46,64,46,19,8,9,16,20,12,8,8,5,4,2,5,2,1,0,-1,-1,-3,-22,-18,-14,-1,-7,-2,1,3,3,-2,-5,-4,-4,-15,-28,-10,-4,0,-1,0,4,5,10,8,13,30,41,5,32,14,7,5,4,2,0,0,-4,-1,2,3,-2,-3,-6,-8,-8,-8,-34,-24,-14,-6,-4,-4,-10,-12,-16,-5,-2,0,0,-3,-6,-8,-9,-7,-16,-36,-19,-7,-4,-11,-6,-6,-1,0,1,3,3,6,9,13,14,5,8,4,2,1,3,-2,-1,-5,-2,-7,-4,-6,-6,-5,-8,-37,-24,-30,-16,-9,-8,-9,-6,-9,-25,-15,-3,-2,-2,2,3,1,3,3,4,8,10,5,13,18,27,26,29,30,41,4,35,32,19,61,6,11,5,2,3,0,22,4,10,16,12,16,12,16,21,25,26,28,24,71,38,14,37,25,29,25,23,20,19,27,24,32,46,38,27,12,13,29,77,27,18,12,9,15,17,13,15,11,22,5,10,12,18,49,7,7,7,7,8,4,12,3,7,10,9,17,15,22,23,22,18,18,20,29,100,71,82,14,16,14,8,7,15,15,12,18,43,74,93,103,17,10,9,8,5,2,-1,-2,-7,-15,-46,-6,-10,-11,-8,-5,-4,-7,-5,-1,1,4,8,7,9,16,41,112,109,86,64,84,46,18,9,7,6,5,5,1,-2,-5,-20,-106,-22,-14,-11,-5,0,1,17,11,23,9,11,33,63,27,55,41,112,197,385,43,230,281,43,37,127,33,30,53,40,41,45,33,25,27,35,38,21,26,35,31,38,26,40,32,26,32,32,39,24,20,16,16,28,40,80,78,160,84,91,51,80,75,76,76,57,24,98,96,68,69,93,80,21,27,27,23,24,53,102,180,59,36,81,75,75,139,122,94,55,56,43,31,27,33,29,41,33,34,35,38,24,28,62,166,58,59,48,33,27,38,117,134,5,112,77,48,54,90,301,296,120,182,283,140,68,354,81,332,431,343,65,397,395,107,269,351,364,121,95,329,257,178,199,47,159,342,497,104,140,227,332,402,118,318,358,306,206,419,369,107,118,131,211,332,149,184,292,157,28,197,246,130,31,125,61,96,124,212,223,224,191,34,240,144,108,190,301,54,168,230,282,81,34,34,157,39,54,135,326,220,93,168,137,239,31,30,86,108,66,68,23,25,36,68,18,84,70,126,31,220,198,208,236,61,100,134,149,191,204,100,149,191,346,357,63,155,142,36,177,112,76,76,117,131,52,164,236,121,197,602,465,665,273,68,61,33,20,18,23,30,29,27,43,34,17,50,179,140,71,63,52,76,130,22,287,105,289,126,152,408,4,54,4,405,225,131,252,20,48,16,31,22,23,101,106,99,48,54,80,99,42,76,102,129,49,94,39,122,27,44,54,55,30,23,9,14,42,18,25,22,32,29,28,30,25,33,37,27,14,42,71,56,48,14,49,23,85,113,26,55,72,84,86,36,71,40,71,21,46,14,24,35,31,26,26,24,28,21,31,52,41,95,54,55,26,27,44,27,45,17,16,13,18,13,13,6,3,2,2,3,7,4,2,1,3,-1,-3,-8,-5,-7,-6,-3,0,0,4,5,8,28,9,3,2,3,3,0,0,-3,-9,0,0,3,6,22,19,40,35,10,15,12,27,16,14,11,19,30,44,18,17,19,23,40,47,47,40,106,69,98,150,91,70,93,128,73,56,33,41,61,35,119,42,22,77,37,31,59,70,86,133,132,62,43,51,85,47,14,82,32,41,30,55,142,130,181,44,21,25,19,22,20,22,25,32,42,38,40,59,57,37,27,28,42,37,38,33,14,54,33,29,51,73,52,42,75,233,205,30,34,35,42,34,41,6,46,55,57,33,45,53,74,65,53,50,48,42,59,61,14,15,15,20,20,22,21,13,3,17,16,19,25,35,100,185,42,23,18,25,29,22,22,53,40,24,29,36,31,43,52,55,38,27,33,36,39,18,108,54,18,16,15,18,21,18,18,29,44,23,29,21,18,26,22,20,20,21,15,16,11,12,7,8,6,3,3,4,3,8,9,14,1,10,11,12,22,20,26,23,37,29,23,16,13,15,28,30,13,13,16,17,22,17,19,25,20,21,23,25,21,21,20,24,25,29,24,28,68,57,13,48,64,67,95,53,21,19,18,21,15,26,31,33,28,28,33,38,30,29,26,25,24,32,36,102,10,72,19,17,22,17,16,18,23,18,21,18,21,21,21,29,27,24,27,35,32,41,39,32,48,49,61,101,61,39,57,108,111,91,108,60,23,29,37,41,33,35,31,37,38,92,57,27,5,54,68,82,118,177,204,213,19,15,20,19,19,18,16,23,22,22,20,16,14,11,12,18,31,50,54,60,83,8,8,55,17,68,38,9,23,49,37,24,48,89,77,109,56,29,147,103,24,27,25,36,38,20,33,30,23,26,30,79,33,29,25,21,20,38,21,25,30,29,7,18,12,13,83,58,90,47,31,48,44,89,359,327,1,36,22,17,15,20,16,15,14,14,11,13,11,9,45,9,6,7,7,12,12,10,13,15,18,10,17,10,6,33,16,10,12,9,5,3,3,3,2,0,-1,-4,-3,-24,-9,-3,-2,-1,1,1,2,3,6,5,7,43,46,43,8,3,5,6,7,9,17,13,14,17,26,23,22,41,24,24,20,22,19,13,17,16,16,13,13,11,10,12,11,7,7,7,4,3,2,0,0,0,-1,-1,-4,-5,-3,-1,0,0,1,4,4,6,6,9,5,4,16,229,86,10,8,11,14,27,25,15,18,19,21,27,15,16,20,37,99,18,21,40,70,236,259,109,14,13,13,12,16,19,17,17,17,14,14,12,14,11,9,9,9,7,21,8,26,30,13,6,5,4,4,3,2,3,1,0,0,3,1,3,4,8,9,30,40,21,8,6,5,5,4,4,3,2,1,2,0,-3,-1,-8,-3,-6,-5,-7,-6,-8,-7,-13,-8,-11,-10,-11,-17,-11,-14,-11,-13,-5,-91,-8,-7,-5,-6,-3,-3,0,-1,0,2,2,4,5,5,4,9,9,9,12,10,12,14,17,16,17,18,18,119,136,28,367,64,101,24,21,26,32,37,173,162,68,35,452,44,41,42,25,14,22,23,34,39,18,13,19,23,18,18,16,23,33,39,18,15,17,10,8,7,11,4,2,-1,-1,-4,-8,-10,-8,-18,-25,-49,-40,-48,-49,-31,-4,-8,-3,-3,0,4,3,4,5,9,13,13,14,31,39,44,36,44,21,42,25,17,12,9,11,16,9,3,18,18,14,27,10,12,9,23,9,9,17,30,22,14,15,26,32,40,36,52,2,61,88,83,49,29,26,32,39,32,45,45,58,58,152,121,34,58,86,112,38,17,23,21,53,20,24,36,34,39,69,83,71,58,33,31,23,23,31,26,33,66,24,24,24,17,13,35,15,50,19,26,27,31,77,51,86,27,31,49,15,15,15,21,12,13,21,18,11,12,35,28,26,48,14,10,10,14,8,10,3,3,0,0,-4,-5,-9,-11,-5,-5,-2,1,1,3,4,7,7,10,9,20,36,47,24,10,6,5,1,3,-1,-2,-3,-7,-10,-1,-6,-10,-13,-14,-18,-17,-24,-57,-56,-20,-19,-21,-27,-21,-19,-16,-11,-7,-3,1,8,14,18,8,3,5,5,11,10,11,24,12,39,63,100,22,18,10,16,10,9,8,5,2,0,0,-2,-5,-8,-10,-13,-13,-6,-5,-19,-44,-33,-4,-12,-5,-3,-1,0,2,7,7,9,11,16,14,19,21,23,31,38,27,28,26,23,21,22,21,25,19,17,14,12,10,9,14,5,11,3,4,0,0,-1,-5,-12,-12,-7,-3,-7,-4,-3,0,0,3,2,4,4,5,8,8,9,10,13,14,15,34,36,35,11,12,25,38,36,32,18,20,20,58,85,23,21,18,25,16,26,21,17,14,16,14,6,10,17,15,7,10,8,5,3,3,-2,0,-6,-5,-4,-1,0,1,3,5,9,10,14,12,16,15,14,23,20,26,41,24,27,39,87,62,69,46,27,43,56,71,53,87,107,30,98,125,146,24,65,45,33,28,47,33,28,24,13,14,11,20,21,89,42,158,244]
    },
    {
      "start":"中越",
      "end":"遠軽スイッチバック",
      "lat":43.86776,
      "lng":142.90813,
      "delta_lat":[0,9,10,9,12,24,37,27,34,33,25,25,15,18,35,19,23,15,10,4,10,6,3,1,2,2,2,6,6,7,6,2,6,13,16,16,17,11,12,10,4,5,3,1,6,2,3,5,9,11,18,21,18,28,23,29,23,17,21,8,2,9,10,11,7,7,19,16,8,10,13,29,33,44,24,17,16,26,24,24,19,23,54,7,20,13,11,9,25,27,34,14,23,18,10,7,12,6,8,21,35,14,11,15,10,21,15,22,17,5,5,3,1,-2,-3,1,3,6,7,16,17,100,54,18,16,21,21,9,7,8,12,7,17,33,30,14,10,6,2,0,0,0,0,-4,-6,-10,-7,-5,-25,-7,-9,-15,-18,-10,-28,-20,-18,-14,-14,-6,-3,-2,-1,1,2,6,4,-2,-5,-8,-8,-2,3,4,6,10,12,7,19,20,15,20,17,20,35,77,38,24,16,9,20,9,14,7,8,5,13,3,2,2,1,1,1,-1,-7,-8,-12,-9,-8,-7,-14,-5,-10,-12,-15,-2,-13,-19,-14,-29,-32,-12,-7,-21,-18,-8,-11,-30,-33,-46,-1,-53,-57,-12,-1,-1,-5,-17,-32,-28,-12,-18,-13,-16,-35,-35,-47,-31,-28,-30,-30,-30,-246,-62,-19,-26,-43,-15,-31,-50,-3,-72,-27,-44,-53,-28,-23,-25,-27,-40,-9,-24,-54,-23,-68,-21,-20,-51,-57,-12,-15,-42,-24,-23,-12,-10,-6,1,5,7,17,21,36,16,11,10,7,6,3,5,4,2,2,3,14,7,46,10,11,12,15,35,15,24,39,22,33,46,11,13,8,12,12,11,3,4,14,18,7,7,9,4,10,7,21,56,91,17,15,21,39,18,18,20,13,11,5,4,5,10,16,15,8,9,22,9,1,0,-4,-6,-13,-10,-4,-2,3,5,3,2,2,-2,-3,-13,-10,-15,-14,-6,-4,-50,-27,-11,-12,-8,-8,-8,-22,-25,-26,-4,-6,-34,-58,-15,-8,-11,-8,-10,-7,-4,-2,2,8,2,2,3,5,4,10,10,15,34,22,9,5,4,6,6,9,9,7,18,9,12,13,14,11,18,11,2,12,15,10,13,13,5,4,5,14,6,8,9,19,11,16,14,22,27,38,26,28,47,33,11,16,21,17,13,10,14,16,10,13,15,50,35,47,86,45,52,28,14,19,9,10,9,10,7,6,6,8,10,11,8,5,11,7,12,10,8,14,17,8,11,8,7,12,18,23,26,11,27,6,8,7,9,7,9,9,10,17,16,14,17,20,35,37,24,28,40,30,18,25,23,24,25,19,38,40,38,49,44,47,58,40,37,51,27,3,43,41,80,85,42,16,32,31,54,48,53,30,35,10,17,15,19,18,19,23,22,12,11,19,28,16,36,15,11,14,17,26,26,43,57,44,54,53,48,52,42,6,41,71,80,35,27,53,83,58,41,35,48,17,39,19,49,59,41,35,21,26,46,20,30,18,27,33,20,83,99,76,25,20,31,39,30,21,20,27,17,20,27,33,17,255,33,13,13,11,12,10,11,10,16,18,19,11,11,12,15,15,11,9,6,16,16,40,22,13,11,9,8,10,6,9,13,16,11,10,11,16,16,15,13,25,21,25,48,23,30,25,24,10,11,22,19,25,46,47,95,49,48,39,31,53,58,84,56,57,52,74,19,20,16,8,26,57,40,52,9,6,7,3,2,4,6,7,8,9,3,13,15,19,27,31,29,24,7,8,12,71,148,223,77,41,96,50,46,32,30,25,25,28,77,18,35,41,33,30,30,27,28,28,33,33,42,30,21,20,18,17,22,19,24,41,78,73,28,23,15,17,1,20,10,15,13,15,15,14,16,19,19,19,21,26,33,126,26,26,30,27,26,22,17,16,35,27,27,40,38,36,3,25,31,54,244,48,42,35,33,33,31,26,32,17,170,44,19,13,9,7,8,10,9,10,11,9,2,6,9,15,17,35,71,103,218,27,18,19,20,27,43,83,51,138,21,18,23,21,25,25,22,26,22,26,23,60,18,17,99,118,102,123,96,75,109,28,131,99,76,14,15,49,92,83,12,123,81,67,75,26,35,23,43,25,57,36,10,13,9,4,4,4,-2,-5,-16,-10,7,0,-2,0,0,-1,-3,-4,-7,-8,-20,-17,-10,-12,-20,-22,-42,-70,-79,-11,-91,-58,-59,-63,-126,-90,-18,-18,-12,-7,-10,-18,-11,-8,-8,-3,-9,-14,-11,-7,-4,-9,-4,-5,-8,-20,-21,-66,-31,-10,-10,-6,-6,-3,-2,-1,1,1,5,6,27,16,6,2,0,-3,-6,-7,-21,-23,-13,-25,-45,-22,-7,-4,-4,-3,2,4,6,9,13,24,62,60,48,88,67,18,10,12,10,6,9,6,4,3,-1,-2,-3,-8,-14,-5,-6,-4,-1,0,3,7,8,8,14,22,28,37,24,20,20,28,23,17,26,20,35,29,29,26,19,2,18,17,16,16,16,15,14,14,9,13,11,13,17,14,28,11,12,12,19,51,23,37,45,59,34,40,52,66,54,41,26,30,13,8,6,1,9,10,10,12,5,1,-4,-6,-10,-12,-13,-17,-19,-21,-18,-23,-38,-29,-2,-29,-18,-9,-7,-7,-15,-9,-3,1,5,7,8,10,10,14,15,26,25,39,59,71,90,9,125,87,55,56,74,122,87,98,40,51,152,79,113,151,187,9,140,33,87,34,33,35,28,44,85,99,68,47,95,28,73,48,16,17,23,23,13,16,21,20,14,14,10,13,15,15,17,19,57,15,43,36,39,8,9,11,16,16,18,20,28,25],
      "delta_lng":[0,46,48,30,27,48,74,45,57,62,54,62,42,52,116,54,69,57,53,22,69,55,51,51,62,49,23,61,41,34,21,6,20,31,31,25,25,22,36,33,22,29,30,42,104,71,55,36,36,35,36,36,25,30,26,27,29,23,29,17,5,17,28,30,32,31,106,80,33,29,30,63,83,96,45,29,25,34,29,24,17,19,51,7,21,17,19,19,49,60,75,33,54,49,29,29,52,38,53,144,211,82,41,46,26,41,27,57,49,18,36,42,49,61,100,40,31,30,20,38,36,197,112,40,45,56,68,39,34,43,60,34,51,74,69,38,36,44,45,87,146,42,72,47,50,49,31,22,90,25,21,35,33,16,44,36,35,35,47,39,24,32,41,30,17,77,72,43,33,58,57,64,44,35,37,35,34,17,52,46,31,34,27,26,43,83,41,35,30,18,45,18,35,18,25,19,68,11,9,6,9,12,24,48,77,67,103,84,65,66,128,43,86,110,133,18,121,165,140,264,294,115,70,189,175,61,97,280,303,408,11,486,521,90,11,12,26,82,105,76,34,39,25,21,39,30,36,21,15,14,9,7,36,6,5,4,15,7,21,44,2,59,21,28,30,19,19,30,36,57,12,23,36,11,34,11,13,36,40,11,14,51,45,57,40,52,66,40,39,35,51,49,68,31,27,34,34,33,25,115,72,23,16,15,52,26,156,32,30,32,31,71,32,48,77,48,73,107,35,52,37,78,118,109,34,32,213,268,70,65,53,18,44,33,64,161,258,40,33,36,53,26,31,42,38,55,36,58,62,124,207,171,111,117,263,121,40,50,51,53,63,57,40,45,85,80,43,47,59,45,39,116,68,75,55,19,16,117,62,27,32,25,29,28,82,94,90,13,22,122,202,53,29,38,32,50,41,37,41,46,66,20,18,17,18,17,33,30,37,83,61,35,25,29,44,63,90,98,81,257,119,148,174,182,147,208,125,26,158,196,158,170,155,32,24,26,50,16,28,32,48,32,45,40,67,76,106,78,80,131,95,33,47,60,46,35,21,30,30,17,19,20,67,44,63,112,65,73,39,20,31,18,22,19,29,19,21,23,33,46,53,37,21,53,36,58,54,40,63,88,37,50,43,37,58,95,110,126,63,121,31,48,29,29,24,23,24,20,27,24,17,19,18,25,26,14,18,23,18,10,16,17,22,22,21,47,48,47,58,54,59,74,50,49,60,30,4,48,47,95,102,50,19,38,36,63,58,63,38,44,14,27,25,34,37,35,42,38,25,20,35,53,32,70,27,18,24,23,36,31,51,67,54,63,64,60,61,48,8,50,87,100,44,31,64,99,71,48,45,67,23,50,25,56,71,51,39,25,25,45,15,19,12,16,18,11,47,56,42,17,13,23,33,26,22,23,37,28,33,52,72,33,499,65,27,30,31,44,37,50,40,76,83,87,46,39,37,41,35,20,16,8,22,19,53,32,20,20,16,20,28,26,43,76,87,51,37,32,35,29,21,15,22,18,15,25,12,17,18,19,10,13,28,30,43,83,93,184,90,83,82,70,114,130,180,115,120,116,167,41,52,49,21,79,174,126,161,36,27,32,31,40,34,32,34,30,22,9,26,26,22,27,26,19,15,3,2,0,-1,1,-5,0,-1,-6,-3,-3,0,0,5,4,9,36,9,15,15,8,2,-4,-5,-10,-15,-20,-16,-18,-12,-5,0,1,4,7,10,13,29,62,60,27,26,22,27,1,36,17,26,19,18,18,14,13,13,9,8,4,4,1,-4,0,3,4,6,6,8,8,9,23,21,25,43,42,42,2,28,33,55,251,54,51,45,46,50,52,48,61,35,343,87,42,40,40,52,92,92,69,45,39,24,8,12,16,20,17,34,63,93,199,24,13,9,4,1,2,4,3,8,1,1,5,5,8,12,10,18,18,24,24,76,24,21,127,154,132,152,123,96,138,36,165,126,93,19,22,81,158,146,21,210,136,113,129,44,79,69,127,69,165,107,32,52,49,35,40,86,153,89,178,154,232,18,93,105,44,28,45,39,41,48,75,55,22,27,38,38,64,111,120,16,138,89,90,97,194,139,32,35,27,17,24,56,42,42,56,48,152,269,199,152,55,152,50,31,42,77,70,216,105,39,42,41,33,36,45,45,39,8,45,51,141,94,33,28,36,55,43,47,117,129,76,145,238,121,48,37,33,38,27,30,27,36,35,55,109,100,82,150,116,30,22,24,23,19,31,30,29,38,39,22,28,44,69,33,33,40,40,33,31,35,25,28,28,35,37,42,22,14,11,13,7,3,4,3,2,1,3,7,5,1,7,9,11,12,16,18,17,20,18,31,25,43,69,90,152,40,43,34,50,105,36,69,84,115,63,77,98,118,95,78,52,68,31,28,32,4,71,88,101,107,75,40,41,55,54,47,44,52,49,45,38,34,48,36,1,34,24,22,22,38,86,80,46,26,35,36,28,28,24,26,25,35,24,34,45,56,66,6,89,63,44,54,66,110,75,89,35,44,134,69,98,137,163,8,122,30,77,32,30,33,32,48,94,109,75,52,108,32,81,54,19,21,32,30,19,26,35,37,31,31,25,36,42,50,54,65,191,49,146,120,128,23,20,20,27,24,22,21,26,19]
    },
    {
      "start":"旭川",
      "end":"新旭川",
      "lat":43.76389,
      "lng":142.35635,
      "delta_lat":[0,-90,-29,-84,-20,-25,-36,-34,-18,-13,-36,-30,-19,-3,-1,2,0,2,8,18,23,14,16,17,23,71,34,104,84,5,22,43,4,4,191,75,222,83,25,21,38,65,37,158,19,340,119,130],
      "delta_lng":[0,314,104,282,68,61,82,77,52,41,143,121,77,17,18,27,17,35,41,58,45,25,20,18,19,40,21,55,49,3,13,24,3,2,105,41,124,51,15,13,23,39,18,80,9,182,66,71]
    },
    {
      "start":"新旭川",
      "end":"中越",
      "lat":43.77968,
      "lng":142.38445,
      "delta_lat":[0,107,123,151,57,20,21,14,24,31,25,11,13,16,13,4,-2,-11,-7,-84,-13,-64,-41,-111,-93,-56,-45,-32,-26,-58,-161,-44,-68,-5,-56,-18,-57,-52,-11,-25,-11,-4,0,3,20,27,7,17,110,13,41,14,56,54,48,26,67,18,44,16,23,14,34,4,15,39,16,13,17,8,29,66,97,53,72,22,118,31,30,122,16,29,77,31,153,82,93,131,115,60,26,12,8,66,112,44,23,19,23,118,50,83,11,159,47,21,149,98,57,37,69,40,24,103,136,89,5,114,110,72,103,110,12,91,46,10,20,17,26,19,19,24,21,26,28,26,27,50,63,116,83,115,31,36,82,109,110,120,115,54,305,123,227,388,508,895,67,19,411,411,74,440,83,355,64,641,31,399,123,76,29,51,167,159,43,25,23,27,16,12,13,12,11,12,12,11,11,9,1,6,7,26,25,20,4,3,-6,-12,-9,-16,-71,-97,-17,-10,-12,-13,-5,6,5,15,25,40,21,19,24,26,22,74,66,16,2,8,13,6,1,-2,-5,-19,-43,-80,-6,2,3,10,16,14,202,21,101,29,1,19,9,3,-5,-9,-13,-35,-84,-67,-37,-21,-16,-22,-38,-7,-78,-14,-13,-6,-3,0,12,10,99,33,49,14,15,72,7,1,-1,-6,-12,-37,-21,-159,-49,-80,-14,-12,-15,-19,-21,-22,-47,-353,-545,-21,-23,-19,-19,-27,-21,-18,-3,-23,-29,-25,-24,-37,-18,-13,-30,-27,-35,-40,-20,-196,-58,-29,-53,-42,-39,-46,-52,-52,-224,-10,-526,-59,-339,-384,-663,-55,-247,-130,-201,-145,-50,-34,-26,-33,-9,-12,-17,-12,-9,-5,-4,1,5,9,9,60,17,10,9,9,4,2,11,3,5,7,10,12,10,21,25,26,17,12,20,23,43,91,52,25,16,21,18,18,15,13,12,20,159,60,17,13,13,28,106,14,1,0,-2,-4,-7,-9,-15,-11,-18,-16,-18,-21,-12,-47,-38,-97,-94,-137,-38,-163,-96,-17,-15,-11,-7,-5,-4,-4,0,2,4,3,5,6,28,42,6,13,14,12,8,19,115,35,19,14,12,12,11,5,4,2,-1,-1,-4,-4,-7,-7,-11,-8,-16,-34,-11,-7,-10,-12,-4,-3,-1,1,2,2,23,45,28,171,0,16,9,16,15,17,23,29,28,49,76,75,38,39,37,34,21,20,11,10,26,182,71,39,354,10,19,8,7,11,6,41,1,-3,-4,-5,-10,-13,-15,-4,-5,-3,-1,5,5,-1,-3,-1,3,6,1,1,0,0,-1,-2,-39,0,2,2,5,4,14,7,10,18,30,25,24,12,15,14,9,7,14,18,5,18,12,13,9,11,12,17,17,33,61,82,30,11,8,8,5,1,2,-1,-4,-25,-16,-1,-3,0,-1,2,2,2,6,11,6,6,7,6],
      "delta_lng":[0,62,71,90,42,26,27,19,31,53,54,33,42,72,80,85,70,65,32,243,37,183,110,305,260,156,125,88,72,167,460,125,194,14,160,51,164,150,37,118,94,55,78,59,153,160,43,93,613,72,223,77,306,296,257,145,373,98,243,81,111,56,100,10,43,94,30,25,28,14,55,96,130,59,81,24,128,44,35,124,15,30,79,31,147,81,96,132,116,60,21,8,6,36,57,26,18,19,24,146,62,99,13,192,55,26,177,122,75,55,101,69,35,179,236,152,9,196,193,121,180,193,20,154,71,18,40,23,44,25,24,23,21,21,16,17,11,15,10,18,13,16,4,6,11,17,17,17,15,10,38,19,33,57,73,129,9,3,56,57,11,63,23,142,26,253,12,155,52,32,11,17,66,63,22,14,18,22,19,15,22,21,23,29,29,36,42,39,6,30,47,199,216,163,45,44,56,94,39,36,84,109,23,26,42,62,44,85,40,122,164,238,91,53,45,39,27,83,79,31,6,21,54,54,34,47,43,115,200,364,74,40,34,52,79,61,876,89,456,137,1,92,53,49,81,76,84,201,449,361,193,115,87,111,214,37,412,95,99,64,95,67,136,86,832,264,390,107,112,569,71,38,37,73,85,139,75,554,174,283,43,33,29,33,30,21,42,259,401,20,27,35,37,63,53,34,7,36,37,26,21,26,12,7,13,7,2,-4,-1,-30,-6,0,4,10,19,22,35,36,202,10,476,53,313,349,603,50,224,117,186,135,47,45,37,52,17,21,38,33,33,34,36,62,66,66,49,268,84,61,104,193,197,88,600,68,60,60,45,43,38,49,46,36,18,13,19,19,36,80,44,25,18,27,29,32,31,31,30,71,643,243,76,72,81,226,1100,135,36,26,32,30,29,35,49,28,44,26,32,29,14,60,54,117,114,149,47,202,123,26,32,30,28,31,36,76,33,49,53,27,39,32,138,214,25,44,43,27,20,40,207,61,32,34,38,43,46,37,30,52,12,16,32,31,41,30,39,23,49,88,33,24,37,63,31,30,26,28,28,27,141,295,175,1086,2,70,29,40,24,25,27,26,19,28,42,39,29,30,38,41,29,33,24,25,72,519,201,111,986,28,54,28,36,66,43,401,42,34,30,33,57,54,51,26,27,30,63,322,88,44,274,119,114,77,37,30,58,69,35,31,894,20,156,23,45,44,98,43,47,68,90,74,69,40,57,53,41,39,94,141,39,102,68,51,30,30,25,38,33,58,106,139,59,28,22,36,31,31,33,35,63,349,243,32,51,45,58,41,76,63,155,194,115,69,47,38]
    }
  ]
}