{
  "code":11117,
  "name":"JR釧網本線",
  "color":"#EF59A1",
  "station_list":[
    {"code":1111642,"id":"05b582","name":"網走","name_kana":"あばしり","lat":44.019873,"lng":144.254156,"prefecture":1,"numbering":[{"symbol":"A","color":"#F7931D","index":"69"}],"lines":[11116,11117],"attr":"cool","postal_code":"093-0046","address":"網走市新町２丁目","next":[1111703,1111553,1111702,1111641,1111637,1111623,1111534],"voronoi":{"lat":46.532223,"lng":144.024694,"delta_lat":[0,-2176822,-237207,-138719,2006,4373233,-1415486],"delta_lng":[0,-119913,130085,221322,1771,678909,-767360]}},
    {"code":1111702,"id":"0e5032","name":"桂台","name_kana":"かつらだい","lat":44.016913,"lng":144.273223,"prefecture":1,"numbering":[{"symbol":"B","index":"79"}],"lines":[11117],"attr":"heat","postal_code":"093-0031","address":"網走市台町１丁目","next":[1111707,1111703,1111705,1111709,1111704,1111642,1111553,1111706,1111708],"voronoi":{"lat":51.102089,"lng":146.418463,"delta_lat":[0,-2747375,-4373233,61481,15710,108699,83796,209835,146794],"delta_lng":[0,-1481594,-678909,90844,16279,79983,45029,96586,56763]}},
    {"code":1111703,"id":"a74ec6","name":"鱒浦","name_kana":"ますうら","lat":43.982481,"lng":144.296526,"prefecture":1,"numbering":[{"symbol":"B","index":"78"}],"lines":[11117],"attr":"heat","postal_code":"099-3119","address":"網走市字鱒浦","next":[1111642,1111702,1111641,1111704],"voronoi":{"lat":43.914677,"lng":144.27188,"delta_lat":[0,64799,2006,61481],"delta_lng":[0,-15691,1771,90844]}},
    {"code":1111704,"id":"05c5b4","name":"藻琴","name_kana":"もこと","lat":43.968358,"lng":144.320079,"prefecture":1,"numbering":[{"symbol":"B","index":"77"}],"lines":[11117],"attr":"heat","postal_code":"099-3111","address":"網走市字藻琴","next":[1111639,1111702,1111640,1111705,1111703,1111641],"voronoi":{"lat":43.817272,"lng":144.289217,"delta_lat":[0,-3578,244978,-15710,-128286,-55295],"delta_lng":[0,1840,74025,-16279,-76924,2550]}},
    {"code":1111705,"id":"c420b1","name":"北浜(北海道)","name_kana":"きたはま","lat":43.958549,"lng":144.352541,"prefecture":1,"numbering":[{"symbol":"B","index":"76"}],"lines":[11117],"attr":"heat","postal_code":"099-3112","address":"網走市字北浜","next":[1111639,1111714,1111706,1111702,1111704],"voronoi":{"lat":43.813694,"lng":144.291057,"delta_lat":[0,-50700,15584,388793,-108699],"delta_lng":[0,19491,24480,110037,-79983]}},
    {"code":1111706,"id":"914630","name":"原生花園","name_kana":"げんせいかえん","lat":43.941033,"lng":144.41443,"prefecture":1,"numbering":[{"symbol":"B","index":"75"}],"lines":[11117],"attr":"heat","postal_code":"099-3452","address":"斜里郡小清水町浜小清水","next":[1111707,1111714,1111705,1111713,1111702],"voronoi":{"lat":44.167372,"lng":144.445066,"delta_lat":[0,-388793,22657,16582,433350],"delta_lng":[0,-110037,55418,21872,77776]}},
    {"code":1111707,"id":"1e3449","name":"浜小清水","name_kana":"はまこしみず","lat":43.934077,"lng":144.453187,"prefecture":1,"numbering":[{"symbol":"B","index":"74"}],"lines":[11117],"attr":"cool","postal_code":"099-3452","address":"斜里郡小清水町字浜小清水","next":[1111706,1111702,1111708,1111713],"voronoi":{"lat":43.817817,"lng":144.412318,"delta_lat":[0,433350,209835,-611612],"delta_lng":[0,77776,96586,-114913]}},
    {"code":1111708,"id":"98edbb","name":"止別","name_kana":"やむべつ","lat":43.921558,"lng":144.519818,"prefecture":1,"numbering":[{"symbol":"B","index":"73"}],"lines":[11117],"attr":"cool","postal_code":"099-3454","address":"斜里郡小清水町字止別","next":[1111711,1111713,1111707,1111709,1111712,1111702],"voronoi":{"lat":44.461002,"lng":144.58668,"delta_lat":[0,-611612,4875,46591,24071,682869],"delta_lng":[0,-114913,56205,52070,11359,52042]}},
    {"code":1111709,"id":"e4a553","name":"知床斜里","name_kana":"しれとこしゃり","lat":43.910749,"lng":144.661647,"prefecture":1,"numbering":[{"symbol":"B","index":"72"}],"lines":[11117],"attr":"cool","postal_code":"099-4112","address":"斜里郡斜里町港町","next":[1111553,1111711,1110821,1111702,1111710,1110820,1111708],"voronoi":{"enclosed":false,"lat":129.628338,"lng":199.102638,"delta_lat":[0,-84703983,-1075620,45410,30783,682869,6494293,89275527],"delta_lng":[0,-53152941,-681795,-627835,-48665,52042,1775019,45054193]}},
    {"code":1111710,"id":"57609c","name":"中斜里","name_kana":"なかしゃり","lat":43.874608,"lng":144.659033,"prefecture":1,"numbering":[{"symbol":"B","index":"71"}],"lines":[11117],"attr":"cool","postal_code":"099-4142","address":"斜里郡斜里町字中斜里","next":[1110812,1111719,1110821,1110811,1111709,1111720,1110813,1111712,1111711,1111714],"voronoi":{"lat":43.561861,"lng":144.914739,"delta_lat":[0,-3006,21074,19143,226094,23569,45410,-129101,-134546,-43410],"delta_lng":[0,34227,34294,24245,246421,13975,-627835,36955,74210,44199]}},
    {"code":1111711,"id":"10c3d0","name":"南斜里","name_kana":"みなみしゃり","lat":43.867531,"lng":144.63431,"prefecture":1,"numbering":[{"symbol":"B","index":"70"}],"lines":[11117],"attr":"cool","postal_code":"099-4143","address":"斜里郡斜里町字川上","next":[1111708,1111709,1111712,1111710],"voronoi":{"lat":43.900856,"lng":144.580043,"delta_lat":[0,24071,-30783,-129101],"delta_lng":[0,11359,48665,36955]}},
    {"code":1111712,"id":"0207dc","name":"清里町","name_kana":"きよさとちょう","lat":43.83871,"lng":144.593948,"prefecture":1,"numbering":[{"symbol":"B","index":"69"}],"lines":[11117],"attr":"cool","postal_code":"099-4406","address":"斜里郡清里町水元町","next":[1111714,1111711,1111710,1111708,1111713],"voronoi":{"lat":43.630498,"lng":144.751231,"delta_lat":[0,134546,135813,-46591,-154679],"delta_lng":[0,-74210,-96979,-52070,129191]}},
    {"code":1111713,"id":"07a497","name":"札弦","name_kana":"さっつる","lat":43.786574,"lng":144.531526,"prefecture":1,"numbering":[{"symbol":"B","index":"68"}],"lines":[11117],"attr":"cool","postal_code":"099-4521","address":"斜里郡清里町札弦町","next":[1111708,1111707,1111714,1111706,1111712],"voronoi":{"lat":43.801236,"lng":144.390446,"delta_lat":[0,16582,31573,4875,-154679],"delta_lng":[0,21872,59449,56205,129191]}},
    {"code":1111714,"id":"71096e","name":"緑","name_kana":"みどり","lat":43.718282,"lng":144.505499,"prefecture":1,"numbering":[{"symbol":"B","index":"67"}],"lines":[11117],"attr":"eco","postal_code":"099-4525","address":"斜里郡清里町緑町","next":[1111706,1111639,1111705,1111719,1111713,1111718,1111712,1111715,1111710],"voronoi":{"lat":43.581276,"lng":144.755088,"delta_lat":[0,-2678,171478,12918,15584,22657,-101649,-69089,-43410],"delta_lng":[0,-84007,-366385,5852,24480,55418,266717,94068,44199]}},
    {"code":1111715,"id":"af16ce","name":"川湯温泉","name_kana":"かわゆおんせん","lat":43.616258,"lng":144.457749,"prefecture":1,"numbering":[{"symbol":"B","index":"66"}],"lines":[11117],"attr":"eco","postal_code":"088-3462","address":"川上郡弟子屈町字川湯駅前","next":[1111638,1111718,1111717,1111716,1111714,1111639],"voronoi":{"lat":43.578599,"lng":144.671081,"delta_lat":[0,-19765,-3228,99661,58064,36746],"delta_lng":[0,-65076,-66762,-302274,36395,31332]}},
    {"code":1111716,"id":"5be483","name":"美留和","name_kana":"びるわ","lat":43.555316,"lng":144.437656,"prefecture":1,"numbering":[{"symbol":"B","index":"65"}],"lines":[11117],"attr":"eco","postal_code":"088-3331","address":"川上郡弟子屈町字美留和","next":[1111638,1111717,1111633,1111715,1110727],"voronoi":{"lat":43.398572,"lng":144.037209,"delta_lat":[0,46781,209914,-99661,-178209],"delta_lng":[0,21694,178066,302274,-459946]}},
    {"code":1111717,"id":"dbecb2","name":"摩周","name_kana":"ましゅう","lat":43.487373,"lng":144.463981,"prefecture":1,"numbering":[{"symbol":"B","index":"64"}],"lines":[11117],"attr":"eco","postal_code":"088-3204","address":"川上郡弟子屈町字朝日１丁目","next":[1110727,1110728,1111716,1111718,1111715,1111722],"voronoi":{"lat":43.558834,"lng":144.606006,"delta_lat":[0,-3228,-178209,-38797,-30815,16051],"delta_lng":[0,-66762,-459946,62251,77531,115026]}},
    {"code":1111718,"id":"31c724","name":"南弟子屈","name_kana":"みなみてしかが","closed":true,"lat":43.428656,"lng":144.514729,"prefecture":1,"numbering":[{"symbol":"B","index":"63"}],"lines":[11117],"attr":"eco","postal_code":"088-3200","address":"川上郡弟子屈町字熊牛原野","next":[1111715,1111717,1111719,1111714,1111722],"voronoi":{"lat":43.323835,"lng":144.334105,"delta_lat":[0,234998,19765,2678,-262026],"delta_lng":[0,271900,65076,84007,-326048]}},
    {"code":1111719,"id":"0e2d09","name":"磯分内","name_kana":"いそぶんない","lat":43.379389,"lng":144.554322,"prefecture":1,"numbering":[{"symbol":"B","index":"62"}],"lines":[11117],"attr":"eco","postal_code":"088-2300","address":"川上郡標茶町字熊牛原野","next":[1111721,1111714,1111710,1111718,1111722,1111720],"voronoi":{"lat":43.587088,"lng":144.79543,"delta_lat":[0,-5811,-262026,-3373,-6045,252028],"delta_lng":[0,-40342,-326048,11833,96992,376874]}},
    {"code":1111720,"id":"9177db","name":"標茶","name_kana":"しべちゃ","lat":43.298472,"lng":144.608434,"prefecture":1,"numbering":[{"symbol":"B","index":"61"}],"lines":[11117],"attr":"eco","postal_code":"088-2314","address":"川上郡標茶町字標茶","next":[1110810,1110809,1110811,1111710,1110807,1111721,1111719,1110805],"voronoi":{"lat":43.252634,"lng":144.798704,"delta_lat":[0,166023,68181,72017,3006,-252028,-143205,90],"delta_lng":[0,102105,27496,20662,-34227,-376874,135974,6058]}},
    {"code":1111721,"id":"3a1a4c","name":"五十石","name_kana":"ごじっこく","closed":true,"lat":43.238771,"lng":144.545558,"prefecture":1,"numbering":[{"symbol":"B","index":"60"}],"lines":[11117],"attr":"unknown","postal_code":"088-2331","address":"川上郡標茶町オソツベツ原野","next":[1111719,1111722,1110805,1111720,1111723],"voronoi":{"lat":43.167057,"lng":144.571538,"delta_lat":[0,148821,-6045,-143205,-20866],"delta_lng":[0,-130664,96992,135974,-64277]}},
    {"code":1111722,"id":"bc8dad","name":"茅沼","name_kana":"かやぬま","lat":43.202097,"lng":144.503788,"prefecture":1,"numbering":[{"symbol":"B","index":"59"}],"lines":[11117],"attr":"eco","postal_code":"088-2265","address":"川上郡標茶町シラルトロエトロ","next":[1111721,1111717,1111723,1111718,1111719,1111725,1110728],"voronoi":{"lat":43.307785,"lng":144.21908,"delta_lat":[0,16051,-4585,-3373,-148821,22943,90328],"delta_lng":[0,115026,94935,11833,130664,-165736,-163670]}},
    {"code":1111723,"id":"38cd2a","name":"塘路","name_kana":"とうろ","lat":43.151739,"lng":144.496817,"prefecture":1,"numbering":[{"symbol":"B","index":"58"}],"lines":[11117],"attr":"eco","postal_code":"088-2261","address":"川上郡標茶町字塘路","next":[1110805,1111724,1111725,1111722,1111721],"voronoi":{"lat":43.167057,"lng":144.571538,"delta_lat":[0,22943,-42081,-58977,56820],"delta_lng":[0,-165736,43862,101470,58429]}},
    {"code":1111724,"id":"40cc00","name":"細岡","name_kana":"ほそおか","lat":43.105055,"lng":144.469683,"prefecture":1,"numbering":[{"symbol":"B","index":"57"}],"lines":[11117],"attr":"eco","postal_code":"088-2148","address":"釧路郡釧路町字鳥通牛原野","next":[1111723,1111725,1110805,1111726],"voronoi":{"lat":43.07646,"lng":144.464057,"delta_lat":[0,71458,-58977,-27012],"delta_lng":[0,-14393,101470,-13659]}},
    {"code":1111725,"id":"087f66","name":"釧路湿原","name_kana":"くしろしつげん","lat":43.100647,"lng":144.447799,"prefecture":1,"numbering":[{"symbol":"B","index":"56"}],"lines":[11117],"attr":"eco","postal_code":"088-2148","address":"釧路郡釧路町鳥通原野","next":[1110728,1110729,1110730,1111726,1111723,1111724,1110802,1111722],"voronoi":{"lat":43.280327,"lng":144.242132,"delta_lat":[0,-74959,-94307,-48681,-756,14836,71458,42081],"delta_lng":[0,39466,56509,49686,2184,74080,-14393,-43862]}},
    {"code":1111726,"id":"df4917","name":"遠矢","name_kana":"とおや","lat":43.047878,"lng":144.458367,"prefecture":1,"numbering":[{"symbol":"B","index":"55"}],"lines":[11117],"attr":"eco","postal_code":"088-2145","address":"釧路郡釧路町字遠矢","next":[1110803,1111725,1110802,1110805,1111724,1110804],"voronoi":{"lat":43.06193,"lng":144.537475,"delta_lat":[0,14531,-14836,-33670,-10512,18587],"delta_lng":[0,-73418,-74080,37684,18749,88545]}},
    {"code":1110802,"id":"f3c62d","name":"東釧路","name_kana":"ひがしくしろ","lat":42.995207,"lng":144.411307,"prefecture":1,"numbering":[{"symbol":"B","index":"54"}],"lines":[11108,11117],"attr":"eco","postal_code":"085-0816","address":"釧路市貝塚２丁目","next":[1110803,1111726,1111725,1110730,1110731],"voronoi":{"lat":43.027955,"lng":144.42766,"delta_lat":[0,33670,756,-7982,-116092],"delta_lng":[0,-37684,-2184,-844,18303]}},
    {"code":1110731,"id":"936c69","name":"釧路","name_kana":"くしろ","lat":42.990584,"lng":144.381983,"prefecture":1,"numbering":[{"symbol":"K","color":"#8CC63E","index":"53"}],"lines":[11107,11108,11117],"attr":"eco","postal_code":"085-0015","address":"釧路市北大通１４丁目","next":[1110727,1110725,1110728,1110722,1110730,1110803,1110729,1110726,1110720,1110802],"voronoi":{"lat":43.054398,"lng":144.386949,"delta_lat":[0,-269102,-15759,-79449,-82227,-121500,-201428,-196253,-209227,1058853],"delta_lng":[0,-94980,-3435,-13592,2475,6961,22726,49888,66737,-18477]}}
  ],
  "north":44.02048,
  "south":42.98805,
  "east":144.66845,
  "west":144.25296,
  "polyline_list":[
    {
      "start":"東釧路",
      "end":"網走",
      "lat":42.99519,
      "lng":144.41044,
      "delta_lat":[0,-18,-2,-11,-11,-8,11,17,20,32,41,87,89,71,27,41,132,194,25,69,58,183,65,47,35,114,101,62,84,63,27,107,132,192,144,89,62,80,158,101,81,89,24,24,49,59,57,21,65,33,45,39,19,19,26,31,28,31,38,26,86,110,55,82,125,24,25,28,39,32,60,40,28,41,121,111,22,233,244,179,66,223,52,23,26,25,26,21,29,30,28,23,25,110,49,18,7,141,240,236,89,164,125,23,23,20,19,16,20,35,40,60,57,8,40,35,21,18,22,22,18,20,37,90,289,94,6,38,61,154,43,24,23,45,42,30,97,94,35,28,26,25,26,33,3,20,27,16,17,22,14,19,28,26,17,14,14,6,74,106,95,56,27,28,34,19,16,9,24,26,27,25,30,41,75,99,88,108,45,35,54,26,57,133,66,59,80,24,24,19,23,21,18,18,29,15,15,17,12,10,7,3,0,-2,-3,-7,-11,-10,-9,-15,-29,-30,-40,-4,-15,-18,-29,-51,-48,-41,-19,-12,-6,-5,-3,0,1,5,5,7,19,15,17,20,28,19,27,37,59,123,65,20,60,104,41,18,19,31,20,9,14,25,23,23,24,16,24,24,20,68,123,147,143,73,4,20,24,23,27,22,25,24,9,19,28,25,32,19,17,18,14,15,14,15,10,9,8,9,10,16,16,17,7,8,11,15,13,14,20,37,43,61,137,41,36,42,40,48,41,44,43,22,17,16,10,25,31,31,23,38,31,35,81,22,19,21,19,21,23,84,64,57,64,109,71,8,50,23,25,71,67,17,16,18,22,27,27,40,31,25,82,29,34,40,28,23,19,22,24,23,20,32,17,18,21,20,22,33,35,49,49,52,25,47,31,28,6,29,27,16,22,22,17,16,13,20,9,14,13,8,10,14,4,4,5,4,1,-1,-4,-11,-18,-14,-8,-2,-3,0,1,4,4,4,25,17,32,17,19,14,19,12,97,26,27,29,12,20,19,14,5,11,14,6,16,34,74,337,21,74,51,28,14,15,13,14,10,8,17,14,10,10,10,12,11,6,4,2,0,-2,-7,-6,-11,-7,-7,-5,-2,2,4,9,13,11,14,18,17,17,26,26,5,27,18,21,18,56,63,55,44,44,60,51,22,38,63,60,41,45,51,34,26,111,165,26,34,21,26,24,23,23,39,56,87,87,89,87,76,23,113,73,31,31,39,62,31,56,28,20,28,84,67,46,77,61,45,52,38,36,69,36,18,21,33,45,106,67,24,19,28,23,25,82,219,61,68,144,28,15,20,32,22,14,13,13,10,10,17,18,1,19,14,20,20,25,22,26,46,76,44,12,10,7,8,10,37,29,19,22,24,23,23,21,23,31,32,1,58,79,30,17,18,16,14,20,62,77,66,82,62,30,74,70,82,44,33,12,9,9,7,11,14,26,26,18,14,19,19,19,15,29,18,7,47,153,184,164,79,55,3,26,32,22,25,14,13,17,42,46,36,13,23,18,25,27,31,40,54,140,57,99,1,73,40,23,21,20,18,21,22,34,29,44,130,167,39,171,148,75,174,69,158,170,95,18,16,80,22,31,24,25,29,40,38,48,67,81,64,87,71,2,67,67,64,76,84,84,95,76,7,83,94,84,73,91,70,27,33,31,36,11,388,362,5,413,71,80,19,21,29,31,108,438,96,81,143,365,437,48,154,43,37,34,40,579,270,36,37,61,33,32,33,55,292,30,22,384,79,61,244,154,33,100,116,61,185,177,88,96,97,181,411,111,228,358,117,23,29,139,109,50,80,74,26,17,16,19,148,17,187,182,172,55,139,218,119,136,106,48,335,217,31,104,132,24,3,9,29,15,22,33,54,80,366,32,241,69,132,111,30,21,22,26,34,68,87,7,329,436,8,66,159,212,154,36,35,77,18,24,51,101,14,70,184,73,42,33,28,26,135,131,79,80,93,72,43,39,20,58,141,75,115,102,76,150,102,56,38,26,2,28,59,330,211,192,50,133,226,94,24,27,24,16,20,18,37,49,78,98,101,225,83,21,26,12,26,34,55,80,56,29,37,35,48,78,4,38,18,18,14,18,28,21,9,9,9,250,358,18,570,93,23,16,20,39,21,17,22,22,16,14,22,20,33,30,55,70,57,26,34,23,21,9,7,6,12,42,19,22,11,11,4,7,38,26,26,104,44,47,79,192,162,142,79,71,63,94,26,68,110,88,47,31,24,43,46,33,28,30,31,33,198,20,194,167,74,258,188,171,285,79,60,37,25,59,171,80,74,80,51,55,31,47,50,27,40,156,187,28,38,36,76,198,115,92,40,20,17,15,30,32,60,37,21,8,21,53,104,363,347,66,174,159,91,94,55,96,11,53,47,48,49,52,35,32,55,25,23,42,24,77,86,80,7,36,24,21,19,20,29,27,25,51,69,25,27,19,18,17,16,16,15,17,15,18,24,24,28,25,21,30,75,11,73,85,51,27,32,50,43,24,23,71,54,58,53,39,16,18,21,78,20,25,28,26,42,34,114,234,389,340,551,64,133,31,20,30,30,38,276,103,61,18,23,37,27,11,41,22,19,22,18,32,37,28,30,31,32,39,59,41,18,29,18,34,36,24,19,19,16,12,59,49,151,36,306,77,34,20,21,24,26,24,12,16,39,40,47,38,32,24,17,36,23,21,29,73,137,97,171,49,32,19,32,30,69,47,7,23,17,4,2,1,0,-1,2,3,4,5,5,6,13,17,15,63,61,36,29,3,3,6,9,14,11,12,17,22,21,23,23,23,26,23,21,31,172,196,160,11,5,16,18,20,21,20,19,25,23,25,48,182,18,93,97,36,23,25,23,17,27,22,22,55,16,15,12,18,21,26,22,21,23,40,23,26,28,37,31,28,26,19,27,12,6,24,32,34,25,35,37,19,14,17,17,33,39,74,119,83,27,33,58,28,24,35,82,30,22,18,50,28,23,19,24,10,14,25,44,18,77,28,15,13,18,14,15,166,13,14,15,10,8,8,1,10,16,14,17,17,18,15,21,18,21,15,11,12,21,15,19,25,21,22,17,22,18,23,25,19,23,18,20,344,33,12,135,279,166,33,8,13,16,20,11,91,289,29,29,22,41,49,64,43,29,27,35,25,34,30,24,161,34,36,153,110,79,22,63,70,113,207,156,129,53,107,52,17,22,29,15,34,22,25,22,34,129,130,132,76,53,111,93,91,85,82,74,69,55,91,89,7,84,89,90,91,90,44,92,49,47,45,45,43,46,45,34,19,35,34,31,31,33,10,49,42,32,34,19,21,22,21,28,29,27,23,19,15,11,26,22,24,15,16,10,6,8,68,63,39,11,10,12,14,15,14,18,30,17,24,26,56,141,53,203,227,323,121,146,44,18,25,38,56,145,219,134,105,245,253,30,44,52,88,18,226,69,305,349,45,42,50,41,1,46,59,37,46,39,29,36,42,113,68,116,9,81,103,206,209,13,222,239,84,40,42,116,137,90,50,81,52,30,142,108,173,175,21,196,195,186,10,193,128,86,11,22,54,24,19,29,29,21,27,34,62,19,25,36,48,42,45,23,20,31,33,42,30,63,92,170,171,1,189,56,21,19,29,26,23,24,23,24,20,25,18,27,28,20,16,44,51,47,73,50,82,68,56,33,85,38,60,58,28,26,22,79,376,6,8,8,11,45,24,64,56,69,39,47,3,64,44,15,52,25,54,39,96,8,30,46,32,23,17,18,19,22,15,12,17,15,24,22,40,36,19,57,117,99,15,75,137,60,215,172,338,173,188,209,139,130,128,39,64,34,276,165,15,21,20,19,11,18,25,27,31,17,14,9,9,8,9,10,14,11,47,13,22,26,35,17,35,52,19,23,3,18,47,108,36,10,14,9,10,9,7,5,2,0,1,3,6,7,11,8,25,12,4,3,1,1,-2,-2,-2,-2,-5,-2,-4,-5,-5,0,-4,-2,-3,10,13,11,36,25,14,51,7,35,19,16,1,14,14,12,13,18,4,16,15,6,6,2,4,6,6,4,3,1,3,8,4,3,0,-2,-5,-6,-8,-9,-11,-15,-14,-17,-18,-23,-13,-4,-4,-3,-1,1,3,34,26,33,11,8,9,9,7,12,13,7,9,15,6,3,2,3,4,0,3,1,2,4,3,3,4,15,41,30,22,38,17,36,29,30,31,75,27,3,19,13,12,13,5,3,1,4,2,3,2,5,11,10,9,9,32,46,9,12,20,19,23,18,8,4,7,1,-2,-6,-8,-6,-10,-14,-10,-4,-5,-4,-2,0,0,1,0,4,10,16,15,9,11,2,5,7,10,29,40,34,9,26,7,5,5,7,4,7,4,10,20,14,8,12,8,9,8,10,3,16,7,11,43,60,43,43,31,24,15,12,11,9,7,4,10,4,2,-2,-3,-3,-1,4,7,8,7,7,15,16,23,27,29,10,19,32,20,14,11,9,6,4,1,2,0,1,3,5,14,27,28,30,18,13,12,20,33,19,20,32,29,23,16,16,20,10,10,18,18,21,35,41,29,19,34,63,43,12,47,42,49,23,28,55,18,69,109,79,41,49,79,39,36,37,29,30,18,11,6,4,20,7,22,11,7,5,4,5,6,11,8,7,9,29,28,17,16,40,48,46,18,29,23,33,34,49,31,13,34,37,25,6,27,39,23,21,12,32,13,21,13,19,32,40,7,10,21,16,23,42,36,17,10,12,9,9,11,14,16,25,9,8,10,12,16,12,10,11,10,9,7,6,6,18,42,24,28,32,31,9,28,18,24,15,34,14,34,52,36,41,20,30,29,22,32,21,16,19,46,37,36,33,39,41,43,40,18,18,23,22,33,16,43,57,23,20,28,14,12,15,30,16,34,21,21,23,15,14,23,20,60,7,17,30,34,45,91,47,63,30,15,20,18,23,18,21,22,23,27,26,23,40,21,32,27,35,28,28,24,22,14,12,14,13,14,16,21,16,25,27,26,29,37,43,36,24,22,5,37,16,26,15,12,17,22,20,18,23,22,25,47,24,17,22,20,33,23,44,37,44,24,17,18,16,29,23,18,28,10,11,13,21,11,9,12,25,10,12,17,16,11,30,24,20,19,16,14,19,15,12,17,12,16,15,24,75,25,16,8,8,18,16,10,9,12,2,10,24,15,21,22,26,28,29,83,34,8,25,16,9,7,8,29,42,17,38,20,31,16,66,5,12,56,70,58,13,8,12,12,13,17,6,7,12,7,3,1,1,-3,-5,-2,-3,-2,-1,1,4,5,5,11,9,8,10,13,17,48,5,6,4,5,5,8,16,5,5,5,5,4,5,4,3,3,3,1,2,1,0,-1,-2,-3,-5,-8,-9,-10,-37],
      "delta_lng":[0,187,10,107,107,69,87,77,58,55,55,95,81,65,24,38,126,185,24,66,55,172,60,42,28,91,79,49,65,49,21,90,121,173,133,83,58,75,143,96,76,92,23,21,40,49,49,17,57,28,42,35,17,19,28,35,34,40,45,32,105,134,66,101,146,28,26,24,28,22,31,15,7,4,8,7,1,18,17,12,7,20,4,1,-1,-4,-4,-8,-12,-18,-18,-18,-23,-107,-47,-16,-6,-141,-233,-230,-86,-158,-123,-25,-25,-26,-23,-28,-32,-66,-72,-105,-104,-13,-73,-58,-32,-25,-29,-22,-17,-18,-27,-68,-216,-68,-4,-30,-47,-116,-33,-15,-12,-23,-16,-10,-26,-24,-6,-2,2,4,10,19,3,16,26,24,28,38,34,49,77,85,60,39,34,13,157,225,198,113,47,39,42,22,15,8,18,19,16,14,12,13,26,38,31,39,15,10,14,3,6,8,5,4,4,4,6,7,13,12,16,19,34,24,25,37,33,39,35,42,42,36,29,32,40,25,19,27,55,62,76,7,30,40,71,119,114,98,52,41,29,38,50,40,33,40,26,22,54,37,31,33,36,21,26,34,52,111,58,16,56,94,36,13,10,12,6,2,1,1,-1,-5,-8,-7,-16,-18,-17,-63,-112,-136,-130,-66,-4,-17,-16,-13,-12,-5,-4,1,1,3,8,10,20,14,16,20,18,22,24,31,30,38,40,54,69,106,128,119,24,24,26,27,18,17,19,35,36,45,106,35,32,40,45,54,51,59,57,23,16,13,7,12,9,6,2,0,-3,-8,-19,-4,0,1,4,8,13,50,41,32,41,63,41,5,29,17,21,60,59,12,8,5,4,1,0,-1,-2,-3,-3,-4,-6,-11,-10,-11,-14,-20,-27,-25,-24,-41,-17,-16,-16,-11,-9,-12,-10,-12,-8,-5,2,5,7,9,2,11,12,11,21,23,18,24,27,43,29,60,62,56,79,106,30,28,47,49,38,26,29,56,85,62,41,25,42,39,36,37,36,21,111,45,72,35,31,19,20,10,65,17,12,10,4,4,1,0,0,-3,-1,-2,-9,-22,-49,-230,-14,-59,-45,-28,-15,-13,-14,-16,-14,-11,-23,-26,-18,-21,-26,-35,-36,-34,-21,-33,-54,-48,-59,-45,-59,-44,-42,-43,-32,-32,-27,-40,-46,-32,-33,-31,-25,-19,-25,-20,-3,-16,-8,-7,-2,-3,-4,-4,-3,-2,1,-4,-4,-1,-1,1,4,6,8,7,7,32,48,6,11,7,12,12,14,16,32,45,74,71,73,72,62,18,93,63,29,35,48,83,39,66,27,18,19,59,48,32,55,42,23,23,13,12,23,13,10,12,24,35,82,51,20,13,18,13,11,35,96,24,30,63,13,9,16,34,26,18,20,27,22,27,54,56,2,62,34,32,28,31,22,22,31,54,32,12,9,8,14,18,66,54,30,31,30,24,21,17,12,17,17,1,27,38,16,13,16,18,19,31,95,125,109,128,82,41,101,94,110,59,45,21,17,18,16,24,36,66,63,43,24,32,28,22,18,30,18,7,40,136,162,147,72,54,3,26,36,28,35,22,27,30,84,92,69,19,29,20,24,22,23,27,34,89,38,66,1,48,28,16,14,20,19,27,28,45,43,62,179,232,55,236,199,103,225,91,194,188,107,22,24,131,36,51,36,37,39,53,50,63,86,107,86,114,94,2,86,88,81,101,110,107,124,100,8,107,122,111,95,121,96,29,34,30,32,9,312,289,4,337,58,62,13,12,18,17,48,192,43,36,61,160,189,21,67,12,4,2,-3,-76,-35,-7,-9,-18,-11,-14,-18,-31,-186,-19,-14,-242,-53,-42,-236,-147,-33,-98,-114,-61,-180,-176,-87,-94,-96,-178,-408,-109,-222,-355,-115,-22,-28,-137,-107,-49,-81,-72,-27,-18,-19,-23,-194,-22,-245,-245,-227,-73,-184,-291,-156,-183,-141,-61,-443,-290,-39,-137,-175,-29,-3,-11,-34,-13,-13,-17,-23,-29,-122,-12,-83,-25,-44,-37,-11,-11,-11,-17,-24,-50,-65,-5,-247,-320,-6,-50,-117,-157,-114,-27,-29,-69,-18,-23,-55,-116,-15,-78,-192,-78,-48,-36,-25,-20,-91,-87,-53,-55,-64,-45,-26,-28,-16,-50,-127,-69,-103,-90,-67,-134,-85,-49,-21,-12,-2,-10,-19,-106,-67,-61,-16,-41,-74,-29,-9,-13,-14,-13,-21,-25,-57,-82,-141,-179,-182,-409,-146,-39,-44,-19,-39,-42,-64,-99,-68,-41,-57,-63,-107,-187,-7,-81,-36,-28,-18,-18,-25,-14,-5,-4,-3,-42,-56,-1,-81,-21,-8,-8,-15,-31,-21,-21,-32,-36,-30,-35,-68,-69,-134,-126,-224,-288,-238,-115,-142,-94,-88,-39,-28,-23,-34,-108,-39,-42,-23,-18,-6,-9,-51,-33,-26,-102,-39,-42,-71,-176,-148,-129,-71,-65,-57,-88,-24,-62,-102,-78,-39,-21,-15,-22,-20,-12,-9,-8,-3,-4,-9,0,-8,-6,-3,-12,-7,-7,-13,-3,-8,-8,-6,-23,-75,-35,-34,-36,-22,-20,-10,-10,-8,-3,-1,5,7,1,2,3,12,38,22,15,9,7,8,11,24,25,45,23,9,4,8,14,21,77,71,13,36,33,18,21,11,20,2,9,12,15,18,25,19,19,40,20,20,48,28,97,118,106,9,46,29,21,17,13,18,12,8,12,18,7,12,15,17,16,18,25,23,28,18,18,21,20,17,13,9,10,23,3,23,27,14,11,13,24,23,14,15,56,39,37,34,19,7,7,5,11,5,5,6,4,5,5,21,44,75,65,103,13,23,3,0,-3,-3,-7,-59,-23,-13,-3,-1,-1,1,0,1,3,3,4,7,8,11,11,12,13,18,24,42,33,17,27,18,40,46,31,29,30,23,22,102,89,281,68,564,139,56,31,22,19,17,14,3,4,7,6,2,2,6,8,9,21,18,23,36,112,225,160,281,84,56,40,77,86,197,134,21,80,67,28,58,186,20,18,27,26,34,34,26,33,53,61,56,224,218,127,108,12,11,18,18,25,18,18,21,22,19,16,14,10,9,5,4,2,12,16,11,3,1,3,4,6,9,10,12,18,18,23,43,162,16,81,87,30,22,30,28,27,45,41,45,107,28,23,18,25,22,23,17,11,12,15,6,3,0,-3,-7,-10,-11,-14,-21,-14,-6,-32,-46,-57,-51,-81,-79,-34,-22,-24,-19,-33,-34,-57,-94,-66,-19,-18,-19,-6,-1,0,7,0,-2,-5,-14,-13,-4,-1,1,2,2,6,16,6,39,13,5,3,2,3,1,14,2,6,7,7,5,7,1,10,17,17,19,17,16,11,13,7,8,6,2,1,0,0,0,-4,-5,-6,-6,-9,-7,-9,-8,-3,-3,-3,-1,-1,0,0,-16,-32,-21,0,3,4,6,10,6,63,200,19,17,10,15,12,2,-2,-5,-6,-10,-9,-14,-16,-11,-89,-19,-18,-82,-60,-47,-16,-45,-57,-100,-184,-138,-113,-48,-96,-46,-13,-11,-9,-4,-8,-2,0,1,3,9,10,9,5,3,9,6,6,7,6,6,4,3,7,6,0,7,6,7,7,5,3,6,5,3,3,4,2,3,4,9,7,18,20,23,27,33,9,51,47,37,35,16,15,14,13,16,13,11,9,9,10,8,27,27,34,25,28,20,16,17,149,153,105,33,23,22,20,21,17,19,26,14,13,13,19,43,17,64,70,102,37,46,14,7,12,21,33,89,132,81,64,149,151,15,21,24,43,9,108,32,146,167,23,24,30,29,1,32,50,32,46,45,34,50,57,158,96,160,12,111,143,285,288,18,308,333,115,56,59,159,191,123,72,110,75,41,194,152,240,243,28,274,270,258,12,269,178,118,16,29,71,29,22,28,25,19,20,26,42,9,12,15,18,11,10,6,3,4,1,0,-1,-7,-9,-17,-16,-1,-18,-4,-1,1,3,3,8,8,11,13,13,21,19,36,45,39,40,114,134,126,195,135,221,186,145,89,228,99,161,159,74,68,60,210,1007,18,19,26,45,183,86,251,211,261,152,179,12,256,168,59,203,83,152,102,275,23,79,119,80,59,42,43,38,40,23,18,17,15,22,17,23,14,5,9,12,11,2,8,16,6,25,19,38,20,21,25,15,15,12,5,8,3,32,16,2,1,0,-2,-2,-6,-11,-17,-22,-14,-14,-9,-14,-14,-16,-18,-27,-30,-159,-49,-90,-95,-144,-69,-139,-203,-76,-90,-11,-72,-184,-426,-160,-32,-61,-47,-51,-87,-65,-86,-130,-35,-35,-30,-32,-28,-49,-28,-92,-44,-21,-19,-18,-22,-36,-71,-104,-106,-191,-111,-191,-188,-189,-28,-156,-85,-95,-154,-203,-164,-557,-383,-220,-775,-111,-547,-299,-241,-17,-225,-215,-195,-190,-280,-81,-239,-215,-100,-80,-29,-65,-81,-78,-56,-48,-39,-47,-101,-85,-59,-38,-54,-60,-65,-75,-51,-48,-48,-43,-57,-47,-62,-39,-18,-30,-41,-39,-28,-35,-292,-230,-275,-80,-37,-32,-29,-22,-29,-32,-25,-33,-66,-36,-35,-24,-251,-342,-7,-215,-91,-102,-86,-55,-33,-25,-96,-229,-164,-130,-210,-96,-197,-164,-148,-117,-261,-82,-10,-60,-44,-44,-57,-24,-24,-29,-153,-83,-63,-33,-36,-63,-40,-33,-29,-86,-125,-28,-37,-67,-75,-113,-86,-55,-24,-70,-90,-35,-40,-41,-23,-34,-52,-34,-28,-35,-37,-43,-36,-2,-53,-17,-35,-72,-135,-125,-69,-98,-23,-21,-22,-31,-96,-133,-110,-33,-85,-31,-22,-30,-50,-39,-58,-32,-74,-153,-121,-66,-90,-72,-73,-45,-46,-14,-63,-27,-28,-124,-173,-120,-123,-92,-67,-47,-32,-28,-26,-31,-31,-90,-76,-121,-178,-90,-76,-50,-63,-80,-50,-31,-29,-39,-34,-42,-56,-59,-24,-58,-116,-80,-63,-66,-50,-47,-33,-23,-23,-36,-28,-21,-25,-50,-91,-102,-108,-62,-51,-67,-113,-185,-108,-114,-177,-167,-137,-88,-95,-117,-56,-49,-83,-83,-89,-142,-163,-117,-83,-132,-249,-173,-50,-193,-162,-204,-87,-106,-192,-62,-245,-378,-280,-143,-170,-276,-138,-126,-133,-96,-107,-73,-47,-30,-23,-119,-53,-135,-66,-44,-28,-26,-24,-23,-36,-23,-20,-22,-65,-61,-40,-33,-94,-107,-99,-40,-67,-61,-100,-100,-154,-85,-40,-104,-107,-76,-17,-78,-112,-68,-62,-39,-95,-41,-66,-39,-51,-98,-124,-23,-28,-58,-41,-61,-110,-93,-43,-28,-44,-28,-39,-55,-63,-83,-121,-43,-40,-48,-64,-87,-67,-61,-61,-50,-46,-33,-20,-23,-48,-111,-64,-77,-84,-80,-22,-65,-40,-49,-27,-60,-23,-45,-59,-39,-45,-22,-33,-32,-25,-42,-30,-24,-30,-82,-66,-67,-61,-73,-79,-92,-85,-41,-38,-49,-45,-70,-35,-90,-123,-47,-42,-57,-25,-17,-21,-43,-21,-47,-27,-27,-29,-18,-16,-23,-18,-43,-5,-12,-18,-17,-20,-40,-20,-25,-13,-5,-4,-3,-1,0,3,5,6,13,11,12,27,15,26,24,31,23,16,14,8,3,1,1,-1,-2,-3,-6,-7,-17,-19,-21,-32,-42,-48,-41,-26,-31,-6,-55,-25,-37,-21,-14,-16,-20,-13,-11,-9,-8,-7,-10,-8,-4,-10,-13,-26,-19,-37,-31,-36,-21,-16,-21,-20,-45,-36,-32,-46,-16,-10,-14,-22,-8,-6,-9,-15,-6,-4,-5,-4,-2,-3,-3,-2,-1,-4,-5,-7,-9,-8,-16,-11,-18,-20,-31,-102,-33,-26,-14,-22,-49,-45,-26,-19,-22,-2,-16,-27,-13,-14,-13,-13,-15,-15,-44,-17,-5,-17,-13,-6,-6,-10,-45,-65,-29,-65,-36,-49,-29,-94,-5,-10,-35,-47,-47,-14,-9,-17,-15,-20,-32,-14,-21,-41,-36,-22,-25,-44,-65,-106,-55,-67,-38,-81,-30,-59,-27,-30,-44,-27,-22,-21,-26,-29,-86,-9,-10,-8,-8,-7,-14,-28,-11,-12,-12,-11,-15,-17,-17,-20,-18,-20,-15,-26,-32,-12,-19,-21,-25,-39,-49,-95,-67,-244]
    },
    {
      "start":"釧路",
      "end":"東釧路",
      "lat":42.99107,
      "lng":144.38045,
      "delta_lat":[0,-100,-39,-41,-12,-29,-19,-41,-11,-6,-4,0,8,3,11,30,30,7,17,9,23,11,22,40,42,35,56,34,58,66,50,20,33,41,22,21,19,13,14,10,4,-2,-6,-11,-16],
      "delta_lng":[0,317,145,150,43,102,66,148,38,31,28,29,89,20,82,211,213,48,74,30,53,18,31,43,38,26,33,18,30,35,30,14,28,45,30,38,40,36,47,50,46,70,82,99,155]
    }
  ]
}