{
  "code":11112,
  "name":"JR札沼線",
  "color":"#00A54F",
  "station_list":[
    {"code":1110315,"id":"7a3b57","name":"札幌","name_kana":"さっぽろ","lat":43.068612,"lng":141.350768,"prefecture":1,"numbering":[{"index":"01"}],"lines":[11103,11109,11112],"attr":"eco","postal_code":"060-0806","address":"札幌市北区北６条西４丁目"},
    {"code":1110314,"id":"f18414","name":"桑園","name_kana":"そうえん","lat":43.070744,"lng":141.332036,"prefecture":1,"numbering":[{"symbol":"S","color":"#ED1C23","index":"02"}],"lines":[11103,11112],"attr":"eco","postal_code":"060-0011","address":"札幌市中央区北１１条西１５丁目"},
    {"code":1111203,"id":"521fad","name":"八軒","name_kana":"はちけん","lat":43.085845,"lng":141.319145,"prefecture":1,"numbering":[{"symbol":"G","index":"03"}],"lines":[11112],"attr":"cool","postal_code":"063-0866","address":"札幌市西区八軒６条東２丁目"},
    {"code":1111204,"id":"1ed283","name":"新川(北海道)","name_kana":"しんかわ","lat":43.098604,"lng":141.323824,"prefecture":1,"numbering":[{"symbol":"G","index":"04"}],"lines":[11112],"attr":"cool","postal_code":"001-0924","address":"札幌市北区新川四条１丁目"},
    {"code":1111205,"id":"54ddac","name":"新琴似","name_kana":"しんことに","lat":43.112928,"lng":141.335105,"prefecture":1,"numbering":[{"symbol":"G","index":"05"}],"lines":[11112],"attr":"cool","postal_code":"001-0908","address":"札幌市北区新琴似８条１丁目"},
    {"code":1111206,"id":"389d39","name":"太平","name_kana":"たいへい","lat":43.12401,"lng":141.349526,"prefecture":1,"numbering":[{"symbol":"G","index":"06"}],"lines":[11112],"attr":"cool","postal_code":"002-8002","address":"札幌市北区太平２条５丁目"},
    {"code":1111207,"id":"183762","name":"百合が原","name_kana":"ゆりがはら","lat":43.131476,"lng":141.360672,"prefecture":1,"numbering":[{"symbol":"G","index":"07"}],"lines":[11112],"attr":"cool","postal_code":"002-8051","address":"札幌市北区篠路町太平中央"},
    {"code":1111208,"id":"f70edf","name":"篠路","name_kana":"しのろ","lat":43.145152,"lng":141.364323,"prefecture":1,"numbering":[{"symbol":"G","index":"08"}],"lines":[11112],"attr":"cool","postal_code":"002-8024","address":"札幌市北区篠路４条７丁目"},
    {"code":1111209,"id":"6648b8","name":"拓北","name_kana":"たくほく","lat":43.155568,"lng":141.381013,"prefecture":1,"numbering":[{"symbol":"G","index":"09"}],"lines":[11112],"attr":"eco","postal_code":"002-8066","address":"札幌市北区拓北６条３丁目"},
    {"code":1111210,"id":"6494eb","name":"あいの里教育大","name_kana":"あいのさときょういくだい","lat":43.15528,"lng":141.39842,"prefecture":1,"numbering":[{"symbol":"G","index":"10"}],"lines":[11112],"attr":"eco","postal_code":"002-8071","address":"札幌市北区あいの里１条５丁目"},
    {"code":1111211,"id":"a4fe06","name":"あいの里公園","name_kana":"あいのさとこうえん","lat":43.161206,"lng":141.413276,"prefecture":1,"numbering":[{"symbol":"G","index":"11"}],"lines":[11112],"attr":"eco","postal_code":"002-8072","address":"札幌市北区あいの里２条８丁目"},
    {"code":1111212,"id":"a4b573","name":"石狩太美","name_kana":"いしかりふとみ","lat":43.189801,"lng":141.449066,"prefecture":1,"numbering":[{"symbol":"G","index":"12"}],"lines":[11112],"attr":"eco","postal_code":"061-3776","address":"石狩郡当別町太美町"},
    {"code":1111213,"id":"b8a35e","name":"石狩当別","name_kana":"いしかりとうべつ","lat":43.22208,"lng":141.513764,"prefecture":1,"numbering":[{"symbol":"G","index":"13"}],"lines":[11112],"attr":"eco","postal_code":"061-0226","address":"石狩郡当別町字錦町"},
    {"code":1111214,"id":"4fc451","name":"北海道医療大学","name_kana":"ほっかいどういりょうだいがく","lat":43.230925,"lng":141.54995,"prefecture":1,"numbering":[{"symbol":"G","index":"14"}],"lines":[11112],"attr":"eco","postal_code":"061-0212","address":"石狩郡当別町字金沢"},
    {"code":1111215,"id":"eb03b7","name":"石狩金沢","name_kana":"いしかりかなざわ","lat":43.245385,"lng":141.569239,"prefecture":1,"lines":[11112],"attr":"eco","postal_code":"061-0212","address":"石狩郡当別町字金沢"},
    {"code":1111216,"id":"1a6c34","name":"本中小屋","name_kana":"もとなかごや","lat":43.28019,"lng":141.591661,"prefecture":1,"lines":[11112],"attr":"heat","postal_code":"061-0211","address":"石狩郡当別町字中小屋"},
    {"code":1111217,"id":"b3f8fb","name":"中小屋","name_kana":"なかごや","lat":43.306846,"lng":141.602341,"prefecture":1,"lines":[11112],"attr":"heat","postal_code":"061-0211","address":"石狩郡当別町字中小屋"},
    {"code":1111218,"id":"1421d5","name":"月ヶ岡","name_kana":"つきがおか","lat":43.324867,"lng":141.61807,"prefecture":1,"lines":[11112],"attr":"heat","postal_code":"061-0500","address":"北海道樺戸郡月形町字月ヶ岡"},
    {"code":1111219,"id":"7c126b","name":"知来乙","name_kana":"ちらいおつ","lat":43.331545,"lng":141.649123,"prefecture":1,"lines":[11112],"attr":"heat","postal_code":"061-0516","address":"樺戸郡月形町字知来乙"},
    {"code":1111220,"id":"041c94","name":"石狩月形","name_kana":"いしかりつきがた","lat":43.340869,"lng":141.670193,"prefecture":1,"lines":[11112],"attr":"heat","postal_code":"061-0518","address":"樺戸郡月形町赤川"},
    {"code":1111221,"id":"3777f9","name":"豊ヶ岡","name_kana":"とよがおか","lat":43.366645,"lng":141.714026,"prefecture":1,"lines":[11112],"attr":"heat","postal_code":"061-0500","address":"北海道樺戸郡月形町字豊ケ丘"},
    {"code":1111222,"id":"e042e9","name":"札比内","name_kana":"さっぴない","lat":43.370926,"lng":141.742762,"prefecture":1,"lines":[11112],"attr":"heat","postal_code":"061-0505","address":"樺戸郡月形町字札比内"},
    {"code":1111223,"id":"6f913f","name":"晩生内","name_kana":"おそきない","lat":43.399921,"lng":141.779211,"prefecture":1,"lines":[11112],"attr":"heat","postal_code":"061-0622","address":"樺戸郡浦臼町字晩生内第２"},
    {"code":1111224,"id":"b32344","name":"札的","name_kana":"さってき","lat":43.419153,"lng":141.803549,"prefecture":1,"lines":[11112],"attr":"heat","postal_code":"061-0600","address":"樺戸郡浦臼町字浦臼内"},
    {"code":1111225,"id":"187669","name":"浦臼","name_kana":"うらうす","lat":43.430964,"lng":141.817376,"prefecture":1,"lines":[11112],"attr":"heat","postal_code":"061-0600","address":"樺戸郡浦臼町字浦臼内"},
    {"code":1111226,"id":"bcff26","name":"鶴沼","name_kana":"つるぬま","lat":43.457673,"lng":141.840637,"prefecture":1,"lines":[11112],"attr":"heat","postal_code":"061-0600","address":"樺戸郡浦臼町字於礼内"},
    {"code":1111227,"id":"cfb539","name":"於札内","name_kana":"おさつない","lat":43.473424,"lng":141.840102,"prefecture":1,"lines":[11112],"attr":"heat","postal_code":"061-0600","address":"樺戸郡浦臼町字オサツナイ"},
    {"code":1111228,"id":"e96bea","name":"南下徳富","name_kana":"みなみしもとっぷ","lat":43.485542,"lng":141.844454,"prefecture":1,"lines":[11112],"attr":"heat","postal_code":"073-1105","address":"樺戸郡新十津川町字花月"},
    {"code":1111229,"id":"0270d6","name":"下徳富","name_kana":"しもとっぷ","lat":43.50271,"lng":141.855574,"prefecture":1,"lines":[11112],"attr":"heat","postal_code":"073-1105","address":"樺戸郡新十津川町字花月"},
    {"code":1111230,"id":"77dc55","name":"新十津川","name_kana":"しんとつかわ","lat":43.545575,"lng":141.874172,"prefecture":1,"lines":[11112],"attr":"heat","postal_code":"073-1103","address":"樺戸郡新十津川町字中央"}
  ],
  "north":43.5479,
  "south":43.06706,
  "east":141.87459,
  "west":141.3184,
  "polyline_list":[
    {
      "start":"桑園",
      "end":"札幌",
      "lat":43.07034,
      "lng":141.33285,
      "delta_lat":[0,-77,-23,-81,-81,-19,-15,-6,-8,-11,-7,0,1,3,11,17,4,16,13,13,25,14,35,4,8,9,8],
      "delta_lng":[0,179,52,189,205,52,47,32,34,75,79,52,61,32,86,101,24,81,66,46,89,83,270,25,56,92,105]
    },
    {
      "start":"桑園",
      "end":"新十津川",
      "lat":43.07034,
      "lng":141.33285,
      "delta_lat":[0,16,54,12,35,27,41,132,132,27,23,18,26,34,31,14,13,28,39,810,12,19,109,47,287,48,31,31,28,37,22,24,28,7,341,203,75,181,144,139,88,29,124,179,124,123,96,112,141,93,41,39,44,171,193,98,61,26,17,22,24,15,20,13,124,33,59,31,16,46,16,17,20,26,25,26,31,32,23,43,42,44,51,27,93,126,43,120,99,121,23,100,233,130,211,185,80,39,178,36,23,29,14,54,48,32,64,14,33,119,39,20,60,107,17,24,19,21,9,5,3,0,-1,-3,-1,-11,-4,-5,-5,-12,-3,-5,-5,0,1,3,2,3,8,7,9,9,11,11,12,20,55,126,27,105,126,110,68,457,98,101,41,15,97,353,508,125,111,216,216,91,114,204,51,213,164,75,38,35,39,36,2,78,132,99,30,43,143,247,82,145,188,142,164,206,104,15,70,73,189,31,50,58,18,6,27,44,12,56,56,69,48,79,46,10,8,59,24,51,46,59,16,24,36,28,28,20,42,19,20,8,16,35,16,21,11,13,16,15,34,15,30,29,23,81,126,155,139,111,274,167,169,160,50,221,139,45,110,14,90,40,17,26,45,47,11,21,101,38,17,19,13,25,44,59,94,33,55,57,43,32,55,32,97,20,58,144,33,29,29,28,35,29,83,23,35,45,24,79,110,29,14,73,22,75,3,70,79,25,20,27,38,32,43,13,93,90,24,158,16,22,77,203,108,65,75,38,31,35,23,83,66,33,62,143,175,107,143,210,50,44,38,46,14,24,47,253,10,109,39,25,14,21,38,23,65,44,50,33,81,180,87,96,93,203,21,40,28,30,25,24,11,21,5,22,21,8,21,2,25,69,61,50,12,15,25,20,11,19,8,7,9,23,24,13,14,25,74,31,48,22,69,25,19,15,76,38,92,26,13,24,12,30,49,57,49,93,100,72,20,17,58,11,13,16,53,23,38,27,28,17,24,41,66,62,67,53,27,19,28,76,150,56,97,126,110,103,140,81,22,24,24,38,62,76,54,61,44,54,30,34,18,32,29,28,30,56,59,64,51,44,20,20,20,48,87,28,96,159,105,87,23,20,25,34,172,30,45,70,83,55,62,20,9,4,2,-1,-17,-42,-33,-36,-37,-31,-7,2,12,17,19,15,23,86,21,47,44,229,29,25,124,74,76,429,46,32,132,258,21,26,24,163,25,20,365,220,26,43,176,18,203,48,20,65,576,111,22,56,66,44,66,17,40,69,37,186,181,25,42,162,12,74,21,21,34,19,13,90,485,246,50,27,55,44,31,100,75,123,24,134,19,41,244,148,163,16,262,132,284,223,149,515,91,45,69,88,59,64,73,44,35,59,34,53,157,397,444,63,120,64,70,83,56,68,73,59,54,38,11,150,199,100,65,400,253,123,27,229,32,122,59,60,49,167,119,14,37,32,202,250,248,254,248,250,246,256,51,58,137,253,498,250,31,108,422,123,77,65,45,56,100,12,65,175],
      "delta_lng":[0,-38,-121,-27,-87,-60,-95,-309,-306,-35,-22,-18,-20,-21,-17,-7,-6,-9,-9,-149,-3,-3,-15,-11,-52,-5,0,4,6,13,11,14,19,5,271,160,61,145,111,108,70,23,94,144,97,99,77,89,106,74,34,31,35,135,152,78,50,26,25,33,39,42,63,45,436,122,215,108,56,159,58,56,52,52,42,40,39,36,19,33,27,21,18,8,26,33,11,30,25,32,5,26,63,33,54,50,20,11,52,13,9,17,8,41,44,33,88,24,58,198,66,35,103,188,38,62,65,85,40,28,28,27,132,115,132,458,200,230,220,497,194,204,188,23,23,21,24,21,31,27,28,25,26,23,23,28,70,158,32,132,156,134,86,560,122,125,48,19,126,447,636,155,137,266,272,111,142,252,64,267,197,101,53,54,76,68,4,148,263,196,63,82,282,498,163,286,376,281,325,413,205,29,124,136,389,65,104,123,44,18,89,144,40,191,208,247,178,302,182,36,28,233,95,201,202,264,74,120,174,134,129,95,195,92,95,40,76,163,77,96,54,54,53,47,92,39,61,47,34,108,166,205,186,149,369,222,226,214,64,259,159,52,122,17,103,45,20,29,53,55,14,24,117,37,16,15,10,18,34,44,70,28,53,66,50,39,63,40,95,17,52,127,28,17,14,8,3,2,-3,-1,-2,-3,-2,-6,-6,-4,-3,-24,-9,-24,-3,-23,-27,-4,0,3,12,13,24,8,57,57,15,99,11,12,48,130,70,40,49,23,18,19,12,33,21,12,19,45,55,34,46,64,17,18,16,20,9,15,30,187,9,79,26,12,6,3,1,-5,-25,-17,-18,-14,-30,-67,-33,-25,-32,-70,-5,-4,2,6,9,13,10,15,5,19,20,11,27,2,39,109,93,79,19,32,67,60,41,72,30,21,26,49,48,25,26,52,148,62,96,47,140,49,37,30,150,71,186,65,36,62,54,168,266,313,279,518,560,398,117,92,313,44,26,25,58,28,43,33,39,35,57,137,221,197,212,169,76,42,41,81,155,55,97,141,119,108,142,83,26,36,44,111,190,246,170,185,139,165,92,95,39,48,32,26,22,34,37,38,44,45,25,33,37,96,167,54,159,246,164,133,39,35,50,86,445,76,116,181,207,142,156,66,45,42,44,45,109,233,178,211,215,156,76,79,85,67,56,34,44,122,30,63,62,321,43,31,179,113,95,495,47,29,97,198,19,31,31,268,42,33,597,364,35,54,187,18,224,38,12,42,366,78,15,49,71,58,82,21,61,114,67,318,327,45,89,345,27,141,33,32,41,27,17,107,614,313,63,30,53,36,25,84,63,99,20,109,15,34,198,115,131,12,212,118,269,207,138,489,86,36,41,43,23,18,13,5,6,3,-1,-3,-31,-73,-76,-14,-26,-3,0,6,9,20,22,25,26,21,7,104,144,71,45,281,176,85,20,162,22,82,41,35,27,82,57,7,16,13,94,121,116,122,118,122,116,122,25,28,66,120,239,120,16,56,204,51,16,8,-1,-8,-22,-4,-13,-41]
    }
  ]
}