{
  "code":11120,
  "id":"7f2986",
  "name":"JR歌志内線",
  "name_kana":"じぇいあーるうたしないせん",
  "name_formal":"JR歌志内線",
  "station_size":7,
  "company_code":1,
  "closed":true,
  "station_list":[
    {"code":1110335,"id":"cbc4f3","name":"砂川","name_kana":"すながわ","lat":43.493468,"lng":141.909642,"prefecture":1,"lines":[11103,11120],"attr":"eco","postal_code":"073-0152","address":"砂川市東２条北２丁目","next":[1112002,1111229,1110340,1111230,1110336,1110334],"voronoi":{"lat":43.486139,"lng":141.880565,"delta_lat":[0,29041,8072,3199,-50472,-3454],"delta_lng":[0,4964,11859,22380,7936,-899]},"impl":true},
    {"code":1112002,"id":"6ed520","name":"焼山","name_kana":"やけやま","closed":true,"lat":43.498167,"lng":141.939528,"prefecture":1,"lines":[11120],"postal_code":"073-0115","address":"北海道砂川市焼山３４６","open_date":"1961-12-25","closed_date":"1988-04-25","next":[1112003,1110336,1110337,1110335,1112004,1110340,1110602],"voronoi":{"lat":43.543873,"lng":141.945463,"delta_lat":[0,-17421,-50472,23321,11475,19794,1335],"delta_lng":[0,-25694,7936,29399,7864,2798,-37]},"impl":false},
    {"code":1112003,"id":"7424a7","name":"文珠","name_kana":"もんじゅ","closed":true,"lat":43.491611,"lng":141.985917,"prefecture":1,"lines":[11120],"postal_code":"073-0407","address":"北海道歌志内市字文珠１９９−５２","open_date":"1946-11-01","closed_date":"1988-04-25","next":[1110338,1112002,1110337,1112004,1110339],"voronoi":{"lat":43.53057,"lng":141.967765,"delta_lat":[0,-19794,-10823,-15477,4392],"delta_lng":[0,-2798,4191,15477,11881]},"impl":false},
    {"code":1112004,"id":"858606","name":"西歌","name_kana":"にしうた","closed":true,"lat":43.49975,"lng":141.997722,"prefecture":1,"lines":[11120],"postal_code":"073-0407","address":"北海道歌志内市字文珠２５３−２３","open_date":"1961-02-10","closed_date":"1988-04-25","next":[1112005,1112003,1110339,1112002,1110602,1112006],"voronoi":{"lat":43.481139,"lng":142.017059,"delta_lat":[0,7728,41702,1335,6649,-6626],"delta_lng":[0,-20542,-28751,-37,28369,3973]},"impl":false},
    {"code":1112005,"id":"32385f","name":"神威","name_kana":"かもい","closed":true,"lat":43.507639,"lng":142.021306,"prefecture":1,"lines":[11120],"postal_code":"073-0405","address":"北海道歌志内市字神威１８３","open_date":"1896-10-21","closed_date":"1988-04-25","next":[1112004,9911610,1110339,1112006,9911611,1112007,9911612],"voronoi":{"lat":43.450034,"lng":142.07755,"delta_lat":[0,1564,50843,29486,-50788,-54950,22598],"delta_lng":[0,624,-38096,-40007,16988,49100,10860]},"impl":false},
    {"code":1112006,"id":"728271","name":"歌神","name_kana":"かしん","closed":true,"lat":43.518833,"lng":142.029556,"prefecture":1,"lines":[11120],"postal_code":"073-0404","address":"北海道歌志内市字歌神","open_date":"1960-12-26","closed_date":"1988-04-25","next":[1112005,1110603,1110602,1112004,1112007],"voronoi":{"lat":43.542499,"lng":142.028644,"delta_lat":[0,9310,-13255,-6626,-29486],"delta_lng":[0,-17687,-14859,3973,40007]},"impl":false},
    {"code":1112007,"id":"8b3db7","name":"歌志内","name_kana":"うたしない","closed":true,"lat":43.521917,"lng":142.040361,"prefecture":1,"lines":[11120],"postal_code":"073-0403","address":"北海道歌志内市字本町１０２７−６０","open_date":"1891-07-05","closed_date":"1988-04-25","next":[1110604,1110603,9911610,1112006,1112005],"voronoi":{"lat":43.502442,"lng":142.040077,"delta_lat":[0,40057,-7675,-70820,-12405],"delta_lng":[0,-11434,30696,26090,-7256]},"impl":false}
  ],
  "closed_date":"1988-04-25",
  "impl":false
}