{
  "code":11122,
  "id":"4968e3",
  "name":"JR天北線",
  "name_kana":"じぇえあーるてんぽくせん",
  "name_formal":"JR天北線",
  "station_size":30,
  "company_code":1,
  "closed":true,
  "station_list":[
    {"code":1111534,"id":"c43c2f","name":"音威子府","name_kana":"おといねっぷ","lat":44.729448,"lng":142.259883,"prefecture":1,"lines":[11115,11122],"attr":"cool","postal_code":"098-2501","address":"中川郡音威子府村字音威子府","next":[1111535,1112203,1111533,1112202],"voronoi":{"lat":44.735379,"lng":142.379921,"delta_lat":[0,-32600,45934,11431],"delta_lng":[0,-155859,6978,93452]},"impl":true},
    {"code":1112202,"id":"c4dee8","name":"上音威子府","name_kana":"かみおといねっぷ","closed":true,"lat":44.774361,"lng":142.254389,"prefecture":1,"lines":[11122],"postal_code":"098-2500","address":"北海道中川郡音威子府村字上音威子府","open_date":"1914-11-07","closed_date":"1989-05-01","next":[1112205,1112206,1112203,1111534,1112204,1111535],"voronoi":{"lat":44.810027,"lng":142.192615,"delta_lat":[0,7335,1223,-6367,-52075,-11431],"delta_lng":[0,18135,34647,22292,56803,-93452]},"impl":false},
    {"code":1112203,"id":"50844f","name":"小頓別","name_kana":"しょうとんべつ","closed":true,"lat":44.82875,"lng":142.30425,"prefecture":1,"lines":[11122],"postal_code":"098-5102","address":"北海道枝幸郡中頓別町字小頓別","open_date":"1914-11-07","closed_date":"1989-05-01","next":[1112202,1111533,1111534,1111530,1112210,1010508,1011404,1112204,1010509],"voronoi":{"lat":44.882313,"lng":142.441511,"delta_lat":[0,28993,-6308,-92779,-52075,-24765,-18558,428,27725],"delta_lng":[0,-20837,-77597,-75389,56803,55429,68831,18933,29450]},"impl":false},
    {"code":1112204,"id":"095d7f","name":"上頓別","name_kana":"かみとんべつ","closed":true,"lat":44.851389,"lng":142.276389,"prefecture":1,"lines":[11122],"postal_code":"098-5111","address":"北海道枝幸郡中頓別町字上頓別","open_date":"1916-10-01","closed_date":"1989-05-01","next":[1112210,1112205,1112202,1112203],"voronoi":{"lat":44.812218,"lng":142.267688,"delta_lat":[0,6367,93394,-6982],"delta_lng":[0,-22292,44373,53308]},"impl":false},
    {"code":1112205,"id":"c3f9d7","name":"恵野","name_kana":"めぐみの","closed":true,"lat":44.863333,"lng":142.25125,"prefecture":1,"lines":[11122],"postal_code":"098-5111","address":"北海道枝幸郡中頓別町字上頓別","open_date":"1956-05-01","closed_date":"1989-05-01","next":[1112202,1112207,1112204,1112206,1112209,1112210,1112208],"voronoi":{"lat":44.90575,"lng":142.251939,"delta_lat":[0,-7854,-80534,1223,93394,631,-1057],"delta_lng":[0,-9663,-31527,34647,44373,-1695,-19958]},"impl":false},
    {"code":1112206,"id":"65d1c7","name":"敏音知","name_kana":"ぴんねしり","closed":true,"lat":44.878611,"lng":142.212222,"prefecture":1,"lines":[11122],"postal_code":"098-5113","address":"北海道枝幸郡中頓別町字敏音知１４３","open_date":"1916-10-01","closed_date":"1989-05-01","next":[1112202,1111537,1112207,1111538,1111535,1112205],"voronoi":{"lat":44.891815,"lng":142.132336,"delta_lat":[0,-22570,-55770,-3447,7335,80534],"delta_lng":[0,-266,27196,33348,18135,31527]},"impl":false},
    {"code":1112207,"id":"e959b5","name":"周磨","name_kana":"しゅうまろ","closed":true,"lat":44.91375,"lng":142.210278,"prefecture":1,"lines":[11122],"postal_code":"098-5565","address":"北海道枝幸郡中頓別町字松音知","open_date":"1956-05-01","closed_date":"1989-05-01","next":[1111539,1112208,1112205,1112206,1111538],"voronoi":{"lat":44.897897,"lng":142.242276,"delta_lat":[0,7854,78427,-22028,-70335],"delta_lng":[0,9663,-134566,169,14794]},"impl":false},
    {"code":1112208,"id":"22510f","name":"松音知","name_kana":"まつねしり","closed":true,"lat":44.938056,"lng":142.224444,"prefecture":1,"lines":[11122],"postal_code":"098-5565","address":"北海道枝幸郡中頓別町字松音知","open_date":"1916-10-01","closed_date":"1989-05-01","next":[1112209,1112207,1111539,1112219,1112205],"voronoi":{"lat":44.90575,"lng":142.251939,"delta_lat":[0,78427,93667,-39,-166252],"delta_lng":[0,-134566,-12116,12923,149936]},"impl":false},
    {"code":1112209,"id":"9630f7","name":"上駒","name_kana":"かみこま","closed":true,"lat":44.957722,"lng":142.24625,"prefecture":1,"lines":[11122],"postal_code":"098-5564","address":"北海道枝幸郡中頓別町字上駒","open_date":"1955-12-02","closed_date":"1989-05-01","next":[1112219,1112208,1112213,1112211,1112212,1112205,1112218,1112210],"voronoi":{"lat":44.911553,"lng":142.268117,"delta_lat":[0,166252,1154,-1977,-308,-32842,-44012,-87210],"delta_lng":[0,-149936,14256,48890,414,34883,40772,30679]},"impl":false},
    {"code":1112210,"id":"2c86a8","name":"中頓別","name_kana":"なかとんべつ","closed":true,"lat":44.973972,"lng":142.292444,"prefecture":1,"lines":[11122],"postal_code":"098-5551","address":"北海道枝幸郡中頓別町字中頓別９５１","open_date":"1916-10-01","closed_date":"1989-05-01","next":[1010508,1112211,1112204,1010506,1112203,1112205,1010505,1112209],"voronoi":{"lat":44.99982,"lng":142.257396,"delta_lat":[0,-35409,-8186,-8705,-36215,-6308,6982,631],"delta_lng":[0,153646,4001,2457,3175,-77597,-53308,-1695]},"impl":false},
    {"code":1112211,"id":"109349","name":"寿(北海道)","original_name":"寿","name_kana":"ことぶき","closed":true,"lat":45.007722,"lng":142.300222,"prefecture":1,"lines":[11122],"postal_code":"098-5553","address":"北海道枝幸郡中頓別町字弥生８０","open_date":"1955-12-02","closed_date":"1989-05-01","next":[1112210,1112209,1112212,1010505],"voronoi":{"lat":44.97655,"lng":142.407173,"delta_lat":[0,67283,-44012,-35409],"delta_lng":[0,-190550,40772,153646]},"impl":false},
    {"code":1112212,"id":"b0e32e","name":"新弥生","name_kana":"しんやよい","closed":true,"lat":45.019444,"lng":142.304361,"prefecture":1,"lines":[11122],"postal_code":"098-5553","address":"北海道枝幸郡中頓別町字弥生","open_date":"1959-11-01","closed_date":"1989-05-01","next":[1010504,1112211,1112213,1112209,1010505],"voronoi":{"lat":45.043832,"lng":142.216623,"delta_lat":[0,32842,-72052,-11465,-16608],"delta_lng":[0,-34883,216770,4374,4289]},"impl":false},
    {"code":1112213,"id":"80638a","name":"下頓別","name_kana":"しもとんべつ","closed":true,"lat":45.049111,"lng":142.314222,"prefecture":1,"lines":[11122],"postal_code":"098-5752","address":"北海道枝幸郡浜頓別町字下頓別３３３−３９","open_date":"1918-08-25","closed_date":"1989-05-01","next":[1112209,1010504,1112212,1112214,1112217,1112218],"voronoi":{"lat":45.076982,"lng":142.181326,"delta_lat":[0,-308,-72052,19153,75717,-10346],"delta_lng":[0,414,216770,-3877,-145380,-38532]},"impl":false},
    {"code":1112214,"id":"fd206c","name":"常盤(北海道)","original_name":"常盤","name_kana":"ときわ","closed":true,"lat":45.075139,"lng":142.327778,"prefecture":1,"lines":[11122],"postal_code":"098-5752","address":"北海道枝幸郡浜頓別町字下頓別","open_date":"1955-12-02","closed_date":"1989-05-01","next":[1112216,1010502,1112215,1010503,1112213,1010504,1112217],"voronoi":{"lat":45.117915,"lng":142.317676,"delta_lat":[0,-36387,-16656,-40511,-585,75717,1764],"delta_lng":[0,54036,13126,9781,15,-145380,3731]},"impl":false},
    {"code":1112215,"id":"db2e33","name":"浜頓別","name_kana":"はまとんべつ","closed":true,"lat":45.124639,"lng":142.361111,"prefecture":1,"lines":[11122,10105],"postal_code":"098-5705","address":"北海道枝幸郡浜頓別町中央南１１","open_date":"1918-08-25","closed_date":"1989-05-01","next":[1112214,1010502,1112216],"voronoi":{"lat":45.117915,"lng":142.317676,"delta_lat":[0,-36387,134812],"delta_lng":[0,54036,9403]},"impl":false},
    {"code":1112216,"id":"5152d2","name":"山軽","name_kana":"やまがる","closed":true,"lat":45.16025,"lng":142.305861,"prefecture":1,"lines":[11122],"postal_code":"098-5761","address":"北海道枝幸郡浜頓別町字山軽","open_date":"1919-11-01","closed_date":"1989-05-01","next":[1112214,1010502,1112221,1112217,1112215],"voronoi":{"lat":45.447571,"lng":142.486433,"delta_lat":[0,-47719,-298595,16658,98425],"delta_lng":[0,-54030,-179418,64691,63439]},"impl":false},
    {"code":1112217,"id":"3a2df0","name":"安別","name_kana":"やすべつ","closed":true,"lat":45.175639,"lng":142.28025,"prefecture":1,"lines":[11122],"postal_code":"098-5764","address":"北海道枝幸郡浜頓別町字安別","open_date":"1956-11-19","closed_date":"1989-05-01","next":[1112218,1112213,1112216,1112214,1112221],"voronoi":{"lat":45.101256,"lng":142.252984,"delta_lat":[0,-1764,-10346,261362,49343],"delta_lng":[0,-3731,-38532,159180,62501]},"impl":false},
    {"code":1112218,"id":"e91b62","name":"飛行場前","name_kana":"ひこうじょうまえ","closed":true,"lat":45.190611,"lng":142.255667,"prefecture":1,"lines":[11122],"postal_code":"098-6102","address":"北海道宗谷郡猿払村浅茅野台地３４２−３０１","open_date":"1955-12-02","closed_date":"1989-05-01","next":[1112217,1112219,1112209,1112213,1112221],"voronoi":{"lat":45.346585,"lng":142.364105,"delta_lat":[0,-267626,-1977,12164,261362],"delta_lng":[0,-231668,48890,29395,159180]},"impl":false},
    {"code":1112219,"id":"11a067","name":"浅茅野","name_kana":"あさじの","closed":true,"lat":45.216917,"lng":142.225278,"prefecture":1,"lines":[11122],"postal_code":"098-6101","address":"北海道宗谷郡猿払村浅茅野３３６−１１","open_date":"1919-11-01","closed_date":"1989-05-01","next":[1112209,1111540,1112218,1112221,1112220,1112208,1111539,1112223],"voronoi":{"lat":45.112223,"lng":142.055849,"delta_lat":[0,-14738,-19641,-39,1154,267626,-11576,-186608],"delta_lng":[0,19454,29955,12923,14256,231668,-21755,-266297]},"impl":false},
    {"code":1112220,"id":"ffef8e","name":"猿払","name_kana":"さるふつ","closed":true,"lat":45.265278,"lng":142.191389,"prefecture":1,"lines":[11122],"postal_code":"098-6104","address":"北海道宗谷郡猿払村猿払","open_date":"1920-11-01","closed_date":"1989-05-01","next":[1112222,1112223,1112221,1112219],"voronoi":{"lat":45.148402,"lng":142.076053,"delta_lat":[0,91764,26039,68805],"delta_lng":[0,31279,20584,214434]},"impl":false},
    {"code":1112221,"id":"71a37e","name":"芦野","name_kana":"あしの","closed":true,"lat":45.303889,"lng":142.179,"prefecture":1,"lines":[11122],"postal_code":"098-6225","address":"北海道宗谷郡猿払村芦野１７５−２２９","open_date":"1920-11-01","closed_date":"1989-05-01","next":[1010502,1011722,1112219,1112222,1112220,1111709,1112216,1010503,1112313,1112218,1112217],"voronoi":{"enclosed":false,"lat":-48.880499,"lng":108.417408,"delta_lat":[0,94146702,68805,11576,3923,49343,47719,304197,5286162,32741,57502708,87383880],"delta_lng":[0,33710507,214434,21755,5797,62501,54030,263401,4277296,20110,32267706,48621575]},"impl":false},
    {"code":1112222,"id":"b41dad","name":"鬼志別","name_kana":"おにしべつ","closed":true,"lat":45.32775,"lng":142.112361,"prefecture":1,"lines":[11122],"postal_code":"098-6233","address":"北海道宗谷郡猿払村鬼志別南町２４３","open_date":"1920-11-01","closed_date":"1989-05-01","next":[1112221,1112220,1112228,1112223,1112227],"voronoi":{"enclosed":false,"lat":-48.880499,"lng":108.417408,"delta_lat":[0,94146702,-26039,358401,250811,97732879],"delta_lng":[0,33710507,-20584,-104245,40317,21172725]},"impl":false},
    {"code":1112223,"id":"17d1e4","name":"小石","name_kana":"こいし","closed":true,"lat":45.311389,"lng":142.056111,"prefecture":1,"lines":[11122],"postal_code":"098-6228","address":"北海道宗谷郡猿払村小石２９１−１３","open_date":"1922-11-01","closed_date":"1989-05-01","next":[1111540,1112224,1112220,1112222,1112227,1112219],"voronoi":{"lat":45.240166,"lng":142.107332,"delta_lat":[0,358401,-218526,-264505,-3312,36178],"delta_lng":[0,-104245,-58098,87409,23451,20204]},"impl":false},
    {"code":1112224,"id":"1510b8","name":"曲淵","name_kana":"まがりふち","closed":true,"lat":45.258694,"lng":141.896653,"prefecture":1,"lines":[11122],"postal_code":"098-6571","address":"北海道稚内市大字声問村曲渕５４７９","open_date":"1922-11-01","closed_date":"1989-05-01","next":[1111540,1112223,1111545,1112227,1111544,1111547,1112225,1112226],"voronoi":{"lat":45.298051,"lng":141.864586,"delta_lat":[0,-162406,-4373,-13115,-3955,1333,264505,-44303],"delta_lng":[0,26697,5408,62839,68546,4321,-87409,-63022]},"impl":false},
    {"code":1112225,"id":"349fd9","name":"沼川","name_kana":"ぬまかわ","closed":true,"lat":45.2505,"lng":141.846806,"prefecture":1,"lines":[11122],"postal_code":"097-0000","address":"北海道稚内市大字声問村沼川３９６３","open_date":"1922-11-01","closed_date":"1989-05-01","next":[1111549,1112226,1112224,1111548,1111547],"voronoi":{"lat":45.298051,"lng":141.864586,"delta_lat":[0,-65415,-12690,-56342,-27959],"delta_lng":[0,-92031,2567,61575,54586]},"impl":false},
    {"code":1112226,"id":"29e281","name":"樺岡","name_kana":"かばおか","closed":true,"lat":45.296889,"lng":141.813833,"prefecture":1,"lines":[11122],"postal_code":"098-6561","address":"北海道稚内市大字声問村樺岡","open_date":"1922-11-01","closed_date":"1989-05-01","next":[1111550,1112229,1112225,1111549,1112227,1112224,1112228],"voronoi":{"lat":45.330487,"lng":141.747143,"delta_lat":[0,-10971,-60079,-26800,65415,37686,942],"delta_lng":[0,-9733,17532,17613,92031,17380,-121427]},"impl":false},
    {"code":1112227,"id":"1490f9","name":"恵北","name_kana":"けいほく","closed":true,"lat":45.375639,"lng":141.814444,"prefecture":1,"lines":[11122],"postal_code":"098-6645","address":"北海道稚内市大字声問村恵北５６９１−１","open_date":"1922-11-01","closed_date":"1989-05-01","next":[1112228,1112224,1112222,1112223,1112226],"voronoi":{"lat":45.33668,"lng":141.760539,"delta_lat":[0,512698,-250811,-218526,-44303],"delta_lng":[0,282864,-40317,-58098,-63022]},"impl":false},
    {"code":1112228,"id":"f3eebc","name":"声問","name_kana":"こえとい","closed":true,"lat":45.403056,"lng":141.76475,"prefecture":1,"lines":[11122],"postal_code":"098-6642","address":"北海道稚内市声問４丁目１３","open_date":"1922-11-01","closed_date":"1989-05-01","next":[1111553,1112227,1112222,1112229,1112226],"voronoi":{"enclosed":false,"lat":143.582257,"lng":163.216128,"delta_lat":[0,-97732879,-512698,-6193,116226,98761763],"delta_lng":[0,-21172725,-282864,-13396,-20441,15688028]},"impl":false},
    {"code":1112229,"id":"53aae7","name":"宇遠内","name_kana":"うえんない","closed":true,"lat":45.392694,"lng":141.705833,"prefecture":1,"lines":[11122],"postal_code":"097-0002","address":"北海道稚内市潮見４丁目１-２１","open_date":"1955-12-02","closed_date":"1989-05-01","next":[1112226,1112228,1111551,1111550,1111552,1111553],"voronoi":{"lat":45.41359,"lng":141.698787,"delta_lat":[0,-65219,-25294,-3561,10971,116226],"delta_lng":[0,-15648,31311,22961,9733,-20441]},"impl":false},
    {"code":1111552,"id":"975c91","name":"南稚内","name_kana":"みなみわっかない","lat":45.398166,"lng":141.683026,"prefecture":1,"lines":[11115,11122],"attr":"eco","postal_code":"097-0005","address":"稚内市大黒１丁目","next":[1111551,1111553,1112229],"voronoi":{"lat":45.384278,"lng":141.607214,"delta_lat":[0,-35908,65219],"delta_lng":[0,75925,15648]},"impl":true}
  ],
  "closed_date":"1989-05-01",
  "impl":false
}