{
  "code":11121,
  "id":"0f91f3",
  "name":"JR名寄本線",
  "name_kana":"じぇいあーるなよろほんせん",
  "name_formal":"JR名寄本線",
  "station_size":40,
  "company_code":1,
  "closed":true,
  "station_list":[
    {"code":1111521,"id":"a105d5","name":"名寄","name_kana":"なよろ","lat":44.349403,"lng":142.465207,"prefecture":1,"lines":[11115,11121,11124],"attr":"cool","postal_code":"096-0001","address":"名寄市東１条南６丁目","next":[1112102,1111522,1112425,1111520],"voronoi":{"lat":44.363456,"lng":142.497916,"delta_lat":[0,3846,-33141,-2480],"delta_lng":[0,-57869,7382,38204]},"impl":true},
    {"code":1112102,"id":"da14e0","name":"中名寄","name_kana":"なかなよろ","closed":true,"lat":44.331056,"lng":142.512667,"prefecture":1,"lines":[11121],"postal_code":"096-0062","address":"北海道名寄市字日彰９１５","open_date":"1947-09-21","closed_date":"1989-05-01","next":[1111521,1112103,1111522,1111520],"voronoi":{"lat":44.331681,"lng":142.485632,"delta_lat":[0,31775,63624,-178984],"delta_lng":[0,12283,71128,-59290]},"impl":false},
    {"code":1112103,"id":"621fef","name":"上名寄","name_kana":"かみなよろ","closed":true,"lat":44.316389,"lng":142.556944,"prefecture":1,"lines":[11121],"postal_code":"098-1216","address":"北海道上川郡下川町上名寄２０３５","open_date":"1919-10-20","closed_date":"1989-05-01","next":[1011404,1112102,1111522,1111516,1111520,1112104],"voronoi":{"lat":44.174586,"lng":142.535265,"delta_lat":[0,38910,34599,178984,4328,-1489],"delta_lng":[0,-25644,132,59290,3155,28206]},"impl":false},
    {"code":1112104,"id":"a1346d","name":"矢文","name_kana":"やぶみ","closed":true,"lat":44.309444,"lng":142.584167,"prefecture":1,"lines":[11121],"postal_code":"098-1216","address":"北海道上川郡下川町上名寄６０４","open_date":"1956-10-30","closed_date":"1989-05-01","next":[1011404,1111511,1111515,1112105,1111516,1112103],"voronoi":{"lat":44.430685,"lng":142.612537,"delta_lat":[0,-303492,2667,29311,15416,255332],"delta_lng":[0,-44210,-4462,-20482,-8117,65139]},"impl":false},
    {"code":1112105,"id":"21da3d","name":"岐阜橋","name_kana":"ぎふばし","closed":true,"lat":44.306389,"lng":142.605139,"prefecture":1,"lines":[11121],"postal_code":"098-1216","address":"北海道上川郡下川町上名寄３５２","open_date":"1956-10-30","closed_date":"1989-05-01","next":[1011404,1111511,1112104,1112106],"voronoi":{"lat":44.113176,"lng":142.588961,"delta_lat":[0,14017,303492,4828],"delta_lng":[0,-20635,44210,32318]},"impl":false},
    {"code":1112106,"id":"bb5649","name":"下川","name_kana":"しもかわ","closed":true,"lat":44.300556,"lng":142.638778,"prefecture":1,"lines":[11121],"postal_code":"098-1203","address":"北海道上川郡下川町共栄町２","open_date":"1919-10-20","closed_date":"1989-05-01","next":[1111511,1011404,1112107,1111612,1112105,1111510,1111611],"voronoi":{"lat":44.100193,"lng":142.691004,"delta_lat":[0,336955,-1636,-322337,-6456,-6991,-2236],"delta_lng":[0,-40350,-5799,-55893,7905,12667,15874]},"impl":false},
    {"code":1112107,"id":"0f7b4a","name":"二ノ橋","name_kana":"にのはし","closed":true,"lat":44.307222,"lng":142.694444,"prefecture":1,"lines":[11121],"postal_code":"098-1332","address":"北海道上川郡下川町二の橋５０４","open_date":"1947-12-25","closed_date":"1989-05-01","next":[1011404,1112106,1112108,1111612],"voronoi":{"lat":44.100193,"lng":142.691004,"delta_lat":[0,336955,15378,-359532],"delta_lng":[0,-40350,29473,86700]},"impl":false},
    {"code":1112108,"id":"60d02f","name":"幸成","name_kana":"こうせい","closed":true,"lat":44.316667,"lng":142.733611,"prefecture":1,"lines":[11121],"postal_code":"098-1331","address":"北海道上川郡下川町一の橋","open_date":"1956-04-30","closed_date":"1989-05-01","next":[1111612,1112109,1011404,1112107],"voronoi":{"lat":44.092924,"lng":142.767209,"delta_lat":[0,401554,-41951,-359532],"delta_lng":[0,-28234,-58848,86700]},"impl":false},
    {"code":1112109,"id":"860285","name":"一ノ橋","name_kana":"いちのはし","closed":true,"lat":44.319167,"lng":142.769167,"prefecture":1,"lines":[11121],"postal_code":"098-1331","address":"北海道上川郡下川町一の橋６０２","open_date":"1920-10-25","closed_date":"1989-05-01","next":[1011404,1010812,1112108,1111616,1112110,1010406,1111612],"voronoi":{"lat":44.092924,"lng":142.767209,"delta_lat":[0,401554,25979,-15391,-395324,-26290,224],"delta_lng":[0,-28234,29641,21314,69073,-10930,-46474]},"impl":false},
    {"code":1112110,"id":"329071","name":"上興部","name_kana":"かみおこっぺ","closed":true,"lat":44.337222,"lng":142.8725,"prefecture":1,"lines":[11121],"postal_code":"098-1421","address":"北海道紋別郡西興部村字上興部３５１−１","open_date":"1920-10-25","closed_date":"1989-05-01","next":[1112113,1112112,1010812,1112109,1010405,1112111,1010406],"voronoi":{"lat":44.472255,"lng":142.881552,"delta_lat":[0,-57766,-38863,-219383,-46502,395324,-31931],"delta_lng":[0,23889,7865,-20664,-33639,-69073,89925]},"impl":false},
    {"code":1112111,"id":"6aa400","name":"西興部","name_kana":"にしおこっぺ","closed":true,"lat":44.330278,"lng":142.946222,"prefecture":1,"lines":[11121],"postal_code":"098-1501","address":"北海道紋別郡西興部村字西興部５２８","open_date":"1921-10-05","closed_date":"1989-05-01","next":[1112112,1010812,1112110],"voronoi":{"lat":44.284575,"lng":143.033246,"delta_lat":[0,-128331,219383],"delta_lng":[0,-140604,20664]},"impl":false},
    {"code":1112112,"id":"3013a2","name":"六興","name_kana":"ろっこう","closed":true,"lat":44.356111,"lng":142.965833,"prefecture":1,"lines":[11121],"postal_code":"098-1502","address":"北海道紋別郡西興部村字六興","open_date":"1959-04-20","closed_date":"1989-05-01","next":[1112114,1112111,1010812,1112110,1112113],"voronoi":{"lat":44.2995,"lng":143.056325,"delta_lat":[0,-14926,91052,38863,-77353],"delta_lng":[0,-23079,-119940,-7865,119101]},"impl":false},
    {"code":1112113,"id":"701083","name":"中興部","name_kana":"なかおこっぺ","closed":true,"lat":44.383056,"lng":142.983333,"prefecture":1,"lines":[11121],"postal_code":"098-1503","address":"北海道紋別郡西興部村字中興部","open_date":"1921-10-05","closed_date":"1989-05-01","next":[1112110,1112114,1112115,1010405,1112112],"voronoi":{"lat":44.429348,"lng":142.981371,"delta_lat":[0,41757,1150,-57766,-77353],"delta_lng":[0,-39655,-60164,23889,119101]},"impl":false},
    {"code":1112114,"id":"e42066","name":"班渓","name_kana":"ぱんけ","closed":true,"lat":44.398194,"lng":143.015667,"prefecture":1,"lines":[11121],"postal_code":"098-1600","address":"北海道紋別郡興部町字朝日","open_date":"1957-12-03","closed_date":"1989-05-01","next":[1010809,1112115,1010812,1112112,1112113,1010811,1112116],"voronoi":{"lat":44.386977,"lng":143.077358,"delta_lat":[0,42372,-92212,-37636,10172,8222,9462],"delta_lng":[0,-95987,43171,31783,37699,17982,10882]},"impl":false},
    {"code":1112115,"id":"849415","name":"宇津","name_kana":"うつ","closed":true,"lat":44.425,"lng":143.0275,"prefecture":1,"lines":[11121],"postal_code":"098-1624","address":"北海道紋別郡興部町字宇津８３","open_date":"1921-10-05","closed_date":"1989-05-01","next":[1112114,1010402,1010403,1010405,1112113,1112116,1010404],"voronoi":{"lat":44.479218,"lng":142.968042,"delta_lat":[0,-8113,-41757,-42372,86759,4875,4060],"delta_lng":[0,-26326,39655,95987,-38365,-12920,-21025]},"impl":false},
    {"code":1112116,"id":"543fcb","name":"北興","name_kana":"ほっこう","closed":true,"lat":44.449444,"lng":143.082778,"prefecture":1,"lines":[11121],"postal_code":"098-1622","address":"北海道紋別郡興部町字北興","open_date":"1957-11-01","closed_date":"1989-05-01","next":[1112119,1112115,1112117,1010402,1010809,1112114],"voronoi":{"lat":44.386977,"lng":143.077358,"delta_lat":[0,86759,13226,-84508,-69088,-6009],"delta_lng":[0,-38365,44784,48913,5203,-15005]},"impl":false},
    {"code":1112117,"id":"3fc20a","name":"興部","name_kana":"おこっぺ","closed":true,"lat":44.469139,"lng":143.116806,"prefecture":1,"lines":[11121,10104],"postal_code":"098-1601","address":"北海道紋別郡興部町字興部幸町１３２２−２１","open_date":"1921-03-25","closed_date":"1989-05-01","next":[1010402,1112119,1112116,1112118],"voronoi":{"lat":44.402453,"lng":143.132689,"delta_lat":[0,84508,36379,-116088],"delta_lng":[0,-48913,32710,17254]},"impl":false},
    {"code":1112118,"id":"5f58bc","name":"旭ヶ丘(北海道)","original_name":"旭ヶ丘","name_kana":"あさひがおか","closed":true,"lat":44.471389,"lng":143.131944,"prefecture":1,"lines":[11121],"postal_code":"098-1601","address":"北海道紋別郡興部町字興部浜町１２８−１","open_date":"1956-09-01","closed_date":"1989-05-01","next":[1010402,1112119,1112117],"voronoi":{"lat":44.52334,"lng":143.116486,"delta_lat":[0,179093,-295181],"delta_lng":[0,120091,-102837]},"impl":false},
    {"code":1112119,"id":"742953","name":"豊野(北海道)","original_name":"豊野","name_kana":"とよの","closed":true,"lat":44.456389,"lng":143.175,"prefecture":1,"lines":[11121],"postal_code":"098-1944","address":"北海道紋別郡興部町字豊野","open_date":"1947-02-11","closed_date":"1989-05-01","next":[1112116,1112120,1010809,1112117,1112118,1010402,1112121],"voronoi":{"lat":45.18571,"lng":143.50102,"delta_lat":[0,-483277,-295181,-4799,-69088,197,7712],"delta_lng":[0,-264443,-102837,-1051,5203,15349,4553]},"impl":false},
    {"code":1112120,"id":"a96b2c","name":"沙留","name_kana":"さるる","closed":true,"lat":44.43575,"lng":143.225778,"prefecture":1,"lines":[11121],"postal_code":"098-1941","address":"北海道紋別郡興部町字沙留旭町９５９−１","open_date":"1921-03-25","closed_date":"1989-05-01","next":[1112122,1011722,1112123,1112119,1112121,1010507,1010403,1010402],"voronoi":{"lat":45.18571,"lng":143.50102,"delta_lat":[0,-844436,241512,31461,1653873,408868,-772465,-628273],"delta_lng":[0,-343226,234671,21120,963969,146385,-653082,-324259]},"impl":false},
    {"code":1112121,"id":"db34c1","name":"富丘","name_kana":"とみおか","closed":true,"lat":44.411944,"lng":143.250278,"prefecture":1,"lines":[11121],"postal_code":"098-1942","address":"北海道紋別郡興部町字富丘","open_date":"1956-09-01","closed_date":"1989-05-01","next":[1010809,1112120,1010803,1112119,1112122,1010802],"voronoi":{"lat":44.582787,"lng":143.392466,"delta_lat":[0,-241512,-7712,-6456,26373,42799],"delta_lng":[0,-234671,-4553,17951,50270,65624]},"impl":false},
    {"code":1112122,"id":"3cfec7","name":"渚滑","name_kana":"しょこつ","closed":true,"lat":44.372833,"lng":143.3195,"prefecture":1,"lines":[11121,10108],"postal_code":"099-5171","address":"北海道紋別市渚滑町４丁目１３０","open_date":"1921-03-25","closed_date":"1989-05-01","next":[1112120,1010802,1112124,1010803,1010804,1112123,1112121],"voronoi":{"lat":44.614247,"lng":143.413586,"delta_lat":[0,-259159,-14177,4386,3540,47441,186508],"delta_lng":[0,-82479,-8764,-8350,-3046,-23860,105379]},"impl":false},
    {"code":1112123,"id":"5f47ed","name":"潮見町","name_kana":"しおみちょう","closed":true,"lat":44.362861,"lng":143.350833,"prefecture":1,"lines":[11121],"postal_code":"094-0002","address":"北海道紋別市真砂町３丁目１-１","open_date":"1959-11-01","closed_date":"1989-05-01","next":[1112126,1112120,1112127,1011722,1011721,1112124,1112132,1112122,1112125],"voronoi":{"lat":44.531684,"lng":143.585394,"delta_lat":[0,66322,1014311,1183,654620,-1653873,-259159,8487,46734],"delta_lng":[0,57306,524507,394,209953,-963969,-82479,65032,71022]},"impl":false},
    {"code":1112124,"id":"a8c681","name":"紋別","name_kana":"もんべつ","closed":true,"lat":44.352639,"lng":143.352167,"prefecture":1,"lines":[11121],"postal_code":"094-0005","address":"北海道紋別市幸町４丁目１-３７","open_date":"1921-03-25","closed_date":"1989-05-01","next":[1010804,1112125,1112122,1010805,1112123],"voronoi":{"lat":44.355089,"lng":143.331106,"delta_lat":[0,-14177,-22111,-4682,49457],"delta_lng":[0,-8764,10533,4066,59197]},"impl":false},
    {"code":1112125,"id":"ba086f","name":"元紋別","name_kana":"もともんべつ","closed":true,"lat":44.32225,"lng":143.377556,"prefecture":1,"lines":[11121],"postal_code":"094-0023","address":"北海道紋別市元紋別６７８","open_date":"1921-03-25","closed_date":"1989-05-01","next":[1112124,1010805,1010806,1112123,1112126],"voronoi":{"lat":44.24641,"lng":143.360344,"delta_lat":[0,25771,41937,49457,46734],"delta_lng":[0,-14171,-9232,59197,71022]},"impl":false},
    {"code":1112126,"id":"57b230","name":"一本松(北海道)","original_name":"一本松","name_kana":"いっぽんまつ","closed":true,"lat":44.292778,"lng":143.422778,"prefecture":1,"lines":[11121],"postal_code":"099-6132","address":"北海道紋別市小向","open_date":"1955-12-25","closed_date":"1989-05-01","next":[1112123,1010807,1010806,1112127,1112125],"voronoi":{"lat":44.531684,"lng":143.585394,"delta_lat":[0,-357787,4585,67928,163899],"delta_lng":[0,-213469,-1430,-10151,106816]},"impl":false},
    {"code":1112127,"id":"68f886","name":"小向","name_kana":"こむかい","closed":true,"lat":44.275111,"lng":143.452389,"prefecture":1,"lines":[11121],"postal_code":"099-6132","address":"北海道紋別市小向３３１紋別市小向農村公園","open_date":"1921-03-25","closed_date":"1989-05-01","next":[1010807,1112123,1112129,1112128,1112126,1112132],"voronoi":{"lat":44.531684,"lng":143.585394,"delta_lat":[0,-357787,-20265,241801,83661,118912],"delta_lng":[0,-213469,3451,185027,45875,36422]},"impl":false},
    {"code":1112128,"id":"b45a1a","name":"弘道","name_kana":"こうどう","closed":true,"lat":44.259722,"lng":143.4725,"prefecture":1,"lines":[11121],"postal_code":"099-6133","address":"北海道紋別市弘道","open_date":"1956-05-01","closed_date":"1989-05-01","next":[1112127,1010807,1112138,1111622,1112129,1112139],"voronoi":{"lat":44.142827,"lng":143.404914,"delta_lat":[0,5989,4817,241801,-234768,-14395],"delta_lng":[0,-29148,-389,185027,-105737,-38476]},"impl":false},
    {"code":1112129,"id":"282a21","name":"沼ノ上","name_kana":"ぬまのうえ","closed":true,"lat":44.239667,"lng":143.517028,"prefecture":1,"lines":[11121],"postal_code":"099-6241","address":"北海道紋別市沼の上４１１","open_date":"1921-03-25","closed_date":"1989-05-01","next":[1112132,1112130,1112127,1112138,1112128,1112136],"voronoi":{"lat":44.29801,"lng":143.578453,"delta_lat":[0,181085,-83661,-234768,4917,7636],"delta_lng":[0,27826,-45875,-105737,43347,12813]},"impl":false},
    {"code":1112130,"id":"2211f1","name":"旭(北海道)","original_name":"旭","name_kana":"あさひ","closed":true,"lat":44.214694,"lng":143.563111,"prefecture":1,"lines":[11121],"postal_code":"099-6415","address":"北海道紋別郡湧別町川西","open_date":"1947-09-10","closed_date":"1989-05-01","next":[1112131,1112133,1112136,1112129,1112132,1112135],"voronoi":{"lat":44.228798,"lng":143.588638,"delta_lat":[0,4423,64788,-124791,3723,3357],"delta_lng":[0,407,-10592,-67626,27639,10803]},"impl":false},
    {"code":1112131,"id":"47d99d","name":"川西(北海道)","original_name":"川西","name_kana":"かわにし","closed":true,"lat":44.200917,"lng":143.580083,"prefecture":1,"lines":[11121],"postal_code":"099-6321","address":"北海道紋別郡湧別町旭１０６−１","open_date":"1957-08-01","closed_date":"1989-05-01","next":[1112135,1112130,1112134,1112133],"voronoi":{"lat":44.228798,"lng":143.588638,"delta_lat":[0,-48500,53,21673],"delta_lng":[0,-39369,26142,21291]},"impl":false},
    {"code":1112132,"id":"9cab29","name":"湧別","name_kana":"ゆうべつ","closed":true,"lat":44.223917,"lng":143.619528,"prefecture":1,"lines":[11121],"postal_code":"099-6403","address":"北海道紋別郡湧別町緑町２５８−１０","open_date":"1916-11-21","closed_date":"1989-05-01","next":[1011721,1011704,1112129,1112133,1112130,1011703,1112127,1112123,1011702],"voronoi":{"lat":44.259836,"lng":143.727365,"delta_lat":[0,181185,1171296,-1014311,-118912,-181085,-64788,-26875,771],"delta_lng":[0,178051,261792,-524507,-36422,-27826,10592,43840,6320]},"impl":false},
    {"code":1112133,"id":"6f9b4e","name":"四号線","name_kana":"しごうせん","closed":true,"lat":44.210278,"lng":143.611167,"prefecture":1,"lines":[11121],"postal_code":"099-6414","address":"北海道紋別郡湧別町錦町２３６","open_date":"1955-12-25","closed_date":"1989-05-01","next":[1112130,1112132,1011702,1112134,1112131],"voronoi":{"lat":44.228798,"lng":143.588638,"delta_lat":[0,4423,-26875,-12370,8048],"delta_lng":[0,407,43840,-23073,-13110]},"impl":false},
    {"code":1112134,"id":"548cce","name":"中湧別","name_kana":"なかゆうべつ","closed":true,"lat":44.185389,"lng":143.595889,"prefecture":1,"lines":[11121,10117],"postal_code":"099-6329","address":"北海道紋別郡湧別町中湧別中町３０２０","open_date":"1916-11-21","closed_date":"1989-05-01","next":[1011702,1112131,1112135,1112133],"voronoi":{"lat":44.158678,"lng":143.610679,"delta_lat":[0,21674,21673,-8048],"delta_lng":[0,-35268,21291,13110]},"impl":false},
    {"code":1112135,"id":"ecf610","name":"北湧","name_kana":"ほくゆう","closed":true,"lat":44.159806,"lng":143.580167,"prefecture":1,"lines":[11121],"postal_code":"099-6325","address":"北海道紋別郡湧別町北兵村１区５８８","open_date":"1966-10-01","closed_date":"1989-05-01","next":[1112131,1112134,1011703,1112136,1112130,1011702],"voronoi":{"lat":44.120052,"lng":143.629761,"delta_lat":[0,56889,3357,53,-21674,-23013],"delta_lng":[0,-91295,10803,26142,35268,13753]},"impl":false},
    {"code":1112136,"id":"a460ed","name":"上湧別","name_kana":"かみゆうべつ","closed":true,"lat":44.147056,"lng":143.572222,"prefecture":1,"lines":[11121],"postal_code":"099-6501","address":"北海道紋別郡湧別町上湧別屯田市街地３０１５−１５","open_date":"1916-11-21","closed_date":"1989-05-01","next":[1011703,1112130,1112137,1112135,1112129,1112138],"voronoi":{"lat":44.165582,"lng":143.498014,"delta_lat":[0,7636,3723,-56889,-3778,30132],"delta_lng":[0,12813,27639,91295,1813,-109313]},"impl":false},
    {"code":1112137,"id":"f0ac1a","name":"共進","name_kana":"きょうしん","closed":true,"lat":44.12025,"lng":143.564833,"prefecture":1,"lines":[11121],"postal_code":"099-6509","address":"北海道紋別郡湧別町南兵村１区３４３","open_date":"1955-12-01","closed_date":"1989-05-01","next":[1111624,1011705,1011704,1111623,1112136,1011703,1011706,1112138,1112139],"voronoi":{"lat":44.044184,"lng":143.605322,"delta_lat":[0,-7665,19146,26719,29644,4247,30132,-80134,-10045],"delta_lng":[0,33467,2023,1220,-7183,-3275,-109313,57168,9539]},"impl":false},
    {"code":1112138,"id":"3dd3b3","name":"開盛","name_kana":"かいせい","closed":true,"lat":44.097639,"lng":143.533139,"prefecture":1,"lines":[11121],"postal_code":"099-6503","address":"北海道紋別郡湧別町開盛３０３６−２７","open_date":"1915-11-01","closed_date":"1989-05-01","next":[1112139,1112129,1112128,1112137,1112136],"voronoi":{"lat":44.165582,"lng":143.498014,"delta_lat":[0,-4917,-14395,-79998,80134],"delta_lng":[0,-43347,-38476,163238,-57168]},"impl":false},
    {"code":1112139,"id":"f2ff3d","name":"北遠軽","name_kana":"きたえんがる","closed":true,"lat":44.083639,"lng":143.526278,"prefecture":1,"lines":[11121],"postal_code":"099-0401","address":"北海道紋別郡遠軽町学田３丁目６-８","open_date":"1959-11-01","closed_date":"1989-05-01","next":[1112138,1111622,1111623,1112128,1112137],"voronoi":{"lat":44.091706,"lng":143.441255,"delta_lat":[0,51120,3444,-79998,-10045],"delta_lng":[0,-36341,11277,163238,9539]},"impl":false},
    {"code":1111623,"id":"0e8284","name":"遠軽","name_kana":"えんがる","lat":44.060278,"lng":143.520667,"prefecture":1,"lines":[11116,11121],"attr":"cool","postal_code":"099-0415","address":"紋別郡遠軽町岩見通南１丁目","next":[1112137,1111622,1112139,1111624],"voronoi":{"lat":44.016012,"lng":143.480362,"delta_lat":[0,75695,-35479,-12044],"delta_lng":[0,-39107,147713,16354]},"impl":true}
  ],
  "closed_date":"1989-05-01",
  "impl":false
}