{
  "code":11124,
  "id":"555b25",
  "name":"JR深名線",
  "name_kana":"じぇあーるしんめいせん",
  "name_formal":"JR深名線",
  "station_size":26,
  "company_code":1,
  "closed":true,
  "station_list":[
    {"code":1110343,"id":"57162b","name":"深川","name_kana":"ふかがわ","lat":43.721021,"lng":142.041642,"prefecture":1,"lines":[11103,11113,11124],"attr":"heat","postal_code":"074-0001","address":"深川市１条","next":[1110602,1110344,1110342,1111302,1112402,1110603],"voronoi":{"lat":43.71502,"lng":142.087383,"delta_lat":[0,31406,-43965,-63268,-1554,2644],"delta_lng":[0,-47575,-34295,25441,3725,62413]},"impl":true},
    {"code":1112402,"id":"cc7496","name":"円山","name_kana":"まるやま","closed":true,"lat":43.754722,"lng":142.063889,"prefecture":1,"lines":[11124],"postal_code":"074-0028","address":"北海道深川市一已町","open_date":"1955-08-20","closed_date":"1995-09-04","next":[1112403,1111302,1110343,1112404,1110344],"voronoi":{"lat":43.71502,"lng":142.087383,"delta_lat":[0,31406,29637,4628,-3246],"delta_lng":[0,-47575,-7656,8785,67398]},"impl":false},
    {"code":1112403,"id":"cc3d0c","name":"上多度志","name_kana":"かみたどし","closed":true,"lat":43.804333,"lng":142.066278,"prefecture":1,"lines":[11124],"postal_code":"074-0141","address":"北海道深川市多度志１５８０","open_date":"1946-06-01","closed_date":"1995-09-04","next":[1112406,1112404,1112402,1112405,1110344],"voronoi":{"lat":43.777445,"lng":142.108335,"delta_lat":[0,3246,47249,-27966,-7961],"delta_lng":[0,-67398,13950,60148,9701]},"impl":false},
    {"code":1112404,"id":"1cb5a0","name":"多度志","name_kana":"たどし","closed":true,"lat":43.814306,"lng":142.0325,"prefecture":1,"lines":[11124],"postal_code":"074-0141","address":"北海道深川市多度志","open_date":"1924-10-25","closed_date":"1995-09-04","next":[1111303,9912105,1112405,1112403,1111304,9912108,1111302,9912104,1112402,1112408,1111305],"voronoi":{"lat":43.791389,"lng":142.000348,"delta_lat":[0,-9059,-6267,4628,47249,65213,10022,-204,-37297,-6017,-15570],"delta_lng":[0,6326,25478,8785,13950,-27487,-9471,-307,-32757,-3548,678]},"impl":false},
    {"code":1112405,"id":"792beb","name":"宇摩","name_kana":"うま","closed":true,"lat":43.834444,"lng":142.080278,"prefecture":1,"lines":[11124],"postal_code":"074-0142","address":"北海道深川市宇摩１２６５","open_date":"1955-08-20","closed_date":"1995-09-04","next":[1112404,1112403,1112406,1112408],"voronoi":{"lat":43.893153,"lng":142.0274,"delta_lat":[0,-65213,-27966,69008],"delta_lng":[0,27487,60148,-41131]},"impl":false},
    {"code":1112406,"id":"cc6972","name":"幌成","name_kana":"ほろなり","closed":true,"lat":43.846944,"lng":142.10125,"prefecture":1,"lines":[11124],"postal_code":"074-0145","address":"北海道深川市幌内１２６","open_date":"1926-11-10","closed_date":"1995-09-04","next":[1112403,1112407,1112405,1110344,1112408],"voronoi":{"lat":43.868982,"lng":142.073903,"delta_lat":[0,-69008,-7961,7029,67526],"delta_lng":[0,41131,9701,27911,-59423]},"impl":false},
    {"code":1112407,"id":"edd1f9","name":"下幌成","name_kana":"しもほろなり","closed":true,"lat":43.856111,"lng":142.111667,"prefecture":1,"lines":[11124],"postal_code":"074-0145","address":"北海道深川市幌内６３１","open_date":"1955-08-20","closed_date":"1995-09-04","next":[1112408,1112409,1110345,1110344,1112406,1110346],"voronoi":{"lat":43.827605,"lng":142.202049,"delta_lat":[0,-26598,-1965,67526,19242,-18467],"delta_lng":[0,-36209,-13194,-59423,90705,41170]},"impl":false},
    {"code":1112408,"id":"3bc819","name":"鷹泊","name_kana":"たかどまり","closed":true,"lat":43.883611,"lng":142.105833,"prefecture":1,"lines":[11124],"postal_code":"074-0144","address":"北海道深川市鷹泊８４","open_date":"1926-11-10","closed_date":"1995-09-04","next":[9912108,1112407,1112410,9912109,1112409,1112406,1112404,1112405],"voronoi":{"lat":43.893153,"lng":142.0274,"delta_lat":[0,10022,43771,28745,-685,-89196,-19242,2414],"delta_lng":[0,-9471,18075,17051,1210,129664,-90705,-19320]},"impl":false},
    {"code":1112409,"id":"7e5953","name":"沼牛","name_kana":"ぬまうし","closed":true,"lat":43.959528,"lng":142.158056,"prefecture":1,"lines":[11124],"postal_code":"074-0403","address":"北海道雨竜郡幌加内町字下幌加内","open_date":"1929-11-08","closed_date":"1995-09-04","next":[1112410,1112407,1110346,1110347,1112408,1111511],"voronoi":{"lat":43.880671,"lng":142.248118,"delta_lat":[0,-13329,18467,89196,-14674,-26505],"delta_lng":[0,-23019,-41170,-129664,241038,6945]},"impl":false},
    {"code":1112410,"id":"f5a797","name":"新成生","name_kana":"しんなりう","closed":true,"lat":43.977778,"lng":142.159167,"prefecture":1,"lines":[11124],"postal_code":"074-0402","address":"北海道雨竜郡幌加内町字新成生","open_date":"1955-08-20","closed_date":"1995-09-04","next":[1111512,1112409,9912109,1112408,1111511,1112411],"voronoi":{"lat":43.976473,"lng":142.292205,"delta_lat":[0,-16142,14674,685,11752,15254],"delta_lng":[0,3098,-241038,-1210,5,228727]},"impl":false},
    {"code":1112411,"id":"c9e65c","name":"幌加内","name_kana":"ほろかない","closed":true,"lat":44.011111,"lng":142.156944,"prefecture":1,"lines":[11124],"postal_code":"074-0411","address":"北海道雨竜郡幌加内町字幌加内","open_date":"1929-11-08","closed_date":"1995-09-04","next":[1111512,1111513,1112412,1112410,9912109],"voronoi":{"lat":44.000302,"lng":142.051023,"delta_lat":[0,50359,-47767,-198,-15254],"delta_lng":[0,211102,19611,50,-228727]},"impl":false},
    {"code":1112412,"id":"23f3c5","name":"上幌加内","name_kana":"かみほろかない","closed":true,"lat":44.038472,"lng":142.150417,"prefecture":1,"lines":[11124],"postal_code":"074-0423","address":"北海道雨竜郡幌加内町字上幌加内","open_date":"1955-08-20","closed_date":"1995-09-04","next":[1112413,9912109,1112411,1111513],"voronoi":{"lat":44.000302,"lng":142.051023,"delta_lat":[0,34019,44988,-28648],"delta_lng":[0,-10134,213489,7747]},"impl":false},
    {"code":1112413,"id":"bfbd73","name":"雨煙別","name_kana":"うえんべつ","closed":true,"lat":44.074722,"lng":142.142778,"prefecture":1,"lines":[11124],"postal_code":"074-0424","address":"北海道雨竜郡幌加内町字雨煙別","open_date":"1931-09-15","closed_date":"1990-03-10","next":[1112415,1112412,1112414,9912109,1111513],"voronoi":{"lat":44.034321,"lng":142.04089,"delta_lat":[0,55530,6796,-9232,-8106],"delta_lng":[0,-27466,183664,56499,792]},"impl":false},
    {"code":1112414,"id":"074c1b","name":"政和温泉","name_kana":"せいわおんせん","closed":true,"lat":44.1145,"lng":142.141306,"prefecture":1,"lines":[11124],"postal_code":"074-0425","address":"北海道雨竜郡幌加内町字政和第一","open_date":"1961-12-01","closed_date":"1990-03-10","next":[9912109,1112416,1112413,9911208,1112415],"voronoi":{"lat":44.14641,"lng":142.107855,"delta_lat":[0,-2160,-20012,-34386,6796],"delta_lng":[0,-123208,4602,24174,183664]},"impl":false},
    {"code":1112415,"id":"fc91ae","name":"政和","name_kana":"せいわ","closed":true,"lat":44.134722,"lng":142.152583,"prefecture":1,"lines":[11124],"postal_code":"074-0426","address":"北海道雨竜郡幌加内町字政和第二","open_date":"1931-09-15","closed_date":"1995-09-04","next":[1112413,1111513,1112416,1112414,1111514],"voronoi":{"lat":44.189779,"lng":142.26417,"delta_lat":[0,-43370,-49762,-9232,63171],"delta_lng":[0,-156314,89232,56499,11401]},"impl":false},
    {"code":1112416,"id":"b050c0","name":"新富","name_kana":"しんとみ","closed":true,"lat":44.179472,"lng":142.140167,"prefecture":1,"lines":[11124],"postal_code":"074-0747","address":"北海道雨竜郡幌加内町字新富","open_date":"1955-09-02","closed_date":"1990-09-01","next":[1111514,1112418,1112414,1112417,1112415,9911208,1111515],"voronoi":{"lat":44.199294,"lng":142.248879,"delta_lat":[0,-7219,-47826,2160,43370,3008,3411],"delta_lng":[0,-286236,22005,123208,156314,507,95]},"impl":false},
    {"code":1112417,"id":"08fab9","name":"添牛内","name_kana":"そえうしない","closed":true,"lat":44.213611,"lng":142.139306,"prefecture":1,"lines":[11124],"postal_code":"074-0746","address":"北海道雨竜郡幌加内町字添牛内","open_date":"1931-09-15","closed_date":"1995-09-04","next":[9911307,9911208,9911308,1112416,1112418,9911309],"voronoi":{"lat":44.199294,"lng":142.248879,"delta_lat":[0,-7219,17173,33462,34927,10410],"delta_lng":[0,-286236,-10000,19508,24128,7581]},"impl":false},
    {"code":1112418,"id":"af87bb","name":"共栄(JR)","original_name":"共栄","name_kana":"きょうえい","closed":true,"lat":44.258472,"lng":142.155556,"prefecture":1,"lines":[11124],"postal_code":"074-0743","address":"北海道雨竜郡幌加内町字共栄","open_date":"1955-08-20","closed_date":"1995-09-04","next":[1111516,1112419,1112421,9911309,1111517,1112416,1112417,1112420,1111515],"voronoi":{"lat":44.225582,"lng":142.274202,"delta_lat":[0,4217,19982,58107,-1438,-18402,-88753,-3096,21045],"delta_lng":[0,301,-45118,-189907,-26167,-9451,245019,15893,7772]},"impl":false},
    {"code":1112419,"id":"bc95b2","name":"朱鞠内","name_kana":"しゅまりない","closed":true,"lat":44.283889,"lng":142.163333,"prefecture":1,"lines":[11124],"postal_code":"074-0742","address":"北海道雨竜郡幌加内町字朱鞠内","open_date":"1932-10-25","closed_date":"1995-09-04","next":[1112420,1112418,1112421],"voronoi":{"lat":44.249781,"lng":142.229384,"delta_lat":[0,58107,13638],"delta_lng":[0,-189907,84283]},"impl":false},
    {"code":1112420,"id":"f54c9a","name":"湖畔","name_kana":"こはん","closed":true,"lat":44.298611,"lng":142.173333,"prefecture":1,"lines":[11124],"postal_code":"074-0742","address":"北海道雨竜郡幌加内町字朱鞠内","open_date":"1956-05-01","closed_date":"1995-09-04","next":[1112421,1112419,1111517,1112423,1112422,1112418],"voronoi":{"lat":44.249781,"lng":142.229384,"delta_lat":[0,71745,17150,-12889,-78893,-17095],"delta_lng":[0,-105624,51049,45109,58978,-4394]},"impl":false},
    {"code":1112421,"id":"446ff2","name":"蕗ノ台","name_kana":"ふきのだい","closed":true,"lat":44.369722,"lng":142.149444,"prefecture":1,"lines":[11124],"postal_code":"074-0400","address":"北海道雨竜郡幌加内町字蕗の台","open_date":"1941-10-10","closed_date":"1990-03-10","next":[1112420,9911309,1112418,1112419,1111536,1111531,1112422],"voronoi":{"lat":44.527337,"lng":142.159184,"delta_lat":[0,28561,-16199,-233249,1438,13638,17150],"delta_lng":[0,-63732,-60093,-22049,26167,84283,51049]},"impl":false},
    {"code":1112422,"id":"08c283","name":"白樺","name_kana":"しらかば","closed":true,"lat":44.373472,"lng":142.194722,"prefecture":1,"lines":[11124],"postal_code":"074-0400","address":"北海道雨竜郡幌加内町字蕗の台","open_date":"1941-10-10","closed_date":"1990-03-10","next":[1112423,1111531,1112420,1111529,1111528,1112421,1111530],"voronoi":{"lat":44.519767,"lng":142.185815,"delta_lat":[0,7570,-188661,-12889,139965,46475,4220],"delta_lng":[0,-26631,15625,45109,23226,-45794,-5024]},"impl":false},
    {"code":1112423,"id":"fefd77","name":"北母子里","name_kana":"きたもしり","closed":true,"lat":44.362778,"lng":142.259167,"prefecture":1,"lines":[11124],"postal_code":"074-0741","address":"北海道雨竜郡幌加内町字母子里８７８７","open_date":"1941-10-10","closed_date":"1995-09-04","next":[1111527,1112422,1111528,1112420,1111518,1112424,1111526,1111517],"voronoi":{"lat":44.246894,"lng":142.278897,"delta_lat":[0,78893,139965,-8451,-32580,-32348,-104320,-34546],"delta_lng":[0,-58978,23226,16476,42822,29720,-23107,-24302]},"impl":false},
    {"code":1112424,"id":"892160","name":"天塩弥生","name_kana":"てしおやよい","closed":true,"lat":44.334722,"lng":142.385833,"prefecture":1,"lines":[11124],"postal_code":"096-0074","address":"北海道名寄市字弥生","open_date":"1937-11-10","closed_date":"1995-09-04","next":[1111519,1111518,1111525,1111523,1112423,1111526,1112425],"voronoi":{"lat":44.391929,"lng":142.397415,"delta_lat":[0,6530,246,-6332,-104320,11986,17293],"delta_lng":[0,-16501,-3793,-44958,-23107,78718,20527]},"impl":false},
    {"code":1112425,"id":"52edf2","name":"西名寄","name_kana":"にしなよろ","closed":true,"lat":44.340417,"lng":142.424861,"prefecture":1,"lines":[11124],"postal_code":"096-0075","address":"北海道名寄市字曙６３３","open_date":"1937-11-10","closed_date":"1995-09-04","next":[1111520,1111523,1111521,1111519,1112424,1111522],"voronoi":{"lat":44.391307,"lng":142.416717,"delta_lat":[0,621,-74597,-1852,18681,33141],"delta_lng":[0,-19302,10886,27560,11568,-7382]},"impl":false},
    {"code":1111521,"id":"a105d5","name":"名寄","name_kana":"なよろ","lat":44.349403,"lng":142.465207,"prefecture":1,"lines":[11115,11121,11124],"attr":"cool","postal_code":"096-0001","address":"名寄市東１条南６丁目","next":[1112102,1111522,1112425,1111520],"voronoi":{"lat":44.363456,"lng":142.497916,"delta_lat":[0,3846,-33141,-2480],"delta_lng":[0,-57869,7382,38204]},"impl":true}
  ],
  "closed_date":"1995-09-04",
  "impl":false
}