{
  "code":11126,
  "id":"f8251b",
  "name":"JR松前線",
  "name_kana":"じぇいあーるまつまえせん",
  "name_formal":"JR松前線",
  "station_size":12,
  "company_code":1,
  "closed":true,
  "station_list":[
    {"code":101103,"id":"95d372","name":"木古内","name_kana":"きこない","lat":41.677642,"lng":140.434004,"prefecture":1,"lines":[1011,11118,11119,99108,11126],"attr":"eco","postal_code":"049-0422","address":"上磯郡木古内町本町","open_date":"1930-10-25","next":[1111909,1111908,1112602,1111911],"voronoi":{"lat":41.746396,"lng":140.414293,"delta_lat":[0,-31002,-59891,-7962],"delta_lng":[0,-3632,17538,48809]},"impl":true},
    {"code":1112602,"id":"1ae21e","name":"森越","name_kana":"もりこし","closed":true,"lat":41.632667,"lng":140.426667,"prefecture":1,"lines":[11126],"postal_code":"049-1102","address":"北海道上磯郡知内町字森越１０３−１２９","open_date":"1937-10-12","closed_date":"1988-02-01","next":[1112603,1111909,1112604,1111912,1111911,101103],"voronoi":{"lat":41.655503,"lng":140.4282,"delta_lat":[0,-13796,-20873,-9155,27815,8047],"delta_lng":[0,-34586,13477,106528,-23673,-12937]},"impl":false},
    {"code":1112603,"id":"eef1e3","name":"渡島知内","name_kana":"おしましりうち","closed":true,"lat":41.605833,"lng":140.424361,"prefecture":1,"lines":[11126],"postal_code":"049-1103","address":"北海道上磯郡知内町字重内６６−７２６","open_date":"1937-10-12","closed_date":"1988-02-01","next":[1120516,1112602,1111803,1112604,1111912,1111913,1112607,9910523],"voronoi":{"lat":41.430459,"lng":140.69614,"delta_lat":[0,125426,55794,9155,-161004,-36571,-20889,27492],"delta_lng":[0,-118200,-64321,-106528,-9042,25844,95294,177255]},"impl":false},
    {"code":1112604,"id":"8d4913","name":"重内","name_kana":"おもない","closed":true,"lat":41.607861,"lng":140.38825,"prefecture":1,"lines":[11126],"postal_code":"049-1103","address":"北海道上磯郡知内町字重内７７","open_date":"1962-12-25","closed_date":"1988-02-01","next":[1112607,1111805,1112603,1112602,1111909,1111908],"voronoi":{"lat":41.642762,"lng":140.356734,"delta_lat":[0,-159782,-23150,161004,20873,4097],"delta_lng":[0,20289,21026,9042,-13477,-11194]},"impl":false},
    {"code":1112605,"id":"d1ec6e","name":"湯ノ里","name_kana":"ゆのさと","closed":true,"lat":41.601972,"lng":140.322944,"prefecture":1,"lines":[11126],"postal_code":"049-1221","address":"北海道上磯郡知内町字湯ノ里１４３","open_date":"1938-10-21","closed_date":"1988-02-01","next":[1111907,1112606,1111805,1111908],"voronoi":{"lat":41.542035,"lng":140.324577,"delta_lat":[0,103362,28127,-18040],"delta_lng":[0,-83106,65118,26310]},"impl":false},
    {"code":1112606,"id":"b54df8","name":"千軒","name_kana":"せんげん","closed":true,"lat":41.5565,"lng":140.266389,"prefecture":1,"lines":[11126],"postal_code":"049-1332","address":"北海道松前郡福島町字千軒","open_date":"1938-10-21","closed_date":"1988-02-01","next":[1111805,1112607,1112605,1111907,1112612,1112611,1111905],"voronoi":{"lat":41.645397,"lng":140.241471,"delta_lat":[0,-103362,-40543,39843,60036,5923,37905],"delta_lng":[0,83106,26373,-196435,-56155,-4617,95891]},"impl":false},
    {"code":1112607,"id":"081f9b","name":"渡島福島","name_kana":"おしまふくしま","closed":true,"lat":41.483778,"lng":140.251639,"prefecture":1,"lines":[11126],"postal_code":"049-1312","address":"北海道松前郡福島町字福島８２０","open_date":"1942-11-01","closed_date":"1988-02-01","next":[1112604,1112606,1111803,1112610,1112603,1111805,1112611,1112608,1112609],"voronoi":{"lat":41.504006,"lng":140.172038,"delta_lat":[0,4255,33073,-39843,-18512,-23150,-36571,-2960,71323],"delta_lng":[0,-2866,-14656,196435,26072,21026,25844,-6962,-223796]},"impl":false},
    {"code":1112608,"id":"9b8afd","name":"白符","name_kana":"しらふ","closed":true,"lat":41.464167,"lng":140.245389,"prefecture":1,"lines":[11126],"postal_code":"049-1301","address":"北海道松前郡福島町字白符６１１","open_date":"1957-01-25","closed_date":"1988-02-01","next":[1111803,1112609,1112607],"voronoi":{"lat":41.491622,"lng":140.193134,"delta_lat":[0,-115251,43928],"delta_lng":[0,135157,88639]},"impl":false},
    {"code":1112609,"id":"fc6a7e","name":"渡島吉岡","name_kana":"おしまよしおか","closed":true,"lat":41.444361,"lng":140.2285,"prefecture":1,"lines":[11126],"postal_code":"049-1453","address":"北海道松前郡字吉岡福島町","open_date":"1942-11-01","closed_date":"1988-02-01","next":[1112610,1111803,1112608,1112607],"voronoi":{"lat":41.504006,"lng":140.172038,"delta_lat":[0,-188693,61057,115251],"delta_lng":[0,60598,95656,-135157]},"impl":false},
    {"code":1112610,"id":"5a529d","name":"渡島大沢","name_kana":"おしまおおさわ","closed":true,"lat":41.422639,"lng":140.160861,"prefecture":1,"lines":[11126],"postal_code":"049-1523","address":"北海道松前郡松前町字荒谷５４９−７","open_date":"1946-12-15","closed_date":"1988-02-01","next":[1112609,1112612,1112611,1111803,1112607],"voronoi":{"lat":41.315313,"lng":140.232636,"delta_lat":[0,-137649,171532,159065,-4255],"delta_lng":[0,-121702,13817,44421,2866]},"impl":false},
    {"code":1112611,"id":"e05cbc","name":"及部","name_kana":"およべ","closed":true,"lat":41.430722,"lng":140.131917,"prefecture":1,"lines":[11126],"postal_code":"049-1521","address":"北海道松前郡松前町字上川６","open_date":"1957-01-25","closed_date":"1988-02-01","next":[1112610,1112606,1112612,1112607],"voronoi":{"lat":41.541334,"lng":140.154515,"delta_lat":[0,60036,-252174,159065],"delta_lng":[0,-56155,26390,44421]},"impl":false},
    {"code":1112612,"id":"d8564a","name":"松前(北海道)","original_name":"松前","name_kana":"まつまえ","closed":true,"lat":41.427472,"lng":140.100861,"prefecture":1,"lines":[11126],"postal_code":"049-1505","address":"北海道松前郡松前町字博多１７４","open_date":"1953-11-08","closed_date":"1988-02-01","next":[1120427,1011011,1120419,1112610,1120426,1111903,1111904,1011010,1111905,1112606,1111803,1112611,1120425,1120420,1111902],"voronoi":{"lat":41.686959,"lng":138.966735,"delta_lat":[0,-79341,-90025,-336637,-11461,-43951,-15978,-10477,78575,171532,252174,5923,1948,11778,1778],"delta_lng":[0,-347413,-370042,1168131,43537,286976,158704,150167,54139,13817,-26390,-4617,-7752,-62426,-13203]},"impl":false}
  ],
  "closed_date":"1988-02-01",
  "impl":false
}