{
  "code":11123,
  "id":"3dbc62",
  "name":"JR標津線",
  "name_kana":"じぇいあーるしべつせん",
  "name_formal":"JR標津線",
  "station_size":19,
  "company_code":1,
  "closed":true,
  "station_list":[
    {"code":1111720,"id":"9177db","name":"標茶","name_kana":"しべちゃ","lat":43.298472,"lng":144.608434,"prefecture":1,"lines":[11117,11123],"attr":"eco","postal_code":"088-2314","address":"川上郡標茶町字標茶","next":[1112303,1112302,1110807,1111721,1111719,1110805],"voronoi":{"lat":43.166627,"lng":144.67384,"delta_lat":[0,143205,11377,-21890,-99836,-32766],"delta_lng":[0,-135974,17013,111162,59166,-45309]},"impl":true},
    {"code":1112302,"id":"766e45","name":"多和","name_kana":"たわ","closed":true,"lat":43.321944,"lng":144.613056,"prefecture":1,"lines":[11123],"postal_code":"088-2339","address":"北海道川上郡標茶町字上多和６","open_date":"1961-04-10","closed_date":"1989-04-30","next":[1112303,1111720,1111719],"voronoi":{"lat":43.299319,"lng":144.666041,"delta_lat":[0,21890,78853],"delta_lng":[0,-111162,77122]},"impl":false},
    {"code":1112303,"id":"ff052a","name":"泉川","name_kana":"いずみかわ","closed":true,"lat":43.349444,"lng":144.694444,"prefecture":1,"lines":[11123],"postal_code":"088-2578","address":"北海道野付郡別海町泉川","open_date":"1944-05-01","closed_date":"1989-04-30","next":[1111719,1112302,1111720,1112304,1112305,1110807],"voronoi":{"lat":43.199483,"lng":144.725206,"delta_lat":[0,99836,100743,68071,-11986,-233417],"delta_lng":[0,-59166,-34040,14548,11600,143991]},"impl":false},
    {"code":1112304,"id":"2462a3","name":"光進","name_kana":"こうしん","closed":true,"lat":43.375833,"lng":144.737222,"prefecture":1,"lines":[11123],"postal_code":"088-2578","address":"北海道野付郡別海町泉川","open_date":"1962-05-01","closed_date":"1989-04-30","next":[1112303,1112305,1110807,1110809],"voronoi":{"lat":43.456148,"lng":144.658149,"delta_lat":[0,-233417,843,69557],"delta_lng":[0,143991,5909,100634]},"impl":false},
    {"code":1112305,"id":"8040c1","name":"西春別","name_kana":"にししゅんべつ","closed":true,"lat":43.416389,"lng":144.763611,"prefecture":1,"lines":[11123],"postal_code":"088-2564","address":"北海道野付郡別海町西春別駅前西町２７４−１","open_date":"1936-10-29","closed_date":"1989-04-30","next":[1112306,1112309,1110810,1110809,1112303,1111718,1111719,1112308,1112304,1112316],"voronoi":{"lat":43.303959,"lng":144.929617,"delta_lat":[0,-10828,163017,11986,22691,16435,-125978,-36517,-29622,-6532],"delta_lng":[0,-20935,-250534,-11600,-4012,810,239661,32585,18758,318]},"impl":false},
    {"code":1112306,"id":"847744","name":"上春別","name_kana":"かみしゅんべつ","closed":true,"lat":43.459722,"lng":144.786389,"prefecture":1,"lines":[11123],"postal_code":"088-2601","address":"北海道野付郡別海町大成８","open_date":"1963-07-01","closed_date":"1989-04-30","next":[1112305,1112307,1111718,1111715,1112308,1111714],"voronoi":{"lat":43.589954,"lng":144.64682,"delta_lat":[0,-21890,-60804,-125978,32816,192284],"delta_lng":[0,-10427,6953,239661,-19254,-201811]},"impl":false},
    {"code":1112307,"id":"a94a57","name":"計根別","name_kana":"けねべつ","closed":true,"lat":43.489167,"lng":144.814444,"prefecture":1,"lines":[11123],"postal_code":"088-2682","address":"北海道標津郡中標津町計根別本通東２丁目２１","open_date":"1936-10-29","closed_date":"1989-04-30","next":[1111714,1112306,1112308,1010607],"voronoi":{"lat":43.414097,"lng":144.863754,"delta_lat":[0,192284,51993,6215],"delta_lng":[0,-201811,38557,85162]},"impl":false},
    {"code":1112308,"id":"2b1d94","name":"開栄","name_kana":"かいえい","closed":true,"lat":43.503889,"lng":144.861667,"prefecture":1,"lines":[11123],"postal_code":"088-2681","address":"北海道標津郡中標津町字当幌","open_date":"1961-10-01","closed_date":"1989-04-30","next":[1112311,1112306,1010607,1112307,1112309,1112305],"voronoi":{"lat":43.381281,"lng":144.883007,"delta_lat":[0,32816,250492,10625,-39760,-290690],"delta_lng":[0,-19254,-78092,49256,32971,47704]},"impl":false},
    {"code":1112309,"id":"9db990","name":"当幌","name_kana":"とうほろ","closed":true,"lat":43.512778,"lng":144.915833,"prefecture":1,"lines":[11123],"postal_code":"086-1144","address":"北海道標津郡中標津町東当幌","open_date":"1937-10-30","closed_date":"1989-04-30","next":[1112316,1112311,1112305,1112310,1112308,1112314,1112315],"voronoi":{"lat":43.507742,"lng":144.959693,"delta_lat":[0,103637,24075,-290690,-29622,55417,20578],"delta_lng":[0,-61326,-30478,47704,18758,24908,4779]},"impl":false},
    {"code":1112310,"id":"da26cb","name":"中標津","name_kana":"なかしべつ","closed":true,"lat":43.548611,"lng":144.976389,"prefecture":1,"lines":[11123],"postal_code":"086-1003","address":"北海道標津郡中標津町東３条南１丁目４−３","open_date":"1934-10-01","closed_date":"1989-04-30","next":[1112311,1112309,1112314],"voronoi":{"lat":43.507742,"lng":144.959693,"delta_lat":[0,103637,-43223],"delta_lng":[0,-61326,135143]},"impl":false},
    {"code":1112311,"id":"c63c89","name":"上武佐","name_kana":"かみむさ","closed":true,"lat":43.617222,"lng":144.998333,"prefecture":1,"lines":[11123],"postal_code":"086-1271","address":"北海道標津郡中標津町字武佐９５７−６","open_date":"1937-10-30","closed_date":"1989-04-30","next":[1112315,1112309,1112310,1010607,1112308,1112312,1112313,1112314],"voronoi":{"lat":43.573909,"lng":145.086477,"delta_lat":[0,16128,131935,-46758,-39760,-24075,-43223,2095],"delta_lng":[0,-5535,-195821,-50203,32971,30478,135143,44895]},"impl":false},
    {"code":1112312,"id":"b8b746","name":"川北","name_kana":"かわきた","closed":true,"lat":43.656389,"lng":145.024722,"prefecture":1,"lines":[11123],"postal_code":"086-1451","address":"北海道標津郡標津町字川北","open_date":"1937-10-30","closed_date":"1989-04-30","next":[1112313,1010607,1112311],"voronoi":{"lat":43.721973,"lng":144.885121,"delta_lat":[0,223463,-355398],"delta_lng":[0,176025,19796]},"impl":false},
    {"code":1112313,"id":"d7e636","name":"根室標津","name_kana":"ねむろしべつ","closed":true,"lat":43.662222,"lng":145.129444,"prefecture":1,"lines":[11123],"postal_code":"086-1633","address":"北海道標津郡標津町北３条西２丁目２","open_date":"1937-10-30","closed_date":"1989-04-30","next":[1112315,1111709,1112312,1112317,1110820,1010607,1112311,1112221,1112318,1112316,1110821],"voronoi":{"enclosed":false,"lat":195.957259,"lng":227.93652,"delta_lat":[0,-87383880,-35016648,-29611295,-355398,-16128,-38238,-9152,-819,11905,485299,81008810],"delta_lng":[0,-48621575,-18603331,-15650469,19796,5535,102191,60070,88200,50972,358997,58630817]},"impl":false},
    {"code":1112314,"id":"460db4","name":"協和","name_kana":"きょうわ","closed":true,"lat":43.516028,"lng":145.003056,"prefecture":1,"lines":[11123],"postal_code":"086-1136","address":"北海道標津郡中標津町字協和４０","open_date":"1957-12-25","closed_date":"1989-04-30","next":[1112309,1112311,1112310,1112315],"voronoi":{"lat":43.568157,"lng":145.03351,"delta_lat":[0,-60414,-116605,179114],"delta_lng":[0,-73817,4345,114367]},"impl":false},
    {"code":1112315,"id":"0bb523","name":"春別","name_kana":"しゅんべつ","closed":true,"lat":43.479083,"lng":145.060917,"prefecture":1,"lines":[11123],"postal_code":"086-0651","address":"北海道野付郡別海町中春別東町１７４","open_date":"1934-10-01","closed_date":"1989-04-30","next":[1112313,1112311,1112316,1112309,1112314],"voronoi":{"lat":43.573909,"lng":145.086477,"delta_lat":[0,-38238,-165112,20578,179114],"delta_lng":[0,102191,-229409,4779,114367]},"impl":false},
    {"code":1112316,"id":"a47498","name":"平糸","name_kana":"ひらいと","closed":true,"lat":43.4325,"lng":145.094444,"prefecture":1,"lines":[11123],"postal_code":"086-0216","address":"北海道野付郡別海町別海","open_date":"1961-10-01","closed_date":"1989-04-30","next":[1112309,1112317,1110810,1112315,1112305,1112313],"voronoi":{"lat":43.300026,"lng":144.973851,"delta_lat":[0,8585,6532,55417,165112,-9152],"delta_lng":[0,-39182,-318,24908,229409,60070]},"impl":false},
    {"code":1112317,"id":"8bdf19","name":"別海","name_kana":"べっかい","closed":true,"lat":43.393056,"lng":145.126944,"prefecture":1,"lines":[11123],"postal_code":"086-0202","address":"北海道野付郡別海町別海旭町６７−１","open_date":"1933-12-01","closed_date":"1989-04-30","next":[1112318,1112316,1110810,1110811,1112313],"voronoi":{"lat":43.526519,"lng":145.248738,"delta_lat":[0,-226494,-12402,-10395,248472],"delta_lng":[0,-274887,33069,89720,240298]},"impl":false},
    {"code":1112318,"id":"6cdc39","name":"奥行臼","name_kana":"おくゆきうす","closed":true,"lat":43.311389,"lng":145.211389,"prefecture":1,"lines":[11123],"postal_code":"086-0213","address":"北海道野付郡別海町奥行１６","open_date":"1933-12-01","closed_date":"1989-04-30","next":[1112317,1110815,1110821,1110811,1110812,1110813,1112313,1110814],"voronoi":{"lat":43.312895,"lng":145.319773,"delta_lat":[0,-58651,12954,10030,248472,11905,-102195,-86561],"delta_lng":[0,-119825,-89499,-13810,240298,50972,4275,-37920]},"impl":false},
    {"code":1110813,"id":"a0dee2","name":"厚床","name_kana":"あっとこ","lat":43.228224,"lng":145.252096,"prefecture":1,"lines":[11108,11123],"attr":"eco","postal_code":"086-0064","address":"根室市厚床１丁目","next":[1112318,1110814,1110812],"voronoi":{"lat":43.254244,"lng":145.199949,"delta_lat":[0,58651,-170803],"delta_lng":[0,119825,-57234]},"impl":true}
  ],
  "closed_date":"1989-04-30",
  "impl":false
}