{
  "code":11125,
  "id":"e1780f",
  "name":"JR幌内線",
  "name_kana":"じぇいあーるほろないせん",
  "name_formal":"JR幌内線",
  "station_size":9,
  "company_code":1,
  "closed":true,
  "station_list":[
    {"code":1110327,"id":"b5182e","name":"岩見沢","name_kana":"いわみざわ","lat":43.204201,"lng":141.759359,"prefecture":1,"lines":[11103,11105,11125],"attr":"eco","postal_code":"068-0034","address":"岩見沢市有明町南","next":[1011602,1110328,1111220,1112502,1110513,1110326],"voronoi":{"lat":43.173267,"lng":141.777061,"delta_lat":[0,15346,69553,26014,-20394,-78796],"delta_lng":[0,12394,-28379,-28450,-31260,40092]},"impl":true},
    {"code":1112502,"id":"a5100f","name":"栄町(JR)","original_name":"栄町","name_kana":"さかえまち","closed":true,"lat":43.220806,"lng":141.800056,"prefecture":1,"lines":[11125],"postal_code":"068-0013","address":"北海道岩見沢市東町１条８丁目","open_date":"1980-10-01","closed_date":"1987-07-13","next":[1112503,1110327,1011602,1110328],"voronoi":{"lat":43.194916,"lng":141.822965,"delta_lat":[0,-6303,69553,-15229],"delta_lng":[0,-33509,-28379,45725]},"impl":false},
    {"code":1112503,"id":"a21bf0","name":"萱野","name_kana":"かやの","closed":true,"lat":43.229389,"lng":141.825556,"prefecture":1,"lines":[11125],"postal_code":"068-2166","address":"北海道三笠市萱野５３４−２","open_date":"1913-09-11","closed_date":"1987-07-13","next":[1112504,1011603,1110328,1112502,1011602,1112505],"voronoi":{"lat":43.190368,"lng":141.843913,"delta_lat":[0,4548,48021,12570,-43563,-12084],"delta_lng":[0,-20948,-16163,40778,9491,502]},"impl":false},
    {"code":1112504,"id":"b889f1","name":"三笠","name_kana":"みかさ","closed":true,"lat":43.240917,"lng":141.878472,"prefecture":1,"lines":[11125],"postal_code":"068-2141","address":"北海道三笠市本町９７１−１","open_date":"1882-11-13","closed_date":"1987-07-13","next":[1112503,1110328,1112505,1112507,1110330,1110329],"voronoi":{"lat":43.258337,"lng":141.848634,"delta_lat":[0,-2830,-43563,39337,26920,-793],"delta_lng":[0,-1055,9491,41254,-8204,-12307]},"impl":false},
    {"code":1112505,"id":"23ff47","name":"幌内住吉","name_kana":"ほろないすみよし","closed":true,"lat":43.231944,"lng":141.887028,"prefecture":1,"lines":[11125],"postal_code":"068-2142","address":"北海道三笠市幌内住吉町１１−１","open_date":"1950-01-20","closed_date":"1972-11-01","next":[1112503,1112504,1112507,1112506,1011603],"voronoi":{"lat":43.248882,"lng":141.899884,"delta_lat":[0,2399,-39337,-12084,-4910],"delta_lng":[0,-1559,-41254,502,27452]},"impl":false},
    {"code":1112506,"id":"e6a485","name":"幌内","name_kana":"ほろない","closed":true,"lat":43.22775,"lng":141.90225,"prefecture":1,"lines":[11125],"postal_code":"068-2145","address":"北海道三笠市幌内町２丁目２７８","open_date":"1882-11-13","closed_date":"1987-07-13","next":[1112508,1011603,1112507,1112505,1011604],"voronoi":{"lat":43.192251,"lng":141.89156,"delta_lat":[0,2699,53932,-25429,-20362],"delta_lng":[0,-6536,14859,36063,14482]},"impl":false},
    {"code":1112507,"id":"6a15c7","name":"唐松","name_kana":"とうまつ","closed":true,"lat":43.25375,"lng":141.920583,"prefecture":1,"lines":[11125],"postal_code":"068-2135","address":"北海道三笠市唐松町１丁目３８８","open_date":"1929-12-15","closed_date":"1987-07-13","next":[9911703,9911702,9911704,1112504,1112508,1112505,1112506,1110330],"voronoi":{"lat":43.29416,"lng":141.912763,"delta_lat":[0,-559,-2728,-67420,25429,2399,26920,15288],"delta_lng":[0,6117,8189,8877,-36063,-1559,-8204,19580]},"impl":false},
    {"code":1112508,"id":"c418ab","name":"弥生(北海道)","original_name":"弥生","name_kana":"やよい","closed":true,"lat":43.256694,"lng":141.942944,"prefecture":1,"lines":[11125],"postal_code":"068-2126","address":"北海道三笠市弥生町１丁目７−１","open_date":"1948-01-25","closed_date":"1987-07-13","next":[1011604,9911705,1011605,1112506,1112509,1112507,9911704],"voronoi":{"lat":43.290873,"lng":141.92707,"delta_lat":[0,-67420,-20362,-2753,2299,87765,253],"delta_lng":[0,8877,14482,8984,6460,-24829,-1633]},"impl":false},
    {"code":1112509,"id":"7ef336","name":"幾春別","name_kana":"いくしゅんべつ","closed":true,"lat":43.260694,"lng":141.957083,"prefecture":1,"lines":[11125],"postal_code":"068-2116","address":"北海道三笠市幾春別町１丁目","open_date":"1888-12-10","closed_date":"1987-07-13","next":[9911808,1112508,9911705,1011605,9911706,9911612],"voronoi":{"lat":43.270501,"lng":142.130514,"delta_lat":[0,22709,-2807,-87765,28018,34837],"delta_lng":[0,-146477,-42994,24829,127410,41758]},"impl":false}
  ],
  "closed_date":"1987-07-13",
  "impl":false
}