{
  "code":11209,
  "name":"JR釜石線(銀河ドリームライン釜石線)",
  "color":"#0073BF",
  "station_list":[
    {"code":1123176,"id":"c20046","name":"花巻","name_kana":"はなまき","lat":39.393182,"lng":141.110458,"prefecture":3,"lines":[11209,11231],"attr":"cool","postal_code":"025-0092","address":"花巻市大通り","next":[1123175,1121006,1121005,1121004,1121003,1120902,1123177],"voronoi":{"lat":39.46989,"lng":140.969293,"delta_lat":[0,-36633,-52019,-24078,-4799,9623,56500],"delta_lng":[0,22228,39162,31288,13114,67624,-25319]}},
    {"code":1120902,"id":"8fc010","name":"似内","name_kana":"にたない","lat":39.406819,"lng":141.140889,"prefecture":3,"lines":[11209],"attr":"cool","postal_code":"025-0007","address":"花巻市上似内","next":[1123175,1123176,1123177,100417],"voronoi":{"lat":39.418483,"lng":141.117391,"delta_lat":[0,-56500,-3122,74578],"delta_lng":[0,25319,12797,2275]}},
    {"code":100417,"id":"c85451","name":"新花巻","name_kana":"しんはなまき","lat":39.405839,"lng":141.17302,"prefecture":3,"lines":[11209,1004],"attr":"cool","postal_code":"025-0011","address":"花巻市矢沢第１０地割","next":[1123178,1123177,1123175,1120905,1120904,1120902],"voronoi":{"lat":39.452455,"lng":141.173196,"delta_lat":[0,1289,-93664,-18501,17283,74578],"delta_lng":[0,4191,12327,-6987,-27220,2275]}},
    {"code":1120904,"id":"3d9d40","name":"小山田","name_kana":"おやまだ","lat":39.4086,"lng":141.193999,"prefecture":3,"lines":[11209],"attr":"cool","postal_code":"025-0013","address":"花巻市幸田","next":[1123178,1120905,1123179,100417],"voronoi":{"lat":39.453743,"lng":141.177387,"delta_lat":[0,36106,10569,-140339],"delta_lng":[0,63055,41226,-91954]}},
    {"code":1120905,"id":"182348","name":"土沢","name_kana":"つちざわ","lat":39.383381,"lng":141.232488,"prefecture":3,"lines":[11209],"attr":"cool","postal_code":"028-0114","address":"花巻市東和町土沢","next":[1120907,1120904,1120906,1121307,1123179,1123175,100417],"voronoi":{"lat":39.341579,"lng":141.182727,"delta_lat":[0,-33715,163811,33508,6320,-11084,-140339],"delta_lng":[0,18161,108098,10916,-14269,-23965,-91954]}},
    {"code":1120906,"id":"576dda","name":"晴山","name_kana":"はるやま","lat":39.366617,"lng":141.257892,"prefecture":3,"lines":[11209],"attr":"cool","postal_code":"028-0113","address":"花巻市東和町東晴山","next":[1120905,1120907,1123175,100415,100416],"voronoi":{"lat":39.303627,"lng":141.202231,"delta_lat":[0,4236,163811,-229150,10044],"delta_lng":[0,-1344,108098,-42716,-32126]}},
    {"code":1120907,"id":"3d20f4","name":"岩根橋","name_kana":"いわねばし","lat":39.355264,"lng":141.318795,"prefecture":3,"lines":[11209],"attr":"cool","postal_code":"028-0304","address":"遠野市宮守町下宮守","next":[1120909,100415,1120908,1120905,1121307,1120906],"voronoi":{"lat":39.242525,"lng":141.26627,"delta_lat":[0,-4977,66646,197212,3777,-33508],"delta_lng":[0,8033,53699,26303,-34403,-10916]}},
    {"code":1120908,"id":"7595d4","name":"宮守","name_kana":"みやもり","lat":39.351066,"lng":141.350271,"prefecture":3,"lines":[11209],"attr":"cool","postal_code":"028-0304","address":"遠野市宮守町下宮守","next":[1120907,1120912,1121308,1120911,1121307,1120909,1120913],"voronoi":{"lat":39.458213,"lng":141.434752,"delta_lat":[0,-82334,-23897,-47789,197212,-50,-21560],"delta_lng":[0,-21500,-12566,-72685,26303,13839,70470]}},
    {"code":1120909,"id":"576823","name":"柏木平","name_kana":"かしわぎだいら","lat":39.30606,"lng":141.379862,"prefecture":3,"lines":[11209],"attr":"cool","postal_code":"028-0303","address":"遠野市宮守町下鱒沢","next":[1120907,1120911,100415,1120910,1120908],"voronoi":{"lat":39.342223,"lng":141.401463,"delta_lat":[0,-187880,83204,66646,47789],"delta_lng":[0,-57187,-69973,53699,72685]}},
    {"code":1120910,"id":"9f7972","name":"鱒沢","name_kana":"ますざわ","lat":39.300158,"lng":141.399252,"prefecture":3,"lines":[11209],"attr":"cool","postal_code":"028-0303","address":"遠野市宮守町下鱒沢","next":[1120808,100415,1120817,1120911,1120909],"voronoi":{"lat":39.154343,"lng":141.344275,"delta_lat":[0,-2671,-23576,18632,195495],"delta_lng":[0,1964,91818,28693,-65288]}},
    {"code":1120911,"id":"968fef","name":"荒谷前","name_kana":"あらやまえ","lat":39.309928,"lng":141.428507,"prefecture":3,"lines":[11209],"attr":"cool","postal_code":"028-0302","address":"遠野市宮守町上鱒沢","next":[1120909,1120908,1120912,1120910,1120917,1120817],"voronoi":{"lat":39.214529,"lng":141.492385,"delta_lat":[0,161351,-23897,-9759,-195495,4461],"delta_lng":[0,-79132,-12566,776,65288,8489]}},
    {"code":1120912,"id":"f4ac51","name":"岩手二日町","name_kana":"いわてふつかまち","lat":39.323441,"lng":141.45606,"prefecture":3,"lines":[11209],"attr":"cool","postal_code":"028-0532","address":"遠野市綾織町下綾織","next":[1120908,1120911,1120913,1120917],"voronoi":{"lat":39.214529,"lng":141.492385,"delta_lat":[0,161351,82334,-242527],"delta_lng":[0,-79132,21500,58120]}},
    {"code":1120913,"id":"6d045a","name":"綾織","name_kana":"あやおり","lat":39.328422,"lng":141.476845,"prefecture":3,"lines":[11209],"attr":"cool","postal_code":"028-0531","address":"遠野市綾織町新里","next":[1120914,1121308,1120917,1121309,1120916,1120912,1120908],"voronoi":{"lat":39.481146,"lng":141.449146,"delta_lat":[0,-5074,-223391,-22276,-14719,242527,21582],"delta_lng":[0,43537,17029,-8944,-7896,-58120,3861]}},
    {"code":1120914,"id":"ec66ff","name":"遠野","name_kana":"とおの","lat":39.332529,"lng":141.53072,"prefecture":3,"lines":[11209],"attr":"heat","postal_code":"028-0522","address":"遠野市新穀町","next":[1121312,1120913,1120915,1121311,1121309,1120916],"voronoi":{"lat":39.252682,"lng":141.509713,"delta_lat":[0,223391,4570,-14345,-11046,-196387],"delta_lng":[0,-17029,68176,42921,19401,-108098]}},
    {"code":1120915,"id":"0e01de","name":"青笹","name_kana":"あおざさ","lat":39.311482,"lng":141.568957,"prefecture":3,"lines":[11209],"attr":"heat","postal_code":"028-0503","address":"遠野市青笹町青笹","next":[1120918,1120916,1121312,1120920,1120914],"voronoi":{"lat":39.258865,"lng":141.515084,"delta_lat":[0,87383,315,89186,19503],"delta_lng":[0,138884,232,18515,-49533]}},
    {"code":1120916,"id":"b2f6b3","name":"岩手上郷","name_kana":"いわてかみごう","lat":39.284658,"lng":141.585834,"prefecture":3,"lines":[11209],"attr":"heat","postal_code":"028-0776","address":"遠野市上郷町板沢","next":[1120915,1120913,1120918,1120917,1120914],"voronoi":{"lat":39.346247,"lng":141.653968,"delta_lat":[0,-53626,-62216,22276,6183],"delta_lng":[0,-26728,-126471,8944,5371]}},
    {"code":1120917,"id":"3d3610","name":"平倉","name_kana":"ひらくら","lat":39.264682,"lng":141.595661,"prefecture":3,"lines":[11209],"attr":"heat","postal_code":"028-0775","address":"遠野市上郷町平倉","next":[1120913,1120817,1120912,1120918,1120911,1120916,1120818],"voronoi":{"lat":39.146164,"lng":141.550311,"delta_lat":[0,5025,63339,1158,14719,62216,-143549],"delta_lng":[0,-75072,17145,488,7896,126471,-28386]}},
    {"code":1120918,"id":"8caa10","name":"足ヶ瀬","name_kana":"あしがせ","lat":39.254766,"lng":141.645807,"prefecture":3,"lines":[11209],"attr":"heat","postal_code":"028-0772","address":"岩手県遠野市上郷町細越38","next":[1120915,1120825,1120916,1120917,1120920,1120919,1120818],"voronoi":{"lat":39.149073,"lng":141.598853,"delta_lat":[0,143549,53626,315,-62641,-132308,-5269],"delta_lng":[0,28386,26728,232,22153,-47244,-13666]}},
    {"code":1120919,"id":"a9bc4f","name":"上有住","name_kana":"かみありす","lat":39.242013,"lng":141.681522,"prefecture":3,"lines":[11209],"attr":"heat","postal_code":"029-2501","address":"気仙郡住田町上有住","next":[1120921,1120825,1120918,1120920],"voronoi":{"lat":39.170417,"lng":141.72929,"delta_lat":[0,-18803,132308,-43453],"delta_lng":[0,-100182,47244,45247]}},
    {"code":1120920,"id":"81d9c2","name":"陸中大橋","name_kana":"りくちゅうおおはし","lat":39.280451,"lng":141.718436,"prefecture":3,"lines":[11209],"attr":"eco","postal_code":"026-0055","address":"釜石市甲子町","next":[9920813,1120915,1120922,1121313,9920812,1120921,1120918,1120919,1121312],"voronoi":{"lat":39.439836,"lng":141.760525,"delta_lat":[0,-38400,-39022,-50025,-71920,43453,62641,89186,7555],"delta_lng":[0,15880,10701,-14453,-51053,-45247,-22153,18515,64876]}},
    {"code":1120921,"id":"17b022","name":"洞泉","name_kana":"どうせん","lat":39.250671,"lng":141.760388,"prefecture":3,"lines":[11209],"attr":"eco","postal_code":"026-0055","address":"釜石市甲子町","next":[9920807,1120922,1120919,1120825,9920806,1120920],"voronoi":{"lat":39.240468,"lng":141.7216,"delta_lat":[0,-70052,-3218,10293,16490,118407],"delta_lng":[0,7691,10650,27785,21601,-16674]}},
    {"code":1120922,"id":"c4cacb","name":"松倉","name_kana":"まつくら","lat":39.256458,"lng":141.801484,"prefecture":3,"lines":[11209],"attr":"eco","postal_code":"026-0055","address":"釜石市甲子町","next":[9920808,1120920,1120921,9920807,1120923,9920812],"voronoi":{"lat":39.362413,"lng":141.787105,"delta_lat":[0,-50025,-118407,4695,25913,123167],"delta_lng":[0,-14453,16674,14172,23699,-28149]}},
    {"code":1120923,"id":"c2de02","name":"小佐野","name_kana":"こさの","lat":39.264464,"lng":141.836515,"prefecture":3,"lines":[11209],"attr":"eco","postal_code":"026-0052","address":"釜石市小佐野町１","next":[9920809,9920808,9920811,9920812,1120922,1120924],"voronoi":{"lat":39.307629,"lng":141.845103,"delta_lat":[0,6914,33214,-123167,10411,14888],"delta_lng":[0,-5731,-40324,28149,26392,5658]}},
    {"code":1120924,"id":"fb88bc","name":"釜石","name_kana":"かまいし","lat":39.273321,"lng":141.87267,"prefecture":3,"lines":[11209,99208,99219],"attr":"eco","postal_code":"026-0031","address":"釜石市鈴子町","next":[9920811,9920809,1120923],"voronoi":{"lat":39.307629,"lng":141.845103,"delta_lat":[0,-32048,-25692],"delta_lng":[0,67716,-53572]}}
  ],
  "north":39.40968,
  "south":39.23891,
  "east":141.87324,
  "west":141.10983,
  "polyline_list":[
    {
      "start":"花巻",
      "end":"釜石",
      "lat":39.39229,
      "lng":141.11067,
      "delta_lat":[0,291,6,38,30,23,24,100,15,45,41,235,87,20,13,14,14,18,8,9,21,11,11,6,64,6,35,8,15,32,16,24,11,51,13,59,9,26,15,3,19,2,2,20,-1,0,-9,-23,-38,-11,-38,-18,-46,-68,-3,-22,-12,-12,-4,-3,-3,7,3,11,3,30,20,18,33,17,22,37,14,36,27,11,12,35,11,42,95,23,19,14,-1,-15,-29,-38,-56,-27,-35,-54,-14,-20,-13,-16,-3,-31,-37,-41,-83,-12,-84,-192,-58,-26,-86,-30,-129,-39,-50,-49,-39,-86,-60,-47,-52,-58,-36,-10,-47,-117,-47,-9,-68,-15,-22,-30,-17,-20,-49,-198,-13,-7,-17,-198,-20,-49,-79,-84,-68,-87,-88,-58,-93,-16,-16,-9,-5,-2,4,5,7,3,-5,-7,-5,-15,-12,-6,-7,-51,-45,-20,-38,-19,-26,-15,-14,-45,-96,-51,-11,-24,-26,-20,-18,-38,-79,-49,-62,-87,-32,-38,-43,-34,-20,-15,-94,-144,-40,-24,-38,-36,-34,-17,-17,-6,-5,1,2,7,2,-3,-8,-10,-13,-2,-6,-8,-10,-14,-11,2,3,4,2,3,6,6,5,-2,-6,-4,-12,-16,-16,-15,-10,-4,-5,-6,-2,-1,-1,1,12,0,8,12,34,33,32,24,17,6,0,0,-8,-17,-7,-12,-1,-8,-8,-9,-17,-23,-25,-31,-23,-14,-12,-10,-12,-13,-15,-13,-13,-32,-15,-17,-73,-41,-33,-27,-49,-48,-38,-35,-18,-24,-11,-12,-6,-7,-3,0,3,15,11,3,0,-7,0,-6,-9,-5,2,4,7,13,18,27,23,76,31,16,15,8,2,0,-2,-3,-5,-8,-7,-14,-15,-16,-33,-21,-33,-36,-49,-29,-7,-49,-36,-32,-45,-28,-29,-3,-9,-13,-5,-3,-3,0,0,0,2,13,22,21,29,21,28,23,43,40,16,8,5,8,5,11,14,8,3,-9,-11,-18,-16,-18,-13,-16,-22,-27,-16,-33,-21,-26,-16,-17,-15,-21,-18,-12,-11,-11,-144,-44,-57,-46,-39,-40,-13,-16,-35,-31,-12,-11,-15,-14,-16,-20,-20,-28,-21,-12,-24,-11,-18,-11,-10,-15,-15,-12,-13,-14,-16,-22,-25,-31,-35,-34,-29,-23,-24,-23,-37,-33,-40,-36,-26,-43,-19,-21,-15,-17,-27,-27,-41,-32,-30,-38,-28,-7,-3,-35,-18,-26,-79,-42,-66,-19,-61,-65,-25,-42,-54,-80,-57,-69,-43,-53,-31,-34,-25,-61,-21,-14,-11,-18,-18,-40,-42,-59,-20,-39,-64,-25,-36,-107,-61,-80,-139,-107,-41,-46,-94,-45,-37,-13,-36,-24,-23,-15,-4,-12,-20,-11,-13,-12,-24,-7,-9,-7,-8,-7,-16,-25,-8,-14,-36,-17,-14,-18,-13,-14,-24,-25,-60,-62,-38,-19,-34,-7,-58,-29,-26,-28,-69,-34,-47,-18,-26,-16,-33,-18,-23,-31,-25,-16,-26,-25,-23,-10,-8,-10,-5,-2,-2,2,4,1,2,0,0,2,5,6,16,10,10,6,7,18,36,20,17,23,14,11,9,7,1,-1,-5,-8,-10,-17,-15,-18,-21,-23,-29,-44,-56,-29,-19,-22,-20,-12,-15,-11,-9,-9,-6,-5,-2,0,0,4,9,15,2,3,11,9,6,6,8,19,26,16,7,19,5,9,21,46,31,55,35,51,40,35,19,28,42,33,59,26,12,45,51,33,34,15,16,27,13,12,11,10,8,4,3,2,0,0,0,0,2,5,2,4,2,7,19,40,24,31,18,18,16,13,10,13,23,22,40,64,36,44,35,27,25,31,24,56,22,14,43,49,15,32,36,16,13,18,13,11,10,7,9,10,7,9,9,5,4,8,21,47,56,33,29,25,18,14,18,24,18,36,25,24,31,32,38,33,23,35,28,18,42,23,28,39,21,24,3,9,3,4,4,1,4,8,8,7,8,7,5,6,6,6,8,7,3,7,4,9,5,6,3,4,11,5,4,6,5,7,2,5,7,8,7,3,12,3,2,6,9,39,40,25,13,14,25,22,-1,-10,-17,-8,-34,-41,-49,-10,-1,5,8,19,22,20,98,61,25,12,15,4,-4,-18,-29,-19,-37,-36,-53,-10,-4,2,13,14,42,23,15,3,-4,-14,-12,-6,-14,-31,-40,-54,-22,-20,-20,-70,-146,-26,-22,-23,-38,-24,-25,-19,-55,-29,-52,-25,-47,-85,-73,-115,-69,-87,-40,-74,-166,-171,-20,-19,-205,-107,-56,-92,-145,-55,-72,-16,-85,-80,-97,-161,-280,-124,-103,-78,-49,-61,-47,-58,-105,-38,-64,-26,-20,-51,-43,-36,-41,-45,-199,-101,-56,-32,-161,-87,-165,-153,-61,-65,-56,-48,-55,-58,-193,-158,-405,-32,-87,-83,-20,-49,-39,-39,-34,-26,-23,-19,-20,-12,-5,-3,-7,-8,-9,-9,-9,-34,-22,-6,-52,-19,-4,-9,0,8,-5,-63,-17,-41,-39,-17,-56,-40,-27,-9,-7,-9,-4,-1,-1,-1,-2,-3,-5,-8,-4,-20,-41,-37,-25,-20,-7,-11,0,5,8,3,0,-1,-4,-3,-9,-8,-13,-28,-30,-50,-91,-15,-17,-27,-24,-23,-9,-5,2,3,3,13,10,15,19,26,31,35,24,15,10,2,-6,-12,-14,-43,-163,-126,-20,-331,-518,-19,-17,-17,-7,-27,-35,-24,-21,-23,-17,-27,-30,-35,-23,-26,-26,-28,-23,-27,-33,-23,-16,-11,-8,-5,2,5,7,8,11,21,17,12,11,2,7,2,7,6,2,10,2,13,9,9,13,14,29,16,18,20,18,36,47,47,19,24,14,13,15,24,32,29,29,175,228,78,112,100,55,19,10,10,10,33,32,34,42,45,43,37,51,39,38,65,84,35,66,81,14,29,45,22,50,35,45,10,19,108,79,111,127,117,36,29,33,56,22,14,25,28,23,38,81,76,63,60,125,72,38,33,25,29,29,27,25,17,14,11,7,4,2,7,0,3,7,6,16,17,18,19,18,24,23,20,20,35,34,24,19,26,34,33,23,25,18,18,7,10,9,4,3,2,2,0,-4,-4,-5,-11,-13,-23,-27,-14,-11,-24,-41,-35,-50,-73,-61,-89,-33,-66,-81,-40,-24,-18,-10,-17,-14,-24,-15,-24,-12,-29,-11,-25,-7,-33,-24,-30,-14,-16,-16,-21,-19,-48,-57,-62,-83,-36,-43,-24,-61,-35,-61,-118,-48,-64,-40,-63,-30,-26,-18,-20,-21,-10,-30,-17,-19,-24,-23,-36,-29,-51,-42,-16,-18,-93,-24,-57,-72,-91,-28,-38,-33,-30,-12,-10,-20,-16,-33,-23,-31,-31,-30,-23,-28,-18,-12,-15,-14,-18,-15,-10,-12,-10,-15,-3,-6,-3,-6,0,-2,0,2,3,5,10,11,14,22,17,21,36,24,21,16,14,9,19,16,4,11,21,11,1,0,0,0,-6,-2,-9,-4,-10,-17,-25,-29,-36,-29,-13,-50,-47,-20,-11,-16,-14,-30,-21,-5,-6,-2,-3,-4,-2,-4,3,6,3,10,4,30,32,36,34,19,17,32,22,10,10,7,4,7,4,5,7,6,5,7,11,13,14,17,16,18,18,18,2,9,4,11,3,7,4,4,7,1,1,9,2,1,1,6,3,12,35,15,11,4,4,3,2,2,0,-2,0,0,2,2,2,2,3,0,0,2,2,1,2,2,2,2,2,3,0,3,4,2,0,0,6,3,2,1,1,3,13,16,20,20,24,28,22,20,18,23,22,23,28,9,11,18,28,31,37,50,56,45,54,35,32,36,20,38,10,11,10,10,6,7,13,2,9,2,9,2,5,6,0,11,11,9,10,11,11,9,12,9,12,14,20,12,4,5,10,14,20,36,15,50,26,29,33,33,10,43,57,41,12,16,15,7,13,9,5,7,9,9,8,9,12,27,29,29,29,29,27,27,29,2,27,27,16,13,6,3,4,0,0,-10,-3,-15,-5,-29,-1,-33,-33,-36,-34,-12,-1,-42,-52],
      "delta_lng":[0,-69,-3,-9,-4,3,2,17,7,40,43,228,93,23,19,24,28,34,23,22,75,45,53,27,361,13,199,43,89,182,91,146,65,288,69,333,60,270,195,55,292,25,34,279,50,39,70,67,73,23,68,30,77,112,6,43,44,86,61,213,105,167,42,98,30,233,135,131,222,114,171,255,107,244,178,79,47,108,31,118,270,71,64,70,68,73,85,90,107,48,78,112,64,92,62,44,15,67,55,53,89,12,78,183,56,30,129,44,191,54,55,40,30,48,40,31,52,72,55,16,100,264,112,18,147,32,54,71,41,35,76,323,19,12,28,309,30,77,117,132,108,136,140,92,151,32,32,44,63,23,98,47,51,47,67,73,59,86,63,23,18,80,77,31,62,32,40,20,16,54,102,57,10,19,17,10,7,11,23,13,17,27,11,20,23,26,16,15,98,172,47,29,48,49,53,36,37,26,31,44,57,57,39,38,106,118,163,32,103,79,71,125,139,151,94,62,59,51,173,117,105,79,138,58,63,55,48,44,41,13,43,56,65,46,68,44,85,35,40,55,81,53,42,39,39,24,18,53,73,113,32,54,6,35,27,22,40,45,54,57,40,25,21,24,26,41,43,33,31,63,22,18,63,39,31,16,19,13,15,21,11,36,15,22,24,28,27,43,29,67,58,30,77,58,26,95,130,111,37,46,44,49,40,55,35,84,41,32,47,41,19,26,39,41,38,26,28,40,34,27,46,28,42,47,62,35,11,57,40,40,68,52,56,9,27,44,23,20,24,18,27,48,6,55,81,80,95,68,80,42,55,38,24,13,10,12,10,22,49,31,35,54,37,72,63,57,37,37,44,45,26,51,38,35,23,22,16,20,14,8,5,3,14,1,0,-4,-4,-8,-6,-12,-24,-23,-8,-5,-4,-5,-2,-1,2,8,11,6,15,12,26,25,29,55,69,28,27,24,22,20,17,15,10,12,8,7,3,-2,-10,-18,-27,-30,-24,-29,-9,-5,-2,3,6,12,28,36,45,86,61,21,7,79,35,35,91,61,108,31,108,111,33,45,42,44,22,15,-1,10,12,18,24,64,22,13,7,7,6,0,-9,-19,-4,3,16,9,21,62,41,50,86,66,23,31,74,47,56,22,56,32,33,17,8,20,35,21,26,26,52,15,24,22,22,21,41,72,18,25,62,31,24,23,16,12,18,14,27,27,13,4,3,0,-11,-4,-5,-1,-3,-1,0,2,3,5,12,9,18,34,32,24,42,37,43,24,21,26,19,21,44,36,35,28,34,35,29,19,31,31,54,22,14,7,9,19,33,21,19,32,26,29,27,34,34,32,30,35,31,38,27,29,28,26,24,36,45,25,16,19,17,13,18,17,18,24,26,31,26,16,32,49,78,122,16,37,92,88,51,37,30,60,78,37,20,58,13,27,44,90,62,108,71,98,81,67,42,68,99,77,132,52,25,96,104,70,69,31,33,56,33,36,34,35,42,32,36,45,70,97,73,3,61,85,11,24,10,30,59,117,73,94,52,57,40,33,21,21,27,22,33,50,31,41,30,28,27,42,37,91,35,22,71,77,26,51,54,28,24,30,29,33,36,26,33,46,31,43,38,30,22,19,43,76,89,47,48,45,34,36,59,88,68,132,94,85,121,124,145,122,94,127,110,66,166,85,109,142,80,92,15,47,30,32,46,21,54,76,86,83,77,81,69,53,71,81,78,87,50,66,44,94,56,78,35,48,113,62,57,60,60,83,42,47,69,86,64,27,138,80,158,57,40,90,93,72,66,147,275,238,41,66,81,40,166,193,229,63,58,48,40,58,36,32,170,104,48,25,59,39,55,81,100,70,130,126,194,48,40,64,57,50,104,75,72,67,76,95,84,40,68,89,107,129,49,32,22,49,94,19,27,37,71,48,50,40,112,54,89,40,59,106,90,140,85,108,42,75,151,152,17,16,183,95,48,83,129,51,64,13,63,49,49,83,145,63,52,47,21,17,2,-9,-28,-13,-21,-6,-4,0,7,16,31,49,268,137,60,33,169,93,175,160,60,40,19,15,3,-4,-45,-38,-95,-7,-21,-18,0,3,15,19,29,25,34,34,47,46,25,26,31,63,108,144,86,439,244,42,218,120,29,80,76,89,51,326,94,171,137,61,158,122,80,26,25,42,55,36,90,57,94,41,39,41,17,54,102,92,56,54,28,47,60,59,60,20,28,18,21,18,25,20,30,65,64,96,175,35,42,75,78,107,77,115,48,36,31,85,68,59,66,65,69,66,37,35,49,52,48,42,30,62,222,172,30,453,706,23,21,15,5,14,14,9,7,5,0,-4,-8,-10,-5,-3,0,6,9,20,27,24,24,24,29,31,27,28,31,22,25,45,38,32,27,5,25,7,31,23,7,24,6,41,32,38,44,50,99,46,42,46,35,78,104,95,40,54,40,37,61,93,117,107,105,628,822,283,394,372,207,68,25,18,26,54,44,28,18,7,-4,-7,-16,-17,-17,-29,-41,-12,-16,-12,-1,3,8,5,4,12,18,3,12,54,42,60,67,62,21,18,17,24,5,-2,-1,-8,-9,-26,-52,-50,-42,-40,-81,-49,-21,-21,-21,-26,-31,-35,-35,-22,-23,-25,-18,-21,-17,-81,-24,-38,-47,-31,-48,-42,-32,-32,-23,-26,-22,-12,-7,-5,-2,4,3,8,14,16,18,25,19,30,19,35,45,28,17,13,33,30,19,22,12,19,25,28,26,12,9,13,27,24,34,51,38,59,21,43,53,25,14,13,13,28,27,44,28,47,22,49,19,32,9,32,18,15,5,1,1,3,5,6,6,7,9,5,-6,-5,-17,-4,3,12,8,10,9,19,17,21,25,28,40,23,47,28,28,31,23,26,21,37,31,12,12,71,18,58,79,107,33,52,58,60,35,26,41,23,41,20,25,18,14,9,8,7,6,9,11,16,13,16,19,17,28,14,17,21,28,20,18,21,30,20,27,34,32,24,35,23,22,37,23,22,32,35,33,59,52,20,25,80,54,39,15,28,22,43,32,34,26,29,38,41,49,36,25,10,44,42,23,19,44,36,89,83,22,39,104,136,24,85,163,61,48,17,31,16,61,58,57,55,30,28,62,37,16,28,26,29,62,32,75,76,74,43,44,58,68,68,74,72,84,73,74,9,60,20,86,43,85,77,66,188,70,68,263,70,17,85,90,64,87,187,75,78,29,49,66,65,82,81,42,38,6,87,75,61,69,130,8,21,56,76,70,67,60,85,90,80,76,72,80,94,71,66,20,105,104,36,30,15,30,80,71,70,64,72,81,64,60,56,65,69,66,87,26,33,54,66,62,65,72,76,59,65,47,40,62,34,80,26,33,31,27,25,31,60,18,44,21,68,2,41,37,2,69,76,66,69,72,87,61,67,60,85,96,110,73,20,16,28,25,37,49,10,48,27,29,32,34,13,49,61,56,18,27,25,13,22,18,16,13,17,22,15,22,21,64,63,59,63,62,61,61,61,3,59,61,37,39,13,28,23,19,13,45,9,45,17,69,1,61,54,57,53,16,6,76,99]
    }
  ]
}