{
  "code":11202,
  "id":"0494a8",
  "name":"JR奥羽本線(新庄～青森)",
  "name_kana":"じぇいあーるおううほんせん",
  "station_size":66,
  "company_code":2,
  "color":"#FF6600",
  "station_list":[
    {"code":1120201,"id":"aedfc6","name":"新庄","name_kana":"しんじょう","lat":38.76256,"lng":140.306064,"prefecture":6,"lines":[11202,11216,11220,11221],"attr":"eco","postal_code":"996-0024","address":"新庄市多門町","next":[1122124,1122125,1122123,1120202,1122126,1122002],"voronoi":{"lat":38.751642,"lng":140.349647,"delta_lat":[0,2411,21091,7467,7680,-56116],"delta_lng":[0,2124,12096,485,-95062,9904]},"impl":true},
    {"code":1120202,"id":"6bd9ad","name":"泉田","name_kana":"いずみた","lat":38.811758,"lng":140.310039,"prefecture":6,"lines":[11202],"attr":"eco","postal_code":"999-5103","address":"新庄市大字泉田","next":[1122122,1122002,1120205,1120204,1120206,1120201,1120207,1122123,1120203],"voronoi":{"lat":38.79471,"lng":140.265253,"delta_lat":[0,-4419,-7680,82011,16200,5989,3583,-3020,-57280],"delta_lng":[0,4037,95062,42359,5277,-21229,-56332,-7915,-48216]},"impl":true},
    {"code":1120203,"id":"032163","name":"羽前豊里","name_kana":"うぜんとよさと","lat":38.836748,"lng":140.242247,"prefecture":6,"lines":[11202],"attr":"eco","postal_code":"999-5208","address":"最上郡鮭川村大字石名坂","next":[1122007,1122006,1122005,1120204,1122002,1122003,1120205,1122004,1120202],"voronoi":{"lat":38.909765,"lng":140.142023,"delta_lat":[0,7271,-47172,-20870,-34164,-1039,-20093,1012,35384],"delta_lng":[0,-32312,9924,10256,35367,1845,54707,43442,13043]},"impl":true},
    {"code":1120204,"id":"2d6b72","name":"真室川","name_kana":"まむろがわ","lat":38.858243,"lng":140.254814,"prefecture":6,"lines":[11202],"attr":"heat","postal_code":"999-5312","address":"最上郡真室川町大字新町","next":[1120202,1120203,1120205],"voronoi":{"lat":38.909765,"lng":140.142023,"delta_lat":[0,-79671,57280],"delta_lng":[0,136272,48216]},"impl":true},
    {"code":1120205,"id":"59910f","name":"釜淵","name_kana":"かまぶち","lat":38.93281,"lng":140.263864,"prefecture":6,"lines":[11202],"attr":"heat","postal_code":"999-5604","address":"最上郡真室川町大字釜淵","next":[1120202,9921012,1122007,1120206,1120203,1120204,1121441],"voronoi":{"lat":38.964054,"lng":140.08212,"delta_lat":[0,-47019,-7271,-22391,3020,191742,-43394],"delta_lng":[0,27591,32312,184488,7915,-131634,-103363]},"impl":true},
    {"code":1120206,"id":"72df3e","name":"大滝","name_kana":"おおたき","lat":38.971485,"lng":140.320199,"prefecture":6,"lines":[11202],"attr":"cool","postal_code":"999-5603","address":"最上郡真室川町大字大滝","next":[1120205,1120202,1120207,9921012],"voronoi":{"lat":39.082135,"lng":140.202793,"delta_lat":[0,-191742,-3583,239085],"delta_lng":[0,131634,56332,-125469]},"impl":true},
    {"code":1120207,"id":"0591c3","name":"及位","name_kana":"のぞき","lat":38.992983,"lng":140.361164,"prefecture":6,"lines":[11202],"attr":"cool","postal_code":"999-5602","address":"最上郡真室川町大字及位","next":[1120208,1122121,1122122,1120202,9921012,1120206,1120209],"voronoi":{"lat":38.899739,"lng":140.458603,"delta_lat":[0,-18917,5989,239085,4439,-195768,-16840],"delta_lng":[0,-46615,-21229,-125469,4740,210968,13366]},"impl":true},
    {"code":1120208,"id":"5f831f","name":"院内","name_kana":"いんない","lat":39.049706,"lng":140.4138,"prefecture":5,"lines":[11202],"attr":"heat","postal_code":"019-0111","address":"湯沢市上院内","next":[9921012,1120207,1120209,9922201,9922202],"voronoi":{"lat":39.121629,"lng":140.407056,"delta_lat":[0,-187063,195768,15910,-19353],"delta_lng":[0,73942,-210968,10455,114755]},"impl":true},
    {"code":1120209,"id":"052481","name":"横堀","name_kana":"よこぼり","lat":39.064533,"lng":140.45131,"prefecture":5,"lines":[11202],"attr":"heat","postal_code":"019-0205","address":"湯沢市小野","next":[1120210,9922201,1120208,1122120,1120207,1122117,1122121,1122115],"voronoi":{"lat":38.957,"lng":140.648148,"delta_lat":[0,-20541,-15522,-3210,16840,187063,-2092,-161527],"delta_lng":[0,-41827,-72131,-39827,-13366,-73942,15275,227045]},"impl":true},
    {"code":1120210,"id":"4b52d2","name":"三関","name_kana":"みつせき","lat":39.110196,"lng":140.483796,"prefecture":5,"lines":[11202],"attr":"heat","postal_code":"012-0864","address":"湯沢市上関","next":[1120211,1122114,1120209,1120214,1121012,9922201,1122115],"voronoi":{"lat":38.95801,"lng":140.649376,"delta_lat":[0,161527,5492,-12555,-5309,-95803,-15216],"delta_lng":[0,-227045,15961,205755,13868,73708,-21956]},"impl":true},
    {"code":1120211,"id":"33a459","name":"上湯沢","name_kana":"かみゆざわ","lat":39.134221,"lng":140.485262,"prefecture":5,"lines":[11202],"attr":"heat","postal_code":"012-0862","address":"湯沢市関口","next":[1120210,9922201,1120212,1120214,1120213],"voronoi":{"lat":39.143513,"lng":140.57501,"delta_lat":[0,5976,-24459,-12555,28927],"delta_lng":[0,-99841,-36878,205755,-61319]},"impl":true},
    {"code":1120212,"id":"2dca10","name":"湯沢","name_kana":"ゆざわ","lat":39.163443,"lng":140.487011,"prefecture":5,"lines":[11202],"attr":"heat","postal_code":"012-0827","address":"湯沢市表町","next":[1120211,1120213,9922201],"voronoi":{"lat":39.149488,"lng":140.47517,"delta_lat":[0,-5976,44750],"delta_lng":[0,99841,-97579]},"impl":true},
    {"code":1120213,"id":"799ed0","name":"下湯沢","name_kana":"しもゆざわ","lat":39.197196,"lng":140.50249,"prefecture":5,"lines":[11202],"attr":"heat","postal_code":"012-0802","address":"湯沢市成沢","next":[1120214,9922201,9922102,1120211,1120212,9922202],"voronoi":{"lat":39.233919,"lng":140.468214,"delta_lat":[0,8209,-100727,2111,44750,8309],"delta_lng":[0,12971,101543,-7717,-97579,-7203]},"impl":true},
    {"code":1120214,"id":"3d5a3a","name":"十文字","name_kana":"じゅうもんじ","lat":39.221186,"lng":140.526287,"prefecture":5,"lines":[11202],"attr":"heat","postal_code":"019-0527","address":"横手市十文字町字大道東","next":[1120213,1120210,9922102,1120211,1120215,1121012,1121015],"voronoi":{"lat":39.204838,"lng":140.600123,"delta_lat":[0,48891,-11600,-100727,-28927,-5309,7012],"delta_lng":[0,-109937,-9001,101543,61319,13868,-2227]},"impl":true},
    {"code":1120215,"id":"15e6af","name":"醍醐(秋田)","original_name":"醍醐","name_kana":"だいご","lat":39.248716,"lng":140.53853,"prefecture":5,"lines":[11202],"attr":"heat","postal_code":"013-0102","address":"横手市平鹿町醍醐","next":[1120214,1120216,9922102,1121015],"voronoi":{"lat":39.239715,"lng":140.587419,"delta_lat":[0,47248,-33235,-48891],"delta_lng":[0,-85300,-11934,109937]},"impl":true},
    {"code":1120216,"id":"acb773","name":"柳田(秋田)","original_name":"柳田","name_kana":"やなぎた","lat":39.276385,"lng":140.553856,"prefecture":5,"lines":[11202],"attr":"heat","postal_code":"013-0054","address":"横手市柳田","next":[9922102,1121015,1120217,1121016,1120215],"voronoi":{"lat":39.286963,"lng":140.502119,"delta_lat":[0,16832,-13083,-43455,-7542],"delta_lng":[0,683,67495,16929,193]},"impl":true},
    {"code":1120217,"id":"546d5a","name":"横手","name_kana":"よこて","lat":39.310146,"lng":140.5604,"prefecture":5,"lines":[11202,11210],"attr":"heat","postal_code":"013-0036","address":"横手市駅前町","next":[1120218,1121014,1120216,9922102,1121016],"voronoi":{"lat":39.290713,"lng":140.570298,"delta_lat":[0,13083,13543,44975,-5605],"delta_lng":[0,-67495,-3612,111900,-1521]},"impl":true},
    {"code":1120218,"id":"53ed99","name":"後三年","name_kana":"ごさんねん","lat":39.364891,"lng":140.538397,"prefecture":5,"lines":[11202],"attr":"heat","postal_code":"019-1234","address":"仙北郡美郷町飯詰","next":[1120219,1120217,1121013,1121114,1121014,9922102,9922101],"voronoi":{"lat":39.358526,"lng":140.478785,"delta_lat":[0,91058,2222,-68234,-21258,-44975,15354],"delta_lng":[0,162669,32210,-45292,-17282,-111900,-14588]},"impl":true},
    {"code":1120219,"id":"ed5f13","name":"飯詰","name_kana":"いいづめ","lat":39.406013,"lng":140.515378,"prefecture":5,"lines":[11202],"attr":"heat","postal_code":"019-1236","address":"仙北郡美郷町上深井","next":[1120218,1121115,1121114,9922101,1121116,1120220],"voronoi":{"lat":39.40469,"lng":140.445449,"delta_lat":[0,-46165,91058,6631,-1479,-3599],"delta_lng":[0,33337,162669,-60758,-40442,-17246]},"impl":true},
    {"code":1120220,"id":"18a229","name":"大曲(秋田)","original_name":"大曲","name_kana":"おおまがり","lat":39.465712,"lng":140.479628,"prefecture":5,"lines":[11202,11211],"attr":"heat","postal_code":"014-0027","address":"大仙市大曲通町","next":[1121116,1120221,9922101,1120219],"voronoi":{"lat":39.40469,"lng":140.445449,"delta_lat":[0,12259,80820,-46633],"delta_lng":[0,-27108,44327,60341]},"impl":true},
    {"code":1120221,"id":"595b09","name":"神宮寺","name_kana":"じんぐうじ","lat":39.494841,"lng":140.426518,"prefecture":5,"lines":[11202],"attr":"heat","postal_code":"019-1701","address":"大仙市神宮寺","next":[1121113,1121114,1120222,1121115,9922101,1120220,1121116],"voronoi":{"lat":39.49777,"lng":140.462668,"delta_lat":[0,-80820,3251,159754,-13307,-6886,-19278],"delta_lng":[0,-44327,-117476,155884,5976,1666,1506]},"impl":true},
    {"code":1120222,"id":"be2a29","name":"刈和野","name_kana":"かりわの","lat":39.547646,"lng":140.372402,"prefecture":5,"lines":[11202],"attr":"heat","postal_code":"019-2112","address":"大仙市刈和野","next":[1120223,9922101,1120224,1120221,9920926,1121113,9920927],"voronoi":{"lat":39.579955,"lng":140.456749,"delta_lat":[0,-159754,-1505,175804,55072,-12386,-17504],"delta_lng":[0,-155884,-6313,67592,75696,9616,9682]},"impl":true},
    {"code":1120223,"id":"49362b","name":"峰吉川","name_kana":"みねよしかわ","lat":39.566586,"lng":140.32314,"prefecture":5,"lines":[11202],"attr":"heat","postal_code":"019-2431","address":"大仙市協和峰吉川","next":[1120222,9921007,9922101,1120224,1121451,1121452,1120226],"voronoi":{"lat":39.527021,"lng":140.204975,"delta_lat":[0,-69816,-52718,-439,14647,175804,-4952],"delta_lng":[0,27128,28227,531,33691,67592,-106684]},"impl":true},
    {"code":1120224,"id":"991ed7","name":"羽後境","name_kana":"うごさかい","lat":39.618679,"lng":140.320722,"prefecture":5,"lines":[11202],"attr":"heat","postal_code":"019-2411","address":"大仙市協和境","next":[1120222,9920926,1120223,1120226,9920917,1120225],"voronoi":{"lat":39.600986,"lng":140.259071,"delta_lat":[0,-11439,4952,55072,102830,1025],"delta_lng":[0,-3612,106684,75696,-30582,-2226]},"impl":true},
    {"code":1120225,"id":"8b9390","name":"大張野","name_kana":"おおばりの","lat":39.663347,"lng":140.274071,"prefecture":5,"lines":[11202],"attr":"heat","postal_code":"019-2631","address":"秋田市河辺神内","next":[9920915,9920916,1120226,9920917,1120224,9922704,1120228],"voronoi":{"lat":39.841011,"lng":140.261909,"delta_lat":[0,-33110,-15799,-38675,-152440,151108,86108],"delta_lng":[0,64743,26025,52354,-145960,-34083,31901]},"impl":true},
    {"code":1120226,"id":"f68c29","name":"和田","name_kana":"わだ","lat":39.65087,"lng":140.218754,"prefecture":5,"lines":[11202],"attr":"heat","postal_code":"019-2601","address":"秋田市河辺和田","next":[1120227,1120225,1120224,1120228,1121452,1120223],"voronoi":{"lat":39.527021,"lng":140.204975,"delta_lat":[0,27471,148385,49217,-151108,-11439],"delta_lng":[0,-37540,21051,36503,34083,-3612]},"impl":true},
    {"code":1120227,"id":"7fe472","name":"四ツ小屋","name_kana":"よつごや","lat":39.661341,"lng":140.144946,"prefecture":5,"lines":[11202],"attr":"heat","postal_code":"010-1417","address":"秋田市四ツ小屋","next":[1121457,1121455,1121458,1121456,1120226,1121459,1121452,1120228],"voronoi":{"lat":39.691438,"lng":140.146271,"delta_lat":[0,-25496,-25520,-9847,-50002,-25336,-744,148385],"delta_lng":[0,-30880,-7213,1729,25917,29055,2556,21051]},"impl":true},
    {"code":1120228,"id":"9a0022","name":"秋田","name_kana":"あきた","lat":39.716748,"lng":140.129931,"prefecture":5,"lines":[11202,11214],"attr":"heat","postal_code":"010-0001","address":"秋田市中通７丁目","next":[1120230,1121459,1120232,9922704,1120226,1120229,1120225,1120227],"voronoi":{"lat":39.691438,"lng":140.146271,"delta_lat":[0,34304,59341,47040,2248,3832,-86108,-49217],"delta_lng":[0,-53285,43935,47903,5182,66884,-31901,-36503]},"impl":true},
    {"code":1120229,"id":"685460","name":"土崎","name_kana":"つちざき","lat":39.758453,"lng":140.073601,"prefecture":5,"lines":[11202],"attr":"heat","postal_code":"011-0946","address":"秋田市土崎港中央６丁目","next":[1121509,1121459,1121458,1121502,1121457,1120228,1120230],"voronoi":{"lat":39.725742,"lng":140.092986,"delta_lat":[0,-7547,-11676,7358,4080,16941,50185],"delta_lng":[0,-11025,-66576,-114605,2287,29604,204250]},"impl":true},
    {"code":1120230,"id":"35e934","name":"上飯島","name_kana":"かみいいじま","lat":39.779336,"lng":140.06847,"prefecture":5,"lines":[11202],"attr":"eco","postal_code":"011-0911","address":"秋田市飯島","next":[1120228,1120232,1120231,1121502,1120229],"voronoi":{"lat":39.832123,"lng":140.184823,"delta_lat":[0,-998,-66827,-29400,50185],"delta_lng":[0,-16965,-191760,-43428,204250]},"impl":true},
    {"code":1120231,"id":"e67d7a","name":"追分(秋田)","original_name":"追分","name_kana":"おいわけ","lat":39.809925,"lng":140.05781,"prefecture":5,"lines":[11202,11215],"attr":"cool","postal_code":"010-0126","address":"秋田市金足追分","next":[1120232,1121502,1120230],"voronoi":{"lat":39.764297,"lng":139.976098,"delta_lat":[0,76563,-9736],"delta_lng":[0,79109,112651]},"impl":true},
    {"code":1120232,"id":"365622","name":"大久保(秋田)","original_name":"大久保","name_kana":"おおくぼ","lat":39.87089,"lng":140.063079,"prefecture":5,"lines":[11202],"attr":"eco","postal_code":"018-1401","address":"潟上市昭和大久保","next":[1120231,1120230,1120228,1121502,1121503,9922704,1120233],"voronoi":{"lat":39.897836,"lng":140.032734,"delta_lat":[0,-25175,-31800,-9736,998,2248,12405],"delta_lng":[0,768,21705,112651,16965,5182,-16938]},"impl":true},
    {"code":1120233,"id":"82eeeb","name":"羽後飯塚","name_kana":"うごいいづか","lat":39.898981,"lng":140.0733,"prefecture":5,"lines":[11202],"attr":"eco","postal_code":"018-1504","address":"潟上市飯田川飯塚","next":[9922704,1121503,1121504,1120234,1120232],"voronoi":{"lat":39.897836,"lng":140.032734,"delta_lat":[0,17242,792,-20464,-48630],"delta_lng":[0,-7447,-158,97309,50629]},"impl":true},
    {"code":1120234,"id":"c3436c","name":"井川さくら","name_kana":"いかわさくら","lat":39.911925,"lng":140.076022,"prefecture":5,"lines":[11202],"attr":"eco","postal_code":"018-1516","address":"南秋田郡井川町浜井川","next":[9922704,1120235,9922703,1120233,9922702,1121504],"voronoi":{"lat":39.933512,"lng":140.019135,"delta_lat":[0,-4361,-14180,-7045,-12521,20464],"delta_lng":[0,65482,20558,7326,9937,-97309]},"impl":true},
    {"code":1120235,"id":"facd68","name":"八郎潟","name_kana":"はちろうがた","lat":39.947366,"lng":140.078382,"prefecture":5,"lines":[11202,99227],"attr":"eco","postal_code":"018-1614","address":"南秋田郡八郎潟町字中田","next":[1120234,9922702,1121504,1120236,1121505],"voronoi":{"lat":39.933512,"lng":140.019135,"delta_lat":[0,-4361,43004,-1719,-28286],"delta_lng":[0,65482,9053,-92724,11974]},"impl":true},
    {"code":1120236,"id":"35c862","name":"鯉川","name_kana":"こいかわ","lat":39.996361,"lng":140.077474,"prefecture":5,"lines":[11202],"attr":"eco","postal_code":"018-2103","address":"山本郡三種町鯉川","next":[1121505,1120237,9922704,9922702,1121507,1120235,1121506,9922703],"voronoi":{"lat":40.012704,"lng":140.153045,"delta_lat":[0,21256,-445,-45380,-17699,1719,2181,6850],"delta_lng":[0,-199294,207,31822,15167,92724,5730,12063]},"impl":true},
    {"code":1120237,"id":"28fcaa","name":"鹿渡","name_kana":"かど","lat":40.044619,"lng":140.082621,"prefecture":5,"lines":[11202],"attr":"eco","postal_code":"018-2104","address":"山本郡三種町鹿渡","next":[1120236,1120238,9920905,1120242,1121507,9922704,1120243],"voronoi":{"lat":40.096841,"lng":140.193958,"delta_lat":[0,392,-49922,-13351,-21256,28187,31612],"delta_lng":[0,-755,-249056,9603,199294,82468,-14867]},"impl":true},
    {"code":1120238,"id":"04d007","name":"森岳","name_kana":"もりたけ","lat":40.103164,"lng":140.070886,"prefecture":5,"lines":[11202],"attr":"eco","postal_code":"018-2303","address":"山本郡三種町森岳","next":[1120237,1121507,1120241,1120242,1120239],"voronoi":{"lat":40.090205,"lng":139.896215,"delta_lat":[0,-42893,49922,20813,17044],"delta_lng":[0,47933,249056,-23479,-36047]},"impl":true},
    {"code":1120239,"id":"694c96","name":"北金岡","name_kana":"きたかなおか","lat":40.141895,"lng":140.063565,"prefecture":5,"lines":[11202],"attr":"eco","postal_code":"018-2301","address":"山本郡三種町志戸橋","next":[1120240,1120241,1120238,1121507,1120402],"voronoi":{"lat":40.165198,"lng":140.09971,"delta_lat":[0,-30108,-44886,7422,70405],"delta_lng":[0,33967,-237463,-10458,149402]},"impl":true},
    {"code":1120240,"id":"a127ac","name":"東能代","name_kana":"ひがしのしろ","lat":40.191579,"lng":140.065746,"prefecture":5,"lines":[11202,11204],"attr":"heat","postal_code":"016-0121","address":"能代市鰄渕","next":[1120402,1120239,1120403,1120241],"voronoi":{"lat":40.168032,"lng":140.035159,"delta_lat":[0,42262,22889,-67984],"delta_lng":[0,19406,29297,15849]},"impl":true},
    {"code":1120241,"id":"a1957c","name":"鶴形","name_kana":"つるがた","lat":40.203879,"lng":140.118507,"prefecture":5,"lines":[11202],"attr":"cool","postal_code":"016-0131","address":"能代市字鶴形","next":[1120239,1120240,1120238,1120406,1120404,1120403,1120405,1120242],"voronoi":{"lat":40.290786,"lng":140.124807,"delta_lat":[0,-9881,-27963,-3425,-16334,-67984,-30108,-17044],"delta_lng":[0,-11273,-23157,-2033,-4482,15849,33967,36047]},"impl":true},
    {"code":1120242,"id":"2a3bc7","name":"富根","name_kana":"とみね","lat":40.217956,"lng":140.172643,"prefecture":5,"lines":[11202],"attr":"cool","postal_code":"018-3122","address":"能代市二ツ井町飛根","next":[1120243,1120238,1120406,1120407,1120237,1120241],"voronoi":{"lat":40.097233,"lng":140.193203,"delta_lat":[0,-392,324927,-91038,-39945,-172739],"delta_lng":[0,755,28070,-74120,-23102,44918]},"impl":true},
    {"code":1120243,"id":"ef21d8","name":"二ツ井","name_kana":"ふたつい","lat":40.212506,"lng":140.235729,"prefecture":5,"lines":[11202],"attr":"cool","postal_code":"018-3143","address":"能代市二ツ井町太田面","next":[1120242,9920905,1120244,1120408,1120407,9920311,1120246,1120237],"voronoi":{"lat":40.096841,"lng":140.193958,"delta_lat":[0,324927,3901,36354,-8563,-13979,-266777,-100201],"delta_lng":[0,28070,2295,26508,13179,3328,7932,-54625]},"impl":true},
    {"code":1120244,"id":"f534d7","name":"前山","name_kana":"まえやま","lat":40.214785,"lng":140.312378,"prefecture":5,"lines":[11202],"attr":"cool","postal_code":"018-3342","address":"北秋田市前山","next":[9920905,1120246,1120243,9920904,9920903,9920902,1120245],"voronoi":{"lat":40.368775,"lng":140.297383,"delta_lat":[0,70707,-266777,11593,19131,19878,79661],"delta_lng":[0,-30045,7932,35069,18734,5296,-17195]},"impl":true},
    {"code":1120245,"id":"c8613d","name":"鷹ノ巣(鷹巣)","name_kana":"たかのす","lat":40.232059,"lng":140.369816,"prefecture":5,"lines":[11202,99209,10207],"attr":"cool","postal_code":"018-3321","address":"北秋田市松葉町","next":[9920903,1120246,9920907,9920902,1120244],"voronoi":{"lat":40.203266,"lng":140.379553,"delta_lat":[0,-21847,566,186789,-65807],"delta_lng":[0,28711,16053,-126933,19791]},"impl":true},
    {"code":1120246,"id":"6b63bc","name":"糠沢","name_kana":"ぬかざわ","lat":40.251094,"lng":140.397827,"prefecture":5,"lines":[11202],"attr":"cool","postal_code":"018-3301","address":"北秋田市綴子","next":[1120244,9920907,9920310,1120247,9920908,9920311,1120245,1120243],"voronoi":{"lat":40.368775,"lng":140.297383,"delta_lat":[0,-186789,-2036,2685,248922,11487,10417,-13979],"delta_lng":[0,126933,10279,20042,-101185,-44064,-45378,3328]},"impl":true},
    {"code":1120247,"id":"0e03fd","name":"早口","name_kana":"はやぐち","lat":40.271315,"lng":140.447572,"prefecture":5,"lines":[11202],"attr":"cool","postal_code":"018-3505","address":"大館市早口","next":[1120248,9920310,9920309,9922903,1120246,9920908],"voronoi":{"lat":40.182635,"lng":140.454638,"delta_lat":[0,248922,-6816,-2331,-59086,-185493],"delta_lng":[0,-101185,61692,17451,30214,19260]},"impl":true},
    {"code":1120248,"id":"1e9b4c","name":"下川沿","name_kana":"しもかわぞい","lat":40.276408,"lng":140.496625,"prefecture":5,"lines":[11202],"attr":"cool","postal_code":"017-0878","address":"大館市川口","next":[1120247,1121226,1121225,1120249,9920908,9922903,9922902],"voronoi":{"lat":40.303351,"lng":140.517601,"delta_lat":[0,59972,-185493,-2056,49608,53220,13373],"delta_lng":[0,-54792,19260,4560,30853,9526,-2641]},"impl":true},
    {"code":1120249,"id":"144582","name":"大館","name_kana":"おおだて","lat":40.288122,"lng":140.555946,"prefecture":5,"lines":[11202,11212,99228,99229],"attr":"cool","postal_code":"017-0044","address":"大館市御成町１丁目","next":[1121226,9922802,1120248,9922902],"voronoi":{"lat":40.291976,"lng":140.524368,"delta_lat":[0,-13373,-2543,26300],"delta_lng":[0,2641,46829,-3086]},"impl":true},
    {"code":1120250,"id":"a158e9","name":"白沢(秋田)","original_name":"白沢","name_kana":"しらさわ","lat":40.338103,"lng":140.591657,"prefecture":5,"lines":[11202],"attr":"cool","postal_code":"017-0002","address":"大館市白沢","next":[9922805,9922902,9922806,1120251,9922804,9922802,9922803,9922903],"voronoi":{"lat":40.315929,"lng":140.576955,"delta_lat":[0,-1440,5565,1007,31541,3510,25177,-57318],"delta_lng":[0,20730,20753,1003,25524,1999,-96418,20596]},"impl":true},
    {"code":1120251,"id":"6590ce","name":"陣場","name_kana":"じんば","lat":40.398864,"lng":140.607523,"prefecture":5,"lines":[11202],"attr":"cool","postal_code":"017-0001","address":"大館市大字長走","next":[9920302,9922806,1120250,1120255,9922810,1120253,9922903,1120252],"voronoi":{"lat":40.372619,"lng":140.67845,"delta_lat":[0,-16507,25177,45431,14743,8431,-3302,-62873],"delta_lng":[0,-31485,-96418,-57199,37265,25468,17732,110243]},"impl":true},
    {"code":1120252,"id":"820a63","name":"津軽湯の沢","name_kana":"つがるゆのさわ","lat":40.441879,"lng":140.632055,"prefecture":2,"lines":[11202],"attr":"heat","postal_code":"038-0101","address":"平川市碇ケ関","next":[9922810,1120253,1120251],"voronoi":{"lat":40.507564,"lng":140.809207,"delta_lat":[0,-60972,-62873],"delta_lng":[0,-235395,110243]},"impl":true},
    {"code":1120253,"id":"c59a00","name":"碇ヶ関","name_kana":"いかりがせき","lat":40.478988,"lng":140.622443,"prefecture":2,"lines":[11202],"attr":"heat","postal_code":"038-0101","address":"青森県平川市碇ヶ関高田13","next":[1120119,1120255,9922810,9920608,1120252,1120254,1120251],"voronoi":{"lat":40.449894,"lng":140.55608,"delta_lat":[0,30061,115412,-33566,-652,-53585,-60972],"delta_lng":[0,23035,220913,74287,1354,-66462,-235395]},"impl":true},
    {"code":1120254,"id":"d43382","name":"長峰","name_kana":"ながみね","lat":40.516072,"lng":140.603069,"prefecture":2,"lines":[11202],"attr":"heat","postal_code":"038-0202","address":"南津軽郡大鰐町大字長峰","next":[9920301,9920206,1120255,9920608,1120253,9920212,9920208],"voronoi":{"lat":40.599938,"lng":140.792103,"delta_lat":[0,-4570,-115412,48141,27789,17237,16531],"delta_lng":[0,7925,-220913,7281,4407,28292,59873]},"impl":true},
    {"code":1120255,"id":"66169a","name":"大鰐温泉","name_kana":"おおわにおんせん","lat":40.52154,"lng":140.566914,"prefecture":2,"lines":[11202],"attr":"heat","postal_code":"038-0211","address":"南津軽郡大鰐町大字大鰐字前田","next":[1120253,9920301,1120254,9920302,1120251],"voronoi":{"lat":40.479955,"lng":140.579116,"delta_lat":[0,48141,-8402,-78231,8431],"delta_lng":[0,7281,-25570,-30214,25468]},"impl":true},
    {"code":1120256,"id":"235148","name":"石川(JR)","original_name":"石川","name_kana":"いしかわ","lat":40.556021,"lng":140.530951,"prefecture":2,"lines":[11202],"attr":"heat","postal_code":"036-8124","address":"青森県弘前市大字石川字野崎25-2","next":[9920306,9920205,9920305],"voronoi":{"lat":40.57229,"lng":140.528282,"delta_lat":[0,-31320,27350],"delta_lng":[0,1767,13309]},"impl":true},
    {"code":1120257,"id":"e0e87e","name":"弘前","name_kana":"ひろさき","lat":40.599723,"lng":140.485016,"prefecture":2,"lines":[11202,99202],"attr":"eco","postal_code":"036-8096","address":"弘前市表町","next":[9920202,9920203,1120258,9920314],"voronoi":{"lat":40.601178,"lng":140.497687,"delta_lat":[0,4209,13046,-26132],"delta_lng":[0,2403,-22339,1181]},"impl":true},
    {"code":1120258,"id":"69816c","name":"撫牛子","name_kana":"ないじょうし","lat":40.621298,"lng":140.497616,"prefecture":2,"lines":[11202],"attr":"heat","postal_code":"036-8075","address":"弘前市大字撫牛子","next":[1120259,1120441,9920314,9920204,1120442,9920203,1120257],"voronoi":{"lat":40.618433,"lng":140.477751,"delta_lat":[0,20592,773,-2565,-20262,-9327,-2257],"delta_lng":[0,-17951,2428,43877,21800,-14182,-13633]},"impl":true},
    {"code":1120259,"id":"4cc983","name":"川部","name_kana":"かわべ","lat":40.646862,"lng":140.521376,"prefecture":2,"lines":[11202,11204,10201,99223],"attr":"eco","postal_code":"038-1141","address":"南津軽郡田舎館村大字川部","next":[9920210,1120258,9922302,1120442,9920207,9920205,9920204,1120260],"voronoi":{"lat":40.672551,"lng":140.517721,"delta_lat":[0,-35318,-20262,-129,783,6598,49,30670],"delta_lng":[0,-11617,21800,5110,2803,6905,10,-6249]},"impl":true},
    {"code":1120260,"id":"f7becb","name":"北常盤","name_kana":"きたときわ","lat":40.67053,"lng":140.54359,"prefecture":2,"lines":[11202],"attr":"eco","postal_code":"038-1214","address":"南津軽郡藤崎町常盤","next":[1120440,9922302,1120261,1120441,9920211,1120442,1120259],"voronoi":{"lat":40.672551,"lng":140.517721,"delta_lat":[0,12777,39081,6994,-51611,-5544,-19306],"delta_lng":[0,-4780,2984,2285,55239,-3786,-33180]},"impl":true},
    {"code":1120261,"id":"5bd1bb","name":"浪岡","name_kana":"なみおか","lat":40.71021,"lng":140.580664,"prefecture":2,"lines":[11202],"attr":"eco","postal_code":"038-1311","address":"青森市浪岡浪岡","next":[1120260,1120263,9920211,1120440,1120262,9920212],"voronoi":{"lat":40.723701,"lng":140.648147,"delta_lat":[0,20068,-12367,-51611,-844,17592],"delta_lng":[0,-131283,1347,55239,10448,104841]},"impl":true},
    {"code":1120262,"id":"7603e0","name":"大釈迦","name_kana":"だいしゃか","lat":40.756736,"lng":140.587776,"prefecture":2,"lines":[11202],"attr":"eco","postal_code":"038-1301","address":"青森市浪岡大釈迦","next":[1120440,1120263,9920104,9920103,1120261],"voronoi":{"lat":40.838392,"lng":140.564161,"delta_lat":[0,-19709,-65236,-9677,-20068],"delta_lng":[0,-13325,-38541,4569,131283]},"impl":true},
    {"code":1120263,"id":"a5f6af","name":"鶴ヶ坂","name_kana":"つるがさか","lat":40.791228,"lng":140.634878,"prefecture":2,"lines":[11202],"attr":"cool","postal_code":"038-0045","address":"青森県青森市大字鶴ケ坂字川合91-3","next":[1120503,9920212,1120261,100423,9920104,1120264,1120262,9920608,9920105],"voronoi":{"lat":40.860641,"lng":140.60292,"delta_lat":[0,-79450,-44148,-48273,7769,27162,114690,11191,22067],"delta_lng":[0,78696,27329,5119,-25325,-40592,-83986,2786,9366]},"impl":true},
    {"code":1120264,"id":"fd22c6","name":"津軽新城","name_kana":"つがるしんじょう","lat":40.828022,"lng":140.672025,"prefecture":2,"lines":[11202],"attr":"cool","postal_code":"038-0042","address":"青森市大字新城","next":[1120502,1120503,100423,1120263],"voronoi":{"lat":40.860641,"lng":140.60292,"delta_lat":[0,-2309,-16967,-60174],"delta_lng":[0,53480,26680,-1464]},"impl":true},
    {"code":100423,"id":"6d47f7","name":"新青森","name_kana":"しんあおもり","lat":40.8275,"lng":140.693472,"prefecture":2,"lines":[1004,1011,11202],"attr":"cool","postal_code":"038-0003","address":"青森県青森市大字石江字高間140-2","open_date":"1986-11-01","next":[9920608,1120263,1120502,1120264,1120120],"voronoi":{"lat":40.844465,"lng":140.713641,"delta_lat":[0,-3100,-60174,-44148,24560],"delta_lng":[0,-30562,-1464,27329,7042]},"impl":true},
    {"code":1120120,"id":"f1cf2c","name":"青森","name_kana":"あおもり","lat":40.828668,"lng":140.734738,"prefecture":2,"lines":[11201,11202,11205,99206],"attr":"cool","postal_code":"038-0012","address":"青森市柳川１丁目","next":[1120117,9920608,1120116,100423,1120119,1120502,1120504],"voronoi":{"lat":40.874626,"lng":140.767901,"delta_lat":[0,-25839,-12655,-74529,82862,64499,3993],"delta_lng":[0,1812,-4877,-48849,-2345,41336,4764]},"impl":true}
  ],
  "north":40.83159,
  "south":38.76117,
  "east":140.73523,
  "west":140.04685,
  "polyline_list":[
    {
      "start":"松原トンネル北",
      "end":"青森",
      "lat":40.38473,
      "lng":140.60331,
      "delta_lat":[0,107,103,191,48,197,99,83,63,101,42,52,145,73,14,222,167,47,133,79,52,55,215,289,127,694,67,173,161,28,103,73,212,181,2,187,179,212,136,105,350,100,6,134,24,39,26,152,309,63,70,425,87,55,281,177,73,46,97,45,46,120,115,80,109,70,85,56,47,58,27,21,17,12,42,176,87,71,33,89,88,134,142,62,8,252,166,69,53,36,36,396,112,44,79,53,61,48,44,45,328,44,49,42,34,45,60,56,52,24,92,91,329,50,51,60,15,35,54,37,30,22,32,20,49,94,30,208,75,16,186,35,21,21,26,27,35,11,101,5,58,11,72,6,-1,-7,-2,-7,-16,-53,-14,-22,-18,-11,-7,0,-2,1,5,23,24,27,24,97,33,26,56,109,2,74,56,45,40,30,35,44,634,92,400,386,130,71,45,30,24,100,21,42,39,42,140,222,116,32,30,28,18,34,140,232,18,103,24,134,307,18,176,386,31,184,16,125,31,79,156,136,38,114,74,43,38,45,53,41,44,76,197,413,29,311,524,188,51,77,140,27,46,41,32,40,52,41,35,27,100,200,163,416,141,21,64,233,75,127,370,13,157,51,87,89,39,297,131,40,251,129,311,135,123,64,122,163,88,51,20,76,47,659,60,360,557,159,70,61,129,157,123,204,22,276,295,123,141,315,32,36,353,320,135,476,106,206,319,193,173,38,46,39,32,33,27,29,61,244,28,142,19,17,192,420,101,168,399,330,39,484,333,18,253,296,350,227,38,45,178,183,38,150,84,34,61,40,31,74,56,43,42,37,28,65,69,91,61,22,20,88,107,106,29,29,36,35,41,49,38,31,77,87,64,62,27,5,12,14,16,31,38,33,18,31,47,39,31,32,69,42,12,33,49,80,55,58,72,24,29,26,52,45,45,50,97,82,49,65,53,168,94,25,47,44,41,31,62,292,137,33,4,25,36,51,163,180,186,105,74,43,21,32,71,79,168,267,48,101,48,40,168,215,4,105,23,19,63,125,36,48,13,9,2,-3,-8,-9,-13,-32,-45,-11,-20,-27,-14,-12,-12,-21,-22,-24,-5,-4,-6,-7,-5,-11,-14,-15,-42,-121,-33,-12,-2,2,10,21,29,36,36,40,51,103,256,254],
      "delta_lng":[0,23,7,21,7,23,15,23,19,47,26,37,81,40,7,113,91,34,121,67,40,33,106,139,66,391,39,107,96,20,64,45,132,111,0,111,100,120,77,49,177,46,1,54,8,7,2,9,17,3,4,20,5,3,18,10,4,2,-11,-5,-9,-38,-36,-23,-20,-19,-24,-26,-25,-36,-28,-19,-23,-15,-55,-247,-111,-78,-30,-64,-57,-86,-85,-44,-5,-156,-100,-40,-26,-13,-4,-28,-5,-2,-2,5,15,17,19,27,209,24,19,10,4,0,-7,-12,-13,-12,-55,-91,-348,-58,-73,-99,-24,-80,-175,-133,-102,-47,-54,-37,-62,-86,-25,-192,-55,-13,-216,-51,-42,-54,-105,-176,-227,-74,-648,-27,-377,-71,-473,-53,-44,-73,-34,-44,-117,-407,-92,-165,-159,-77,-64,-25,-44,-50,-42,-97,-62,-62,-44,-140,-55,-51,-142,-272,-6,-139,-93,-68,-44,-26,-25,-22,-182,-27,-117,-112,-38,-23,-18,-18,-14,-66,-15,-37,-34,-51,-211,-344,-180,-48,-49,-43,-28,-53,-215,-354,-29,-158,-41,-206,-475,-27,-274,-594,-48,-283,-22,-196,-45,-119,-242,-204,-59,-178,-110,-56,-36,-37,-37,-21,-18,-29,-64,-155,-11,-113,-193,-70,-18,-33,-48,-10,-16,-7,-2,3,12,16,21,24,92,187,152,391,126,20,57,220,70,121,346,13,146,48,79,81,37,274,123,36,236,121,291,125,117,56,111,157,81,46,20,71,45,616,56,337,522,151,65,62,124,144,117,188,22,258,276,116,133,291,30,33,328,300,127,446,99,191,296,184,162,29,33,20,14,10,7,5,7,27,4,16,1,3,20,47,11,20,43,39,4,55,40,3,29,35,41,25,3,4,22,19,3,18,7,8,14,16,17,49,48,46,51,48,39,102,118,163,119,38,34,162,193,195,51,53,79,75,104,132,116,96,240,274,213,197,95,17,49,58,77,143,151,90,37,46,50,30,21,14,26,19,6,22,50,80,42,39,44,18,28,29,79,58,43,44,59,40,22,10,4,-9,-2,-1,3,9,17,26,64,327,152,29,2,19,22,22,57,57,56,33,24,21,11,19,54,80,191,302,54,116,59,55,268,357,8,173,53,48,240,494,139,201,71,67,47,116,107,145,178,460,644,162,273,395,215,172,177,288,300,338,44,53,94,86,47,60,67,62,123,358,98,67,68,69,56,67,62,57,47,39,36,48,124,116]
    },
    {
      "start":"松原トンネル南",
      "end":"松原トンネル北",
      "lat":40.35493,
      "lng":140.59808,
      "delta_lat":[0,143,521,91,122,25,69,56,114,103,174,161,95,60,68,96,75,38,67,79,57,48,61,67,38,172,17,6,51,28,22,40,42,46,73,54],
      "delta_lng":[0,-44,-196,-34,-50,-9,-28,-29,-72,-50,-79,-64,-30,-13,-3,1,11,9,14,26,31,37,66,86,65,428,43,13,102,45,33,54,45,36,50,29]
    },
    {
      "start":"松原トンネル南",
      "end":"松原トンネル北",
      "lat":40.35493,
      "lng":140.59808,
      "delta_lat":[0,74,71,204,216,28,42,35,34,166,41,41,59,94,42,58,531,12,121,98,106,164,384,7,153,124,74],
      "delta_lng":[0,-3,-16,-69,-81,-4,0,3,7,78,18,15,11,7,11,22,215,5,39,29,27,36,69,1,34,53,16]
    },
    {
      "start":"米代川橋梁東",
      "end":"松原トンネル南",
      "lat":40.20572,
      "lng":140.2247,
      "delta_lat":[0,31,68,80,52,94,116,55,117,129,98,45,134,110,91,50,51,21,2,10,5,5,2,3,2,4,2,3,6,5,4,4,-2,-4,-7,-9,-6,-1,-15,-65,-33,-7,-3,-9,-19,-24,-46,-11,-10,-22,-7,-15,-24,-15,-12,-11,-7,-5,-13,-22,-15,-24,-11,-13,-14,-29,-43,-22,-9,-21,-14,-19,-22,-34,-8,-3,-8,-7,-14,-5,-7,-3,-1,-13,-9,-6,2,6,19,28,34,24,23,56,56,65,38,32,47,6,33,12,82,70,70,132,20,73,59,28,76,59,47,12,31,20,4,7,7,4,27,46,57,18,23,21,34,3,75,52,97,9,4,11,18,19,30,26,30,13,11,28,26,22,20,1,40,25,5,13,13,26,48,24,35,49,41,84,137,40,104,77,159,80,41,67,83,34,60,114,53,202,101,44,14,157,67,51,9,141,46,35,35,39,43,216,140,6,50,68,102,10,67,30,38,3,48,19,3,-4,-4,-7,-2,-5,-1,-10,-13,-50,-33,0,-3,3,3,8,13,36,23,31,40,39,44,29,110,44,38,66,45,21,14,23,6,21,21,63,10,47,26,14,9,4,1,3,-4,-2,-15,-2,5,12,20,14,9,9,45,17,14,25,22,26,40,8,57,30,2,34,11,8,3,13,37,15,27,18,24,7,108,112,2,85,56,31,15,-8,-10,-9,-13,-7,-4,7,12,17,47,112,53,9,15,24,116,27,21,76,32,59,49,45,9,30,52,54,23,12,26,21,35,43,33,27,56,54,48,44,74,80,85,71,70,79,44,60,74,155,300,64,23,146,94,53,1,80,322,150,217,63,36,253,159,47,92,260,41,202,143,78,35,228,110,49,57,54,63,32,17,35,62,78,132,142,94,59,86,111,85,74,62,22,31,849],
      "delta_lng":[0,95,192,217,89,122,127,59,124,140,103,51,143,113,103,76,126,72,14,57,33,30,24,38,37,90,70,77,174,122,200,64,167,79,99,80,76,15,72,357,192,40,17,54,97,144,263,62,70,107,37,73,141,90,58,61,33,23,75,111,92,134,56,63,69,150,210,92,48,90,63,91,106,169,34,22,53,87,139,61,90,32,7,130,115,74,73,75,69,67,77,57,54,118,115,136,81,66,102,14,71,24,176,146,149,277,43,154,129,58,154,125,102,27,70,47,14,16,24,16,116,210,257,86,120,99,169,15,351,253,454,41,20,60,82,90,134,130,140,63,57,129,130,97,92,13,178,145,20,55,67,119,191,87,95,96,68,117,163,46,125,92,189,92,46,80,97,39,72,134,60,242,118,46,19,190,81,63,10,156,51,38,37,30,27,106,70,5,36,70,171,18,114,73,94,10,175,117,65,121,88,172,20,205,26,173,96,250,170,13,52,79,30,61,70,118,55,61,53,44,44,20,80,34,33,70,60,29,23,38,19,61,62,180,31,134,72,39,49,52,23,82,187,112,632,117,59,68,116,84,62,55,272,125,123,226,177,240,356,75,527,259,35,278,97,52,26,98,227,84,124,106,141,41,600,469,5,365,232,151,97,74,84,72,98,63,129,63,66,73,117,254,131,42,69,109,558,143,98,371,153,319,233,212,46,123,251,246,114,38,98,50,76,79,44,29,48,38,21,21,12,0,2,2,3,8,11,22,36,80,160,34,12,78,55,36,-1,56,222,98,152,42,24,174,106,27,46,128,20,99,68,39,18,107,62,31,35,40,60,32,18,44,67,111,178,185,111,65,68,72,48,31,16,1,1,-50]
    },
    {
      "start":"米代川橋梁西",
      "end":"米代川橋梁東",
      "lat":40.20441,
      "lng":140.20793,
      "delta_lat":[0,-56,-81,-48,-17,-19,-11,-2,-2,0,5,8,12,43,47,19,11,66,16,19,34,63,24],
      "delta_lng":[0,87,121,80,42,67,62,24,37,22,74,29,56,125,133,51,32,192,46,53,101,171,72]
    },
    {
      "start":"米代川橋梁西",
      "end":"米代川橋梁東",
      "lat":40.20441,
      "lng":140.20793,
      "delta_lat":[0,-38,-23,-27,-14,-15,-5,-2,-4,2,0,12,15,18,28,7,35,26,9,14,11,45,37],
      "delta_lng":[0,74,59,84,63,104,58,31,72,48,34,62,86,78,113,29,138,96,36,53,46,169,144]
    },
    {
      "start":"富根",
      "end":"米代川橋梁西",
      "lat":40.21998,
      "lng":140.19041,
      "delta_lat":[0,-4,-16,-25,-26,-32,-38,-47,-17,-122,-199,-109,-264,-16,-163,-128,-118,-45,-52,-60,-61,-15],
      "delta_lng":[0,34,82,81,70,60,39,45,22,111,172,98,238,13,143,114,108,51,61,95,91,24]
    },
    {
      "start":"秋田１",
      "end":"富根",
      "lat":39.73989,
      "lng":140.10931,
      "delta_lat":[0,57,91,107,85,69,94,20,54,20,157,11,14,174,101,134,27,74,47,33,31,20,19,16,21,24,18,24,71,59,69,320,119,42,74,11,34,26,14,20,103,323,190,6,231,83,38,62,62,44,213,145,87,193,361,97,27,135,155,286,370,58,20,64,88,130,101,199,309,130,31,132,266,162,33,31,208,104,16,113,227,385,142,106,29,58,325,165,152,225,143,141,105,172,28,51,32,58,51,61,50,52,51,95,38,126,94,138,240,128,100,33,92,148,309,61,60,70,61,35,66,234,265,185,32,84,231,234,47,38,151,54,182,231,233,218,17,9,6,220,248,388,179,117,112,8,108,165,78,229,331,67,74,269,62,153,184,732,165,135,190,405,244,23,36,37,54,138,32,26,9,26,19,184,286,200,629,255,230,133,35,65,26,91,470,247,167,408,255,69,7,79,44,68,221,22,18,23,158,155,429,305,58,169,418,138,193,232,104,164,145,120,139,116,207,16,260,265,211,148,82,247,169,167,190,43,100,65,239,267,226,148,139,281,78,104,251,317,225,32,309,238,194,124,92,172,128,193,147,147,18,173,211,165,171,160,262,77,36,56,41,44,51,16,180,137,240,65,45,65,51,105,144,199,142,186,159,135,418,50,217,295,104,104,3,128,66,269,110,80,67,173,91,36,216,263,241,6,111,185,194,21,53,65,129,211,278,78,184,29,66,48,64,28,287,62,59,68,32,2,97,65,27,41,246,93,76,60,269,67,87,63,36,53,50,73,182,622,127,151,18,60,52,67,54,34,57,50,93,95,112,40,9,2,3,11,13,4,3,5,17,14,8,2,10,6,7,25,10,28,31,26,133,72,121,136,174,68,79,21,18,2,34,13,-1,-8,-15,-56,-8,-35,-44,-36,-11,-10,-9,1,6,11,12,25,33,11,43,17,16,10,28,16,25,25,24,45,74,49,70,46,67,41,33,23,43,6,20,13,23,12,11,15,11,5,5,1,-2,-7,-16,-9,-19,-7,-2,2,7,7,13,16,66,46,100,50,136,53,90,13,1,40,18,47,15,21,47,35,26,9,6,-2,-1,0,-6,-5,-6,-7,-4,-12],
      "delta_lng":[0,-119,-206,-264,-220,-179,-246,-53,-155,-44,-318,-21,-27,-357,-211,-284,-57,-157,-96,-69,-66,-45,-34,-25,-27,-26,-19,-20,-51,-38,-48,-208,-79,-27,-41,-7,-12,-9,-4,-2,-5,-10,-3,-1,-4,-4,-3,-11,-17,-14,-75,-52,-33,-68,-127,-33,-10,-46,-53,-98,-128,-20,-8,-20,-31,-45,-36,-69,-106,-45,-10,-47,-93,-58,-13,-10,-72,-35,-5,-40,-80,-132,-51,-34,-9,-20,-113,-57,-52,-81,-46,-44,-34,-56,-6,-2,6,18,19,29,28,34,36,64,26,87,66,96,160,88,69,23,63,101,204,39,35,37,29,15,27,90,97,68,11,30,87,86,15,15,54,20,66,84,83,80,7,3,3,81,93,145,71,40,38,2,22,29,13,35,42,8,10,36,7,20,25,97,22,18,25,56,35,2,6,4,8,19,5,0,0,-2,-4,-45,-69,-50,-159,-62,-54,-30,-8,-15,-2,-2,36,18,12,33,18,4,2,1,-7,-23,-69,-5,-4,0,24,26,92,68,13,40,90,28,44,47,26,39,33,20,24,14,22,0,27,26,23,13,8,27,17,17,20,5,13,-4,-25,-32,-27,-19,-17,-35,-10,-13,-29,-39,-27,-4,-40,-27,-22,-16,-11,-23,-12,-24,-15,-20,-1,-21,-23,-19,-22,-19,-32,-9,-8,-8,-9,-20,-34,-10,-133,-91,-168,-45,-21,-21,-12,-19,-27,-26,-20,-26,-21,-16,-21,-3,-10,-12,-5,-5,1,-6,-3,-8,-8,-9,-10,-37,-28,-17,-103,-129,-121,-2,-58,-92,-93,-10,-29,-34,-61,-105,-140,-40,-93,-14,-32,-20,-19,-9,-83,-18,-10,-1,2,0,19,22,7,12,71,23,18,10,31,14,41,33,18,22,11,6,15,48,7,14,2,20,29,52,63,53,159,141,242,276,320,119,35,32,71,157,333,71,87,116,404,361,226,52,272,61,69,81,26,59,49,39,165,89,153,175,211,90,96,35,38,5,100,84,81,66,59,162,20,103,109,129,50,57,69,107,83,58,51,63,72,26,91,37,33,22,59,36,53,41,35,53,83,59,79,54,77,53,39,37,70,9,53,34,68,38,40,68,58,24,39,20,164,120,174,87,252,92,5,40,52,26,52,65,232,170,350,180,479,202,319,49,9,139,57,166,59,71,162,111,93,38,82,119,103,9,135,120,112,98,73,98]
    },
    {
      "start":"秋田１",
      "end":"秋田２",
      "lat":39.73989,
      "lng":140.10931,
      "delta_lat":[0,-37,-22,-31,-60,-7,-54,-32,-36,-65,-8,-74,-38,-21,-37,-25,-44,-32,-9,-54,-29],
      "delta_lng":[0,69,38,45,92,10,68,49,54,114,12,117,68,40,72,59,104,72,23,121,69]
    },
    {
      "start":"秋田１",
      "end":"秋田２",
      "lat":39.73989,
      "lng":140.10931,
      "delta_lat":[0,-74,-75,-6,-42,-49,-81,-36,-195,-60,-46,-51],
      "delta_lng":[0,158,161,14,90,96,155,57,311,101,84,69]
    },
    {
      "start":"院内",
      "end":"秋田２",
      "lat":39.05058,
      "lng":140.41174,
      "delta_lat":[0,-32,-125,-38,-18,-11,-54,-17,-9,1,15,32,21,186,85,15,36,191,58,114,61,33,15,263,13,65,74,88,24,44,211,145,131,21,533,113,646,334,20,262,17,6,84,84,100,51,61,58,59,10,86,127,195,479,17,487,396,197,450,428,270,630,31,396,183,13,827,74,892,8,475,426,276,326,30,78,22,235,38,224,446,159,157,297,122,825,190,176,156,22,16,38,26,21,27,181,25,29,32,35,59,57,117,123,172,23,439,73,79,24,157,139,148,195,78,651,112,67,378,858,289,31,103,127,357,205,304,66,105,67,119,130,151,211,135,60,88,53,274,15,73,52,113,44,166,158,110,104,35,65,721,80,115,27,36,44,36,61,277,94,152,61,121,79,84,66,108,354,138,68,235,179,99,179,298,304,15,179,132,111,398,73,23,38,94,350,120,83,175,33,188,131,172,204,308,435,77,97,270,223,110,118,58,44,118,24,168,280,348,444,231,145,153,197,39,119,155,172,233,141,197,199,210,163,52,134,137,148,27,42,231,289,178,3,36,67,291,115,42,282,132,147,528,12,820,44,12,67,40,146,174,56,129,63,180,59,15,78,22,65,235,86,171,163,21,7,33,121,81,46,89,32,63,178,158,80,73,96,63,88,12,12,35,130,88,156,25,206,145,59,187,25,255,18,20,130,302,65,50,62,40,12,22,32,17,22,19,13,11,9,9,9,4,1,3,3,2,2,1,4,0,5,2,2,0,2,7,4,13,12,36,41,41,61,53,43,112,61,70,61,57,80,31,21,67,115,64,49,9,65,49,126,87,59,73,63,63,19,21,22,34,72,66,57,35,34,67,155,38,102,141,131,203,151,38,200,205,177,64,157,27,19,142,20,139,159,17,120,174,94,87,50,35,51,39,37,28,31,39,8,80,79,85,69,81,44,24,24,18,35,65,123,84,74,117,7,12,47,67,24,38,81,108,67,18,14,91,18,56,91,102,51,29,65,94,64,19,11,5,17,34,16,6,14,14,14,10,15,16,21,51,27,40,58,42,52,24,28,27,30,106,121,80,56,17,28,32,42,27,38,34,34,38,23,25,34,54,26,21,35,23,18,27,148,19,39,40,33,45,23,43,35,24,17,73,27,78,39,36,58,42,42,68,49,69,85,32,47,40,25,140,3,50,53,38,33,46,42,42,48,78,60,115,118,52,11,40,115,188,82,100,65,29,133,152,83,200,115,176,124,129,138,196,173,135,39,71,6,83,41,17,34,74,31,91,25,83,71,45,23,80,175,206,60,180,227,83,220,177,9,45,17,57,38,36,44,35,26,17,14,20,7,7,33,89,123,96,135,190,2,86,98,21,71,152,72,34,84,106,7,24,36,18,25,19,17,-3,-17,-3,-20,-42,-12,-2,2,18,16,-1,-24,-18,-64,-46,-27,-38,-80,-285,-147,-143,-7,-143,-22,-34,-68,-17,-133,-27,-29,-11,-7,-1,-1,3,10,28,105,29,33,7,16,22,31,12,-1,-10,-27,-24,-30,-9,-4,-27,-40,-46,-32,-25,-8,-5,-27,-7,-65,-12,-8,-7,-13,-14,-3,-13,-9,-5,-17,-11,-12,-25,-9,-22,-9,-13,-13,-16,-7,-7,-35,-38,-42,-18,-3,-9,0,7,4,7,3,-1,-2,-2,-7,-13,-22,-23,-30,-35,-14,-9,-3,-1,0,7,8,30,79,6,11,185,19,34,24,7,35,10,77,104,85,64,14,11,69,53,120,41,42,43,73,72,49,96,209,15,97,83,77,84,29,31,231,76,157,160,109,170,136,44,29,54,90,101,54,369,346,124,41,160,88,44,84,145,179,188,175,69,80,123,85,101,45,74,27,20,54,63,66,58,48,152,74,17,218,44,144,252,248,97,74,36,83,175,152,150,59,73,56,47,44,34,39,26],
      "delta_lng":[0,75,293,99,44,32,139,59,83,78,82,83,48,176,147,25,63,347,107,217,123,71,30,588,28,148,164,195,45,51,253,173,157,26,638,135,772,399,25,311,20,7,102,106,115,53,56,43,29,4,25,17,13,28,2,30,21,12,27,25,17,39,2,24,9,1,51,5,54,0,30,26,17,26,5,22,8,125,21,119,235,83,82,152,66,445,102,99,85,17,17,42,41,41,66,561,79,66,47,43,56,47,96,103,139,20,361,52,49,14,89,77,83,109,44,361,50,25,148,335,112,13,37,53,141,74,122,26,41,28,58,81,94,132,85,37,57,39,232,13,60,32,69,27,108,103,69,45,9,4,-21,-1,-1,1,1,11,14,27,156,51,89,36,67,39,16,4,-5,-55,-24,-11,-35,-27,-15,-30,-46,-49,-2,-32,-21,-19,-63,-18,-6,-17,-48,-184,-66,-44,-96,-19,-105,-74,-96,-113,-171,-244,-45,-57,-149,-122,-62,-69,-33,-25,-63,-13,-95,-159,-194,-246,-132,-80,-84,-112,-21,-68,-85,-98,-132,-77,-110,-112,-121,-87,-29,-77,-77,-83,-14,-21,-131,-164,-98,-2,-19,-37,-163,-68,-23,-154,-74,-84,-293,-8,-465,-25,-6,-34,-22,-80,-97,-29,-71,-36,-100,-35,-8,-43,-13,-37,-133,-50,-96,-90,-12,-5,-18,-70,-49,-30,-68,-29,-63,-178,-163,-84,-75,-102,-68,-91,-13,-13,-37,-137,-90,-165,-23,-221,-155,-62,-196,-26,-262,-18,-22,-137,-314,-69,-53,-64,-44,-12,-32,-43,-29,-40,-47,-34,-38,-43,-40,-49,-22,-7,-30,-107,-143,-167,-8,-323,-150,-376,-111,-103,-46,-38,-77,-37,-73,-55,-102,-87,-70,-96,-84,-65,-175,-97,-107,-96,-90,-122,-51,-33,-103,-175,-98,-74,-15,-99,-77,-197,-131,-92,-113,-99,-97,-30,-35,-33,-51,-113,-97,-65,-36,-29,-49,-101,-24,-62,-91,-82,-126,-95,-23,-126,-126,-112,-40,-98,-17,-13,-89,-12,-90,-105,-10,-85,-116,-67,-63,-40,-33,-53,-43,-41,-36,-39,-46,-12,-121,-127,-132,-109,-128,-66,-36,-41,-29,-55,-105,-202,-131,-120,-181,-11,-20,-76,-102,-39,-61,-123,-166,-98,-33,-36,-319,-62,-188,-315,-360,-183,-105,-235,-332,-232,-78,-69,-33,-125,-280,-127,-31,-68,-41,-38,-24,-24,-18,-23,-43,-18,-23,-22,-7,-1,1,8,10,16,60,65,43,25,6,8,1,0,-2,-8,-13,-20,-24,-19,-25,-42,-67,-26,-15,-20,-11,-6,-1,3,4,7,12,15,28,15,35,34,26,21,114,48,124,53,43,55,36,28,27,9,8,0,-7,-19,-28,-21,-122,-4,-46,-57,-29,-19,-17,-6,5,13,30,24,49,50,24,3,17,43,38,17,6,-14,-10,-76,-85,-45,-107,-64,-133,-96,-102,-111,-162,-131,-103,-30,-58,-5,-73,-40,-17,-39,-76,-33,-79,-20,-35,-23,-8,0,9,46,51,16,45,60,20,37,23,1,0,-5,-20,-18,-20,-40,-38,-40,-27,-25,-43,-30,-33,-79,-112,-142,-88,-106,-144,-1,-71,-89,-12,-26,-34,-28,-28,-80,-190,-16,-56,-116,-90,-243,-209,-217,-44,-94,-14,-73,-115,-56,-131,-27,-112,-139,-46,-99,-54,-114,-68,-40,-57,-114,-410,-218,-208,-10,-222,-36,-69,-157,-38,-353,-82,-93,-38,-44,-40,-138,-51,-41,-87,-237,-67,-61,-13,-42,-49,-81,-65,-67,-83,-151,-107,-121,-35,-20,-105,-147,-179,-123,-98,-32,-22,-103,-29,-246,-70,-75,-112,-249,-207,-58,-185,-104,-64,-230,-171,-186,-328,-125,-317,-138,-184,-220,-180,-66,-31,-130,-130,-166,-120,-19,-66,-50,-51,-28,-57,-47,-60,-33,-11,-57,-58,-70,-70,-90,-97,-41,-50,-39,-29,-34,-76,-41,-111,-264,-26,-33,-613,-67,-108,-83,-28,-103,-29,-186,-254,-203,-157,-34,-29,-168,-129,-295,-87,-68,-49,-52,-28,-8,-9,-17,-2,-6,-6,-6,-7,-1,-2,-16,-5,-11,-13,-8,-13,-12,-7,-4,-13,-34,-47,-24,-177,-164,-62,-21,-76,-41,-20,-38,-71,-87,-88,-84,-34,-36,-60,-41,-45,-23,-36,-14,-12,-23,-24,-12,-6,3,21,4,1,-4,0,0,2,-1,-9,-14,-15,-39,-85,-69,-70,-30,-43,-45,-51,-60,-66,-83,-69]
    },
    {
      "start":"院内トンネル北",
      "end":"院内",
      "lat":39.01282,
      "lng":140.37175,
      "delta_lat":[0,209,67,104,99,45,55,59,191,101,26,12,33,35,91,84,27,30,51,42,71,259,98,50,71,98,86,45,40,61,82,39,39,25,83,34,28,32,45,91,180,36,42,30,30,66,26,70,293,56,212,41,0,24,32,15,8,12,-20,-42,-16,-58],
      "delta_lng":[0,11,20,47,59,30,37,42,135,72,22,11,43,53,153,143,39,28,49,28,37,81,31,22,39,58,51,27,27,58,92,55,76,54,187,51,34,37,33,24,50,18,31,33,35,77,30,72,287,52,212,44,3,43,81,48,126,285,103,101,39,133]
    },
    {
      "start":"院内トンネル南",
      "end":"院内トンネル北",
      "lat":38.99775,
      "lng":140.36178,
      "delta_lat":[0,44,36,217,215,42,96,88,4,34,41,41,41,45,47,49,65,61,56,36,17,232],
      "delta_lng":[0,36,30,177,170,35,104,99,3,36,44,40,33,32,28,28,28,25,20,12,5,12]
    },
    {
      "start":"院内トンネル南",
      "end":"院内トンネル北",
      "lat":38.99775,
      "lng":140.36178,
      "delta_lat":[0,70,77,60,41,43,37,48,136,16,63,53,60,48,53,7,55,77,49,47,54,67,65,54,78,71,41,37],
      "delta_lng":[0,24,31,24,16,19,21,36,98,12,42,40,49,41,45,5,48,68,47,41,48,51,46,35,45,33,15,17]
    },
    {
      "start":"須川橋梁東",
      "end":"院内トンネル南",
      "lat":38.76117,
      "lng":140.30631,
      "delta_lat":[0,269,215,466,897,41,644,211,312,122,119,73,63,53,386,157,666,166,137,40,27,35,23,49,36,51,52,40,38,34,51,68,69,59,62,18,11,6,15,52,28,37,59,324,16,10,15,300,217,18,11,7,20,101,24,2,-2,-4,-79,-2,-2,-4,-1,9,10,6,5,11,5,13,15,20,21,22,23,24,31,23,25,24,25,24,25,32,31,31,31,31,30,29,20,68,214,53,37,107,129,252,463,108,59,63,48,125,130,40,56,177,121,72,68,41,36,40,49,92,34,25,29,40,28,404,35,37,22,45,19,28,31,32,98,416,50,44,70,98,41,259,68,52,57,91,244,26,31,34,79,59,146,28,132,50,90,145,33,31,30,25,40,38,61,115,184,103,67,49,319,80,32,46,8,35,35,70,139,22,34,34,34,35,59,32,46,37,46,57,47,40,106,27,31,27,27,49,43,37,38,133,59,37,30,180,121,172,103,448,124,383,22,123,62,379,300,115,51,55,40,37,35,228,12,121,217,73,50,57,58,78,48,81,202,94,38,47,9,33,196,71,9,141,44,20,38,18,24,33,36,74,67,94,40,32,18,4,26,2,34,0,-20,-27,-40,-188,-18,-3,6,21,8,15,32,39,55,27,49,58,55,38,194,45,55,21,12,59,50,50,44,100,100,123,86,108,46,68,53,45,93,60,39,49,187,144,242,68,52,45],
      "delta_lng":[0,-41,-31,-66,-113,-5,-92,-31,-46,-15,-12,0,8,20,202,81,343,85,71,17,4,2,0,-2,-10,-25,-34,-36,-45,-47,-76,-97,-102,-85,-100,-39,-30,-15,-63,-223,-120,-117,-112,-604,-30,-24,-43,-929,-665,-56,-58,-63,-206,-1102,-267,-37,-54,-62,-657,-23,-18,-76,-67,-82,-62,-29,-16,-30,-12,-26,-25,-25,-25,-21,-18,-16,-17,-9,-9,-5,-5,-2,0,2,2,6,7,8,10,12,11,25,84,22,15,55,76,166,334,78,37,23,12,15,21,21,35,184,133,78,62,35,26,18,10,22,12,8,16,24,23,527,32,26,14,18,4,7,2,-4,-25,-125,-18,-19,-34,-52,-19,-127,-34,-17,-15,-4,-4,-4,-14,-17,-43,-38,-87,-18,-84,-43,-92,-143,-27,-25,-14,-9,-9,0,-3,8,13,9,14,11,91,25,2,-5,-3,-9,-14,-47,-110,-17,-10,-5,-4,0,5,5,13,16,27,45,51,54,188,51,47,35,28,40,25,11,3,-3,3,4,6,41,29,38,36,262,78,235,12,66,27,116,99,39,20,37,41,51,67,538,31,278,495,91,48,46,42,47,36,66,173,83,51,74,15,72,686,266,32,523,159,122,325,101,79,65,67,111,98,131,62,55,57,37,461,44,564,95,79,87,128,650,72,50,70,82,32,36,57,56,57,22,29,42,57,51,358,77,115,34,23,97,62,48,34,54,45,43,25,-4,0,-8,-15,-19,-45,-29,-13,-5,6,11,17,10,10,17]
    }
  ],
  "impl":true
}