{
  "code":11217,
  "name":"JR仙山線",
  "color":"#72BC4A",
  "station_list":[
    {"code":100411,"id":"2c0bce","name":"仙台(JR)","name_kana":"せんだい","lat":38.260027,"lng":140.882158,"prefecture":4,"lines":[11217,11222,11231,11230,1004,11232],"attr":"eco","postal_code":"980-0021","address":"仙台市青葉区中央一丁目1-1","next":[9921409,1121702,9921411,1122201,9921410,9921808],"voronoi":{"lat":38.255823,"lng":140.882448,"delta_lat":[0,165,7082,4611,1508,-1476],"delta_lng":[0,-1181,-400,914,691,5457]}},
    {"code":1121702,"id":"fd99a6","name":"東照宮","name_kana":"とうしょうぐう","lat":38.277262,"lng":140.88682,"prefecture":4,"lines":[11217],"attr":"eco","postal_code":"980-0004","address":"仙台市青葉区宮町５","next":[100411,1122205,9921808,9921408,1123144,9921404,1122204,9921405,9921407,9921409,1122203,1121703],"voronoi":{"lat":38.276172,"lng":140.87752,"delta_lat":[0,-3745,-519,-2719,-1476,-70,3005,2474,8892,7642,-2722,-7158],"delta_lng":[0,1081,367,3505,5457,1354,7971,2175,4198,171,-15653,-9704]}},
    {"code":1121703,"id":"19539a","name":"北仙台","name_kana":"きたせんだい","lat":38.281594,"lng":140.869885,"prefecture":4,"lines":[11217,99214],"attr":"eco","postal_code":"981-0913","address":"仙台市青葉区昭和町","next":[9921407,9921405,1121704,1121702],"voronoi":{"lat":38.298031,"lng":140.863778,"delta_lat":[0,-20329,-1530,3604],"delta_lng":[0,-4018,17760,922]}},
    {"code":1121704,"id":"1038bd","name":"北山(宮城)","name_kana":"きたやま","lat":38.285154,"lng":140.851876,"prefecture":4,"lines":[11217],"attr":"eco","postal_code":"981-0931","address":"仙台市青葉区北山２","next":[9921407,1121722,1121703,9921804,9921401,9921402,9921803,9921405],"voronoi":{"lat":38.304874,"lng":140.862912,"delta_lat":[0,5504,30989,-68624,-133,418,4675,20329],"delta_lng":[0,-4749,-40732,34980,1747,2061,3540,4018]}},
    {"code":1121722,"id":"723ac3","name":"東北福祉大前","name_kana":"とうほくふくしだいまえ","lat":38.280468,"lng":140.842683,"prefecture":4,"lines":[11217],"attr":"eco","postal_code":"981-0943","address":"仙台市青葉区国見１丁目２２２番地５号","next":[1121704,1121705,9921401,9921803,1121707],"voronoi":{"lat":38.351302,"lng":140.806301,"delta_lat":[0,-9935,-68624,-3382,53432],"delta_lng":[0,11131,34980,-9203,-33079]}},
    {"code":1121705,"id":"060d3a","name":"国見(宮城)","name_kana":"くにみ","lat":38.274783,"lng":140.8335,"prefecture":4,"lines":[11217],"attr":"eco","postal_code":"981-0945","address":"仙台市青葉区荒巻字坊主門","next":[9921802,1121722,1121706,9921803,1121707],"voronoi":{"lat":38.264411,"lng":140.828997,"delta_lat":[0,934,4015,53432,-12196],"delta_lng":[0,10750,3462,-33079,393]}},
    {"code":1121706,"id":"ddae9d","name":"葛岡","name_kana":"くずおか","lat":38.268816,"lng":140.818583,"prefecture":4,"lines":[11217],"attr":"eco","postal_code":"989-3121","address":"仙台市青葉区郷六字葛岡下","next":[1121707,1121705,9921802],"voronoi":{"lat":38.226042,"lng":140.797073,"delta_lat":[0,84554,-46185],"delta_lng":[0,13450,18474]}},
    {"code":1121707,"id":"c74188","name":"陸前落合","name_kana":"りくぜんおちあい","lat":38.273379,"lng":140.789896,"prefecture":4,"lines":[11217],"attr":"heat","postal_code":"989-3125","address":"仙台市青葉区下愛子森下","next":[1121706,9921401,1121708,9921802,9921801,1121722,1121705],"voronoi":{"lat":38.322793,"lng":140.81013,"delta_lat":[0,28509,62354,-223643,28076,7954,84554],"delta_lng":[0,-3829,-34152,5658,16037,3229,13450]}},
    {"code":1121708,"id":"c688df","name":"愛子","name_kana":"あやし","lat":38.272661,"lng":140.761517,"prefecture":4,"lines":[11217],"attr":"heat","postal_code":"989-3124","address":"仙台市青葉区上愛子上町","next":[1123136,1121710,9921401,1121707,9921801,1121709,1123135],"voronoi":{"lat":38.172026,"lng":140.771248,"delta_lat":[0,17986,223643,14874,-89858,-173863,635],"delta_lng":[0,6558,-5658,-6298,-28092,-16028,23172]}},
    {"code":1121709,"id":"3e5ab8","name":"陸前白沢","name_kana":"りくぜんしらさわ","lat":38.278117,"lng":140.702333,"prefecture":4,"lines":[11217],"attr":"heat","postal_code":"989-3124","address":"仙台市青葉区上愛子大道","next":[1121712,1123134,1121710,1121708,1123132,1123133,1123135],"voronoi":{"lat":38.160518,"lng":140.707295,"delta_lat":[0,-4467,53,17264,29020,136283,-173863],"delta_lng":[0,-27244,-1328,-81960,16457,124539,-16028]}},
    {"code":1121710,"id":"2232d2","name":"熊ヶ根","name_kana":"くまがね","lat":38.297947,"lng":140.680633,"prefecture":4,"lines":[11217],"attr":"cool","postal_code":"989-3432","address":"仙台市青葉区熊ヶ根字檀の原一番","next":[1121708,1121712,1121709,1122106,9921401],"voronoi":{"lat":38.457911,"lng":140.762148,"delta_lat":[0,25608,-281130,136283,89858],"delta_lng":[0,-33415,-115514,124539,28092]}},
    {"code":1121712,"id":"f33975","name":"作並","name_kana":"さくなみ","lat":38.317738,"lng":140.632467,"prefecture":4,"lines":[11217],"attr":"cool","postal_code":"989-3431","address":"仙台市青葉区作並字相の沢","next":[1121709,1121714,1123132,1122106,1122116,1121710],"voronoi":{"lat":38.51832,"lng":140.694259,"delta_lat":[0,3298,-349275,1026,29020,281130],"delta_lng":[0,-37830,-75235,15568,16457,115514]}},
    {"code":1121714,"id":"152864","name":"奥新川","name_kana":"おくにっかわ","lat":38.325953,"lng":140.594329,"prefecture":4,"lines":[11217],"attr":"cool","postal_code":"989-3434","address":"仙台市青葉区新川字岳山","next":[1123132,1121629,1121712,1122117,1122118,1121715,1121630,1122116],"voronoi":{"lat":38.530518,"lng":140.608094,"delta_lat":[0,359,-530,-29621,-6441,-331242,9299,349275],"delta_lng":[0,-7917,-5274,-32432,-4682,-24254,47659,75235]}},
    {"code":1121715,"id":"8499f5","name":"面白山高原","name_kana":"おもしろやまこうげん","lat":38.333071,"lng":140.49712,"prefecture":6,"lines":[11217],"attr":"cool","postal_code":"999-3301","address":"山形市大字山寺","next":[1121628,1121716,1121627,1121714,1121626,1121625,1121629,1123132],"voronoi":{"lat":38.159625,"lng":140.526917,"delta_lat":[0,219280,10065,19314,17427,27513,41061,-331242],"delta_lng":[0,-82687,4396,12884,14216,28658,53405,-24254]}},
    {"code":1121716,"id":"a2bd4b","name":"山寺","name_kana":"やまでら","lat":38.309561,"lng":140.434773,"prefecture":6,"lines":[11217],"attr":"cool","postal_code":"999-3301","address":"山形市大字山寺","next":[1121717,1121636,1121715,1123132,1121618,1123131,1121625,1121616,1121624],"voronoi":{"lat":38.343083,"lng":140.408463,"delta_lat":[0,-986,-171630,-12876,-31320,7739,25615,219280,-16069],"delta_lng":[0,-472,34966,7360,31711,12372,32517,-82687,-20583]}},
    {"code":1121717,"id":"ae8c1f","name":"高瀬(山形)","name_kana":"たかせ","lat":38.301677,"lng":140.396074,"prefecture":6,"lines":[11217],"attr":"cool","postal_code":"990-2232","address":"山形市大字下東山","next":[1121716,1121636,1121623,1121619,1121618,1121718],"voronoi":{"lat":38.323694,"lng":140.383297,"delta_lat":[0,278,18126,-171630,68391,11142],"delta_lng":[0,216,24478,34966,-53245,-6285]}},
    {"code":1121718,"id":"2c101b","name":"楯山","name_kana":"たてやま","lat":38.301632,"lng":140.370598,"prefecture":6,"lines":[11217],"attr":"heat","postal_code":"990-2221","address":"山形市大字風間","next":[1121620,1121619,1121622,1121717,1121621,1121623],"voronoi":{"lat":38.315638,"lng":140.363376,"delta_lat":[0,-9947,-12858,-32227,-10605,73693],"delta_lng":[0,-5571,-597,16232,9987,-130]}},
    {"code":1121620,"id":"ef550f","name":"羽前千歳","name_kana":"うぜんちとせ","lat":38.287313,"lng":140.342168,"prefecture":6,"lines":[11216,11217],"attr":"eco","postal_code":"990-0811","address":"山形市長町２丁目","next":[1121718,1121619,1121621,1121803],"voronoi":{"lat":38.299209,"lng":140.317998,"delta_lat":[0,-6377,-32227,22804],"delta_lng":[0,39211,16232,-51341]}},
    {"code":1121619,"id":"4b3184","name":"北山形","name_kana":"きたやまがた","lat":38.265902,"lng":140.332658,"prefecture":6,"lines":[11216,11217,11218],"attr":"eco","postal_code":"990-0057","address":"山形市宮町１丁目","next":[1121620,1121718,1121618,1121717,1121803],"voronoi":{"lat":38.260605,"lng":140.37344,"delta_lat":[0,-10605,-11142,22964,21587],"delta_lng":[0,9987,6285,-75643,8030]}},
    {"code":1121618,"id":"ac4fde","name":"山形","name_kana":"やまがた","lat":38.248098,"lng":140.327253,"prefecture":6,"lines":[11216,11217,11218],"attr":"eco","postal_code":"990-0039","address":"山形市香澄町１丁目","next":[1121616,1121716,1121619,1121717,1121803,1121617],"voronoi":{"lat":38.157591,"lng":140.450318,"delta_lat":[0,12876,68391,22964,-20449,-69245],"delta_lng":[0,-7360,-53245,-75643,-24086,121926]}}
  ],
  "north":38.33297,
  "south":38.24716,
  "east":140.89727,
  "west":140.32677,
  "polyline_list":[
    {
      "start":"羽前千歳",
      "end":"仙台",
      "lat":38.28647,
      "lng":140.34233,
      "delta_lat":[0,181,70,22,38,25,56,24,32,24,21,23,18,16,188,180,2,105,127,35,127,65,72,50,38,18,12,6,53,8,7,6,3,5,2,0,0,-1,-2,-5,-10,-7,-11,-42,-118,-12,-84,-38,-11,-8,-3,1,4,9,11,14,19,29,16,33,35,24,27,52,136,31,18,20,18,79,118,44,10,22,4,59,26,21,16,11,5,-1,-7,-17,-7,-1,1,4,-2,-3,-9,-9,-2,1,10,3,0,0,-2,-9,0,0,9,15,5,0,0,-9,-13,-1,2,7,36,5,18,5,13,40,9,9,9,15,18,19,45,55,40,16,21,26,36,18,29,20,27,33,78,25,41,29,11,9,14,13,11,7,4,7,9,62,20,12,11,9,9,22,29,14,18,42,72,27,34,21,18,10,7,1,-1,-5,5,4,8,10,18,20,24,22,38,28,25,39,17,11,7,4,9,9,18,9,214,19,18,15,13,9,5,4,1,-3,2,3,6,14,37,10,7,4,2,-2,-3,-4,-12,-1,2,5,9,13,18,13,10,24,74,25,23,19,18,13,20,7,5,2,1,1,7,24,12,16,30,11,7,1,-5,-10,-10,-7,-2,2,7,11,14,18,40,27,13,11,7,4,1,-3,0,0,-34,-60,-56,-2,-1,-53,-11,-47,-22,-21,-11,-2,-1,-20,-4,0,16,9,15,12,23,19,12,8,4,0,-6,-6,-5,-4,4,5,0,-12,-13,-68,-45,-24,-82,-14,-3,-3,-3,-11,-18,-32,-6,-14,-2,22,6,1,-6,-3,-8,-32,-46,-21,-14,-7,-2,3,2,35,3,-3,-19,-30,-40,-205,-8,-96,-80,-321,-94,-21,-38,-67,-32,-28,-23,-19,-44,-47,-168,-70,-19,-151,-63,-26,-16,-5,-1,2,2,2,4,29,17,22,28,29,10,8,25,14,16,22,20,15,35,6,20,2,14,36,33,44,13,28,13,8,12,10,18,20,6,8,10,16,11,13,8,12,16,12,2,12,6,7,11,9,7,4,2,4,2,1,0,2,2,3,1,1,13,9,7,2,18,3,13,8,21,0,11,17,1,29,16,11,8,7,5,5,1,1,0,-2,-5,-6,-18,-17,-23,-23,-14,-26,-23,-21,-21,-36,-18,-13,-8,-8,-4,-1,-4,-7,-2,-4,-8,-4,-15,-10,-21,-23,-14,-38,-49,-38,-76,-12,-33,-21,-29,-28,-23,-19,-30,-24,-12,-17,-23,-14,-33,-22,-16,-14,-28,-43,-38,-21,-11,-13,-12,-13,-10,-14,-7,-14,-13,-7,-11,-13,-7,-24,-27,-40,-18,-10,-57,-23,-20,-27,-14,-10,-36,-21,-42,-23,-46,-43,-23,-27,-8,-13,-32,-18,-18,-16,-22,-20,-21,-53,-56,-2,-57,-10,-72,-82,-81,-46,-13,-18,-20,-11,-12,-15,-42,-16,-36,-26,-34,-11,-87,-34,-13,-53,-33,-35,-34,-38,-31,-66,-89,-51,-59,-31,-26,-117,-94,-83,-70,-53,-20,-14,-31,-12,-20,-22,-16,-25,-4,-26,-19,-33,-38,-22,-8,-18,-14,-45,-49,-47,-30,-25,-31,-31,-40,-30,-31,-14,-64,-49,-55,-57,-39,-39,-3,-25,-22,-13,-14,-11,-6,-4,-2,0,2,5,9,14,14,8,50,19,9,31,21,0,17,15,13,9,4,3,4,7,0,2,3,2,4,2,3,1,2,3,15,34,5,26,14,5,2,-1,-8,-3,-1,-3,-6,-2,-7,-3,-5,-1,-5,-3,-3,-3,-2,-2,-7,-10,-13,-2,-11,-12,-23,-38,-43,-28,-10,-13,-16,-11,-9,-17,-29,-8,-7,-2,1,5,5,2,7,11,15,19,0,9,4,3,4,4,1,1,0,-6,-13,-17,-24,-36,-22,-21,-20,-15,-11,-14,-13,-9,-9,-2,0,2,3,17,2,9,7,8,9,12,47,3,215,21,94,50,23,20,9,10,10,8,5,3,4,2,5,6,20,0,9,9,18,21,22,13,9,2,22,3,20,18,67,91,54,36,30,27,23,17,13,7,6,5,2,1,2,2,10,12,22,29,41,20,38,32,32,33,35,33,18,16,15,9,12,9,12,8,1,5,4,8,0,31,12,13,15,9,5,5,7,4,2,-2,-2,-7,-4,-12,-20,-40,-50,-29,-40,-47,0,-5,-7,-43,-93,-5,-69,-37,-18,-14,-11,-4,-17,-12,-8,-8,-3,-4,0,-2,-1,-1,0,-3,-3,-3,-5,-4,-5,-6,-5,-3,-7,-8,-4,-10,-10,-14,-18,-18,-17,-14,-14,-13,-12,-9,-11,-13,-2,-9,-3,-17,-13,-14,-6,-16,-14,-13,-16,-20,-12,-15,-26,-17,-15,-23,-15,-14,-31,-12,-13,-27,-17,-13,-6,-10,-7,-14,-11,-11,-11,-13,-14,-14,-8,-16,-5,-5,-9,-17,-16,-14,-20,-13,-15,-16,-15,-12,-12,-12,-18,-11,-15,-8,-9,-2,-18,-10,-11,-11,-15,-20,-14,-13,-13,-7,-9,-5,-4,-1,0,3,4,-30,-21,-25,-18,-26,-21,-25,-26,-25,-16,-23,-21,-14,-18,-15,-25,-14,-2,-26,-19,-22,-24,0,-14,-15,-19,-20,-9,-9,-15,-9,-33,-19,-38,-8,-11,-16,-9,-6,-3,-68,-111,-4,-137],
      "delta_lng":[0,-38,-14,-5,4,3,25,12,22,24,24,32,34,36,516,495,5,292,344,99,354,177,201,137,106,43,36,17,140,24,24,25,24,26,26,26,25,33,37,41,47,28,33,124,346,40,430,192,75,68,68,69,57,48,39,38,45,53,23,47,43,25,30,50,149,38,25,31,41,160,242,90,17,23,5,52,29,35,40,41,44,32,49,93,42,34,41,65,20,31,45,39,18,20,92,62,102,81,30,83,27,24,43,65,35,34,38,66,96,27,35,70,344,52,163,47,148,391,50,46,21,25,25,28,59,63,44,26,35,50,135,49,70,34,40,39,79,32,60,49,25,20,45,59,39,16,8,15,16,79,27,22,26,34,35,58,67,25,26,51,99,39,62,45,44,43,39,63,51,181,74,74,59,59,56,45,37,28,39,28,27,49,26,24,17,11,25,39,77,19,333,29,27,32,31,35,35,36,35,99,41,36,32,45,104,38,39,39,39,40,40,49,117,40,43,39,39,36,32,16,13,25,66,23,28,31,34,35,48,33,29,29,42,26,28,76,33,39,70,37,41,40,41,39,36,36,38,38,37,35,31,31,50,39,28,30,30,39,12,43,7,61,638,1105,1048,42,17,1005,225,881,418,405,283,43,65,155,41,32,140,33,72,41,54,35,29,25,30,34,45,39,51,67,80,42,82,60,48,147,109,62,229,49,41,102,23,42,54,110,13,73,34,158,68,60,51,25,73,152,130,79,72,47,209,40,37,425,55,59,100,68,53,169,6,73,53,135,41,9,15,37,17,15,17,10,26,40,153,61,20,138,72,41,37,41,28,39,50,38,29,301,71,50,45,40,5,7,16,8,5,7,4,3,2,0,-1,-1,-2,-8,-4,-4,-1,0,0,1,2,4,6,5,2,2,5,10,8,8,6,12,17,18,3,17,12,14,27,27,25,15,17,25,34,26,59,45,50,40,9,18,74,42,34,8,79,13,55,34,84,3,40,68,2,99,54,42,32,36,33,43,18,38,25,20,23,21,44,32,39,32,18,24,22,20,25,58,38,33,28,33,30,11,44,55,24,25,41,21,68,36,68,59,36,66,81,60,152,28,70,54,72,68,65,51,81,69,29,34,39,21,43,22,17,12,21,29,32,19,10,13,22,24,25,34,23,39,38,22,22,23,11,35,30,37,18,11,56,28,28,37,24,19,78,53,147,88,153,148,78,94,28,44,109,66,44,37,44,34,33,67,75,2,74,11,91,105,104,58,17,18,15,9,7,9,19,4,8,1,-1,-1,-4,-1,0,0,3,8,16,29,31,72,97,58,64,32,30,130,103,87,80,58,25,16,46,16,40,45,45,71,9,76,59,89,117,64,25,54,40,143,148,138,90,71,95,86,128,86,92,45,184,150,161,160,117,114,6,87,87,62,61,91,58,66,62,43,37,58,84,100,115,70,423,167,75,265,166,0,155,118,133,104,144,122,212,272,26,222,56,153,267,230,117,68,50,51,106,187,25,154,98,42,43,68,188,81,68,125,235,67,359,85,142,33,225,100,74,63,6,30,43,40,44,6,28,26,41,53,62,41,21,27,43,31,31,92,173,56,53,51,63,67,49,3,46,46,52,61,2,28,21,9,36,35,9,28,43,39,46,38,38,47,28,30,31,19,26,29,35,36,51,29,22,25,35,180,11,95,53,49,35,31,79,4,342,34,141,77,39,39,21,28,37,50,31,39,43,22,41,37,110,3,42,36,56,51,43,22,13,1,28,3,19,15,40,49,32,30,31,35,38,40,42,37,31,42,36,12,21,24,33,44,39,45,45,14,18,15,12,18,25,28,23,23,29,30,43,45,50,62,13,34,34,54,3,199,81,93,92,60,34,29,62,43,43,47,35,47,26,41,58,97,115,70,88,110,1,14,15,99,215,13,157,83,42,33,28,12,46,40,33,32,16,17,6,11,10,6,3,16,41,52,52,93,48,92,39,31,50,30,23,31,26,29,37,36,32,31,42,48,49,33,48,47,11,37,17,60,45,40,17,43,33,30,33,48,27,32,59,38,32,55,32,30,68,28,30,61,36,26,12,18,12,23,16,12,15,15,12,14,6,13,4,3,5,9,7,4,6,3,2,0,0,-2,-2,-2,-5,-4,-7,-4,-4,-2,-10,-7,-8,-10,-20,-23,-24,-27,-34,-22,-36,-30,-20,-27,-7,-73,-35,-83,-57,-73,-49,-72,-58,-70,-67,-73,-42,-68,-56,-35,-37,-26,-35,-19,-4,-28,-20,-16,-20,-1,-9,-8,-9,-6,-3,-2,-2,1,6,3,8,4,5,5,0,0,0,-6,-10,-2,-14]
    },
    {
      "start":"山形",
      "end":"羽前千歳",
      "lat":38.24716,
      "lng":140.32677,
      "delta_lat":[0,136,38,32,175,33,100,66,33,36,139,26,188,1,71,11,12,7,42,9,27,6,117,126,11,60,157,40,98,161,65,28,55,56,56,45,41,44,31,28,28,25,176,25,158,194,6,21,25,67,55,31,47,44,40,8,36,189,49,179,121],
      "delta_lng":[0,73,22,17,94,19,53,36,19,23,90,19,102,1,29,3,3,1,6,3,1,0,-2,-2,0,-2,-5,-2,-4,-9,-5,0,2,7,18,24,20,30,20,21,26,24,213,31,197,241,8,27,29,59,33,17,17,8,2,0,-3,-36,-9,-32,-21]
    }
  ]
}