{
  "code":11214,
  "id":"ca35da",
  "name":"JR羽越本線",
  "name_kana":"じぇいあーるうえつほんせん",
  "station_size":60,
  "company_code":2,
  "color":"#75C8FF",
  "station_list":[
    {"code":1121401,"id":"6a2a43","name":"新津","name_kana":"にいつ","lat":37.800383,"lng":139.121445,"prefecture":15,"lines":[11214,11226,11404],"attr":"cool","postal_code":"956-0864","address":"新潟市秋葉区新津本町１丁目","next":[1140436,1122627,1140438],"voronoi":{"lat":37.795245,"lng":139.084352,"delta_lat":[0,-11078,30411],"delta_lng":[0,42635,17363]}},
    {"code":1121402,"id":"e7d60b","name":"京ヶ瀬","name_kana":"きょうがせ","lat":37.817616,"lng":139.178322,"prefecture":15,"lines":[11214],"attr":"cool","postal_code":"959-2134","address":"新潟県阿賀野市小河原453","next":[1140439,1140440,1140604,1122623,1122627,1121403,1140605,1122626,1140438],"voronoi":{"lat":37.832346,"lng":139.146516,"delta_lat":[0,26223,10123,642,18,-86222,-3613,13734,24801],"delta_lng":[0,6156,8578,3404,12424,42310,-7202,-43006,-21517]}},
    {"code":1121403,"id":"3032ff","name":"水原","name_kana":"すいばら","lat":37.836712,"lng":139.217237,"prefecture":15,"lines":[11214],"attr":"cool","postal_code":"959-2002","address":"阿賀野市下条","next":[1121404,1140605,1140606,1121402,1122622,1122623],"voronoi":{"lat":37.78313,"lng":139.219387,"delta_lat":[0,86222,8188,222,-74853,-19212],"delta_lng":[0,-42310,17686,9706,70545,-44063]}},
    {"code":1121404,"id":"ce0b41","name":"神山","name_kana":"かみやま","lat":37.862586,"lng":139.244691,"prefecture":15,"lines":[11214],"attr":"cool","postal_code":"959-1968","address":"阿賀野市榎船渡","next":[1121403,1121405,1122622,1122620,1122621,1140606],"voronoi":{"lat":37.877761,"lng":139.20447,"delta_lat":[0,-74853,804,7410,7391,77332],"delta_lng":[0,70545,6369,20437,12048,-74414]}},
    {"code":1121405,"id":"929311","name":"月岡(新潟)","name_kana":"つきおか","lat":37.889334,"lng":139.272488,"prefecture":15,"lines":[11214],"attr":"cool","postal_code":"959-2335","address":"新発田市大字本田字中谷内","next":[1121406,1140606,1122620,1140608,1121404,1140607],"voronoi":{"lat":37.919605,"lng":139.273325,"delta_lat":[0,-91736,-9356,77332,9149,14326],"delta_lng":[0,69462,-28918,-74414,4805,21868]}},
    {"code":1121406,"id":"5c46f2","name":"中浦","name_kana":"なかうら","lat":37.912202,"lng":139.302689,"prefecture":15,"lines":[11214],"attr":"cool","postal_code":"959-2331","address":"新発田市大字下飯塚","next":[1121407,1121405,1140609,1122618,1140608,1122620],"voronoi":{"lat":37.82787,"lng":139.342786,"delta_lat":[0,91736,8081,-991,-90468,-1546],"delta_lng":[0,-69462,9303,37751,88848,-4000]}},
    {"code":1121407,"id":"b3cded","name":"新発田","name_kana":"しばた","lat":37.94412,"lng":139.335189,"prefecture":15,"lines":[11214,11406],"attr":"cool","postal_code":"957-0055","address":"新発田市諏訪町１丁目","next":[1121406,1122616,1122618,1140609,1121408,1122615],"voronoi":{"lat":37.981962,"lng":139.316853,"delta_lat":[0,-55266,-90468,7796,16480,2932],"delta_lng":[0,3525,88848,39708,28341,3517]}},
    {"code":1121408,"id":"9ca017","name":"加治","name_kana":"かじ","lat":37.976411,"lng":139.358535,"prefecture":15,"lines":[11214],"attr":"cool","postal_code":"959-2451","address":"新発田市下中","next":[1121917,1122615,1140608,1121407,1121409,1121918,1140609],"voronoi":{"lat":38.007606,"lng":139.300872,"delta_lat":[0,27252,-108686,-27209,-324,-35203,118526],"delta_lng":[0,-8226,227004,15344,116,-54317,-163939]}},
    {"code":1121409,"id":"5fc9cd","name":"金塚","name_kana":"かなづか","lat":38.020178,"lng":139.37949,"prefecture":15,"lines":[11214],"attr":"cool","postal_code":"959-2477","address":"新発田市下小中山","next":[1121410,1121918,1121919,1140608,1121408],"voronoi":{"lat":38.034858,"lng":139.292645,"delta_lat":[0,98519,-170364,-5147,-31694],"delta_lng":[0,-63459,275248,2951,12264]}},
    {"code":1121410,"id":"4667ae","name":"中条","name_kana":"なかじょう","lat":38.049342,"lng":139.397541,"prefecture":15,"lines":[11214],"attr":"cool","postal_code":"959-2631","address":"胎内市表町","next":[1121411,1121409,1121416,1121919,1140608],"voronoi":{"lat":38.223685,"lng":139.158589,"delta_lat":[0,-10344,-184870,-65458,170364],"delta_lng":[0,43926,274590,27329,-275248]}},
    {"code":1121411,"id":"054bb9","name":"平木田","name_kana":"ひらきだ","lat":38.094338,"lng":139.427835,"prefecture":15,"lines":[11214],"attr":"cool","postal_code":"959-2614","address":"胎内市平木田","next":[1121410,1121414,1121412,1121919,1121416],"voronoi":{"lat":38.213341,"lng":139.202515,"delta_lat":[0,-184870,51481,95221,31880],"delta_lng":[0,274590,-3066,-131907,-89428]}},
    {"code":1121412,"id":"aa8ef4","name":"坂町","name_kana":"さかまち","lat":38.119277,"lng":139.445838,"prefecture":15,"lines":[11214,11219],"attr":"heat","postal_code":"959-3132","address":"村上市坂町","next":[1121919,1121411,1121414,1121413],"voronoi":{"lat":38.168316,"lng":139.374061,"delta_lat":[0,6856,-95221,40701],"delta_lng":[0,-31928,131907,10998]}},
    {"code":1121413,"id":"b33f8a","name":"平林(新潟)","name_kana":"ひらばやし","lat":38.150027,"lng":139.459045,"prefecture":15,"lines":[11214],"attr":"heat","postal_code":"959-3435","address":"村上市宿田","next":[1121414,1121919,1121412],"voronoi":{"lat":38.168316,"lng":139.374061,"delta_lat":[0,-2661,-45003],"delta_lng":[0,149242,-38265]}},
    {"code":1121414,"id":"797c31","name":"岩船町","name_kana":"いわふねまち","lat":38.183564,"lng":139.459643,"prefecture":15,"lines":[11214],"attr":"heat","postal_code":"959-3446","address":"村上市小口川","next":[1121416,1121411,1121413,1121919,1121412,1121415],"voronoi":{"lat":38.165655,"lng":139.523302,"delta_lat":[0,2661,6856,31880,8026,-23376],"delta_lng":[0,-149242,-31928,-89428,76313,231574]}},
    {"code":1121415,"id":"62ecab","name":"村上(新潟)","name_kana":"むらかみ","lat":38.219851,"lng":139.463306,"prefecture":15,"lines":[11214],"attr":"heat","postal_code":"958-0854","address":"村上市大字田端町","next":[1121916,1121917,1121919,1121417,1121416,1121414,1121918],"voronoi":{"lat":38.274719,"lng":139.664194,"delta_lat":[0,24870,-3296,-81215,-23376,485,62191],"delta_lng":[0,19052,-23660,-330569,231574,1061,83472]}},
    {"code":1121416,"id":"8310d3","name":"間島","name_kana":"まじま","lat":38.273078,"lng":139.450229,"prefecture":15,"lines":[11214],"attr":"heat","postal_code":"958-0005","address":"村上市大字間島","next":[1121414,1121417,1121410,1121415,1121411,1140604,1140608],"voronoi":{"lat":38.213341,"lng":139.202515,"delta_lat":[0,-6288,8026,81215,-4666,-58601,-9342],"delta_lng":[0,50189,76313,330569,-588207,70440,16770]}},
    {"code":1121417,"id":"876403","name":"越後早川","name_kana":"えちごはやかわ","lat":38.316185,"lng":139.449887,"prefecture":15,"lines":[11214],"attr":"heat","postal_code":"958-0002","address":"村上市大字早川字上境","next":[1121416,100512,1121418,1121916,1121415,1140831,1140604],"voronoi":{"lat":38.296294,"lng":139.659587,"delta_lat":[0,3296,9637,114214,-100952,-30332,-529],"delta_lng":[0,23660,11264,-752546,97208,31491,716]}},
    {"code":1121418,"id":"f7a7c8","name":"桑川","name_kana":"くわがわ","lat":38.375162,"lng":139.458838,"prefecture":15,"lines":[11214],"attr":"eco","postal_code":"959-3665","address":"村上市桑川","next":[1121417,1140831,1121419,1121420,1121916],"voronoi":{"lat":38.348986,"lng":139.623148,"delta_lat":[0,233234,-158779,-114214,5839],"delta_lng":[0,-852716,171533,752546,8806]}},
    {"code":1121419,"id":"2ab7bf","name":"今川(新潟)","name_kana":"いまがわ","lat":38.410081,"lng":139.468389,"prefecture":15,"lines":[11214],"attr":"eco","postal_code":"959-3662","address":"村上市今川","next":[1140831,1140829,1140830,1140825,1140826,1121418,1121420],"voronoi":{"lat":39.203591,"lng":138.092716,"delta_lat":[0,-70104,-50326,-300680,-185238,-15023,-233234],"delta_lng":[0,72750,52963,328949,205982,17072,852716]}},
    {"code":1121420,"id":"4b9288","name":"越後寒川","name_kana":"えちごかんがわ","lat":38.448689,"lng":139.489948,"prefecture":15,"lines":[11214],"attr":"eco","postal_code":"959-3653","address":"村上市寒川","next":[1140825,1121421,1121915,1121423,1121424,1121418,1121916,1121419],"voronoi":{"lat":38.315066,"lng":139.703317,"delta_lat":[0,8475,835,393846,537986,144419,-197036,-854605],"delta_lng":[0,18663,1243,-595722,-975335,-269702,210252,1530432]}},
    {"code":1121421,"id":"e830f5","name":"勝木","name_kana":"がつぎ","lat":38.490315,"lng":139.517468,"prefecture":15,"lines":[11214],"attr":"eco","postal_code":"959-3942","address":"村上市勝木","next":[1121915,1121420,1121422,1121423],"voronoi":{"lat":38.718222,"lng":139.127501,"delta_lat":[0,-393846,31862,319376],"delta_lng":[0,595722,58724,-565967]}},
    {"code":1121422,"id":"8309b1","name":"府屋","name_kana":"ふや","lat":38.513324,"lng":139.530452,"prefecture":15,"lines":[11214],"attr":"eco","postal_code":"959-3907","address":"村上市府屋","next":[1121421,1121915,1121423,9921114],"voronoi":{"lat":38.675613,"lng":139.215979,"delta_lat":[0,-319376,14142,35128],"delta_lng":[0,565967,29087,23932]}},
    {"code":1121423,"id":"86cd3f","name":"鼠ヶ関","name_kana":"ねずがせき","lat":38.555433,"lng":139.548827,"prefecture":6,"lines":[11214],"attr":"eco","postal_code":"999-7126","address":"山形県鶴岡市鼠ヶ関乙156-2","next":[1121429,1121420,9921114,1121422,1121424,1121421],"voronoi":{"lat":38.718222,"lng":139.127501,"delta_lat":[0,537986,-797516,-51194,-1990,270106],"delta_lng":[0,-975335,1640060,44314,-1574,-618986]}},
    {"code":1121424,"id":"3c50de","name":"小岩川","name_kana":"こいわがわ","lat":38.590399,"lng":139.56583,"prefecture":6,"lines":[11214],"attr":"eco","postal_code":"999-7122","address":"鶴岡市小岩川","next":[1121429,1121509,1121420,1121426,1140825,1121425,1121423],"voronoi":{"lat":39.256208,"lng":138.152166,"delta_lat":[0,144419,315977,-115712,-212573,-914566,-15061],"delta_lng":[0,-269702,-367673,529497,338832,1397912,11194]}},
    {"code":1121425,"id":"70a64d","name":"あつみ温泉","name_kana":"あつみおんせん","lat":38.624217,"lng":139.587955,"prefecture":6,"lines":[11214],"attr":"eco","postal_code":"999-7205","address":"鶴岡市温海","next":[1121428,1121427,1121429,1121426,1121424],"voronoi":{"lat":39.388319,"lng":138.38312,"delta_lat":[0,-794133,-2257,-59950,-58226],"delta_lng":[0,1306562,2491,52633,36226]}},
    {"code":1121426,"id":"3628ed","name":"五十川","name_kana":"いらがわ","lat":38.670658,"lng":139.616182,"prefecture":6,"lines":[11214],"attr":"eco","postal_code":"999-7207","address":"鶴岡市五十川","next":[1121509,1121446,1121425,1121444,1121443,1121424,1121427],"voronoi":{"lat":39.388319,"lng":138.38312,"delta_lat":[0,212573,-141247,-46069,-217417,-56047,-545926],"delta_lng":[0,-338832,737583,86516,376612,90628,354055]}},
    {"code":1121427,"id":"077540","name":"小波渡","name_kana":"こばと","lat":38.692484,"lng":139.649836,"prefecture":6,"lines":[11214],"attr":"eco","postal_code":"999-7462","address":"鶴岡市大字小波渡","next":[1121425,1121438,1121428,1121443,1121442,1121426],"voronoi":{"lat":38.591928,"lng":139.692173,"delta_lat":[0,350574,154105,27045,16459,-545926],"delta_lng":[0,-102550,-180470,-44590,-28936,354055]}},
    {"code":1121428,"id":"c2ac85","name":"三瀬","name_kana":"さんぜ","lat":38.699448,"lng":139.673643,"prefecture":6,"lines":[11214],"attr":"eco","postal_code":"999-7463","address":"鶴岡市大字三瀬","next":[1121425,1121438,1121430,1121427,1121429],"voronoi":{"lat":38.825425,"lng":139.673662,"delta_lat":[0,80019,37058,-350574,-59950],"delta_lng":[0,-36143,-47896,102550,52633]}},
    {"code":1121429,"id":"423754","name":"羽前水沢","name_kana":"うぜんみずさわ","lat":38.713444,"lng":139.731372,"prefecture":6,"lines":[11214],"attr":"eco","postal_code":"999-7543","address":"鶴岡市大字大広字山崎","next":[1121430,1121424,1121423,9921114,1121425,9921115,1121428,1121431],"voronoi":{"lat":38.415131,"lng":139.849895,"delta_lat":[0,-7633,51194,15061,58226,293447,-161315,-241624],"delta_lng":[0,-13356,-44314,-11194,-36226,-71144,125781,61949]}},
    {"code":1121430,"id":"807776","name":"羽前大山","name_kana":"うぜんおおやま","lat":38.742155,"lng":139.768194,"prefecture":6,"lines":[11214],"attr":"eco","postal_code":"997-1124","address":"鶴岡市大山１丁目","next":[1121429,1121428,1121438,1121431],"voronoi":{"lat":38.905445,"lng":139.637518,"delta_lat":[0,-80019,-161315,169144],"delta_lng":[0,36143,125781,5148]}},
    {"code":1121431,"id":"949d24","name":"鶴岡","name_kana":"つるおか","lat":38.74011,"lng":139.83538,"prefecture":6,"lines":[11214],"attr":"eco","postal_code":"997-0015","address":"鶴岡市末広町１丁目","next":[1121430,1121433,1121429,1122006,1121812,1121438,1121432,9921115],"voronoi":{"lat":38.422487,"lng":139.861391,"delta_lat":[0,241624,169144,-637,-22337,-259044,-48121,-61264],"delta_lng":[0,-61949,5148,10928,22042,125915,2545,-58821]}},
    {"code":1121432,"id":"9b51eb","name":"藤島","name_kana":"ふじしま","lat":38.768646,"lng":139.894087,"prefecture":6,"lines":[11214],"attr":"eco","postal_code":"999-7611","address":"鶴岡市上藤島","next":[1122009,1122008,1121433,1122006,1121431],"voronoi":{"lat":38.810281,"lng":139.837561,"delta_lat":[0,-30245,-4914,-118341,-105544],"delta_lng":[0,94898,4800,35813,-9596]}},
    {"code":1121433,"id":"0ba51b","name":"西袋","name_kana":"にしぶくろ","lat":38.811528,"lng":139.907754,"prefecture":6,"lines":[11214],"attr":"eco","postal_code":"999-7746","address":"東田川郡庄内町西袋","next":[1121434,1121438,1121437,1121431,1121432,1122009],"voronoi":{"lat":38.810281,"lng":139.837561,"delta_lat":[0,22337,3339,1220,-10857,-46284],"delta_lng":[0,-22042,5981,3631,99067,8261]}},
    {"code":1121434,"id":"5dbdfe","name":"余目","name_kana":"あまるめ","lat":38.844321,"lng":139.911348,"prefecture":6,"lines":[11214,11220],"attr":"eco","postal_code":"999-7700","address":"東田川郡庄内町沢田","next":[1121433,1121435,1122009,1121437],"voronoi":{"lat":38.837177,"lng":139.825131,"delta_lat":[0,-10857,35589,-15648],"delta_lng":[0,99067,27912,-110968]}},
    {"code":1121435,"id":"1ff423","name":"北余目","name_kana":"きたあまるめ","lat":38.867538,"lng":139.908074,"prefecture":6,"lines":[11214],"attr":"heat","postal_code":"999-7703","address":"東田川郡庄内町平岡","next":[1121436,1121434,1121437,1122009],"voronoi":{"lat":38.861908,"lng":139.95211,"delta_lat":[0,-15648,34466,2570],"delta_lng":[0,-110968,42297,97490]}},
    {"code":1121436,"id":"271905","name":"砂越","name_kana":"さごし","lat":38.895195,"lng":139.907345,"prefecture":6,"lines":[11214],"attr":"heat","postal_code":"999-6701","address":"酒田市砂越","next":[1121435,1121437,1121439,1122007,1122009,1121440],"voronoi":{"lat":38.943731,"lng":139.929049,"delta_lat":[0,-8425,-54580,2570,18287,55422],"delta_lng":[0,-24493,-21117,97490,37686,51330]}},
    {"code":1121437,"id":"1f8fad","name":"東酒田","name_kana":"ひがしさかた","lat":38.907518,"lng":139.875495,"prefecture":6,"lines":[11214],"attr":"heat","postal_code":"998-0859","address":"酒田市大町","next":[1121435,1121436,1121433,1121434,1121439,1121438],"voronoi":{"lat":38.835956,"lng":139.8215,"delta_lat":[0,1220,9084,34466,54580,3441],"delta_lng":[0,3631,16011,42297,21117,-31932]}},
    {"code":1121438,"id":"9a34b3","name":"酒田","name_kana":"さかた","lat":38.922194,"lng":139.845987,"prefecture":6,"lines":[11214],"attr":"heat","postal_code":"998-0023","address":"酒田市幸町１丁目","next":[1121428,1121427,1121433,1121430,1121442,1121437,1121431,1121439],"voronoi":{"lat":39.015786,"lng":139.773472,"delta_lat":[0,80821,-154105,-37058,-72190,-637,3339,102791],"delta_lng":[0,-364319,180470,47896,167072,10928,5981,51124]}},
    {"code":1121439,"id":"05febc","name":"本楯","name_kana":"もとたて","lat":38.968648,"lng":139.882081,"prefecture":6,"lines":[11214],"attr":"heat","postal_code":"999-8134","address":"酒田市大字本楯","next":[1121442,1121436,1121441,1121437,1121440,1121438],"voronoi":{"lat":39.015786,"lng":139.773472,"delta_lat":[0,2211,-4654,-69612,-8425,3441],"delta_lng":[0,67481,9538,78558,-24493,-31932]}},
    {"code":1121440,"id":"99186f","name":"南鳥海","name_kana":"みなみちょうかい","lat":38.98736,"lng":139.898662,"prefecture":6,"lines":[11214],"attr":"cool","postal_code":"999-8421","address":"酒田市大字米島","next":[1121441,1121439,1122007,1121436],"voronoi":{"lat":38.943731,"lng":139.929049,"delta_lat":[0,69612,-51628,-4710],"delta_lng":[0,-78558,227062,-7608]}},
    {"code":1121441,"id":"5fe1af","name":"遊佐","name_kana":"ゆざ","lat":39.015943,"lng":139.905161,"prefecture":6,"lines":[11214],"attr":"cool","postal_code":"999-8301","address":"飽海郡遊佐町大字遊佐町","next":[1121440,1121439,1121445,1122007,1120205,1121443,1121442,9921012],"voronoi":{"lat":39.092635,"lng":140.050019,"delta_lat":[0,-602,-14049,-59987,-4654,-51628,2339,74687],"delta_lng":[0,-38271,-48111,-122684,9538,227062,4568,17309]}},
    {"code":1121442,"id":"4dc9a8","name":"吹浦","name_kana":"ふくら","lat":39.069934,"lng":139.878762,"prefecture":6,"lines":[11214],"attr":"cool","postal_code":"999-8521","address":"飽海郡遊佐町大字吹浦","next":[1121439,1121438,1121443,1121427,1121441],"voronoi":{"lat":39.123652,"lng":139.364562,"delta_lat":[0,-27045,-80821,2211,59987],"delta_lng":[0,44590,364319,67481,122684]}},
    {"code":1121443,"id":"39a299","name":"女鹿","name_kana":"めが","lat":39.098807,"lng":139.880963,"prefecture":6,"lines":[11214],"attr":"cool","postal_code":"999-8521","address":"飽海郡遊佐町大字吹浦","next":[1121444,1121427,1121426,1121442,1121445,1121441],"voronoi":{"lat":39.077984,"lng":139.963637,"delta_lat":[0,45668,16459,56047,-87606,-16519],"delta_lng":[0,-599074,-28936,-90628,716927,49822]}},
    {"code":1121444,"id":"5622d7","name":"小砂川","name_kana":"こさがわ","lat":39.137507,"lng":139.885692,"prefecture":5,"lines":[11214],"attr":"eco","postal_code":"018-0143","address":"にかほ市象潟町小砂川","next":[1121443,1121426,1121446,1121445],"voronoi":{"lat":39.185369,"lng":139.83982,"delta_lat":[0,228206,-217417,-87606],"delta_lng":[0,-971433,376612,716927]}},
    {"code":1121445,"id":"67c9c8","name":"上浜","name_kana":"かみはま","lat":39.164738,"lng":139.902823,"prefecture":5,"lines":[11214],"attr":"eco","postal_code":"018-0135","address":"にかほ市象潟町洗釜","next":[9921011,9921012,1121441,1121446,1121444,1121443,1121448],"voronoi":{"lat":39.145013,"lng":140.035476,"delta_lat":[0,-52378,-602,16519,76817,2492,-3318],"delta_lng":[0,14543,-38271,-49822,-122106,173656,6717]}},
    {"code":1121446,"id":"cda700","name":"象潟","name_kana":"きさかた","lat":39.2078,"lng":139.902205,"prefecture":5,"lines":[11214],"attr":"eco","postal_code":"018-0112","address":"にかほ市象潟町家の後","next":[1121426,1121445,1121444,1121448,1121447,1121509],"voronoi":{"lat":39.459644,"lng":138.78187,"delta_lat":[0,-46069,-228206,2492,10434,296269],"delta_lng":[0,86516,971433,173656,-13712,-776636]}},
    {"code":1121447,"id":"33a328","name":"金浦","name_kana":"このうら","lat":39.256183,"lng":139.920662,"prefecture":5,"lines":[11214],"attr":"eco","postal_code":"018-0311","address":"にかほ市金浦","next":[1121448,1121454,1121509,1121446],"voronoi":{"lat":39.494564,"lng":139.223128,"delta_lat":[0,51767,-42328,-305708],"delta_lng":[0,451714,91072,233850]}},
    {"code":1121448,"id":"16f85e","name":"仁賀保","name_kana":"にかほ","lat":39.28979,"lng":139.964596,"prefecture":5,"lines":[11214],"attr":"eco","postal_code":"018-0402","address":"にかほ市平沢","next":[1121454,1121447,9921004,9921010,9921011,1121449,1121446,1121445],"voronoi":{"lat":39.187861,"lng":140.013475,"delta_lat":[0,10434,305708,-15486,-202328,-29871,-15244,-56531],"delta_lng":[0,-13712,-233850,43744,216675,10896,-2175,-14861]}},
    {"code":1121449,"id":"59e447","name":"西目","name_kana":"にしめ","lat":39.347536,"lng":140.018518,"prefecture":5,"lines":[11214],"attr":"eco","postal_code":"018-0604","address":"由利本荘市西目町沼田","next":[1121453,1121450,1121454,9921003,1121448,9921004,9921002],"voronoi":{"lat":39.326578,"lng":140.040764,"delta_lat":[0,-40389,202328,-3863,-39178,-45484,-50379],"delta_lng":[0,-14432,-216675,20887,128806,45748,34072]}},
    {"code":1121450,"id":"abb69c","name":"羽後本荘","name_kana":"うごほんじょう","lat":39.386877,"lng":140.057632,"prefecture":5,"lines":[11214,99210],"attr":"eco","postal_code":"015-0858","address":"由利本荘市西梵天","next":[9921002,1121449,1121453,9921003,1121451,9921006],"voronoi":{"lat":39.442011,"lng":140.028014,"delta_lat":[0,3465,-45484,-30625,2218,12698],"delta_lng":[0,-68663,45748,65340,35472,18756]}},
    {"code":1121451,"id":"9cf78e","name":"羽後岩谷","name_kana":"うごいわや","lat":39.442075,"lng":140.0906,"prefecture":5,"lines":[11214],"attr":"eco","postal_code":"018-0711","address":"由利本荘市岩谷町","next":[1121452,1121453,9921007,1120223,1121450,9921006],"voronoi":{"lat":39.384284,"lng":140.124666,"delta_lat":[0,57728,17666,-2472,-52718,-16403],"delta_lng":[0,-96653,33201,170888,28227,-95950]}},
    {"code":1121452,"id":"ffad88","name":"折渡","name_kana":"おりわたり","lat":39.476423,"lng":140.091097,"prefecture":5,"lines":[11214],"attr":"eco","postal_code":"018-1225","address":"由利本荘市岩城上黒川","next":[1121451,1121454,1120227,1121453,1121455,1120223,1120226],"voronoi":{"lat":39.554493,"lng":140.167434,"delta_lat":[0,744,-12270,-16593,-66696,-2472,69816],"delta_lng":[0,-2556,-30313,-31855,-41496,170888,-27128]}},
    {"code":1121453,"id":"cda11d","name":"羽後亀田","name_kana":"うごかめだ","lat":39.493884,"lng":140.063032,"prefecture":5,"lines":[11214],"attr":"heat","postal_code":"015-0032","address":"由利本荘市松ケ崎","next":[1121451,1121449,1121450,1121452,1121454],"voronoi":{"lat":39.484655,"lng":139.830545,"delta_lat":[0,-39178,-3465,17666,66696],"delta_lng":[0,128806,68663,33201,41496]}},
    {"code":1121454,"id":"8ebf00","name":"岩城みなと","name_kana":"いわきみなと","lat":39.545487,"lng":140.055122,"prefecture":5,"lines":[11214],"attr":"heat","postal_code":"018-1301","address":"由利本荘市岩城内道川","next":[1121448,1121449,1121452,1121447,1121453,1121455,1121509],"voronoi":{"lat":39.546332,"lng":139.674841,"delta_lat":[0,-42328,-15486,-3863,41719,16593,49213],"delta_lng":[0,91072,43744,20887,272166,31855,-384431]}},
    {"code":1121455,"id":"b5d4e8","name":"道川","name_kana":"みちかわ","lat":39.56054,"lng":140.057049,"prefecture":5,"lines":[11214],"attr":"heat","postal_code":"018-1301","address":"由利本荘市岩城内道川","next":[1120227,1121509,1121452,1121456,1121454],"voronoi":{"lat":39.59218,"lng":139.750135,"delta_lat":[0,31248,-42855,-25336,-12270],"delta_lng":[0,48585,337104,29055,-30313]}},
    {"code":1121456,"id":"fcf094","name":"下浜","name_kana":"しもはま","lat":39.619678,"lng":140.064567,"prefecture":5,"lines":[11214],"attr":"cool","postal_code":"010-1503","address":"秋田市下浜羽川","next":[1120227,1121509,1121457,1121455],"voronoi":{"lat":39.623427,"lng":139.79872,"delta_lat":[0,26300,-19153,-50002],"delta_lng":[0,32265,278922,25917]}},
    {"code":1121457,"id":"aa0053","name":"桂根","name_kana":"かつらね","lat":39.647566,"lng":140.066482,"prefecture":5,"lines":[11214],"attr":"cool","postal_code":"010-1501","address":"秋田市下浜桂根","next":[1120227,1121509,1120229,1121458,1121456],"voronoi":{"lat":39.649727,"lng":139.830985,"delta_lat":[0,64149,-7358,-66097,-9847],"delta_lng":[0,69795,114605,92793,1729]}},
    {"code":1121458,"id":"bc99f0","name":"新屋(秋田)","name_kana":"あらや","lat":39.677493,"lng":140.087799,"prefecture":5,"lines":[11214],"attr":"cool","postal_code":"010-1637","address":"秋田市新屋扇町","next":[1120227,1120229,1121459,1121457],"voronoi":{"lat":39.665942,"lng":140.11539,"delta_lat":[0,52253,-11676,-66097],"delta_lng":[0,-33430,-66576,92793]}},
    {"code":1121459,"id":"a68760","name":"羽後牛島","name_kana":"うごうしじま","lat":39.695834,"lng":140.116467,"prefecture":5,"lines":[11214],"attr":"cool","postal_code":"010-0063","address":"秋田市牛島西１丁目","next":[1120229,1120228,1120227,1121458],"voronoi":{"lat":39.718194,"lng":140.081961,"delta_lat":[0,7547,-34304,-25496],"delta_lng":[0,11025,53285,-30880]}},
    {"code":1120228,"id":"9a0022","name":"秋田","name_kana":"あきた","lat":39.716748,"lng":140.129931,"prefecture":5,"lines":[11202,11214],"attr":"heat","postal_code":"010-0001","address":"秋田市中通７丁目","next":[1120230,9920915,1121459,1120232,1120226,1120229,1120225,1120233,1120227],"voronoi":{"lat":39.691438,"lng":140.146271,"delta_lat":[0,34304,59341,47040,5642,16183,-11226,-90627,-49217],"delta_lng":[0,-53285,43935,47903,13008,52073,8659,-33575,-36503]}}
  ],
  "north":39.71836,
  "south":37.79892,
  "east":140.12953,
  "west":139.12119,
  "polyline_list":[
    {
      "start":"折渡トンネル北",
      "end":"折渡トンネル南",
      "lat":39.4749,
      "lng":140.09483,
      "delta_lat":[0,-35,-38,-18,-11,-6,-12,-3,-29,-36,-738,-300,-201,-385],
      "delta_lng":[0,56,61,21,12,6,11,3,20,15,291,117,84,147]
    },
    {
      "start":"西目１",
      "end":"西目２",
      "lat":39.35066,
      "lng":140.02874,
      "delta_lat":[0,57,18,5,10,70,80,17,58,78,67],
      "delta_lng":[0,166,50,7,17,112,135,27,94,131,111]
    },
    {
      "start":"折渡トンネル北",
      "end":"折渡トンネル南",
      "lat":39.4749,
      "lng":140.09483,
      "delta_lat":[0,-20,-12,-15,-35,-15,-8,-7,-1,-18,-19,-35,-577,-200,-441,-53,-65,-79,-212],
      "delta_lng":[0,62,28,30,54,21,10,8,0,10,10,17,232,79,173,16,20,24,50]
    },
    {
      "start":"西目２",
      "end":"折渡トンネル南",
      "lat":39.35526,
      "lng":140.03724,
      "delta_lat":[0,9,18,19,33,33,44,48,53,94,65,23,158,125,141,131,137,8,7,94,51,60,65,110,207,271,248,237,206,147,109,142,134,76,97,63,33,65,16,65,42,143,18,97,61,24,222,181,184,130,49,95,176,192,195,113,35,60,90,60,76,79,89,56,169,145,79,80,13,263,157,209,307,39,160,107,105,78,28,15,15,15,46,52,38,37,30,27,51,19,64,32,6,96,90,40,49,98,3,41,59,30,31,34,38,34,22,27,36,26,34,12,27,47,26,59,44,56,50,60,55,68,64,50,58,56,43,94],
      "delta_lng":[0,12,24,26,41,40,41,47,43,80,54,20,132,104,117,109,112,6,7,80,29,36,32,56,100,130,121,116,99,72,53,67,59,39,50,39,19,39,10,43,27,100,14,70,50,18,171,139,141,96,36,71,132,146,143,84,26,42,58,32,33,21,22,10,25,20,11,11,3,36,22,28,42,5,20,14,17,14,4,7,9,9,29,47,39,43,41,50,107,40,142,68,13,214,194,86,104,212,6,92,126,63,63,71,69,56,33,39,47,29,40,11,26,40,18,35,23,23,18,16,8,5,-2,-2,-10,-8,-13,-31]
    },
    {
      "start":"西目１",
      "end":"西目２",
      "lat":39.35066,
      "lng":140.02874,
      "delta_lat":[0,27,30,14,6,20,2,5,64,56,48,100,55,33],
      "delta_lng":[0,115,100,36,15,38,5,9,102,89,77,147,78,39]
    },
    {
      "start":"折渡トンネル北",
      "end":"秋田",
      "lat":39.4749,
      "lng":140.09483,
      "delta_lat":[0,56,77,32,48,94,123,72,80,198,143,25,54,87,120,133,87,33,12,149,206,141,93,25,38,33,108,120,166,56,25,8,30,41,35,42,30,39,56,70,32,21,21,33,90,177,128,129,106,89,45,809,39,305,330,195,61,90,42,91,142,102,139,97,217,47,82,50,18,70,139,147,114,36,34,140,85,105,14,76,59,102,124,29,69,72,94,20,15,121,152,83,108,90,85,33,70,66,39,136,34,94,56,65,75,45,81,25,4,25,88,118,158,81,34,32,33,23,68,88,150,33,20,43,163,41,137,69,38,47,5,58,141,251,127,59,51,103,104,79,57,33,10,21,30,28,66,125,60,121,40,50,62,45,42,171,49,58,41,198,119,12,42,43,42,3,46,80,12,64,10,83,91,47,49,62,71,110,111,57,67,36,2,83,31,26,17,28,81,15,29,18,30,34,28,38,21,6,146,150,159,55,97,63,107,112,197,94,231,20,101,197,171,90,31,21,18,16,39,32,20,51,18,20,6,19,67,50,35,12,340,15,1,33,41,13,21,22,63,15,24,142,143,15,207,39,74,44,35,33,59,298,68,28,165,157,62,52,83,43,29,38,92,44,68,47,37,140,78,37,43,47,63,150,332,351,40,116,32,72,167,114,40,66,37,41,27,29,17,43,63,91,100,79,62,45,38,136,169,99,110,56,116,79,16,33,29,193,167,211],
      "delta_lng":[0,-135,-197,-76,-101,-152,-200,-116,-142,-350,-256,-44,-94,-155,-210,-233,-145,-47,-14,-186,-242,-172,-112,-30,-45,-41,-125,-169,-238,-86,-47,-15,-75,-99,-76,-75,-55,-50,-48,-53,-19,-12,-7,-7,4,20,19,19,18,14,7,147,8,58,55,38,12,17,9,18,29,32,40,30,72,14,27,14,4,9,8,10,6,7,5,44,27,39,5,28,25,37,22,2,-1,-10,-21,-1,-2,2,6,6,11,16,21,12,27,30,16,62,16,38,22,20,17,6,4,-1,0,-2,-13,-19,-29,-16,-4,0,3,3,22,31,58,8,3,1,-3,1,-14,-8,2,2,0,5,17,35,16,6,10,22,28,18,12,5,0,4,2,3,0,4,4,13,5,10,16,11,13,58,19,22,13,54,27,3,3,-1,-5,0,-9,-19,-3,-14,-2,-13,-7,-2,0,0,6,9,14,7,13,9,0,25,13,13,8,17,52,12,14,9,9,8,1,2,-2,0,-28,-31,-22,-5,-13,-4,3,5,12,2,9,0,4,5,8,11,6,6,5,9,26,21,20,52,28,32,9,36,148,111,71,15,339,26,1,63,75,36,61,70,137,28,34,163,162,15,230,36,44,16,7,1,-8,-36,-9,-2,-17,-11,-6,0,6,7,5,9,31,18,31,26,25,107,68,40,55,72,109,275,594,626,72,208,58,127,299,202,69,111,61,68,41,36,21,49,73,93,93,65,47,30,27,84,101,51,41,17,18,5,0,0,0,0,0,-5]
    },
    {
      "start":"村上トンネル南",
      "end":"村上トンネル北",
      "lat":38.23017,
      "lng":139.45974,
      "delta_lat":[0,72,58,36,42,31,32,44,36,25,38,38,32,29,17,87,88,35,30,22,24,25,52,36,37,37,25,27,31,16,18,33,26,30,40,50,20,18,14,12,7,2,16,7,1,-1,-7,-4,6,9,9,13,21,27,19,27,31,14,35,33,13,15,43,43,22,40,30,23,27,43,78,56,79,61,37,38,249,91,56,68,103],
      "delta_lng":[0,-65,-51,-27,-27,-12,-10,-10,-3,2,7,9,9,11,7,44,42,12,12,6,7,6,2,-4,-7,-14,-12,-17,-25,-18,-26,-50,-45,-56,-90,-118,-44,-49,-53,-47,-33,-28,-124,-86,-50,-67,-81,-42,-70,-71,-40,-45,-45,-47,-27,-34,-31,-16,-24,-18,-3,-2,-6,-4,-2,3,4,6,9,18,34,21,30,25,15,17,97,34,24,30,41]
    },
    {
      "start":"第２馬下トンネル南",
      "end":"第２馬下トンネル北",
      "lat":38.33907,
      "lng":139.4527,
      "delta_lat":[0,63,56,38,60,60,3,24,102,86,77,45,89,49,43,32,62,123,65,56,67,137,119,93,70,72,30,104,149,32,27,25,40,120,45,52,47,44,24],
      "delta_lng":[0,-3,1,3,10,19,2,10,43,34,21,13,18,5,8,1,8,7,-2,-5,-8,-18,-18,-19,-17,-20,-8,-27,-39,-7,-3,-3,-3,1,2,4,9,13,10]
    },
    {
      "start":"新矢引トンネル西",
      "end":"新矢引トンネル東",
      "lat":38.7003,
      "lng":139.67808,
      "delta_lat":[0,19,10,9,6,6,31,12,4,44,23,13,10,7,5,21,23,4,0,-4,-7,-9,-22,-23,-23],
      "delta_lng":[0,80,55,56,56,55,415,160,59,491,274,137,116,84,48,242,234,57,56,57,57,45,91,76,82]
    },
    {
      "start":"鼠ヶ関トンネル南",
      "end":"鼠ヶ関トンネル北",
      "lat":38.57971,
      "lng":139.55996,
      "delta_lat":[0,20,12,23,36,41,48,52,62,140,110,65,43,219,36,30,4],
      "delta_lng":[0,11,3,4,9,15,12,12,14,36,39,33,36,196,35,24,-3]
    },
    {
      "start":"新勝木トンネル南",
      "end":"新勝木トンネル北",
      "lat":38.471,
      "lng":139.50455,
      "delta_lat":[0,29,53,101,122,125,67,112,78,139,18,123,153,154,139,136,79,25,46,53,37,57],
      "delta_lng":[0,24,39,68,86,87,59,99,60,115,14,106,111,101,74,76,47,17,25,27,14,19]
    },
    {
      "start":"府屋１",
      "end":"府屋２",
      "lat":38.52855,
      "lng":139.54196,
      "delta_lat":[0,53,39,64,47,27,18,16,17,16,29,92,53,29],
      "delta_lng":[0,13,7,19,20,18,13,14,14,19,24,98,59,42]
    },
    {
      "start":"第２馬下トンネル南",
      "end":"第２馬下トンネル北",
      "lat":38.33907,
      "lng":139.4527,
      "delta_lat":[0,95,42,65,94,27,70,26,21,24,37,74,32,33,137,24,36,68,108,70,117,127,185,102,58,23,18,31,77,53,73,80,30,79,64,12,82,136],
      "delta_lng":[0,-22,-8,-6,-6,-1,-4,4,5,12,22,41,16,9,14,0,-5,-15,-29,-16,-25,-37,-56,-35,-19,-6,-3,-3,9,9,16,13,6,15,13,7,46,81]
    },
    {
      "start":"鼠ヶ関１",
      "end":"鼠ヶ関２",
      "lat":38.54123,
      "lng":139.5508,
      "delta_lat":[0,59,31,44,24,24,29,36,69,36,36,56,18,31,85,23,33,33,20,39,29,29,23,21,137],
      "delta_lng":[0,15,7,6,-1,-2,-6,-9,-28,-9,-8,-2,2,0,-9,0,9,19,9,13,9,4,3,-3,-9]
    },
    {
      "start":"鼠ヶ関トンネル南",
      "end":"鼠ヶ関トンネル北",
      "lat":38.57971,
      "lng":139.55996,
      "delta_lat":[0,21,13,23,27,33,112,98,50,61,44,67,56,18,14,15,9,9,44,36,22,133,26,12,-2],
      "delta_lng":[0,-2,0,1,6,7,23,-9,3,3,16,25,23,8,8,6,6,10,33,45,32,170,33,23,6]
    },
    {
      "start":"府屋２",
      "end":"鼠ヶ関１",
      "lat":38.53355,
      "lng":139.54555,
      "delta_lat":[0,16,40,43,59,26,52,47,27,40,38,30,28,47,18,45,20,48,144],
      "delta_lng":[0,15,31,23,44,22,59,39,20,31,24,20,19,34,11,34,11,20,68]
    },
    {
      "start":"村上トンネル南",
      "end":"村上トンネル北",
      "lat":38.23017,
      "lng":139.45974,
      "delta_lat":[0,81,68,57,54,54,37,42,57,41,113,85,77,30,19,45,68,37,38,34,32,30,31,46,34,28,56,87,117,30,32,69,40,68,74,73,106,80,78,80,48,79,61,53,54,40,36,20,53,54,52,65],
      "delta_lng":[0,-50,-39,-19,-12,-4,3,10,13,17,41,31,23,7,4,3,-5,-8,-11,-17,-29,-33,-34,-51,-31,-39,-55,-90,-114,-29,-28,-75,-41,-65,-66,-60,-84,-59,-53,-54,-27,-47,-38,-30,-25,-19,-12,-6,-1,0,4,12]
    },
    {
      "start":"八森山トンネル 東",
      "end":"新矢引トンネル西",
      "lat":38.70036,
      "lng":139.6685,
      "delta_lat":[0,-10,-17,-14,-15,-12,-7,-2,-5,-8,-5,-2,3,17,25,17,12,17],
      "delta_lng":[0,31,41,36,44,45,40,13,25,43,68,76,35,118,116,84,55,88]
    },
    {
      "start":"鼠ヶ関１",
      "end":"鼠ヶ関２",
      "lat":38.54123,
      "lng":139.5508,
      "delta_lat":[0,27,25,40,28,12,48,313,195,69,69,36,27,32,44],
      "delta_lng":[0,26,13,13,5,-2,3,-7,-3,-3,-1,-1,-3,-3,-27]
    },
    {
      "start":"八森山トンネル西",
      "end":"八森山トンネル 東",
      "lat":38.69292,
      "lng":139.65038,
      "delta_lat":[0,34,101,276,30,29,29,29,28,41,73,31,22,18,16,13,13,9,7,4,1,-3,-9,-22,-26],
      "delta_lng":[0,59,163,413,45,45,45,45,45,65,117,55,46,42,44,45,46,47,48,48,49,49,53,94,104]
    },
    {
      "start":"八森山トンネル西",
      "end":"八森山トンネル 東",
      "lat":38.69292,
      "lng":139.65038,
      "delta_lat":[0,42,81,39,39,39,40,40,128,58,33,40,30,60,65,30,28,25,25,20,47,16,13,13,36,43,17,9,7,4,3,0,-3,-8,-9,-9,-15,-18,-18,-14,-11,-24,-66,-26,-27,-25,-15,-38],
      "delta_lng":[0,31,43,16,14,11,8,5,15,7,2,9,9,23,35,25,29,31,36,36,85,38,41,41,139,158,78,45,41,28,34,33,35,51,39,43,41,39,35,22,15,32,69,34,40,41,36,94]
    },
    {
      "start":"府屋１",
      "end":"府屋２",
      "lat":38.52855,
      "lng":139.54196,
      "delta_lat":[0,22,40,34,29,53,63,27,22,14,18,56,28,28,66],
      "delta_lng":[0,14,24,16,17,33,39,15,12,11,19,60,23,21,56]
    },
    {
      "start":"鼠ヶ関トンネル北",
      "end":"八森山トンネル西",
      "lat":38.58913,
      "lng":139.56471,
      "delta_lat":[0,16,15,16,20,62,62,11,24,22,20,25,35,39,14,45,10,45,50,46,25,25,85,36,10,18,19,15,15,9,19,22,20,40,26,23,30,59,40,39,86,52,38,19,28,22,24,20,25,16,28,42,26,29,12,24,52,11,22,32,27,102,141,27,30,15,22,22,28,31,43,41,23,182,102,54,45,18,34,69,29,58,94,62,65,30,29,15,86,34,39,40,37,44,52,78,170,90,25,72,67,8,70,830,58,47,38,43,74,58,72,101,107,69,52,38,38,40,39,33,62,50,36,51,51,43,18,24,35,23,25,10,110,32,64,51,18,37,32,21,35,39,71,63,31,22,65,29,58,52,13,40,32,23,19,23,13,14,65,29,31,24,68,40,42,117,104,68,59,40,32,42,36,58,29,68,44,18,13,19,15,132,18,11,23,20,10,10,10,10,9,9,9,9,125,79,29,66,26,27,26,26,26,24,2,25,265,11,37,49,11,54,9,5,18,51,92,76,36,114,25,35,44,57,106,80,101],
      "delta_lng":[0,18,18,20,21,52,42,6,9,8,3,3,-3,-7,-4,-14,-4,-20,-22,1,5,9,39,17,3,13,18,17,22,9,29,35,40,85,45,29,29,36,23,15,24,17,16,12,23,18,29,23,42,31,38,47,24,21,7,14,24,5,7,6,3,-3,6,3,15,11,23,27,37,34,43,28,17,114,62,39,45,19,49,94,38,78,108,73,80,33,19,6,36,11,14,19,18,23,35,50,112,58,16,43,37,3,39,438,32,26,18,14,11,6,13,9,5,4,2,7,12,17,20,25,42,30,26,37,44,35,16,28,41,17,11,3,58,13,31,24,9,17,25,15,35,39,74,65,28,14,40,15,33,28,8,28,32,26,23,37,18,24,102,40,23,15,47,22,12,38,32,22,27,23,25,47,65,126,72,155,86,34,17,24,14,115,18,10,24,24,14,14,14,16,15,14,17,16,224,126,47,112,45,45,45,45,45,40,5,45,454,21,74,97,25,105,18,10,30,82,131,93,47,130,29,41,55,75,139,132,140]
    },
    {
      "start":"鼠ヶ関２",
      "end":"鼠ヶ関トンネル南",
      "lat":38.55088,
      "lng":139.55091,
      "delta_lat":[0,14,114,50,35,49,5,47,65,92,91,14,40,83,65,31,50,55,30,41,81,63,60,30,117,80,56,61,21,59,13,65,65,26,32,65,79,121,73,71,32,38,25,54,69,141,71,83,93,26,42],
      "delta_lng":[0,-11,-93,-40,-23,-19,-2,-15,-12,0,16,2,18,45,34,15,25,28,14,21,44,34,32,18,68,51,35,44,14,45,10,52,50,16,21,34,38,52,29,26,13,14,7,15,18,38,21,24,23,7,9]
    },
    {
      "start":"村上トンネル北",
      "end":"第２馬下トンネル南",
      "lat":38.2586,
      "lng":139.44682,
      "delta_lat":[0,53,112,23,31,39,32,36,36,102,24,33,55,51,54,53,26,44,86,129,12,21,22,79,45,44,54,47,202,94,74,24,9,23,88,29,30,50,42,34,46,45,63,92,37,59,74,53,17,29,44,23,21,97,126,84,38,130,98,81,25,31,21,18,33,99,42,47,45,53,31,32,57,73,341,3,169,169,140,140,180,29,34,24,4,21,25,39,35,60,28,43,76,39,27,19,28,47,66,172,170,77,32,39,46,38,35,72,72,44,25,29,27,33,28,33,27,36,76,25,35,50,89,76,51,31,23,58,43,45,31,25,25,47,98,54,29,27,29,48,24,42,47,38,40,43,45,26],
      "delta_lng":[0,22,46,7,7,6,3,-1,-7,-24,-4,-3,-4,-2,2,9,9,14,37,56,6,11,9,36,22,22,25,19,41,16,12,4,1,5,13,3,0,-5,-7,-9,-17,-19,-33,-44,-14,-19,-19,-13,-2,-3,4,4,5,31,39,23,9,26,19,12,2,4,1,0,-6,-23,-11,-7,-6,-3,2,3,8,12,67,1,33,33,27,26,32,2,-3,-5,-1,-7,-14,-26,-26,-52,-22,-30,-48,-19,-13,-6,-4,-1,2,8,4,6,4,11,19,20,23,55,53,30,17,18,16,14,11,9,5,4,-1,-4,-11,-20,-36,-31,-22,-9,-2,-4,1,6,7,10,9,19,45,25,11,8,5,4,0,-1,-6,-8,-10,-13,-13,-6]
    },
    {
      "start":"新勝木トンネル北",
      "end":"府屋１",
      "lat":38.48945,
      "lng":139.51723,
      "delta_lat":[0,18,128,122,80,75,158,116,20,27,49,43,23,55,74,134,143,81,97,105,19,33,62,291,65,74,55,105,48,91,36,66,42,58,23,29,11,15,30,18,68,35,20,43,129,42,81,62,14,18,50,62,53,32,32,87,45,60,23,58,42,34,22,47,14,18],
      "delta_lng":[0,6,36,33,20,19,43,30,8,12,27,31,18,49,69,118,112,57,63,60,9,17,28,133,28,34,42,87,40,79,33,61,38,64,23,28,15,19,57,29,112,43,21,32,88,29,55,41,8,7,14,24,23,16,18,53,29,40,15,35,27,18,10,23,7,9]
    },
    {
      "start":"新勝木トンネル南",
      "end":"新勝木トンネル北",
      "lat":38.471,
      "lng":139.50455,
      "delta_lat":[0,32,85,49,94,35,47,29,32,32,39,39,48,66,27,25,58,42,92,103,107,32,33,34,34,33,22,40,50,38,20,79,77,85,48,56,38,46],
      "delta_lng":[0,13,29,13,4,1,13,8,14,19,31,37,62,81,25,19,31,15,25,30,27,9,17,29,38,39,33,60,80,57,27,100,84,80,35,39,22,22]
    },
    {
      "start":"第２馬下トンネル北",
      "end":"新勝木トンネル南",
      "lat":38.36337,
      "lng":139.45312,
      "delta_lat":[0,35,22,41,55,61,61,36,41,36,36,28,51,53,58,29,37,31,43,38,67,67,103,71,162,210,190,67,44,35,35,35,71,82,64,75,50,45,47,29,35,63,7,34,24,36,34,22,29,45,40,54,36,8,58,57,47,91,38,29,38,27,23,115,91,40,19,24,27,37,61,27,60,70,18,44,45,34,94,76,38,52,67,26,52,50,38,69,80,54,20,67,21,24,23,38,72,30,34,35,24,42,26,50,26,20,25,25,23,33,65,47,38,24,30,18,42,41,19,15,42,14,24,51,128,25,18,13,23,33,44,59,18,22,64,30,36,40,41,82,166,27,38,56,96,63,74,18,31,42,57,86,94,57,20,73,25,9,90,49,33,38,38,36,55,33,29,33,31,32,63,18,9,31,32,10,55,71,118,50,56,139,33,61,116,58,30,24,44,122,95,68,25,38,156,57,53,83,127,86,110,55,65,74,59,44,35,46,82,86,71,124,26],
      "delta_lng":[0,16,15,30,44,39,38,20,17,16,14,10,14,11,14,9,15,14,22,19,34,33,51,36,73,91,71,19,7,0,-4,-9,-28,-39,-32,-45,-36,-29,-33,-26,-32,-62,-8,-20,-10,-12,-6,-2,0,7,6,18,10,3,18,24,19,38,18,17,30,23,22,129,109,39,15,17,15,17,23,8,12,11,4,8,9,11,35,25,12,20,36,18,42,47,34,66,74,48,14,31,6,2,-1,-7,-15,-7,-3,1,5,19,14,30,21,10,11,3,3,2,-3,6,12,11,17,14,36,36,21,21,34,9,10,18,48,10,13,13,27,45,60,83,23,17,48,26,33,41,51,107,206,32,37,50,80,52,54,10,6,5,2,4,10,1,-1,-14,-6,-2,-14,-7,4,7,15,24,47,27,19,16,11,7,10,5,5,15,20,9,54,69,110,52,64,152,42,85,168,79,30,23,29,79,51,42,14,12,45,16,22,33,45,27,48,24,31,32,29,27,20,34,59,63,53,91,21]
    },
    {
      "start":"新矢引トンネル西",
      "end":"新矢引トンネル東",
      "lat":38.7003,
      "lng":139.67808,
      "delta_lat":[0,34,10,15,14,1,27,16,32,11,4,18,14,15,4,1,-1,-2,-10,-7,-17,-8,-12],
      "delta_lng":[0,302,155,227,184,20,331,228,409,135,53,228,159,163,30,27,30,67,102,34,77,33,89]
    },
    {
      "start":"新矢引トンネル東",
      "end":"西目１",
      "lat":38.70189,
      "lng":139.70891,
      "delta_lat":[0,-6,-6,-3,-2,-1,1,2,6,10,22,13,43,36,100,20,16,21,78,53,28,44,59,29,26,23,27,232,117,108,142,73,91,34,10,11,10,11,13,12,13,13,173,144,116,180,43,184,107,123,19,136,166,116,418,41,47,9,237,59,37,41,29,20,3,3,3,5,13,15,7,10,13,34,3,14,-2,-5,-9,-6,-1,-59,-9,-23,-18,-29,-20,-18,-10,-14,-3,-9,-15,-8,-11,-15,-19,-28,0,0,-2,-4,-5,-22,-5,2,36,15,8,17,35,18,39,130,280,210,68,68,117,170,159,18,158,167,165,170,166,18,9,126,127,85,105,120,91,98,62,66,60,143,128,155,80,43,31,66,55,54,57,59,192,66,116,140,29,234,96,159,253,137,114,103,161,114,293,94,108,18,21,97,220,142,166,213,29,98,229,276,349,60,36,155,129,125,119,120,121,97,21,26,60,86,60,55,34,79,65,34,67,78,52,53,74,70,56,39,43,77,215,207,14,143,47,85,26,57,50,47,134,83,467,18,279,290,203,119,150,18,403,11,9,13,166,506,52,272,25,391,48,179,36,38,20,67,114,61,242,7,50,128,12,47,40,8,12,27,38,36,43,20,33,148,84,97,61,161,27,87,51,4,18,173,7,69,103,9,18,54,25,24,27,33,28,12,32,43,44,159,48,8,16,67,81,183,170,169,42,79,28,47,42,37,29,43,41,59,24,35,26,22,30,319,187,27,126,129,56,51,27,94,273,204,20,69,87,29,38,40,88,260,159,47,170,65,50,98,60,73,39,155,676,80,82,136,590,85,121,12,181,73,115,69,143,31,23,141,172,560,9,888,177,265,192,38,83,150,333,150,121,37,182,24,142,82,167,253,199,421,91,48,117,15,61,62,69,79,34,80,71,111,33,211,265,169,253,178,220,309,38,112,120,48,205,55,71,72,29,56,54,42,38,27,26,10,11,5,13,18,18,26,32,31,24,53,29,31,40,38,51,46,19,36,36,58,52,49,59,39,37,51,114,27,14,35,29,28,48,85,107,183,113,152,16,98,30,46,32,32,42,31,36,34,49,34,47,57,50,54,49,49,31,55,57,59,29,49,53,54,48,72,332,85,19,47,47,51,25,18,36,26,22,21,24,23,29,23,25,26,32,29,31,38,55,48,28,39,44,18,18,32,45,58,44,50,41,42,45,40,55,79,133,120,27,23,38,65,71,67,99,78,55,29,107,179,42,79,41,40,55,35,43,40,52,54,75,108,97,13,90,208,143,67,31,52,44,65,98,54,43,34,56,35,37,59,32,34,38,43,42,36,38,38,42,59,46,39,38,37,30,13,15,35,33,42,113,24,154,54,60,85,77,34,57,66,95,54,52,15,34,166,399,17,34,26,27,30,18,29,33,31,30,33,31,30,29,29,33,32,34,29,26,30,25,26,29,20,3,56,57,48,40,27,42,51,41,27,38,27,27,51,50,49,53,50,55,50,29,26,30,9,16,29,27,31,32,35,30,31,30,28,33,31,30,16,15,30,32,27,27,23,29,51,57,56,53,56,54,45,31,27,61,29,31,57,59,7,51,58,57,53,52,49,50,50,48,26,29,41,16,33,42,47,59,44,73,58,81,23,54,43,32,33,43,65,32,32,33,32,34,38,29,33,31,30,59,33,67,33,34,32,31,34,31,31,31,32,5,24,31,30,29,29,30,27,57,33,34,33,34,33,32,34,33,33,34,33,32,32,32,30,25,31,32,6,26,30,32,31,33,51,32,33,30,34,27,49,42,35,34,34,35,33,28,31,32,32,42,33,19,32,32,31,16,16,31,31,31,30,31,29,30,30,30,29,31,28,26,25,26,23,31,34,31,34,32,15,16,17,29,64,62,61,59,59,59,58,57,57,54,55,54,53,50,32,22,29,38,74,100,83,76,77,37,25,74,186,193,39,142,94,96,92,208,94,69,25,215,72,44,47,182,16,11,212,9,197,199,78,148,81,38,34,24,63,9,61,51,34,30,32,4,7,4,10,19,30,36,25,168,20,195,76,40,9,71,58,110,49,24,256,27,27,36,31,36,33,201,38,47,110,57,49,134,56,5,181,214,56,66,56,230,30,17,94,51,155,206,206,155,40,23,30,11,14,36,18,16,11,8,8,54,11,24,35,35,40,53,68,123,37,63,123,78,84,102,50,168,33,96,117,41,22,42,30,29,44,60,23,36,5,55,36,35,37,33,28,4,6,7,26],
      "delta_lng":[0,26,40,33,29,72,41,40,40,40,88,33,86,71,182,31,23,29,93,63,34,51,70,37,35,37,44,393,200,182,241,126,156,54,15,17,14,15,13,14,12,12,153,124,100,152,36,158,96,109,13,116,139,99,359,35,40,9,202,58,60,91,95,109,15,47,44,58,201,240,112,126,176,461,40,272,203,82,141,148,28,1106,158,468,357,596,381,343,205,340,35,173,332,169,259,294,353,510,40,45,20,52,139,420,99,65,387,156,84,132,116,42,88,148,295,216,71,67,115,171,160,22,177,170,182,178,173,20,9,144,143,94,117,140,103,115,72,72,68,168,138,172,90,47,31,54,35,22,17,9,14,4,8,8,1,12,5,7,15,7,5,7,5,6,16,12,20,4,5,18,51,29,31,45,8,23,49,59,70,14,7,34,28,24,24,26,27,28,8,11,29,69,41,22,7,17,14,6,-9,-19,-12,-18,-36,-30,-32,-22,-25,-43,-123,-123,-9,-85,-27,-49,-15,-27,-17,-6,10,5,27,0,22,14,18,8,7,1,26,1,0,1,14,46,4,27,3,28,2,6,-7,-9,-9,-37,-72,-40,-150,-5,-37,-94,-9,-34,-47,-8,-14,-34,-66,-84,-168,-74,-118,-560,-316,-361,-225,-616,-100,-323,-185,-17,-82,-626,-25,-251,-381,-33,-64,-188,-74,-59,-58,-58,-43,-14,-41,-44,-41,-117,-35,-6,-12,-49,-62,-145,-127,-122,-32,-58,-20,-11,-6,-2,2,7,11,26,11,27,26,22,33,352,206,29,134,141,62,57,29,107,300,225,23,76,84,23,27,29,57,168,104,30,113,48,47,104,61,85,42,168,734,89,90,149,641,93,133,13,195,63,86,44,75,14,11,47,42,125,2,198,41,60,42,9,19,35,75,31,28,9,40,5,32,19,37,55,44,95,18,10,27,3,5,1,-5,-24,-7,-42,-41,-92,-27,-173,-224,-140,-210,-151,-182,-256,-34,-92,-101,-42,-166,-47,-62,-59,-26,-44,-59,-55,-63,-65,-69,-29,-28,-19,-62,-77,-62,-65,-61,-53,-32,-57,-29,-28,-33,-25,-38,-27,-10,-26,-19,-35,-35,-30,-38,-24,-25,-31,-71,-15,-7,-11,-3,-1,2,10,10,19,14,13,3,60,25,46,40,55,84,54,45,33,32,15,17,10,8,6,7,12,16,38,38,40,18,19,8,5,0,3,13,-2,-1,-10,-20,-28,-20,-15,-39,-40,-43,-53,-62,-61,-58,-41,-34,-31,-24,-21,-14,-13,-22,-28,-25,-42,-45,-18,-20,-25,-26,-24,-9,-1,6,11,22,35,61,96,167,156,31,26,36,59,56,43,52,46,41,27,134,224,51,98,44,31,30,9,8,1,-5,-14,-26,-44,-42,-6,-41,-94,-68,-27,-8,-8,-1,4,12,11,20,20,47,25,26,25,12,14,21,27,48,46,67,78,69,75,49,49,78,101,73,25,30,63,48,38,91,19,117,36,29,24,10,11,47,58,89,45,35,9,16,80,192,8,15,9,10,10,4,6,7,7,8,5,9,7,9,15,23,32,38,33,26,23,16,13,7,5,1,9,10,7,-3,-6,-14,-20,-12,-4,0,0,7,18,22,21,24,21,22,23,11,9,8,2,4,5,2,-2,-1,-3,-7,-8,-10,-12,-18,-19,-21,-9,-8,-18,-16,-15,-6,-6,-3,5,10,11,7,-1,-7,-8,-7,-6,-23,-15,-19,-42,-45,-5,-38,-43,-42,-39,-37,-36,-36,-36,-34,-18,-23,-27,-9,-13,-14,-11,-8,-3,-9,-7,-10,-5,-5,-6,-4,-4,-6,-6,-5,-3,-3,-4,-5,-4,-2,-6,-3,-3,-5,-1,2,6,7,10,11,11,14,14,15,14,3,12,14,13,15,14,14,11,27,17,16,15,14,17,15,15,14,16,13,17,16,16,13,15,12,14,14,4,12,15,15,15,15,24,18,18,18,20,19,33,33,29,28,28,29,26,24,26,25,26,35,28,15,26,26,26,12,12,26,25,26,24,24,25,24,25,24,26,25,24,23,21,21,17,19,18,13,15,11,5,4,3,4,10,8,8,9,8,9,8,9,8,8,7,7,6,5,5,7,9,13,33,57,59,64,75,43,28,99,242,254,50,184,121,88,62,118,54,40,14,128,47,37,59,245,21,14,272,12,263,261,101,199,107,49,68,76,247,37,255,218,144,129,121,14,24,17,37,51,62,51,27,169,19,207,70,27,6,36,22,29,13,6,58,9,10,18,20,25,27,185,34,43,102,48,42,101,39,2,109,126,27,19,9,-16,2,7,37,23,72,107,106,80,21,15,27,11,17,49,31,32,27,27,32,240,53,77,90,76,72,75,72,110,29,49,98,67,83,108,52,176,31,101,121,41,33,70,61,65,125,189,81,123,18,196,131,114,134,107,95,11,20,27,85]
    },
    {
      "start":"新津",
      "end":"村上トンネル南",
      "lat":37.79892,
      "lng":139.12122,
      "delta_lat":[0,275,37,159,24,76,53,47,56,34,9,8,30,28,38,34,34,18,4,6,9,6,-1,-2,-3,-5,-5,-4,-8,-4,-4,-5,-3,-5,-3,-2,-2,-5,-3,1,6,7,15,25,4,3,16,6,32,14,42,32,31,56,59,28,58,62,56,52,52,10,21,27,5,12,3,12,8,7,8,5,5,6,5,4,3,2,3,6,9,2,11,3,22,38,34,42,16,22,47,47,47,47,47,27,18,46,18,17,13,47,49,48,24,16,17,25,24,54,85,21,107,108,104,91,5,28,56,44,151,96,99,114,22,47,29,49,125,179,140,113,12,109,114,67,45,70,74,114,82,21,74,105,118,106,102,9,103,103,105,95,91,81,101,148,96,41,78,123,221,160,106,47,88,154,158,31,6,5,7,4,94,148,52,18,24,52,85,80,54,55,131,57,106,50,47,147,49,45,166,141,129,142,31,105,159,143,154,55,107,152,146,53,141,14,116,159,83,36,33,1,185,65,107,160,96,13,32,31,28,459,135,27,306,200,156,281,282,4,82,159,162,53,41,44,138,50,75,122,84,107,76,162,62,215,323,21,198,15,10,326,108,59,221,78,132,114,146,323,27,43,124,66,39,799,136,704,839,40,50,62,158,282,196,114,273,175,278,212,46,153,7,210,166,127,172,137,95,94,230,62,39,105,121,119,233,185,186,67,212,173,87,96,197,229,187,41,155,208,193,195,24,253,146,188,220,32,123,188,139,159,303,116,74,34,120,80,18,79,132,114,124,113,104,80,85,38,47,38,45,110,6,71,4,53,58,136,159,150,188,29,111,136,105,118,39,67,40,56,63,43,40,137,129,134,64,20,62,56,20,45,65,83,54,51,65,45,78,51,108,40,36,26,59,22,31,58,98,94,96,143,31,121,117,78,45,13,33,55,62,87,110,103,123,120,127,80,146,76,49,130,143,196,196,187,17,182,118,155,77,139,195,19,90,211,216,37,161,228,277,92,151,226,295,179,21,129,38,191,189,77,34,273,418,120,62,24,4,23,36,93,81,98,129,58,28,16,39,30,122,121,157,156,193,107,94,152,49,36,44,61,37,89,134,127,3],
      "delta_lng":[0,-3,2,-2,0,0,7,11,14,13,6,5,23,23,41,46,65,47,6,25,51,73,22,110,109,108,111,114,223,108,105,121,119,123,128,66,61,118,185,82,72,52,78,94,10,9,43,16,83,33,103,81,77,138,142,73,147,147,138,129,128,26,53,72,13,38,14,41,59,60,88,71,74,68,73,47,63,39,14,49,41,8,45,12,73,144,106,150,53,81,161,161,164,165,163,98,63,160,59,59,44,162,168,169,82,47,36,44,36,71,113,27,146,145,139,125,5,38,78,57,200,130,132,152,27,66,41,63,164,235,183,150,15,146,146,77,51,66,66,102,74,20,69,90,107,93,93,8,92,93,95,87,84,71,90,131,87,36,66,108,193,142,91,42,79,138,140,27,4,6,5,5,82,131,48,18,35,68,114,106,71,72,175,76,140,69,65,191,68,60,221,191,170,191,43,138,210,186,204,73,142,202,191,72,186,19,152,212,108,47,43,2,245,89,139,211,128,17,37,32,27,425,127,24,284,186,144,261,265,3,79,151,153,48,41,41,130,47,71,113,76,98,72,154,52,152,233,15,142,10,8,232,76,41,159,56,91,65,72,158,14,20,61,32,19,386,66,341,406,17,18,28,73,138,92,54,128,86,134,102,20,74,3,100,80,72,116,90,65,64,158,41,26,70,81,80,156,125,127,45,144,114,56,63,132,154,125,27,106,139,130,127,16,169,98,125,150,22,83,128,94,106,205,79,48,22,84,55,13,56,89,77,83,77,67,51,60,24,31,26,31,72,4,47,3,33,43,91,107,99,125,21,71,95,77,99,31,61,32,45,53,36,31,114,106,113,56,16,52,46,19,38,54,68,46,43,54,36,66,40,88,30,25,11,32,10,15,24,35,33,34,52,9,43,41,25,14,4,5,10,8,8,5,3,2,1,4,1,4,2,0,3,2,3,3,4,2,4,3,4,2,3,7,0,1,5,2,2,1,4,5,0,3,4,8,2,-1,2,0,6,3,3,1,4,13,4,0,1,0,6,12,39,37,57,76,33,15,8,13,9,12,4,-5,-3,-1,1,1,0,-4,-6,-12,-27,-23,-71,-107,-106,-3]
    }
  ]
}