{
  "code":11224,
  "id":"b999b1",
  "name":"JR気仙沼線",
  "name_kana":"じぇいあーるけせんぬません",
  "station_size":27,
  "company_code":2,
  "station_list":[
    {"code":1122304,"id":"38c37e","name":"前谷地","name_kana":"まえやち","lat":38.512187,"lng":141.194345,"prefecture":4,"lines":[11223,11224],"attr":"eco","postal_code":"987-1101","address":"石巻市前谷地","next":[1122402,1122305,1123154,1122227,1122226,1122403,1122303],"voronoi":{"lat":38.545062,"lng":141.193802,"delta_lat":[0,-42806,-32996,-4507,-5280,30882,69813],"delta_lng":[0,22295,-10358,-13642,-32730,-12009,27060]}},
    {"code":1122402,"id":"854042","name":"和渕","name_kana":"わぶち","lat":38.525772,"lng":141.220428,"prefecture":4,"lines":[11224],"attr":"eco","postal_code":"987-1102","address":"石巻市和渕","next":[1122403,1122304,1122305],"voronoi":{"lat":38.502256,"lng":141.216097,"delta_lat":[0,42806,-13121],"delta_lng":[0,-22295,65287]}},
    {"code":1122403,"id":"e42f05","name":"のの岳","name_kana":"ののだけ","lat":38.552567,"lng":141.225813,"prefecture":4,"lines":[11224],"attr":"eco","postal_code":"987-0284","address":"遠田郡涌谷町猪岡短台字大谷地","next":[1122404,1122402,1122303,1122304,1122306,1122305],"voronoi":{"lat":38.531941,"lng":141.259089,"delta_lat":[0,13121,15106,50357,-70439,-4494],"delta_lng":[0,-65287,-19384,-7373,111718,-5241]}},
    {"code":1122404,"id":"2c9c2e","name":"陸前豊里","name_kana":"りくぜんとよさと","lat":38.582481,"lng":141.244674,"prefecture":4,"lines":[11224],"attr":"eco","postal_code":"987-0366","address":"登米市豊里町上屋浦","next":[1122403,1122306,1122303,1122405,1122406,1123160,1123158],"voronoi":{"lat":38.624617,"lng":141.161719,"delta_lat":[0,-14092,-70439,7993,13201,90939,-23138],"delta_lng":[0,5325,111718,20146,-6288,-105172,-23831]}},
    {"code":1122405,"id":"ae8ec1","name":"御岳堂","name_kana":"みたけどう","lat":38.605662,"lng":141.264718,"prefecture":4,"lines":[11224],"attr":"eco","postal_code":"987-0341","address":"登米市豊里町大沢沼田","next":[1123161,1123162,1122406,1122404,1123160],"voronoi":{"lat":38.723707,"lng":141.268219,"delta_lat":[0,85,-162513,90939,36290],"delta_lng":[0,183,24219,-105172,26429]}},
    {"code":1122406,"id":"bfc625","name":"柳津(宮城)","name_kana":"やないづ","lat":38.611869,"lng":141.306369,"prefecture":4,"lines":[11224],"attr":"eco","postal_code":"987-0500","address":"登米市津山町谷木","next":[1122306,1122405,1122404,1122407,1123162,1122309],"voronoi":{"lat":38.735288,"lng":141.284699,"delta_lat":[0,-11495,-162513,-13201,-12023,111],"delta_lng":[0,-16297,24219,6288,64879,646]}},
    {"code":1122407,"id":"f678b9","name":"陸前横山","name_kana":"りくぜんよこやま","closed":true,"lat":38.631022,"lng":141.3542,"prefecture":4,"lines":[11224],"attr":"unknown","postal_code":"986-0402","address":"登米市津山町横山","closed_date":"2020-04-01","next":[1122314,1122408,1122424,1120809,1122406,1122309,1122312,1123162],"voronoi":{"lat":38.735288,"lng":141.284699,"delta_lat":[0,-199121,-2121,872,11021,148727,82899,-382],"delta_lng":[0,79735,20328,6151,22624,-31433,-45324,-13097]}},
    {"code":1122408,"id":"64464d","name":"陸前戸倉","name_kana":"りくぜんとぐら","closed":true,"lat":38.647755,"lng":141.433373,"prefecture":4,"lines":[11224],"attr":"unknown","postal_code":"986-0781","address":"本吉郡南三陸町戸倉","closed_date":"2020-04-01","next":[1122409,1122424,1122407,1122314,1122423,1122410],"voronoi":{"lat":38.545938,"lng":141.413537,"delta_lat":[0,148727,-5626,-37414,-54750,-43598],"delta_lng":[0,-31433,11677,66549,58406,34209]}},
    {"code":1122409,"id":"bac132","name":"志津川","name_kana":"しづがわ","closed":true,"lat":38.676668,"lng":141.449628,"prefecture":4,"lines":[11224],"attr":"unknown","postal_code":"986-0767","address":"本吉郡南三陸町志津川中瀬町","closed_date":"2020-04-01","next":[1122408,1122424,1122423],"voronoi":{"lat":38.679365,"lng":141.45577,"delta_lat":[0,9674,-37414],"delta_lng":[0,-61989,66549]}},
    {"code":1122423,"id":"c32780","name":"南三陸町役場・病院前","name_kana":"みなみさんりくちょうやくば・びょういんまえ","closed":true,"lat":38.678776,"lng":141.462452,"prefecture":4,"lines":[11224],"attr":"unknown","postal_code":"986-0725","address":"宮城県本吉郡南三陸町志津川沼田１４−３","next":[1122410,1122408,1122409,1122424],"voronoi":{"lat":38.596876,"lng":141.518736,"delta_lat":[0,54750,27740,25377],"delta_lng":[0,-58406,-4560,10901]}},
    {"code":1122424,"id":"c648f0","name":"志津川中央団地","name_kana":"しづがわちゅうおうだんち","closed":true,"lat":38.683806,"lng":141.450742,"prefecture":4,"lines":[11224],"attr":"unknown","postal_code":"986-0753","address":"宮城県本吉郡南三陸町志津川新井田","next":[1122408,1122410,1122409,1122407,1122414,1120809,1122423,1122415],"voronoi":{"lat":38.790653,"lng":141.366796,"delta_lat":[0,-13088,-82899,-5626,-9674,25377,34573,15680],"delta_lng":[0,-30017,45324,11677,61989,10901,-7190,-21934]}},
    {"code":1122410,"id":"56448c","name":"清水浜","name_kana":"しずはま","closed":true,"lat":38.691892,"lng":141.489625,"prefecture":4,"lines":[11224],"attr":"unknown","postal_code":"986-0706","address":"本吉郡南三陸町志津川清水浜","closed_date":"2020-04-01","next":[1122414,1122423,1122424,1122314,1122408,1122411],"voronoi":{"lat":38.553277,"lng":141.552945,"delta_lat":[0,43598,107867,34573,-5262,-199664],"delta_lng":[0,-34209,-52065,-7190,19824,175016]}},
    {"code":1122411,"id":"ca737f","name":"歌津","name_kana":"うたつ","closed":true,"lat":38.718299,"lng":141.519751,"prefecture":4,"lines":[11224],"attr":"unknown","postal_code":"988-0453","address":"本吉郡南三陸町歌津伊里前","closed_date":"2020-04-01","next":[1122414,1122413,1122412,1122410,1122314],"voronoi":{"lat":38.534389,"lng":141.654321,"delta_lat":[0,199664,4983,-977,-337583],"delta_lng":[0,-175016,22264,6561,625914]}},
    {"code":1122412,"id":"ae66ec","name":"陸前港","name_kana":"りくぜんみなと","closed":true,"lat":38.739204,"lng":141.531026,"prefecture":4,"lines":[11224],"attr":"unknown","postal_code":"988-0402","address":"本吉郡南三陸町歌津港","closed_date":"2020-04-01","next":[1122413,1122417,1122314,1122411,9920803],"voronoi":{"lat":38.400477,"lng":142.134044,"delta_lat":[0,337583,27176,-273304,-143929],"delta_lng":[0,-625914,64858,568055,169240]}},
    {"code":1122413,"id":"bef2ef","name":"蔵内","name_kana":"くらうち","closed":true,"lat":38.753579,"lng":141.525003,"prefecture":4,"lines":[11224],"attr":"unknown","postal_code":"988-0324","address":"宮城県気仙沼市本吉町歌生116","closed_date":"2020-04-01","next":[1122412,1122411,1122416,1122414,1122417],"voronoi":{"lat":38.766096,"lng":141.571748,"delta_lat":[0,9011,-36071,-977,27176],"delta_lng":[0,-42904,-27275,6561,64858]}},
    {"code":1122414,"id":"80839f","name":"陸前小泉","name_kana":"りくぜんこいずみ","closed":true,"lat":38.765547,"lng":141.509176,"prefecture":4,"lines":[11224],"attr":"unknown","postal_code":"988-0332","address":"宮城県気仙沼市本吉町下宿38","closed_date":"2020-04-01","next":[1122410,1122411,1122415,1122424,1122413,1122416],"voronoi":{"lat":38.780985,"lng":141.521545,"delta_lat":[0,-25989,-15680,-5262,4983,36071],"delta_lng":[0,-83998,21934,19824,22264,27275]}},
    {"code":1122415,"id":"1e2013","name":"本吉","name_kana":"もとよし","closed":true,"lat":38.78674,"lng":141.502619,"prefecture":4,"lines":[11224],"attr":"unknown","postal_code":"988-0309","address":"宮城県気仙沼市本吉町津谷松尾79-1","closed_date":"2020-04-01","next":[1120813,1120811,1122414,1120809,1120810,1122416,1122424],"voronoi":{"lat":38.790653,"lng":141.366796,"delta_lat":[0,23565,20410,9740,7249,-70632,-25989],"delta_lng":[0,20734,25117,19652,67581,21664,-83998]}},
    {"code":1122416,"id":"1d340f","name":"小金沢","name_kana":"こがねざわ","closed":true,"lat":38.796362,"lng":141.533989,"prefecture":4,"lines":[11224],"attr":"unknown","postal_code":"988-0272","address":"宮城県気仙沼市本吉町小金沢","closed_date":"2020-04-01","next":[1122427,1120813,1122413,1122414,1122417,1122415],"voronoi":{"lat":38.851617,"lng":141.49988,"delta_lat":[0,4023,-5510,-84033,9011,5877],"delta_lng":[0,10612,15868,45387,-42904,-7299]}},
    {"code":1122417,"id":"2f11c2","name":"大谷海岸","name_kana":"おおやかいがん","closed":true,"lat":38.814268,"lng":141.567141,"prefecture":4,"lines":[11224],"attr":"unknown","postal_code":"988-0273","address":"宮城県気仙沼市本吉町三島94-12","closed_date":"2020-04-01","next":[1122412,1122427,1122418,9920803,1122416,1122413,1122419],"voronoi":{"lat":38.850181,"lng":141.528927,"delta_lat":[0,-51,-84033,-861,-273304,29703,326686],"delta_lng":[0,-2566,45387,1240,568055,-30751,-576216]}},
    {"code":1122418,"id":"71ab18","name":"陸前階上","name_kana":"りくぜんはしかみ","closed":true,"lat":38.837434,"lng":141.580275,"prefecture":4,"lines":[11224],"attr":"unknown","postal_code":"988-0233","address":"気仙沼市字長磯原","closed_date":"2020-04-01","next":[1122425,1120821,1122417,9920803,1122419],"voronoi":{"lat":38.823512,"lng":141.754318,"delta_lat":[0,-201006,-100871,326686,-6126],"delta_lng":[0,255957,100017,-576216,98175]}},
    {"code":1122419,"id":"561f4e","name":"最知","name_kana":"さいち","closed":true,"lat":38.853379,"lng":141.58127,"prefecture":4,"lines":[11224],"attr":"unknown","postal_code":"988-0211","address":"気仙沼市字最知川原","closed_date":"2020-04-01","next":[1122425,1122418,1122427,1122417],"voronoi":{"lat":38.850181,"lng":141.528927,"delta_lat":[0,14542,-22528,6126],"delta_lng":[0,31897,71427,-98175]}},
    {"code":1122425,"id":"9a173f","name":"岩月","name_kana":"いわつき","closed":true,"lat":38.862282,"lng":141.584078,"prefecture":4,"lines":[11224],"attr":"unknown","postal_code":"988-0202","address":"宮城県気仙沼市岩月台ノ沢","next":[1120827,1122427,1122418,1122419,1120821,1122420],"voronoi":{"lat":38.862828,"lng":141.711066,"delta_lat":[0,-39317,18683,22528,1577,9855],"delta_lng":[0,43252,-122067,-71427,2168,120097]}},
    {"code":1122420,"id":"fb235f","name":"松岩","name_kana":"まついわ","closed":true,"lat":38.8737,"lng":141.583141,"prefecture":4,"lines":[11224],"attr":"unknown","postal_code":"988-0113","address":"気仙沼市字松崎片浜","closed_date":"2020-04-01","next":[1122426,1120827,1122427,1122425],"voronoi":{"lat":38.866299,"lng":141.562991,"delta_lat":[0,12098,6014,-8257],"delta_lng":[0,9624,95426,15047]}},
    {"code":1122426,"id":"8e17cb","name":"赤岩港","name_kana":"あかいわみなと","closed":true,"lat":38.88438,"lng":141.582468,"prefecture":4,"lines":[11224],"attr":"unknown","postal_code":"988-0104","address":"宮城県気仙沼市赤岩五駄鱈","next":[1122421,1122420,1120826,1120815,1120827,1122427],"voronoi":{"lat":38.900011,"lng":141.582051,"delta_lat":[0,1073,-3291,-13382,-6014,10893],"delta_lng":[0,22344,42509,21137,-95426,2086]}},
    {"code":1122427,"id":"9a7963","name":"気仙沼市立病院","name_kana":"けせんぬましりつびょういん","closed":true,"lat":38.887597,"lng":141.56567,"prefecture":4,"lines":[11224],"attr":"unknown","postal_code":"988-0181","address":"宮城県気仙沼市赤岩杉ノ沢","next":[1122425,1122416,1122420,1122421,1122417,1122426,1120813,1122422,1122419],"voronoi":{"lat":38.866299,"lng":141.562991,"delta_lat":[0,12098,10893,3030,-11510,-25171,-5510,51,14542],"delta_lng":[0,9624,2086,-13152,-41888,-9169,15868,2566,31897]}},
    {"code":1122421,"id":"0182ed","name":"南気仙沼","name_kana":"みなみけせんぬま","closed":true,"lat":38.894765,"lng":141.567321,"prefecture":4,"lines":[11224],"attr":"unknown","postal_code":"988-0024","address":"気仙沼市仲町２丁目","closed_date":"2020-04-01","next":[1122426,1120815,1122427,1122422],"voronoi":{"lat":38.89232,"lng":141.561549,"delta_lat":[0,-3030,10721,6156],"delta_lng":[0,13152,7350,-9405]}},
    {"code":1122422,"id":"4f2c8b","name":"不動の沢","name_kana":"ふどうのさわ","closed":true,"lat":38.898486,"lng":141.562678,"prefecture":4,"lines":[11224],"attr":"unknown","postal_code":"988-0063","address":"気仙沼市字四反田","closed_date":"2020-04-01","next":[1120814,1122421,1120815,1122427,1120813],"voronoi":{"lat":38.907682,"lng":141.571229,"delta_lat":[0,-1515,-13847,-11510,10784],"delta_lng":[0,1417,-11097,-41888,2498]}}
  ],
  "north":38.91224,
  "south":38.51054,
  "east":141.58492,
  "west":141.19337,
  "polyline_list":[
    {
      "start":"前谷地",
      "end":"気仙沼",
      "lat":38.51243,
      "lng":141.19337,
      "delta_lat":[0,-68,-71,-50,1,-1,1,6,5,16,30,8,12,24,91,62,110,191,160,102,101,116,141,46,103,48,26,30,28,23,109,135,40,70,50,107,42,13,52,14,39,52,52,122,42,15,112,65,98,88,91,128,208,41,177,180,30,49,44,202,203,124,203,94,41,20,139,22,45,45,47,2,27,32,20,26,139,32,10,29,66,80,74,36,32,49,56,21,23,72,110,69,204,204,109,27,47,35,35,12,50,40,10,44,34,16,14,14,32,44,45,24,30,94,23,24,27,38,56,24,29,10,13,29,14,22,13,22,30,24,23,37,17,58,38,53,82,50,179,152,75,36,13,38,78,141,222,177,197,25,120,179,66,60,20,9,50,40,29,15,27,24,19,0,25,23,8,2,-4,-7,-19,-23,-5,-38,-27,6,1,4,2,-2,0,2,1,5,12,0,13,2,3,3,5,6,9,13,28,1,18,83,103,58,127,84,104,16,53,50,40,25,47,73,24,19,16,27,40,60,26,22,48,10,11,4,45,41,25,78,69,61,60,6,41,83,47,45,37,16,10,3,2,3,7,27,42,3,17,40,23,35,10,49,32,31,47,18,35,59,9,2,2,0,-2,3,5,7,8,53,26,24,49,20,69,27,2,57,51,33,50,37,43,21,24,31,25,4,24,12,45,58,34,64,47,36,45,31,12,29,20,9,17,12,16,10,16,13,10,11,6,3,0,0,-2,0,-3,1,0,0,7,13,13,18,16,20,18,11,8,42,44,22,13,12,8,3,0,0,-2,0,-1,-3,-2,-3,-2,0,0,0,-5,2,3,2,7,8,12,63,17,14,18,35,68,13,92,13,34,103,103,27,45,49,82,52,36,56,31,36,34,9,69,33,5,6,108,44,7,124,65,40,83,26,94,113,87,9,36,81,41,36,138,86,13,45,12,46,10,20,8,37,17,26,1,22,21,114,157,158,19,141,17,59,38,47,5,11,2,11,29,7,5,27,17,50,26,7,20,20,18,27,25,29,28,19,20,13,9,10,21,14,6,1,0,2,2,2,1,1,1,4,1,2,1,1,0,1,4,0,1,1,2,0,2,0,9,0,7,7,9,3,7,4,3,1,3,9,5,5,12,4,10,13,12,12,31,16,14,8,29,22,5,6,11,13,3,3,45,1,9,16,3,21,3,20,7,11,4,21,2,11,4,2,38,6,3,37,2,4,83,16,37,48,8,19,27,93,151,8,25,35,44,50,42,50,41,27,17,53,21,128,54,53,41,40,34,36,35,32,2,134,95,87,91,137,69,43,90,33,20,30,17,23,4,88,33,18,70,44,86,5,64,6,179,23,141,241,41,357,77,188,41,76,48,57,99,56,82,141,31,5,111,57,176,166,51,46,39,48,19,80,31,37,50,83,14,39,40,76,4,105,22,17,27,151,19,5,15,18,97,9,67,3,168,82,5,22,103,26,57,181,132,92,33,23,15,8,33,53,85,1,73,2,158,20,18,132,19,12,20,32,32,34,34,36,52,18,8,54,51,52,65,51,54,56,15,72,34,76,74,63,40,47,41,35,3,3,26,18,33,22,25,29,35,122,118,90,32,24,19,5,7,3,3,34,1,20,26,1,10,19,12,18,10,29,79,1,14,11,6,3,-2,0,6,3,6,7,10,12,19,19,29,43,54,18,35,21,11,9,16,2,9,20,12,11,9,10,21,8,17,13,18,63,96,18,2,20,0,22,10,9,8,4,1,-7,-5,0,4,12,18,23,24,31,59,25,24,29,42,56,61,38,34,86,106,45,181,4,54,115,107,4,34,73,1,26,21,44,32,24,21,25,8,14,20,14,9,6,4,2,-2,-11,-11,-4,-9,0,2,6,11,16,16,18,26,30,32,31,33,33,30,51,148,2,233,31,23,20,27,22,29,43,45,232,92,20,74,10,104,31,33,26,31,56,219,236,119,18,58,67,289,307,67,26,30,174,11,47,262,309,110,82,45,39,28,77,24,42,23,134,108,67,81,161,326,108,73,74,94,52,284,66,275,69,33,170,127,39,41,168,281,23,264,76,47,47,37,32,33,35,20,25,26,32,51,137,38,60,32,28,30,15,14,25,16,6,2,2,1,2,4,11,7,16,23,51,47,54,62,124,51,49,23,21,17,28,29,34,32,45,17,33,338,50,45,45,31,23,24,27,26,30,20,20,12,12,9,3,0,0,0,-67,-27,-15,-15,-8,-15,-34,-79],
      "delta_lng":[0,204,219,171,33,42,61,76,39,53,82,14,18,35,116,78,143,243,204,130,129,148,180,59,128,39,18,16,11,6,31,5,0,9,6,11,13,5,18,4,13,18,18,41,14,7,37,24,34,28,31,44,69,13,59,61,8,3,-6,-26,-31,-20,-30,-11,-2,0,26,4,14,21,26,1,18,26,20,27,135,32,9,28,54,58,44,18,15,16,12,3,3,6,6,3,6,13,7,3,6,9,14,5,31,28,9,42,41,21,24,29,74,109,112,59,80,235,57,75,97,130,182,81,99,34,47,94,44,69,34,50,58,40,33,44,17,69,41,49,75,43,158,132,68,24,8,18,27,49,74,60,65,8,40,59,22,20,11,5,39,35,28,16,39,39,45,2,65,95,77,78,96,118,253,310,74,511,393,127,23,39,50,63,40,36,27,143,265,14,309,30,48,18,39,39,38,39,47,2,30,127,162,92,196,120,153,17,78,71,60,43,88,113,37,38,27,58,95,147,59,51,118,27,21,11,121,107,68,197,180,157,162,10,89,173,99,94,93,57,68,31,18,21,83,205,203,16,75,188,101,148,43,211,132,125,196,74,145,242,55,51,86,211,256,45,93,62,50,217,70,67,131,51,179,74,3,144,135,86,142,100,119,59,64,78,70,11,68,35,122,159,93,171,122,101,124,83,31,83,54,24,53,50,72,55,76,71,55,55,33,40,47,70,62,55,84,1,10,57,76,102,75,70,66,59,57,37,22,101,99,49,35,48,29,15,25,21,89,89,341,220,161,90,106,13,148,18,142,73,34,25,40,31,41,200,36,27,30,46,75,11,68,9,22,73,72,19,23,25,38,24,12,17,9,5,3,0,-7,-1,-1,-1,-36,-13,-3,-40,-19,-15,-25,-8,-31,-34,-28,-5,-12,-29,-15,-12,-52,-29,-4,-14,-3,-11,-2,-2,-1,-2,0,0,0,3,4,27,40,37,4,32,4,13,6,25,2,7,1,6,16,4,2,17,12,37,23,6,21,22,23,35,34,46,52,38,44,31,31,34,69,61,41,35,7,37,41,70,13,29,64,72,14,94,26,18,21,25,113,5,35,12,52,26,49,7,218,18,125,230,235,108,183,126,100,57,62,228,81,106,107,41,68,76,47,41,87,47,34,22,70,50,15,12,26,28,5,5,92,2,16,27,5,36,9,33,12,22,5,38,6,22,5,5,71,12,7,74,5,5,166,29,60,72,10,22,34,112,179,9,27,35,49,51,39,41,28,17,10,26,11,48,24,26,27,31,30,32,35,37,2,161,118,121,129,177,101,64,129,45,27,39,24,33,5,119,38,18,60,40,62,3,50,5,125,18,108,172,31,244,53,136,21,34,16,17,32,11,13,16,5,0,13,6,9,8,0,-3,-5,-10,-5,-26,-12,-16,-29,-50,-8,-26,-32,-64,-4,-94,-19,-17,-23,-137,-16,-6,-17,-20,-110,-9,-78,-4,-195,-95,-6,-28,-121,-32,-67,-208,-144,-100,-35,-27,-18,-11,-42,-69,-120,-2,-106,-3,-233,-33,-30,-245,-34,-22,-36,-61,-47,-46,-37,-34,-46,-14,-5,-34,-24,-24,-24,-17,-15,-14,-4,-15,-7,-6,0,4,5,13,16,18,3,2,16,12,24,18,23,34,38,156,150,109,46,40,44,13,19,12,13,280,2,154,167,2,73,96,53,66,35,94,236,2,59,57,43,47,77,146,213,39,37,30,31,30,39,29,35,42,51,16,35,25,15,13,28,5,22,43,43,46,58,84,151,34,43,29,28,77,116,25,5,31,2,40,26,32,45,34,22,79,86,60,39,55,42,44,37,33,56,27,25,30,55,80,82,50,31,90,100,42,164,3,48,102,96,3,32,64,3,27,23,59,49,47,38,57,17,49,69,60,56,56,58,120,66,146,116,72,199,76,35,32,35,37,33,27,29,27,21,12,6,3,-3,-8,-31,0,-49,-2,1,5,9,10,17,33,34,173,69,13,48,6,75,20,18,11,9,11,48,42,30,4,10,16,56,59,15,4,0,-7,0,-3,-10,-14,-6,-4,1,9,9,39,13,20,13,66,52,22,14,24,49,16,10,2,-10,-9,-88,-20,-81,-20,-5,-18,-14,-3,2,13,21,0,9,5,0,-1,-6,-11,-18,-26,-21,-29,-36,-54,-100,-251,-70,-109,-64,-65,-76,-41,-39,-65,-58,-40,-34,-90,-98,-108,-60,-96,-44,-75,-69,-148,-126,-161,-178,-350,-144,-142,-60,-43,-26,-34,-27,-25,-18,-18,-5,-9,-95,-12,-5,0,0,6,11,17,18,33,28,34,32,34,47,33,44,28,59,247,113,47,45,20,36,80,156]
    }
  ]
}