{
  "code":11220,
  "name":"JR陸羽西線(奥の細道最上川ライン)",
  "color":"#6FBF7F",
  "station_list":[
    {"code":1120201,"id":"aedfc6","name":"新庄","name_kana":"しんじょう","lat":38.76256,"lng":140.306064,"prefecture":6,"lines":[11202,11216,11220,11221],"attr":"eco","postal_code":"996-0024","address":"新庄市多門町","next":[1122124,1122125,1122123,1120202,1122126,1122002],"voronoi":{"lat":38.751642,"lng":140.349647,"delta_lat":[0,2411,21091,7467,7680,-56116],"delta_lng":[0,2124,12096,485,-95062,9904]}},
    {"code":1122002,"id":"44ef4e","name":"升形","name_kana":"ますかた","lat":38.751646,"lng":140.24423,"prefecture":6,"lines":[11220],"attr":"cool","postal_code":"996-0111","address":"新庄市大字升形字下夕野","next":[1120202,1122126,1122003,1120203,1121634,1120201],"voronoi":{"lat":38.706695,"lng":140.267735,"delta_lat":[0,-37803,124806,1012,-4419,-56116],"delta_lng":[0,-31568,-14356,43442,4037,9904]}},
    {"code":1122003,"id":"d1aa8d","name":"羽前前波","name_kana":"うぜんぜんなみ","lat":38.747654,"lng":140.209525,"prefecture":6,"lines":[11220],"attr":"cool","postal_code":"996-0111","address":"新庄市大字升形字前波","next":[1121634,1122002,1120203,1122004],"voronoi":{"lat":38.668891,"lng":140.236167,"delta_lat":[0,124806,20093,-151411],"delta_lng":[0,-14356,-54707,65639]}},
    {"code":1122004,"id":"9b795c","name":"津谷","name_kana":"つや","lat":38.737618,"lng":140.186375,"prefecture":6,"lines":[11220],"attr":"cool","postal_code":"999-6311","address":"最上郡戸沢村大字津谷","next":[1122005,1121810,1121634,1120203,1122003],"voronoi":{"lat":38.813791,"lng":140.167103,"delta_lat":[0,1039,-256276,5396,98430],"delta_lng":[0,-1845,3106,29464,34914]}},
    {"code":1122005,"id":"ba1352","name":"古口","name_kana":"ふるくち","lat":38.737129,"lng":140.14602,"prefecture":6,"lines":[11220],"attr":"cool","postal_code":"999-6801","address":"最上郡戸沢村大字古口","next":[1122004,1120203,1121810,1121812,1122006],"voronoi":{"lat":38.81483,"lng":140.165259,"delta_lat":[0,-256276,-955,-17288,308683],"delta_lng":[0,3106,-3161,-98780,63468]}},
    {"code":1122006,"id":"22ee90","name":"高屋","name_kana":"たかや","lat":38.752567,"lng":140.070936,"prefecture":6,"lines":[11220],"attr":"eco","postal_code":"999-6401","address":"最上郡戸沢村大字古口字高屋番外地","next":[1120203,1122007,1121812,1122008,1121432,1121431,1122005],"voronoi":{"lat":38.540311,"lng":140.066423,"delta_lat":[0,-37195,48121,105544,41759,171324,-20870],"delta_lng":[0,-100403,-2545,9596,18229,128335,10256]}},
    {"code":1122007,"id":"d219be","name":"清川","name_kana":"きよかわ","lat":38.790152,"lng":140.020761,"prefecture":6,"lines":[11220],"attr":"eco","postal_code":"999-6606","address":"東田川郡庄内町清川","next":[1120203,1122008,1121436,1120205,1122006,1121440,1122009,1121441],"voronoi":{"lat":38.917036,"lng":140.109712,"delta_lat":[0,-47172,-171324,164603,38441,55422,4710,2339],"delta_lng":[0,9924,-128335,13166,14148,51330,7608,4568]}},
    {"code":1122008,"id":"198e4f","name":"狩川","name_kana":"かりかわ","lat":38.79367,"lng":139.976777,"prefecture":6,"lines":[11220],"attr":"eco","postal_code":"999-6601","address":"東田川郡庄内町狩川","next":[1122007,1121432,1122009,1122006],"voronoi":{"lat":38.863142,"lng":140.004466,"delta_lat":[0,-88021,-118341,41759],"delta_lng":[0,-67208,35813,18229]}},
    {"code":1122009,"id":"4c34a1","name":"南野","name_kana":"みなみの","lat":38.81813,"lng":139.944742,"prefecture":6,"lines":[11220],"attr":"eco","postal_code":"999-7727","address":"東田川郡庄内町南野","next":[1121434,1121432,1122008,1121436,1121433,1121435,1122007],"voronoi":{"lat":38.863142,"lng":140.004466,"delta_lat":[0,-88021,4914,46284,35589,21388,18287],"delta_lng":[0,-67208,-4800,-8261,27912,28819,37686]}},
    {"code":1121434,"id":"5dbdfe","name":"余目","name_kana":"あまるめ","lat":38.844321,"lng":139.911348,"prefecture":6,"lines":[11214,11220],"attr":"eco","postal_code":"999-7700","address":"東田川郡庄内町沢田","next":[1121433,1121435,1122009,1121437],"voronoi":{"lat":38.837177,"lng":139.825131,"delta_lat":[0,-10857,35589,-15648],"delta_lng":[0,99067,27912,-110968]}}
  ],
  "north":38.84544,
  "south":38.73029,
  "east":140.30631,
  "west":139.9107,
  "polyline_list":[
    {
      "start":"余目",
      "end":"庄内",
      "lat":38.84544,
      "lng":139.9107,
      "delta_lat":[0,-215,-77,-43,-39,-56,-61,-52,-127,-70,-165,-18,-86,-140,-104,-74,-88,-70,-30,-140,-246,-180,-13,-71,-135,-110,-33,-78,-110,-40,-110,-54,-134,-141,-125,-245,-9,-100,-16,-116,-38,-139,-126,-132,-114,-23,-6,-62,-82,-122,-65,-29,-93,-115,-76,-34,-116,-48,-69,-94,-11,-40,-10,-40,-6,-9,-11,-20,-19,-22,-24,-19,-4,-3,1,4,12,22,23,11,12,21,4,5,3,-3,-1,-8,-7,-9,-2,-9,-5,-7,-3,-3,-7,-10,-12,-14,-20,-22,-22,-25,-38,-47,-56,-59,-51,-62,-54,-67,-9,-34,-105,-49,-36,-56,-47,-85,-52,-60,-60,-107,-104,-82,-46,-38,-63,-118,-44,-61,-26,-33,-30,-26,-44,-35,-84,-13,-14,-46,-43,-23,-28,-21,-29,-24,-8,-14,-19,-20,-20,-15,-25,-10,-10,-7,-9,-30,-32,-21,-18,-49,-27,-45,-61,-56,-60,-25,-41,-58,-94,-89,-65,-37,-29,-32,-45,-54,-39,-74,-50,-34,-30,-31,-42,-8,-18,-41,-44,-20,-38,-40,-72,-9,-15,-12,-15,-16,-12,-11,-6,-10,-8,-5,-2,2,5,7,20,13,16,80,52,18,29,67,50,35,29,45,44,46,24,43,34,24,28,10,15,3,0,-3,-11,-6,-9,-18,-18,-18,-23,-31,-35,-19,-11,-40,-78,-25,-11,-10,-15,-16,-20,-35,-83,-47,-11,-21,-38,-40,-41,-13,-16,-16,-19,-50,-25,-31,-16,-11,-10,-11,-12,-27,-9,-25,-59,-59,-6,-8,-13,-17,-14,-92,-60,-38,-30,-30,-26,-29,-2,-93,-205,-60,-49,-31,-27,-13,-7,0,7,10,13,29,7,5,0,7,5,-3,-12,-8,-9,-6,-10,-2,-13,-22,-15,-53,-79,-80,-22,-25,-11,-5,-83,-6,-12,-19,-18,-74,-33,-28,-11,-20,-12,-6,2,7,16,60,91,27,24,35,13,46,64,39,61,70,43,23,29,59,46,89,4,52,17,12,18,6,135,62,19,40,46,82,24,147,36,26,32,23,22,11,29,4,11,18,8,5,2,14,56,8,29,16,23,0,-5,-3,-10,-32,-99,-21,-10,-4,11,18,24,135,24,67,35,42,11,7,7,15,2,28,14,15,48,49,12,36,15,17,21,23,38,35,39,69,183,641,642,345,62,38,30,16,9,-1,-2,-13,-20,-47,-76,-29,-39,-51,-43,-53,-47,-60,-466,-215,-269],
      "delta_lng":[0,123,43,25,22,32,55,60,181,101,232,28,130,197,147,106,127,93,40,202,340,250,18,99,193,152,46,108,140,48,125,61,131,139,122,245,9,102,15,120,38,142,121,129,115,27,6,81,140,221,126,55,177,219,151,66,223,98,127,182,24,83,36,159,58,120,150,271,260,292,289,305,90,44,60,47,64,98,112,67,80,188,82,142,68,43,12,46,35,41,87,117,128,156,80,54,48,43,36,27,43,36,35,38,36,50,40,33,18,14,6,5,1,2,10,9,13,23,27,54,38,51,54,90,103,89,45,41,71,133,50,73,37,44,48,50,82,69,183,25,30,98,95,57,78,57,89,90,27,88,104,109,106,90,111,46,45,23,30,74,81,45,31,71,35,66,83,78,89,33,57,84,130,117,90,47,33,37,50,48,41,70,55,38,29,45,58,11,31,78,88,43,83,82,138,19,36,28,32,68,47,44,16,60,48,82,51,33,32,27,60,26,26,107,82,33,42,87,54,41,37,52,54,57,35,63,57,63,66,33,56,36,49,58,68,36,66,66,56,31,35,43,54,26,9,26,52,15,5,9,18,22,28,58,125,70,20,34,45,46,50,15,19,19,22,78,55,56,39,32,40,54,70,162,51,113,307,323,40,34,48,65,43,247,158,75,44,31,25,25,2,65,126,44,59,58,85,73,46,42,62,51,81,146,55,57,133,173,165,127,149,109,95,56,90,7,73,84,60,149,215,216,93,139,63,50,549,43,53,48,32,122,64,58,27,42,70,69,58,49,62,169,283,71,67,72,16,56,52,25,32,40,37,25,39,97,72,153,5,110,30,18,29,7,205,95,26,52,72,123,41,232,62,50,75,69,82,67,208,38,109,140,70,36,24,102,409,61,194,133,170,79,101,13,31,77,230,69,66,78,68,75,70,369,63,179,101,114,35,36,40,181,23,285,149,160,541,561,144,369,161,100,83,67,80,65,60,88,222,779,779,420,86,75,91,95,79,33,40,72,79,156,226,58,59,51,34,33,24,23,66,31,41]
    }
  ]
}