{
  "code":11233,
  "id":"61448c",
  "name":"JR東北本線(盛岡～八戸)",
  "name_kana":"じぇいあーるとうほくほんせん",
  "name_formal":"JR東北本線",
  "station_size":22,
  "company_code":2,
  "closed":true,
  "color":"#008000",
  "station_list":[
    {"code":100418,"id":"2f6f3d","name":"盛岡","name_kana":"もりおか","lat":39.701547,"lng":141.136599,"prefecture":3,"lines":[1004,11231,11211,11213,99205,11233],"attr":"heat","postal_code":"020-0034","address":"盛岡市盛岡駅前通","next":[1121302,1121102,1123183,9920502,1123184],"voronoi":{"lat":39.672532,"lng":141.117938,"delta_lat":[0,-4184,25549,23450,-17663],"delta_lng":[0,-19495,3983,30361,15444]},"impl":true},
    {"code":9920503,"id":"1dc5a0","name":"厨川","name_kana":"くりやがわ","lat":39.744637,"lng":141.129354,"prefecture":3,"lines":[99205,11233],"attr":"eco","postal_code":"020-0124","address":"盛岡市厨川１丁目１７番地","next":[1121302,1121102,9920505,1121303,9920502,9920504],"voronoi":{"lat":39.794263,"lng":141.078362,"delta_lat":[0,7414,-44734,-29599,9947,13912],"delta_lng":[0,-20128,25870,53284,17758,9488]},"impl":true},
    {"code":9920505,"id":"f99af3","name":"滝沢","name_kana":"たきざわ","lat":39.798953,"lng":141.149362,"prefecture":3,"lines":[99205,11233],"attr":"eco","postal_code":"020-0622","address":"岩手県滝沢市野沢90","next":[1121304,1121203,9920504,1121102,9920503,9922602,1121103,9920506],"voronoi":{"lat":39.829722,"lng":141.06213,"delta_lat":[0,-873,-13656,-1295,-12220,-7414,-5121,18907],"delta_lng":[0,-2065,-16593,926,13836,20128,116176,19128]},"impl":true},
    {"code":9920506,"id":"ee5b7d","name":"渋民","name_kana":"しぶたみ","lat":39.83480577,"lng":141.1544895,"prefecture":3,"lines":[99205,11233],"attr":"heat","postal_code":"028-4134","address":"盛岡市玉山区下田字陣場６５番地","next":[1121203,1121304,1121202,1121201,9920505],"voronoi":{"lat":39.829722,"lng":141.06213,"delta_lat":[0,32082,5143,-47271,-11626],"delta_lng":[0,47177,29181,96611,-21433]},"impl":true},
    {"code":1121201,"id":"b307d5","name":"好摩","name_kana":"こうま","lat":39.874037,"lng":141.173685,"prefecture":3,"lines":[11212,99205,11233],"attr":"heat","postal_code":"028-4125","address":"盛岡市玉山区好摩","next":[9920506,1121202,9920508,1121304,1121305],"voronoi":{"lat":39.904274,"lng":141.172744,"delta_lat":[0,-37328,-47271,2162,24144],"delta_lng":[0,-34255,96611,9336,29794]},"impl":true},
    {"code":9920508,"id":"9ef617","name":"岩手川口","name_kana":"いわてかわぐち","lat":39.918696,"lng":141.199337,"prefecture":3,"lines":[99205,11233],"attr":"heat","postal_code":"028-4211","address":"岩手郡岩手町字川口９番地","next":[1121305,1121201,100419,1121202],"voronoi":{"lat":39.845981,"lng":141.274229,"delta_lat":[0,34003,81347,-57057],"delta_lng":[0,73795,-191429,16148]},"impl":true},
    {"code":100419,"id":"515470","name":"いわて沼宮内","name_kana":"いわてぬまくない","lat":39.960155,"lng":141.216955,"prefecture":3,"lines":[1004,99205,11233],"attr":"heat","postal_code":"028-4303","address":"岩手郡岩手町大字江刈内","next":[9920508,1121202,1121204,9920510,1121305,1121306],"voronoi":{"lat":40.018712,"lng":141.146683,"delta_lat":[0,-49023,-8357,-81347,14696,5155],"delta_lng":[0,3451,6461,191429,50228,10503]},"impl":true},
    {"code":9920510,"id":"770eab","name":"御堂","name_kana":"みどう","lat":40.004412,"lng":141.23703,"prefecture":3,"lines":[99205,11233],"attr":"heat","postal_code":"028-4307","address":"岩手郡岩手町大字五日市４番地","next":[1121306,1121204,9920512,1120706,9920513,100419,9920511],"voronoi":{"lat":40.02315,"lng":141.145118,"delta_lat":[0,-4438,-118876,18551,74125,41803,14084],"delta_lng":[0,1566,262072,53263,34806,-98529,-71458]},"impl":true},
    {"code":9920511,"id":"3c12ae","name":"奥中山高原","name_kana":"おくなかやまこうげん","lat":40.066235,"lng":141.22844,"prefecture":3,"lines":[99205,11233],"attr":"heat","postal_code":"028-5133","address":"二戸郡一戸町大字中山字大塚７６番地","next":[9920512,1121204,9920510,1121210],"voronoi":{"lat":40.048399,"lng":141.326838,"delta_lat":[0,-25249,16933,107506],"delta_lng":[0,-181720,-13646,18861]},"impl":true},
    {"code":9920512,"id":"888936","name":"小繋","name_kana":"こつなぎ","lat":40.123173,"lng":141.260437,"prefecture":3,"lines":[99205,11233],"attr":"heat","postal_code":"028-5132","address":"二戸郡一戸町大字小繋字西田子３番地","next":[100420,9920511,9920514,9920510,1121210,9920513],"voronoi":{"lat":40.048399,"lng":141.326838,"delta_lat":[0,99190,68718,-6809,-31951,-143232],"delta_lng":[0,-176505,-8293,36144,75094,145018]},"impl":true},
    {"code":9920513,"id":"343f15","name":"小鳥谷","name_kana":"こずや","lat":40.171061,"lng":141.307735,"prefecture":3,"lines":[99205,11233],"attr":"heat","postal_code":"028-5221","address":"二戸郡一戸町大字小鳥谷字中屋敷１番地","next":[1120623,9920840,1120625,1120706,9920512,9920510,9920514],"voronoi":{"lat":40.192904,"lng":141.538805,"delta_lat":[0,-92558,-68228,-39606,41803,143232,72456],"delta_lng":[0,3863,-5510,-40333,-98529,-145018,274140]},"impl":true},
    {"code":9920514,"id":"3055a3","name":"一戸","name_kana":"いちのへ","lat":40.210092,"lng":141.297419,"prefecture":3,"lines":[99205,11233],"attr":"cool","postal_code":"028-5301","address":"二戸郡一戸町西法寺字稲荷","next":[9920516,9920512,9920517,1120623,100420,9920513],"voronoi":{"lat":40.177546,"lng":141.253277,"delta_lat":[0,31951,45299,4420,-5438,-3776],"delta_lng":[0,-75094,201592,52696,94527,419]},"impl":true},
    {"code":100420,"id":"c953e7","name":"二戸","name_kana":"にのへ","lat":40.25997,"lng":141.286211,"prefecture":3,"lines":[1004,99205,11233],"attr":"cool","postal_code":"028-6103","address":"二戸市石切所","next":[9920512,9920602,1121210,1121211,9920516,9920514],"voronoi":{"lat":40.310315,"lng":141.095084,"delta_lat":[0,-1169,-45588,-47252,-6809,45299],"delta_lng":[0,-12233,26835,32354,36144,201592]},"impl":true},
    {"code":9920516,"id":"3d6b1c","name":"斗米","name_kana":"とまい","lat":40.285158,"lng":141.291123,"prefecture":3,"lines":[99205,11233],"attr":"cool","postal_code":"028-6104","address":"二戸市米沢字沢内１７６番地","next":[9920514,100420,9920517,9920602,9920518],"voronoi":{"lat":40.314413,"lng":141.120438,"delta_lat":[0,-4097,-55519,4420,58519],"delta_lng":[0,-25355,284692,52696,-175034]},"impl":true},
    {"code":9920517,"id":"2cbd3c","name":"金田一温泉","name_kana":"きんたいちおんせん","lat":40.323503,"lng":141.303943,"prefecture":3,"lines":[99205,11233],"attr":"cool","postal_code":"028-5711","address":"二戸市金田一字水梨１４番地","next":[1120614,1120616,9920603,9920518,9920514,9920516,9920606,9920604,1120623,1120613,1120612],"voronoi":{"lat":40.280869,"lng":141.524817,"delta_lat":[0,-8585,-3879,-14626,5438,58519,51075,-136,-16463,-64737,-1784],"delta_lng":[0,3170,1001,-1990,-94527,-175034,100478,18969,48213,96905,817]},"impl":true},
    {"code":9920518,"id":"f6e35e","name":"目時","name_kana":"めとき","lat":40.351908,"lng":141.289504,"prefecture":2,"lines":[99205,99206,11233],"attr":"heat","postal_code":"039-0113","address":"三戸郡三戸町大字目時字村中１２番地","next":[9920517,9920603,9920602,9920516],"voronoi":{"lat":40.368811,"lng":141.357915,"delta_lat":[0,13144,-67542,3323],"delta_lng":[0,-54840,-182637,136999]},"impl":true},
    {"code":9920602,"id":"e89816","name":"三戸","name_kana":"さんのへ","lat":40.395941,"lng":141.27322,"prefecture":2,"lines":[99206,11233],"attr":"heat","postal_code":"039-0103","address":"三戸郡南部町大字大向","next":[100420,9920603,1121211,9920516,9920518,9922811,9920411,1121212],"voronoi":{"lat":40.309147,"lng":141.08285,"delta_lat":[0,1169,4097,67542,123896,-59894,-43104,-77526],"delta_lng":[0,12233,25355,182637,-74813,-230640,5890,60370]},"impl":true},
    {"code":9920603,"id":"dfed70","name":"諏訪ノ平","name_kana":"すわのたいら","lat":40.414889,"lng":141.304599,"prefecture":2,"lines":[99206,11233],"attr":"heat","postal_code":"039-0101","address":"三戸郡南部町大字玉掛","next":[9920602,9920408,9920604,9920517,9920518,9920411,9920409],"voronoi":{"lat":40.514375,"lng":141.247928,"delta_lat":[0,-8525,-123896,-13144,-136,148647,-1265],"delta_lng":[0,-19665,74813,54840,18969,-120225,-3991]},"impl":true},
    {"code":9920604,"id":"aaba87","name":"剣吉","name_kana":"けんよし","lat":40.449025,"lng":141.346805,"prefecture":2,"lines":[99206,11233],"attr":"heat","postal_code":"039-0612","address":"三戸郡南部町剣吉","next":[9920407,9920406,9920603,9920606,9920605,9920517,9920408,9920405],"voronoi":{"lat":40.368694,"lng":141.417734,"delta_lat":[0,-16483,16463,148647,12477,4345,420,6707],"delta_lng":[0,7363,-48213,-120225,20382,9208,993,20545]},"impl":true},
    {"code":9920605,"id":"bd0687","name":"苫米地","name_kana":"とまべち","lat":40.466926,"lng":141.374903,"prefecture":2,"lines":[99206,11233],"attr":"heat","postal_code":"039-0802","address":"三戸郡南部町苫米地","next":[9920606,100421,1120104,9920405,9920604,1120103,9920403],"voronoi":{"lat":40.546922,"lng":141.325328,"delta_lat":[0,-11173,-10465,-156590,172576,3312,2230],"delta_lng":[0,42255,7816,42336,-109947,6320,7268]},"impl":true},
    {"code":9920606,"id":"da03f9","name":"北高岩","name_kana":"きたたかいわ","lat":40.475126,"lng":141.405233,"prefecture":2,"lines":[99206,11233],"attr":"heat","postal_code":"039-1108","address":"八戸市大字上野","next":[9920605,100421,1120603,9920604,9920517,1120612,1120604],"voronoi":{"lat":40.349623,"lng":141.518982,"delta_lat":[0,104780,70881,-156590,-16483,-64737,55391],"delta_lng":[0,-51632,-91951,42336,7363,96905,-207]},"impl":true},
    {"code":100421,"id":"614352","name":"八戸","name_kana":"はちのへ","lat":40.5092,"lng":141.431499,"prefecture":2,"lines":[1004,11201,11206,99206,11233],"attr":"eco","postal_code":"039-1101","address":"八戸市尻内町","next":[9920605,9920606,1120603,1120602,1120102,1120103],"voronoi":{"lat":40.535749,"lng":141.367582,"delta_lat":[0,-10465,-70881,13167,67755,7233],"delta_lng":[0,7816,91951,-1629,-24142,-50051]},"impl":true}
  ],
  "closed_date":"2002-12-01",
  "impl":false
}