{
  "code":11231,
  "id":"6d00c9",
  "name":"JR東北本線(黒磯～利府・盛岡)",
  "name_kana":"じぇいあーるとうほくほんせん",
  "station_size":85,
  "company_code":2,
  "color":"#3CB371",
  "station_list":[
    {"code":1123101,"id":"32ec29","name":"黒磯","name_kana":"くろいそ","lat":36.970128,"lng":140.060204,"prefecture":9,"lines":[11231,11319],"attr":"heat","postal_code":"325-0056","address":"那須塩原市本町","next":[9935407,9935406,9921613,1123102,100406,9935408],"voronoi":{"lat":37.102804,"lng":139.957393,"delta_lat":[0,-29832,-153380,2785,9172,2106],"delta_lng":[0,-34745,148186,15581,31470,4307]},"impl":true},
    {"code":1123102,"id":"806a79","name":"高久","name_kana":"たかく","lat":36.996572,"lng":140.087346,"prefecture":9,"lines":[11231],"attr":"heat","postal_code":"325-0001","address":"那須郡那須町大字高久甲西久保７２０-４","next":[9921610,9921612,9921613,9935408,1123101,1123103,9921609],"voronoi":{"lat":36.940788,"lng":140.159638,"delta_lat":[0,-7133,169149,17195,1177,13586,3616],"delta_lng":[0,-37446,-164799,15960,1271,18561,5415]},"impl":true},
    {"code":1123103,"id":"600b5d","name":"黒田原","name_kana":"くろだはら","lat":37.022848,"lng":140.119586,"prefecture":9,"lines":[11231],"attr":"heat","postal_code":"329-3222","address":"那須郡那須町大字寺子丙","next":[1123104,9935408,1123102,9921609,100407],"voronoi":{"lat":36.93791,"lng":140.228911,"delta_lat":[0,2878,197590,23480,-276],"delta_lng":[0,-69273,-161038,27132,399]},"impl":true},
    {"code":1123104,"id":"bf8a30","name":"豊原","name_kana":"とよはら","lat":37.055014,"lng":140.155066,"prefecture":9,"lines":[11231],"attr":"heat","postal_code":"329-3213","address":"那須郡那須町大字豊原","next":[100407,9935408,1133832,1123103,1123105,1133834],"voronoi":{"lat":36.984449,"lng":140.264488,"delta_lat":[0,-51735,5196,223672,-39845,-118403],"delta_lng":[0,-11822,-23755,-202780,80267,159727]},"impl":true},
    {"code":1123105,"id":"c59604","name":"白坂","name_kana":"しらさか","lat":37.09457,"lng":140.184388,"prefecture":7,"lines":[11231],"attr":"heat","postal_code":"961-0835","address":"白河市白坂","next":[1133834,1123104,1123107,100407,1123108],"voronoi":{"lat":37.072586,"lng":140.246381,"delta_lat":[0,33163,15988,-118403,22527],"delta_lng":[0,-39679,-100303,159727,6694]},"impl":true},
    {"code":100407,"id":"050b6e","name":"新白河","name_kana":"しんしらかわ","lat":37.12331,"lng":140.188969,"prefecture":7,"lines":[1004,11231],"attr":"heat","postal_code":"961-8061","address":"西白河郡西郷村小田倉","next":[1123104,1123107,9921609,9921607,1122506,1123103,1123105],"voronoi":{"lat":37.304138,"lng":140.155593,"delta_lat":[0,-3173,-43530,-95577,-276,-39845,-15988],"delta_lng":[0,-45482,-34022,-50356,399,80267,100303]},"impl":true},
    {"code":1123107,"id":"d55e1d","name":"白河","name_kana":"しらかわ","lat":37.129692,"lng":140.213742,"prefecture":7,"lines":[11231],"attr":"heat","postal_code":"961-0074","address":"白河市字郭内","next":[100407,1122506,1123110,1123108,1123111,1123105],"voronoi":{"lat":37.246867,"lng":140.218338,"delta_lat":[0,41979,17910,-2618,-198389,-33163],"delta_lng":[0,-27777,-16292,-18676,51109,39679]},"impl":true},
    {"code":1123108,"id":"2ea063","name":"久田野","name_kana":"くたの","lat":37.137048,"lng":140.259458,"prefecture":7,"lines":[11231],"attr":"heat","postal_code":"961-0011","address":"白河市大字久田野字田中","next":[1123109,1123107,1123110,1123105,1133834],"voronoi":{"lat":37.025861,"lng":140.27282,"delta_lat":[0,46725,174281,-16430,-151387],"delta_lng":[0,-26439,-28043,16361,81502]},"impl":true},
    {"code":1123109,"id":"7e1caa","name":"泉崎","name_kana":"いずみざき","lat":37.15835,"lng":140.299026,"prefecture":7,"lines":[11231],"attr":"heat","postal_code":"969-0101","address":"西白河郡泉崎村大字泉崎字館","next":[1123110,1123108,1133836,1133834,1133835,1133839],"voronoi":{"lat":37.098905,"lng":140.342939,"delta_lat":[0,-2511,-17345,151387,-77010,-10874],"delta_lng":[0,-1710,-25028,-81502,124825,3510]},"impl":true},
    {"code":1123110,"id":"bf0442","name":"矢吹","name_kana":"やぶき","lat":37.205286,"lng":140.327983,"prefecture":7,"lines":[11231],"attr":"heat","postal_code":"969-0221","address":"西白河郡矢吹町中町","next":[1123109,1123107,1133839,1133840,1123108,1123111],"voronoi":{"lat":37.288845,"lng":140.19056,"delta_lat":[0,-41979,-16430,-77010,49457,13324],"delta_lng":[0,27777,16361,124825,7947,-1587]},"impl":true},
    {"code":1123111,"id":"825cab","name":"鏡石","name_kana":"かがみいし","lat":37.250733,"lng":140.346812,"prefecture":7,"lines":[11231],"attr":"heat","postal_code":"969-0404","address":"岩瀬郡鏡石町大字笠石字中央","next":[1122506,1122504,1123113,1133841,1133840,1123112,1123107,1123110],"voronoi":{"lat":37.288845,"lng":140.19056,"delta_lat":[0,17910,25319,1965,-11053,-54867,-25420,-26492],"delta_lng":[0,-16292,32758,5936,53056,107987,8295,-16417]},"impl":true},
    {"code":1123112,"id":"e1376f","name":"須賀川","name_kana":"すかがわ","lat":37.300335,"lng":140.372014,"prefecture":7,"lines":[11231],"attr":"heat","postal_code":"962-0004","address":"須賀川市中山","next":[1133844,1133841,1133842,1123113,1123111],"voronoi":{"lat":37.322986,"lng":140.266018,"delta_lat":[0,6037,-27277,-2828,-30799],"delta_lng":[0,111337,24089,-233,-27206]},"impl":true},
    {"code":1123113,"id":"0df19e","name":"安積永盛","name_kana":"あさかながもり","lat":37.356967,"lng":140.368943,"prefecture":7,"lines":[11231,11338],"attr":"heat","postal_code":"963-0108","address":"郡山市笹川３丁目","next":[1122516,100408,1122504,1122503,1123111,1133844,1122502,1123112],"voronoi":{"lat":37.322986,"lng":140.266018,"delta_lat":[0,11053,44318,2925,7968,-475,-23007,-36745],"delta_lng":[0,-53056,55837,5722,27940,54086,46443,-25635]},"impl":true},
    {"code":100408,"id":"4c93d9","name":"郡山(福島)","original_name":"郡山","name_kana":"こおりやま","lat":37.398187,"lng":140.389363,"prefecture":7,"lines":[1004,11231,11225,11228,11338],"attr":"heat","postal_code":"963-8003","address":"郡山市燧田","next":[1123113,1122815,1133844,1122516,1123115],"voronoi":{"lat":37.422408,"lng":140.394094,"delta_lat":[0,-33633,-23007,6016,50879],"delta_lng":[0,-37546,46443,23686,-20624]},"impl":true},
    {"code":1123115,"id":"94b63a","name":"日和田","name_kana":"ひわだ","lat":37.446405,"lng":140.388333,"prefecture":7,"lines":[11231],"attr":"heat","postal_code":"963-0534","address":"郡山市日和田町字小堰","next":[1122516,1122502,1123116,1122815,100408],"voronoi":{"lat":37.465242,"lng":140.433097,"delta_lat":[0,-876,-20569,-21388,255],"delta_lng":[0,-66216,-2366,29578,11959]},"impl":true},
    {"code":1123116,"id":"ddb5a0","name":"五百川","name_kana":"ごひゃくがわ","lat":37.482887,"lng":140.38785,"prefecture":7,"lines":[11231],"attr":"heat","postal_code":"969-1104","address":"本宮市荒井字新介","next":[1122502,1122815,1123117,1122503,1123115,1122814],"voronoi":{"lat":37.517298,"lng":140.343436,"delta_lat":[0,-23099,-29833,876,58,16290],"delta_lng":[0,3222,20223,66216,80,5888]},"impl":true},
    {"code":1123117,"id":"0ed707","name":"本宮(福島)","original_name":"本宮","name_kana":"もとみや","lat":37.514177,"lng":140.399534,"prefecture":7,"lines":[11231],"attr":"heat","postal_code":"969-1136","address":"本宮市本宮字九縄","next":[1123116,1122814,1122503,1123118],"voronoi":{"lat":37.563116,"lng":140.321845,"delta_lat":[0,-45818,-35708,38810],"delta_lng":[0,21591,95629,31313]},"impl":true},
    {"code":1123118,"id":"7d7f46","name":"杉田(福島)","original_name":"杉田","name_kana":"すぎた","lat":37.563307,"lng":140.413663,"prefecture":7,"lines":[11231],"attr":"cool","postal_code":"964-0865","address":"二本松市杉田町１丁目","next":[1122504,1122505,1121603,1122814,1121605,1123119,1123122,1122503,1123117],"voronoi":{"lat":37.527877,"lng":140.483309,"delta_lat":[0,128744,1714,-4411,-5112,-26217,-48311,-11168,-42716],"delta_lng":[0,-155795,-5209,-38571,-8764,9131,27900,9845,148533]},"impl":true},
    {"code":1123119,"id":"c3c2e4","name":"二本松","name_kana":"にほんまつ","lat":37.589598,"lng":140.435389,"prefecture":7,"lines":[11231],"attr":"cool","postal_code":"964-0917","address":"二本松市本町２丁目","next":[1123120,1122814,1123118,1123122,1122813],"voronoi":{"lat":37.530665,"lng":140.492189,"delta_lat":[0,-2789,128744,-17721,-104317],"delta_lng":[0,-8881,-155795,95601,75298]},"impl":true},
    {"code":1123120,"id":"b2930e","name":"安達","name_kana":"あだち","lat":37.611724,"lng":140.466042,"prefecture":7,"lines":[11231],"attr":"cool","postal_code":"969-1404","address":"二本松市油井字古屋敷","next":[1123119,1123121,1021102,1122813,1123122],"voronoi":{"lat":37.6389,"lng":140.423114,"delta_lat":[0,-104317,18882,62348,28321],"delta_lng":[0,75298,54424,-38747,-64879]},"impl":true},
    {"code":1123121,"id":"fc5105","name":"松川","name_kana":"まつかわ","lat":37.653825,"lng":140.48442,"prefecture":7,"lines":[11231,10211],"attr":"cool","postal_code":"960-1241","address":"福島市松川町字原","next":[1123120,1123123,1021102,1123122],"voronoi":{"lat":37.644133,"lng":140.44921,"delta_lat":[0,-28321,88582,-5867],"delta_lng":[0,64879,-5285,-14455]},"impl":true},
    {"code":1123122,"id":"d9c84e","name":"金谷川","name_kana":"かなやがわ","lat":37.680526,"lng":140.452244,"prefecture":7,"lines":[11231],"attr":"cool","postal_code":"960-1241","address":"福島市松川町関谷字坂下","next":[1123123,1121603,1123120,1123121,1123118,1123119],"voronoi":{"lat":37.656621,"lng":140.327513,"delta_lat":[0,1714,49108,-8915,-54394,-5234],"delta_lng":[0,-5209,71628,100417,-45139,-26096]},"impl":true},
    {"code":1123123,"id":"4d587b","name":"南福島","name_kana":"みなみふくしま","lat":37.723665,"lng":140.456074,"prefecture":7,"lines":[11231],"attr":"cool","postal_code":"960-1102","address":"福島市永井川字壇ノ腰","next":[1123122,1121603,1121602,1021102,1123121,100409],"voronoi":{"lat":37.741446,"lng":140.436325,"delta_lat":[0,-26131,-7872,-8915,5867,25999],"delta_lng":[0,-36702,-5690,100417,14455,20868]},"impl":true},
    {"code":100409,"id":"7bfd6b","name":"福島(福島)","original_name":"福島","name_kana":"ふくしま","lat":37.754123,"lng":140.45968,"prefecture":7,"lines":[1004,11231,11216,99213,99215],"attr":"heat","postal_code":"960-8031","address":"福島市栄町","next":[1121602,9921503,9921303,9921306,9921502,9921304,1123123,1021102],"voronoi":{"lat":37.730394,"lng":140.529673,"delta_lat":[0,11052,13540,1756,1926,-5985,-13098,-6817],"delta_lng":[0,-93348,4743,5131,55481,9129,16300,5467]},"impl":true},
    {"code":1123125,"id":"c42d4f","name":"東福島","name_kana":"ひがしふくしま","lat":37.800447,"lng":140.478058,"prefecture":7,"lines":[11231],"attr":"eco","postal_code":"960-0116","address":"福島市宮代字段ノ腰","next":[9921512,9921303,9921508,9921302,1123126,9921509,9921510],"voronoi":{"lat":37.820453,"lng":140.472883,"delta_lat":[0,-8009,-13140,-6556,5452,7511,8782],"delta_lng":[0,12369,-1730,-23211,-560,1061,4464]},"impl":true},
    {"code":1123126,"id":"7e17ff","name":"伊達","name_kana":"だて","lat":37.823917,"lng":140.493255,"prefecture":7,"lines":[11231],"attr":"eco","postal_code":"960-0478","address":"伊達市細谷","next":[9921303,1123127,9921512,9921306,9921304,1123125,9921305],"voronoi":{"lat":37.830694,"lng":140.516875,"delta_lat":[0,29039,-39279,-8009,-763,2640,15692],"delta_lng":[0,-37525,-6467,12369,4570,11096,15653]},"impl":true},
    {"code":1123127,"id":"152ac7","name":"桑折","name_kana":"こおり","lat":37.855258,"lng":140.517508,"prefecture":7,"lines":[11231],"attr":"eco","postal_code":"969-1641","address":"伊達郡桑折町大字南半田字六角","next":[9921512,9921309,9921308,9921306,1123126,9921307,1123128],"voronoi":{"lat":37.944677,"lng":140.44555,"delta_lat":[0,-84944,-29039,3550,3857,6678,2971],"delta_lng":[0,33800,37525,16509,6972,6931,2128]},"impl":true},
    {"code":1123128,"id":"3b6758","name":"藤田","name_kana":"ふじた","lat":37.879062,"lng":140.539722,"prefecture":7,"lines":[11231],"attr":"eco","postal_code":"969-1771","address":"伊達郡国見町大字山崎字北町田","next":[9921310,9921512,1123129,9921309,1123127,9921311,9923309,1123131,9921312],"voronoi":{"lat":38.017769,"lng":140.47282,"delta_lat":[0,21617,-47848,-46862,-96927,3853,7283,11573,857],"delta_lng":[0,-31139,-23026,26894,103865,8405,8902,8974,448]},"impl":true},
    {"code":1123129,"id":"ac5ca9","name":"貝田","name_kana":"かいだ","lat":37.908226,"lng":140.58106,"prefecture":7,"lines":[11231],"attr":"eco","postal_code":"969-1711","address":"伊達郡国見町大字貝田字竹ノ根","next":[9921312,1123131,9921313,1123130,1123128,9921314],"voronoi":{"lat":38.002868,"lng":140.504323,"delta_lat":[0,14901,-146454,3732,7728,20033],"delta_lng":[0,-31503,103323,10484,11283,14465]},"impl":true},
    {"code":1123130,"id":"fc3470","name":"越河","name_kana":"こすごう","lat":37.933616,"lng":140.604572,"prefecture":4,"lines":[11231],"attr":"cool","postal_code":"989-0111","address":"白石市越河五賀字海道下","next":[9921315,9921316,1123131,1123129,9921314,100410],"voronoi":{"lat":37.973654,"lng":140.598987,"delta_lat":[0,29215,-100060,1485,36397,8786],"delta_lng":[0,-94664,108052,3831,33224,2183]},"impl":true},
    {"code":1123131,"id":"ea23eb","name":"白石(宮城)","original_name":"白石","name_kana":"しろいし","lat":38.003581,"lng":140.626164,"prefecture":4,"lines":[11231],"attr":"cool","postal_code":"989-0243","address":"白石市字沢目","next":[100410,9923309,1123129,1123130,1121716,1123132,1121616,1123128],"voronoi":{"lat":38.002868,"lng":140.504323,"delta_lat":[0,-29215,39761,120596,-7739,-78372,-8513,-21617],"delta_lng":[0,94664,46994,-151581,-12372,-40063,-284,31139]},"impl":true},
    {"code":1123132,"id":"296dc2","name":"東白石","name_kana":"ひがししろいし","lat":38.034935,"lng":140.651109,"prefecture":4,"lines":[11231],"attr":"cool","postal_code":"989-1104","address":"白石市白川内親字阿久土","next":[1121714,1121712,100410,1121716,1123131,1123133,1121709,1121715],"voronoi":{"lat":38.172342,"lng":140.581195,"delta_lat":[0,1026,-17264,-153763,11073,120596,25615,3418],"delta_lng":[0,15568,81960,-8624,-24117,-151581,32517,6618]},"impl":true},
    {"code":1123133,"id":"561176","name":"北白川","name_kana":"きたしらかわ","lat":38.032607,"lng":140.692613,"prefecture":4,"lines":[11231],"attr":"cool","postal_code":"989-1102","address":"白石市白川津田字下谷地","next":[9921319,1123134,9921316,1123132,1121709,9921320,9921321,100410],"voronoi":{"lat":37.97197,"lng":140.707534,"delta_lat":[0,10677,15219,3361,154825,53,-153763,-29266],"delta_lng":[0,9393,10173,1434,-48484,-1328,-8624,18218]},"impl":true},
    {"code":1123134,"id":"4621db","name":"大河原(宮城)","original_name":"大河原","name_kana":"おおがわら","lat":38.047491,"lng":140.740142,"prefecture":4,"lines":[11231],"attr":"cool","postal_code":"989-1201","address":"柴田郡大河原町大谷字向","next":[1123133,9921321,1123135,1121709,9921322],"voronoi":{"lat":38.160518,"lng":140.707295,"delta_lat":[0,-4467,-154825,15615,17431],"delta_lng":[0,-27244,48484,21959,11554]},"impl":true},
    {"code":1123135,"id":"30a715","name":"船岡(宮城)","original_name":"船岡","name_kana":"ふなおか","lat":38.059298,"lng":140.767366,"prefecture":4,"lines":[11231],"attr":"cool","postal_code":"989-1606","address":"柴田郡柴田町船岡中央１丁目","next":[1123134,9921322,1121708,9921323,1121709,1123136],"voronoi":{"lat":38.165444,"lng":140.744903,"delta_lat":[0,-635,-4290,-126246,3729,35872],"delta_lng":[0,-23172,-14436,54753,9706,14700]},"impl":true},
    {"code":1123136,"id":"5d3f17","name":"槻木","name_kana":"つきのき","lat":38.07864,"lng":140.809992,"prefecture":4,"lines":[11231,99213,10206],"attr":"cool","postal_code":"989-1756","address":"柴田郡柴田町大字槻木字畑中","next":[9921801,1121708,1123027,9921323,1123137,1123135],"voronoi":{"lat":38.165444,"lng":140.744903,"delta_lat":[0,6583,-4207,-73562,-48087,27703],"delta_lng":[0,26346,20625,45690,-11900,-39210]},"impl":true},
    {"code":1123137,"id":"688b2f","name":"岩沼","name_kana":"いわぬま","lat":38.11205,"lng":140.863783,"prefecture":4,"lines":[11231,11230],"attr":"cool","postal_code":"989-2441","address":"岩沼市館下１丁目","next":[9921801,1123027,9921704,1123136,1123139,1123138],"voronoi":{"lat":38.078557,"lng":140.914164,"delta_lat":[0,15701,73562,13,-3084,-52722],"delta_lng":[0,-76600,-45690,86,9912,99304]},"impl":true},
    {"code":1123138,"id":"9cf8ce","name":"館腰","name_kana":"たてこし","lat":38.142987,"lng":140.880208,"prefecture":4,"lines":[11231,11230],"attr":"heat","postal_code":"981-1226","address":"名取市植松４丁目","next":[9921704,9921703,9921702,1123137,1123139],"voronoi":{"lat":38.164749,"lng":140.801871,"delta_lat":[0,-52722,26923,5763,13189],"delta_lng":[0,99304,3171,-2581,-19105]},"impl":true},
    {"code":1123139,"id":"66f4e8","name":"名取","name_kana":"なとり","lat":38.173017,"lng":140.882753,"prefecture":4,"lines":[11231,11230,99217],"attr":"cool","postal_code":"981-1224","address":"名取市増田２丁目５番地１","next":[9921702,9921801,1123137,1123140,1123138,9921417],"voronoi":{"lat":38.16865,"lng":140.793411,"delta_lat":[0,-818,-3084,-6847,26959,1052],"delta_lng":[0,-1452,9912,80789,15644,-47222]},"impl":true},
    {"code":1123140,"id":"db00b6","name":"南仙台","name_kana":"みなみせんだい","lat":38.197384,"lng":140.883296,"prefecture":4,"lines":[11231,11230],"attr":"cool","postal_code":"981-1103","address":"仙台市太白区中田町５丁目","next":[9921417,1123141,9921813,9921703,9921702,1123139],"voronoi":{"lat":38.185912,"lng":140.851083,"delta_lat":[0,21366,-336,-3020,-12845,-6217],"delta_lng":[0,27804,47374,2196,-14211,-15941]},"impl":true},
    {"code":1123141,"id":"562738","name":"太子堂","name_kana":"たいしどう","lat":38.21711,"lng":140.883436,"prefecture":4,"lines":[11231,11230],"attr":"eco","postal_code":"982-0013","address":"仙台市太白区太子堂１丁目２０番地","next":[9921811,9921417,9921416,9921813,1123140,1123142],"voronoi":{"lat":38.209105,"lng":140.92534,"delta_lat":[0,-2162,336,10376,5019,-10727],"delta_lng":[0,920,-47374,-2417,5506,40749]},"impl":true},
    {"code":1123142,"id":"b4f86b","name":"長町","name_kana":"ながまち","lat":38.226797,"lng":140.885986,"prefecture":4,"lines":[11231,11230,99214],"attr":"eco","postal_code":"982-0011","address":"仙台市太白区長町５丁目","next":[9921811,9921416,9921810,9921414,1123141],"voronoi":{"lat":38.222674,"lng":140.881975,"delta_lat":[0,9088,-5836,-6791,-7188],"delta_lng":[0,-2080,30039,7689,5101]},"impl":true},
    {"code":100411,"id":"2c0bce","name":"仙台(JR)","original_name":"仙台","name_kana":"せんだい","lat":38.260027,"lng":140.882158,"prefecture":4,"lines":[1004,11231,11217,11222,11230,11232],"attr":"eco","postal_code":"980-0021","address":"仙台市青葉区中央一丁目1-1","next":[9921409,1121702,9921411,1122201,9921410,9921808],"voronoi":{"lat":38.255823,"lng":140.882448,"delta_lat":[0,165,7082,4611,1508,-1476],"delta_lng":[0,-1181,-400,914,691,5457]},"impl":true},
    {"code":1123144,"id":"e1152e","name":"東仙台","name_kana":"ひがしせんだい","lat":38.276512,"lng":140.920204,"prefecture":4,"lines":[11231,11232],"attr":"eco","postal_code":"983-0833","address":"仙台市宮城野区東仙台１丁目","next":[1122207,9921403,1121702,1123145,1122206,1122205,9921404],"voronoi":{"lat":38.289656,"lng":140.903799,"delta_lat":[0,-7642,-8214,-2480,24882,15993,-19926],"delta_lng":[0,-171,9011,14452,4990,-11275,-15643]},"impl":true},
    {"code":1123145,"id":"a47995","name":"岩切","name_kana":"いわきり","lat":38.300773,"lng":140.954617,"prefecture":4,"lines":[11231,11232],"attr":"eco","postal_code":"983-0821","address":"仙台市宮城野区岩切字洞ノ口","next":[1122209,1123144,9921403,1123148,9921401,1122207,1123146,1122208,9921402],"voronoi":{"lat":38.316266,"lng":140.920947,"delta_lat":[0,-4070,-15993,-9797,2723,483,15421,42635,-16674],"delta_lng":[0,-142,11275,13960,19325,1017,746,-38593,-5058]},"impl":true},
    {"code":1123148,"id":"6e94f9","name":"陸前山王","name_kana":"りくぜんさんのう","lat":38.299586,"lng":140.97917,"prefecture":4,"lines":[11231,11232],"attr":"eco","postal_code":"985-0852","address":"多賀城市山王字干刈田","next":[1122209,1122210,1123145,1123149,1123146],"voronoi":{"lat":38.305033,"lng":140.967128,"delta_lat":[0,-15421,-2617,4873,20096],"delta_lng":[0,-746,5918,15096,-1812]},"impl":true},
    {"code":1123149,"id":"9e8356","name":"国府多賀城","name_kana":"こくふたがじょう","lat":38.300933,"lng":140.99411,"prefecture":4,"lines":[11231,11232],"attr":"heat","postal_code":"985-0861","address":"多賀城市浮島一丁目１-２６６","next":[1123147,1123146,1122211,1123150,1123148,1122210],"voronoi":{"lat":38.291868,"lng":140.987397,"delta_lat":[0,20096,2644,2525,-15696,-12382],"delta_lng":[0,-1812,1984,7622,8786,-10196]},"impl":true},
    {"code":1123150,"id":"05d807","name":"塩釜","name_kana":"しおがま","lat":38.309584,"lng":141.009564,"prefecture":4,"lines":[11231,11232],"attr":"heat","postal_code":"985-0036","address":"塩竈市東玉川町","next":[1122213,1122214,1122211,1122212,1123149,1123147],"voronoi":{"lat":38.321343,"lng":141.011176,"delta_lat":[0,-10990,-9707,791,15696,13047],"delta_lng":[0,2924,-6741,-3383,-8786,10421]},"impl":true},
    {"code":1123151,"id":"991997","name":"松島","name_kana":"まつしま","lat":38.379892,"lng":141.065982,"prefecture":4,"lines":[11231],"attr":"heat","postal_code":"981-0213","address":"宮城郡松島町松島字小梨屋","next":[1122217,1122218,1123152],"voronoi":{"lat":38.387327,"lng":141.042271,"delta_lat":[0,-22008,23392],"delta_lng":[0,33529,-8905]},"impl":true},
    {"code":1123152,"id":"46363b","name":"愛宕(宮城)","original_name":"愛宕","name_kana":"あたご","lat":38.397371,"lng":141.065,"prefecture":4,"lines":[11231],"attr":"heat","postal_code":"981-0213","address":"宮城郡松島町松島字三居山","next":[1123153,1122103,1122219,1122217,1123151,1123147,1122216,1122218,100412],"voronoi":{"lat":38.461439,"lng":140.981486,"delta_lat":[0,-52720,-12165,-7843,-1384,6367,12576,42437,5032],"delta_lng":[0,103478,-4465,-13604,-24624,-28352,-25291,-35857,9005]},"impl":true},
    {"code":1123153,"id":"05f5ba","name":"品井沼","name_kana":"しないぬま","lat":38.431539,"lng":141.082408,"prefecture":4,"lines":[11231],"attr":"eco","postal_code":"981-0205","address":"宮城郡松島町幡谷鹿渡","next":[1122220,1123154,1123152,1122221,1122219,1122103,1122224,1123155],"voronoi":{"lat":38.463541,"lng":140.984872,"delta_lat":[0,-2102,-52720,3899,17683,1321,4613,32778],"delta_lng":[0,-3386,103478,16583,32252,1472,1782,-90957]},"impl":true},
    {"code":1123154,"id":"d2aef6","name":"鹿島台","name_kana":"かしまだい","lat":38.474708,"lng":141.097965,"prefecture":4,"lines":[11231],"attr":"eco","postal_code":"989-4103","address":"大崎市鹿島台平渡字銭神","next":[1123153,1122225,1123155,1122224,1122304,1122226,1122303],"voronoi":{"lat":38.507679,"lng":141.109964,"delta_lat":[0,-38667,-32778,18867,2589,1782,30882],"delta_lng":[0,-63869,90957,19438,2006,870,-12009]},"impl":true},
    {"code":1123155,"id":"66323a","name":"松山町","name_kana":"まつやままち","lat":38.512332,"lng":141.075187,"prefecture":4,"lines":[11231],"attr":"eco","postal_code":"987-1303","address":"大崎市松山金谷字赤沼上","next":[1122103,1122303,1123156,1123154,1122102,1122302,1123153],"voronoi":{"lat":38.463541,"lng":140.984872,"delta_lat":[0,8767,37689,22400,-12593,-12124,-38667],"delta_lng":[0,6115,34350,59513,19114,6001,-63869]},"impl":true},
    {"code":1123156,"id":"ce05a9","name":"小牛田","name_kana":"こごた","lat":38.541111,"lng":141.064355,"prefecture":4,"lines":[11231,11221,11223],"attr":"eco","postal_code":"987-0001","address":"遠田郡美里町藤ケ崎","next":[1122302,1123155,1123157,1122102],"voronoi":{"lat":38.570113,"lng":141.076169,"delta_lat":[0,-37717,-22400,57682],"delta_lng":[0,8681,-59513,26168]},"impl":true},
    {"code":1123157,"id":"2f429e","name":"田尻","name_kana":"たじり","lat":38.596246,"lng":141.058912,"prefecture":4,"lines":[11231],"attr":"eco","postal_code":"989-4308","address":"大崎市田尻沼部字塩加良","next":[100412,1123156,1122103,1122302,1123158,1122102],"voronoi":{"lat":38.570113,"lng":141.076169,"delta_lat":[0,41046,32106,-2191,-41861,-31535],"delta_lng":[0,47615,-126777,603,21891,32004]},"impl":true},
    {"code":1123158,"id":"ed8bac","name":"瀬峰","name_kana":"せみね","lat":38.655153,"lng":141.07383,"prefecture":4,"lines":[11231],"attr":"eco","postal_code":"989-4521","address":"栗原市瀬峰下田","next":[1123160,1123159,1122302,100413,1122108,1122303,1122404,1123157,100412],"voronoi":{"lat":38.666699,"lng":140.978437,"delta_lat":[0,33291,669,-65037,-6541,-4464,-9078,-4379,32106],"delta_lng":[0,-4549,30958,150692,8079,-1898,-19844,-18092,-126777]},"impl":true},
    {"code":1123159,"id":"5e58d4","name":"梅ヶ沢","name_kana":"うめがさわ","lat":38.681678,"lng":141.085278,"prefecture":4,"lines":[11231],"attr":"eco","postal_code":"989-4601","address":"宮城県登米市迫町新田字外沢田53","next":[1123158,1123160,100413],"voronoi":{"lat":38.700659,"lng":141.004846,"delta_lat":[0,-65037,81028],"delta_lng":[0,150692,-70700]},"impl":true},
    {"code":1123160,"id":"1d9cad","name":"新田(宮城)","original_name":"新田","name_kana":"にった","lat":38.711475,"lng":141.119428,"prefecture":4,"lines":[11231],"attr":"eco","postal_code":"989-4601","address":"登米市迫町新田","next":[1123158,100413,1122404,9922504,1123161,1123159,1122405,9922503],"voronoi":{"lat":38.746057,"lng":141.110753,"delta_lat":[0,-133,-29275,-81028,-6541,23138,36290,52048],"delta_lng":[0,-2786,-23129,70700,8079,23831,26429,-75255]},"impl":true},
    {"code":1123161,"id":"9c37af","name":"石越","name_kana":"いしこし","lat":38.768778,"lng":141.15906,"prefecture":4,"lines":[11231,99225],"attr":"eco","postal_code":"989-4703","address":"登米市石越町南郷","next":[1122405,9922502,1123162,1123160,9922503],"voronoi":{"lat":38.740557,"lng":141.138622,"delta_lat":[0,-52048,35199,61724,-26714],"delta_lng":[0,75255,54341,-105067,-20533]},"impl":true},
    {"code":1123162,"id":"63d03c","name":"油島","name_kana":"ゆしま","lat":38.797113,"lng":141.175706,"prefecture":3,"lines":[11231],"attr":"eco","postal_code":"029-3207","address":"一関市花泉町油島","next":[1120809,1122405,1120803,1123163,1123164,9922502,1123161,1122406,1122407],"voronoi":{"lat":38.735288,"lng":141.284699,"delta_lat":[0,-11495,-85,61724,31958,1704,-18829,-3412,-19670],"delta_lng":[0,-16297,-183,-105067,-23069,5149,158250,5412,14789]},"impl":true},
    {"code":1123163,"id":"6637df","name":"花泉","name_kana":"はないずみ","lat":38.83331,"lng":141.180013,"prefecture":3,"lines":[11231],"attr":"eco","postal_code":"029-3101","address":"一関市花泉町花泉","next":[1123162,1120802,1123164,1120803],"voronoi":{"lat":38.871898,"lng":141.219389,"delta_lat":[0,-727,-52078,-18829],"delta_lng":[0,-26150,-48007,158250]},"impl":true},
    {"code":1123164,"id":"c1b4fd","name":"清水原","name_kana":"しみずはら","lat":38.854915,"lng":141.156576,"prefecture":3,"lines":[11231],"attr":"eco","postal_code":"029-3101","address":"一関市花泉町花泉","next":[1123163,1123162,9922504,1123165,1120802,9922502],"voronoi":{"lat":38.819094,"lng":141.145231,"delta_lat":[0,52078,17892,-65134,-6210,-330],"delta_lng":[0,48007,-44680,-22801,11297,3028]},"impl":true},
    {"code":1123165,"id":"b0d9aa","name":"有壁","name_kana":"ありかべ","lat":38.867371,"lng":141.120994,"prefecture":4,"lines":[11231],"attr":"eco","postal_code":"989-4806","address":"栗原市金成","next":[1120802,100414,9922507,9922506,1123164,1123167,9922504,9922509,9922508,9922505],"voronoi":{"lat":38.827434,"lng":141.107548,"delta_lat":[0,5815,13764,23689,49580,-1654,-26574,-2990,-65134,4],"delta_lng":[0,-13744,-17810,-13600,-20143,12697,91465,2146,-22801,-75]},"impl":true},
    {"code":100414,"id":"121ad9","name":"一ノ関","name_kana":"いちのせき","lat":38.926514,"lng":141.138177,"prefecture":3,"lines":[1004,11231,11208],"attr":"cool","postal_code":"021-0867","address":"一関市駅前","next":[1123165,1120802,1123167],"voronoi":{"lat":38.918627,"lng":141.054947,"delta_lat":[0,-26574,56242],"delta_lng":[0,91465,25855]},"impl":true},
    {"code":1123167,"id":"f7fc1b","name":"山ノ目","name_kana":"やまのめ","lat":38.951253,"lng":141.131921,"prefecture":3,"lines":[11231],"attr":"eco","postal_code":"021-0011","address":"一関市山目町３丁目","next":[1120805,100414,1123165,1120802,9922510,1123168,9922509],"voronoi":{"lat":38.924913,"lng":141.036998,"delta_lat":[0,7807,57585,-27921,-14089,-29668,1654],"delta_lng":[0,-7837,149441,6837,-13172,-117320,-12697]},"impl":true},
    {"code":1123168,"id":"ba5ae3","name":"平泉","name_kana":"ひらいずみ","lat":38.987935,"lng":141.117786,"prefecture":3,"lines":[11231],"attr":"eco","postal_code":"029-4102","address":"西磐井郡平泉町平泉","next":[9922511,9922510,1120805,9922514,1123169,1123167],"voronoi":{"lat":39.010189,"lng":141.180372,"delta_lat":[0,39369,-65130,-31782,-19926,57585],"delta_lng":[0,-282908,62239,39959,29500,149441]},"impl":true},
    {"code":1123169,"id":"f4c437","name":"前沢","name_kana":"まえさわ","lat":39.048686,"lng":141.12624,"prefecture":3,"lines":[11231],"attr":"cool","postal_code":"029-4207","address":"奥州市前沢区三日町新裏","next":[1121007,1123172,1120806,1123170,1121009,9922514,1120805,1123168],"voronoi":{"lat":39.049558,"lng":140.897463,"delta_lat":[0,9826,13230,35918,5214,-64914,-7063,-31580],"delta_lng":[0,-12311,11225,46569,58965,201963,-3322,-20181]},"impl":true},
    {"code":1123170,"id":"8419fc","name":"陸中折居","name_kana":"りくちゅうおりい","lat":39.094185,"lng":141.140864,"prefecture":3,"lines":[11231],"attr":"cool","postal_code":"023-0841","address":"奥州市水沢区真城","next":[1123171,100415,1123172,1123169,1120806],"voronoi":{"lat":39.048833,"lng":141.203875,"delta_lat":[0,64914,13879,-14520,-45978],"delta_lng":[0,-201963,52316,117648,49128]},"impl":true},
    {"code":1123171,"id":"be506b","name":"水沢","name_kana":"みずさわ","lat":39.138998,"lng":141.146395,"prefecture":3,"lines":[11231],"attr":"cool","postal_code":"023-0813","address":"奥州市水沢区中町","next":[1123170,100415,1123172],"voronoi":{"lat":39.127626,"lng":141.054227,"delta_lat":[0,-14520,73490],"delta_lng":[0,117648,-10948]},"impl":true},
    {"code":1123172,"id":"e354d7","name":"金ヶ崎","name_kana":"かねがさき","lat":39.199615,"lng":141.112894,"prefecture":3,"lines":[11231],"attr":"cool","postal_code":"029-4503","address":"岩手県胆沢郡金ケ崎町西根杉土手2-1","next":[1123169,1123173,1123170,100416,1121007,100415,1123171],"voronoi":{"lat":39.232566,"lng":141.193863,"delta_lat":[0,4621,-103606,-25048,5214,13879,58970],"delta_lng":[0,-45273,-191633,-14011,58965,52316,106700]},"impl":true},
    {"code":1123173,"id":"059508","name":"六原","name_kana":"ろくはら","lat":39.227894,"lng":141.097605,"prefecture":3,"lines":[11231],"attr":"cool","postal_code":"029-4502","address":"胆沢郡金ケ崎町大字三ケ尻","next":[1123172,1121005,1121004,1121003,1121006,100416,1121007],"voronoi":{"lat":39.133581,"lng":140.956957,"delta_lat":[0,103606,26551,-10704,-40044,-32791,-334],"delta_lng":[0,191633,-59926,-34507,-50488,-26106,-217]},"impl":true},
    {"code":100416,"id":"573775","name":"北上","name_kana":"きたかみ","lat":39.281196,"lng":141.121221,"prefecture":3,"lines":[1004,11231,11210],"attr":"eco","postal_code":"024-0061","address":"北上市大通り１丁目","next":[100415,1121002,1123172,1121003,1123173,1123175,1120906],"voronoi":{"lat":39.303627,"lng":141.202231,"delta_lat":[0,-1218,-32708,-5964,-26551,-4621,20003],"delta_lng":[0,-65421,-45897,-2249,59926,45273,40280]},"impl":true},
    {"code":1123175,"id":"487983","name":"村崎野","name_kana":"むらさきの","lat":39.323027,"lng":141.120442,"prefecture":3,"lines":[11231],"attr":"cool","postal_code":"024-0001","address":"北上市飯豊町字村崎野","next":[1121003,1123176,1121002,100416,100417,1120902,1120905,1120906],"voronoi":{"lat":39.307864,"lng":141.200888,"delta_lat":[0,33715,17283,3122,-9623,-37255,-12696,1218],"delta_lng":[0,-18161,-27220,-12797,-67624,20571,41154,65421]},"impl":true},
    {"code":1123176,"id":"c20046","name":"花巻","name_kana":"はなまき","lat":39.393182,"lng":141.110458,"prefecture":3,"lines":[11231,11209],"attr":"cool","postal_code":"025-0092","address":"花巻市大通り","next":[1123175,1121006,1121005,1121004,1121003,1120902,1123177],"voronoi":{"lat":39.46989,"lng":140.969293,"delta_lat":[0,-36633,-52019,-24078,-4799,9623,56500],"delta_lng":[0,22228,39162,31288,13114,67624,-25319]},"impl":true},
    {"code":1123177,"id":"3b5508","name":"花巻空港","name_kana":"はなまきくうこう","lat":39.442639,"lng":141.127625,"prefecture":3,"lines":[11231],"attr":"cool","postal_code":"025-0312","address":"花巻市二枚橋","next":[1123178,1121104,100417,1121006,1120902,1123176,1121106],"voronoi":{"lat":39.526448,"lng":140.987481,"delta_lat":[0,-73994,-19015,-14956,51406,28226,6441],"delta_lng":[0,185714,-15414,-40391,-148097,-24215,7086]},"impl":true},
    {"code":1123178,"id":"924187","name":"石鳥谷","name_kana":"いしどりや","lat":39.490919,"lng":141.146861,"prefecture":3,"lines":[11231],"attr":"cool","postal_code":"028-3101","address":"花巻市石鳥谷町好地","next":[1123177,1123181,1121104,100417,1120904,1123179,1123180],"voronoi":{"lat":39.544852,"lng":141.046149,"delta_lat":[0,2925,-21328,-73994,1289,36106,52613],"delta_lng":[0,-34089,-24578,185714,4191,63055,-182614]},"impl":true},
    {"code":1123179,"id":"bb08b2","name":"日詰","name_kana":"ひづめ","lat":39.538734,"lng":141.160637,"prefecture":3,"lines":[11231],"attr":"cool","postal_code":"028-3309","address":"紫波郡紫波町北日詰","next":[1121307,1120905,1123178,1120904,1123180],"voronoi":{"lat":39.511503,"lng":141.305632,"delta_lat":[0,-11084,-10569,52613,9512],"delta_lng":[0,-23965,-41226,-182614,223818]},"impl":true},
    {"code":1123180,"id":"3baf8a","name":"紫波中央","name_kana":"しわちゅうおう","lat":39.5549,"lng":141.15995,"prefecture":3,"lines":[11231],"attr":"heat","postal_code":"028-3305","address":"紫波郡紫波町日詰字中新田３４６番地","next":[1123181,1121307,1123178,1123179],"voronoi":{"lat":39.542463,"lng":141.057827,"delta_lat":[0,2389,44835,-37712],"delta_lng":[0,-11679,216410,19087]},"impl":true},
    {"code":1123181,"id":"98d468","name":"古館","name_kana":"ふるだて","lat":39.580844,"lng":141.154575,"prefecture":3,"lines":[11231],"attr":"heat","postal_code":"028-3301","address":"紫波郡紫波町中島","next":[1123178,1121104,1123182,1121307,1123180],"voronoi":{"lat":39.616679,"lng":141.252829,"delta_lat":[0,-43619,-25283,-2925,44835],"delta_lng":[0,-225528,-15242,34089,216410]},"impl":true},
    {"code":1123182,"id":"0a22a3","name":"矢幅","name_kana":"やはば","lat":39.613293,"lng":141.148299,"prefecture":3,"lines":[11231],"attr":"heat","postal_code":"028-3614","address":"紫波郡矢巾町大字又兵エ新田","next":[1121104,1121307,1121103,1123183,1123181,1121102],"voronoi":{"lat":39.637117,"lng":141.248957,"delta_lat":[0,-20438,-43619,28673,15660,13335],"delta_lng":[0,3873,-225528,12549,12214,17224]},"impl":true},
    {"code":1123183,"id":"5a0289","name":"岩手飯岡","name_kana":"いわていいおか","lat":39.65373,"lng":141.146861,"prefecture":3,"lines":[11231],"attr":"heat","postal_code":"020-0834","address":"盛岡市永井","next":[1121303,100418,1121102,1123182,1123184,1121307,1121305],"voronoi":{"lat":39.637117,"lng":141.248957,"delta_lat":[0,-6389,37621,4184,-4837,-16503,-6930],"delta_lng":[0,-179668,29154,19495,84683,41849,4556]},"impl":true},
    {"code":1123184,"id":"e11721","name":"仙北町","name_kana":"せんぼくちょう","lat":39.687919,"lng":141.148814,"prefecture":3,"lines":[11231],"attr":"heat","postal_code":"020-0861","address":"盛岡市仙北２丁目","next":[1121302,1121303,100418,1123183],"voronoi":{"lat":39.672532,"lng":141.117938,"delta_lat":[0,27152,522,-32511],"delta_lng":[0,30293,14028,40362]},"impl":true},
    {"code":100418,"id":"2f6f3d","name":"盛岡","name_kana":"もりおか","lat":39.701547,"lng":141.136599,"prefecture":3,"lines":[1004,11231,11211,11213,99205,11233],"attr":"heat","postal_code":"020-0034","address":"盛岡市盛岡駅前通","next":[1121302,1121102,1123183,9920502,1123184],"voronoi":{"lat":39.672532,"lng":141.117938,"delta_lat":[0,-4184,25549,23450,-17663],"delta_lng":[0,-19495,3983,30361,15444]},"impl":true},
    {"code":1123146,"id":"a8faa3","name":"新利府","name_kana":"しんりふ","lat":38.317059,"lng":140.972609,"prefecture":4,"lines":[11231],"attr":"heat","postal_code":"981-0100","address":"宮城郡利府町字谷地脇","next":[1123147,1123149,1123145,9921401,1123148],"voronoi":{"lat":38.305033,"lng":140.967128,"delta_lat":[0,42635,22698,-55758,-2644],"delta_lng":[0,-38593,1510,57523,-1984]},"impl":true},
    {"code":1123147,"id":"258b8d","name":"利府","name_kana":"りふ","lat":38.329483,"lng":140.984652,"prefecture":4,"lines":[11231],"attr":"heat","postal_code":"981-0103","address":"宮城郡利府町森郷柱田","next":[1123149,1122214,1122215,1122105,100412,1123146,1123152,9921401,1123150,1122216],"voronoi":{"lat":38.406269,"lng":140.988628,"delta_lat":[0,42437,-376,-4263,-73702,-55758,2525,13047,12141,6647],"delta_lng":[0,-35857,-5429,-21778,4482,57523,7622,10421,3778,553]},"impl":true}
  ],
  "north":39.7027,
  "south":36.96915,
  "east":141.18392,
  "west":140.05933,
  "polyline_list":[
    {
      "start":"黒磯",
      "end":"白坂南",
      "lat":36.96915,
      "lng":140.05933,
      "delta_lat":[0,193,172,222,128,47,40,252,102,28,182,63,35,54,101,127,61,24,30,20,24,14,14,32,12,12,13,7,9,16,32,54,49,34,16,35,18,16,33,26,36,33,242,156,56,52,42,40,126,92,58,53,61,56,40,75,66,54,57,68,55,33,100,65,90,41,47,40,44,38,113,6,92,152,94,163,56,10,18,60,31,35,33,28,18,19,94,76,12,76,74,32,141,81,16,84,41,64,21,23,20,12,12,55,15,58,109,68,22,38,45,33,16,25,22,49,44,15,27,46,15,3,16,14,26,32,22,29,18,15,65,110,78,54,271,118,142,4,56,50,15,47,65,38,36,13,45,168,37,27,28,47,42,45,7,14,39,22,66,43,26,25,11,9,11,15,48,40,29,25,38,34,60,16,55,68,56,56,22,18,63,78,34,72,26,33,43,65,29,29,45,59,207,153,30,26,67,18,51,60,23,94,31,34,29,211,24,36,18],
      "delta_lng":[0,165,148,192,113,41,36,221,86,24,159,58,33,57,120,144,77,31,47,32,41,35,43,137,41,40,35,19,22,32,66,99,91,44,19,36,17,13,24,12,18,14,93,54,18,13,12,7,26,23,26,36,43,41,29,57,49,41,48,63,54,32,110,70,98,44,55,50,61,61,207,11,170,280,169,303,100,18,33,108,57,66,67,60,41,54,277,219,40,238,219,76,273,155,31,160,79,120,32,32,21,11,11,42,12,46,81,57,15,34,49,43,30,52,56,118,122,39,75,116,39,6,34,25,40,45,32,28,16,13,52,72,42,22,59,26,31,0,12,11,4,11,20,13,12,5,18,78,17,14,16,28,27,32,4,10,32,18,63,45,29,27,16,12,15,25,79,73,52,42,69,42,59,12,35,30,19,9,2,-1,-9,-12,-4,2,0,3,10,26,10,12,26,30,113,80,18,16,48,15,39,48,19,75,24,26,22,188,21,33,20]
    },
    {
      "start":"白坂南",
      "end":"白坂",
      "lat":37.08104,
      "lng":140.1727,
      "delta_lat":[0,64,44,44,80,184,88,33,26,35,39,30,46,50,9,22,25,12,17,16,22,39,37,67,17,15,23,80,46,104,35],
      "delta_lng":[0,39,21,13,14,26,13,4,2,6,10,15,30,43,11,24,28,17,25,26,36,102,110,206,39,31,29,88,40,90,24]
    },
    {
      "start":"白坂南",
      "end":"白坂",
      "lat":37.08104,
      "lng":140.1727,
      "delta_lat":[0,26,32,47,50,129,31,33,70,21,18,24,56,8,15,2,44,399,54,188,102],
      "delta_lng":[0,33,60,90,93,253,51,45,79,22,12,12,26,3,4,0,20,176,25,101,57]
    },
    {
      "start":"白坂",
      "end":"久野田トンネル西",
      "lat":37.09453,
      "lng":140.18433,
      "delta_lat":[0,149,60,123,168,56,82,72,52,90,60,60,31,23,56,75,57,46,47,55,43,33,49,68,62,213,63,223,35,35,39,43,52,90,17,56,53,66,128,142,99,24,412,158,35,15,46,20,37,17,13,13,11,5,5,1,-6,-9,-14,-18,-77,-12,-3,-46,-59,-48,-2,-6,-26,-1,-2,-21,-9,-11,-9,-7,-8,-11,-16,-20,-17,-28,-19,-117,-54,-46,-21,-15,-13,-18,-1,-6,-2,1,5,7,9,13,16,30,24,102,189,119,200,68,67,67,33,68,26,12,69,32,16,30,23,36,105,45,16,37,34,36,34,35,39,22,18,27,26,21,16,19,26,28,38,19,12,34,63],
      "delta_lng":[0,76,31,68,93,31,38,21,12,8,-2,-7,-7,-5,-17,-30,-35,-26,-40,-58,-44,-22,-32,-26,-13,-32,-10,-31,-1,-1,1,5,12,32,8,30,45,61,118,140,98,24,391,151,37,21,82,35,75,43,42,46,50,52,45,89,85,55,74,92,376,61,14,235,293,242,9,51,322,18,32,263,102,118,98,48,32,33,44,42,35,40,27,136,66,75,43,38,42,82,19,61,37,111,67,35,36,38,45,65,43,169,314,200,337,116,117,114,56,117,41,20,115,56,26,51,40,60,171,76,27,60,58,60,59,56,54,25,16,21,17,14,9,10,16,15,22,11,5,16,32]
    },
    {
      "start":"久野田トンネル西",
      "end":"久野田トンネル東",
      "lat":37.1445,
      "lng":140.26783,
      "delta_lat":[0,8,17,36,4,16,31,18,7,11,18,13,29,7,11,16,11,13,5,13,7,11,10,6,4,11,12,6,4,16,5,11],
      "delta_lng":[0,6,12,27,2,10,18,14,6,9,14,10,22,6,15,20,18,20,10,23,12,21,20,14,8,28,32,20,14,69,22,39]
    },
    {
      "start":"久野田トンネル西",
      "end":"久野田トンネル東",
      "lat":37.1445,
      "lng":140.26783,
      "delta_lat":[0,23,26,6,7,5,6,3,16,9,24,20,20,19,24,12,37,5,9,2,9,5,10,15,8,14,2,2,5,13,9,16,1,5],
      "delta_lng":[0,3,4,0,2,2,5,3,15,5,13,14,13,16,21,11,45,8,10,1,13,9,18,27,19,29,7,4,15,49,38,85,16,41]
    },
    {
      "start":"久野田トンネル東",
      "end":"本宮",
      "lat":37.14837,
      "lng":140.27344,
      "delta_lat":[0,2,19,26,23,46,35,11,15,9,11,12,12,17,22,11,9,5,7,18,21,29,28,33,15,19,38,43,46,45,51,54,67,52,31,20,61,28,39,41,32,28,29,29,54,2,18,11,9,50,52,57,56,56,28,27,30,31,31,27,59,47,46,49,55,55,59,28,10,65,6,51,88,139,98,186,61,87,88,53,23,51,38,111,77,49,60,70,36,20,74,43,26,46,12,55,18,82,82,64,60,70,11,39,65,59,40,81,63,58,40,42,39,43,39,46,42,47,47,52,27,24,56,27,114,84,56,88,58,28,13,95,88,78,171,13,177,205,291,177,30,117,140,5,116,179,118,171,72,105,56,61,14,12,50,38,24,27,103,156,152,156,73,27,102,151,103,206,157,33,15,158,150,86,25,79,87,153,14,72,40,155,98,61,6,63,166,76,63,69,88,47,44,137,22,178,103,30,84,163,116,99,0,109,77,2,34,86,49,30,18,45,47,66,51,41,48,61,49,51,49,18,25,51,56,38,56,52,102,63,51,101,135,92,38,35,29,7,13,27,55,53,68,39,22,48,33,83,39,4,38,31,40,14,25,35,30,19,37,38,17,16,5,29,47,57,30,16,13,24,30,26,41,36,20,24,48,69,58,71,54,103,115,124,1,119,98,23,40,23,33,29,74,45,50,66,54,39,46,78,47,24,3,11,27,55,35,24,33,27,40,28,28,25,69,55,105,93,59,21,15,36,6,19,12,38,7,29,32,56,41,34,28,31,27,88,79,26,31,53,39,20,31,40,52,32,39,43,16,103,85,126,196,92,130,29,252,44,210,70,70,48,64,55,116,232,196,575,29,112,69,42,49,30,62,21,47,45,39,54,99,148,22,33,26,169,20,73,62,105,116,323,215,47,43,13,4,37,15,36,81,59,32,27,25,2,181,13,22,131,52,42,98,60,120,113,97,244,315,28,194,29,50,53,79,133,256,27,146,429,179,27,90,326,140,40,125,22,4,38,34,70,29,56,46,50,40,22,48,64,21,29,38,43,49,36,36,17,48,114,55,283,26,49,66,53,57,35,7,217,61,57,148,48,35,44,79,41,28,63,50,31,32,28,29,41,29,42,23,29,24,5,43,51,100,44,31,28,86,152,67,30,37,29,45,85,96,57,80,51,45,60,29,38,36,40,56,47,72,29,95,174,112,291,119,141,29,4,29,235,161,128,211,78,262,112,176,162,127,43,88,58,74,26,99,50,62,78,145,35,28,2,85,90,298,270,158,207,153,67,20,39,35,124,37,74,110,54,63,79,202,171,149,237,17,38,188,225,57,57,61,51,56,75,60,58],
      "delta_lng":[0,10,134,142,144,284,212,74,86,55,70,74,68,109,140,61,61,24,33,72,67,68,60,62,26,30,57,49,50,44,44,38,41,27,12,7,22,9,10,13,10,9,8,9,14,2,5,2,3,14,19,18,17,18,9,8,10,8,9,7,17,13,14,16,17,19,18,9,3,15,1,15,28,42,30,55,20,27,27,20,8,21,15,57,42,27,41,52,32,17,70,38,27,48,14,62,24,106,107,83,78,90,14,52,83,78,52,108,80,76,52,56,51,56,48,53,45,45,42,37,21,16,29,12,40,24,13,17,9,4,2,18,15,12,29,3,29,34,47,30,4,19,23,1,17,31,19,25,11,19,16,15,4,4,18,14,12,15,69,114,110,114,52,20,74,109,75,146,110,25,11,108,110,63,19,58,60,106,11,54,28,115,71,46,4,46,121,55,48,49,66,34,30,102,16,129,76,22,63,119,85,73,1,79,56,2,24,63,36,22,16,45,51,66,49,31,31,36,27,26,26,6,9,11,4,-1,-5,-4,-14,-11,-6,-15,-18,-15,-5,-4,-4,-1,-2,-11,-23,-26,-28,-10,-3,-1,1,12,6,0,9,9,13,4,9,17,19,13,31,33,19,20,7,46,74,106,46,20,14,25,33,22,34,22,13,9,14,23,18,21,16,33,32,36,0,36,27,6,8,3,4,3,6,4,2,8,9,10,12,18,10,4,1,2,0,0,-5,-6,-12,-11,-20,-17,-21,-21,-57,-44,-87,-74,-46,-17,-12,-20,-3,-10,-6,-15,-1,-8,-7,-8,-3,2,3,8,5,25,18,6,4,6,0,-2,-5,-14,-22,-16,-18,-22,-9,-47,-39,-62,-83,-39,-57,-11,-115,-18,-93,-33,-16,-1,6,13,44,85,72,246,12,51,39,28,37,26,48,17,37,34,22,19,38,54,8,11,5,14,1,9,18,35,40,111,90,22,22,9,2,28,15,29,76,58,33,26,26,2,163,12,20,119,44,30,39,28,31,32,26,53,90,5,55,11,10,14,26,45,88,9,47,139,61,9,31,105,40,8,19,2,-2,-7,-7,-18,-13,-35,-36,-48,-51,-32,-86,-94,-30,-35,-30,-25,-23,-10,-7,-2,-5,-3,0,-15,-2,-9,-14,-17,-26,-15,-4,-99,-29,-27,-69,-23,-17,-24,-53,-35,-27,-73,-70,-57,-59,-47,-37,-46,-27,-31,-16,-13,-9,-2,-9,-9,-9,-1,1,1,3,-3,-6,-4,-11,-12,-23,-60,-76,-48,-38,-17,-11,-11,-3,-2,3,7,18,20,41,18,62,115,75,196,81,95,19,3,20,159,108,82,141,53,175,77,120,112,86,29,49,30,37,13,45,20,16,21,31,4,2,0,1,-6,-13,-11,-7,-4,-2,-3,0,0,-2,-4,0,-1,-6,0,-1,-4,-5,-8,-2,-7,0,0,-4,-1,3,7,9,12,19,26,23,25]
    },
    {
      "start":"本宮",
      "end":"杉田",
      "lat":37.54035,
      "lng":140.40005,
      "delta_lat":[0,22,72,94,72,57,43,58,6,38,42,55,66,74,37,43,44,42,58,51,16,48,39,149,279,59,57,53,54,48,48,36,48],
      "delta_lng":[0,15,48,71,54,50,45,77,13,57,63,69,70,57,19,19,7,-5,-12,-12,-2,-7,-6,-23,-42,2,6,17,27,33,36,35,46]
    },
    {
      "start":"本宮",
      "end":"杉田",
      "lat":37.54035,
      "lng":140.40005,
      "delta_lat":[0,18,56,65,44,72,16,14,50,232,277,51,22,32,31,17,10,55,6,49,106,236,59,56,58,54,53,47,55,38,29],
      "delta_lng":[0,6,27,36,25,51,11,11,34,176,208,30,9,13,7,4,2,1,0,-2,-14,-33,-5,0,13,17,30,33,42,45,50]
    },
    {
      "start":"杉田",
      "end":"松川",
      "lat":37.55942,
      "lng":140.40832,
      "delta_lat":[0,123,35,43,65,57,41,59,17,42,46,130,157,147,147,77,24,46,35,38,32,49,38,48,84,85,96,15,15,317,30,80,42,69,43,27,44,53,47,46,57,48,49,32,27,29,26,24,29,42,36,33,34,65,27,16,6,9,5,2,-11,-1,1,4,12,22,19,28,22,43,31,43,125,103,110,93,81,128,22,85,70,20,107,147,250,22,254,164,36,59,96,347,20,136,200,196,39,80,164,6,305,266,34,20,40,129,57,23,22,95,98,26,325,30,100,53,57,3,111,65,82,74,18,49,54,81,13,25,42,159,27,66,24,18,78,60,68,107,57,56,75],
      "delta_lng":[0,215,55,62,91,67,39,55,14,30,19,37,26,22,23,12,4,9,7,10,9,19,16,26,47,47,58,8,8,179,16,47,25,58,37,27,38,54,56,63,87,81,80,60,55,70,67,73,97,182,157,151,154,283,129,88,34,70,63,67,442,85,26,65,92,111,66,78,45,79,43,53,137,113,108,78,60,74,12,42,29,7,39,41,60,5,63,43,12,23,43,148,7,62,87,89,23,48,75,4,143,122,21,13,23,73,38,15,16,64,67,18,225,20,61,30,27,1,49,25,24,22,4,11,12,13,2,3,6,22,4,7,2,2,5,2,-1,-13,-9,-13,-24]
    },
    {
      "start":"金谷川南",
      "end":"金谷川東",
      "lat":37.68304,
      "lng":140.44913,
      "delta_lat":[0,-26,-10,-10,-2,-29,-40,-17,-35,-128,-27,-16,-29,-17,-10,-18,-74,-23,-19,-2,-7,-6,-8,-11,-1,-5,-5,0,2,3,0,5,-2],
      "delta_lng":[0,59,25,19,3,38,48,18,28,98,18,14,19,12,11,24,104,36,37,5,20,19,25,41,4,30,46,30,94,59,18,57,63]
    },
    {
      "start":"金谷川東",
      "end":"松川",
      "lat":37.67737,
      "lng":140.46035,
      "delta_lat":[0,-10,-2,-2,0,-9,-5,-4,-3,-6,-5,-6,-2,-8,-6,-12,-3,-5,-2,-1,-1,-5,-3,-1,-5,-16,-8,-3,-16,-24,-21,-17,-22,-7,-20,-12,-22,-16,-34,-19,-23,-107,-86,-42,-97,-50,-64,-17,-137,-76,-36,-37,-77,-23,-140,-251,-20,-106,-57,-32,-26,-61,-127,-90],
      "delta_lng":[0,110,25,28,5,66,64,21,32,40,32,54,8,55,42,86,21,34,12,6,4,21,22,2,24,60,21,11,36,54,41,27,31,9,23,13,23,13,27,15,15,54,44,22,51,25,29,7,62,41,24,28,66,20,122,218,15,94,44,19,13,24,48,26]
    },
    {
      "start":"金谷川東",
      "end":"松川",
      "lat":37.67737,
      "lng":140.46035,
      "delta_lat":[0,-23,-11,-5,-2,-9,-21,-20,-16,-17,-20,-3,-7,-26,-29,-36,-44,-20,-43,-3,-90,-46,-23,-145,-14,-26,-13,-56,-32,-31,-38,-23,-25,-2,-16,-45,-79,-19,-16,-27,-29,-111,-123,-77,-183,-134,-65,-95,-79,-128],
      "delta_lng":[0,107,39,20,6,27,54,39,29,26,22,5,8,24,24,27,24,10,15,1,24,9,6,33,5,13,10,31,27,36,53,37,53,5,45,173,311,48,33,37,33,106,114,74,172,119,50,64,46,55]
    },
    {
      "start":"金谷川南",
      "end":"金谷川北",
      "lat":37.68304,
      "lng":140.44913,
      "delta_lat":[0,25,9,14,82,27,17,34,26,20,31,27,40,25,9,4,30,31,29,51,25,38],
      "delta_lng":[0,-58,-21,-32,-135,-36,-17,-32,-22,-14,-16,-16,-14,-9,-3,-2,-4,-4,-3,-1,1,4]
    },
    {
      "start":"金谷川南",
      "end":"金谷川北",
      "lat":37.68304,
      "lng":140.44913,
      "delta_lat":[0,5,5,20,4,2,2,7,9,4,12,25,13,12,22,18,20,34,44,24,16,14,35,52,54,22,41,18,60],
      "delta_lng":[0,-28,-34,-94,-15,-13,-1,-28,-23,-7,-30,-50,-21,-20,-25,-15,-17,-22,-18,-9,-8,-4,-2,0,8,3,12,7,20]
    },
    {
      "start":"金谷川北",
      "end":"南福島１",
      "lat":37.68898,
      "lng":140.4448,
      "delta_lat":[0,27,41,19],
      "delta_lng":[0,12,12,10]
    },
    {
      "start":"南福島１",
      "end":"南福島２",
      "lat":37.68985,
      "lng":140.44513,
      "delta_lat":[0,68,4,38,47,36,52,179,342,0,72,18,51,5,31,20,27,34,17,31,14,14,4,23,59,27,19,56,95,45,55,28,7,52,56,46,54,115,12,25,75,29,113,14,2,13,40,60,48,45,49,32,37,41,2,4,7,16,95,19,1,42,74,192,38],
      "delta_lng":[0,27,1,18,23,19,25,90,171,1,35,8,26,3,19,14,26,36,19,35,15,14,4,18,41,13,12,26,32,11,17,5,3,4,0,-3,-9,-27,-2,-7,-17,-4,-24,-3,-1,-2,-5,-4,1,5,9,9,14,17,2,0,4,8,45,9,2,20,38,96,12]
    },
    {
      "start":"南福島１",
      "end":"南福島２",
      "lat":37.68985,
      "lng":140.44513,
      "delta_lat":[0,134,88,181,78,3,392,2,51,5,25,41,5,7,54,28,10,26,7,9,14,14,13,31,7,7,4,18,9,26,10,29,13,25,4,14,61,52,36,41,31,51,27,49,39,16,17,35,5,15,28,30,30,24,5,19,31,7,20,13,41,24,32,40,16,34,22,28,3,21,19,24,50,11,70,7,18,28,34,12,6,35,21,8,30,41,31,51,7,24,56,56],
      "delta_lng":[0,76,50,98,42,3,211,2,30,4,19,35,6,12,70,43,21,44,13,24,37,34,32,72,24,14,7,34,15,38,15,35,15,23,4,15,52,38,23,29,19,33,15,30,22,8,9,15,1,3,6,4,4,2,1,-1,-5,-1,-6,-3,-15,-11,-14,-25,-8,-25,-19,-26,-4,-20,-21,-28,-65,-12,-87,-8,-21,-25,-26,-6,-5,-19,-8,-3,-10,-9,-5,0,0,1,0,3]
    },
    {
      "start":"南福島２",
      "end":"東福島北",
      "lat":37.71951,
      "lng":140.45507,
      "delta_lat":[0,48,47,6,18,55,33,4,42,72,211,35,49,36,9,36,17,30,61,27,53,42,55,11,42,126,37,21,78,11,20,22,65,14,27,41,84,110,85,9,81,17,19,32,104,55,90,4,39,32,76,17,3,17,23,9,22,25,32,61,74,3,22,63,43,31,17,36,70,14,6,82,79,45,36,97,85,40,181,26,218,178,64,40,58,74,78,42,66,82,2,43,192,46,99,64,45,47,44,38,43,42,28,30,80,24,24,26,44,11,30,26,26,42,68,36,81,53,12,31,29,28,30,50,38,38,26,52,13,10,160,25,70,38,41,31,48,38,50,18,23,9,31,24,36,34,38,6,2,5,2,11,23,24,11,17,18,69,36,22,45,7,9,27,23,39,47,42,5,13,20,7,143,101,92,159,26,94,51,77,106,31,60,70,107,101,50,4,49,43],
      "delta_lng":[0,7,7,0,3,10,6,1,9,13,41,7,10,8,2,7,3,7,12,5,11,8,10,3,9,24,8,3,16,3,4,5,12,3,7,7,16,23,16,2,16,3,2,7,20,12,17,2,8,5,15,4,0,3,4,2,5,4,6,11,16,1,4,12,9,3,3,2,-2,0,-2,-7,-7,-2,-4,-9,-5,-7,-26,-5,-20,-16,-10,-13,-26,-41,-49,-27,-43,-53,0,-27,-123,-30,-63,-36,-20,-17,-11,-7,-4,-2,2,9,33,10,15,19,38,10,30,28,31,59,86,46,100,59,14,31,27,22,20,21,15,10,4,3,1,0,8,1,2,6,11,13,27,24,41,21,25,11,38,31,60,59,75,8,5,8,3,22,44,45,19,33,34,129,66,41,84,11,16,37,28,44,43,34,4,9,15,5,101,69,65,109,19,67,36,55,77,24,50,68,114,115,58,7,63,60]
    },
    {
      "start":"東福島北",
      "end":"伊達南",
      "lat":37.80747,
      "lng":140.48477,
      "delta_lat":[0,57,39,46,37,33,41,33,26,7,19,2,18,29,47],
      "delta_lng":[0,88,46,44,31,23,22,14,6,3,3,1,1,0,-9]
    },
    {
      "start":"東福島北",
      "end":"伊達南",
      "lat":37.80747,
      "lng":140.48477,
      "delta_lat":[0,95,52,34,49,45,42,25,11,39,31,11],
      "delta_lng":[0,107,48,27,28,23,17,8,4,8,2,1]
    },
    {
      "start":"伊達南",
      "end":"船岡",
      "lat":37.81182,
      "lng":140.4875,
      "delta_lat":[0,75,62,33,87,39,42,32,6,32,29,42,55,46,69,15,41,80,144,184,57,153,35,50,134,124,344,22,314,20,87,47,11,43,76,110,32,26,76,54,188,166,16,156,31,34,85,105,21,279,18,56,93,84,152,29,144,177,44,24,144,99,47,114,127,9,44,127,24,143,33,19,26,45,11,22,32,78,65,63,56,7,49,36,23,9,26,25,2,29,35,101,5,33,79,29,121,12,55,35,50,57,44,47,37,25,26,26,40,34,73,21,99,31,46,41,25,38,28,28,27,33,29,23,22,35,48,26,17,19,12,8,2,5,0,2,1,1,-3,-20,-5,-7,-7,-11,-2,-11,-11,-64,-20,-9,-6,4,12,16,15,21,20,13,25,20,16,14,33,11,26,31,17,18,20,41,73,48,66,62,108,38,29,36,49,15,37,76,4,18,30,53,36,26,34,21,12,23,25,20,11,44,21,18,18,24,5,36,10,1,36,33,47,41,89,130,36,40,9,11,83,29,21,67,20,9,136,26,43,14,27,23,44,78,42,10,150,71,11,37,33,20,16,38,192,21,1,50,14,1,47,17,31,47,90,40,19,19,28,56,35,62,49,14,120,59,29,42,45,3,22,22,27,12,35,43,58,57,50,5,65,40,6,8,26,30,32,23,36,40,1,8,1,129,27,56,55,42,58,74,33,72,113,52,21,18,15,78,10,95,128,27,41,31,40,47,78,58,81,42,27,23,29,45,19,43,14,25,37,12,10,26,53,31,41,24,33,54,63,1,9,9,38,13,5,46,168,0,38,1,35,14,13,78,29,29,36,34,40,2,7,29,20,14,0,4,136,74,159,37,15,5,141,4,17,14,177,101,61,39,258,70,84,59,37,41,119,140,97,59,108,66,168,54,107,183,144,52,173,104,40,86,6,87,110,2,101,54,69,114,29,92,141,166,139,45,55,39,42,56,71,81,27,89,137,165,75,113,41,23,13,26,28,71,65,168,154,61,110,83,42,46,1,33,30,21,30,18,60,41,46,106,72,47,19,14,43,36,29,15,118,33,70,39,47,14,8,5,22,13,14,9,5,11,9,2,6,5,2,1,3,-6,-9,-11,-13,-25,-50,-51,-51,-48,-36,-40,-30,-15,-6,-2,-3,-4,0,0,4,5,9,22,34,18,17,7,4,1,0,-2,-5,-11,-9,-21,-9,-6,-16,-21,-24,-47,-65,-33,-20,-32,-21,-20,-20,-17,-33,-20,-18,-10,-8,-6,-3,0,2,4,26,15,22,23,56,54,17,31,61,43,16,17,34,24,13,7,3,4,-2,-2,-7,-11,-4,-14,-13,-3,-4,-3,0,3,13,7,8,9,5,5,9,4,3,4,7,10,13,17,25,26,30,33,56,72,75,77,80,84,82,63,112,105,7,188,9,128,96,139,116,103,31,14,18,15,32,29,20,1,14,16,15,12,12,15,35,3,45,44,58,21,6,38,1,28,30,34,26,11,52,47,41,21,21,29,29,46,12,36],
      "delta_lng":[0,-9,-9,-3,-10,-1,0,3,1,7,12,22,33,32,47,10,32,61,113,143,45,117,28,39,102,97,267,16,242,15,73,37,9,32,58,85,24,21,58,43,145,130,13,120,23,27,66,81,16,215,15,42,74,65,115,23,114,141,35,19,115,79,38,89,100,9,32,101,20,109,25,16,19,36,9,17,26,60,51,48,45,8,50,44,30,12,40,38,4,42,52,150,10,46,118,44,177,18,80,51,72,86,55,56,36,24,20,19,27,21,38,12,50,16,24,21,12,26,22,28,35,47,48,42,41,69,93,46,36,45,34,28,10,30,7,21,26,27,62,206,31,56,46,55,12,48,37,214,73,47,61,76,58,52,37,45,34,18,28,20,18,14,28,8,18,16,8,6,6,7,4,1,-1,-4,-9,-3,4,4,14,4,10,22,1,4,9,17,17,16,27,23,15,32,40,39,26,131,53,43,37,47,12,60,18,3,63,51,67,47,105,150,50,58,13,14,125,42,33,100,30,12,198,36,65,22,26,21,37,60,31,9,116,53,8,34,33,23,20,44,223,25,2,57,16,3,55,19,36,54,105,42,24,19,26,47,25,40,30,9,69,38,17,17,14,1,5,3,0,0,-6,-14,-29,-40,-40,-5,-58,-25,-4,-3,-18,-17,-14,-7,-6,-1,1,0,-2,-7,0,-5,-2,-4,-2,-5,-3,-4,-6,1,3,6,8,46,6,59,79,19,24,13,11,5,4,2,3,6,7,9,15,31,17,45,17,33,57,20,16,36,62,32,35,17,21,25,23,1,2,3,15,5,1,17,76,2,17,-1,15,7,7,45,17,16,20,18,23,2,3,17,14,7,2,0,80,40,94,23,7,4,78,4,9,8,100,58,33,22,145,39,47,24,13,12,29,30,21,11,21,14,31,10,24,38,30,10,38,21,8,16,1,17,21,0,21,11,15,21,6,19,28,35,29,11,22,20,26,49,65,73,24,79,127,155,68,107,36,16,10,15,17,40,35,86,77,32,55,42,21,32,1,29,32,24,44,25,118,79,89,207,139,87,33,17,53,44,32,17,69,22,71,46,62,17,10,9,32,24,29,21,11,40,38,23,35,49,21,24,88,47,65,57,49,78,150,138,145,134,102,118,85,42,29,4,30,44,41,54,55,41,45,75,103,67,64,47,45,46,43,42,40,49,39,65,22,10,29,32,35,58,70,36,20,31,24,27,36,30,75,65,62,48,50,49,59,64,17,44,144,48,59,45,121,118,36,89,173,137,47,52,109,77,54,43,31,77,63,57,59,119,34,139,130,39,56,93,87,79,191,173,174,164,89,102,191,69,59,43,43,46,54,55,50,55,47,40,54,66,69,68,71,72,75,58,98,97,8,170,8,109,84,124,98,87,28,16,22,19,51,55,38,5,42,58,60,55,66,90,241,18,294,279,341,141,33,258,6,175,189,214,171,74,317,302,263,131,133,186,178,291,85,216]
    },
    {
      "start":"船岡",
      "end":"高槻",
      "lat":38.06416,
      "lng":140.798,
      "delta_lat":[0,22,22,26,33,36,34,48,43,9,29,30,15,15,20,94,21,20,16,26,36,98,59,73],
      "delta_lng":[0,71,52,57,60,58,42,52,39,8,16,14,7,7,9,40,11,7,9,11,15,43,30,42]
    },
    {
      "start":"船岡",
      "end":"高槻",
      "lat":38.06416,
      "lng":140.798,
      "delta_lat":[0,13,18,19,32,23,54,25,74,66,22,25,102,37,16,14,13,8,67,108,30,59],
      "delta_lng":[0,80,71,71,68,50,69,28,50,38,10,9,37,13,6,4,6,2,22,35,10,21]
    },
    {
      "start":"高槻",
      "end":"仙台車両センター西",
      "lat":38.07241,
      "lng":140.805,
      "delta_lat":[0,48,61,91,147,171,29,15,165,3,104,39,113,94,116,48,28,46,35,38,11,13,14,15,10,9,5,13,13,14,17,14,2,13,14,14,3,10,17,16,14,6,7,4,11,5,5,11,15,18,23,20,14,34,43,53,51,46,33,47,44,21,57,63,92,53,43,73,21,21,53,32,95,73,40,82,22,65,91,64,47,99,81,44,76,56,74,47,2,31,103,184,35,57,8,68,52,30,50,42,22,34,52,121,92,145,76,5,102,96,101,59,117,48,50,15,20,59,117,120,56,92,35,106,112,122,103,108,123,93,41,18,12,5,80,62,139,77,89,45,102,86,88,58,68,12,100,86,60,118,106,45,45,36,50,32,25,18,22,36,67,492,113,53,42,59,61,58,27,27,66,48,20,49,52,84,87,14,218,30,41,72,84,64,71,85,59,67,98,55,36,86,73,66,46,36,45,58,43,43,56,51,22,54,69,48,64,19,53,56,34,24,77,87,44,45,40,20,81,4,193,24,101,59,90,61,64,60,46,95,83,16,74,80,35,21,34,40,40,16,17,29,97,55,30,5,107,98,103,65,57,53,58,67,43,110,51,103,116,88,76,58,123,98,15,232,0,103,79,39,55,70,28,19,7,3,35,29,36,29,12,3,12,19,28,5,24,28,11,10,16,18,23,34,45,47,35,43,35,30,31,25,30,46,22,125,113,147,18,20,79,13,15,106,55,9,8,4,6,12,58,56,20,14,44,95,96,68,109,32,28,47,44,27,23,35,5,36,29,40,12,22,38,34,4,45,47,0,137,4,111,68,3,6,9,16,11,8,38,19,33,9,15,9,9,20,19,15,14,0,24,22,19,26,2,14,25,15,18,14,21,23,16,25,26,25,21,26,18,25,21,30,1,22,23,15,27,18,5],
      "delta_lng":[0,31,45,68,116,136,24,11,130,2,90,32,95,81,99,45,29,63,58,78,25,39,57,71,61,68,55,166,153,119,156,118,20,133,146,147,33,102,169,136,123,42,60,30,102,44,43,55,48,51,56,40,22,48,55,62,62,51,34,43,40,20,49,57,84,47,38,66,18,18,48,29,85,64,36,73,19,55,80,58,39,85,69,39,68,42,55,34,2,22,77,143,28,50,7,69,56,24,43,31,15,17,25,60,42,72,35,4,50,45,48,29,54,21,24,7,8,28,55,56,26,42,16,49,53,56,46,52,58,42,19,10,6,1,40,27,65,37,44,20,48,41,42,29,32,7,47,41,30,56,52,19,12,8,5,1,-1,-5,-4,-10,-21,-147,-34,-17,-12,-15,-14,-11,-3,-6,-9,-9,0,-5,-2,-6,-6,-1,-12,-3,-2,-4,-5,-4,-5,-5,-4,-3,-6,-3,-1,-5,-4,-4,-2,-3,-4,-2,1,2,7,6,4,14,16,12,16,5,13,14,7,4,5,5,2,1,3,-2,-4,0,-3,0,0,0,0,0,0,0,0,2,-3,0,-2,-3,-1,-2,-1,0,-3,0,-1,-1,-3,-2,0,-1,-1,-2,-3,0,8,10,14,18,12,32,13,27,31,22,19,16,31,25,5,62,1,27,19,10,13,18,9,6,4,1,18,24,39,40,17,5,18,27,39,9,33,39,20,15,26,24,31,49,64,57,32,29,18,11,6,2,-2,-8,-6,-36,-29,-43,-5,-5,-23,-3,-5,-30,-19,-4,-5,-1,-3,-8,-46,-55,-26,-18,-55,-124,-122,-91,-140,-43,-35,-51,-44,-24,-19,-26,-2,-19,-14,-13,-3,-5,-4,-3,0,3,2,0,14,2,10,6,0,0,0,-5,-5,-4,-8,-3,-6,-1,2,2,3,6,9,8,9,1,20,16,20,28,4,19,35,26,37,35,56,68,42,73,67,70,58,72,49,73,57,83,2,68,63,42,78,49,11]
    },
    {
      "start":"仙台車両センター西",
      "end":"仙台車両センター東",
      "lat":38.26953,
      "lng":140.89595,
      "delta_lat":[0,4,4,3,6,7,2,2,4,0,-1,0,2,5,6,7,7,9,13,13,16,14,15],
      "delta_lng":[0,22,25,20,59,48,43,7,55,47,54,76,55,75,108,78,68,62,81,72,100,76,81]
    },
    {
      "start":"仙台車両センター西",
      "end":"仙台車両センター東",
      "lat":38.26953,
      "lng":140.89595,
      "delta_lat":[0,13,8,14,15,21,25,15,16,20,12,5,4,3,3,0,-1,-5,-5,-8,-6,-6,0,-5,0],
      "delta_lng":[0,37,24,40,43,62,67,52,51,82,44,31,32,39,60,71,57,75,68,98,71,73,10,91,34]
    },
    {
      "start":"岩切",
      "end":"利府",
      "lat":38.30138,
      "lng":140.95709,
      "delta_lat":[0,15,13,14,22,19,18,28,32,11,25,24,16,13,21,13,23,36,17,3,26,45,20,22,43,33,26,38,24,29,36,34,66,20,23,42,35,53,24,34,56,61,22,27,46,36,50,5,28,16,45,38,27,28,1,38,11,56,11,61,46,55,31,47,46,43,30,35,31,28,42,53,44,32,33,39,3,29,33,29,22,30,35,16,21,40,27,25,36,18,34,0,130],
      "delta_lng":[0,33,24,23,32,26,21,32,33,10,25,22,17,12,19,14,22,35,17,3,24,44,19,21,42,31,26,36,23,28,35,34,64,19,22,41,34,52,21,35,53,58,21,25,45,35,50,4,26,17,43,39,24,26,3,36,11,54,10,59,45,51,30,45,44,42,29,33,31,26,42,50,42,31,33,36,4,27,32,28,22,29,33,17,19,41,26,23,34,19,33,1,126]
    },
    {
      "start":"仙台車両センター東",
      "end":"岩切",
      "lat":38.27091,
      "lng":140.90908,
      "delta_lat":[0,3,6,0,6,2,4,15,4,21,27,24,17,21,24,35,19,20,34,41,40,48,45,21,31,106,3,43,29,25,25,35,37,39,23,35,19,26,23,18,9,42,41,31,21,6,20,33,23,25,22,23,8,47,36,38,52,49,61,26,25,38,56,54,51,86,66,78,86,90,49,2,67,54,51,54,60,59,35,41,22,12,4,4,2,16,11,12,9,13,13,14,20,9,9,9,7,11,5,6,2,9,18,23,12,12,41,5,7,1],
      "delta_lng":[0,17,36,3,24,9,16,49,10,55,58,51,35,40,40,62,34,34,57,68,68,84,75,37,53,179,5,72,51,44,46,54,65,67,41,60,32,45,41,28,17,70,71,50,30,8,25,38,25,24,25,24,9,49,39,40,55,54,63,29,29,40,58,58,54,93,71,82,93,97,53,2,71,58,55,58,65,64,38,44,23,13,5,7,3,23,20,19,18,27,31,37,61,39,28,43,24,41,18,29,7,42,66,93,49,52,155,23,30,3]
    },
    {
      "start":"岩切",
      "end":"有壁トンネル南",
      "lat":38.30138,
      "lng":140.95709,
      "delta_lat":[0,7,8,4,1,2,0,-5,-2,-8,-17,-17,-9,-14,-17,-14,-16,-24,-24,-18,-16,-11,-9,-8,-10,-8,-8,-3,-6,-3,-1,-3,-3,0,0,3,5,4,4,8,4,0,8,3,7,6,5,6,1,15,5,2,6,7,2,3,6,5,4,3,2,2,4,1,7,6,7,4,8,6,7,6,7,7,9,1,3,3,4,5,4,4,9,7,7,15,5,38,58,54,51,29,19,20,21,53,11,33,30,8,27,47,58,36,4,14,9,6,16,54,23,26,11,7,12,28,39,62,27,152,190,177,41,52,145,45,40,38,15,18,14,5,4,27,38,40,38,32,35,43,100,79,49,36,22,23,2,29,51,9,32,34,28,16,13,31,44,59,59,24,144,51,38,25,103,71,92,55,33,29,11,42,29,34,32,58,33,46,15,18,79,96,50,48,67,78,34,38,41,38,29,48,79,92,184,102,114,34,62,32,35,70,48,30,48,22,14,45,24,11,16,38,18,13,20,43,37,115,32,37,21,60,40,28,48,40,74,49,43,43,45,38,31,85,44,42,49,101,95,37,51,51,34,54,8,46,35,32,20,19,35,69,48,42,32,56,66,26,30,38,13,13,38,23,89,28,31,44,59,84,160,23,73,41,39,32,31,113,147,212,191,35,19,60,54,85,37,18,27,18,32,137,47,48,19,39,52,49,23,61,87,108,42,33,68,49,53,30,30,84,60,86,74,69,30,27,26,33,46,14,38,34,49,40,37,28,25,24,53,40,30,52,37,26,69,39,59,47,21,27,87,59,41,52,56,61,61,64,49,57,36,37,31,32,29,14,13,26,32,43,121,51,29,25,28,28,28,50,62,50,72,105,82,164,152,112,31,164,167,59,34,4,99,8,57,44,66,30,58,118,170,93,54,62,114,14,163,17,9,144,135,79,60,62,46,87,85,112,82,28,104,70,71,83,79,73,81,75,120,179,88,80,112,90,62,70,60,40,39,39,35,37,50,53,21,18,30,21,49,53,44,103,89,63,24,29,25,7,13,51,32,27,37,23,47,29,32,30,79,36,36,47,41,24,22,20,30,58,72,59,176,150,118,22,13,88,201,199,182,80,20,126,159,164,257,234,115,18,50,98,138,52,32,45,58,51,76,9,63,128,96,46,189,91,43,49,40,37,58,115,14,269,161,139,19,8,195,44,90,14,306,173,180,226,281,174,31,63,65,85,45,206,343,305,117,340,358,83,18,316,127,74,56,189,166,129,208,95,74,277,152,94,107,79,84,86,260,38,170,235,240,169,87,111,101,53,63,31,38,68,26,154,50,193,228,152,2,25,149,26,75,341,154,164,44,38,191,330,198,114,61,145,145,46,38,41,28,22,36,59,70,50,47,175,134,148,169,44,257,137,109,141,78,68,27,49,19,23,14,33,51,58,53,84,55,82,29,54,23,17,13,23,18,18,9,7,21,20,17,16,15,18,13,23,17,10,38,31,47,18,17,11,9,12,9,7,6,5,12,32,18,3,13,21,22,11,7,7,30,62,42,53,26,11,19,23,41,58,29,46,27,13,45,41,26,21,42,19,19,23,33,22,20,15,26,25,47,16,18,22,16,24,32,51,24,36,61,52,11,15,21,12,19,18,22,15,25,16,18,18,18,15,13,12,11,16,16,13,14,13,11,12,11,13,14,13,15,10,15,20,18,17,35,33,33,21,17,8,21,30,71,34,40,39,35,76,76,39,37,31,28,31,65,38,32,24,63,40,26,30,23,38,49,56,20,8,12,11,15,84,84,30,31,24,34,41,46,40,120,66,19,10,85,206,34,52,43,322,74,29,300,399,84,409,93,49,671,27,48,56,33,31,80,146,9,71,15,9,9,41,39,302,199,31,321,266,179,25,108,159,315,461,22,168,11,21,42,231,210,148,89,49,23,7,31,148,137,373,177,23,125,405,149,220,312,293,47,345,440,97,296,80,28,28,24,25,78,32,51,31,93,111,79,208,181,199,77,48,27,31,33,42,73,88,59,104,193,101,22,130,169,118,138,95,24,8,21,23,74,67,33,18,8,14,23,20,15,10,40,30,39,42,7,25,20,32,31,49,58,32,35,19,18,24,40,115,140,117,72,15,20,30,39,18,51,28,82,49,39,41,10,10,35,52,39,79,52,36,30,180,35],
      "delta_lng":[0,41,40,30,42,50,51,53,12,48,71,50,25,36,38,32,30,46,45,35,40,31,29,34,46,48,49,42,50,61,37,59,58,7,35,33,59,53,56,86,58,7,67,48,85,62,73,45,14,151,78,12,62,72,19,46,65,55,44,42,22,12,40,11,74,71,79,47,86,71,74,67,81,64,84,6,17,18,25,24,24,12,28,26,17,52,21,131,194,177,183,101,52,40,40,78,16,47,33,9,27,36,36,20,2,8,5,3,7,27,8,7,2,3,3,3,6,9,0,-10,-14,-20,-2,-4,-3,2,10,15,5,9,7,3,3,27,34,45,47,41,53,72,147,118,86,66,49,61,9,77,167,25,69,62,37,21,14,34,47,57,60,18,141,51,52,41,160,113,144,89,49,46,15,45,26,24,18,21,8,13,4,4,30,33,15,12,16,17,4,4,3,12,10,31,58,70,142,75,87,27,56,33,40,102,71,46,79,38,31,101,47,22,26,60,22,16,30,54,35,117,37,47,31,110,62,38,61,50,68,35,26,16,12,6,1,-3,-7,-14,-18,-45,-38,-12,-4,4,6,9,0,14,13,13,12,15,30,64,47,43,44,95,117,52,59,83,24,18,44,24,75,22,19,17,17,19,22,1,8,0,-1,-7,-6,-34,-47,-67,-62,-10,-7,-14,-7,-3,3,3,5,4,11,50,15,9,4,3,3,0,-3,-13,-23,-16,0,2,15,12,20,18,25,79,51,78,63,62,33,29,37,44,49,15,38,29,39,28,25,14,13,10,22,14,6,9,2,1,-1,-3,-5,-9,-5,-10,-35,-19,-7,-4,4,5,14,21,26,37,29,34,31,37,42,24,23,49,59,71,222,86,44,34,34,30,25,36,34,30,46,68,55,108,99,71,20,104,102,36,22,2,60,4,36,24,31,12,16,26,32,17,11,11,22,3,33,3,2,27,22,14,9,9,8,17,18,20,17,6,19,12,15,17,15,15,16,15,23,29,16,17,22,18,11,12,5,0,-5,-5,-12,-18,-28,-35,-18,-13,-32,-23,-69,-86,-74,-182,-160,-111,-42,-38,-29,-6,-13,-38,-22,-14,-16,-9,-12,-6,-4,-3,-1,0,-3,-10,-10,-8,-10,-13,-19,-44,-53,-42,-132,-112,-85,-17,-9,-66,-148,-150,-140,-58,-14,-93,-120,-121,-195,-175,-85,-14,-37,-74,-113,-36,-19,-18,-14,-8,-4,0,2,4,3,1,-11,-5,-3,-6,-5,-5,-8,-17,0,-20,-16,-12,-1,-1,-18,-4,-9,0,-31,-15,-16,-20,-27,-17,-3,-6,-8,-8,-4,-23,-37,-29,-12,-33,-39,-8,-3,-30,-12,-8,-5,-18,-15,-12,-19,-9,-7,-22,-17,-14,-9,-2,-4,2,11,1,9,9,13,8,4,4,7,4,11,10,16,26,12,71,22,90,107,72,0,12,67,12,36,155,72,74,21,17,89,150,94,52,29,66,66,23,16,12,6,2,0,-3,-5,-5,-9,-37,-30,-35,-37,-10,-57,-28,-15,-15,-9,-5,1,2,2,4,4,10,18,26,23,37,22,36,13,22,10,9,9,15,12,14,4,8,18,20,20,19,18,27,21,39,32,21,73,59,94,35,31,24,22,31,31,22,27,26,51,143,75,15,54,83,78,32,19,14,61,125,88,94,46,19,21,31,47,65,34,52,31,15,51,47,30,23,48,19,20,21,25,15,14,8,9,7,12,3,3,1,1,0,-1,-4,-1,-3,-6,-4,0,0,-1,1,2,3,6,3,7,7,7,8,9,7,9,8,8,13,12,12,10,15,11,13,12,17,16,17,22,19,26,38,35,29,63,60,62,40,29,15,40,53,125,55,61,60,54,114,114,58,52,44,41,45,93,55,44,35,87,56,35,41,32,53,66,81,28,15,26,23,28,200,211,64,60,39,38,44,44,34,84,48,14,8,63,149,21,28,22,143,32,13,133,175,37,179,40,21,295,11,24,30,23,28,87,165,10,79,15,8,6,33,30,192,128,20,208,176,116,17,68,102,197,302,14,114,11,18,36,196,183,121,69,30,10,4,12,42,43,118,58,7,40,127,49,71,100,93,13,94,118,25,76,20,8,5,1,0,-5,-3,-15,-17,-57,-74,-49,-117,-107,-118,-46,-28,-17,-19,-28,-43,-77,-95,-60,-110,-202,-106,-22,-137,-176,-125,-148,-99,-29,-11,-34,-43,-152,-131,-71,-43,-19,-32,-54,-55,-51,-42,-182,-127,-183,-183,-31,-117,-90,-138,-132,-218,-260,-148,-149,-67,-65,-67,-72,-169,-203,-169,-107,-25,-34,-76,-100,-48,-136,-78,-202,-98,-57,-43,-11,-10,-32,-37,-19,-33,-16,-3,0,16,3]
    },
    {
      "start":"有壁トンネル南",
      "end":"有壁トンネル北",
      "lat":38.87486,
      "lng":141.1161,
      "delta_lat":[0,30,41,73,77,193,86,101,239,199,154,81,41,34,6,71,36,46,42,55,59,98,50,46],
      "delta_lng":[0,4,3,8,9,19,7,8,18,16,14,2,5,4,3,13,8,18,27,43,57,99,53,51]
    },
    {
      "start":"有壁トンネル南",
      "end":"有壁トンネル北",
      "lat":38.87486,
      "lng":141.1161,
      "delta_lat":[0,173,296,96,65,141,261,153,257,61,53,86,42,58,54,62],
      "delta_lng":[0,50,65,21,13,29,55,33,52,13,12,24,16,28,34,44]
    },
    {
      "start":"有壁トンネル北",
      "end":"盛岡",
      "lat":38.89344,
      "lng":141.12098,
      "delta_lat":[0,46,37,48,40,40,39,68,8,17,27,50,38,37,23,29,29,56,288,170,50,22,61,304,108,34,33,25,82,131,62,45,118,97,60,38,125,61,36,31,29,72,105,85,92,36,58,64,39,247,59,52,48,24,38,52,42,16,38,38,35,60,48,80,93,116,150,83,69,114,138,94,115,96,193,96,262,197,101,93,39,75,104,44,104,58,100,134,177,160,124,142,32,58,54,114,100,67,97,120,34,208,259,23,112,25,161,282,90,44,117,112,100,140,116,36,51,74,47,132,98,60,86,43,44,56,48,42,35,17,37,53,47,41,42,32,18,128,93,8,2,89,5,137,62,40,41,33,45,43,66,79,130,22,143,25,6,18,94,120,100,85,36,36,39,43,56,46,30,54,58,49,43,47,25,6,14,16,57,39,38,65,73,45,22,328,240,55,20,69,34,48,65,118,123,114,164,142,169,174,113,38,134,51,128,168,129,37,47,131,43,23,93,162,73,33,73,145,61,168,38,188,56,401,288,170,54,100,102,120,108,105,22,77,82,68,36,53,65,127,238,34,100,111,81,123,73,118,58,173,263,25,121,215,175,119,97,95,52,73,81,226,203,151,167,34,253,154,128,191,71,70,144,227,208,174,149,270,67,28,154,87,40,72,125,94,72,71,103,52,78,79,90,47,33,89,67,110,101,70,76,142,142,20,114,119,103,72,174,116,89,26,236,420,152,9,475,218,275,37,101,63,41,43,41,12,53,33,29,29,40,52,43,65,71,43,284,226,90,280,28,23,36,19,41,103,210,153,192,315,558,88,150,151,185,179,44,22,104,2,91,90,67,41,71,106,199,222,60,151,171,154,106,76,114,93,75,117,135,104,46,59,90,80,61,232,202,64,104,152,127,17,26,74,79,75,74,31,187,33,58,30,339,276,46,191,121,81,128,70,44,20,44,52,38,63,124,28,126,132,89,40,128,87,103,85,103,63,134,97,62,38,126,141,164,148,77,67,184,197,609,291,242,24,417,629,163,322,533,29,131,477,214,100,520,254,2,33,98,293,215,70,232,309,248,332,190,74,25,84,23,16,34,385,109,27,231,291,6,38,30,53,56,79,102,110,34,101,42,32,32,53,46,40,25,23,168,80,61,125,143,420,88,444,140,749,29,62,219,221,178,250,151,17,97,57,209,177,52,96,271,166,41,54,219,209,17,16,107,135,193,40,201,70,16,18,159,50,83,171,53,134,176,163,170,31,30,225,115,134,152,139,259,76,48,182,223,269,27,25,118,85,33,117,217,192,161,102,69,47,111,95,26,119,101,116,84,91,111,73,76,81,28,12,98,110,94,78,27,159,63,103,85,112,83,9,132,107,149,111,114,81,24,73,103,86,149,82,65,76,54,33,28,38,41,38,57,44,69,13,44,98,85,50,19,66,86,36,68,36,75,48,47,69,18,111,58,27,95,62,57,77,68,72,63,56,111,129,99,94,88,65,101,113,111,21,25,148,158,115,83,149,42,33,100,75,120,99,90,68,28,2,33,150,269,385,34,208,22,777,18,293,579,159,211,97,46,406,29,441,177,116,441,110,237,277,151,257,752,148,237,199,36,320,547,353,145,19,288,301,311,308,108,161,60,50,139,82,58,86,57,41,7,60,77,56,163,28,19,24,18,18,29,69,39,61,22,100,16,302],
      "delta_lng":[0,53,47,65,59,60,66,119,11,29,40,60,39,33,16,12,10,15,81,48,11,2,0,-18,-7,3,8,10,52,82,41,30,72,63,38,23,77,35,17,11,14,31,44,35,39,16,26,27,17,108,26,21,17,8,10,7,0,0,-5,-7,-10,-21,-22,-32,-37,-42,-59,-31,-31,-46,-51,-38,-45,-35,-75,-37,-98,-77,-41,-35,-16,-27,-43,-15,-39,-22,-37,-54,-69,-61,-51,-54,-13,-24,-23,-45,-36,-25,-38,-45,-13,-82,-99,-10,-45,-10,-63,-107,-33,-17,-43,-44,-40,-63,-63,-25,-44,-73,-46,-129,-96,-57,-81,-36,-26,-25,-14,-8,-2,-2,1,10,13,12,18,17,9,70,57,5,0,51,3,76,44,32,38,37,56,57,88,109,175,30,194,31,7,25,129,164,134,117,41,35,29,27,33,25,7,15,14,4,0,-2,-3,0,-2,-2,-15,-15,-16,-31,-37,-24,-8,-165,-115,-22,-9,-17,-2,-1,5,11,17,8,13,14,18,15,12,4,10,6,13,17,16,5,5,19,9,6,30,62,28,13,27,54,22,62,15,72,21,152,110,64,21,36,42,44,40,40,8,30,31,26,14,18,25,47,89,12,37,40,30,44,27,43,20,64,96,10,46,79,56,37,25,14,5,9,4,-4,-3,-1,-4,0,-2,-2,-1,-4,2,-2,-1,-2,-4,-3,-1,-4,-1,-2,-2,0,-1,-1,-2,0,-4,-9,-13,-6,-16,-20,-27,-14,-11,-31,-26,-54,-47,-35,-49,-85,-88,-12,-69,-74,-62,-44,-107,-73,-51,-16,-146,-256,-90,-5,-282,-134,-167,-23,-62,-62,-54,-71,-76,-26,-107,-65,-59,-47,-64,-69,-52,-63,-57,-34,-152,-123,-46,-150,-14,-14,-18,-10,-22,-57,-112,-80,-107,-170,-298,-45,-79,-82,-101,-93,-21,-11,-28,0,-11,-3,3,5,14,27,53,65,17,53,65,62,43,27,46,45,43,81,94,72,32,46,67,58,47,176,150,47,81,115,91,13,17,41,39,34,34,14,85,15,26,13,155,123,21,86,49,32,56,33,12,6,9,9,1,-2,-9,-2,-6,-10,-4,-3,-10,-8,-9,-5,-6,-9,-12,-7,-6,-2,-9,-9,-11,-8,-6,-5,-14,-13,-43,-23,-18,-1,-28,-43,-10,-27,-39,-4,-10,-32,-15,-8,-38,-19,0,-4,-18,-67,-50,-17,-51,-72,-59,-78,-45,-18,-6,-21,-4,-5,-5,-91,-26,-5,-56,-69,-3,-9,-4,-6,-4,-4,3,9,2,18,11,10,10,17,17,16,15,11,76,31,23,53,64,182,39,190,59,325,9,26,91,95,74,105,63,8,42,25,88,78,23,40,121,73,18,24,96,89,9,6,47,60,86,16,90,31,6,7,71,22,36,74,23,58,77,71,75,13,13,98,44,46,41,41,71,21,15,51,65,80,7,7,38,24,12,33,65,56,45,30,18,14,31,28,8,35,27,35,24,26,32,21,23,22,8,4,29,31,28,21,10,45,18,31,26,32,25,2,39,32,37,31,29,23,6,18,26,23,38,29,23,22,18,6,9,8,3,1,0,-3,-11,-4,-9,-18,-18,-9,-4,-14,-17,-7,-15,-7,-16,-9,-12,-14,-3,-24,-10,-6,-21,-13,-10,-17,-15,-16,-12,-10,-23,-24,-21,-18,-15,-15,-21,-24,-23,-4,-5,-31,-32,-23,-15,-30,-8,-8,-18,-16,-25,-21,-18,-15,-6,0,-6,-32,-55,-77,-7,-43,-4,-156,-4,-60,-119,-32,-44,-18,-9,-80,-6,-85,-28,-11,2,6,15,20,11,18,55,10,16,13,4,23,43,25,7,1,22,17,24,35,9,9,-6,-5,-26,-30,-29,-60,-45,-32,-5,-53,-80,-63,-172,-34,-27,-39,-42,-26,-32,-67,-36,-55,-20,-95,-18,-330]
    }
  ],
  "impl":true
}