{
  "code":11235,
  "id":"1b770c",
  "name":"JR会津線",
  "name_kana":"じぇいあーるあいづせん",
  "name_formal":"JR会津線",
  "station_size":16,
  "company_code":1,
  "closed":true,
  "station_list":[
    {"code":1122703,"id":"bfbd91","name":"西若松","name_kana":"にしわかまつ","lat":37.486034,"lng":139.914172,"prefecture":7,"lines":[11227,99216,11235],"attr":"heat","postal_code":"965-0853","address":"会津若松市材木町１","next":[1122704,9921602,1122515,1122706,1122702],"voronoi":{"lat":37.507102,"lng":139.873822,"delta_lat":[0,-3730,-31009,576,14365],"delta_lng":[0,-691,33002,50945,-20478]},"impl":true},
    {"code":9921603,"id":"b79d07","name":"門田","name_kana":"もんでん","lat":37.442616,"lng":139.913769,"prefecture":7,"lines":[99216,11235],"attr":"eco","postal_code":"965-0828","address":"会津若松市門田町大字面川字中島","open_date":"1927-11-01","next":[9921604,1122704,9921605,9921602],"voronoi":{"lat":37.451292,"lng":139.901611,"delta_lat":[0,-27961,14737,9153],"delta_lng":[0,-28081,97989,23323]},"impl":true},
    {"code":9921605,"id":"55554e","name":"芦ノ牧温泉","name_kana":"あしのまきおんせん","lat":37.395456,"lng":139.932277,"prefecture":7,"lines":[99216,11235],"attr":"eco","postal_code":"969-5122","address":"会津若松市大戸町上三寄乙","open_date":"1927-11-01","next":[9921606,1122511,9921604,1122507,9921603,1122515,1122506,9921602],"voronoi":{"lat":37.447221,"lng":139.994842,"delta_lat":[0,-9153,-57703,-48175,54412,45272,21914,-24],"delta_lng":[0,-23323,-84012,204133,-21739,-22103,-28315,-1326]},"impl":true},
    {"code":9921606,"id":"4c4ecc","name":"大川ダム公園","name_kana":"おおかわだむこうえん","lat":37.34685,"lng":139.920806,"prefecture":7,"lines":[99216,11235],"attr":"eco","postal_code":"969-5133","address":"会津若松市大戸町大字大川ロクロ石乙","open_date":"1968-10-17","next":[9921607,9921605,1122705,9921604,9921608,1122506],"voronoi":{"lat":37.33219,"lng":140.091639,"delta_lat":[0,48175,-2462,-3832,-24222,-41484],"delta_lng":[0,-204133,-54702,-5973,40433,238214]},"impl":true},
    {"code":9921607,"id":"d87d92","name":"芦ノ牧温泉南","name_kana":"あしのまきおんせんみなみ","lat":37.334573,"lng":139.918668,"prefecture":7,"lines":[99216,11235],"attr":"eco","postal_code":"969-5133","address":"会津若松市大戸町大字大川字大平甲","open_date":"1932-12-22","next":[100407,9921606,9921609,9921608,1122506],"voronoi":{"lat":37.308365,"lng":140.105478,"delta_lat":[0,41484,-52356,-40059,43530],"delta_lng":[0,-238214,67993,140831,34022]},"impl":true},
    {"code":9921608,"id":"31ff0a","name":"湯野上温泉","name_kana":"ゆのかみおんせん","lat":37.304056,"lng":139.895169,"prefecture":7,"lines":[99216,11235],"attr":"eco","postal_code":"969-5206","address":"南会津郡下郷町大字湯野上字大島","open_date":"1932-12-22","next":[9921611,9921607,9921610,9921606,1122705,9921609],"voronoi":{"lat":37.349849,"lng":139.867264,"delta_lat":[0,24222,-21127,-63923,-2722,11194],"delta_lng":[0,-40433,-65371,103374,19602,50821]},"impl":true},
    {"code":9921610,"id":"d7405f","name":"弥五島","name_kana":"やごしま","lat":37.26629,"lng":139.889924,"prefecture":7,"lines":[99216,11235],"attr":"eco","postal_code":"969-5204","address":"南会津郡下郷町大字弥五島字寺下","open_date":"1934-12-27","next":[1123102,9921609,9921608,9921611,9921612],"voronoi":{"lat":37.134762,"lng":139.993186,"delta_lat":[0,151538,2722,-52978,-114868],"delta_lng":[0,-108749,-19602,23585,86205]},"impl":true},
    {"code":9921611,"id":"3a515e","name":"会津下郷","name_kana":"あいづしもごう","lat":37.255166,"lng":139.864937,"prefecture":7,"lines":[99216,11235],"attr":"eco","postal_code":"969-5311","address":"南会津郡下郷町大字豊成字下モ","open_date":"1934-12-27","next":[9921608,1122705,9921614,9921610,9921616,9921612,9921615],"voronoi":{"lat":37.340703,"lng":139.755776,"delta_lat":[0,10930,1311,-63923,-52978,42529,8706],"delta_lng":[0,-6258,11943,103374,23585,-86174,-8466]},"impl":true},
    {"code":9921613,"id":"a7cac0","name":"養鱒公園","name_kana":"ようそんこうえん","lat":37.224499,"lng":139.841794,"prefecture":7,"lines":[99216,11235],"attr":"cool","postal_code":"969-5343","address":"南会津郡下郷町大字落合字下ノ原","open_date":"1947-09-20","next":[9921614,1123102,9921612,100406,1123101],"voronoi":{"lat":37.119998,"lng":139.973354,"delta_lat":[0,157569,-211071,6475,29832],"delta_lng":[0,-170312,109019,10588,34745]},"impl":true},
    {"code":9921614,"id":"b1fd32","name":"会津長野","name_kana":"あいづながの","lat":37.21525,"lng":139.823887,"prefecture":7,"lines":[99216,11235],"attr":"cool","postal_code":"967-0001","address":"南会津郡南会津町長野字下谷地","open_date":"1934-12-27","next":[9921613,9921619,9921612,9921615,9921611,100406,9934108],"voronoi":{"lat":37.085882,"lng":139.850278,"delta_lat":[0,12707,188689,-8706,-1005,-211071,-9426],"delta_lng":[0,-9757,-46742,8466,796,109019,-13568]},"impl":true},
    {"code":9921615,"id":"a8f85f","name":"田島高校前","name_kana":"たじまこうこうまえ","lat":37.209525,"lng":139.800776,"prefecture":7,"lines":[99216,11235],"attr":"cool","postal_code":"967-0004","address":"南会津郡南会津町田島字田部原","open_date":"1951-12-01","next":[9921619,9921614,9921617,9921616,9921611],"voronoi":{"lat":37.340703,"lng":139.755776,"delta_lat":[0,-186812,-32472,-22830,188689],"delta_lng":[0,44164,19057,21525,-46742]},"impl":true},
    {"code":9921616,"id":"91e468","name":"会津田島","name_kana":"あいづたじま","lat":37.203261,"lng":139.774279,"prefecture":7,"lines":[99216,11235],"attr":"heat","postal_code":"967-0004","address":"南会津郡南会津町田島字西番場甲","open_date":"1934-12-27","next":[1122714,1122717,9921617,9921615,9921611,1122705],"voronoi":{"lat":37.340703,"lng":139.755776,"delta_lat":[0,-186812,153778,40495,3793,-324],"delta_lng":[0,44164,-151490,85308,14468,1292]},"impl":true},
    {"code":9921617,"id":"771616","name":"中荒井","name_kana":"なかあらい","lat":37.180289,"lng":139.75096,"prefecture":7,"lines":[99216,11235],"attr":"heat","postal_code":"967-0005","address":"南会津郡南会津町中荒井字長畔","open_date":"1947-12-12","next":[1122718,9921615,1122723,9921619,1122717,9921616,9921618],"voronoi":{"lat":37.264072,"lng":139.590469,"delta_lat":[0,28697,6260,8640,-153778,-32472,18050],"delta_lng":[0,22260,11523,24197,151490,19057,-34004]},"impl":true},
    {"code":9921618,"id":"72a78c","name":"会津荒海","name_kana":"あいづあらかい","lat":37.153317,"lng":139.733683,"prefecture":7,"lines":[99216,11235],"attr":"heat","postal_code":"967-0013","address":"南会津郡南会津町関本字百一","open_date":"1947-12-12","next":[1122723,9921620,9921617,9921619],"voronoi":{"lat":37.156118,"lng":139.694486,"delta_lat":[0,75193,32762,-124603],"delta_lng":[0,-134434,30418,194523]},"impl":true},
    {"code":9921620,"id":"ff8893","name":"七ヶ岳登山口","name_kana":"ななつがたけとざんぐち","lat":37.124184,"lng":139.717388,"prefecture":7,"lines":[99216,11235],"attr":"heat","postal_code":"967-0014","address":"福島県南会津郡南会津町糸沢字下宮之原2449-2","open_date":"1953-11-08","next":[9921618,1122723,9921621,9921619,9934108],"voronoi":{"lat":37.089402,"lng":139.760695,"delta_lat":[0,91754,50155,-75193,-64664],"delta_lng":[0,-256161,55518,134434,90471]},"impl":true},
    {"code":9921621,"id":"593b96","name":"会津高原尾瀬口","name_kana":"あいづこうげんおぜぐち","lat":37.090026,"lng":139.705153,"prefecture":7,"lines":[99216,99341,11235],"attr":"heat","postal_code":"967-0015","address":"南会津郡南会津町滝原字羽根子","open_date":"1953-11-08","next":[9934106,1122729,9934108,1122724,1122723,9921620,1122728],"voronoi":{"lat":37.085202,"lng":139.420026,"delta_lat":[0,-22026,-21181,47406,91754,-7648,-34276],"delta_lng":[0,-11152,244829,106991,-256161,-10013,-38479]},"impl":true}
  ],
  "closed_date":"1987-07-16",
  "impl":false
}