{
  "code":11234,
  "id":"b0ea32",
  "name":"JR長井線",
  "name_kana":"じぇいあーるながいせん",
  "name_formal":"JR長井線",
  "station_size":13,
  "company_code":1,
  "closed":true,
  "station_list":[
    {"code":1121612,"id":"9ee105","name":"赤湯","name_kana":"あかゆ","lat":38.047081,"lng":140.148978,"prefecture":6,"lines":[11216,99211,11234],"attr":"eco","postal_code":"999-2241","address":"南陽市郡山","next":[9921105,1121611,9923302,9921102,9921104,9923303,1121613],"voronoi":{"lat":38.02954,"lng":140.163051,"delta_lat":[0,-10751,-1498,17950,15584,2666,-17],"delta_lng":[0,-25139,-21405,3604,11300,59033,14]},"impl":true},
    {"code":9921103,"id":"59a3cb","name":"宮内(山形)","original_name":"宮内","name_kana":"みやうち","lat":38.070849,"lng":140.135293,"prefecture":6,"lines":[99211,11234],"attr":"heat","postal_code":"992-0472","address":"南陽市宮内字冨貴田","open_date":"1913-10-26","next":[1121613,9921102,9921104,9921116,1121614],"voronoi":{"lat":38.086881,"lng":140.167847,"delta_lat":[0,-31156,71178,13224,-2747],"delta_lng":[0,-34523,-24769,40883,1763]},"impl":true},
    {"code":9921104,"id":"9f3c1e","name":"おりはた","name_kana":"おりはた","lat":38.066359,"lng":140.12239,"prefecture":6,"lines":[99211,11234],"attr":"heat","postal_code":"992-0474","address":"南陽市漆山字東屋敷","open_date":"1959-06-01","next":[9921116,9921102,1121612,9921112,9921110,9921103,9921105,9921113],"voronoi":{"lat":38.126904,"lng":140.108554,"delta_lat":[0,-71178,-4900,-15584,79283,776,6768,2856],"delta_lng":[0,24769,-1913,-11300,-29487,350,5009,2934]},"impl":true},
    {"code":9921105,"id":"03e4e2","name":"梨郷","name_kana":"りんごう","lat":38.057307,"lng":140.098051,"prefecture":6,"lines":[99211,11234],"attr":"heat","postal_code":"992-0478","address":"南陽市竹原字上千刈田","open_date":"1913-10-26","next":[1121612,9921109,1121907,1121611,1121905,9921110,9921106,9921104],"voronoi":{"lat":38.114525,"lng":140.090624,"delta_lat":[0,-6348,-10536,-67443,-22473,-1668,11235,17950],"delta_lng":[0,-4837,-6683,3670,15616,4782,13335,3604]},"impl":true},
    {"code":9921106,"id":"cea736","name":"西大塚","name_kana":"にしおおつか","lat":38.055489,"lng":140.064644,"prefecture":6,"lines":[99211,11234],"attr":"heat","postal_code":"992-0601","address":"東置賜郡川西町大字西大塚字大野","open_date":"1914-11-15","next":[1121908,9921108,1121907,9921105,9921109],"voronoi":{"lat":38.030198,"lng":140.082773,"delta_lat":[0,12205,38191,709,16338],"delta_lng":[0,-29197,2248,428,22851]},"impl":true},
    {"code":1121908,"id":"7b6359","name":"今泉","name_kana":"いまいずみ","lat":38.056697,"lng":140.04412,"prefecture":6,"lines":[11219,99211,11234],"attr":"eco","postal_code":"993-0033","address":"長井市今泉","next":[1121907,9921106,1121910,1121909,9921108],"voronoi":{"lat":38.057297,"lng":140.023912,"delta_lat":[0,-16698,-5704,7508,38191],"delta_lng":[0,-2143,2067,29741,2248]},"impl":true},
    {"code":9921108,"id":"d5aab0","name":"時庭","name_kana":"ときにわ","lat":38.076727,"lng":140.029498,"prefecture":6,"lines":[99211,11234],"attr":"heat","postal_code":"993-0035","address":"長井市時庭字細川","open_date":"1914-11-15","next":[1121909,9921106,9921109,1121908],"voronoi":{"lat":38.081302,"lng":140.056253,"delta_lat":[0,13103,-37109,23297],"delta_lng":[0,-54213,21872,31913]},"impl":true},
    {"code":9921109,"id":"767189","name":"南長井","name_kana":"みなみながい","lat":38.097592,"lng":140.034541,"prefecture":6,"lines":[99211,11234],"attr":"heat","postal_code":"993-0015","address":"長井市四ツ谷１丁目","open_date":"1960-05-20","next":[9921105,1121909,9921108,9921106,9921110],"voronoi":{"lat":38.097791,"lng":139.998047,"delta_lat":[0,-3386,-13103,16338,10536],"delta_lng":[0,3993,54213,22851,6683]},"impl":true},
    {"code":9921110,"id":"922043","name":"長井","name_kana":"ながい","lat":38.106505,"lng":140.033486,"prefecture":6,"lines":[99211,11234],"attr":"eco","postal_code":"993-0084","address":"長井市栄町","open_date":"1914-11-15","next":[9921111,9921105,9921104,9921112,9921109,1121909],"voronoi":{"lat":38.1056,"lng":139.98613,"delta_lat":[0,9949,-248,-776,-6348,-10385],"delta_lng":[0,100785,4059,-350,-4837,-87740]},"impl":true},
    {"code":9921112,"id":"b5cbdc","name":"羽前成田","name_kana":"うぜんなりた","lat":38.131038,"lng":140.034987,"prefecture":6,"lines":[99211,11234],"attr":"eco","postal_code":"993-0075","address":"長井市成田字熊之堂","open_date":"1922-12-11","next":[1121913,1121912,1121909,9921104,9921110,9921111,9921113],"voronoi":{"lat":38.1867,"lng":139.89278,"delta_lat":[0,-24978,-18174,-7485,-20515,-248,6768],"delta_lng":[0,9408,11447,16833,156447,4059,5009]},"impl":true},
    {"code":9921114,"id":"31e747","name":"蚕桑","name_kana":"こぐわ","lat":38.161588,"lng":140.046757,"prefecture":6,"lines":[99211,11234],"attr":"eco","postal_code":"992-0773","address":"西置賜郡白鷹町大字高玉字鹿島前","open_date":"1922-12-11","next":[1121913,9921113,1121915,9921115,1121422,9923210],"voronoi":{"lat":38.381458,"lng":139.818581,"delta_lat":[0,-11078,-42278,-84832,-112503,224503],"delta_lng":[0,-7547,14278,41840,227277,-193057]},"impl":true},
    {"code":9921115,"id":"4a9400","name":"鮎貝","name_kana":"あゆかい","lat":38.182517,"lng":140.071095,"prefecture":6,"lines":[99211,11234],"attr":"cool","postal_code":"992-0771","address":"西置賜郡白鷹町大字鮎貝字遠藤清水","open_date":"1922-12-11","next":[9921113,9921117,9923210,9921114,9921116],"voronoi":{"lat":38.149556,"lng":140.09169,"delta_lat":[0,181424,24289,-224503,-1348],"delta_lng":[0,-91077,-99241,193057,1458]},"impl":true},
    {"code":9921116,"id":"94791d","name":"荒砥","name_kana":"あらと","lat":38.188,"lng":140.097401,"prefecture":6,"lines":[99211,11234],"attr":"cool","postal_code":"992-0831","address":"西置賜郡白鷹町大字荒砥甲字中道","open_date":"1923-04-22","next":[9921104,9923210,1121804,1121614,9921117,9921103,1121812,9921115,9921113],"voronoi":{"lat":38.126904,"lng":140.108554,"delta_lat":[0,13224,85115,55563,28962,5167,-165378,-20138,-4494],"delta_lng":[0,40883,44939,-34057,-50800,-36477,18647,4197,3030]},"impl":true}
  ],
  "closed_date":"1988-10-25",
  "impl":false
}