{
  "code":11302,
  "name":"JR山手線",
  "color":"#9ACD32",
  "symbol":"JY",
  "station_list":[
    {"code":1130201,"id":"d3bfe4","name":"大崎","name_kana":"おおさき","lat":35.619772,"lng":139.728439,"prefecture":13,"numbering":[{"index":"24"}],"lines":[11302,11321,11333,99337],"attr":"cool","postal_code":"141-0032","address":"東京都品川区大崎一丁目21-4"},
    {"code":1130202,"id":"11eb04","name":"五反田","name_kana":"ごたんだ","lat":35.625974,"lng":139.723822,"prefecture":13,"numbering":[{"index":"23"}],"lines":[11302,26005,99302],"attr":"eco","postal_code":"141-0022","address":"東京都品川区東五反田一丁目26"},
    {"code":1130203,"id":"0db398","name":"目黒","name_kana":"めぐろ","lat":35.633923,"lng":139.715775,"prefecture":13,"numbering":[{"index":"22"}],"lines":[11302,26002,28009,99303],"attr":"eco","postal_code":"141-0021","address":"東京都品川区上大崎二丁目16-9"},
    {"code":1130204,"id":"43da5d","name":"恵比寿","name_kana":"えびす","lat":35.646685,"lng":139.71007,"prefecture":13,"numbering":[{"index":"21"}],"lines":[11302,11321,11333,28003],"attr":"cool","postal_code":"150-0022","address":"東京都渋谷区恵比寿南一丁目5-5"},
    {"code":1130205,"id":"8e9a53","name":"渋谷","name_kana":"しぶや","lat":35.658871,"lng":139.701238,"prefecture":13,"numbering":[{"index":"20"}],"lines":[11302,11321,11328,11333,24006,26001,26003,28001,28008,28010],"attr":"cool","postal_code":"150-0043","address":"東京都渋谷区道玄坂一丁目1-1"},
    {"code":1130206,"id":"b8b871","name":"原宿","name_kana":"はらじゅく","lat":35.670646,"lng":139.702592,"prefecture":13,"numbering":[{"index":"19"}],"lines":[11302],"attr":"cool","postal_code":"150-0001","address":"東京都渋谷区神宮前一丁目18"},
    {"code":1130207,"id":"946224","name":"代々木","name_kana":"よよぎ","lat":35.683061,"lng":139.702042,"prefecture":13,"numbering":[{"index":"18"}],"lines":[11302,11313,99301],"attr":"cool","postal_code":"151-0053","address":"東京都渋谷区代々木一丁目34-1"},
    {"code":1130208,"id":"3ff383","name":"新宿","name_kana":"しんじゅく","lat":35.689729,"lng":139.700464,"prefecture":13,"numbering":[{"index":"17"}],"lines":[11302,11311,11312,11313,11321,11328,11333,24001,25001,28002,99301,99304],"attr":"heat","postal_code":"160-0022","address":"東京都新宿区新宿三丁目38-1"},
    {"code":1130209,"id":"7966f6","name":"新大久保","name_kana":"しんおおくぼ","lat":35.700875,"lng":139.700261,"prefecture":13,"numbering":[{"index":"16"}],"lines":[11302],"attr":"eco","postal_code":"169-0073","address":"東京都新宿区百人町一丁目10-15"},
    {"code":1130210,"id":"4cf552","name":"高田馬場","name_kana":"たかだのばば","lat":35.712677,"lng":139.703715,"prefecture":13,"numbering":[{"index":"15"}],"lines":[11302,22007,28004],"attr":"eco","postal_code":"169-0075","address":"東京都新宿区高田馬場一丁目35-1"},
    {"code":1130211,"id":"9d7927","name":"目白","name_kana":"めじろ","lat":35.720476,"lng":139.706228,"prefecture":13,"numbering":[{"index":"14"}],"lines":[11302],"attr":"eco","postal_code":"171-0031","address":"東京都豊島区目白三丁目3-1"},
    {"code":1130212,"id":"a4dfd2","name":"池袋","name_kana":"いけぶくろ","lat":35.730256,"lng":139.711086,"prefecture":13,"numbering":[{"index":"13"}],"lines":[11302,11321,11328,11333,21001,22001,28002,28006,28010],"attr":"heat","postal_code":"171-0022","address":"東京都豊島区南池袋一丁目28-2"},
    {"code":1130213,"id":"839988","name":"大塚(東京)","name_kana":"おおつか","lat":35.731412,"lng":139.728584,"prefecture":13,"numbering":[{"index":"12"}],"lines":[11302],"attr":"heat","postal_code":"170-0005","address":"東京都豊島区南大塚三丁目33-1"},
    {"code":1130214,"id":"e3310a","name":"巣鴨","name_kana":"すがも","lat":35.733445,"lng":139.739303,"prefecture":13,"numbering":[{"index":"11"}],"lines":[11302,99303],"attr":"heat","postal_code":"170-0002","address":"東京都豊島区巣鴨一丁目16-1"},
    {"code":1130215,"id":"fca8bb","name":"駒込","name_kana":"こまごめ","lat":35.736825,"lng":139.748053,"prefecture":13,"numbering":[{"index":"10"}],"lines":[11302,28009],"attr":"heat","postal_code":"170-0003","address":"東京都豊島区駒込二丁目1-1"},
    {"code":1130216,"id":"fc4da0","name":"田端","name_kana":"たばた","lat":35.737781,"lng":139.761229,"prefecture":13,"numbering":[{"index":"09"}],"lines":[11302,11332],"attr":"heat","postal_code":"114-0013","address":"東京都北区東田端一丁目17-1"},
    {"code":1130217,"id":"202b50","name":"西日暮里","name_kana":"にしにっぽり","lat":35.731954,"lng":139.766857,"prefecture":13,"numbering":[{"index":"08"}],"lines":[11302,11332,28005,99342],"attr":"heat","postal_code":"116-0013","address":"東京都荒川区西日暮里五丁目22-1"},
    {"code":1130218,"id":"84218b","name":"日暮里","name_kana":"にっぽり","lat":35.727908,"lng":139.771287,"prefecture":13,"numbering":[{"index":"07"}],"lines":[11302,11320,11332,23001,23006,99342],"attr":"heat","postal_code":"116-0013","address":"東京都荒川区西日暮里二丁目19-1"},
    {"code":1130219,"id":"7011f0","name":"鶯谷","name_kana":"うぐいすだに","lat":35.721484,"lng":139.778015,"prefecture":13,"numbering":[{"index":"06"}],"lines":[11302,11332],"attr":"heat","postal_code":"110-0003","address":"東京都台東区根岸一丁目4-1"},
    {"code":100402,"id":"93946c","name":"上野","name_kana":"うえの","lat":35.71379,"lng":139.777043,"prefecture":13,"numbering":[{"index":"05"}],"lines":[11302,11319,11320,11323,11332,11343,28001,28003,1004,1005],"attr":"heat","postal_code":"110-0005","address":"東京都台東区上野七丁目1-1"},
    {"code":1130221,"id":"571f00","name":"御徒町","name_kana":"おかちまち","lat":35.707282,"lng":139.774727,"prefecture":13,"numbering":[{"index":"04"}],"lines":[11302,11332],"attr":"heat","postal_code":"110-0005","address":"東京都台東区上野五丁目27"},
    {"code":1130222,"id":"41a869","name":"秋葉原","name_kana":"あきはばら","lat":35.69862,"lng":139.77329,"prefecture":13,"numbering":[{"index":"03"}],"lines":[11302,11313,11332,28003,99309],"attr":"heat","postal_code":"101-0021","address":"東京都千代田区外神田一丁目17"},
    {"code":1130223,"id":"d0d7ec","name":"神田(東京)","name_kana":"かんだ","lat":35.691173,"lng":139.770641,"prefecture":13,"numbering":[{"index":"02"}],"lines":[11302,11312,11332,28001],"attr":"heat","postal_code":"101-0044","address":"東京都千代田区鍛冶町二丁目13-1"},
    {"code":100201,"id":"8b222f","name":"東京","name_kana":"とうきょう","lat":35.681391,"lng":139.766103,"prefecture":13,"numbering":[{"index":"01"}],"lines":[11301,11302,11308,11311,11312,11314,11326,11328,11332,11343,28002,1002,1004,1005],"attr":"heat","postal_code":"100-0005","address":"東京都千代田区丸の内一丁目"},
    {"code":1130225,"id":"7a9dfd","name":"有楽町","name_kana":"ゆうらくちょう","lat":35.675441,"lng":139.763806,"prefecture":13,"numbering":[{"index":"30"}],"lines":[11302,11332,28006],"attr":"heat","postal_code":"100-0006","address":"東京都千代田区有楽町二丁目9"},
    {"code":1130102,"id":"c3891c","name":"新橋","name_kana":"しんばし","lat":35.666195,"lng":139.758587,"prefecture":13,"numbering":[{"index":"29"}],"lines":[11301,11302,11308,11332,28001,99302,99311],"attr":"heat","postal_code":"105-0004","address":"東京都港区新橋二丁目17"},
    {"code":1130227,"id":"d22a54","name":"浜松町","name_kana":"はままつちょう","lat":35.655391,"lng":139.757135,"prefecture":13,"numbering":[{"index":"28"}],"lines":[11302,11332,99336],"attr":"heat","postal_code":"105-0022","address":"東京都港区海岸一丁目3-1"},
    {"code":1130228,"id":"ddf57e","name":"田町(東京)","name_kana":"たまち","lat":35.645736,"lng":139.747575,"prefecture":13,"numbering":[{"index":"27"}],"lines":[11302,11332],"attr":"heat","postal_code":"108-0014","address":"東京都港区芝五丁目33-36"},
    {"code":1130230,"id":"654c8f","name":"高輪ゲートウェイ","name_kana":"たかなわげーとうぇい","lat":35.635468,"lng":139.740749,"prefecture":13,"numbering":[{"index":"26"}],"lines":[11302,11332],"attr":"heat","postal_code":"108-0075","address":"港区港南二丁目10-145"},
    {"code":100202,"id":"73e262","name":"品川","name_kana":"しながわ","lat":35.62876,"lng":139.738999,"prefecture":13,"numbering":[{"index":"25"}],"lines":[11301,11302,11308,11328,11332,27001,1002],"attr":"heat","postal_code":"108-0074","address":"東京都港区高輪三丁目26-27"}
  ],
  "north":35.74053,
  "south":35.61677,
  "east":139.77969,
  "west":139.6994,
  "polyline_list":[
    {
      "start":"品川",
      "end":"田端",
      "lat":35.62549,
      "lng":139.73881,
      "delta_lat":[0,-48,-46,-4,-112,-21,-58,-200,-12,-17,-130,-32,-41,-67,-20,-13,-20,-4,-14,-6,-7,4,18,9,9,8,7,16,12,17,39,14,82,165,185,153,31,79,18,19,110,55,22,31,26,56,26,56,31,52,57,52,148,43,42,26,26,31,15,45,98,17,17,77,29,71,12,15,7,10,12,24,7,27,77,37,43,132,73,26,38,65,64,56,47,150,27,34,119,24,118,27,5,36,60,31,17,57,48,9,4,7,124,104,129,23,39,95,27,23,7,19,9,13,45,158,31,107,30,301,28,212,24,20,20,7,14,15,52,68,46,63,119,151,63,31,84,103,72,197,35,31,96,61,47,141,60,115,94,73,90,7,36,242,34,26,36,23,106,88,51,41,23,49,131,52,63,121,163,47,101,67,96,448,34,80,123,179,45,16,44,28,39,14,22,33,19,11,255,14,44,211,37,225,212,285,249,120,32,45,13,19,20,21,16,11,6,-2,-4,-16,-34,-35,-88,-73,-49,-3,-16,-7,-11,-17,-10,-3,1,12,20,37,63,78,27,94,115,38,45,5,12,102,2,11,36,14,97,114,7,7,9,13,3,2,2,-5,-42,-40,-76,-15,-12,-38,-156],
      "delta_lng":[0,-15,-11,0,-26,-6,-11,-48,-2,-9,-58,-27,-34,-74,-33,-19,-54,-10,-45,-57,-62,-53,-78,-30,-20,-18,-13,-28,-17,-21,-39,-13,-62,-127,-133,-109,-23,-61,-13,-15,-86,-59,-31,-45,-47,-125,-57,-128,-57,-59,-46,-31,-52,-10,-12,-5,-6,-7,-5,-10,-24,-3,-3,4,-6,-25,-7,-12,-6,-9,-11,-19,-4,-14,-36,-12,-9,-72,-41,-18,-22,-35,-36,-30,-25,-83,-15,-19,-67,-14,-65,-15,-3,-31,-51,-33,-15,-46,-43,-6,-5,-5,-111,-93,-113,-20,-27,-37,-8,-5,-2,-4,-2,2,5,19,5,13,4,37,4,26,4,2,2,0,1,3,7,14,11,19,51,54,12,0,2,-15,-14,-54,-9,-9,-35,-22,-16,-36,-27,-49,-39,-27,-26,-1,-10,-20,-1,-1,-3,-5,-27,-20,-7,2,1,9,34,13,7,13,13,6,15,12,33,160,12,28,44,60,16,5,14,10,14,4,8,12,6,4,83,3,15,64,19,123,113,135,117,68,23,50,22,33,35,61,56,55,56,65,41,79,147,129,335,272,199,13,65,25,44,73,60,56,67,76,77,90,147,177,63,218,291,95,118,29,20,212,5,23,70,28,193,231,16,16,24,44,21,18,24,61,167,49,93,17,14,44,181]
    },
    {
      "start":"品川",
      "end":"田町",
      "lat":35.62549,
      "lng":139.73881,
      "delta_lat":[0,59,29,32,31,227,86,134,153,59,59,40,25,81,162,74,75,98,27,96,36,16,69,36],
      "delta_lng":[0,2,-7,-6,-7,-19,-1,-3,0,7,13,13,11,40,91,42,40,54,12,36,11,6,59,35]
    },
    {
      "start":"田町",
      "end":"東京",
      "lat":35.64253,
      "lng":139.7431,
      "delta_lat":[0,50,29,41,57,98,9,74,155,67,55,79,54,52,123,74,87,111,146,24,40,280,29,97,63,62,81,141,127,162,101,20,22,23,27,78,152,20,81,29,26,37,36,38,38,112,37,29,36,49],
      "delta_lng":[0,40,26,42,85,174,20,127,329,141,77,99,44,36,59,33,24,31,31,6,11,72,7,22,11,3,0,-18,-16,-12,3,2,7,10,15,48,81,11,43,20,20,41,44,47,48,144,46,27,28,24]
    },
    {
      "start":"東京",
      "end":"田端",
      "lat":35.67711,
      "lng":139.76523,
      "delta_lat":[0,532,313,199,286,279,167,96,73,122,206,184,171,263,215,81,65,78,56,82,75,235,178,97,63,68,71,53,94,125,268,119,113,127,141,169,152,122,198,22],
      "delta_lng":[0,197,114,68,131,125,66,37,19,13,30,21,56,52,32,4,-4,-11,-6,19,49,185,141,82,21,5,-17,-26,-80,-135,-300,-140,-166,-149,-122,-138,-98,-123,-206,-21]
    }
  ]
}