{
  "code":11303,
  "name":"JR南武線",
  "color":"#FFD400",
  "symbol":"JN",
  "station_list":[
    {"code":1130104,"id":"c7e5b9","name":"川崎","name_kana":"かわさき","lat":35.531311,"lng":139.697485,"prefecture":14,"numbering":[{"index":"01"}],"lines":[11301,11303,11332],"attr":"cool","postal_code":"210-0007","address":"川崎市川崎区駅前本町"},
    {"code":1130302,"id":"243d86","name":"尻手","name_kana":"しって","lat":35.530939,"lng":139.684233,"prefecture":14,"numbering":[{"index":"02"}],"lines":[11303],"attr":"cool","postal_code":"212-0016","address":"川崎市幸区南幸町３丁目"},
    {"code":1130303,"id":"18f4b1","name":"矢向","name_kana":"やこう","lat":35.539408,"lng":139.68055,"prefecture":14,"numbering":[{"index":"03"}],"lines":[11303],"attr":"cool","postal_code":"230-0001","address":"横浜市鶴見区矢向６丁目"},
    {"code":1130304,"id":"2cf3d6","name":"鹿島田","name_kana":"かしまだ","lat":35.551459,"lng":139.674964,"prefecture":14,"numbering":[{"index":"04"}],"lines":[11303],"attr":"cool","postal_code":"212-0058","address":"川崎市幸区鹿島田"},
    {"code":1130305,"id":"e76796","name":"平間","name_kana":"ひらま","lat":35.560565,"lng":139.671039,"prefecture":14,"numbering":[{"index":"05"}],"lines":[11303],"attr":"cool","postal_code":"211-0014","address":"川崎市中原区田尻町"},
    {"code":1130306,"id":"970f78","name":"向河原","name_kana":"むかいがわら","lat":35.572891,"lng":139.66725,"prefecture":14,"numbering":[{"index":"06"}],"lines":[11303],"attr":"cool","postal_code":"211-0011","address":"川崎市中原区下沼部"},
    {"code":1130307,"id":"7b401a","name":"武蔵小杉","name_kana":"むさしこすぎ","lat":35.576692,"lng":139.659634,"prefecture":14,"numbering":[{"index":"07"}],"lines":[11303,11308,11328,11333,26001,26002],"attr":"cool","postal_code":"211-0063","address":"川崎市中原区小杉町三丁目492"},
    {"code":1130308,"id":"170d57","name":"武蔵中原","name_kana":"むさしなかはら","lat":35.581498,"lng":139.640613,"prefecture":14,"numbering":[{"index":"08"}],"lines":[11303],"attr":"cool","postal_code":"211-0053","address":"川崎市中原区上小田中"},
    {"code":1130309,"id":"56b185","name":"武蔵新城","name_kana":"むさししんじょう","lat":35.587369,"lng":139.629419,"prefecture":14,"numbering":[{"index":"09"}],"lines":[11303],"attr":"cool","postal_code":"211-0045","address":"川崎市中原区上新城２丁目"},
    {"code":1130310,"id":"8c0c30","name":"武蔵溝ノ口","name_kana":"むさしみぞのくち","lat":35.598923,"lng":139.61139,"prefecture":14,"numbering":[{"index":"10"}],"lines":[11303],"attr":"cool","postal_code":"213-0001","address":"川崎市高津区溝口"},
    {"code":1130311,"id":"4aeae3","name":"津田山","name_kana":"つだやま","lat":35.604259,"lng":139.600002,"prefecture":14,"numbering":[{"index":"11"}],"lines":[11303],"attr":"heat","postal_code":"213-0033","address":"川崎市高津区下作延"},
    {"code":1130312,"id":"58e5c8","name":"久地","name_kana":"くじ","lat":35.610363,"lng":139.592714,"prefecture":14,"numbering":[{"index":"12"}],"lines":[11303],"attr":"heat","postal_code":"213-0032","address":"川崎市高津区久地"},
    {"code":1130313,"id":"53a6a5","name":"宿河原","name_kana":"しゅくがわら","lat":35.615429,"lng":139.579565,"prefecture":14,"numbering":[{"index":"13"}],"lines":[11303],"attr":"heat","postal_code":"214-0021","address":"川崎市多摩区宿河原"},
    {"code":1130314,"id":"f1bdd7","name":"登戸","name_kana":"のぼりと","lat":35.620889,"lng":139.570028,"prefecture":14,"numbering":[{"index":"14"}],"lines":[11303,25001],"attr":"heat","postal_code":"214-0014","address":"川崎市多摩区登戸"},
    {"code":1130315,"id":"79077e","name":"中野島","name_kana":"なかのしま","lat":35.630135,"lng":139.5501,"prefecture":14,"numbering":[{"index":"15"}],"lines":[11303],"attr":"eco","postal_code":"214-0012","address":"川崎市多摩区中野島"},
    {"code":1130316,"id":"75712c","name":"稲田堤","name_kana":"いなだづつみ","lat":35.633701,"lng":139.535173,"prefecture":14,"numbering":[{"index":"16"}],"lines":[11303],"attr":"eco","postal_code":"214-0003","address":"川崎市多摩区菅稲田堤１丁目"},
    {"code":1130317,"id":"e40217","name":"矢野口","name_kana":"やのくち","lat":35.641305,"lng":139.520849,"prefecture":13,"numbering":[{"index":"17"}],"lines":[11303],"attr":"heat","postal_code":"206-0812","address":"稲城市矢野口"},
    {"code":1130318,"id":"83312c","name":"稲城長沼","name_kana":"いなぎながぬま","lat":35.644184,"lng":139.502811,"prefecture":13,"numbering":[{"index":"18"}],"lines":[11303],"attr":"heat","postal_code":"206-0802","address":"稲城市東長沼"},
    {"code":1130319,"id":"382e37","name":"南多摩","name_kana":"みなみたま","lat":35.649249,"lng":139.489781,"prefecture":13,"numbering":[{"index":"19"}],"lines":[11303],"attr":"heat","postal_code":"206-0801","address":"稲城市大丸"},
    {"code":1130320,"id":"6f9765","name":"府中本町","name_kana":"ふちゅうほんまち","lat":35.665766,"lng":139.477142,"prefecture":13,"numbering":[{"index":"20"}],"lines":[11303,11305],"attr":"heat","postal_code":"183-0027","address":"府中市本町１丁目"},
    {"code":1130321,"id":"6522f1","name":"分倍河原","name_kana":"ぶばいがわら","lat":35.668493,"lng":139.468798,"prefecture":13,"numbering":[{"index":"21"}],"lines":[11303,24001],"attr":"eco","postal_code":"183-0021","address":"府中市片町２丁目"},
    {"code":1130329,"id":"1cdb04","name":"西府","name_kana":"にしふ","lat":35.670912,"lng":139.457477,"prefecture":13,"numbering":[{"index":"22"}],"lines":[11303],"attr":"heat","postal_code":"183-0032","address":"東京都府中市本宿町一丁目40-6"},
    {"code":1130322,"id":"58f039","name":"谷保","name_kana":"やほ","lat":35.681377,"lng":139.446724,"prefecture":13,"numbering":[{"index":"23"}],"lines":[11303],"attr":"eco","postal_code":"186-0011","address":"国立市谷保町"},
    {"code":1130323,"id":"3c945e","name":"矢川","name_kana":"やがわ","lat":35.685079,"lng":139.431611,"prefecture":13,"numbering":[{"index":"24"}],"lines":[11303],"attr":"eco","postal_code":"186-0011","address":"国立市谷保石田"},
    {"code":1130324,"id":"64c8fe","name":"西国立","name_kana":"にしくにたち","lat":35.69375,"lng":139.423887,"prefecture":13,"numbering":[{"index":"25"}],"lines":[11303],"attr":"cool","postal_code":"190-0021","address":"立川市羽衣町１丁目"},
    {"code":1130325,"id":"5ce7d3","name":"立川","name_kana":"たちかわ","lat":35.698202,"lng":139.413704,"prefecture":13,"numbering":[{"index":"26"}],"lines":[11303,11311,11312,11315,11328],"attr":"cool","postal_code":"190-0012","address":"東京都立川市曙町二丁目1-1"},
    {"code":1130326,"id":"96b035","name":"八丁畷","name_kana":"はっちょうなわて","lat":35.523071,"lng":139.691446,"prefecture":14,"numbering":[{"index":"51"}],"lines":[11303,27001],"attr":"cool","postal_code":"210-0022","address":"川崎市川崎区池田１丁目"},
    {"code":1130327,"id":"d7cf68","name":"川崎新町","name_kana":"かわさきしんまち","lat":35.518234,"lng":139.699348,"prefecture":14,"numbering":[{"index":"52"}],"lines":[11303],"attr":"eco","postal_code":"210-0845","address":"川崎市川崎区渡田山王町"},
    {"code":1130330,"id":"3bd23c","name":"小田栄","name_kana":"おださかえ","lat":35.5145,"lng":139.704944,"prefecture":14,"numbering":[{"index":"53"}],"lines":[11303],"attr":"eco","postal_code":"210-0843","address":"川崎市川崎区小田栄"},
    {"code":1130328,"id":"68dd99","name":"浜川崎","name_kana":"はまかわさき","lat":35.510428,"lng":139.713483,"prefecture":14,"numbering":[{"index":"54"}],"lines":[11303,11304],"attr":"eco","postal_code":"210-0855","address":"川崎市川崎区南渡田町"}
  ],
  "north":35.69799,
  "south":35.51032,
  "east":139.71413,
  "west":139.41356,
  "polyline_list":[
    {
      "start":"尻手",
      "end":"浜川崎",
      "lat":35.52916,
      "lng":139.6853,
      "delta_lat":[0,-49,-9,-25,-18,-25,-27,-47,-28,-28,-19,-17,-68,-34,-45,-54,-28,-18,-26,-9,-18,-32,-32,-25,-26,-34,-3,-24,-33,-77,-107,-71,-53,-71,-89,-63,-33,-57,-51,-67,-81,-35,-23,-20,-45,-36,-46,-21,-13,-10,-13],
      "delta_lng":[0,9,1,6,6,14,14,24,19,18,18,20,80,43,53,69,36,29,47,21,42,76,68,52,52,55,8,37,55,121,158,105,80,105,132,94,48,87,75,99,122,50,44,41,124,103,131,50,39,32,71]
    },
    {
      "start":"尻手",
      "end":"川崎",
      "lat":35.52916,
      "lng":139.6853,
      "delta_lat":[0,-57,-17,-20,-11,-7,-16,-20,-23,-51,-15,-5,-3,1,9,13,14,2,20,27,35,15,13,15,23,78,103,14,21,126],
      "delta_lng":[0,42,15,18,12,7,23,36,60,122,42,38,41,37,53,37,35,7,45,46,37,17,15,16,26,89,118,16,24,153]
    },
    {
      "start":"立川",
      "end":"尻手",
      "lat":35.69751,
      "lng":139.41356,
      "delta_lat":[0,5,33,3,1,2,0,3,0,-2,-7,-16,-13,-14,-22,-20,-22,-25,-31,-38,-36,-74,-51,-97,-71,-46,-40,-33,-190,-114,-47,-20,-39,-53,-39,-27,-17,-26,-22,-15,-15,-17,-35,-30,-22,-20,-25,-26,-52,-7,-118,-54,-59,-42,-20,-38,-40,-54,-9,-51,-57,-46,-130,-45,-45,-42,-48,-35,-38,-59,-65,-78,-31,-71,-17,-6,-47,-56,-16,-46,-23,-13,-9,-4,-3,2,3,4,29,27,19,1,0,6,9,-4,-7,-16,-23,-27,-17,-30,-20,-18,-18,-33,-4,-8,-5,-56,-47,-221,-91,-73,-59,-49,-21,-124,-55,-32,-48,-27,-19,-23,-98,-198,-155,-99,-16,-20,-51,-19,-17,-12,-6,-27,-34,-8,-5,-9,0,7,9,-1,-8,-11,-10,-17,-64,-61,-72,-77,-44,-54,-54,-67,-47,-20,-6,-4,-3,-7,-1,-2,-4,-2,-7,-11,-7,-9,-13,-45,-67,-58,-66,-38,0,-67,-71,-78,-57,-87,-78,-70,-18,-28,-31,-27,-5,-38,-38,-36,-41,-8,-9,-16,-47,-33,-53,-26,0,-26,-63,-36,-18,-27,-44,-36,-70,-35,-171,-2,-65,-43,-71,-56,-22,-32,-29,-27,-25,-16,-24,-42,-27,-48,-127,-49,-31,-18,-42,-45,-56,-23,-54,-90,-17,-7,-4,-7,-7,-11,-15,-44,-49,-47,-39,-41,-38,-1,-8,-9,-27,-87,-61,-33,-18,-27,-23,-45,-88,-34,-36,-38,-31,-48,-71,-12,-74,-61,-21,-49,-56,-14,-11,-14,-46,-19,-13,-35,-45,-126,-149,-88,-128,-162,-92,-19,-66,-34,-24,-17,-65,-21,-109,-28,-16,-5,-107,-3,-27,-26,-23,-11,-27,-51,-54,-78,-33,-48,-127,-86,-76,-73,-51,-90,-25,-2,-27,-23,-17,-11,-14,-12,-8,-3,0,-1,-2,0,-1,-2,-2,-1,0,0,0,-1,-7,-2,-7,-13,-16,-16,-23,-20,-20,-13,-25,-22,-29,-41,-127,-107,-38,-99,-60,-77,-248,-192,-70,-41,-91,-150,-83,-237,-60,-1,-214,-179,-141,-75,-85,-103,-77,-137,-216,-209,-285,-30,-90,-107,-11,-44,-106,-124,-111,-169,-45,-1,-121,-10,-50,-29,-33],
      "delta_lng":[0,150,202,20,22,68,57,92,37,26,30,57,29,28,36,27,25,24,22,18,13,24,13,30,22,16,16,13,86,52,21,10,20,35,34,34,30,55,60,66,123,122,273,229,140,94,88,85,140,20,315,148,182,106,40,48,41,38,3,22,17,5,0,8,14,16,34,33,48,91,99,118,47,109,23,7,76,87,30,74,42,45,33,42,39,34,45,55,168,163,114,10,25,145,226,44,31,57,50,46,23,34,16,12,8,12,2,5,4,35,15,75,33,38,40,44,19,140,52,28,35,15,7,11,20,37,31,19,8,14,54,22,26,22,16,68,111,32,21,49,75,89,161,20,34,38,32,35,117,111,132,153,99,131,121,155,111,56,31,71,60,175,13,84,104,88,224,240,175,90,40,83,120,100,116,66,1,113,119,135,101,148,132,123,29,48,66,84,28,163,174,157,185,39,37,70,220,139,231,117,1,125,267,117,56,64,69,48,73,29,142,2,62,46,96,93,51,87,128,154,142,51,63,95,41,58,143,60,38,33,102,115,137,55,135,220,45,53,105,97,63,52,49,80,88,82,68,71,64,2,11,16,44,151,102,43,21,19,17,23,40,23,25,41,42,82,129,18,128,103,35,87,97,34,48,68,199,99,32,61,55,166,195,117,162,210,121,25,86,42,39,27,141,46,241,65,36,9,253,6,68,55,42,18,48,90,94,144,63,90,231,159,141,124,93,172,52,5,58,73,63,54,85,98,68,57,53,153,86,237,109,79,11,89,36,113,28,36,36,20,22,37,38,33,37,25,23,14,22,17,16,19,38,32,12,30,15,22,72,59,24,16,34,65,30,102,24,0,89,78,64,34,42,44,34,62,101,95,124,12,39,42,6,20,50,58,57,77,23,0,57,7,27,16,22]
    }
  ]
}