{
  "code":11312,
  "name":"JR中央線(快速)",
  "color":"#F15A22",
  "symbol":"JC",
  "station_list":[
    {"code":100201,"id":"8b222f","name":"東京","name_kana":"とうきょう","lat":35.681391,"lng":139.766103,"prefecture":13,"numbering":[{"index":"01"}],"lines":[11301,11302,11308,11311,11312,11314,11326,11328,11332,11343,28002,1002,1004,1005],"attr":"heat","postal_code":"100-0005","address":"東京都千代田区丸の内一丁目"},
    {"code":1130223,"id":"d0d7ec","name":"神田(東京)","name_kana":"かんだ","lat":35.691173,"lng":139.770641,"prefecture":13,"numbering":[{"index":"02"}],"lines":[11302,11312,11332,28001],"attr":"heat","postal_code":"101-0044","address":"東京都千代田区鍛冶町二丁目13-1"},
    {"code":1131203,"id":"9d1a6e","name":"御茶ノ水","name_kana":"おちゃのみず","lat":35.699605,"lng":139.764955,"prefecture":13,"numbering":[{"index":"03"}],"lines":[11312,11313,28002],"attr":"heat","postal_code":"101-0062","address":"千代田区神田駿河台２丁目"},
    {"code":1131102,"id":"90f3a3","name":"四ツ谷(四ッ谷)","name_kana":"よつや","lat":35.686041,"lng":139.730644,"prefecture":13,"numbering":[{"index":"04"}],"lines":[11311,11312,11313,28002,28009],"attr":"heat","postal_code":"160-0004","address":"東京都新宿区四谷一丁目"},
    {"code":1130208,"id":"3ff383","name":"新宿","name_kana":"しんじゅく","lat":35.689729,"lng":139.700464,"prefecture":13,"numbering":[{"index":"05"}],"lines":[11302,11311,11312,11313,11321,11328,11333,24001,25001,28002,99301,99304],"attr":"heat","postal_code":"160-0022","address":"東京都新宿区新宿三丁目38-1"},
    {"code":1131214,"id":"558810","name":"中野(東京)","name_kana":"なかの","lat":35.705765,"lng":139.665835,"prefecture":13,"numbering":[{"index":"06"}],"lines":[11312,11313,28004],"attr":"heat","postal_code":"164-0001","address":"中野区中野５丁目"},
    {"code":1131215,"id":"43f6f8","name":"高円寺","name_kana":"こうえんじ","lat":35.705326,"lng":139.649664,"prefecture":13,"numbering":[{"index":"07"}],"lines":[11312,11313],"attr":"cool","postal_code":"166-0003","address":"杉並区高円寺南４丁目"},
    {"code":1131216,"id":"1f5d00","name":"阿佐ケ谷","name_kana":"あさがや","lat":35.704818,"lng":139.635868,"prefecture":13,"numbering":[{"index":"08"}],"lines":[11312,11313],"attr":"cool","postal_code":"166-0004","address":"東京都杉並区阿佐谷南三丁目36-3"},
    {"code":1131217,"id":"edf377","name":"荻窪","name_kana":"おぎくぼ","lat":35.704523,"lng":139.620109,"prefecture":13,"numbering":[{"index":"09"}],"lines":[11312,11313,28002],"attr":"cool","postal_code":"167-0043","address":"杉並区上荻１丁目"},
    {"code":1131218,"id":"c57fc6","name":"西荻窪","name_kana":"にしおぎくぼ","lat":35.703842,"lng":139.599361,"prefecture":13,"numbering":[{"index":"10"}],"lines":[11312,11313],"attr":"cool","postal_code":"167-0053","address":"杉並区西荻南３丁目"},
    {"code":1131104,"id":"b93403","name":"吉祥寺","name_kana":"きちじょうじ","lat":35.703119,"lng":139.579765,"prefecture":13,"numbering":[{"index":"11"}],"lines":[11311,11312,11313,11328,24006],"attr":"heat","postal_code":"180-0003","address":"東京都武蔵野市吉祥寺南町"},
    {"code":1131105,"id":"62c5d8","name":"三鷹","name_kana":"みたか","lat":35.702683,"lng":139.560325,"prefecture":13,"numbering":[{"index":"12"}],"lines":[11311,11312,11313,11328],"attr":"cool","postal_code":"181-0013","address":"東京都三鷹市下連雀三丁目46-1"},
    {"code":1131221,"id":"740f90","name":"武蔵境","name_kana":"むさしさかい","lat":35.702083,"lng":139.543402,"prefecture":13,"numbering":[{"index":"13"}],"lines":[11312,22012],"attr":"cool","postal_code":"180-0022","address":"武蔵野市境１丁目"},
    {"code":1131222,"id":"6ddba7","name":"東小金井","name_kana":"ひがしこがねい","lat":35.701643,"lng":139.524837,"prefecture":13,"numbering":[{"index":"14"}],"lines":[11312],"attr":"cool","postal_code":"184-0002","address":"小金井市梶野町５丁目"},
    {"code":1131223,"id":"416a65","name":"武蔵小金井","name_kana":"むさしこがねい","lat":35.701337,"lng":139.506483,"prefecture":13,"numbering":[{"index":"15"}],"lines":[11312],"attr":"cool","postal_code":"184-0004","address":"小金井市本町６丁目"},
    {"code":1131106,"id":"936e1a","name":"国分寺","name_kana":"こくぶんじ","lat":35.700123,"lng":139.480841,"prefecture":13,"numbering":[{"index":"16"}],"lines":[11311,11312,11328,22010,22011],"attr":"cool","postal_code":"185-0012","address":"東京都国分寺市本町二丁目1-23"},
    {"code":1130503,"id":"ecef28","name":"西国分寺","name_kana":"にしこくぶんじ","lat":35.699744,"lng":139.465994,"prefecture":13,"numbering":[{"index":"17"}],"lines":[11305,11312],"attr":"heat","postal_code":"185-0013","address":"国分寺市西恋ケ窪２丁目"},
    {"code":1131226,"id":"34c3aa","name":"国立","name_kana":"くにたち","lat":35.69923,"lng":139.44634,"prefecture":13,"numbering":[{"index":"18"}],"lines":[11312],"attr":"cool","postal_code":"186-0001","address":"国立市北１丁目"},
    {"code":1130325,"id":"5ce7d3","name":"立川","name_kana":"たちかわ","lat":35.698202,"lng":139.413704,"prefecture":13,"numbering":[{"index":"19"}],"lines":[11303,11311,11312,11315,11328],"attr":"cool","postal_code":"190-0012","address":"東京都立川市曙町二丁目1-1"},
    {"code":1131108,"id":"d16878","name":"日野(東京)","name_kana":"ひの","lat":35.679244,"lng":139.39393,"prefecture":13,"numbering":[{"index":"20"}],"lines":[11311,11312],"attr":"cool","postal_code":"191-0061","address":"日野市大坂上１丁目"},
    {"code":1131109,"id":"75ef7e","name":"豊田","name_kana":"とよだ","lat":35.659502,"lng":139.381495,"prefecture":13,"numbering":[{"index":"21"}],"lines":[11311,11312],"attr":"cool","postal_code":"191-0053","address":"日野市豊田４丁目"},
    {"code":1130620,"id":"1f0587","name":"八王子","name_kana":"はちおうじ","lat":35.655555,"lng":139.338998,"prefecture":13,"numbering":[{"index":"22"}],"lines":[11306,11311,11312,11317,11328],"attr":"eco","postal_code":"192-0083","address":"東京都八王子市旭町1-1"},
    {"code":1131111,"id":"99acba","name":"西八王子","name_kana":"にしはちおうじ","lat":35.656621,"lng":139.31264,"prefecture":13,"numbering":[{"index":"23"}],"lines":[11311,11312],"attr":"eco","postal_code":"193-0835","address":"八王子市千人町２丁目"},
    {"code":1131112,"id":"873563","name":"高尾(東京)","name_kana":"たかお","lat":35.642026,"lng":139.282288,"prefecture":13,"numbering":[{"index":"24"}],"lines":[11311,11312,11328,24003],"attr":"eco","postal_code":"193-0844","address":"八王子市高尾町"}
  ],
  "north":35.70629,
  "south":35.64192,
  "east":139.77167,
  "west":139.28133,
  "polyline_list":[
    {
      "start":"中野",
      "end":"東京",
      "lat":35.70558,
      "lng":139.66015,
      "delta_lat":[0,11,9,16,4,0,-4,1,1,0,0,2,3,1,3,17,0,1,6,1,-1,0,-11,-3,-4,-19,-23,-5,-47,-22,-29,-32,-37,-28,-37,-31,-53,-60,-38,-172,-58,-81,-16,-42,-125,-37,-35,-38,-38,-72,-44,-43,-44,-32,-36,-39,-90,-112,-64,-36,-8,-16,-71,-65,-85,-75,-62,-39,-87,-56,-69,-17,-20,-18,-28,-15,-18,-5,-4,-1,6,2,4,2,3,-16,-14,-22,-9,-6,-9,-56,-16,-11,-7,0,3,14,39,126,20,42,50,1,14,40,60,10,60,3,35,90,42,25,146,33,24,25,30,37,54,69,72,24,19,27,46,42,48,44,64,89,97,76,127,76,9,27,53,72,23,35,28,15,22,5,14,13,-1,-1,-21,-13,-1,-18,-1,-18,-28,-8,-1,6,-1,-8,-10,-13,-44,-52,-18,-69,-43,-31,-22,-15,-46,-74,-71,-44,-28,-43,-61,-26,-47,-30,-87,-163,-54,-286,-199,-313,-532],
      "delta_lng":[0,87,106,224,255,154,256,133,29,36,28,174,41,27,133,551,48,94,236,24,14,26,97,21,26,109,101,29,150,49,60,55,53,33,43,37,57,49,29,113,35,45,5,11,36,14,13,16,5,0,5,10,14,9,15,15,19,-8,-5,7,2,4,19,23,36,38,25,11,23,14,18,19,24,24,51,35,58,35,17,46,80,45,92,44,106,76,103,149,76,53,68,412,90,134,72,57,17,51,98,294,37,48,59,1,17,45,63,9,39,2,11,31,15,9,48,14,11,18,29,48,92,124,122,37,37,38,60,48,44,34,48,61,73,58,100,64,8,25,41,52,17,33,32,22,40,9,43,60,46,56,278,188,10,239,9,104,112,43,34,119,141,48,36,34,68,85,45,262,121,62,46,26,64,99,68,29,12,4,2,-3,-2,-3,-38,-67,-21,-131,-68,-114,-197]
    },
    {
      "start":"立川",
      "end":"中野",
      "lat":35.69808,
      "lng":139.41708,
      "delta_lat":[0,4,1,1,3,4,4,12,12,4,4,4,2,1,9,10,0,18,16,7,6,0,5,2,0,12,2,5,4,2,3,6,-2,0,3,1,5,16,10,3,4,0,0,0,1,0,0,0,4,3,15,0,2,3,9,6,0,6,12,4,2,3,5,1,3,3,2,3,0,12,2,7,2,4,0,3,4,5,5,2,2,4,3,8,9,10,3,1,4,0,2,1,2,4,0,5,0,2,11,6,-1,4,4,5,3,0,3,5,5,8,3,4,5,0,0,2,1,3,3,5,0,2,0,4,3,3,3,2,5,2,2,3,4,2,6,5,1,3,3,3,4,2,5,4,3,4,2,2,4,3,2,6,4,1,3,1,3,5,2,4,1,4,4,4,5,2,4,1,2,0,7,4,5,2,4,11,23,4,1,1,37,1,3,0,4,5,11,2,3,0],
      "delta_lng":[0,49,53,59,58,87,65,176,133,101,101,108,41,51,263,339,10,571,537,263,153,64,62,21,117,525,62,120,122,39,117,103,31,166,71,31,132,447,287,81,79,71,116,27,41,78,29,37,139,94,142,25,43,106,272,280,6,145,425,86,36,100,57,55,137,82,101,80,68,224,24,130,144,136,3,105,143,142,144,95,132,140,204,258,307,279,164,66,85,103,70,100,83,92,63,108,107,96,254,142,36,52,123,161,46,3,79,145,179,152,133,82,143,99,9,35,68,156,165,95,17,151,3,102,112,113,75,101,194,131,117,160,174,66,46,149,31,83,78,89,129,140,133,145,132,138,41,70,133,99,96,129,67,28,195,44,94,130,140,122,71,90,143,138,143,36,105,63,55,9,146,117,253,27,250,235,786,192,49,32,1108,32,93,37,86,157,483,98,142,56]
    },
    {
      "start":"高尾",
      "end":"立川",
      "lat":35.64192,
      "lng":139.28133,
      "delta_lat":[0,90,56,14,131,57,44,38,54,59,24,53,81,59,73,162,63,4,165,155,107,72,64,59,16,10,10,9,9,1,0,-3,-23,-42,-20,-19,-33,-51,-20,-12,-9,-5,-6,-4,-14,-9,-14,-9,-7,-14,-12,-4,-5,-6,-16,-27,-20,-22,-23,-9,-9,-5,-8,-23,-11,-11,-1,-8,-13,-14,-21,-17,-21,-30,-52,-45,-5,-20,-44,-43,-18,-13,-11,-14,-6,-4,-1,2,2,12,4,9,10,29,64,6,25,17,11,9,6,6,1,2,-4,-7,-6,-5,-4,0,4,11,13,10,15,8,15,27,23,10,9,139,133,63,23,65,53,67,59,16,51,103,58,41,22,38,43,42,33,55,40,62,47,68,55,87,106,82,100,452,98,60,37,41,86,31,36,50,142,352,331,49,141,48,86,54,88,75,32,33,42,51,49,25,40,51,23,47,22,18,16,4,5,-5,-11,-7,-5,-2,0,3,0,10,19],
      "delta_lng":[0,261,155,39,365,159,118,85,102,109,47,99,149,112,137,303,120,7,312,290,197,137,119,111,27,26,31,33,66,36,32,39,94,171,86,76,125,210,81,53,35,35,33,55,133,80,105,55,35,77,77,19,34,38,90,147,110,124,136,46,61,32,47,120,48,54,5,36,48,42,58,37,44,54,102,88,11,44,93,87,42,29,36,57,40,38,42,29,15,61,18,31,27,68,128,10,54,40,32,35,33,39,30,57,77,41,57,39,64,65,42,71,61,30,44,14,33,51,42,17,14,225,214,99,39,105,85,102,91,24,78,163,93,62,34,47,50,43,33,48,32,44,28,39,24,31,31,23,25,126,27,20,16,22,45,17,18,27,77,184,178,25,74,26,46,27,48,41,19,21,29,42,47,25,53,81,39,100,64,61,76,57,84,119,66,47,40,31,19,249,10,66,127]
    }
  ]
}