{
  "code":11316,
  "id":"f40a7c",
  "name":"JR五日市線",
  "name_kana":"じぇいあーるいつかいちせん",
  "station_size":8,
  "company_code":2,
  "color":"#F15A22",
  "symbol":"JC",
  "station_list":[
    {"code":1131506,"id":"d4c39b","name":"拝島","name_kana":"はいじま","lat":35.721278,"lng":139.343468,"prefecture":13,"numbering":[{"index":"55"}],"lines":[11315,11316,11317,22008],"attr":"heat","postal_code":"196-0003","address":"昭島市松原町４丁目","next":[1131602,1130620,1131505,1131705,2200807,1131111,2400134,1131603,1131703],"voronoi":{"lat":35.6893,"lng":139.335778,"delta_lat":[0,-41,115,2040,18072,27495,1002,-11942,-32236],"delta_lng":[0,-6920,-1692,-4279,2628,25386,3266,2204,-14203]},"impl":true},
    {"code":1131602,"id":"7500a3","name":"熊川","name_kana":"くまがわ","lat":35.728321,"lng":139.33584,"prefecture":13,"numbering":[{"index":"81"}],"lines":[11316],"attr":"heat","postal_code":"197-0003","address":"福生市熊川北","next":[1131705,1131506,1131603,1131507],"voronoi":{"lat":35.73698,"lng":139.350901,"delta_lat":[0,-27495,18108,9388],"delta_lng":[0,-25386,-1810,27021]},"impl":true},
    {"code":1131603,"id":"1a380e","name":"東秋留","name_kana":"ひがしあきる","lat":35.725904,"lng":139.311665,"prefecture":13,"numbering":[{"index":"82"}],"lines":[11316],"attr":"heat","postal_code":"197-0823","address":"あきる野市野辺","next":[1131602,1131508,1131507,1131509,1131506,1131111,1131604],"voronoi":{"lat":35.742357,"lng":139.311307,"delta_lat":[0,-10386,-4377,-18108,-18072,-376,52823],"delta_lng":[0,10679,1719,1810,-2628,-26711,4434]},"impl":true},
    {"code":1131604,"id":"a32ffa","name":"秋川","name_kana":"あきがわ","lat":35.727998,"lng":139.286715,"prefecture":13,"numbering":[{"index":"83"}],"lines":[11316],"attr":"cool","postal_code":"197-0827","address":"あきる野市油平","next":[1131511,1131510,9934802,1131605,9934801,1131509,1131111,1131603],"voronoi":{"lat":35.691038,"lng":139.296176,"delta_lat":[0,-1329,-608,-614,67675,23,-3105,-9219],"delta_lng":[0,-3660,-3128,-15191,6898,492,9616,9407]},"impl":true},
    {"code":1131605,"id":"4bd7ca","name":"武蔵引田","name_kana":"むさしひきだ","lat":35.729711,"lng":139.269907,"prefecture":13,"numbering":[{"index":"84"}],"lines":[11316],"attr":"cool","postal_code":"190-0100","address":"あきる野市下引田","next":[1131511,1131606,9934802,1131604,1131512],"voronoi":{"lat":35.756162,"lng":139.281094,"delta_lat":[0,-67675,-3830,75352,-15],"delta_lng":[0,-6898,-15279,6950,299]},"impl":true},
    {"code":1131606,"id":"1e3cf9","name":"武蔵増戸","name_kana":"むさしますこ","lat":35.730961,"lng":139.256355,"prefecture":13,"numbering":[{"index":"85"}],"lines":[11316],"attr":"eco","postal_code":"190-0142","address":"あきる野市伊奈","next":[1131605,1131513,2400307,1131112,1131608,1131512,9934802,1131607],"voronoi":{"lat":35.678475,"lng":139.239782,"delta_lat":[0,527,1618,4037,75352,531,275,-19650],"delta_lng":[0,3847,5546,9742,6950,-1893,-9408,-11935]},"impl":true},
    {"code":1131607,"id":"ad2035","name":"武蔵五日市","name_kana":"むさしいつかいち","lat":35.732248,"lng":139.228039,"prefecture":13,"numbering":[{"index":"86"}],"lines":[11316],"attr":"eco","postal_code":"190-0163","address":"あきる野市舘谷","next":[1131113,1131114,1131115,2400307,1131608,1131520,1131524,1131606],"voronoi":{"lat":35.737194,"lng":139.160136,"delta_lat":[0,-15992,-5882,-9200,-17339,-18279,7973,62690],"delta_lng":[0,-24356,-4131,9302,26663,53125,19044,2849]},"impl":true},
    {"code":1131608,"id":"d4efc3","name":"武蔵岩井","name_kana":"むさしいわい","closed":true,"lat":35.748639,"lng":139.22725,"prefecture":13,"lines":[11316],"postal_code":"190-0181","address":"東京都西多摩郡日の出町大字大久野","open_date":"1925-09-20","closed_date":"1971-02-01","next":[1131513,1131606,1131514,1131515,1131607,1131520],"voronoi":{"lat":35.768528,"lng":139.230581,"delta_lat":[0,-5367,-2346,-19650,-3971,33105],"delta_lng":[0,20800,3185,-11935,-82496,39159]},"impl":false}
  ],
  "north":35.7339,
  "south":35.72037,
  "east":139.34409,
  "west":139.22748,
  "polyline_list":[
    {
      "start":"武蔵五日市",
      "end":"拝島",
      "lat":35.73158,
      "lng":139.22748,
      "delta_lat":[0,112,4,41,31,22,7,6,7,2,-2,-4,-5,-9,-1,-59,-38,-49,-52,-36,-9,-20,-8,0,9,9,13,13,12,9,3,1,-2,-10,-9,-8,-14,-4,0,0,6,5,0,2,-4,-9,-18,-13,-11,-16,-18,-18,-16,-15,-7,-12,-15,-9,-5,-13,-14,-15,-18,-11,-11,-3,-18,-21,-8,-20,-22,-20,-11,-26,-28,-31,-7,-27,-34,-4,0,2,2,0,4,1,0,-3,-9,-4,0,15,26,15,9,4,21,36,35,25,3,11,22,11,42,5,6,7,1,-5,-12,-10,-32,-31,-27,-42,-32,-58,-22,-45,-41,-36,-36,-22,-24,-116,-79,-47,-118],
      "delta_lng":[0,128,4,63,51,40,15,14,32,28,25,20,19,17,4,98,62,77,93,60,15,53,24,31,66,57,79,65,78,60,49,41,54,62,45,47,73,37,39,51,57,153,80,157,162,115,209,146,123,170,197,190,183,169,71,139,127,107,72,162,166,171,181,122,121,24,173,159,74,141,167,152,104,188,196,237,49,195,241,52,224,170,220,13,142,145,214,104,169,145,35,109,134,83,39,20,98,171,164,128,8,48,115,47,195,37,31,38,25,51,56,33,72,51,37,51,37,71,27,54,56,48,45,25,18,93,63,34,90]
    }
  ],
  "impl":true
}