{
  "code":11313,
  "name":"JR中央・総武線",
  "color":"#FFD400",
  "symbol":"JB",
  "station_list":[
    {"code":1131105,"id":"62c5d8","name":"三鷹","name_kana":"みたか","lat":35.702683,"lng":139.560325,"prefecture":13,"numbering":[{"index":"01"}],"lines":[11311,11312,11313,11328],"attr":"cool","postal_code":"181-0013","address":"東京都三鷹市下連雀三丁目46-1"},
    {"code":1131104,"id":"b93403","name":"吉祥寺","name_kana":"きちじょうじ","lat":35.703119,"lng":139.579765,"prefecture":13,"numbering":[{"index":"02"}],"lines":[11311,11312,11313,11328,24006],"attr":"heat","postal_code":"180-0003","address":"東京都武蔵野市吉祥寺南町"},
    {"code":1131218,"id":"c57fc6","name":"西荻窪","name_kana":"にしおぎくぼ","lat":35.703842,"lng":139.599361,"prefecture":13,"numbering":[{"index":"03"}],"lines":[11312,11313],"attr":"cool","postal_code":"167-0053","address":"杉並区西荻南３丁目"},
    {"code":1131217,"id":"edf377","name":"荻窪","name_kana":"おぎくぼ","lat":35.704523,"lng":139.620109,"prefecture":13,"numbering":[{"index":"04"}],"lines":[11312,11313,28002],"attr":"cool","postal_code":"167-0043","address":"杉並区上荻１丁目"},
    {"code":1131216,"id":"1f5d00","name":"阿佐ケ谷","name_kana":"あさがや","lat":35.704818,"lng":139.635868,"prefecture":13,"numbering":[{"index":"05"}],"lines":[11312,11313],"attr":"cool","postal_code":"166-0004","address":"東京都杉並区阿佐谷南三丁目36-3"},
    {"code":1131215,"id":"43f6f8","name":"高円寺","name_kana":"こうえんじ","lat":35.705326,"lng":139.649664,"prefecture":13,"numbering":[{"index":"06"}],"lines":[11312,11313],"attr":"cool","postal_code":"166-0003","address":"杉並区高円寺南４丁目"},
    {"code":1131214,"id":"558810","name":"中野(東京)","name_kana":"なかの","lat":35.705765,"lng":139.665835,"prefecture":13,"numbering":[{"index":"07"}],"lines":[11312,11313,28004],"attr":"heat","postal_code":"164-0001","address":"中野区中野５丁目"},
    {"code":1131308,"id":"eb3a87","name":"東中野","name_kana":"ひがしなかの","lat":35.706529,"lng":139.684436,"prefecture":13,"numbering":[{"index":"08"}],"lines":[11313,99301],"attr":"cool","postal_code":"164-0003","address":"中野区東中野４丁目"},
    {"code":1131309,"id":"0a4329","name":"大久保(東京)","name_kana":"おおくぼ","lat":35.700784,"lng":139.69732,"prefecture":13,"numbering":[{"index":"09"}],"lines":[11313],"attr":"cool","postal_code":"169-0073","address":"新宿区百人町１丁目"},
    {"code":1130208,"id":"3ff383","name":"新宿","name_kana":"しんじゅく","lat":35.689729,"lng":139.700464,"prefecture":13,"numbering":[{"index":"10"}],"lines":[11302,11311,11312,11313,11321,11328,11333,24001,25001,28002,99301,99304],"attr":"heat","postal_code":"160-0022","address":"東京都新宿区新宿三丁目38-1"},
    {"code":1130207,"id":"946224","name":"代々木","name_kana":"よよぎ","lat":35.683061,"lng":139.702042,"prefecture":13,"numbering":[{"index":"11"}],"lines":[11302,11313,99301],"attr":"cool","postal_code":"151-0053","address":"東京都渋谷区代々木一丁目34-1"},
    {"code":1131312,"id":"104af3","name":"千駄ケ谷","name_kana":"せんだがや","lat":35.681231,"lng":139.711644,"prefecture":13,"numbering":[{"index":"12"}],"lines":[11313],"attr":"heat","postal_code":"151-0051","address":"東京都渋谷区千駄ヶ谷一丁目35-10"},
    {"code":1131313,"id":"e029af","name":"信濃町","name_kana":"しなのまち","lat":35.680031,"lng":139.720729,"prefecture":13,"numbering":[{"index":"13"}],"lines":[11313],"attr":"heat","postal_code":"160-0016","address":"新宿区信濃町"},
    {"code":1131102,"id":"90f3a3","name":"四ツ谷(四ッ谷)","name_kana":"よつや","lat":35.686041,"lng":139.730644,"prefecture":13,"numbering":[{"index":"14"}],"lines":[11311,11312,11313,28002,28009],"attr":"heat","postal_code":"160-0004","address":"東京都新宿区四谷一丁目"},
    {"code":1131315,"id":"51ad8c","name":"市ケ谷(市ヶ谷)","name_kana":"いちがや","lat":35.691107,"lng":139.735238,"prefecture":13,"numbering":[{"index":"15"}],"lines":[11313,28006,28009,99304],"attr":"heat","postal_code":"162-0843","address":"東京都新宿区市谷田町一丁目1"},
    {"code":1131316,"id":"e0bb13","name":"飯田橋","name_kana":"いいだばし","lat":35.701835,"lng":139.745143,"prefecture":13,"numbering":[{"index":"16"}],"lines":[11313,28004,28006,28009,99301],"attr":"eco","postal_code":"102-0072","address":"東京都千代田区飯田橋四丁目10-2"},
    {"code":1131317,"id":"e7f515","name":"水道橋","name_kana":"すいどうばし","lat":35.702039,"lng":139.754312,"prefecture":13,"numbering":[{"index":"17"}],"lines":[11313,99303],"attr":"eco","postal_code":"101-0061","address":"千代田区三崎町２丁目"},
    {"code":1131203,"id":"9d1a6e","name":"御茶ノ水","name_kana":"おちゃのみず","lat":35.699605,"lng":139.764955,"prefecture":13,"numbering":[{"index":"18"}],"lines":[11312,11313,28002],"attr":"heat","postal_code":"101-0062","address":"千代田区神田駿河台２丁目"},
    {"code":1130222,"id":"41a869","name":"秋葉原","name_kana":"あきはばら","lat":35.69862,"lng":139.77329,"prefecture":13,"numbering":[{"index":"19"}],"lines":[11302,11313,11332,28003,99309],"attr":"heat","postal_code":"101-0021","address":"東京都千代田区外神田一丁目17"},
    {"code":1131320,"id":"5fd731","name":"浅草橋","name_kana":"あさくさばし","lat":35.697403,"lng":139.784427,"prefecture":13,"numbering":[{"index":"20"}],"lines":[11313,99302],"attr":"heat","postal_code":"111-0053","address":"台東区浅草橋１丁目"},
    {"code":1131321,"id":"b83349","name":"両国","name_kana":"りょうごく","lat":35.69579,"lng":139.793334,"prefecture":13,"numbering":[{"index":"21"}],"lines":[11313,99301],"attr":"heat","postal_code":"130-0015","address":"墨田区横網１丁目"},
    {"code":1131322,"id":"887b30","name":"錦糸町","name_kana":"きんしちょう","lat":35.696802,"lng":139.814136,"prefecture":13,"numbering":[{"index":"22"}],"lines":[11313,11314,28008],"attr":"heat","postal_code":"130-0022","address":"墨田区江東橋３丁目"},
    {"code":1131323,"id":"f34421","name":"亀戸","name_kana":"かめいど","lat":35.697345,"lng":139.826262,"prefecture":13,"numbering":[{"index":"23"}],"lines":[11313,21005],"attr":"heat","postal_code":"136-0071","address":"江東区亀戸５丁目"},
    {"code":1131324,"id":"a10473","name":"平井(東京)","name_kana":"ひらい","lat":35.70643,"lng":139.842181,"prefecture":13,"numbering":[{"index":"24"}],"lines":[11313],"attr":"heat","postal_code":"132-0035","address":"江戸川区平井３丁目"},
    {"code":1131325,"id":"00567c","name":"新小岩","name_kana":"しんこいわ","lat":35.716903,"lng":139.857777,"prefecture":13,"numbering":[{"index":"25"}],"lines":[11313,11314],"attr":"heat","postal_code":"124-0024","address":"葛飾区新小岩１丁目"},
    {"code":1131326,"id":"48fc17","name":"小岩","name_kana":"こいわ","lat":35.733207,"lng":139.881755,"prefecture":13,"numbering":[{"index":"26"}],"lines":[11313],"attr":"heat","postal_code":"133-0056","address":"江戸川区南小岩７丁目"},
    {"code":1131327,"id":"0d325f","name":"市川","name_kana":"いちかわ","lat":35.728903,"lng":139.908142,"prefecture":12,"numbering":[{"index":"27"}],"lines":[11313,11314],"attr":"cool","postal_code":"272-0034","address":"市川市市川１丁目"},
    {"code":1131328,"id":"9860cd","name":"本八幡","name_kana":"もとやわた","lat":35.720898,"lng":139.92741,"prefecture":12,"numbering":[{"index":"28"}],"lines":[11313,99304],"attr":"cool","postal_code":"272-0021","address":"市川市八幡２丁目"},
    {"code":1131329,"id":"904883","name":"下総中山","name_kana":"しもうさなかやま","lat":35.714276,"lng":139.943092,"prefecture":12,"numbering":[{"index":"29"}],"lines":[11313],"attr":"heat","postal_code":"273-0035","address":"船橋市本中山２丁目"},
    {"code":1130524,"id":"c67257","name":"西船橋","name_kana":"にしふなばし","lat":35.707283,"lng":139.959536,"prefecture":12,"numbering":[{"index":"30"}],"lines":[11305,11313,28004,99338],"attr":"eco","postal_code":"273-0031","address":"船橋市西船４丁目"},
    {"code":1131331,"id":"d88909","name":"船橋","name_kana":"ふなばし","lat":35.701865,"lng":139.984707,"prefecture":12,"numbering":[{"index":"31"}],"lines":[11313,11314,21004],"attr":"cool","postal_code":"273-0005","address":"船橋市本町７丁目"},
    {"code":1131332,"id":"906609","name":"東船橋","name_kana":"ひがしふなばし","lat":35.699811,"lng":140.00393,"prefecture":12,"numbering":[{"index":"32"}],"lines":[11313],"attr":"eco","postal_code":"273-0002","address":"船橋市東船橋２丁目"},
    {"code":1131333,"id":"f55fa3","name":"津田沼","name_kana":"つだぬま","lat":35.691367,"lng":140.020179,"prefecture":12,"numbering":[{"index":"33"}],"lines":[11313,11314],"attr":"cool","postal_code":"275-0016","address":"習志野市津田沼１丁目"},
    {"code":1131334,"id":"7fb30c","name":"幕張本郷","name_kana":"まくはりほんごう","lat":35.672664,"lng":140.042241,"prefecture":12,"numbering":[{"index":"34"}],"lines":[11313],"attr":"cool","postal_code":"262-0033","address":"千葉市花見川区幕張本郷１丁目"},
    {"code":1131335,"id":"4f78ae","name":"幕張","name_kana":"まくはり","lat":35.6594,"lng":140.057899,"prefecture":12,"numbering":[{"index":"35"}],"lines":[11313],"attr":"cool","postal_code":"262-0032","address":"千葉市花見川区幕張町５丁目"},
    {"code":1131336,"id":"b3e1bd","name":"新検見川","name_kana":"しんけみがわ","lat":35.65169,"lng":140.073025,"prefecture":12,"numbering":[{"index":"36"}],"lines":[11313],"attr":"cool","postal_code":"262-0022","address":"千葉市花見川区南花園"},
    {"code":1131337,"id":"d2ca15","name":"稲毛","name_kana":"いなげ","lat":35.637264,"lng":140.09256,"prefecture":12,"numbering":[{"index":"37"}],"lines":[11313,11314],"attr":"cool","postal_code":"263-0031","address":"千葉市稲毛区稲毛東３丁目"},
    {"code":1131338,"id":"0922b3","name":"西千葉","name_kana":"にしちば","lat":35.622639,"lng":140.103337,"prefecture":12,"numbering":[{"index":"38"}],"lines":[11313],"attr":"cool","postal_code":"260-0033","address":"千葉市中央区春日２丁目"},
    {"code":1131339,"id":"76a5a4","name":"千葉","name_kana":"ちば","lat":35.612927,"lng":140.113479,"prefecture":12,"numbering":[{"index":"39"}],"lines":[11313,11314,11324,11325,11328,99331,99332],"attr":"cool","postal_code":"260-0031","address":"千葉市中央区新千葉１丁目"}
  ],
  "north":35.736,
  "south":35.6133,
  "east":140.11409,
  "west":139.55959,
  "polyline_list":[
    {
      "start":"三鷹",
      "end":"中野",
      "lat":35.70268,
      "lng":139.55959,
      "delta_lat":[0,0,0,2,1,3,3,5,0,2,0,4,3,3,3,2,5,2,2,3,4,2,6,5,1,3,3,3,4,2,5,4,3,4,2,2,4,3,2,6,4,1,3,1,3,5,2,4,1,4,4,4,5,2,4,1,2,0,7,4,5,2,4,11,23,4,1,1,37,1,3,0,4,5,11,2,3,0],
      "delta_lng":[0,99,9,35,68,156,165,95,17,151,3,102,112,113,75,101,194,131,117,160,174,66,46,149,31,83,78,89,129,140,133,145,132,138,41,70,133,99,96,129,67,28,195,44,94,130,140,122,71,90,143,138,143,36,105,63,55,9,146,117,253,27,250,235,786,192,49,32,1108,32,93,37,86,157,483,98,142,56]
    },
    {
      "start":"中野",
      "end":"御茶ノ水",
      "lat":35.70558,
      "lng":139.66015,
      "delta_lat":[0,11,9,16,4,0,-4,1,1,0,0,2,3,1,3,17,0,1,6,1,-1,0,-11,-3,-4,-19,-23,-5,-47,-22,-29,-32,-37,-28,-37,-31,-53,-60,-38,-172,-58,-81,-16,-42,-125,-37,-35,-38,-38,-72,-44,-43,-44,-32,-36,-39,-90,-112,-64,-36,-8,-16,-71,-65,-85,-75,-62,-39,-87,-56,-69,-17,-20,-18,-28,-15,-18,-5,-4,-1,6,2,4,2,3,-16,-14,-22,-9,-6,-9,-56,-16,-11,-7,0,3,14,39,126,20,42,50,1,14,40,60,10,60,3,35,90,42,25,146,33,24,25,30,37,54,69,72,24,19,27,46,42,48,44,64,89,97,76,127,76,9,27,53,72,23,35,28,15,22,5,14,13,-1,-1,-21,-13,-1,-18,-1,-18,-28,-8,-1,6,-1,-8,-10,-13,-44,-52,-18],
      "delta_lng":[0,87,106,224,255,154,256,133,29,36,28,174,41,27,133,551,48,94,236,24,14,26,97,21,26,109,101,29,150,49,60,55,53,33,43,37,57,49,29,113,35,45,5,11,36,14,13,16,5,0,5,10,14,9,15,15,19,-8,-5,7,2,4,19,23,36,38,25,11,23,14,18,19,24,24,51,35,58,35,17,46,80,45,92,44,106,76,103,149,76,53,68,412,90,134,72,57,17,51,98,294,37,48,59,1,17,45,63,9,39,2,11,31,15,9,48,14,11,18,29,48,92,124,122,37,37,38,60,48,44,34,48,61,73,58,100,64,8,25,41,52,17,33,32,22,40,9,43,60,46,56,278,188,10,239,9,104,112,43,34,119,141,48,36,34,68,85,45]
    },
    {
      "start":"御茶ノ水",
      "end":"両国",
      "lat":35.69995,
      "lng":139.76372,
      "delta_lat":[0,-69,-43,-9,-30,0,-24,-2,-3,-6,-56,-2,-1,-22,-1,-16,-14,-45,-4,-15,-41,-7,-2,-16,0,-4,0,17],
      "delta_lng":[0,262,121,67,364,8,254,10,58,65,682,37,9,279,9,171,82,132,11,41,128,53,6,228,12,56,41,147]
    },
    {
      "start":"両国",
      "end":"幕張本郷",
      "lat":35.6958,
      "lng":139.79705,
      "delta_lat":[0,1,13,25,28,10,9,9,2,8,10,2,3,17,2,10,2,8,23,3,6,21,21,32,40,34,45,33,186,34,10,105,21,13,25,47,44,56,19,38,66,17,17,18,47,4,23,4,137,13,62,185,17,149,110,3,53,13,54,36,135,12,26,54,25,51,106,65,38,99,69,96,26,133,16,60,103,90,76,7,367,4,103,5,31,40,50,6,11,5,9,17,18,8,8,5,2,0,0,-2,-3,-10,-26,-4,-4,-4,-23,-14,-22,-18,-6,-50,-20,-110,-60,-9,-30,-21,-2,-12,-34,-40,-87,-45,-4,-104,-6,-97,-75,-37,-76,-123,-69,-109,-118,-3,-74,-4,-117,-173,-122,-3,-145,-16,-2,-75,-4,-114,-79,-169,-63,-53,-36,-72,-19,-44,-17,0,-245,-29,-42,-137,-9,-13,-1,-7,-14,-12,-9,-2,-2,-5,0,0,2,7,32,2,-3,-18,-17,-5,-2,-3,-2,-4,-25,-2,-30,-2,-18,-2,-4,0,-17,-3,-1,-1,-23,-17,-1,-16,-1,-7,-3,-15,-6,-7,-6,-5,-1,-4,-16,-6,-11,-12,-11,-18,-16,-28,-27,-21,-14,-59,-68,-23,-39,-16,-96,-37,-29,-7,-44,-26,-8,-13,-22,-77,-66,-23,-34,-47,-37,-120,-42,-51,-23,-40,-41,-11,-26,-10,-11,-62,-134,-10,-12,-136,-60,-116,-20,-22,-7,-180,-55,-41],
      "delta_lng":[0,14,219,478,521,192,165,233,43,154,180,38,46,340,39,167,43,211,284,20,69,143,99,92,74,48,43,27,116,20,7,65,14,7,15,37,40,64,25,61,107,25,29,27,66,6,33,6,193,19,85,270,23,219,161,6,77,24,90,54,206,21,45,113,54,80,152,90,53,138,84,112,32,190,24,104,144,134,109,11,529,8,148,9,53,70,95,14,24,16,27,56,69,39,44,36,45,43,68,39,35,54,111,16,14,10,49,32,47,34,13,107,52,267,144,24,79,69,9,36,94,95,190,91,8,262,13,241,185,93,181,288,160,258,277,9,175,7,281,413,292,7,346,37,8,176,10,281,191,417,149,120,83,153,50,117,44,4,533,63,92,294,24,46,7,26,60,68,66,15,22,46,35,19,18,60,198,55,77,174,191,34,28,41,22,37,264,9,317,14,180,22,28,15,169,10,26,10,246,165,16,164,16,71,38,132,73,64,50,39,34,34,186,39,74,68,42,53,43,63,47,33,23,81,78,26,45,17,116,46,36,9,52,32,9,15,26,91,79,28,38,56,51,145,49,62,27,43,51,12,30,12,13,73,158,12,14,159,69,135,24,27,10,213,66,48]
    },
    {
      "start":"千葉",
      "end":"幕張本郷",
      "lat":35.6133,
      "lng":140.11409,
      "delta_lat":[0,13,42,20,50,53,52,23,24,70,221,291,73,74,59,80,293,56,297,288,197,195,22,33,7,233,66,142,55,94,191,85,68,41,85,13,7,56,53,22,20,11,16,8,8,4,7,10,9,13,8,5,9,11,16,23,33,73,5,5,11,38,12,18,30,54,59,3,48,58,45,74,78,32,24,61,157,142,30,27,125,123,26,211,137,18,190,59,26,98,126,46,231],
      "delta_lng":[0,-38,-116,-37,-99,-84,-66,-20,-27,-66,-198,-260,-65,-67,-52,-69,-211,-37,-207,-204,-142,-137,-16,-23,-5,-164,-46,-100,-39,-65,-135,-62,-51,-32,-94,-23,-8,-88,-115,-64,-72,-54,-139,-64,-70,-28,-56,-78,-67,-124,-61,-44,-59,-84,-71,-60,-84,-140,-11,-10,-22,-72,-23,-35,-57,-104,-114,-5,-88,-92,-60,-90,-90,-37,-28,-69,-186,-167,-35,-32,-147,-147,-28,-252,-164,-22,-219,-70,-33,-114,-147,-56,-271]
    }
  ]
}