{
  "code":11322,
  "name":"JR川越線",
  "station_list":[
    {"code":100403,"id":"d73fff","name":"大宮(埼玉)","name_kana":"おおみや","lat":35.906439,"lng":139.62405,"prefecture":11,"lines":[11319,11321,11322,11323,11328,11332,11333,21004,99321,1004,1005],"attr":"heat","postal_code":"330-0853","address":"さいたま市大宮区錦町","next":[1132211,2100403,9932102,1132117,2100402,1132118,1131905],"voronoi":{"lat":35.898754,"lng":139.626974,"delta_lat":[0,-6805,-743,11713,9263,-1138,-2075],"delta_lng":[0,-23992,-9344,4202,20487,18057,4055]}},
    {"code":1132202,"id":"3220fc","name":"日進(埼玉)","name_kana":"にっしん","closed":true,"lat":35.931555,"lng":139.606111,"prefecture":11,"lines":[11322],"attr":"cool","postal_code":"331-0823","address":"さいたま市北区日進町２丁目","next":[9932102,9932103,1132307,1132211],"voronoi":{"lat":35.927721,"lng":139.613699,"delta_lat":[0,6953,9220,-32104],"delta_lng":[0,-2712,-23988,11315]}},
    {"code":1132211,"id":"cb92e9","name":"西大宮","name_kana":"にしおおみや","lat":35.922298,"lng":139.579848,"prefecture":11,"lines":[11322],"attr":"eco","postal_code":"331-0000","address":"さいたま市西区大字指扇3582-4","next":[100403,1132307,1132117,1132308,1132202,9932102,1132203],"voronoi":{"lat":35.891205,"lng":139.593638,"delta_lat":[0,11713,8871,32104,3938,3953,-69523],"delta_lng":[0,4202,474,-11315,-2389,-23586,24618]}},
    {"code":1132203,"id":"e0baf4","name":"指扇","name_kana":"さしおうぎ","closed":true,"lat":35.917023,"lng":139.564951,"prefecture":11,"lines":[11322],"attr":"eco","postal_code":"331-0074","address":"さいたま市西区宝来","next":[2100118,1132310,1132117,1132211,2100117,2100116,1132308,1132309,1132204],"voronoi":{"lat":35.879894,"lng":139.556339,"delta_lat":[0,-3986,-2352,8706,69523,2357,3326,-74,-72491],"delta_lng":[0,11093,13075,5136,-24618,-5671,-18592,-8824,21618]}},
    {"code":1132204,"id":"66f0f7","name":"南古谷","name_kana":"みなみふるや","closed":true,"lat":35.903344,"lng":139.519082,"prefecture":11,"lines":[11322],"attr":"eco","postal_code":"350-0023","address":"川越市並木","next":[1132205,2200729,1132310,2100118,2100120,2100119,1132203],"voronoi":{"lat":35.883525,"lng":139.535931,"delta_lat":[0,5768,19636,6965,47701,-6201,-72491],"delta_lng":[0,-23299,-11186,658,12793,13040,21618]}},
    {"code":1132205,"id":"27a528","name":"川越","name_kana":"かわごえ","closed":true,"lat":35.906742,"lng":139.483078,"prefecture":11,"lines":[11322,21001],"attr":"eco","postal_code":"350-1122","address":"川越市脇田町","next":[1132204,2100120,2200729,2200728,2100122],"voronoi":{"lat":35.900131,"lng":139.467493,"delta_lat":[0,-14131,22928,6965,-6844],"delta_lng":[0,8354,25599,658,-23767]}},
    {"code":1132206,"id":"0f639a","name":"西川越","name_kana":"にしかわごえ","lat":35.91909,"lng":139.459746,"prefecture":11,"lines":[11322],"attr":"heat","postal_code":"350-1104","address":"川越市小ケ谷","next":[1132207,1132311,2100123,2100122,2200728],"voronoi":{"lat":35.981868,"lng":139.487076,"delta_lat":[0,6586,-74958,-7497,-3036],"delta_lng":[0,-10081,-29118,496,16079]}},
    {"code":1132207,"id":"0f8d3a","name":"的場","name_kana":"まとば","lat":35.917478,"lng":139.435376,"prefecture":11,"lines":[11322],"attr":"heat","postal_code":"350-1101","address":"川越市的場","next":[2100123,1132206,1132208,2200728,2100124,2200727],"voronoi":{"lat":35.896083,"lng":139.426393,"delta_lat":[0,24190,8121,-14897,-7497,-10214],"delta_lng":[0,-8236,13564,16157,496,-15101]}},
    {"code":1132208,"id":"f3b431","name":"笠幡","name_kana":"かさはた","lat":35.907551,"lng":139.40622,"prefecture":11,"lines":[11322],"attr":"heat","postal_code":"350-1175","address":"川越市笠幡上野","next":[1132209,2100124,1132207,2200726,2200727,2100702,2100125],"voronoi":{"lat":35.929137,"lng":139.392929,"delta_lat":[0,-7809,-41348,2223,13879,24190,8139],"delta_lng":[0,-7025,6859,16556,17074,-8236,-13509]}},
    {"code":1132209,"id":"6eee46","name":"武蔵高萩","name_kana":"むさしたかはぎ","lat":35.901729,"lng":139.371123,"prefecture":11,"lines":[11322],"attr":"heat","postal_code":"350-1213","address":"日高市高萩","next":[2200122,1132208,1131709,2200123,2200726,2100702,2100703,2200121],"voronoi":{"lat":35.879981,"lng":139.392762,"delta_lat":[0,41348,-377,-9725,-40417,-1898,5188,292],"delta_lng":[0,-6859,-13600,-19691,6608,11040,15920,606]}},
    {"code":1131709,"id":"e40432","name":"高麗川","name_kana":"こまがわ","lat":35.896328,"lng":139.33809,"prefecture":11,"lines":[11317,11318,11322],"attr":"heat","postal_code":"350-1205","address":"日高市原宿","next":[1131802,1132209,2100704,2200124,2200127,1131708,2100705,2100703,2200123],"voronoi":{"lat":35.87068,"lng":139.358876,"delta_lat":[0,-1126,6529,34891,4771,3329,-1983,-5864,-40417],"delta_lng":[0,-8686,-23369,-14863,7355,12142,9780,11378,6608]}}
  ],
  "north":35.93243,
  "south":35.89586,
  "east":139.62491,
  "west":139.3369,
  "polyline_list":[
    {
      "start":"高麗川",
      "end":"大宮",
      "lat":35.89586,
      "lng":139.33842,
      "delta_lat":[0,102,42,88,17,21,15,34,22,19,16,16,10,11,15,7,8,5,11,8,13,7,6,7,11,9,11,6,7,7,6,3,3,3,3,2,1,1,1,1,-1,0,0,0,1,-1,-5,-2,0,2,1,2,4,8,5,3,1,5,29,28,30,12,26,59,40,22,58,34,14,15,3,10,9,21,2,6,7,1,1,9,5,0,12,12,10,11,9,9,13,16,9,13,0,38,19,26,32,39,42,30,48,6,7,24,59,72,74,65,37,22,59,75,55,36,26,49,52,45,54,62,65,30,22,24,22,16,18,13,7,3,0,-5,-11,-11,-11,-2,-5,-5,-4,-22,-16,-6,-12,-3,-6,-6,-5,-21,-18,-22,-23,-21,-7,-33,-33,-19,-36,-9,-14,-114,-52,-13,-72,-88,-36,-86,-47,-42,-52,-33,-20,-22,-47,-59,-44,-29,-28,-51,-67,-36,-76,-27,-38,-63,-65,-78,-71,-85,-33,-20,-22,-13,-18,-6,-6,0,5,19,3,3,14,28,34,22,19,8,28,4,25,30,18,13,8,4,0,1,3,0,5,7,4,9,16,8,29,16,46,44,43,177,98,110,92,214,115,44,41,25,24,92,36,11,11,46,79,53,95,41,57,135,24,9,92,72,66,81,17,95,90,112,61,13,49,80,18,70,50,32,11,10,5,6,0,0,0,-4,-4,-6,-13,-11,-9,-16,-18,-22,-47,-110,-100,-54,-76,-126,-101,-23,-23,-5,-230,-239,-18,-23,-141,-110,-127,-215,-55,-81,-27,-71,-115,-54,-133,-53,-277],
      "delta_lng":[0,-58,-27,-52,-11,-4,0,0,3,3,3,7,4,6,7,5,4,2,9,6,12,9,8,8,11,14,21,10,15,16,16,9,7,12,11,15,10,9,28,39,179,247,80,200,848,61,618,490,214,26,14,22,34,65,34,18,17,20,126,100,97,34,77,179,129,64,177,104,48,76,33,160,153,259,24,98,68,24,10,134,77,2,178,157,134,148,119,95,85,92,42,44,3,120,68,86,108,129,140,104,159,20,24,79,198,193,200,178,99,60,162,199,150,94,72,128,143,123,138,170,166,77,58,71,67,59,74,69,68,71,67,74,66,70,66,10,32,30,31,137,116,44,64,13,30,25,23,117,107,113,137,125,36,203,193,114,176,33,30,188,80,21,114,138,55,135,72,68,79,43,19,20,39,49,40,23,23,38,51,34,72,28,43,60,50,60,49,52,34,24,36,23,71,30,99,44,47,270,44,74,167,291,375,232,203,87,310,44,279,325,183,157,155,264,56,311,457,38,376,410,196,66,56,24,64,27,75,59,53,222,124,139,113,266,143,56,65,49,49,210,90,27,30,124,230,149,269,102,159,378,65,25,259,198,189,233,46,269,263,310,177,38,134,229,48,204,148,101,33,48,25,49,34,27,43,53,36,31,52,34,18,37,38,44,91,81,54,26,25,34,40,9,8,1,87,92,6,6,53,43,54,84,26,29,11,13,31,20,54,22,108]
    }
  ]
}