{
  "code":11332,
  "name":"JR京浜東北線",
  "color":"#00B2E5",
  "symbol":"JK",
  "station_list":[
    {"code":100403,"id":"d73fff","name":"大宮(埼玉)","name_kana":"おおみや","lat":35.906439,"lng":139.62405,"prefecture":11,"numbering":[{"index":"47"}],"lines":[11319,11321,11322,11323,11328,11332,11333,21004,99321,1004,1005],"attr":"heat","postal_code":"330-0853","address":"さいたま市大宮区錦町"},
    {"code":1131905,"id":"adcea8","name":"さいたま新都心","name_kana":"さいたましんとしん","lat":35.893867,"lng":139.633587,"prefecture":11,"numbering":[{"index":"46"}],"lines":[11319,11323,11332],"attr":"heat","postal_code":"330-0843","address":"さいたま市大宮区吉敷町４丁目５７番地３"},
    {"code":1133203,"id":"62b1e3","name":"与野","name_kana":"よの","lat":35.884393,"lng":139.639085,"prefecture":11,"numbering":[{"index":"45"}],"lines":[11332],"attr":"heat","postal_code":"330-0071","address":"さいたま市浦和区上木崎１丁目"},
    {"code":1133204,"id":"d5f340","name":"北浦和","name_kana":"きたうらわ","lat":35.872053,"lng":139.645951,"prefecture":11,"numbering":[{"index":"44"}],"lines":[11332],"attr":"heat","postal_code":"330-0074","address":"さいたま市浦和区北浦和３丁目"},
    {"code":1131904,"id":"09f3a7","name":"浦和","name_kana":"うらわ","lat":35.858496,"lng":139.657109,"prefecture":11,"numbering":[{"index":"43"}],"lines":[11319,11323,11332,11333],"attr":"heat","postal_code":"330-0063","address":"さいたま市浦和区高砂１丁目"},
    {"code":1130511,"id":"3d56d8","name":"南浦和","name_kana":"みなみうらわ","lat":35.847648,"lng":139.669125,"prefecture":11,"numbering":[{"index":"42"}],"lines":[11305,11332],"attr":"heat","postal_code":"336-0017","address":"さいたま市南区南浦和２丁目"},
    {"code":1133207,"id":"22782b","name":"蕨","name_kana":"わらび","lat":35.827959,"lng":139.690357,"prefecture":11,"numbering":[{"index":"41"}],"lines":[11332],"attr":"cool","postal_code":"335-0004","address":"蕨市中央１丁目"},
    {"code":1133208,"id":"c34b3f","name":"西川口","name_kana":"にしかわぐち","lat":35.815514,"lng":139.704312,"prefecture":11,"numbering":[{"index":"40"}],"lines":[11332],"attr":"eco","postal_code":"332-0034","address":"川口市並木町２丁目"},
    {"code":1133209,"id":"db561a","name":"川口","name_kana":"かわぐち","lat":35.801869,"lng":139.717472,"prefecture":11,"numbering":[{"index":"39"}],"lines":[11332],"attr":"eco","postal_code":"332-0017","address":"川口市栄町３丁目"},
    {"code":1131903,"id":"2fef76","name":"赤羽","name_kana":"あかばね","lat":35.778026,"lng":139.720928,"prefecture":13,"numbering":[{"index":"38"}],"lines":[11319,11321,11323,11332,11333],"attr":"heat","postal_code":"115-0045","address":"北区赤羽１丁目"},
    {"code":1133211,"id":"47aa12","name":"東十条","name_kana":"ひがしじゅうじょう","lat":35.763803,"lng":139.726858,"prefecture":13,"numbering":[{"index":"37"}],"lines":[11332],"attr":"cool","postal_code":"114-0001","address":"北区東十条３丁目"},
    {"code":1133212,"id":"b8c715","name":"王子","name_kana":"おうじ","lat":35.752165,"lng":139.738478,"prefecture":13,"numbering":[{"index":"36"}],"lines":[11332,28009],"attr":"cool","postal_code":"114-0002","address":"北区王子１丁目"},
    {"code":1133213,"id":"ad336a","name":"上中里","name_kana":"かみなかざと","lat":35.74728,"lng":139.745769,"prefecture":13,"numbering":[{"index":"35"}],"lines":[11332],"attr":"cool","postal_code":"114-0016","address":"北区上中里１丁目"},
    {"code":1130216,"id":"fc4da0","name":"田端","name_kana":"たばた","lat":35.737781,"lng":139.761229,"prefecture":13,"numbering":[{"index":"34"}],"lines":[11302,11332],"attr":"heat","postal_code":"114-0013","address":"東京都北区東田端一丁目17-1"},
    {"code":1130217,"id":"202b50","name":"西日暮里","name_kana":"にしにっぽり","lat":35.731954,"lng":139.766857,"prefecture":13,"numbering":[{"index":"33"}],"lines":[11302,11332,28005,99342],"attr":"heat","postal_code":"116-0013","address":"東京都荒川区西日暮里五丁目22-1"},
    {"code":1130218,"id":"84218b","name":"日暮里","name_kana":"にっぽり","lat":35.727908,"lng":139.771287,"prefecture":13,"numbering":[{"index":"32"}],"lines":[11302,11320,11332,23001,23006,99342],"attr":"heat","postal_code":"116-0013","address":"東京都荒川区西日暮里二丁目19-1"},
    {"code":1130219,"id":"7011f0","name":"鶯谷","name_kana":"うぐいすだに","lat":35.721484,"lng":139.778015,"prefecture":13,"numbering":[{"index":"31"}],"lines":[11302,11332],"attr":"heat","postal_code":"110-0003","address":"東京都台東区根岸一丁目4-1"},
    {"code":100402,"id":"93946c","name":"上野","name_kana":"うえの","lat":35.71379,"lng":139.777043,"prefecture":13,"numbering":[{"index":"30"}],"lines":[11302,11319,11320,11323,11332,11343,28001,28003,1004,1005],"attr":"heat","postal_code":"110-0005","address":"東京都台東区上野七丁目1-1"},
    {"code":1130221,"id":"571f00","name":"御徒町","name_kana":"おかちまち","lat":35.707282,"lng":139.774727,"prefecture":13,"numbering":[{"index":"29"}],"lines":[11302,11332],"attr":"heat","postal_code":"110-0005","address":"東京都台東区上野五丁目27"},
    {"code":1130222,"id":"41a869","name":"秋葉原","name_kana":"あきはばら","lat":35.69862,"lng":139.77329,"prefecture":13,"numbering":[{"index":"28"}],"lines":[11302,11313,11332,28003,99309],"attr":"heat","postal_code":"101-0021","address":"東京都千代田区外神田一丁目17"},
    {"code":1130223,"id":"d0d7ec","name":"神田(東京)","name_kana":"かんだ","lat":35.691173,"lng":139.770641,"prefecture":13,"numbering":[{"index":"27"}],"lines":[11302,11312,11332,28001],"attr":"heat","postal_code":"101-0044","address":"東京都千代田区鍛冶町二丁目13-1"},
    {"code":100201,"id":"8b222f","name":"東京","name_kana":"とうきょう","lat":35.681391,"lng":139.766103,"prefecture":13,"numbering":[{"index":"26"}],"lines":[11301,11302,11308,11311,11312,11314,11326,11328,11332,11343,28002,1002,1004,1005],"attr":"heat","postal_code":"100-0005","address":"東京都千代田区丸の内一丁目"},
    {"code":1130225,"id":"7a9dfd","name":"有楽町","name_kana":"ゆうらくちょう","lat":35.675441,"lng":139.763806,"prefecture":13,"numbering":[{"index":"25"}],"lines":[11302,11332,28006],"attr":"heat","postal_code":"100-0006","address":"東京都千代田区有楽町二丁目9"},
    {"code":1130102,"id":"c3891c","name":"新橋","name_kana":"しんばし","lat":35.666195,"lng":139.758587,"prefecture":13,"numbering":[{"index":"24"}],"lines":[11301,11302,11308,11332,28001,99302,99311],"attr":"heat","postal_code":"105-0004","address":"東京都港区新橋二丁目17"},
    {"code":1130227,"id":"d22a54","name":"浜松町","name_kana":"はままつちょう","lat":35.655391,"lng":139.757135,"prefecture":13,"numbering":[{"index":"23"}],"lines":[11302,11332,99336],"attr":"heat","postal_code":"105-0022","address":"東京都港区海岸一丁目3-1"},
    {"code":1130228,"id":"ddf57e","name":"田町(東京)","name_kana":"たまち","lat":35.645736,"lng":139.747575,"prefecture":13,"numbering":[{"index":"22"}],"lines":[11302,11332],"attr":"heat","postal_code":"108-0014","address":"東京都港区芝五丁目33-36"},
    {"code":1130230,"id":"654c8f","name":"高輪ゲートウェイ","name_kana":"たかなわげーとうぇい","lat":35.635468,"lng":139.740749,"prefecture":13,"numbering":[{"index":"21"}],"lines":[11302,11332],"attr":"heat","postal_code":"108-0075","address":"港区港南二丁目10-145"},
    {"code":100202,"id":"73e262","name":"品川","name_kana":"しながわ","lat":35.62876,"lng":139.738999,"prefecture":13,"numbering":[{"index":"20"}],"lines":[11301,11302,11308,11328,11332,27001,1002],"attr":"heat","postal_code":"108-0074","address":"東京都港区高輪三丁目26-27"},
    {"code":1133228,"id":"6dde5c","name":"大井町","name_kana":"おおいまち","lat":35.606257,"lng":139.73485,"prefecture":13,"numbering":[{"index":"19"}],"lines":[11332,26004,99337],"attr":"cool","postal_code":"140-0014","address":"品川区大井１丁目"},
    {"code":1133229,"id":"f14198","name":"大森(東京)","name_kana":"おおもり","lat":35.588903,"lng":139.728079,"prefecture":13,"numbering":[{"index":"18"}],"lines":[11332],"attr":"cool","postal_code":"143-0016","address":"大田区大森北１丁目"},
    {"code":1133230,"id":"2ed364","name":"蒲田","name_kana":"かまた","lat":35.562517,"lng":139.716032,"prefecture":13,"numbering":[{"index":"17"}],"lines":[11332,26005,26006],"attr":"cool","postal_code":"144-0052","address":"大田区蒲田５丁目"},
    {"code":1130104,"id":"c7e5b9","name":"川崎","name_kana":"かわさき","lat":35.531311,"lng":139.697485,"prefecture":14,"numbering":[{"index":"16"}],"lines":[11301,11303,11332],"attr":"cool","postal_code":"210-0007","address":"川崎市川崎区駅前本町"},
    {"code":1130401,"id":"2681c3","name":"鶴見","name_kana":"つるみ","lat":35.508387,"lng":139.67614,"prefecture":14,"numbering":[{"index":"15"}],"lines":[11304,11332],"attr":"cool","postal_code":"230-0051","address":"横浜市鶴見区鶴見中央"},
    {"code":1133233,"id":"f68db6","name":"新子安","name_kana":"しんこやす","lat":35.487064,"lng":139.654776,"prefecture":14,"numbering":[{"index":"14"}],"lines":[11332],"attr":"eco","postal_code":"221-0021","address":"横浜市神奈川区子安通"},
    {"code":1130601,"id":"21cb10","name":"東神奈川","name_kana":"ひがしかながわ","lat":35.47804,"lng":139.633466,"prefecture":14,"numbering":[{"index":"13"}],"lines":[11306,11332],"attr":"cool","postal_code":"221-0044","address":"横浜市神奈川区東神奈川"},
    {"code":1130105,"id":"b0c711","name":"横浜","name_kana":"よこはま","lat":35.466195,"lng":139.622704,"prefecture":14,"numbering":[{"index":"12"}],"lines":[11301,11307,11308,11328,11332,11333,26001,27001,29001,99310,99316],"attr":"cool","postal_code":"220-0011","address":"横浜市西区高島２丁目"}
  ],
  "north":35.90774,
  "south":35.46467,
  "east":139.77969,
  "west":139.6217,
  "polyline_list":[
    {
      "start":"東京",
      "end":"蕨",
      "lat":35.67711,
      "lng":139.76523,
      "delta_lat":[0,532,313,199,286,279,167,96,73,122,206,184,171,263,215,81,65,78,56,82,75,235,178,97,63,68,71,53,94,125,268,119,113,127,141,169,152,122,198,22,166,174,306,108,202,239,85,105,94,219,197,239,142,195,100,74,281,395,108,80,111,173,95,68,66,195,146,109,175,113,66,55,56,68,77,329,365,119,65,86,152,51,69,95,78,108,106,70,260,249,207,327,365,117,71,119,115,210,127,117,229,362,172,44],
      "delta_lng":[0,197,114,68,131,125,66,37,19,13,30,21,56,52,32,4,-4,-11,-6,19,49,185,141,82,21,5,-17,-26,-80,-135,-300,-140,-166,-149,-122,-138,-98,-123,-206,-21,-192,-208,-490,-240,-341,-483,-146,-99,-146,-203,-155,-165,-178,-275,-133,-69,-165,-242,-58,-32,-7,-2,-3,-20,-38,-129,-88,-57,-80,-51,-25,-12,-7,2,7,38,42,12,-6,15,14,0,-14,-27,-42,-63,-86,-65,-267,-241,-202,-332,-361,-114,-75,-142,-157,-279,-158,-112,-230,-360,-178,-37]
    },
    {
      "start":"蕨",
      "end":"南浦和",
      "lat":35.83535,
      "lng":139.68292,
      "delta_lat":[0,147,87,226,249,97,119,94,83,129,-67],
      "delta_lng":[0,-254,-108,-219,-246,-108,-152,-107,-69,-103,83]
    },
    {
      "start":"蕨",
      "end":"南浦和",
      "lat":35.83535,
      "lng":139.68292,
      "delta_lat":[0,181,184,197,141,83,59,195,124],
      "delta_lng":[0,-182,-183,-199,-138,-111,-86,-262,-122]
    },
    {
      "start":"南浦和",
      "end":"大宮",
      "lat":35.84699,
      "lng":139.67008,
      "delta_lat":[0,88,202,147,288,75,95,160,352,408,143,144,317,203,74,108,298,454,254,309,217,224,233,230,68,170,97,111,104,201,300],
      "delta_lng":[0,-92,-226,-155,-405,-105,-104,-116,-224,-277,-103,-144,-369,-222,-77,-77,-137,-203,-125,-144,-111,-126,-163,-188,-58,-182,-104,-95,-73,-103,-116]
    },
    {
      "start":"田町",
      "end":"東京",
      "lat":35.64373,
      "lng":139.74418,
      "delta_lat":[0,57,98,9,74,155,67,55,79,54,52,123,74,87,111,146,24,40,280,29,97,63,62,81,141,127,162,101,20,22,23,27,78,152,20,81,29,26,37,36,38,38,112,37,29,36,49],
      "delta_lng":[0,85,174,20,127,329,141,77,99,44,36,59,33,24,31,31,6,11,72,7,22,11,3,0,-18,-16,-12,3,2,7,10,15,48,81,11,43,20,20,41,44,47,48,144,46,27,28,24]
    },
    {
      "start":"品川",
      "end":"田町",
      "lat":35.62549,
      "lng":139.73881,
      "delta_lat":[0,89,49,120,209,78,85,63,42,156,86,76,200,111,59,85,119,69,64,64],
      "delta_lng":[0,14,15,-5,-14,12,56,55,20,34,19,37,113,59,22,8,4,20,29,39]
    },
    {
      "start":"品川",
      "end":"田町",
      "lat":35.62549,
      "lng":139.73881,
      "delta_lat":[0,59,29,32,31,227,86,134,153,59,59,40,25,81,162,74,75,98,27,96,36,16,69,115,-29,-50,120],
      "delta_lng":[0,2,-7,-6,-7,-19,-1,-3,0,7,13,13,11,40,91,42,40,54,12,36,11,6,59,101,-26,-40,108]
    },
    {
      "start":"川崎",
      "end":"品川",
      "lat":35.53518,
      "lng":139.7016,
      "delta_lat":[0,18,22,16,29,69,43,222,133,81,69,45,21,38,89,76,96,217,274,266,247,284,87,203,173,146,37,517,247,88,125,18,275,230,305,45,29,49,50,87,75,165,49,87,123,143,20,101,206,15,39,60,58,46,12,18,32,111,84,192,371,169,13,430,226,25,16,95,61,202,129,92,12,200,58,21,112,4,46,48],
      "delta_lng":[0,22,30,16,29,56,38,188,111,64,46,29,11,12,25,31,42,89,117,109,99,121,37,87,68,60,16,220,105,37,52,9,114,97,125,20,13,26,28,57,48,106,31,59,78,92,13,65,132,9,26,40,31,19,5,7,12,19,11,26,46,15,1,59,33,5,2,26,16,53,39,22,2,48,11,6,26,0,11,15]
    },
    {
      "start":"東神奈川",
      "end":"川崎",
      "lat":35.47706,
      "lng":139.6324,
      "delta_lat":[0,239,211,67,38,42,103,71,32,21,10,9,32,53,62,93,95,165,185,159,211,284,120,147,82,106,93,319,202,87,89,87,71,70,170,105,69,74,79,240,313,275,232,350,78,148,23],
      "delta_lng":[0,219,194,73,59,95,308,215,146,143,141,153,162,155,130,165,182,310,203,177,262,339,138,156,65,65,31,72,51,25,28,30,29,37,113,72,64,75,83,276,369,329,275,423,87,165,32]
    },
    {
      "start":"横浜",
      "end":"東神奈川",
      "lat":35.46467,
      "lng":139.6217,
      "delta_lat":[0,12,56,146,51,26,15,89,103,81,136,71,43,54,29,63,36,29,33,35,38,26,67],
      "delta_lng":[0,9,38,117,42,23,13,77,90,68,117,61,37,49,28,57,34,27,30,33,37,21,61]
    }
  ]
}