{
  "code":11337,
  "name":"JR信越本線",
  "color":"#9ACD32",
  "station_list":[
    {"code":100506,"id":"4505b7","name":"高崎","name_kana":"たかさき","lat":36.322239,"lng":139.012354,"prefecture":10,"lines":[1005,1009,11318,11323,11337,11341,11342,99327],"attr":"eco","postal_code":"370-0849","address":"高崎市八島町","next":[1134102,9932721,9932702,1133702,1131815],"voronoi":{"lat":36.318062,"lng":139.034969,"delta_lat":[0,-787,179,17121,-5698],"delta_lng":[0,-2700,-44723,25127,28712]}},
    {"code":1133702,"id":"7306ec","name":"北高崎","name_kana":"きたたかさき","lat":36.338791,"lng":139.001076,"prefecture":10,"lines":[11337],"attr":"eco","postal_code":"370-0803","address":"高崎市大橋町","next":[1134102,1133703,100506,9932702,1134103],"voronoi":{"lat":36.334575,"lng":139.012673,"delta_lat":[0,-17121,-3270,74610,-25966],"delta_lng":[0,-25127,-7658,-1966,21861]}},
    {"code":1133703,"id":"9397db","name":"群馬八幡","name_kana":"ぐんまわやた","lat":36.337641,"lng":138.957433,"prefecture":10,"lines":[11337],"attr":"eco","postal_code":"370-0884","address":"高崎市八幡町","next":[9932702,1134103,1134206,1133702,1133704,9932709,9932710,100902,9932711,1134205],"voronoi":{"lat":36.419328,"lng":138.95031,"delta_lat":[0,13666,-530,-134604,-99,-1272,1317,16378,74610,5678],"delta_lng":[0,-27880,-122,18704,287,18358,12719,7511,-1966,-1709]}},
    {"code":1133704,"id":"b857ae","name":"安中","name_kana":"あんなか","lat":36.331657,"lng":138.914368,"prefecture":10,"lines":[11337],"attr":"eco","postal_code":"379-0115","address":"安中市中宿","next":[1133705,9932713,1133703,9932712,9932711,100902],"voronoi":{"lat":36.330494,"lng":138.87406,"delta_lat":[0,-30148,-1891,-4539,3944,134604],"delta_lng":[0,15494,5980,25785,19693,-18704]}},
    {"code":1133705,"id":"f86c31","name":"磯部(群馬)","name_kana":"いそべ","lat":36.298397,"lng":138.84965,"prefecture":10,"lines":[11337],"attr":"heat","postal_code":"379-0127","address":"安中市磯部","next":[1133704,9932715,9932718,9932714,100902,9932713,9932716,9932717,1133706],"voronoi":{"lat":36.330494,"lng":138.87406,"delta_lat":[0,-30148,-3725,-10755,-9618,-5224,1849,3623,53822],"delta_lng":[0,15494,-3349,-12403,-15356,-16596,-17737,-6083,11142]}},
    {"code":1133706,"id":"c14674","name":"松井田","name_kana":"まついだ","lat":36.309151,"lng":138.797705,"prefecture":10,"lines":[11337],"attr":"heat","postal_code":"379-0225","address":"安中市松井田町八城","next":[100902,9932718,1133707,9932719,1133705],"voronoi":{"lat":36.276495,"lng":138.81803,"delta_lat":[0,-7026,-234,76700,-15618],"delta_lng":[0,-30871,-22166,48093,16086]}},
    {"code":1133707,"id":"f13f2c","name":"西松井田","name_kana":"にしまついだ","lat":36.316067,"lng":138.786675,"prefecture":10,"lines":[11337],"attr":"cool","postal_code":"379-0221","address":"安中市松井田町新堀","next":[1133708,9932719,1133706,100902],"voronoi":{"lat":36.269235,"lng":138.764994,"delta_lat":[0,-3791,117648,-37157],"delta_lng":[0,-27480,48127,27446]}},
    {"code":1133708,"id":"d60a13","name":"横川(群馬)","name_kana":"よこかわ","lat":36.336009,"lng":138.737926,"prefecture":10,"lines":[11337],"attr":"cool","postal_code":"379-0301","address":"安中市松井田町横川","next":[1133707,100902,1133512,9932719,1133509,1133510,9932720,100903],"voronoi":{"lat":36.241256,"lng":138.679941,"delta_lat":[0,18494,5694,117648,58620,1351,4807,-7154],"delta_lng":[0,47616,9956,48127,-13878,-4549,-22474,-51453]}}
  ],
  "north":36.34015,
  "south":36.29625,
  "east":139.01249,
  "west":138.73647,
  "polyline_list":[
    {
      "start":"高崎",
      "end":"北高崎",
      "lat":36.32059,
      "lng":139.01249,
      "delta_lat":[0,84,196,56,57,1052,20,25,7,17,18,15,15,27,29,29,9,20,14,22,20,20,12,66,18,9,34,7,9,7,3,3,6,0,2,6,3,3,4,2,0,3,0,3,1,1,1],
      "delta_lng":[0,-6,-19,-5,-6,-108,-19,-30,-8,-25,-28,-26,-30,-60,-109,-87,-25,-66,-42,-69,-60,-61,-40,-203,-64,-29,-119,-24,-29,-29,-21,-23,-52,-45,-73,-255,-71,-124,-119,-106,-25,-136,-40,-57,-20,-36,-21]
    },
    {
      "start":"横川",
      "end":"北高崎",
      "lat":36.33604,
      "lng":138.73647,
      "delta_lat":[0,9,-31,-16,-12,-10,-12,-17,-21,-11,-23,-19,-14,-6,-5,-5,-5,-8,-3,-6,-9,-11,-18,-27,-36,-36,-35,-42,-32,-38,-31,-25,-29,-34,-6,-16,-47,-72,-52,-42,-38,-21,-28,-22,-15,-10,-4,-5,-2,-3,-2,-2,-6,-6,-12,-33,-26,-52,-18,-9,-12,-21,-31,-54,-39,-40,-17,-20,-11,-25,-9,-25,-2,-12,-11,-17,-7,-4,-5,-12,-9,-12,-9,-5,-5,-11,-16,-86,-59,-34,-47,-82,-56,-47,-40,-59,-157,-59,-155,-45,-18,-9,-47,-54,-51,-38,-48,-44,-34,-11,-11,-14,-17,-68,-28,-34,-51,-20,-14,-11,-1,-11,-7,-62,-35,-47,-144,-43,-49,-32,-44,-26,-4,-29,-28,-20,-21,-19,-10,-15,-16,-9,-12,-11,-13,-16,-18,-19,-5,-18,-14,-10,-9,-5,0,2,7,15,10,2,22,31,14,4,22,16,30,18,9,2,4,2,0,4,1,2,2,5,3,4,13,27,20,25,69,31,14,25,27,10,63,33,28,51,24,35,80,38,27,58,137,123,72,42,108,156,123,137,47,20,103,143,134,70,87,23,114,83,111,108,87,59,1,68,87,88,73,58,43,29,31,16,16,6,5,3,-3,6,6,5,1,2,4,2,3,4,5,3,2,4,8,18,17,13,32,28,29,37,156,14,86,19,29,31,25,31,11,7,7,4,2,-5,-9,-14,-6,-13,-7,0,0,3,2,0,3,3,5,2,3,2,6,5,2,5,2,4,3,7,13,20,5,13,18,35,14,11,9,9,16,18,6,5,4,2,0,1,-1],
      "delta_lng":[0,3,279,79,42,30,40,55,72,30,65,59,45,29,24,28,34,62,61,40,47,36,42,54,62,57,45,44,27,35,28,33,41,45,10,24,71,114,80,64,59,32,45,48,40,35,32,38,63,75,32,39,31,23,41,115,87,172,51,21,22,29,38,69,50,49,24,36,27,61,25,69,4,39,46,102,65,48,39,107,75,102,71,27,18,25,28,134,94,52,73,130,88,70,67,93,250,93,248,72,26,15,77,87,78,59,75,69,55,20,22,31,36,169,75,93,141,55,35,23,3,21,15,108,58,81,237,89,101,62,96,51,8,64,56,42,49,50,32,47,50,46,65,73,85,108,115,127,30,114,101,69,66,49,36,44,48,97,59,11,135,183,93,13,127,97,168,114,82,84,115,196,36,199,82,47,77,247,81,41,77,97,54,71,190,84,39,67,71,28,179,89,67,107,43,60,122,57,38,81,200,172,104,61,158,233,189,205,74,35,154,225,210,108,137,35,176,127,171,145,114,77,1,89,115,114,97,76,57,43,52,39,55,32,41,59,96,219,112,184,149,40,155,69,107,171,180,97,79,51,43,78,45,32,51,34,26,31,126,12,68,20,33,42,43,53,27,26,35,34,68,111,127,216,96,212,170,268,147,214,175,10,247,105,199,64,173,133,150,284,87,237,83,65,30,48,64,95,30,56,72,154,64,47,36,42,71,74,28,26,22,34,36,63,55]
    }
  ]
}