{
  "code":11345,
  "id":"012aba",
  "name":"JR足尾線",
  "name_kana":"じぇいあーるあしおせん",
  "name_formal":"JR足尾線",
  "station_size":14,
  "company_code":1,
  "closed":true,
  "station_list":[
    {"code":1134111,"id":"5d17f9","name":"桐生","name_kana":"きりゅう","lat":36.41109,"lng":139.33319,"prefecture":10,"lines":[11341,99312,11345],"attr":"cool","postal_code":"376-0045","address":"桐生市末広町","next":[2101106,9932821,9931202,1134112,9932822],"voronoi":{"lat":36.411485,"lng":139.326037,"delta_lat":[0,-3415,-3721,-18412,33954],"delta_lng":[0,-1649,681,22523,29757]},"impl":true},
    {"code":2101107,"id":"3c9d62","name":"相老","name_kana":"あいおい","lat":36.410261,"lng":139.304178,"prefecture":10,"lines":[21011,99312,11345],"attr":"eco","postal_code":"376-0011","address":"桐生市相生町２丁目","next":[9932819,9931204,9932823,1134110,9931202],"voronoi":{"lat":36.399658,"lng":139.3075,"delta_lat":[0,8133,7090,513,-5779],"delta_lng":[0,-16448,10128,1560,7028]},"impl":true},
    {"code":9931205,"id":"95516f","name":"大間々","name_kana":"おおまま","lat":36.434617,"lng":139.277559,"prefecture":10,"lines":[99312,11345],"attr":"cool","postal_code":"376-0101","address":"みどり市大間々町大間々","open_date":"1911-04-15","next":[9932816,9931206,9931208,9931204,9932823,2101108,9932817],"voronoi":{"lat":36.429071,"lng":139.289314,"delta_lat":[0,5912,32248,6,-23052,-1339,-12064],"delta_lng":[0,4465,19711,-19279,-41125,1092,15269]},"impl":true},
    {"code":9931206,"id":"cd33d3","name":"上神梅","name_kana":"かみかんばい","lat":36.470053,"lng":139.257696,"prefecture":10,"lines":[99312,11345],"attr":"cool","postal_code":"376-0104","address":"みどり市大間々町上神梅","open_date":"1912-12-31","next":[9932811,9931207,9931205,9931208,9932815,9932814,9932813,9932810,9932816],"voronoi":{"lat":36.467236,"lng":139.294212,"delta_lat":[0,4338,14206,-3104,-103,-23440,-5999,-8933,-17],"delta_lng":[0,-6505,-100039,2008,80,26689,8939,22178,5525]},"impl":true},
    {"code":9931208,"id":"8be736","name":"水沼","name_kana":"みずぬま","lat":36.499866,"lng":139.277579,"prefecture":10,"lines":[99312,11345],"attr":"heat","postal_code":"376-0141","address":"桐生市黒保根町水沼","open_date":"1912-09-05","next":[9932821,1134210,9931207,9931205,9931206,9931204,9931209],"voronoi":{"lat":36.640338,"lng":139.202216,"delta_lat":[0,-58488,-110275,-4338,-6,1849,587],"delta_lng":[0,-26003,111494,6505,19279,6316,1115]},"impl":true},
    {"code":9931209,"id":"c4663a","name":"花輪","name_kana":"はなわ","lat":36.520809,"lng":139.30769,"prefecture":10,"lines":[99312,11345],"attr":"heat","postal_code":"376-0307","address":"みどり市東町花輪","open_date":"1912-12-31","next":[9931210,9931211,9932821,1134211,1134210,9931208],"voronoi":{"lat":36.640338,"lng":139.202216,"delta_lat":[0,31485,42634,-92289,-151180,-1321],"delta_lng":[0,9845,19079,45407,54481,-10106]},"impl":true},
    {"code":9931211,"id":"b2d972","name":"小中","name_kana":"こなか","lat":36.535644,"lng":139.337842,"prefecture":10,"lines":[99312,11345],"attr":"eco","postal_code":"376-0308","address":"みどり市東町小中","open_date":"1912-12-31","next":[9931210,9931214,9931209,1134211,9931215,9931212,9931213],"voronoi":{"lat":36.642214,"lng":139.302382,"delta_lat":[0,55143,26007,-8907,-92289,-136813,87646],"delta_lng":[0,-42434,-25658,-3151,45407,75634,-8550]},"impl":true},
    {"code":9931212,"id":"ef37b3","name":"神戸(群馬)","original_name":"神戸","name_kana":"ごうど","lat":36.537467,"lng":139.35653,"prefecture":10,"lines":[99312,11345],"attr":"eco","postal_code":"376-0304","address":"みどり市東町神戸","open_date":"1912-09-05","next":[9931213,9931210,9932822,9931211,1134112],"voronoi":{"lat":36.461858,"lng":139.416756,"delta_lat":[0,11718,11779,87646,-107309],"delta_lng":[0,-60613,-3963,-8550,107961]},"impl":true},
    {"code":9931213,"id":"b9aa08","name":"草木","name_kana":"くさき","closed":true,"lat":36.560317,"lng":139.379242,"prefecture":10,"lines":[11345],"postal_code":"376-0302","address":"群馬県みどり市東町草木","open_date":"1959-09-08","closed_date":"1973-06-27","next":[9931214,1134114,9931212,1134113,2101008,2101010,9931211,1134112,2101009],"voronoi":{"lat":36.47209,"lng":139.488574,"delta_lat":[0,-3101,-2778,-1016,496,107309,69213,-161873,-3595],"delta_lng":[0,-2956,-8236,-6738,-19052,-107961,-41248,192699,-2539]},"impl":false},
    {"code":9931214,"id":"782340","name":"沢入","name_kana":"そうり","lat":36.58064,"lng":139.396314,"prefecture":10,"lines":[99312,11345],"attr":"eco","postal_code":"376-0301","address":"みどり市東町沢入","open_date":"1912-12-31","next":[9931213,9931211,9931215,2101010],"voronoi":{"lat":36.697356,"lng":139.259948,"delta_lat":[0,-55143,-161873,39031],"delta_lng":[0,42434,192699,33496]},"impl":true},
    {"code":9931215,"id":"441c9c","name":"原向","name_kana":"はらむこう","lat":36.617284,"lng":139.420593,"prefecture":9,"lines":[99312,11345],"attr":"cool","postal_code":"321-1511","address":"日光市足尾町３０６６番地","open_date":"1912-12-31","next":[1134211,9931218,1134215,9931214,9931211,9931217,9931216,2101010],"voronoi":{"lat":36.519372,"lng":139.528578,"delta_lat":[0,177985,26007,69698,1679,-91839,-128073,-52933],"delta_lng":[0,-268629,-25658,4569,717,112826,131262,47848]},"impl":true},
    {"code":9931216,"id":"f2760f","name":"通洞","name_kana":"つうどう","lat":36.636837,"lng":139.439671,"prefecture":9,"lines":[99312,11345],"attr":"cool","postal_code":"321-1523","address":"日光市足尾町松原","open_date":"1912-12-31","next":[9931218,9931215,9931217],"voronoi":{"lat":36.702902,"lng":139.352402,"delta_lat":[0,-52886,-75187],"delta_lng":[0,84713,46549]},"impl":true},
    {"code":9931217,"id":"526d06","name":"足尾","name_kana":"あしお","lat":36.641853,"lng":139.447773,"prefecture":9,"lines":[99312,11345],"attr":"cool","postal_code":"321-1512","address":"日光市足尾町掛水","open_date":"1912-12-31","next":[2100321,9931218,9931215,2101010,9931216],"voronoi":{"lat":36.521895,"lng":139.531513,"delta_lat":[0,25884,74561,27675,-75187],"delta_lng":[0,39109,6418,-139924,46549]},"impl":true},
    {"code":9931218,"id":"71473f","name":"間藤","name_kana":"まとう","lat":36.653507,"lng":139.450078,"prefecture":9,"lines":[99312,11345],"attr":"cool","postal_code":"321-1506","address":"日光市足尾町下間藤","open_date":"1914-11-01","next":[2100321,1134215,9931215,1122729,2100326,9931217,9931216,9934105],"voronoi":{"lat":36.983832,"lng":139.346284,"delta_lat":[0,-14870,-174221,-91839,-52886,-27675,2487,307953],"delta_lng":[0,-50681,-56027,112826,84713,139924,328,-171927]},"impl":true}
  ],
  "closed_date":"1989-03-29",
  "impl":false
}