{
  "code":11344,
  "id":"1cca44",
  "name":"JR真岡線",
  "name_kana":"じぇいあーるもおかせん",
  "name_formal":"JR真岡線",
  "station_size":12,
  "company_code":1,
  "closed":true,
  "station_list":[
    {"code":1133907,"id":"bc7bc4","name":"下館","name_kana":"しもだて","lat":36.304197,"lng":139.97866,"prefecture":8,"lines":[11339,99318,99330,11344],"attr":"heat","postal_code":"308-0041","address":"茨城県筑西市乙86","next":[1133906,1133908,9931823,9935112,9931822,9933002],"voronoi":{"lat":36.304192,"lng":139.958159,"delta_lat":[0,-5472,-23833,-2031,1905,49919],"delta_lng":[0,769,32648,32760,891,-19735]},"impl":true},
    {"code":9933003,"id":"665a65","name":"折本","name_kana":"おりもと","lat":36.340684,"lng":139.971232,"prefecture":8,"lines":[99330,11344],"attr":"cool","postal_code":"308-0007","address":"筑西市折本","open_date":"1912-04-01","next":[9933002,1133908,1133905,1133906,9933004],"voronoi":{"lat":36.34591,"lng":139.921274,"delta_lat":[0,-492,-16777,2737,20485],"delta_lng":[0,402,21565,61355,3805]},"impl":true},
    {"code":9933005,"id":"94a0c9","name":"久下田","name_kana":"くげた","lat":36.37606,"lng":139.971756,"prefecture":9,"lines":[99330,11344],"attr":"cool","postal_code":"321-4521","address":"栃木県真岡市久下田","open_date":"1912-04-01","next":[9933004,1131921,1131920,9933006,1133908],"voronoi":{"lat":36.406945,"lng":139.919525,"delta_lat":[0,-7043,-27329,-9557,18402],"delta_lng":[0,-4046,-4516,102253,13115]},"impl":true},
    {"code":9933006,"id":"c12616","name":"寺内","name_kana":"てらうち","lat":36.410876,"lng":139.980077,"prefecture":9,"lines":[99330,11344],"attr":"cool","postal_code":"321-4345","address":"真岡市寺内","open_date":"1912-04-01","next":[1131922,1133908,9933007,1131921,1133909,9933005],"voronoi":{"lat":36.406945,"lng":139.919525,"delta_lat":[0,47725,11611,-76114,-5107,-3642],"delta_lng":[0,10775,9328,95394,-3581,-5110]},"impl":true},
    {"code":9933007,"id":"5a124f","name":"真岡","name_kana":"もおか","lat":36.439144,"lng":140.002632,"prefecture":9,"lines":[99330,11344],"attr":"cool","postal_code":"321-4306","address":"真岡市台町","open_date":"1912-04-01","next":[1133909,1131922,9933006,9933008,100405,9933009],"voronoi":{"lat":36.412003,"lng":140.036293,"delta_lat":[0,92089,-120,-37691,-76114,4906],"delta_lng":[0,-80140,-138,-16387,95394,6505]},"impl":true},
    {"code":9933008,"id":"be9771","name":"北真岡","name_kana":"きたもおか","lat":36.44909,"lng":140.014061,"prefecture":9,"lines":[99330,11344],"attr":"cool","postal_code":"321-4362","address":"真岡市熊倉町","open_date":"1955-04-01","next":[9933009,9933013,100405,1131924,9933007],"voronoi":{"lat":36.504093,"lng":139.956153,"delta_lat":[0,15796,15801,-20987,-102699],"delta_lng":[0,15042,33800,18521,12777]},"impl":true},
    {"code":9933009,"id":"5e5c40","name":"西田井","name_kana":"にしだい","lat":36.453407,"lng":140.04876,"prefecture":9,"lines":[99330,11344],"attr":"cool","postal_code":"321-4301","address":"真岡市西田井","open_date":"1913-07-11","next":[9933008,9933012,1133909,9933010,9933013,9933007],"voronoi":{"lat":36.400327,"lng":140.064694,"delta_lat":[0,93728,2121,18526,-102699,-16930],"delta_lng":[0,-11169,-1785,-28223,12777,5234]},"impl":true},
    {"code":9933011,"id":"f409c1","name":"益子","name_kana":"ましこ","lat":36.462965,"lng":140.088526,"prefecture":9,"lines":[99330,11344],"attr":"cool","postal_code":"321-4217","address":"芳賀郡益子町益子","open_date":"1913-07-11","next":[1133910,9933016,9933012,9933010,1133913,1133911],"voronoi":{"lat":36.444485,"lng":140.173001,"delta_lat":[0,20398,16813,-71189,7384,16317],"delta_lng":[0,-20019,-82713,24963,37843,32284]},"impl":true},
    {"code":9933012,"id":"bf2d44","name":"七井","name_kana":"なない","lat":36.491814,"lng":140.09439,"prefecture":9,"lines":[99330,11344],"attr":"eco","postal_code":"321-4104","address":"芳賀郡益子町大沢","open_date":"1913-07-11","next":[9933014,9933009,9933011,9933013,9933010,9933015,9933016],"voronoi":{"lat":36.481697,"lng":140.070269,"delta_lat":[0,12359,2121,12894,-1626,-13212,-29349],"delta_lng":[0,-16744,-1785,67648,4747,11025,17822]},"impl":true},
    {"code":9933013,"id":"541f2a","name":"多田羅","name_kana":"たたら","lat":36.515922,"lng":140.089795,"prefecture":9,"lines":[99330,11344],"attr":"eco","postal_code":"321-3425","address":"芳賀郡市貝町多田羅","open_date":"1955-04-01","next":[9933014,1131924,1133402,9933008,9933012,9933009,1131925],"voronoi":{"lat":36.579367,"lng":140.043295,"delta_lat":[0,-70296,-12894,18526,20987,21425,17556],"delta_lng":[0,76092,-67648,-28223,-18521,12119,18427]},"impl":true},
    {"code":9933014,"id":"dca826","name":"市塙","name_kana":"いちはな","lat":36.538029,"lng":140.110218,"prefecture":9,"lines":[99330,11344],"attr":"heat","postal_code":"321-3423","address":"芳賀郡市貝町市塙","open_date":"1920-12-15","next":[9933012,9933013,1133403,1133406,1133405,1133402,9933015],"voronoi":{"lat":36.593153,"lng":140.070465,"delta_lat":[0,-1087,-11550,-1150,-70296,-1626,81881],"delta_lng":[0,-8825,-17078,-1266,76092,4747,9740]},"impl":true},
    {"code":9933017,"id":"0597a3","name":"茂木","name_kana":"もてぎ","lat":36.530851,"lng":140.181382,"prefecture":9,"lines":[99330,11344],"attr":"heat","postal_code":"321-3531","address":"芳賀郡茂木町茂木","open_date":"1920-12-15","next":[1133914,9933015,9933016,1133408,9935316,1133913],"voronoi":{"lat":36.472724,"lng":140.264267,"delta_lat":[0,136773,-18897,-20441,-125305,9504],"delta_lng":[0,-10387,-85896,-1712,7730,45769]},"impl":true}
  ],
  "closed_date":"1988-04-11",
  "impl":false
}