{
  "code":11403,
  "name":"JR信越本線(篠ノ井～長野)",
  "color":"#00BFFF",
  "station_list":[
    {"code":1140301,"id":"6bd549","name":"篠ノ井","name_kana":"しののい","lat":36.5771,"lng":138.138046,"prefecture":20,"lines":[11403,11412,99403],"attr":"cool","postal_code":"388-8007","address":"長野市篠ノ井布施高田"},
    {"code":1140302,"id":"8da665","name":"今井","name_kana":"いまい","lat":36.595732,"lng":138.145347,"prefecture":20,"lines":[11403],"attr":"cool","postal_code":"381-2226","address":"長野市川中島町今井２９６番地"},
    {"code":1140303,"id":"02d89f","name":"川中島","name_kana":"かわなかじま","lat":36.614167,"lng":138.150679,"prefecture":20,"lines":[11403],"attr":"cool","postal_code":"381-2233","address":"長野市川中島町上氷鉋"},
    {"code":1140304,"id":"1248e7","name":"安茂里","name_kana":"あもり","lat":36.630262,"lng":138.161791,"prefecture":20,"lines":[11403],"attr":"cool","postal_code":"380-0941","address":"長野市安茂里"},
    {"code":100906,"id":"194165","name":"長野","name_kana":"ながの","lat":36.643307,"lng":138.189101,"prefecture":20,"lines":[11403,99405,99427,1009],"attr":"cool","postal_code":"380-0921","address":"長野市大字栗田１０３８番地"}
  ],
  "north":36.64438,
  "south":36.57581,
  "east":138.19025,
  "west":138.13765,
  "polyline_list":[
    {
      "start":"篠ノ井",
      "end":"二本木スイッチバック",
      "lat":36.57581,
      "lng":138.13765,
      "delta_lat":[0,85,175,194,110,132,110,257,121,144,113,142,291,67,165,123,158,219,190,6,20,86,72,247,44,42,102,244,81,178,131,219,92,164,172,74,61,43,28,37,29,24,45,40,36,56,64,75,51,29,35,48,90,74,46,77,67,145,15,109,29,38,37,19,35,18,9,13,13,19,33,38,37,39,113,112,140,22],
      "delta_lng":[0,31,65,75,44,50,44,103,49,57,42,55,115,26,65,49,62,84,70,2,5,19,16,52,11,9,20,50,16,38,30,57,28,47,51,22,18,15,12,18,17,19,47,49,59,94,118,135,98,51,64,88,165,138,81,143,115,243,25,189,60,91,99,75,186,116,46,58,41,63,79,65,56,62,180,176,214,33]
    }
  ]
}