{
  "code":11406,
  "name":"JR白新線",
  "color":"#F387B7",
  "station_list":[
    {"code":100512,"id":"503058","name":"新潟","name_kana":"にいがた","lat":37.912299,"lng":139.060869,"prefecture":15,"lines":[11404,11406,11408,1005],"attr":"eco","postal_code":"950-0086","address":"新潟市中央区花園１丁目"},
    {"code":1140602,"id":"6e5987","name":"東新潟","name_kana":"ひがしにいがた","lat":37.908773,"lng":139.108685,"prefecture":15,"lines":[11406],"attr":"eco","postal_code":"950-0824","address":"新潟市東区中島"},
    {"code":1140603,"id":"6b8cc9","name":"大形","name_kana":"おおがた","lat":37.915518,"lng":139.129272,"prefecture":15,"lines":[11406],"attr":"eco","postal_code":"950-0821","address":"新潟市東区岡山"},
    {"code":1140604,"id":"70f8b0","name":"新崎","name_kana":"にいざき","lat":37.922478,"lng":139.158558,"prefecture":15,"lines":[11406],"attr":"cool","postal_code":"950-3134","address":"新潟市北区新崎１丁目"},
    {"code":1140605,"id":"2c59e4","name":"早通","name_kana":"はやどおり","lat":37.92109,"lng":139.178173,"prefecture":15,"lines":[11406],"attr":"cool","postal_code":"950-3372","address":"新潟市北区早通"},
    {"code":1140606,"id":"c9428b","name":"豊栄","name_kana":"とよさか","lat":37.919351,"lng":139.215347,"prefecture":15,"lines":[11406],"attr":"cool","postal_code":"950-3325","address":"新潟市北区白新町１丁目"},
    {"code":1140607,"id":"f45100","name":"黒山","name_kana":"くろやま","lat":37.937128,"lng":139.241177,"prefecture":15,"lines":[11406],"attr":"cool","postal_code":"950-3313","address":"新潟市北区太田"},
    {"code":1140608,"id":"e29da5","name":"佐々木","name_kana":"ささき","lat":37.949716,"lng":139.270099,"prefecture":15,"lines":[11406],"attr":"cool","postal_code":"957-0081","address":"新発田市上中沢"},
    {"code":1140609,"id":"5eaeec","name":"西新発田","name_kana":"にししばた","lat":37.942097,"lng":139.303474,"prefecture":15,"lines":[11406],"attr":"heat","postal_code":"957-0062","address":"新発田市富塚町１丁目"},
    {"code":1121407,"id":"b3cded","name":"新発田","name_kana":"しばた","lat":37.94412,"lng":139.335189,"prefecture":15,"lines":[11214,11406],"attr":"cool","postal_code":"957-0055","address":"新発田市諏訪町１丁目"}
  ],
  "north":37.95082,
  "south":37.903,
  "east":139.33598,
  "west":139.05944,
  "polyline_list":[
    {
      "start":"新潟",
      "end":"デルタ",
      "lat":37.91178,
      "lng":139.05944,
      "delta_lat":[0,7,29,38,0,2,2,5,21,15,43,28,30,49,13,5,4,10,10,9,2,2,-2,-4,-9,-6,-17,-19,-22,-24,-22,-40,-12,-32,-32,-50,-103,-214,-94,-42,-28,-36,-73,-54,-73,-48,-29,-5,-15,-10,-34,-16,-1,-1,-3,-16,-8,-7,-1,3,3,2,20],
      "delta_lng":[0,33,114,148,6,6,12,30,111,71,187,117,127,217,47,16,17,43,49,54,27,55,25,32,50,32,51,50,41,28,25,38,9,18,21,37,70,141,67,31,20,22,66,66,91,70,47,10,29,25,80,42,2,7,17,80,42,88,63,55,22,13,76]
    },
    {
      "start":"デルタ",
      "end":"新発田",
      "lat":37.90328,
      "lng":139.0923,
      "delta_lat":[0,12,12,9,11,16,29,26,21,29,16,20,15,32,52,16,31,38,58,78,59,24,26,54,31,44,84,93,40,67,13,18,33,61,29,36,52,54,26,7,27,118,118,27,34,7,9,12,6,0,18,5,6,2,27,29,69,57,11,60,9,3,4,4,-4,-16,-56,-73,-34,-9,-47,-23,-80,-57,-30,-25,-29,-23,-10,-26,-26,-24,-10,-18,-31,-25,-26,-23,-21,-14,-23,-18,-1,-1,-3,-2,1,6,15,30,26,26,40,24,61,89,91,65,205,36,64,25,101,69,63,45,19,164,108,96,113,33,37,45,65,81,53,72,4,113,48,83,36,70,112,57,20,86,106,64,54,105,123,192,2,144,52,15,18,34,14,8,-4,-16,-32,-35,-1,-42,-49,-67,-128,-31,-71,-92,-52,-67,-141,-34,-74,-19,-23,-90,-129,-1,-49,-125,0,3,11,28,29,28,4,82,159,162,53,41,44,138],
      "delta_lng":[0,65,51,40,43,48,111,82,74,97,57,61,33,82,123,41,84,101,160,205,155,63,63,131,67,112,228,250,110,165,43,87,168,280,146,155,226,224,104,31,117,493,494,120,149,31,30,42,24,2,61,19,24,3,102,115,297,236,54,244,51,17,25,26,133,89,306,377,178,54,251,114,414,303,160,129,155,125,51,136,144,128,52,93,164,140,141,116,118,79,120,90,19,6,53,49,45,53,67,87,61,47,60,33,72,91,95,73,222,45,91,37,153,102,96,69,28,246,163,143,171,51,56,67,96,122,83,119,6,183,79,136,57,113,178,91,27,145,172,104,96,171,201,317,3,232,85,26,28,81,54,72,69,96,129,166,1,178,206,296,566,129,315,395,228,305,604,158,331,85,103,379,579,7,211,546,56,97,72,86,57,42,3,79,151,153,48,41,41,130]
    }
  ]
}