{
  "code":11402,
  "id":"b3c630",
  "name":"JR身延線",
  "name_kana":"じぇいあーるみのぶせん",
  "station_size":39,
  "company_code":3,
  "station_list":[
    {"code":1140201,"id":"056f2a","name":"富士","name_kana":"ふじ","lat":35.151497,"lng":138.651225,"prefecture":22,"numbering":[{"symbol":"CC","index":"00"}],"lines":[11402,11501],"attr":"cool","postal_code":"416-0914","address":"富士市本町１丁目","next":[1140202,100207,1140203,9950303,1150110],"voronoi":{"lat":35.138619,"lng":138.637342,"delta_lat":[0,20884,6584,-4253,-35462],"delta_lng":[0,10334,20423,1029,-27893]}},
    {"code":1140202,"id":"3e8a64","name":"柚木(JR)","original_name":"柚木","name_kana":"ゆのき","lat":35.157468,"lng":138.639157,"prefecture":22,"numbering":[{"symbol":"CC","index":"01"}],"lines":[11402],"attr":"cool","postal_code":"416-0908","address":"静岡県富士市柚木213","next":[1140201,1140205,1140209,1150110,1140203],"voronoi":{"lat":35.179756,"lng":138.615726,"delta_lat":[0,-232,-4975,-35931,20884],"delta_lng":[0,-3129,-3791,28535,10334]}},
    {"code":1140203,"id":"e229e4","name":"竪堀","name_kana":"たてぼり","lat":35.168075,"lng":138.645881,"prefecture":22,"numbering":[{"symbol":"CC","index":"02"}],"lines":[11402],"attr":"cool","postal_code":"416-0907","address":"富士市中島","next":[1140204,9950303,1140205,1140202,1140201],"voronoi":{"lat":35.159503,"lng":138.647675,"delta_lat":[0,20254,833,-4398,-10105],"delta_lng":[0,-31949,3018,51024,-1670]}},
    {"code":1140204,"id":"934559","name":"入山瀬","name_kana":"いりやませ","lat":35.188276,"lng":138.647622,"prefecture":22,"numbering":[{"symbol":"CC","index":"03"}],"lines":[11402],"attr":"cool","postal_code":"419-0202","address":"富士市久沢","next":[1140203,9950304,9950303,9950305,1140205],"voronoi":{"lat":35.180589,"lng":138.618745,"delta_lat":[0,-4398,15298,9924,36449],"delta_lng":[0,51024,9964,5794,14222]}},
    {"code":1140205,"id":"1f48ad","name":"富士根","name_kana":"ふじね","lat":35.205251,"lng":138.63562,"prefecture":22,"numbering":[{"symbol":"CC","index":"04"}],"lines":[11402],"attr":"cool","postal_code":"419-0205","address":"富士市天間","next":[9950305,1140202,1140209,1140203,1140204,1140206],"voronoi":{"lat":35.191176,"lng":138.611242,"delta_lat":[0,-11651,232,833,57273,75480],"delta_lng":[0,1356,3129,3018,81004,42918]}},
    {"code":1140206,"id":"86325e","name":"源道寺","name_kana":"げんどうじ","lat":35.214463,"lng":138.627057,"prefecture":22,"numbering":[{"symbol":"CC","index":"05"}],"lines":[11402],"attr":"cool","postal_code":"418-0034","address":"富士宮市黒田源道寺町","next":[9940117,9940116,1140209,9950305,9950309,1140207,1140205],"voronoi":{"lat":35.191176,"lng":138.611242,"delta_lat":[0,6007,157511,-17109,-11911,-10848,-1483],"delta_lng":[0,-2132,90173,30304,19005,-4998,-927]}},
    {"code":1140207,"id":"35637c","name":"富士宮","name_kana":"ふじのみや","lat":35.221409,"lng":138.614924,"prefecture":22,"numbering":[{"symbol":"CC","index":"06"}],"lines":[11402],"attr":"heat","postal_code":"418-0065","address":"富士宮市中央町","next":[9940117,1140209,9940118,1140206,1140208],"voronoi":{"lat":35.363935,"lng":138.684488,"delta_lat":[0,-9241,-157511,8536,172200],"delta_lng":[0,14794,-90173,-6165,56396]}},
    {"code":1140208,"id":"854d0f","name":"西富士宮","name_kana":"にしふじのみや","lat":35.225456,"lng":138.602567,"prefecture":22,"numbering":[{"symbol":"CC","index":"07"}],"lines":[11402],"attr":"heat","postal_code":"418-0042","address":"富士宮市貴船町","next":[1140210,1140211,9940118,1140217,1140220,1140209,1140207],"voronoi":{"lat":35.390944,"lng":138.637974,"delta_lat":[0,-34222,-6966,-120058,-1775,-22204,172200],"delta_lng":[0,-52643,-6332,-9136,1292,31790,56396]}},
    {"code":1140209,"id":"0f0873","name":"沼久保","name_kana":"ぬまくぼ","lat":35.199278,"lng":138.584283,"prefecture":22,"lines":[11402],"attr":"heat","postal_code":"418-0036","address":"富士宮市沼久保","next":[1140210,1140206,1140205,1140202,1150110,1150112,1140207,1140208],"voronoi":{"lat":35.227922,"lng":138.571154,"delta_lat":[0,-71184,-8,17819,4975,11651,6007,8536],"delta_lng":[0,6986,442,30224,3791,-1356,-2132,-6165]}},
    {"code":1140210,"id":"e9c597","name":"芝川","name_kana":"しばかわ","lat":35.197272,"lng":138.563845,"prefecture":22,"lines":[11402],"attr":"eco","postal_code":"419-0316","address":"静岡県富士宮市羽鮒1231","next":[1140209,1140208,1140211,1150113,1150112,1140212],"voronoi":{"lat":35.229697,"lng":138.569862,"delta_lat":[0,-1775,-71184,-7896,4934,40986],"delta_lng":[0,1292,6986,-34770,-44567,28051]}},
    {"code":1140211,"id":"13d476","name":"稲子","name_kana":"いなこ","lat":35.230454,"lng":138.536892,"prefecture":22,"lines":[11402],"attr":"eco","postal_code":"419-0312","address":"静岡県富士宮市下稲子355","next":[1140215,1140216,1140214,1140208,1140210,1140217,1140213,1140212],"voronoi":{"lat":35.270896,"lng":138.525768,"delta_lat":[0,37668,6683,17157,9490,7861,-120058,-34935],"delta_lng":[0,13946,3708,12357,10947,12273,-9136,-43008]}},
    {"code":1140212,"id":"221d42","name":"十島","name_kana":"とおしま","lat":35.230153,"lng":138.515802,"prefecture":19,"lines":[11402],"attr":"heat","postal_code":"409-2303","address":"南巨摩郡南部町十島","next":[1150114,1140210,1150113,1140213,1140211],"voronoi":{"lat":35.270896,"lng":138.525768,"delta_lat":[0,-132466,394,14952,40986],"delta_lng":[0,-92335,11538,53833,28051]}},
    {"code":1140213,"id":"831a40","name":"井出","name_kana":"いで","lat":35.247449,"lng":138.490989,"prefecture":19,"lines":[11402],"attr":"heat","postal_code":"409-2304","address":"南巨摩郡南部町井出","next":[1150114,9950412,1150116,1140211,9950814,9950411,1140212,1140214],"voronoi":{"lat":35.14869,"lng":138.366637,"delta_lat":[0,-3642,-2791,-1695,-3988,1856,132466,37668],"delta_lng":[0,475,13941,10541,30117,11721,92335,13946]}},
    {"code":1140214,"id":"a2b43a","name":"寄畑","name_kana":"よりはた","lat":35.264832,"lng":138.474932,"prefecture":19,"lines":[11402],"attr":"heat","postal_code":"409-2305","address":"南巨摩郡南部町内船","next":[1140211,1140215,9950814,1140213],"voronoi":{"lat":35.315248,"lng":138.543422,"delta_lat":[0,-107462,-59095,159874],"delta_lng":[0,-189028,12244,173076]}},
    {"code":1140215,"id":"7da131","name":"内船","name_kana":"うつぶな","lat":35.282183,"lng":138.465068,"prefecture":19,"lines":[11402],"attr":"heat","postal_code":"409-2305","address":"南巨摩郡南部町内船","next":[1140211,9950814,1140216,1140214],"voronoi":{"lat":35.332404,"lng":138.555778,"delta_lat":[0,-61510,-63109,107462],"delta_lng":[0,-219479,18094,189028]}},
    {"code":1140216,"id":"ffc196","name":"甲斐大島","name_kana":"かいおおしま","lat":35.32817,"lng":138.45218,"prefecture":19,"lines":[11402],"attr":"heat","postal_code":"409-2415","address":"南巨摩郡身延町大島","next":[1140211,1140217,1140215,9950814],"voronoi":{"lat":35.332404,"lng":138.555778,"delta_lat":[0,9490,6821,-77821],"delta_lng":[0,10947,-269468,39042]}},
    {"code":1140217,"id":"049e0d","name":"身延","name_kana":"みのぶ","lat":35.361397,"lng":138.453021,"prefecture":19,"lines":[11402],"attr":"heat","postal_code":"409-2412","address":"南巨摩郡身延町角打","next":[9950814,1140216,1140211,1140208,1140218,1140220],"voronoi":{"lat":35.36566,"lng":138.555585,"delta_lat":[0,13193,-30137,-6821,7861,6966],"delta_lng":[0,-277711,19383,269468,12273,6332]}},
    {"code":1140218,"id":"c9373e","name":"塩之沢","name_kana":"しおのさわ","lat":35.379626,"lng":138.453887,"prefecture":19,"lines":[11402],"attr":"eco","postal_code":"409-2403","address":"南巨摩郡身延町帯金","next":[1140220,1140217,9950814,1140219],"voronoi":{"lat":35.36566,"lng":138.555585,"delta_lat":[0,13193,52874,-36258],"delta_lng":[0,-277711,-38021,241298]}},
    {"code":1140219,"id":"61188b","name":"波高島","name_kana":"はだかじま","lat":35.418624,"lng":138.459747,"prefecture":19,"lines":[11402],"attr":"eco","postal_code":"409-2945","address":"南巨摩郡身延町波高島","next":[1140224,1140223,1140221,1140220,9950814,1140218],"voronoi":{"lat":35.431727,"lng":138.239853,"delta_lat":[0,35137,-8204,-5189,-13706,-44296],"delta_lng":[0,-30388,183207,42639,20809,25031]}},
    {"code":1140220,"id":"022cd9","name":"下部温泉","name_kana":"しもべおんせん","lat":35.425751,"lng":138.472359,"prefecture":19,"lines":[11402],"attr":"eco","postal_code":"409-2936","address":"南巨摩郡身延町常葉","next":[1140221,9940118,1140218,1140219,1140208,1140217],"voronoi":{"lat":35.36566,"lng":138.555585,"delta_lat":[0,29809,44296,-43819,-5002,-34222],"delta_lng":[0,-74434,-25031,180630,1223,-52643]}},
    {"code":1140221,"id":"e161a2","name":"甲斐常葉","name_kana":"かいときわ","lat":35.444779,"lng":138.476975,"prefecture":19,"lines":[11402],"attr":"eco","postal_code":"409-2936","address":"南巨摩郡身延町常葉","next":[1140222,1140220,1140219,1140223,9940118],"voronoi":{"lat":35.439764,"lng":138.45612,"delta_lat":[0,13706,6175,-51783,-11917],"delta_lng":[0,-20809,23620,175637,2182]}},
    {"code":1140222,"id":"15bfa3","name":"市ノ瀬","name_kana":"いちのせ","lat":35.462345,"lng":138.482154,"prefecture":19,"lines":[11402],"attr":"eco","postal_code":"409-2938","address":"南巨摩郡身延町市之瀬","next":[1140223,1140230,1140221,1140229,1140225,9940118],"voronoi":{"lat":35.459645,"lng":138.458931,"delta_lat":[0,28309,11987,-7881,-20863,-63335],"delta_lng":[0,36616,45392,27297,58404,7928]}},
    {"code":1140223,"id":"2d6e1d","name":"久那土","name_kana":"くなど","lat":35.48144,"lng":138.467391,"prefecture":19,"lines":[11402],"attr":"eco","postal_code":"409-3117","address":"南巨摩郡身延町三沢","next":[1140222,1140219,1140224,1140225,1140221],"voronoi":{"lat":35.487955,"lng":138.495548,"delta_lat":[0,3357,-32652,-5189,6175],"delta_lng":[0,-19256,-83619,42639,23620]}},
    {"code":1140224,"id":"1dc5f5","name":"甲斐岩間","name_kana":"かいいわま","lat":35.492539,"lng":138.463057,"prefecture":19,"lines":[11402],"attr":"eco","postal_code":"409-3244","address":"西八代郡市川三郷町岩間","next":[1141418,1141423,1140219,9950814,1140223,1140226,1140225],"voronoi":{"lat":35.458659,"lng":138.392673,"delta_lat":[0,8204,26610,63176,4564,-39048,-30854],"delta_lng":[0,-183207,-30828,11853,1487,242645,41669]}},
    {"code":1140225,"id":"b8c1cd","name":"落居","name_kana":"おちい","lat":35.503612,"lng":138.471256,"prefecture":19,"lines":[11402],"attr":"cool","postal_code":"409-3231","address":"西八代郡市川三郷町落居","next":[1140228,1140229,1140226,1140222,1140224,1140223],"voronoi":{"lat":35.491311,"lng":138.476292,"delta_lat":[0,30854,624,-8051,-14797,-11987],"delta_lng":[0,-41669,69376,14933,22008,-45392]}},
    {"code":1140226,"id":"87ad50","name":"鰍沢口","name_kana":"かじかざわぐち","lat":35.541375,"lng":138.470916,"prefecture":19,"lines":[11402],"attr":"cool","postal_code":"409-3603","address":"西八代郡市川三郷町黒沢","next":[1131136,1131133,1140228,1131134,1140227,1140225,1141423,1140224],"voronoi":{"lat":35.561213,"lng":138.191978,"delta_lat":[0,18001,27115,14692,-8,-89233,-8991,-624],"delta_lng":[0,4148,99651,126443,72,76127,5580,-69376]}},
    {"code":1140227,"id":"a7f9c0","name":"市川大門","name_kana":"いちかわだいもん","lat":35.560451,"lng":138.493276,"prefecture":19,"lines":[11402],"attr":"cool","postal_code":"409-3603","address":"西八代郡市川三郷町黒沢","next":[1140232,1140228,1140226,1140231,1131133],"voronoi":{"lat":35.607469,"lng":138.479669,"delta_lat":[0,-16863,-58826,89233,1732],"delta_lng":[0,17183,1566,-76127,38312]}},
    {"code":1140228,"id":"8a6f62","name":"市川本町","name_kana":"いちかわほんまち","lat":35.560684,"lng":138.502028,"prefecture":19,"lines":[11402],"attr":"cool","postal_code":"409-3603","address":"西八代郡市川三郷町黒沢","next":[1140225,1140227,1140226,1140229,1140231],"voronoi":{"lat":35.590606,"lng":138.496852,"delta_lat":[0,-58826,-8991,-8051,73798],"delta_lng":[0,1566,5580,14933,-19248]}},
    {"code":1140229,"id":"bb4a1d","name":"芦川","name_kana":"あしがわ","lat":35.563087,"lng":138.511241,"prefecture":19,"lines":[11402],"attr":"cool","postal_code":"409-3612","address":"西八代郡市川三郷町上野","next":[1140225,1140222,1140228,1140231,1140230],"voronoi":{"lat":35.588143,"lng":138.500476,"delta_lat":[0,393,-73798,-14797,-7881],"delta_lng":[0,-793,19248,22008,27297]}},
    {"code":1140230,"id":"1b8c32","name":"甲斐上野","name_kana":"かいうえの","lat":35.569592,"lng":138.520465,"prefecture":19,"lines":[11402],"attr":"cool","postal_code":"409-3612","address":"西八代郡市川三郷町上野","next":[1131129,1140231,1140222,1140235,9940118,1140229],"voronoi":{"lat":35.588143,"lng":138.500476,"delta_lat":[0,-25644,-28674,-5278,-57350,20863],"delta_lng":[0,99708,38862,4071,-16477,-58404]}},
    {"code":1140231,"id":"9fe752","name":"東花輪","name_kana":"ひがしはなわ","lat":35.594749,"lng":138.526935,"prefecture":19,"lines":[11402],"attr":"cool","postal_code":"409-3842","address":"中央市東花輪","next":[1140230,1140234,1140235,1140227,1140228,1140229,1140232],"voronoi":{"lat":35.607469,"lng":138.479669,"delta_lat":[0,-16863,-2070,-393,-25644,23828,6779],"delta_lng":[0,17183,2831,793,99708,-23203,-9644]}},
    {"code":1140232,"id":"12c7b0","name":"小井川","name_kana":"こいかわ","lat":35.604442,"lng":138.528523,"prefecture":19,"lines":[11402],"attr":"cool","postal_code":"409-3823","address":"中央市上三條","next":[1140227,1131133,1131132,1140233,1140234,1140231],"voronoi":{"lat":35.600714,"lng":138.558913,"delta_lat":[0,29083,-310,-6742,-15276,-14363],"delta_lng":[0,-82455,-2157,-13697,19066,87668]}},
    {"code":1140233,"id":"d2ff27","name":"常永","name_kana":"じょうえい","lat":35.616877,"lng":138.532909,"prefecture":19,"lines":[11402],"attr":"cool","postal_code":"409-3862","address":"中巨摩郡昭和町上河東","next":[1131132,1140232,1140234],"voronoi":{"lat":35.629797,"lng":138.476457,"delta_lat":[0,13640,-42723],"delta_lng":[0,51999,30456]}},
    {"code":1140234,"id":"481c72","name":"国母","name_kana":"こくぼ","lat":35.630567,"lng":138.552113,"prefecture":19,"lines":[11402],"attr":"cool","postal_code":"409-3866","address":"中巨摩郡昭和町西条","next":[1131132,1140231,1140235,1140232,1140233,1131131],"voronoi":{"lat":35.586328,"lng":138.576981,"delta_lat":[0,6779,7608,42723,13154,-5191],"delta_lng":[0,-9644,-8425,-30456,15311,11206]}},
    {"code":1140235,"id":"36dd8f","name":"甲斐住吉","name_kana":"かいすみよし","lat":35.63658,"lng":138.569892,"prefecture":19,"lines":[11402],"attr":"cool","postal_code":"400-0851","address":"甲府市住吉２丁目","next":[1140230,1131131,1140234,1140231,1131129,1140236],"voronoi":{"lat":35.651623,"lng":138.562729,"delta_lat":[0,-223,-65073,-23828,-28674,55640],"delta_lng":[0,-7755,22008,23203,38862,-18083]}},
    {"code":1140236,"id":"0b8717","name":"南甲府","name_kana":"みなみこうふ","lat":35.643496,"lng":138.577274,"prefecture":19,"lines":[11402],"attr":"cool","postal_code":"400-0863","address":"甲府市南口町","next":[1140237,1131131,1131130,1140238,1140235,1131129],"voronoi":{"lat":35.651623,"lng":138.562729,"delta_lat":[0,2050,-1131,-8357,-28323,-26397],"delta_lng":[0,5849,13514,11385,20988,6499]}},
    {"code":1140237,"id":"d3ce29","name":"善光寺","name_kana":"ぜんこうじ","lat":35.65985,"lng":138.589278,"prefecture":19,"lines":[11402],"attr":"cool","postal_code":"400-0801","address":"甲府市善光寺町","next":[1140236,1140238,1131130,1131131],"voronoi":{"lat":35.707507,"lng":138.594809,"delta_lat":[0,-54965,-8357,66706],"delta_lng":[0,-12718,11385,2536]}},
    {"code":1140238,"id":"3eba56","name":"金手","name_kana":"かねんて","lat":35.662264,"lng":138.578845,"prefecture":19,"lines":[11402],"attr":"cool","postal_code":"400-0861","address":"甲府市城東１丁目","next":[1140237,1131131,1140236],"voronoi":{"lat":35.707507,"lng":138.594809,"delta_lat":[0,-53834,-1131],"delta_lng":[0,-26232,13514]}},
    {"code":1131131,"id":"7c4c92","name":"甲府","name_kana":"こうふ","lat":35.667054,"lng":138.569015,"prefecture":19,"lines":[11311,11402],"attr":"eco","postal_code":"400-0031","address":"甲府市丸の内１丁目","next":[1131130,1140106,1140235,1140236,1140238,1131132,1131127,1131128,1140234,1131133,1140237],"voronoi":{"lat":35.757295,"lng":138.607782,"delta_lat":[0,63776,7688,-4935,-72513,-94719,-5191,223,2050,53834,3384],"delta_lng":[0,-4562,-1208,-36587,-18400,-3258,11206,7755,5849,26232,1203]}}
  ],
  "north":35.66664,
  "south":35.15116,
  "east":138.65538,
  "west":138.44947,
  "polyline_list":[
    {
      "start":"富士",
      "end":"甲府",
      "lat":35.15116,
      "lng":138.65382,
      "delta_lat":[0,7,9,1,1,7,4,9,13,5,11,29,72,38,40,59,42,27,45,28,28,35,63,2,7,67,9,43,30,151,18,91,17,120,162,62,117,94,74,109,9,94,29,13,8,17,33,32,45,119,59,144,47,16,19,41,25,20,16,46,46,12,28,161,42,55,230,69,117,53,56,36,24,39,22,13,13,18,17,33,33,50,35,27,29,10,11,34,22,15,27,96,67,23,13,9,8,71,22,11,12,13,18,18,23,28,59,127,90,22,49,28,10,14,38,179,76,56,78,56,7,20,16,18,9,15,38,40,38,10,75,21,27,123,175,119,69,107,25,15,14,15,18,11,9,11,7,7,11,19,79,6,9,15,18,15,27,37,41,119,104,37,32,16,6,21,11,22,25,19,14,22,3,27,37,23,13,23,7,11,24,34,18,9,14,6,6,3,9,9,11,14,24,25,26,29,23,27,18,88,42,44,16,15,16,9,7,6,5,2,3,0,2,2,2,0,1,1,0,-3,-3,-5,-4,-7,-11,-11,-20,-16,-5,-11,-15,-20,-14,-27,-27,-24,-29,-12,-24,-22,-43,-49,-56,-45,-56,-42,-48,-31,-23,-22,-28,-47,-52,-39,-18,-12,-23,-30,-31,-20,-20,-19,-21,-20,-13,-12,-11,-9,-11,-9,-7,-20,-27,-13,-10,-9,-8,-7,-17,-34,-27,-42,-61,-47,-27,-24,-20,-19,-22,-35,-59,-56,-47,-54,-36,-24,-20,-22,-27,-36,-31,-14,-4,-20,-21,-16,-22,-20,-43,-57,-32,-29,-28,-22,-31,-18,-23,-38,-31,-24,-32,-39,-23,-16,-25,-18,-16,-17,-22,-25,-23,-39,-57,-17,-19,-68,-35,-26,-20,-17,-11,-6,-9,-9,-9,-4,-2,-3,-4,-3,0,2,2,5,5,9,18,18,26,2,0,-2,-7,-10,-14,-14,-21,-26,-24,-25,-25,-17,-23,-45,-35,-11,-48,-22,-24,-18,-11,-11,-7,-1,0,1,6,5,9,9,9,15,19,27,24,26,30,36,39,47,80,30,30,26,18,8,20,13,15,13,10,11,12,30,10,12,13,17,16,42,33,28,24,25,29,29,25,31,27,36,67,56,22,14,36,44,31,21,65,69,18,23,33,49,3,80,26,17,13,13,13,14,11,23,16,11,7,4,2,6,10,18,20,22,21,18,30,23,21,15,31,25,18,28,35,33,32,24,56,38,35,25,19,31,37,47,41,35,21,23,27,28,27,24,36,23,27,27,31,36,92,26,56,43,74,27,20,18,13,16,20,42,21,93,19,29,32,58,62,25,19,20,21,15,12,13,10,1,5,6,3,0,-2,-4,-6,-8,-10,-17,-21,-33,-28,-32,-45,-17,-14,-29,-23,-15,-14,-4,-1,0,2,6,6,13,19,10,7,1,2,-1,-4,-6,-10,-11,-11,-4,-1,3,16,13,6,5,14,4,0,-2,-4,-3,-2,2,6,9,46,8,23,15,12,14,14,12,22,39,27,24,29,38,41,49,47,29,23,23,20,18,29,10,23,24,20,27,20,17,16,34,29,24,44,28,39,22,45,8,20,30,20,21,14,8,9,9,8,11,15,24,27,29,37,18,11,7,5,3,-3,-9,-11,-18,-3,0,5,7,5,8,10,10,17,82,45,9,9,10,35,54,33,29,24,12,16,31,22,9,9,11,34,45,11,7,6,16,17,11,19,9,15,17,37,27,27,20,11,10,28,25,53,11,10,14,18,15,29,38,56,47,36,44,49,62,56,53,29,51,34,30,31,35,27,31,58,46,37,50,31,25,18,19,18,21,22,25,34,33,13,17,17,23,17,70,74,22,29,36,85,18,18,24,23,40,21,29,24,27,34,71,45,23,22,28,49,12,25,26,27,47,32,22,27,34,31,26,26,30,36,23,41,44,63,63,45,23,19,24,46,60,13,32,15,27,29,32,21,15,15,11,11,11,12,10,18,25,23,28,20,24,27,29,37,67,14,20,43,22,16,22,21,29,21,30,87,16,25,29,30,30,31,25,20,18,13,10,9,11,10,12,11,22,16,45,27,24,32,24,84,40,21,21,74,49,25,19,14,10,15,36,82,32,18,18,13,13,64,15,60,7,9,35,14,31,30,58,33,23,51,46,38,44,24,41,44,20,7,32,24,23,33,25,33,3,25,28,23,25,29,38,52,69,48,23,19,24,49,23,22,34,40,46,32,49,38,79,42,11,49,27,19,28,26,23,23,30,17,27,27,24,20,16,16,18,29,30,20,9,23,24,24,34,22,16,26,39,31,31,47,52,66,30,31,74,36,71,43,27,18,17,25,19,14,9,34,34,24,15,3,11,17,28,18,25,31,21,36,22,29,47,9,29,25,19,14,23,22,32,22,13,5,6,11,19,33,27,20,23,27,41,28,35,22,10,11,9,11,27,22,14,23,17,27,22,20,41,28,10,14,23,30,29,21,53,49,29,13,11,9,12,30,56,10,40,29,30,49,26,34,20,38,35,39,32,32,38,44,33,57,45,46,47,23,9,23,20,18,38,39,28,36,50,19,36,50,24,28,21,11,11,13,41,96,23,13,45,36,24,18,18,13,16,20,20,18,16,8,41,29,20,16,14,24,17,15,15,18,11,27,14,10,20,20,19,29,18,28,30,31,16,34,9,16,26,18,58,44,57,47,23,33,43,19,17,13,15,18,13,18,45,18,52,63,48,29,18,14,22,14,17,28,4,16,20,20,27,56,8,47,18,10,9,20,18,25,24,13,14,20,17,14,11,49,63,50,54,8,52,59,48,61,49,60,46,2,65,27,22,60,47,30,20,17,23,13,9,27,33,45,33,27,43,23,13,25,22,15,12,27,22,16,24,8,19,27,31,23,20,51,41,47,42,43,42,41,43,38,41,42,53,35,52,53,52,51,52,49,25,1,13,9,7,22,14,15,62,17,6,36,40,44,44,41,19,27,34,15,5,58,19,35,59,44,44,45,47,44,17,15,13,16,18,14,32,27,12,18,27,29,13,7,9,41,21,61,6,3,7,25,22,11,6,10,20,14,24,23,22,15,14,39,15,42,9,29,14,13,17,15,8,18,9,9,12,5,3,4,3,2,0,0,0,-2,0,2,0,4,3,4,9,14,25,29,21,11,33,33,47,14,9,15,15,18,11,49,21,16,13,23,15,16,18,16,22,38,22,27,12,11,6,23,19,18,54,60,53,21,16,21,25,21,11,21,15,21,54,33,21,21,5,16,13,30,15,15,55,60,33,23,17,12,24,7,18,13,12,11,22,15,12,11,18,14,13,16,15,14,42,47,28,6,9,17,12,11,7,7,10,12,11,16,3,8,14,13,25,22,13,22,95,17,8,8,14,20,18,20,54,49,56,18,15,12,19,12,16,20,17,9,25,13,12,32,17,24,14,19,13,13,27,24,14,22,32,20,62,28,13,13,59,22,17,17,29,28,30,10,15,22,14,12,12,55,34,24,53,56,54,35,20,30,17,9,24,25,10,30,12,13,30,15,14,64,16,13,10,21,15,13,20,17,16,19,10,5,13,49,9,35,40,42,56,25,58,40,41,40,42,36,44,41,41,40,44,43,7,5,4,5,26,34,2,8,15,21,8,8,22,44,8,24,11,21,27,11,16,23,17,9,9,23,13,17,23,14,17,41,8,9,21,36,37,34,36,39,35,35,12,8,5,5,9,6,3,4,5,5,3,3,3,2,2,2,0,2,5,4,12,13,6,3,2,6,5,7,16,24,4,7,14,38,38,38,38,18,36,40,38,9,4,23,34,48,26,26,16,13,6,7,11,35,24,18,6,8,9,18,20,13,9,15,12,16,28,55,52,57,53,92,19,51,56,52,56,50,55,51,56,14,15,22,31,8,12,17,4,11,12,23,21,16,10,16,44,43,21,24,43,45,44,46,38,11,47,26,53,39,22,53,48,21,15,22,37,27,21,21,20,30,4,33,25,25,29,51,27,18,24,19,24,21,35,15,19,16,20,17,20,7,2,11,8,9,12,5,7,16,11,9,16,15,13,19,13,16,8,23,26,16,119,25,17,43,27,16,22,26,30,20,16,18,19,23,23,22,16,64,25,27,23,20,18,15,13,3,16,15,16,38,23,19,16,15,14,11,11,12,20,20,26,27,1,8,48,18,6,18,34,20,27,18,17,12,11,12,15,23,24,23,17,36,36,11,13,36,25,20,16,8,16,22,15,10,18,11,7,7,9,11,9,5,13,15,3,16,11,10,9,15,13,4,7,8,25,32,34,35,27,22,21,34,20,15,33,25,25,25,60,47,40,25,40,63,56,44,95,25,24,24,39,39,32,39,39,37,26,38,38,29,7,14,31,51,43,43,33,34,55,41,58,38,36,33,43,29,23,42,22,11,23,34,29,31,23,32,28,17,18,17,30,16,36,14,56,57,46,35,24,24,19,25,27,16,13,13,10,10,5,5,4,0,3,3,3,2,3,4,3,0,-1,-3,-5,-7,-11,-11,-12,-14,-6,-3,-2,0,2,3,7,9,12,27,12,14,6,11,16,0,13,28,30,30,31,38,61,57,48,67,41,56,56,49,39,26,31,38,34,42,13,11,9,7,4,2,-1,0,-5,-6,-1,1,1,3,8,9,18,28,66,77,76,63,10,10,15,16,23,20,8,14,34,33,36,27,22,21,29,21,29,39,79,22,17,14,65,38,63,16,13,9,13,19,47,61,23,27,23,27,31,31,34,33,38,88,113,84,206,125,125,124,123,84,108,58,249,124,126,125,101,70,202,229,19,125,192,68,33,27,23,22,24,19,21,25,23,20,18,90,72,288,252,124,5,121,192,27,25,19,23,13,10,8,12,19,12,22,21,18,32,41,0,63,33,79,105,102,7,64,28,2,29,11,8,31,27,25,42,96,109,70,126,81,169,58,29,218,126,125,86,27,28,27,33,5,45,48,202,126,125,11,23,18,31,15,4,12,6,17,24,5,15,3,26,27,25,2,20,8,12,14,53,9,9,9,7,8,5,4,9,3,0,9,9,18,18,11,13,14,5,5,5,5,6,7,47,71,25,36,23,17,12,15,11,39,14,12,14,13,11,10,9,11,29,27,20],
      "delta_lng":[0,-88,-169,-38,-51,-51,-48,-205,-128,-145,-155,-76,-137,-56,-38,-42,-22,-14,-13,-5,-4,-2,4,0,2,20,4,19,17,95,11,57,13,76,104,40,78,60,50,68,4,60,23,9,7,18,34,35,63,187,93,232,75,18,17,28,12,6,3,1,-7,-2,-7,-40,-12,-29,-161,-49,-85,-36,-40,-25,-17,-28,-18,-12,-16,-28,-26,-53,-54,-81,-56,-45,-35,-10,-12,-28,-12,-7,-10,-23,-19,-9,-8,-6,-7,-99,-28,-13,-11,-10,-9,-8,-6,-6,-12,-19,-11,-3,-8,-6,-6,-10,-30,-136,-57,-43,-59,-42,-9,-23,-27,-30,-18,-30,-65,-60,-51,-9,-54,-13,-18,-81,-115,-80,-47,-72,-19,-14,-16,-22,-34,-23,-27,-37,-31,-26,-60,-97,-396,-23,-25,-31,-24,-20,-25,-25,-26,-71,-62,-24,-27,-18,-6,-24,-22,-71,-92,-68,-57,-75,-12,-94,-124,-75,-43,-81,-21,-35,-74,-113,-54,-38,-87,-51,-28,-22,-27,-21,-19,-20,-30,-29,-27,-27,-19,-20,-15,-72,-37,-38,-18,-23,-24,-21,-13,-17,-18,-16,-22,-15,-38,-66,-147,-7,-61,-77,-45,-41,-38,-30,-20,-22,-24,-26,-31,-24,-8,-15,-16,-14,-10,-13,-8,-2,2,2,7,9,23,26,35,28,35,28,35,21,11,4,0,3,7,12,5,1,3,0,-4,-5,-9,-13,-19,-20,-23,-18,-16,-21,-25,-28,-24,-75,-88,-38,-22,-13,-8,-6,-15,-24,-18,-27,-37,-27,-18,-19,-19,-21,-15,-23,-30,-27,-19,-17,-9,-2,3,9,16,27,25,11,3,10,7,2,0,-1,-11,-21,-7,-4,3,6,12,3,-3,-9,-7,-9,-18,-23,-14,-11,-17,-10,-9,-7,-6,-4,-3,-1,-2,-3,-6,-22,-15,-14,-13,-14,-13,-7,-19,-21,-20,-29,-14,-17,-53,-31,-27,-17,-23,-27,-30,-27,-42,-45,-122,-22,-24,-25,-21,-22,-28,-26,-38,-44,-37,-38,-33,-24,-22,-46,-35,-11,-49,-27,-31,-26,-27,-27,-32,-34,-42,-39,-48,-51,-51,-38,-37,-40,-34,-51,-38,-35,-30,-26,-28,-31,-46,-19,-21,-21,-18,-6,-21,-17,-18,-18,-18,-27,-40,-109,-37,-35,-27,-30,-23,-46,-39,-31,-40,-40,-38,-30,-21,-18,-10,-4,0,0,-3,-6,-20,-34,-21,-9,-21,-17,-6,-10,-24,-36,-3,-63,-23,-19,-27,-36,-55,-78,-69,-149,-100,-64,-35,-13,-8,-10,-19,-18,-16,-15,-8,-4,-4,0,3,1,1,0,-3,-10,-17,-16,-9,-5,-12,-11,-12,-10,-12,-23,-31,-38,-35,-29,-15,-8,-6,-4,1,7,10,8,0,-1,-4,-9,-36,-12,-26,-20,-40,-18,-16,-22,-16,-24,-23,-45,-23,-93,-18,-24,-18,-24,-29,-10,-12,-18,-21,-23,-27,-38,-31,-23,-34,-27,-32,-24,-18,-21,-21,-17,-18,-22,-23,-37,-29,-45,-64,-32,-26,-55,-48,-41,-48,-23,-15,-7,-14,-24,-25,-32,-48,-27,-23,-18,-41,-33,-33,-27,-32,-34,-33,-23,-44,-34,-91,-60,-22,-12,-46,-21,-28,-27,-46,-45,-36,-22,-30,-32,-197,-32,-65,-40,-26,-25,-19,-15,-18,-25,-15,-10,-7,-14,-14,-14,-13,-5,-4,-5,-5,-6,-16,-8,-18,-21,-21,-35,-31,-27,-26,-46,-40,-31,-48,-25,-29,-14,-16,-4,-11,-20,-21,-23,-24,-17,-26,-41,-36,-43,-43,-53,-55,-59,-68,-38,-30,-19,-20,-26,-24,-36,-33,-63,-28,-25,-36,-48,-18,-22,-23,-18,-28,-141,-77,-13,-10,-9,-27,-46,-30,-26,-24,-16,-29,-69,-47,-18,-16,-11,-35,-45,-16,-7,-12,-36,-31,-16,-23,-6,-10,-11,-15,-13,-19,-18,-14,-20,-55,-61,-123,-22,-16,-13,-14,-7,-14,-15,-12,-15,-15,-21,-30,-42,-37,-35,-15,-13,-7,-9,-10,-16,-14,-22,-49,-36,-29,-34,-23,-22,-18,-27,-31,-32,-28,-41,-66,-74,-23,-25,-21,-21,-13,-77,-83,-22,-20,-16,-33,-8,-4,0,4,12,12,2,-3,-7,-16,-36,-20,-7,-6,-1,-3,-1,-4,-8,-10,-23,-21,-10,-8,-6,-4,-5,-8,-13,-16,-17,-36,-45,-71,-68,-49,-23,-15,-16,-29,-36,-9,-19,-9,-19,-25,-28,-25,-22,-30,-26,-30,-41,-30,-19,-29,-30,-24,-21,-14,-9,-8,-3,-2,4,0,-2,-9,-8,-1,2,2,8,5,4,7,0,1,-3,-5,-9,-13,-13,-17,-14,-16,-20,-25,-45,-33,-33,-23,-26,-16,-33,-17,-5,-5,0,5,4,0,-3,-10,-5,-4,0,0,2,8,21,42,14,3,1,-3,-4,-28,-7,-30,-1,-1,2,0,-6,-8,-22,-9,-5,-7,-6,-9,-13,-7,-13,-11,-9,-2,-14,-6,-1,0,3,11,0,11,14,6,1,-3,-9,-14,-21,-16,-5,0,1,8,0,-2,-11,-19,-18,-15,-30,-18,-49,-25,-5,-31,-13,-6,-4,-1,2,3,9,4,2,0,-2,-4,-5,-12,-15,-27,-25,-14,-3,-7,-4,-2,0,1,5,10,18,12,6,5,3,1,2,-2,-6,0,1,-1,-1,-2,-5,-10,-9,-12,-7,-31,-33,-19,-9,-1,-4,-4,-4,-4,-2,-3,-2,-5,-7,-9,-15,-2,-6,-5,-7,-4,-8,-8,-11,-8,-3,-1,0,0,1,1,0,-1,0,1,1,0,1,2,1,5,3,5,10,8,3,6,4,5,3,1,-1,0,1,1,9,17,13,11,28,23,15,6,5,2,2,1,1,0,1,0,-1,1,0,0,-1,-3,-3,-2,-2,-2,-2,-3,-1,-3,-2,-4,-2,-2,0,2,3,5,13,18,12,17,23,9,17,23,12,12,10,5,3,3,3,12,3,1,5,5,2,2,4,4,5,8,9,13,15,10,56,41,22,15,13,17,10,7,7,4,3,5,1,2,-2,-3,-7,-9,-9,-13,-13,-18,-7,-20,-4,-8,-15,-10,-31,-24,-33,-25,-14,-24,-30,-12,-9,-6,-6,-8,-2,-3,-2,-3,1,2,2,0,1,3,7,9,10,19,4,14,20,18,23,52,6,43,17,9,8,11,8,11,7,3,3,3,0,-2,-2,-10,-11,-11,-9,0,-10,-12,-9,-11,-9,-12,-9,0,-10,-5,-5,-11,-8,-5,-4,-5,-6,-6,-3,-12,-16,-23,-19,-15,-26,-11,-8,-12,-11,-4,-3,-5,-2,0,1,2,6,8,12,10,11,24,22,22,21,21,19,21,20,20,19,21,26,16,25,26,26,25,25,24,12,1,5,4,0,5,2,1,4,2,0,2,2,4,4,3,2,2,3,0,0,6,1,2,4,4,3,4,3,4,1,0,2,4,7,5,13,12,5,9,18,18,8,7,7,41,21,75,7,9,12,59,53,20,10,12,26,15,22,22,13,9,9,20,7,23,4,18,8,9,17,18,10,25,15,20,35,19,12,22,19,29,28,22,19,27,25,18,20,19,17,10,28,39,61,59,43,20,57,58,82,23,12,21,17,16,11,42,14,9,7,13,6,5,3,1,2,-2,-1,-1,1,1,2,4,3,4,16,16,14,6,3,4,3,1,0,-2,-3,-6,-20,-14,-11,-9,-3,-6,-5,-9,-4,-3,-9,-9,-5,-3,-3,0,-1,-1,1,2,2,1,8,5,4,6,11,9,10,16,17,17,42,47,28,8,7,12,9,3,5,2,2,4,3,2,0,2,0,-2,-6,-6,-3,-3,-12,-2,1,1,3,5,7,9,30,29,32,13,10,12,17,13,14,15,15,8,20,10,9,23,11,14,7,11,5,5,6,8,4,2,2,1,-1,-2,-1,0,-4,-1,-3,-2,-7,-5,-5,-2,-2,0,2,2,4,16,14,8,23,24,21,14,6,12,5,3,6,7,2,6,3,1,7,1,0,0,0,-1,-2,-6,-6,-6,-10,-10,-13,-15,-7,-4,-9,-27,-5,-22,-22,-25,-33,-13,-34,-22,-24,-22,-24,-23,-24,-25,-24,-23,-24,-25,-5,-2,-1,-1,-5,-6,0,-2,-2,0,0,3,5,18,5,10,5,7,8,1,4,2,0,-1,-2,-7,-6,-8,-9,-10,-13,-45,-9,-14,-35,-53,-55,-53,-55,-56,-52,-55,-19,-14,-11,-13,-18,-18,-15,-11,-22,-19,-15,-18,-14,-13,-13,-14,-10,-21,-25,-26,-71,-93,-22,-12,-9,-13,-12,-13,-22,-33,-3,-6,-12,-27,-27,-27,-28,-13,-27,-30,-27,-6,-3,-16,-25,-36,-19,-16,-9,-7,-3,-3,-4,-9,-5,-2,-1,-2,0,-1,0,0,1,1,3,6,12,24,25,23,26,41,9,23,26,23,26,23,26,24,29,9,8,15,23,5,9,12,5,9,12,24,23,18,9,16,45,43,22,26,42,47,44,45,37,11,57,26,55,45,23,55,49,22,14,18,27,16,12,12,9,10,1,10,7,5,6,6,5,6,10,11,14,13,29,14,20,21,27,28,40,17,6,30,27,28,31,11,15,24,20,11,17,16,11,14,9,8,4,10,10,7,60,12,5,12,5,2,3,2,0,-1,-1,-3,0,-1,-1,1,0,12,6,9,9,7,7,7,6,0,9,11,9,18,11,8,4,1,3,0,-2,-1,-6,-6,-14,-14,-1,-3,-28,-9,-3,-9,-17,-11,-15,-15,-10,-11,-9,-13,-18,-25,-27,-25,-20,-40,-41,-13,-13,-41,-30,-23,-17,-9,-18,-23,-20,-14,-26,-20,-21,-27,-23,-21,-14,-9,-17,-18,-5,-20,-14,-13,-9,-12,-12,-4,-8,-8,-24,-31,-31,-35,-27,-21,-20,-32,-21,-13,-25,-16,-12,-11,-22,-14,-10,-5,-7,-1,-2,1,10,4,6,9,15,19,18,28,28,32,25,37,40,29,9,13,32,54,45,44,36,34,58,43,56,37,41,41,61,42,32,67,32,17,36,51,45,47,36,45,38,22,17,13,16,9,19,7,27,34,30,25,21,26,26,35,45,28,27,35,34,36,29,37,58,40,68,163,175,112,152,214,108,78,35,22,22,30,51,54,59,59,28,25,27,35,35,27,24,25,26,48,23,18,7,13,22,1,13,30,30,27,25,24,38,38,31,48,28,40,46,48,41,32,39,51,53,64,20,23,27,31,31,38,5,33,77,100,23,66,27,24,27,24,39,53,131,161,153,127,16,16,17,14,15,9,5,7,13,7,2,0,-4,-7,-13,-12,-21,-36,-66,-18,-14,-13,-53,-29,-52,-13,-11,-9,-9,-16,-38,-48,-15,-14,-8,-7,-5,-3,-1,0,7,15,19,13,33,19,20,21,20,12,18,9,40,19,20,19,16,11,32,37,3,20,32,13,7,9,9,14,15,14,19,23,22,22,20,101,80,322,278,136,6,135,216,30,30,24,31,20,15,14,22,37,28,57,65,52,106,132,2,190,101,253,336,321,23,204,92,6,92,34,26,79,57,40,60,107,125,81,144,94,192,68,34,251,142,142,97,26,24,21,26,2,29,31,123,76,73,8,14,11,18,6,2,3,2,5,4,0,0,0,-2,-9,-9,-1,-10,-6,-7,-12,-54,-8,-10,-14,-14,-16,-16,-16,-55,-23,-3,-73,-92,-165,-167,-101,-72,-58,-15,-15,-13,-12,-11,-10,-59,-91,-32,-44,-31,-20,-16,-19,-15,-54,-21,-19,-24,-26,-26,-28,-29,-37,-127,-116,-91]
    }
  ]
}