{
  "code":11409,
  "id":"061970",
  "name":"JR大糸線",
  "name_kana":"じぇいあーるおおいとせん",
  "station_size":42,
  "company_code":2,
  "color":"#9370DB",
  "station_list":[
    {"code":1140901,"id":"975a5b","name":"松本","name_kana":"まつもと","lat":36.230393,"lng":137.96445,"prefecture":20,"numbering":[{"index":"42"}],"lines":[11409,11412,99407],"attr":"cool","postal_code":"390-0815","address":"松本市深志１丁目","next":[1141204,9940703,9940415,9940702,1140902],"voronoi":{"lat":36.231769,"lng":137.959087,"delta_lat":[0,-1545,-6766,27734,36707],"delta_lng":[0,590,19290,109430,-22813]}},
    {"code":1140902,"id":"651e1d","name":"北松本","name_kana":"きたまつもと","lat":36.236971,"lng":137.960983,"prefecture":20,"numbering":[{"index":"41"}],"lines":[11409],"attr":"heat","postal_code":"399-0000","address":"松本市白坂１丁目","next":[1141208,9940415,9940703,9940704,1141206,1140901,1140903],"voronoi":{"lat":36.299302,"lng":138.048227,"delta_lat":[0,-4139,-7263,-56130,2352,4900,37441],"delta_lng":[0,13160,4198,-106497,-4633,-3389,23207]}},
    {"code":1140903,"id":"53e280","name":"島内","name_kana":"しまうち","lat":36.246991,"lng":137.944817,"prefecture":20,"numbering":[{"index":"40"}],"lines":[11409],"attr":"heat","postal_code":"390-0851","address":"松本市大字島内青島４５８７","next":[1141206,1140904,9940704,9940705,1140902],"voronoi":{"lat":36.239022,"lng":137.951066,"delta_lat":[0,-2057,780,36119,2599],"delta_lng":[0,-7920,-4499,-1825,37451]}},
    {"code":1140904,"id":"efe66a","name":"島高松","name_kana":"しまたかまつ","lat":36.246322,"lng":137.931576,"prefecture":20,"numbering":[{"index":"39"}],"lines":[11409],"attr":"heat","postal_code":"399-8251","address":"松本市大字島内","next":[1140905,9940705,9940706,1140903,1141206],"voronoi":{"lat":36.237744,"lng":137.938647,"delta_lat":[0,-3767,3956,36707,-777],"delta_lng":[0,-7465,-9302,10404,4538]}},
    {"code":1140905,"id":"ee3563","name":"梓橋","name_kana":"あずさばし","lat":36.250162,"lng":137.918027,"prefecture":20,"numbering":[{"index":"38"}],"lines":[11409],"attr":"heat","postal_code":"399-8204","address":"安曇野市豊科高家","next":[1140906,1141206,1140904,9940707,1140907,9940708,9940706],"voronoi":{"lat":36.235797,"lng":137.910093,"delta_lat":[0,1104,980,29534,7547,-321,-36707],"delta_lng":[0,-7967,-2596,20066,11969,718,-10404]}},
    {"code":1140906,"id":"2b2820","name":"一日市場","name_kana":"ひといちば","lat":36.2596,"lng":137.904136,"prefecture":20,"numbering":[{"index":"37"}],"lines":[11409],"attr":"heat","postal_code":"399-8101","address":"安曇野市三郷明盛","next":[1140905,9940710,1140907,9940711,9940708,9940709,9940712],"voronoi":{"lat":36.244539,"lng":137.868662,"delta_lat":[0,-1052,-5799,193,29534,-4537,-2743],"delta_lng":[0,2374,21393,7102,20066,-80161,3405]}},
    {"code":1140907,"id":"9da10f","name":"中萱","name_kana":"なかがや","lat":36.273434,"lng":137.903353,"prefecture":20,"numbering":[{"index":"36"}],"lines":[11409],"attr":"heat","postal_code":"399-8101","address":"安曇野市三郷明盛","next":[1140910,1140906,1140909,1140905,1141206,9940712,1140908,9940713],"voronoi":{"lat":36.275188,"lng":137.821269,"delta_lat":[0,5764,1597,-405,-7183,-7547,-4537,9167],"delta_lng":[0,18861,17240,68828,5367,-11969,-80161,-14271]}},
    {"code":1140908,"id":"c3a516","name":"南豊科","name_kana":"みなみとよしな","lat":36.291124,"lng":137.903457,"prefecture":20,"numbering":[{"index":"35"}],"lines":[11409],"attr":"heat","postal_code":"399-8205","address":"安曇野市豊科","next":[1140909,1141206,1140907],"voronoi":{"lat":36.28255,"lng":137.85737,"delta_lat":[0,18435,-18840],"delta_lng":[0,63583,5245]}},
    {"code":1140909,"id":"0652cc","name":"豊科","name_kana":"とよしな","lat":36.299957,"lng":137.900896,"prefecture":20,"numbering":[{"index":"34"}],"lines":[11409],"attr":"eco","postal_code":"399-8205","address":"安曇野市豊科","next":[1140907,1141206,1140910,1140908,1141207],"voronoi":{"lat":36.324914,"lng":137.919217,"delta_lat":[0,-43962,1597,18435,23507],"delta_lng":[0,-79086,17240,63583,-952]}},
    {"code":1140910,"id":"8de090","name":"柏矢町","name_kana":"はくやちょう","lat":36.322529,"lng":137.888349,"prefecture":20,"numbering":[{"index":"33"}],"lines":[11409],"attr":"eco","postal_code":"399-8304","address":"安曇野市穂高柏原","next":[9940714,1140907,9940713,1140909,1141207,1140911],"voronoi":{"lat":36.291445,"lng":137.784725,"delta_lat":[0,-9908,-6348,5764,43962,14854],"delta_lng":[0,19733,16811,18861,79086,-11214]}},
    {"code":1140911,"id":"62e3e1","name":"穂高","name_kana":"ほたか","lat":36.33906,"lng":137.881869,"prefecture":20,"numbering":[{"index":"32"}],"lines":[11409],"attr":"eco","postal_code":"399-8303","address":"安曇野市穂高","next":[1140913,1141207,1140912,9940714,1140910],"voronoi":{"lat":36.291445,"lng":137.784725,"delta_lat":[0,22548,24439,15188,-13851],"delta_lng":[0,-55935,87593,87332,4287]}},
    {"code":1140912,"id":"654858","name":"有明(長野)","name_kana":"ありあけ","lat":36.359949,"lng":137.878236,"prefecture":20,"numbering":[{"index":"31"}],"lines":[11409],"attr":"eco","postal_code":"399-8302","address":"安曇野市穂高北穂高","next":[1141207,1140911,1140913],"voronoi":{"lat":36.338431,"lng":137.816384,"delta_lat":[0,15188,26803],"delta_lng":[0,87332,3109]}},
    {"code":1140913,"id":"69cc08","name":"安曇追分","name_kana":"あずみおいわけ","lat":36.371795,"lng":137.872736,"prefecture":20,"numbering":[{"index":"30"}],"lines":[11409],"attr":"eco","postal_code":"399-8302","address":"安曇野市穂高北穂高","next":[1140911,9940714,1140914,1141207,1140912],"voronoi":{"lat":36.396235,"lng":137.911756,"delta_lat":[0,-66377,-15866,24439,41991],"delta_lng":[0,-239539,56574,87593,90441]}},
    {"code":1140914,"id":"69ea49","name":"細野","name_kana":"ほその","lat":36.397107,"lng":137.865722,"prefecture":20,"numbering":[{"index":"29"}],"lines":[11409],"attr":"eco","postal_code":"399-8501","address":"北安曇郡松川村細野","next":[1140915,9940714,1141207,1140913],"voronoi":{"lat":36.329858,"lng":137.672216,"delta_lat":[0,4080,88822,-26525],"delta_lng":[0,-19214,276573,-17820]}},
    {"code":1140915,"id":"373994","name":"北細野","name_kana":"きたほその","lat":36.406439,"lng":137.862725,"prefecture":20,"numbering":[{"index":"28"}],"lines":[11409],"attr":"eco","postal_code":"399-8501","address":"北安曇郡松川村細野","next":[1141209,9940714,1140914,9940914,1141207,1140916],"voronoi":{"lat":36.432344,"lng":137.937056,"delta_lat":[0,-9583,-88822,11777,9308,77763],"delta_lng":[0,-7481,-276573,-62182,3942,342223]}},
    {"code":1140916,"id":"a3581d","name":"信濃松川","name_kana":"しなのまつかわ","lat":36.424456,"lng":137.858631,"prefecture":20,"numbering":[{"index":"27"}],"lines":[11409],"attr":"eco","postal_code":"399-8501","address":"北安曇郡松川村赤芝","next":[9940914,1141209,1140915,1140918,1140917],"voronoi":{"lat":36.432787,"lng":137.936986,"delta_lat":[0,-77763,24394,39308,30525],"delta_lng":[0,-342223,9371,147012,185190]}},
    {"code":1140917,"id":"5b5190","name":"安曇沓掛","name_kana":"あずみくつかけ","lat":36.447795,"lng":137.854784,"prefecture":20,"numbering":[{"index":"26"}],"lines":[11409],"attr":"eco","postal_code":"398-0004","address":"大町市大字常盤区須沼","next":[1140919,1140920,1141209,1140918,1140916],"voronoi":{"lat":36.418726,"lng":137.751145,"delta_lat":[0,50115,-830,-4406,-14354],"delta_lng":[0,128686,24451,33581,-1528]}},
    {"code":1140918,"id":"e3e258","name":"信濃常盤","name_kana":"しなのときわ","lat":36.467403,"lng":137.847148,"prefecture":20,"numbering":[{"index":"25"}],"lines":[11409],"attr":"eco","postal_code":"398-0004","address":"大町市大字常盤区下一本木","next":[1140922,1140916,1140919,1140917,9941204,9940914],"voronoi":{"lat":36.498781,"lng":137.651589,"delta_lat":[0,2019,-31960,-50115,-39308,105261],"delta_lng":[0,143679,84563,-128686,-147012,30340]}},
    {"code":1140919,"id":"2896a2","name":"南大町","name_kana":"みなみおおまち","lat":36.491536,"lng":137.856269,"prefecture":20,"numbering":[{"index":"24"}],"lines":[11409],"attr":"cool","postal_code":"398-0002","address":"大町市大町字大新田","next":[1140917,1140922,1140921,1140920,1140918],"voronoi":{"lat":36.46801,"lng":137.904283,"delta_lat":[0,37390,1395,-5995,-31960],"delta_lng":[0,-60695,-22087,-26232,84563]}},
    {"code":1140920,"id":"757cec","name":"信濃大町","name_kana":"しなのおおまち","lat":36.50031,"lng":137.861674,"prefecture":20,"numbering":[{"index":"23"}],"lines":[11409],"attr":"cool","postal_code":"398-0002","address":"大町市大字大町","next":[1140921,1140917,1140919,1141209,1141210],"voronoi":{"lat":36.527564,"lng":137.966774,"delta_lat":[0,-63959,4406,37390,27124],"delta_lng":[0,-28911,-33581,-60695,124394]}},
    {"code":1140921,"id":"c2dfcb","name":"北大町","name_kana":"きたおおまち","lat":36.517558,"lng":137.857913,"prefecture":20,"numbering":[{"index":"22"}],"lines":[11409],"attr":"cool","postal_code":"398-0002","address":"大町市大字大町字荒沢","next":[1140923,1140919,1140922,1141213,1140920,1140926,1141210],"voronoi":{"lat":36.532525,"lng":137.967981,"delta_lat":[0,-27124,1395,48137,8727,2023,-439],"delta_lng":[0,-124394,-22087,74255,20766,62177,61]}},
    {"code":1140922,"id":"4edc91","name":"信濃木崎","name_kana":"しなのきざき","lat":36.535643,"lng":137.846189,"prefecture":20,"numbering":[{"index":"21"}],"lines":[11409],"attr":"cool","postal_code":"398-0001","address":"大町市大字平字木崎","next":[1140918,1140923,1140919,1140921,9941204],"voronoi":{"lat":36.498781,"lng":137.651589,"delta_lat":[0,2019,5995,48137,-46254],"delta_lng":[0,143679,26232,74255,-235686]}},
    {"code":1140923,"id":"4f3920","name":"稲尾","name_kana":"いなお","lat":36.554058,"lng":137.842575,"prefecture":20,"numbering":[{"index":"20"}],"lines":[11409],"attr":"cool","postal_code":"398-0001","address":"大町市大字平字道下","next":[1140922,9941204,1140921,1140924,1140926],"voronoi":{"lat":36.564455,"lng":137.913214,"delta_lat":[0,-14319,-41457,46254,8727],"delta_lng":[0,-221068,-32076,235686,20766]}},
    {"code":1140924,"id":"ce7fa2","name":"海ノ口","name_kana":"うみのくち","lat":36.565652,"lng":137.841824,"prefecture":20,"numbering":[{"index":"19"}],"lines":[11409],"attr":"cool","postal_code":"398-0001","address":"大町市大字平字下海道","next":[1140925,1140926,1140923,9941204],"voronoi":{"lat":36.576975,"lng":137.875129,"delta_lat":[0,-12521,-14319,42124],"delta_lng":[0,38085,-221068,30067]}},
    {"code":1140925,"id":"1f4f70","name":"簗場","name_kana":"やなば","lat":36.594666,"lng":137.844724,"prefecture":20,"numbering":[{"index":"18"}],"lines":[11409],"attr":"cool","postal_code":"398-0001","address":"大町市大字平","next":[1140924,1140926,9941204,1140927],"voronoi":{"lat":36.607466,"lng":137.730533,"delta_lat":[0,-15207,-15284,38205],"delta_lng":[0,-8321,152916,-41427]}},
    {"code":1140926,"id":"793a33","name":"ヤナバスキー場前","name_kana":"やなばすきーじょうまえ","closed":true,"lat":36.605851,"lng":137.855039,"prefecture":20,"numbering":[{"index":"17"}],"lines":[11409],"attr":"unknown","postal_code":"398-0001","address":"大町市大字平","open_date":"1985-12-24","closed_date":"2019-03-16","next":[1140931,1140924,1140925,1141213,1140927,1140928,1140923,1140929,1140921,1140930],"voronoi":{"lat":36.637512,"lng":137.993806,"delta_lat":[0,-71830,-2023,795,12521,38205,22556,5819,541,-5887],"delta_lng":[0,-15108,-62177,-3308,-38085,-41427,52267,36099,7022,60386]}},
    {"code":1140927,"id":"aac8b3","name":"南神城","name_kana":"みなみかみしろ","lat":36.637105,"lng":137.841551,"prefecture":20,"numbering":[{"index":"16"}],"lines":[11409],"attr":"cool","postal_code":"399-9211","address":"北安曇郡白馬村大字神城","next":[1140926,1140925,9941204,1140928],"voronoi":{"lat":36.669861,"lng":137.750822,"delta_lat":[0,-62394,7714,22556],"delta_lng":[0,-20288,103168,52267]}},
    {"code":1140928,"id":"969c95","name":"神城","name_kana":"かみしろ","lat":36.658287,"lng":137.846586,"prefecture":20,"numbering":[{"index":"15"}],"lines":[11409],"attr":"cool","postal_code":"399-9211","address":"北安曇郡白馬村大字神城","next":[1140929,9941204,1140926,1140927],"voronoi":{"lat":36.669861,"lng":137.750822,"delta_lat":[0,20947,-47252,-5819],"delta_lng":[0,4274,166972,-36099]}},
    {"code":1140929,"id":"e1fb02","name":"飯森","name_kana":"いいもり","lat":36.670563,"lng":137.85006,"prefecture":20,"numbering":[{"index":"14"}],"lines":[11409],"attr":"cool","postal_code":"399-9211","address":"北安曇郡白馬村大字神城字飯森","next":[1140928,1140930,1140926,9941204,9941203],"voronoi":{"lat":36.734949,"lng":137.761116,"delta_lat":[0,-44142,-47252,541,91095],"delta_lng":[0,-6021,166972,7022,-167896]}},
    {"code":1140930,"id":"d0fc43","name":"白馬","name_kana":"はくば","lat":36.695922,"lng":137.863819,"prefecture":20,"numbering":[{"index":"13"}],"lines":[11409],"attr":"cool","postal_code":"399-9301","address":"北安曇郡白馬村大字北城四ツ谷","next":[9941203,1140929,1140931,1140926],"voronoi":{"lat":36.644096,"lng":137.92909,"delta_lat":[0,91095,23394,-120376],"delta_lng":[0,-167896,4234,224048]}},
    {"code":1140931,"id":"b9b335","name":"信濃森上","name_kana":"しなのもりうえ","lat":36.711132,"lng":137.871991,"prefecture":20,"numbering":[{"index":"12"}],"lines":[11409],"attr":"cool","postal_code":"399-9301","address":"北安曇郡白馬村大字北城","next":[1140926,1140932,1140930,9941203,1141213],"voronoi":{"lat":36.777878,"lng":137.76746,"delta_lat":[0,-19292,-120376,-697,25763],"delta_lng":[0,-2032,224048,4331,17297]}},
    {"code":1140932,"id":"9a0e67","name":"白馬大池","name_kana":"はくばおおいけ","lat":36.739918,"lng":137.885531,"prefecture":20,"numbering":[{"index":"11"}],"lines":[11409],"attr":"cool","postal_code":"399-9400","address":"北安曇郡小谷村大字千国","next":[1140935,1141213,1140937,1140931,1140933,1140303,9941203],"voronoi":{"lat":36.798678,"lng":137.766968,"delta_lat":[0,5192,-6020,-126677,-6611,-1286,114602],"delta_lng":[0,38301,17687,192366,-3136,-1082,-243644]}},
    {"code":1140933,"id":"38aec6","name":"千国","name_kana":"ちくに","lat":36.763249,"lng":137.900895,"prefecture":20,"numbering":[{"index":"10"}],"lines":[11409],"attr":"cool","postal_code":"399-9400","address":"北安曇郡小谷村大字千国","next":[1140935,1140303,1140932,1140934],"voronoi":{"lat":36.671173,"lng":138.015321,"delta_lat":[0,126677,-8311,-100513],"delta_lng":[0,-192366,50376,152645]}},
    {"code":1140934,"id":"b19e94","name":"南小谷","name_kana":"みなみおたり","lat":36.774604,"lng":137.908372,"prefecture":20,"numbering":[{"index":"9"}],"lines":[11409],"attr":"cool","postal_code":"399-9400","address":"北安曇郡小谷村大字千国","next":[1140303,1140304,1140311,1140933,1140935],"voronoi":{"lat":36.789538,"lng":137.873331,"delta_lat":[0,-100513,15866,38116,49384],"delta_lng":[0,152645,10506,21709,-5575]}},
    {"code":1140935,"id":"ee81c2","name":"中土","name_kana":"なかつち","lat":36.80558,"lng":137.907879,"prefecture":20,"lines":[11409],"attr":"cool","postal_code":"399-9400","address":"北安曇郡小谷村大字中小谷池原下","next":[1140933,1140932,1140937,1140936,1140934,1140311],"voronoi":{"lat":36.829681,"lng":138.052405,"delta_lat":[0,-8236,-17575,-6020,-8311,2853],"delta_lng":[0,-213333,-33804,17687,50376,179285]}},
    {"code":1140936,"id":"a04015","name":"北小谷","name_kana":"きたおたり","lat":36.842567,"lng":137.906451,"prefecture":20,"lines":[11409],"attr":"cool","postal_code":"399-9601","address":"北安曇郡小谷村大字北小谷","next":[1140312,1140519,1140311,1140939,1140938,1140518,1140935,1140937],"voronoi":{"lat":36.927084,"lng":137.957635,"delta_lat":[0,18037,-1988,-7511,-62555,-43386,-8236,101483],"delta_lng":[0,56903,13849,23231,6062,-5275,-213333,110110]}},
    {"code":1140937,"id":"f736ab","name":"平岩","name_kana":"ひらいわ","lat":36.88688,"lng":137.86561,"prefecture":15,"lines":[11409],"attr":"eco","postal_code":"949-0464","address":"糸魚川市大字大所字平岩","next":[1140513,9941203,1140935,1140514,1140932,1140938,9941202,1140936],"voronoi":{"lat":36.821445,"lng":137.839072,"delta_lat":[0,-17575,-5192,20122,52405,270,28451,23002],"delta_lng":[0,-33804,-38301,-14319,-21809,117,26762,191464]}},
    {"code":1140938,"id":"205729","name":"小滝","name_kana":"こたき","lat":36.938155,"lng":137.85945,"prefecture":15,"lines":[11409],"attr":"eco","postal_code":"949-0462","address":"糸魚川市大字小滝","next":[1140515,1140936,1140937,1140939,1140514],"voronoi":{"lat":36.966807,"lng":137.809696,"delta_lat":[0,-39723,-4156,-23002,48165],"delta_lng":[0,147939,-8453,-191464,27254]}},
    {"code":1140939,"id":"225562","name":"根知","name_kana":"ねち","lat":36.966683,"lng":137.86711,"prefecture":15,"lines":[11409],"attr":"eco","postal_code":"949-0536","address":"糸魚川市大字根小屋","next":[1140936,1140515,1140940,1140518,1140941,1140938],"voronoi":{"lat":36.94512,"lng":138.014539,"delta_lat":[0,27120,18357,-1335,-22456,-39723],"delta_lng":[0,-40092,-135663,-11564,-17523,147939]}},
    {"code":1140940,"id":"a74688","name":"頸城大野","name_kana":"くびきおおの","lat":37.006124,"lng":137.872447,"prefecture":15,"lines":[11409],"attr":"cool","postal_code":"941-0071","address":"糸魚川市大字大野","next":[1140517,1140941,1140518,1140939],"voronoi":{"lat":36.990598,"lng":137.838783,"delta_lat":[0,40782,-50792,-8347],"delta_lng":[0,50265,76977,8421]}},
    {"code":1140941,"id":"ee7997","name":"姫川(新潟)","name_kana":"ひめかわ","lat":37.020339,"lng":137.860914,"prefecture":15,"lines":[11409],"attr":"cool","postal_code":"941-0071","address":"糸魚川市大字大野","next":[1140940,1140515,100909,1140517,1140939],"voronoi":{"lat":37.031379,"lng":137.889049,"delta_lat":[0,131,1028,-43276,1335],"delta_lng":[0,-106,-60311,-1412,11564]}},
    {"code":100909,"id":"6c0a71","name":"糸魚川","name_kana":"いといがわ","lat":37.043631,"lng":137.861311,"prefecture":15,"lines":[1009,11405,11409,99423],"attr":"cool","postal_code":"941-0061","address":"糸魚川市大町１丁目","next":[1140517,9941807,1140941,1140518,1140515],"voronoi":{"lat":37.936799,"lng":137.53732,"delta_lat":[0,40655,-714351,-231592,1028],"delta_lng":[0,7836,276301,67486,-60311]}}
  ],
  "north":37.04423,
  "south":36.22914,
  "east":137.9652,
  "west":137.83752,
  "polyline_list":[
    {
      "start":"松本",
      "end":"南小谷",
      "lat":36.22914,
      "lng":137.9652,
      "delta_lat":[0,226,109,215,97,78,31,17,22,35,34,45,11,15,68,105,74,87,7,52,31,24,78,20,19,34,33,11,12,15,11,100,45,16,14,6,8,2,2,-1,0,-2,-13,-14,-10,-8,-15,-23,-4,-4,-7,-12,-9,-1,2,5,9,14,16,18,14,87,33,76,8,67,2,14,13,40,40,45,14,15,96,11,74,50,9,145,116,95,45,31,22,51,76,111,45,23,19,38,41,40,56,27,24,22,23,18,76,356,72,212,65,110,115,187,40,250,236,213,163,35,65,123,281,60,60,226,72,42,110,54,56,224,117,100,53,46,369,379,21,20,50,50,58,13,96,209,131,106,140,141,147,117,326,152,223,435,58,145,85,102,35,36,37,44,40,83,96,94,202,323,54,23,108,25,64,91,92,205,299,144,74,74,197,22,112,112,80,18,515,111,1,114,16,36,201,201,57,49,31,209,219,224,48,21,40,29,36,103,164,407,228,62,25,81,181,87,36,399,72,49,203,178,15,20,106,465,170,152,24,124,45,143,44,180,139,183,130,114,72,110,152,71,231,29,175,47,36,55,61,44,41,35,53,47,51,40,34,29,94,2,139,58,246,269,53,47,38,27,47,64,58,574,258,188,118,185,388,316,36,150,33,19,47,65,302,44,36,23,61,12,50,190,30,53,101,11,18,20,16,54,49,96,193,394,30,99,38,22,1,70,37,39,80,59,46,24,29,27,35,36,33,31,59,158,152,10,62,77,53,61,47,62,49,60,9,36,34,31,60,73,75,41,54,58,60,16,29,59,48,56,42,7,52,51,57,51,105,65,4,37,54,49,29,31,42,2,62,49,53,50,55,49,56,31,71,142,7,95,106,45,111,46,53,28,20,55,63,59,61,31,42,35,9,35,68,32,47,10,21,25,23,33,13,32,20,59,55,86,55,25,23,26,74,51,48,136,106,66,80,75,28,24,24,22,4,62,30,31,45,32,65,31,30,37,79,23,24,26,27,17,30,28,19,11,25,30,94,45,51,52,66,5,117,22,54,33,14,28,12,34,22,25,113,112,46,66,30,60,94,129,38,100,37,36,80,25,18,25,25,30,26,21,17,31,16,1,16,18,39,37,54,110,67,47,85,68,33,51,15,12,56,78,7,12,21,20,9,6,29,24,25,216,103,44,47,39,63,50,35,117,100,61,17,14,16,32,15,23,22,16,15,21,17,13,14,31,13,10,17,177,32,33,30,13,14,10,14,92,52,18,3,19,28,30,89,66,23,14,24,23,23,29,24,11,61,83,18,18,18,125,127,47,92,19,20,21,21,31,31,29,16,14,10,7,3,2,-2,-4,2,2,6,5,9,14,13,25,15,19,68,152,20,17,18,17,16,7,5,2,0,-5,-11,-12,-24,0,4,5,9,24,5,11,13,14,14,18,18,39,27,19,29,35,77,170,16,15,81,22,20,22,18,36,168,73,19,15,61,16,20,20,18,15,54,27,26,35,13,11,13,20,12,24,28,23,173,275,16,89,44,102,16,17,19,49,79,21,48,14,13,19,48,47,29,27,35,27,31,28,26,14,132,16,18,16,21,133,14,15,74,80,66,89,78,128,57,82,121,36,124,23,40,16,179,88,98,58,59,223,31,242,262,100,95,31,63,438,39,787,28,98,147,234,185,119,145,148,99,65,66,36,41,29,69,37,33,45,44,16,18,29,85,16,121,13,9,9,9,27,44,22,15,17,217,14,17,10,45,33,80,43,32,24,18,27,29,22,38,30,28,16,16,22,22,15,17,15,141,25,12,22,15,14,15,16,17,17,356,29,13,20,10,11,383,40,20,20,23,22,17,38,25,23,17,19,190,152,24,19,26,21,24,21,21,28,23,46,25,26,38,18,27,18,25,18,20,16,16,13,11,16,14,21,23,27,20,32,21,213,99,37,30,41,31,27,21,18,21,20,20,18,16,82,23,32,13,20,29,50,50,46,22,33,23,32,33,29,38,26,32,21,9,19,77,33,29,38,31,11,11,18,66,25,140,16,20,14,29,6,59,10,36,47,35,19,17,15,15,30,10,26,13,14,62,11,39,68,32,24,22,21,76,67,25],
      "delta_lng":[0,-116,-54,-110,-50,-43,-21,-13,-17,-28,-34,-45,-12,-20,-99,-154,-106,-121,-9,-88,-57,-53,-187,-49,-48,-81,-81,-28,-28,-37,-16,-137,-66,-36,-35,-13,-29,-24,-23,-24,-7,-36,-156,-187,-118,-115,-174,-318,-55,-56,-81,-188,-106,-51,-41,-37,-39,-44,-45,-41,-31,-175,-60,-126,-13,-113,-1,-22,-22,-62,-62,-63,-21,-21,-152,-18,-116,-81,-16,-231,-189,-153,-73,-37,-21,-45,-64,-94,-41,-21,-14,-25,-20,-19,-18,-6,0,2,4,5,19,95,10,3,2,2,2,1,0,2,4,4,3,0,0,0,3,1,1,2,-1,-3,-26,-24,-28,-138,-76,-66,-42,-38,-305,-314,-18,-16,-37,-32,-27,-5,-31,-64,-41,-35,-45,-42,-45,-34,-106,-46,-68,-138,-27,-84,-58,-64,-22,-18,-12,-4,-5,3,9,9,15,32,-6,-4,-23,-9,-26,-34,-35,-78,-113,-55,-27,-28,-75,-8,-43,-42,-31,-10,-281,-60,-2,-54,-9,-20,-49,-50,-15,-13,-14,-109,-115,-121,-19,-8,-14,-3,-2,-5,-12,-20,-13,-3,-1,-5,-9,-12,-7,-215,-42,-27,-112,-96,-7,-3,-21,-84,-29,-11,-1,-12,-3,-14,-3,-11,-9,-18,-13,-9,-5,-9,-14,-6,-19,-1,-12,2,5,9,8,6,5,-2,-5,-9,-19,-16,-21,-22,-69,-1,-110,-44,-188,-203,-41,-31,-19,-8,-11,-12,-13,-111,-52,-37,-24,-38,-76,-68,-8,-30,-3,3,15,19,92,24,30,29,85,16,66,257,41,68,133,12,26,30,24,80,57,78,118,243,17,61,23,14,1,40,23,25,46,39,31,11,12,3,-1,-5,-6,-10,-25,-58,-56,-4,-24,-29,-20,-22,-18,-24,-18,-23,-3,-13,-14,-16,-35,-48,-49,-28,-35,-39,-38,-11,-20,-39,-31,-36,-28,-5,-35,-33,-38,-33,-69,-43,-3,-24,-36,-32,-20,-19,-27,-1,-43,-31,-36,-31,-36,-33,-38,-19,-47,-95,-2,-62,-62,-27,-63,-27,-30,-10,-5,-6,-8,-8,-8,-5,-2,0,1,6,10,5,4,0,-2,-4,-5,-13,-6,-21,-9,-20,-17,-31,-17,-8,-5,-2,0,0,0,0,0,1,0,1,3,4,8,9,2,34,15,14,12,6,-1,1,7,9,24,4,3,-2,-4,-6,-14,-13,-11,-8,-18,-25,-75,-36,-41,-42,-53,-5,-96,-18,-43,-27,-12,-19,-7,-16,-6,-3,-11,-11,-4,-6,-2,-5,-9,-9,-3,-5,0,3,6,8,9,14,14,26,25,24,23,50,18,2,12,11,17,9,13,26,16,11,20,22,13,20,9,7,28,34,3,7,13,12,6,4,17,13,11,109,57,24,22,18,26,21,16,62,60,39,14,12,14,32,17,24,27,21,24,36,30,25,31,67,25,18,21,234,44,44,36,19,23,13,15,74,41,11,1,10,11,10,24,16,6,5,15,12,18,26,23,11,36,42,8,3,-2,-10,-9,-4,1,-1,-4,-5,-12,-21,-27,-31,-25,-27,-22,-19,-14,-18,-88,-86,-25,-27,-27,-26,-23,-23,-22,-28,-17,-16,-50,-114,-17,-18,-25,-23,-29,-22,-24,-35,-31,-35,-64,-48,-77,-27,-76,-57,-55,-142,-31,-35,-35,-26,-17,-18,-15,-25,-9,-4,0,3,6,17,1,0,-9,-5,-7,-9,-9,-18,-90,-41,-6,-3,4,2,6,6,9,12,56,29,28,36,9,4,5,6,3,6,3,0,-2,-8,1,13,8,5,6,7,13,33,52,11,20,2,2,-3,-12,-6,1,3,6,9,14,16,14,9,111,10,9,5,6,18,2,1,7,7,7,10,13,14,5,9,9,6,19,6,12,6,103,49,39,36,40,122,17,134,142,54,51,16,32,231,21,422,15,56,80,126,104,62,26,29,21,15,14,13,20,21,49,31,31,56,77,33,34,71,260,54,380,43,23,15,16,30,45,20,10,7,80,7,8,8,37,30,71,35,29,15,6,5,1,-1,-11,-8,-7,-2,-2,-1,1,3,7,10,105,21,18,37,19,16,13,6,4,3,23,0,-2,-5,-4,-3,-154,-14,-4,-4,2,3,6,12,8,1,0,-2,-27,-21,-2,1,5,5,13,13,21,32,28,59,25,19,23,11,10,6,17,16,20,27,35,34,34,37,21,30,28,21,13,13,3,30,14,14,18,29,31,33,32,41,71,68,31,26,19,89,26,34,11,14,14,23,21,16,1,3,4,8,11,10,15,10,12,9,5,9,38,16,16,17,13,2,5,4,21,8,43,8,14,12,36,8,87,16,55,70,52,29,25,20,12,18,4,8,1,0,-15,-1,-3,1,8,9,14,13,61,54,19]
    },
    {
      "start":"南小谷",
      "end":"糸魚川",
      "lat":36.774,
      "lng":137.90782,
      "delta_lat":[0,20,21,29,31,26,22,77,27,53,74,20,21,37,94,25,28,66,95,55,46,53,29,13,11,76,68,33,14,29,24,35,30,34,24,17,40,26,11,42,96,33,22,29,142,55,85,83,72,79,9,10,28,13,13,15,102,44,16,26,25,32,20,18,46,46,20,18,20,22,24,23,20,23,22,14,20,15,16,13,12,18,17,49,56,3,18,8,52,48,45,17,27,20,7,20,18,28,50,22,11,29,28,19,8,85,8,9,18,14,31,22,23,23,22,20,26,10,9,20,15,21,13,20,13,10,9,24,13,43,15,19,5,14,18,21,14,22,40,33,38,39,40,14,17,42,83,12,15,25,101,26,14,15,17,16,20,13,20,16,24,15,25,20,32,20,23,17,28,20,19,21,26,43,23,25,21,26,19,25,23,24,18,20,26,25,21,27,17,43,27,17,25,14,29,18,27,18,29,14,33,45,42,43,45,50,26,12,17,8,70,11,16,47,26,57,55,58,55,51,53,50,18,20,71,36,36,63,25,22,23,19,8,14,10,6,8,8,12,69,40,36,34,27,6,21,29,27,17,38,34,31,36,35,21,13,22,20,15,20,15,21,87,53,21,18,15,18,42,12,21,27,20,14,14,17,12,16,20,22,22,21,22,25,22,17,60,10,19,18,11,15,13,12,13,16,15,5,20,20,18,16,16,12,15,13,15,14,14,19,34,36,35,35,33,35,32,36,34,33,35,34,31,30,34,33,35,32,7,28,30,32,35,32,31,37,30,34,33,36,32,31,31,33,32,35,34,30,33,5,27,33,32,35,35,33,31,31,9,15,27,21,17,20,17,18,17,16,4,16,13,15,39,27,9,11,9,4,23,27,19,42,35,36,34,36,23,12,36,112,14,9,12,58,43,36,32,62,22,21,13,69,4,39,18,36,26,37,15,16,10,13,26,16,54,42,44,30,18,52,14,23,10,64,41,15,18,20,69,26,21,14,16,25,9,6,7,7,8,5,2,6,11,103,10,16,7,17,27,29,24,10,6,25,18,26,29,27,14,22,20,19,33,48,46,45,42,47,46,44,47,48,35,51,42,45,48,38,47,45,46,18,28,45,40,51,43,45,42,56,40,44,43,48,46,9,2,61,33,40,33,30,50,67,43,33,34,18,26,27,21,35,25,37,27,58,19,38,29,38,38,25,31,22,14,13,11,14,14,6,15,92,14,16,13,13,13,25,30,20,17,26,13,17,34,21,17,14,18,39,13,14,10,16,19,11,12,18,14,4,11,16,31,4,23,32,23,30,24,12,19,30,14,18,27,15,47,28,8,13,14,26,36,24,12,15,3,24,16,6,10,9,15,13,28,9,8,8,6,10,6,17,20,17,18,16,35,36,11,32,29,24,18,59,42,91,31,14,13,11,15,15,18,29,22,52,17,12,20,25,22,18,26,14,31,21,23,21,43,14,45,13,102,5,25,28,28,43,10,12,18,17,12,20,11,32,20,19,14,36,13,18,10,15,17,12,12,15,11,9,9,11,21,13,55,43,118,12,33,23,40,86,46,23,49,105,112,38,32,64,59,34,53,42,65,11,67,23,69,59,85,11,17,17,13,16,10,8,4,7,134,27,33,60,41,34,24,38,19,22,37,30,32,67,48,103,44,46,27,34,76,67,94,112,103,78,38,27,13,48,30,68,56,59,32,85,43,65,29,37,66,25,16,60,49,70,83,177,201,382,276,71,97,47,81,157,71,101,118,66,55,60,30,26,2,28,29,19,39,92,95,84,40,31,46,37,70,72,59,63,58,30,25,15,23,15,27,16,40,80,65,75,181,183,186,76,144,227,21,76,47,27,33,43,25,22,18,31,21,9,14,19,45,13,35,7,85],
      "delta_lng":[0,18,21,24,27,23,19,63,20,34,47,18,20,47,128,28,27,50,70,41,31,27,13,4,2,4,5,0,-1,-7,-12,-16,-14,-17,-10,-4,0,2,2,13,23,9,3,0,-29,-10,-12,-9,-3,-4,-1,0,-7,-8,-6,-12,-101,-37,-15,-11,-6,-2,4,6,9,6,-1,-1,-4,-6,-7,-9,-13,-16,-20,-11,-25,-14,-22,-18,-19,-31,-28,-78,-90,-6,-20,-7,-54,-52,-35,-11,-16,-6,-1,-3,4,12,30,8,1,12,11,9,3,39,4,5,9,6,3,0,-3,-6,-5,-4,-8,-4,-5,-16,-15,-18,-12,-17,-11,-10,-8,-22,-12,-35,-12,-16,-5,-11,-14,-18,-12,-19,-31,-25,-26,-24,-20,-7,-9,5,12,2,6,9,42,12,7,7,10,9,13,7,12,9,14,10,11,10,16,9,10,9,14,4,2,1,-3,-2,-2,-5,-3,-7,-4,-7,-6,-10,-8,-9,-9,-8,-9,-9,-3,-15,-5,-5,-8,-3,-8,-4,-7,-6,-8,-3,-9,-12,-12,-13,-15,-17,-9,-4,-5,-3,-28,-5,-2,1,1,12,18,33,31,30,32,36,12,17,53,15,4,1,-2,-8,-12,-12,-5,-10,-7,-5,-5,-9,-13,-63,-36,-32,-27,-23,-7,-18,-26,-23,-15,-35,-30,-24,-26,-23,-15,-6,-7,-8,-3,-3,1,0,4,1,0,-1,-5,-6,-19,-8,-12,-18,-15,-12,-12,-16,-11,-12,-9,-9,-8,-6,-7,-6,-6,-5,-17,-3,-5,-8,-4,-11,-9,-12,-19,-17,-23,-7,-30,-30,-30,-33,-35,-33,-34,-31,-34,-28,-19,-21,-37,-42,-41,-38,-36,-36,-36,-37,-36,-36,-37,-36,-36,-36,-37,-39,-39,-38,-9,-31,-36,-37,-41,-38,-37,-41,-36,-39,-38,-42,-38,-37,-37,-37,-40,-40,-39,-36,-38,-7,-29,-40,-38,-39,-39,-39,-36,-40,-14,-27,-66,-59,-48,-51,-50,-51,-55,-45,-13,-46,-37,-42,-99,-62,-18,-27,-18,-3,-35,-29,-17,-25,-17,-11,-6,-3,-6,-4,-24,-78,-7,-1,0,1,9,8,5,5,-1,-7,-10,-47,-2,-44,-21,-40,-29,-46,-15,-13,-7,-5,-7,-5,-5,1,7,13,15,58,13,14,5,26,7,4,3,8,22,13,13,13,16,29,14,17,18,41,62,33,22,17,27,167,20,28,10,33,51,51,42,16,9,35,19,22,22,17,6,6,1,0,4,3,4,5,3,5,4,4,4,4,3,4,4,4,5,3,4,4,3,2,3,3,4,4,4,4,3,6,2,5,4,4,4,1,0,6,3,3,3,10,17,17,6,-3,-18,-13,-16,-21,-17,-30,-24,-34,-32,-72,-13,-14,-9,-9,-6,-4,-3,-4,-2,-3,-7,-9,-12,-12,-23,-186,-31,-29,-18,-12,-12,-17,-13,-5,-3,2,2,1,-1,-1,-5,-7,-5,-24,-13,-14,-16,-18,-23,-17,-15,-27,-20,-7,-16,-24,-50,-7,-31,-50,-33,-45,-39,-17,-26,-33,-16,-16,-20,-9,-24,-11,-4,-3,-3,-7,-10,-8,-7,-9,-2,-20,-14,-11,-11,-18,-29,-25,-71,-27,-18,-19,-12,-18,-9,-18,-18,-10,-8,-5,-9,-8,-2,-5,-7,-9,-8,-25,-25,-51,-17,-6,-4,0,0,1,5,8,6,15,1,0,0,-5,-8,-9,-12,-3,1,5,13,15,34,11,38,10,69,4,22,36,41,56,14,14,14,9,8,6,0,-2,-4,-4,-4,-9,-2,-4,-3,-2,-1,0,1,2,3,2,2,4,12,9,47,36,100,12,28,21,29,65,31,17,34,75,70,21,17,28,24,14,21,16,20,3,27,9,26,24,31,6,5,6,5,8,5,6,7,5,142,23,19,25,18,15,12,15,8,6,6,6,7,26,24,47,22,27,11,23,73,68,94,116,114,103,34,22,9,21,13,11,2,-7,-6,-30,-20,-33,-18,-29,-53,-14,-4,-8,-9,-33,-39,-85,-93,-179,-131,-34,-42,-22,-40,-72,-36,-47,-64,-43,-42,-48,-26,-25,-2,-29,-32,-26,-52,-124,-128,-114,-50,-40,-61,-52,-95,-94,-80,-84,-81,-40,-27,-12,-13,-6,-7,-4,-1,-1,-3,-2,-6,-6,-5,-3,-2,-5,-2,5,8,7,15,28,20,20,21,42,33,16,26,62,169,46,131,22,302]
    }
  ]
}