{
  "code":11414,
  "id":"e23796",
  "name":"JR飯田線(天竜峡～辰野)",
  "name_kana":"じぇいあーるいいだせん",
  "station_size":44,
  "company_code":3,
  "color":"#87CEEB",
  "symbol":"CD",
  "station_list":[
    {"code":1141351,"id":"efccc1","name":"天竜峡","name_kana":"てんりゅうきょう","lat":35.441114,"lng":137.81732,"prefecture":20,"lines":[11413,11414],"attr":"heat","postal_code":"399-2431","address":"飯田市川路","next":[1141403,1141350,1141402],"voronoi":{"lat":35.432753,"lng":137.866014,"delta_lat":[0,5164,11156],"delta_lng":[0,-110980,75173]}},
    {"code":1141402,"id":"ac5eb9","name":"川路","name_kana":"かわじ","lat":35.452946,"lng":137.815564,"prefecture":20,"lines":[11414],"attr":"heat","postal_code":"399-2431","address":"飯田市川路","next":[1141124,1141121,1141409,1141348,1141350,1141351,1141403],"voronoi":{"lat":35.437916,"lng":137.755034,"delta_lat":[0,-1349,6982,16111,7564,14169,-32321],"delta_lng":[0,-27194,-66536,4072,5336,130148,29347]}},
    {"code":1141403,"id":"a90136","name":"時又","name_kana":"ときまた","lat":35.46402,"lng":137.82776,"prefecture":20,"lines":[11414],"attr":"heat","postal_code":"399-2563","address":"飯田市時又","next":[1141351,1141408,1141409,1141404,1141350,1141402,1141405],"voronoi":{"lat":35.485584,"lng":137.813604,"delta_lat":[0,26,-4217,-32321,-16320,-1403,49668],"delta_lng":[0,-1826,-10918,29347,35807,4471,-47638]}},
    {"code":1141404,"id":"536ce8","name":"駄科","name_kana":"だしな","lat":35.4754,"lng":137.839625,"prefecture":20,"lines":[11414],"attr":"heat","postal_code":"399-2561","address":"飯田市駄科","next":[1141405,1141414,1141349,1141350,1141403,1141346,1141406,1141415],"voronoi":{"lat":35.411115,"lng":137.918892,"delta_lat":[0,15467,4768,49668,1430,-2949,-727,-69083],"delta_lng":[0,-38723,-9685,-47638,58776,33008,1358,108768]}},
    {"code":1141405,"id":"2ae00c","name":"毛賀","name_kana":"けが","lat":35.487445,"lng":137.839332,"prefecture":20,"lines":[11414],"attr":"heat","postal_code":"395-0813","address":"飯田市毛賀","next":[1141408,1141404,1141406,1141403],"voronoi":{"lat":35.485584,"lng":137.813604,"delta_lat":[0,9097,-12234,-1430],"delta_lng":[0,16020,51999,-58776]}},
    {"code":1141406,"id":"0eced8","name":"伊那八幡","name_kana":"いなやわた","lat":35.49683,"lng":137.84154,"prefecture":20,"lines":[11414],"attr":"heat","postal_code":"395-0000","address":"飯田市松尾","next":[1141414,1141408,1141407,1141413,1141405,1141404],"voronoi":{"lat":35.482448,"lng":137.881622,"delta_lat":[0,12234,3728,8917,-20547,-7281],"delta_lng":[0,-51999,2804,33977,38342,9884]}},
    {"code":1141407,"id":"218c06","name":"下山村","name_kana":"しもやまむら","lat":35.50426,"lng":137.83959,"prefecture":20,"lines":[11414],"attr":"heat","postal_code":"395-0803","address":"飯田市鼎下山","next":[1141412,1141406,1141408,1141413],"voronoi":{"lat":35.498409,"lng":137.832428,"delta_lat":[0,13656,889,-5628],"delta_lng":[0,3005,23330,7642]}},
    {"code":1141408,"id":"4bca94","name":"鼎","name_kana":"かなえ","lat":35.506726,"lng":137.828383,"prefecture":20,"lines":[11414],"attr":"heat","postal_code":"395-0801","address":"飯田市鼎中平","next":[1141410,1141405,1141403,1141406,1141409,1141411,1141412,1141407],"voronoi":{"lat":35.498409,"lng":137.832428,"delta_lat":[0,-3728,-9097,26,24185,4768,-428,-2070],"delta_lng":[0,-2804,-16020,-1826,7039,8563,5429,2624]}},
    {"code":1141409,"id":"638b64","name":"切石","name_kana":"きりいし","lat":35.512339,"lng":137.809098,"prefecture":20,"lines":[11414],"attr":"heat","postal_code":"395-0807","address":"飯田市鼎切石","next":[1141124,1141128,1141403,1141408,1141402,1141127,1141410],"voronoi":{"lat":35.485611,"lng":137.811778,"delta_lat":[0,-4217,-14169,118892,1712,21863,-99896],"delta_lng":[0,-10918,-130148,51345,2034,35468,59258]}},
    {"code":1141410,"id":"53e7f7","name":"飯田","name_kana":"いいだ","lat":35.519544,"lng":137.821244,"prefecture":20,"lines":[11414],"attr":"heat","postal_code":"395-0000","address":"飯田市上飯田","next":[1141408,1141411,1141409,1141128,1141421],"voronoi":{"lat":35.629048,"lng":137.786839,"delta_lat":[0,-19357,-99896,4768,110631],"delta_lng":[0,-27281,59258,8563,-34459]}},
    {"code":1141411,"id":"4692f3","name":"桜町(長野)","name_kana":"さくらまち","lat":35.522147,"lng":137.829601,"prefecture":20,"lines":[11414],"attr":"heat","postal_code":"395-0014","address":"飯田市桜町２丁目","next":[1141410,1141413,1141421,1141408,1141416,1141419,1141412],"voronoi":{"lat":35.609538,"lng":137.815472,"delta_lat":[0,985,7942,6729,-110631,-428,30686],"delta_lng":[0,-749,-10180,-11622,34459,5429,6486]}},
    {"code":1141412,"id":"e55f72","name":"伊那上郷","name_kana":"いなかみさと","lat":35.520164,"lng":137.838984,"prefecture":20,"lines":[11414],"attr":"cool","postal_code":"395-0004","address":"飯田市上郷黒田","next":[1141407,1141408,1141411,1141413],"voronoi":{"lat":35.544822,"lng":137.839294,"delta_lat":[0,-30686,-2070,889],"delta_lng":[0,-6486,2624,23330]}},
    {"code":1141413,"id":"1b5693","name":"元善光寺","name_kana":"もとぜんこうじ","lat":35.533843,"lng":137.861375,"prefecture":20,"lines":[11414],"attr":"cool","postal_code":"395-0001","address":"飯田市座光寺","next":[1141411,1141406,1141414,1141407,1141412,1141416],"voronoi":{"lat":35.609538,"lng":137.815472,"delta_lat":[0,-64717,-31867,-5628,-20547,111279],"delta_lng":[0,23823,19468,7642,38342,-76397]}},
    {"code":1141414,"id":"e5ff2a","name":"下市田","name_kana":"しもいちだ","lat":35.544165,"lng":137.87641,"prefecture":20,"lines":[11414],"attr":"cool","postal_code":"399-3103","address":"下伊那郡高森町下市田","next":[1141406,1141404,1141413,1141416,1141415],"voronoi":{"lat":35.569518,"lng":137.869937,"delta_lat":[0,28540,-111279,-7281,-727],"delta_lng":[0,-41588,76397,9884,1358]}},
    {"code":1141415,"id":"4280c0","name":"市田","name_kana":"いちだ","lat":35.549325,"lng":137.886578,"prefecture":20,"lines":[11414],"attr":"cool","postal_code":"399-3103","address":"下伊那郡高森町下市田","next":[9950812,9950814,1141417,1141416,1141345,1141404,1141346,1141414],"voronoi":{"lat":35.409688,"lng":138.024756,"delta_lat":[0,-8584,-1358,27670,9523,113783,18796,-90747],"delta_lng":[0,35343,6390,34344,9595,-193678,-46813,46051]}},
    {"code":1141416,"id":"310662","name":"下平","name_kana":"しもだいら","lat":35.572597,"lng":137.895922,"prefecture":20,"lines":[11414],"attr":"cool","postal_code":"399-3101","address":"下伊那郡高森町山吹","next":[1141419,1141415,1141411,1141417,1141414,1141413],"voronoi":{"lat":35.609538,"lng":137.815472,"delta_lat":[0,985,-12458,-47343,18796,28540],"delta_lng":[0,-749,68830,33198,-46813,-41588]}},
    {"code":1141417,"id":"0d2711","name":"山吹","name_kana":"やまぶき","lat":35.577758,"lng":137.903282,"prefecture":20,"lines":[11414],"attr":"cool","postal_code":"399-3101","address":"下伊那郡高森町山吹","next":[1141419,1141415,1141418,1141416,9950814],"voronoi":{"lat":35.436939,"lng":138.110428,"delta_lat":[0,113783,47343,-86,-137971],"delta_lng":[0,-193678,-33198,4393,249013]}},
    {"code":1141418,"id":"847193","name":"伊那大島","name_kana":"いなおおしま","lat":35.595698,"lng":137.913222,"prefecture":20,"lines":[11414],"attr":"cool","postal_code":"399-3303","address":"下伊那郡松川町元大島","next":[1140224,1141420,1141419,9950814,1141417,1141423],"voronoi":{"lat":35.616974,"lng":137.972058,"delta_lat":[0,-4534,-14461,-137971,33465,63176],"delta_lng":[0,-49555,-34558,249013,41679,11853]}},
    {"code":1141419,"id":"6921b4","name":"上片桐","name_kana":"かみかたぎり","lat":35.617583,"lng":137.904064,"prefecture":20,"lines":[11414],"attr":"cool","postal_code":"399-3301","address":"下伊那郡松川町上片桐","next":[1141416,1141417,1141418,1141420,1141411,1141421],"voronoi":{"lat":35.618466,"lng":137.804543,"delta_lat":[0,-7942,-12458,-86,14461,17776],"delta_lng":[0,10180,68830,4393,34558,-27307]}},
    {"code":1141420,"id":"ee40b2","name":"伊那田島","name_kana":"いなたじま","lat":35.627221,"lng":137.910338,"prefecture":20,"lines":[11414],"attr":"cool","postal_code":"399-3802","address":"上伊那郡中川村片桐","next":[1141418,1141423,1141419,1141421,1141422],"voronoi":{"lat":35.640813,"lng":137.914112,"delta_lat":[0,-10596,-17776,4534,23179],"delta_lng":[0,-18915,27307,49555,-39998]}},
    {"code":1141421,"id":"23c785","name":"高遠原","name_kana":"たかとおばら","lat":35.644693,"lng":137.90055,"prefecture":20,"lines":[11414],"attr":"cool","postal_code":"399-3705","address":"上伊那郡飯島町七久保","next":[1141128,1141411,1141129,1141422,1141420,1141426,1141419,1141410],"voronoi":{"lat":35.629048,"lng":137.786839,"delta_lat":[0,35694,59717,-11532,-72115,-10596,-11751,6729],"delta_lng":[0,9196,28300,23299,66477,-18915,-90654,-11622]}},
    {"code":1141422,"id":"ab154c","name":"七久保","name_kana":"ななくぼ","lat":35.654645,"lng":137.911346,"prefecture":20,"lines":[11414],"attr":"cool","postal_code":"399-3705","address":"上伊那郡飯島町七久保","next":[1141423,1141424,1141421,1141420,1141426,1141425],"voronoi":{"lat":35.667834,"lng":137.917934,"delta_lat":[0,-27680,659,72115,-5109,-9198],"delta_lng":[0,14126,-17949,-66477,13000,17329]}},
    {"code":1141423,"id":"e272ff","name":"伊那本郷","name_kana":"いなほんごう","lat":35.66543,"lng":137.93248,"prefecture":20,"lines":[11414],"attr":"cool","postal_code":"399-3704","address":"上伊那郡飯島町本郷","next":[1141422,1140224,1131136,1141420,1131140,1141424,1140226,1141418,1131139,1141425],"voronoi":{"lat":35.679964,"lng":137.960302,"delta_lat":[0,-12130,-27680,-23179,-60325,4564,18001,71130,3207,22209],"delta_lng":[0,-42367,14126,39998,218432,1487,4148,-12655,-1657,-14217]}},
    {"code":1141424,"id":"71ada0","name":"飯島","name_kana":"いいじま","lat":35.677571,"lng":137.929004,"prefecture":20,"lines":[11414],"attr":"eco","postal_code":"399-3702","address":"上伊那郡飯島町飯島","next":[1141422,1141423,1141425],"voronoi":{"lat":35.69862,"lng":137.877964,"delta_lat":[0,-30787,12130],"delta_lng":[0,39971,42367]}},
    {"code":1141425,"id":"ae77db","name":"田切","name_kana":"たぎり","lat":35.695613,"lng":137.933092,"prefecture":20,"lines":[11414],"attr":"eco","postal_code":"399-3701","address":"上伊那郡飯島町田切","next":[1141426,1131140,1141424,1141423,1141422],"voronoi":{"lat":35.707818,"lng":137.860635,"delta_lat":[0,-15925,-16133,4203,18657],"delta_lng":[0,298039,8923,-207295,-82338]}},
    {"code":1141426,"id":"18a49e","name":"伊那福岡","name_kana":"いなふくおか","lat":35.712233,"lng":137.93398,"prefecture":20,"lines":[11414],"attr":"eco","postal_code":"399-4117","address":"駒ヶ根市赤穂","next":[1131140,1141421,1141425,1141429,1141427,1141129,1141422],"voronoi":{"lat":35.712928,"lng":137.847635,"delta_lat":[0,11532,4313,-19964,-16704,-211,15925],"delta_lng":[0,-23299,407,236697,97127,107,-298039]}},
    {"code":1141427,"id":"701108","name":"小町屋","name_kana":"こまちや","lat":35.726781,"lng":137.935207,"prefecture":20,"lines":[11414],"attr":"eco","postal_code":"399-4117","address":"駒ヶ根市赤穂","next":[1141129,1141429,1141428,1141426],"voronoi":{"lat":35.728772,"lng":137.824742,"delta_lat":[0,22135,-39213,-2886],"delta_lng":[0,617,223618,12462]}},
    {"code":1141428,"id":"12e106","name":"駒ヶ根","name_kana":"こまがね","lat":35.736219,"lng":137.936862,"prefecture":20,"lines":[11414],"attr":"eco","postal_code":"399-4106","address":"長野県駒ヶ根市東町1-1","next":[1141429,1141129,1141427,1141430],"voronoi":{"lat":35.711695,"lng":138.048977,"delta_lat":[0,39213,8217,-4465],"delta_lng":[0,-223618,-121,68106]}},
    {"code":1141429,"id":"dc0ee7","name":"大田切","name_kana":"おおたぎり","lat":35.748162,"lng":137.940159,"prefecture":20,"lines":[11414],"attr":"eco","postal_code":"399-4117","address":"駒ヶ根市赤穂","next":[1141428,1131140,1141431,1141427,1141430,1141426],"voronoi":{"lat":35.737837,"lng":138.139908,"delta_lat":[0,21799,-4977,-42965,-2886,-16704],"delta_lng":[0,-171242,-75321,155633,12462,97127]}},
    {"code":1141430,"id":"f6353b","name":"宮田","name_kana":"みやだ","lat":35.76726,"lng":137.938897,"prefecture":20,"lines":[11414],"attr":"eco","postal_code":"399-4301","address":"上伊那郡宮田村","next":[1141433,1141133,1141429,1141428,1141431,1141132,1141129],"voronoi":{"lat":35.783696,"lng":137.821483,"delta_lat":[0,3841,5307,-1927,-31281,-4977,4465],"delta_lng":[0,2024,3670,75610,65879,-75321,-68106]}},
    {"code":1141431,"id":"875cc3","name":"赤木","name_kana":"あかぎ","lat":35.777887,"lng":137.943943,"prefecture":20,"lines":[11414],"attr":"eco","postal_code":"399-4431","address":"伊那市西春近","next":[1141429,1141435,1141434,1141433,1141436,1141430,1131141,1131140,1141432],"voronoi":{"lat":35.790931,"lng":137.9029,"delta_lat":[0,-13,-31281,-21799,336,9925,33153,6365,2891],"delta_lng":[0,-113,65879,171242,-108,-4532,-81155,-20990,-11474]}},
    {"code":1141432,"id":"033d76","name":"沢渡","name_kana":"さわんど","lat":35.803681,"lng":137.944035,"prefecture":20,"lines":[11414],"attr":"eco","postal_code":"399-4431","address":"伊那市西春近","next":[1141434,1141431,1141433],"voronoi":{"lat":35.790507,"lng":138.021648,"delta_lat":[0,423,25829],"delta_lng":[0,-118749,58570]}},
    {"code":1141433,"id":"2017e4","name":"下島(JR)","name_kana":"しもじま","lat":35.812706,"lng":137.940055,"prefecture":20,"lines":[11414],"attr":"eco","postal_code":"399-4431","address":"長野県伊那市西春近小出島区","next":[1141133,1141430,1141134,1141434,1141431,1141432],"voronoi":{"lat":35.790931,"lng":137.9029,"delta_lat":[0,-13,1927,74539,16326,-66950],"delta_lng":[0,-113,-75610,31983,12316,89994]}},
    {"code":1141434,"id":"33f28e","name":"伊那市","name_kana":"いなし","lat":35.838435,"lng":137.959196,"prefecture":20,"lines":[11414],"attr":"eco","postal_code":"396-0021","address":"伊那市伊那","next":[1141432,1141433,1141435,1141431,1141134,1141136],"voronoi":{"lat":35.889543,"lng":137.874536,"delta_lat":[0,-5834,-66950,-26252,-2891,112012],"delta_lng":[0,-3061,89994,60179,11474,-147379]}},
    {"code":1141435,"id":"e04a10","name":"伊那北","name_kana":"いなきた","lat":35.84524,"lng":137.964368,"prefecture":20,"lines":[11414],"attr":"eco","postal_code":"396-0021","address":"伊那市伊那","next":[1141136,1141437,1141438,1141431,1141434,1141436],"voronoi":{"lat":35.787616,"lng":138.033123,"delta_lat":[0,112012,8299,-1538,-20022,-105116],"delta_lng":[0,-147379,8432,3618,34711,121608]}},
    {"code":1141436,"id":"660db3","name":"田畑","name_kana":"たばた","lat":35.860791,"lng":137.97781,"prefecture":20,"lines":[11414],"attr":"eco","postal_code":"399-4511","address":"上伊那郡南箕輪村松ノ木","next":[1131142,1141435,1131141,1141431,1141437],"voronoi":{"lat":35.781452,"lng":138.128681,"delta_lat":[0,-33354,33153,105116,-61637],"delta_lng":[0,6586,-81155,-121608,183321]}},
    {"code":1141437,"id":"8e4bc3","name":"北殿","name_kana":"きたとの","lat":35.879377,"lng":137.984059,"prefecture":20,"lines":[11414],"attr":"eco","postal_code":"399-4511","address":"上伊那郡南箕輪村","next":[1141435,1131143,1141438,1131142,1141436],"voronoi":{"lat":35.83214,"lng":138.114169,"delta_lat":[0,36377,37873,-20022,-61637],"delta_lng":[0,-10767,-205609,34711,183321]}},
    {"code":1141438,"id":"81db41","name":"木ノ下","name_kana":"きのした","lat":35.900892,"lng":137.988022,"prefecture":20,"lines":[11414],"attr":"eco","postal_code":"399-4601","address":"上伊那郡箕輪町中箕輪","next":[1141439,1131144,1141435,1131143,1141437,1141136],"voronoi":{"lat":35.902182,"lng":138.0962,"delta_lat":[0,-1345,-32320,37873,1538,3893],"delta_lng":[0,775,6428,-205609,-3618,1959]}},
    {"code":1141439,"id":"349675","name":"伊那松島","name_kana":"いなまつしま","lat":35.913865,"lng":137.988647,"prefecture":20,"lines":[11414],"attr":"eco","postal_code":"399-4601","address":"上伊那郡箕輪町中箕輪","next":[1141438,1141440,1131144,1141136],"voronoi":{"lat":35.91182,"lng":137.896135,"delta_lat":[0,-9639,35797,-25621],"delta_lng":[0,200065,-17828,-182012]}},
    {"code":1141440,"id":"27ff6a","name":"沢","name_kana":"さわ","lat":35.936385,"lng":137.985477,"prefecture":20,"lines":[11414],"attr":"eco","postal_code":"399-4601","address":"上伊那郡箕輪町中箕輪","next":[1131144,1141136,1141439,1141441,1131150],"voronoi":{"lat":35.937978,"lng":138.078371,"delta_lat":[0,-25621,30694,3052,-6751],"delta_lng":[0,-182012,8578,145294,27654]}},
    {"code":1141441,"id":"ce861c","name":"羽場(長野)","name_kana":"はば","lat":35.953094,"lng":137.985126,"prefecture":20,"lines":[11414],"attr":"eco","postal_code":"399-0428","address":"上伊那郡辰野町伊那富","next":[1141442,1141137,1131150,1141443,1141440,1141136],"voronoi":{"lat":35.955826,"lng":137.909422,"delta_lat":[0,6135,-5612,-10245,-3052,5567],"delta_lng":[0,90051,24140,26619,-145294,950]}},
    {"code":1141442,"id":"ba28ed","name":"伊那新町","name_kana":"いなしんまち","lat":35.9688,"lng":137.984056,"prefecture":20,"lines":[11414],"attr":"eco","postal_code":"399-0428","address":"上伊那郡辰野町伊那富","next":[1141137,1141441,1141443,1131151],"voronoi":{"lat":35.961961,"lng":137.999472,"delta_lat":[0,-6135,18600,14259],"delta_lng":[0,-90051,6829,52382]}},
    {"code":1141443,"id":"1c4468","name":"宮木","name_kana":"みやき","lat":35.976247,"lng":137.990509,"prefecture":20,"lines":[11414],"attr":"eco","postal_code":"399-0428","address":"上伊那郡辰野町伊那富","next":[1141442,1141441,1131151,1131150],"voronoi":{"lat":35.993316,"lng":137.977915,"delta_lat":[0,-4631,-26724,-5612],"delta_lng":[0,-9283,30840,24140]}},
    {"code":1131150,"id":"d8fd99","name":"辰野","name_kana":"たつの","lat":35.984565,"lng":137.997238,"prefecture":20,"lines":[11311,11414],"attr":"cool","postal_code":"399-0421","address":"上伊那郡辰野町大字辰野","next":[1141441,1131149,1131151,1141440,1141443,1131144],"voronoi":{"lat":35.975147,"lng":138.075453,"delta_lat":[0,38118,-19950,-36967,-10245,-6751],"delta_lng":[0,-74688,-22849,45697,26619,27654]}}
  ],
  "north":35.98523,
  "south":35.44082,
  "east":137.99862,
  "west":137.80909,
  "polyline_list":[
    {
      "start":"天竜峡",
      "end":"辰野",
      "lat":35.44082,
      "lng":137.81746,
      "delta_lat":[0,56,171,81,57,259,107,108,61,86,79,135,60,62,48,36,51,25,84,77,58,69,74,65,52,45,33,22,13,26,23,38,43,81,74,226,147,27,21,201,19,28,32,114,32,15,27,37,161,57,44,37,35,28,23,30,268,32,24,75,32,120,39,25,316,62,99,31,30,158,240,63,36,35,29,137,83,91,83,41,53,45,40,63,181,9,14,14,29,31,20,65,40,42,38,42,21,5,-7,0,-11,-31,-23,-4,5,29,28,23,47,35,21,58,56,58,65,53,21,20,29,28,28,58,34,6,26,29,24,27,27,16,2,-7,-29,-4,-1,3,5,13,11,20,20,61,78,44,27,23,32,28,16,45,47,56,47,111,18,52,22,14,9,2,-8,-9,-3,2,9,7,9,7,4,6,1,-3,-4,-9,-60,-45,-47,-41,-13,-17,-5,0,8,2,18,6,8,5,16,19,27,70,16,24,76,7,188,49,34,28,122,36,26,13,14,12,7,10,11,32,26,38,23,27,29,22,45,34,16,45,45,42,38,53,29,23,38,45,44,86,4,20,61,20,31,121,17,88,29,117,102,118,29,4,5,10,21,15,29,41,36,42,59,47,21,12,18,28,23,23,13,26,30,78,32,63,53,119,29,33,114,54,69,111,115,141,115,56,60,16,85,58,25,161,108,174,29,39,40,42,70,71,29,25,9,34,27,24,26,57,89,29,28,47,49,31,38,29,18,31,22,19,26,24,21,12,13,14,9,4,0,-3,-8,-11,-5,0,2,0,4,10,15,18,22,23,27,20,23,17,20,36,34,26,34,63,34,22,27,31,37,16,67,24,10,9,41,56,13,60,16,27,36,34,26,25,32,24,25,107,80,45,41,29,72,67,35,32,78,45,80,43,24,29,40,23,27,39,69,113,64,42,25,19,8,48,28,30,30,20,20,18,14,16,24,16,13,20,27,40,30,32,28,32,26,92,33,29,23,44,39,49,38,23,31,38,38,32,33,24,14,16,11,2,2,4,0,-4,-3,1,11,33,19,18,21,28,29,32,39,93,89,84,21,47,29,42,29,27,25,31,26,22,17,27,30,36,6,79,100,107,52,33,36,29,25,45,63,63,39,28,29,17,9,5,5,3,1,6,12,20,20,23,15,44,104,20,58,52,87,87,171,80,56,54,28,25,22,18,23,23,11,19,19,11,11,14,21,14,14,28,18,17,13,58,34,35,72,62,35,51,49,42,40,21,18,16,20,17,27,23,45,51,23,31,38,36,80,103,81,49,50,56,102,116,39,65,70,52,98,24,20,16,10,11,4,0,-8,-10,-18,-20,-21,-5,-4,-27,-42,-27,-34,-24,-8,-3,6,13,23,35,30,32,26,30,33,32,29,23,55,39,43,52,25,33,77,62,52,41,34,16,16,26,21,16,7,3,-3,-3,0,3,6,8,9,15,23,18,27,21,16,21,7,12,5,17,18,18,18,18,20,20,15,11,15,24,64,23,14,13,7,2,7,7,2,2,0,-2,-1,1,2,9,9,12,13,18,17,19,26,14,34,85,88,52,81,82,67,76,63,41,97,90,73,83,65,15,17,18,25,16,15,10,10,10,11,9,4,3,5,2,4,3,3,6,8,11,11,17,17,14,42,80,56,49,23,30,27,19,21,36,67,24,27,17,19,22,25,36,28,46,24,40,22,18,14,18,16,8,11,24,17,20,23,39,30,43,22,27,22,18,16,20,27,23,23,19,24,29,14,17,6,2,-1,-4,-6,-3,5,11,20,20,18,18,18,47,15,70,91,5,18,20,24,10,45,46,36,27,32,19,14,27,38,49,144,134,91,77,118,38,75,121,51,96,184,102,114,115,139,147,65,71,104,74,85,101,101,57,74,48,59,81,27,72,90,104,102,23,73,60,33,30,134,107,61,44,28,30,21,23,29,24,21,14,19,20,17,17,26,18,13,6,44,106,21,23,27,94,116,36,25,179,109,113,113,110,113,41,58,151,103,23,118,119,68,91,37,26,129,78,89,100,24,83,110,81,17,77,60,60,129,106,43,28,32,119,98,24,106,108,54,59,87,19,28,28,40,50,80,85,20,103,30,26,174,117,110,103,110,107,107,72,42,68,74,112,84,85,68,25,19,19,24,12,10,14,40,92,74,34,6,16,13,19,109,67,123,91,97,87,88,87,49,32,42,27,73,36,6,50,100,91,85,16,24,42,53,86,29,93,136,108,55,19,33,36,22,25,65,87,52,51,103,11,12,38,62,49,45,26,26,33,25,40,70,45,147,102,106,72,91,34,229,106,108,110,99,102,16,34,94,96,101,81,197,46,16,22,41,40,27,27,104,130,119,67,18,124,116,92,2,63,13,105,114,143,77,103,16,123,85,20,81,91,133,190,109,121,27,25,81,100,81,111,113,109,106,85,78,28,112,108,54,27,29,141,65,128,118,92,14,105,84,66,40,40,117,91,76,81,29,23,24,63,38,81,21,52,22,50,112,61,87,29,29,96,13,41,105,85,45,38,45,22,25,16,83,67,24,71,52,36,114,174,25,23,34,28,47,95,105,107,94,67,133,158,141,68,46,42,66,105,14,107,114,135,68,142,137,131,69,76,30,24,12,16,26,90,106,76,60,51,54,31,13,63,29,49,37,39,39,46,36,34,23,89,115,31,34,33,27,107,83,16,22,23,53,56,22,29,20,14,103,106,111,99,64,39,119,24,88,22,17,36,34,116,57,18,20,33,56,16,11,14,15,45,85],
      "delta_lng":[0,-24,-68,-21,-14,-47,-20,-23,-8,1,13,32,16,19,19,18,35,21,84,77,63,87,114,118,99,117,101,60,24,37,25,30,18,18,16,52,31,12,14,176,21,51,75,424,123,31,34,35,102,35,26,10,1,-6,-7,-15,-157,-11,-7,-10,-4,-15,-1,2,121,24,38,10,5,-11,-20,-2,5,10,13,119,74,77,70,21,17,-6,-13,-32,-100,-5,-8,-15,-62,-125,-72,-251,-154,-162,-145,-148,-79,-66,-54,-1,-84,-189,-151,-54,-67,-158,-154,-96,-118,-78,-45,-129,-130,-138,-149,-123,-43,-25,-20,-15,-3,11,17,4,17,21,19,26,34,38,68,70,136,58,70,34,33,43,20,19,15,19,15,10,11,17,39,49,26,76,76,87,79,176,29,88,40,42,33,32,88,83,44,61,54,80,100,64,42,95,41,41,26,29,120,87,86,84,34,75,27,36,50,33,137,48,57,36,41,27,26,50,12,16,51,4,127,34,21,7,2,8,15,10,20,19,17,23,30,77,57,65,38,41,46,29,67,56,35,141,138,127,123,141,74,59,91,112,107,202,9,38,98,34,43,120,18,84,31,121,100,114,28,5,10,23,46,37,86,120,105,123,169,132,63,25,31,34,22,13,6,9,6,10,5,9,9,18,6,5,18,11,14,25,26,29,27,15,28,9,49,30,13,86,56,91,17,27,31,35,62,62,24,17,4,21,12,10,13,28,40,16,19,36,42,29,49,39,31,64,63,72,101,88,81,57,60,56,45,42,24,33,32,42,33,23,18,4,18,27,27,29,28,29,29,18,16,8,7,9,-1,-2,-6,-12,-3,1,4,14,27,15,58,18,8,4,6,4,1,2,0,2,-11,-16,-17,-19,-18,-9,-5,-3,-2,0,2,8,26,22,14,16,48,30,53,34,21,30,43,29,27,35,56,94,54,39,12,2,1,-8,-18,-24,-36,-27,-35,-49,-64,-75,-112,-80,-57,-44,-40,-50,-29,-15,-6,5,7,45,14,21,22,55,60,75,59,34,24,14,-3,-10,-21,-28,-39,-60,-61,-25,-16,-66,-58,-54,-63,-35,-42,-138,-71,-67,-43,-46,-33,-23,-15,-31,-25,-22,-4,-11,1,14,23,36,42,69,66,42,29,38,34,31,5,57,70,75,36,13,6,0,-6,-22,-32,-34,-19,-22,-32,-32,-39,-39,-113,-59,-63,-34,-28,-35,-22,-16,-6,-16,-41,-3,-4,6,12,10,26,10,8,8,2,-4,-9,-7,-22,-33,-28,-62,-60,-36,-23,-16,-20,-10,-11,-13,-8,-2,-2,-4,-1,-1,-6,-1,4,11,18,20,23,14,17,24,38,37,69,59,107,128,38,40,48,35,72,93,74,45,45,49,94,105,35,57,62,49,90,27,38,41,37,52,50,40,54,45,68,76,77,24,16,77,114,78,97,73,43,42,30,33,47,59,50,49,30,22,14,10,5,7,15,17,17,22,3,0,-3,-2,-4,-3,-4,-9,-9,-21,-31,-36,-34,-41,-40,-54,-55,-55,-51,-67,-55,-80,-99,-64,-92,-74,-35,-34,-10,-14,-2,-11,-12,-4,-5,0,4,4,5,5,11,18,51,22,17,15,15,2,21,24,31,37,138,138,95,45,27,24,20,18,16,18,11,5,1,-1,-9,-22,-23,-16,-21,-22,-18,-21,-16,-11,-25,-24,-19,-22,-16,-3,2,4,11,7,11,12,10,16,21,23,16,19,59,33,80,29,28,26,22,19,18,18,14,9,17,34,25,19,4,0,-5,-7,-12,-18,-33,-9,-9,-1,1,7,13,18,13,23,12,15,7,0,-2,-8,-11,-5,-12,-29,-29,-36,-42,-74,-55,-65,-33,-36,-20,-15,-9,-1,1,7,13,20,32,41,19,33,16,18,29,57,129,58,78,59,59,34,19,11,9,18,5,24,25,0,1,-3,-11,-9,-35,-39,-28,-23,-26,-11,-6,-9,-5,-1,-19,-18,-13,-8,-9,-2,7,16,7,13,23,13,14,16,14,18,7,9,12,9,12,12,11,11,10,13,19,26,9,27,35,41,39,8,29,20,16,18,85,67,37,28,18,14,5,0,-4,-8,-13,-13,-21,-25,-26,-15,-20,-14,-7,-2,-17,-41,-8,-9,-10,-36,-44,-9,-3,9,6,6,8,6,4,3,3,9,5,1,5,7,2,9,9,9,66,39,46,52,12,41,57,41,11,52,43,41,87,72,27,15,5,-1,-2,-5,-41,-41,-20,-24,-33,-6,-6,-2,2,10,27,30,2,-8,-4,-3,-20,-13,-12,-11,-8,-5,-8,-5,-3,-7,-6,-6,-6,-7,-4,-6,-7,-11,-22,-12,-10,-16,-43,-104,-81,-37,-8,-15,-9,-3,16,13,26,19,20,16,19,19,16,15,31,24,77,41,6,54,111,104,96,14,17,20,15,17,6,20,34,23,15,8,18,28,24,37,103,141,83,85,165,16,20,70,105,86,80,45,32,22,14,19,30,26,99,77,79,54,68,25,171,78,81,79,75,79,12,32,88,95,107,88,216,54,15,12,21,18,9,9,32,39,36,22,3,40,35,27,1,20,7,55,60,68,12,13,2,26,16,2,-8,-9,-13,-16,-8,-9,4,8,30,37,29,39,41,41,36,31,29,10,38,39,15,6,3,13,8,13,13,10,2,11,10,3,-3,-6,-20,-15,-11,-12,3,5,7,23,14,31,7,18,4,5,1,0,-2,-9,-15,-77,-10,-37,-82,-62,-33,-29,-29,-8,-8,-3,-17,-14,-3,-15,-10,-8,-23,-34,-3,0,3,4,16,28,35,33,30,22,44,50,44,17,6,-1,-8,-21,-2,-22,-23,-26,-16,-23,-28,-26,-13,-15,-12,-12,-9,-13,-23,-81,-89,-60,-41,-25,-18,-11,-5,-9,0,11,6,0,-8,-8,1,5,8,35,51,17,22,23,23,92,82,21,33,34,100,99,29,27,14,10,57,55,58,51,32,22,61,13,44,10,9,18,18,57,32,16,20,36,72,26,19,26,36,90,170]
    }
  ]
}