{
  "code":11413,
  "id":"a0c4b3",
  "name":"JR飯田線(豊橋～天竜峡)",
  "name_kana":"じぇいあーるいいだせん",
  "station_size":51,
  "company_code":3,
  "color":"#87CEEB",
  "symbol":"CD",
  "station_list":[
    {"code":100211,"id":"ce07ed","name":"豊橋","name_kana":"とよはし","lat":34.762734,"lng":137.382128,"prefecture":23,"numbering":[{"index":"00"}],"lines":[1002,11413,11502,30001],"attr":"heat","postal_code":"440-0075","address":"豊橋市花田町西宿","next":[9952004,1141302,9952001,9952006,9952101,9952003,9952002],"voronoi":{"lat":34.763029,"lng":137.382946,"delta_lat":[0,5428,-23020,-58,4751,2428,1744],"delta_lng":[0,-6191,-37035,4576,27581,5651,2185]}},
    {"code":1141302,"id":"eceb77","name":"船町","name_kana":"ふなまち","lat":34.775809,"lng":137.374001,"prefecture":23,"numbering":[{"index":"01"}],"lines":[11413],"attr":"heat","postal_code":"440-0071","address":"豊橋市北島町北島","next":[100211,9952006,9952105,9952009,1141305,9952104,9952011,9952101,1141303],"voronoi":{"lat":34.747531,"lng":137.325619,"delta_lat":[0,-2827,-194,928,23020,5595,2058,12942,475],"delta_lng":[0,6107,2096,5899,37035,7309,1244,5909,-2028]}},
    {"code":1141303,"id":"e2c179","name":"下地","name_kana":"しもじ","lat":34.780939,"lng":137.370612,"prefecture":23,"numbering":[{"index":"02"}],"lines":[11413],"attr":"heat","postal_code":"440-0093","address":"豊橋市横須賀町横須賀","next":[9952011,1141304,1141305,1141302,1150211],"voronoi":{"lat":34.747832,"lng":137.324861,"delta_lat":[0,-302,41997,4627,-8795],"delta_lng":[0,757,63571,-11558,-19329]}},
    {"code":1141304,"id":"527453","name":"小坂井","name_kana":"こざかい","lat":34.797544,"lng":137.363056,"prefecture":23,"numbering":[{"index":"03"}],"lines":[11413],"attr":"heat","postal_code":"441-0103","address":"愛知県豊川市小坂井町倉屋敷72","next":[3000102,1150211,1141303,3000203,1141305],"voronoi":{"lat":34.785359,"lng":137.358303,"delta_lat":[0,13013,12442,-719,-15941],"delta_lng":[0,-572,7953,2512,9436]}},
    {"code":1141305,"id":"91ac19","name":"牛久保","name_kana":"うしくぼ","lat":34.808563,"lng":137.381671,"prefecture":23,"numbering":[{"index":"04"}],"lines":[11413],"attr":"heat","postal_code":"442-0826","address":"豊川市牛久保町","next":[9952105,9952108,3000204,9952109,1141302,3000205,9952106,1141303,1141304,9952107,3000203],"voronoi":{"lat":34.810095,"lng":137.368195,"delta_lat":[0,-15941,-4627,-475,1847,1465,208,1993,348,10666,11949],"delta_lng":[0,9436,11558,2028,7035,4449,475,3697,555,-9780,-19556]}},
    {"code":1141306,"id":"abbb82","name":"豊川(愛知)","name_kana":"とよかわ","lat":34.822519,"lng":137.397157,"prefecture":23,"numbering":[{"index":"05"}],"lines":[11413],"attr":"heat","postal_code":"442-0033","address":"豊川市豊川町","next":[1141307,3000205,3000203,9952112,9952110,9952113,9952111],"voronoi":{"lat":34.797384,"lng":137.417465,"delta_lat":[0,-855,43154,9977,-40154,-7510,-1973],"delta_lng":[0,-3056,-30000,353,58625,-13546,-4651]}},
    {"code":1141307,"id":"ba4a04","name":"三河一宮","name_kana":"みかわいちのみや","lat":34.847911,"lng":137.414549,"prefecture":23,"lines":[11413],"attr":"heat","postal_code":"441-1231","address":"豊川市一宮町下新切","next":[1141309,1141306,3000203,1141308,3000202,9952113,3000106],"voronoi":{"lat":34.828754,"lng":137.449828,"delta_lat":[0,-15915,-3333,40154,18761,24029,18732],"delta_lng":[0,11872,-18312,-58625,-10407,-7216,2069]}},
    {"code":1141308,"id":"342300","name":"長山","name_kana":"ながやま","lat":34.864449,"lng":137.431458,"prefecture":23,"lines":[11413],"attr":"heat","postal_code":"441-1202","address":"豊川市上長山町西水神平","next":[1141309,3000106,1141307,3000107,1141310,3000108],"voronoi":{"lat":34.929163,"lng":137.414095,"delta_lat":[0,-100409,82428,77362,16114,14777],"delta_lng":[0,35732,-80619,-3292,808,2463]}},
    {"code":1141309,"id":"c60d29","name":"江島","name_kana":"えじま","lat":34.868029,"lng":137.441518,"prefecture":23,"lines":[11413],"attr":"heat","postal_code":"441-1201","address":"豊川市東上町丸塚","next":[1141307,1141310,9952113,1141308,9950534,9950533,9950535],"voronoi":{"lat":34.81319,"lng":137.480898,"delta_lat":[0,2257,113716,-100409,-15915,-1757,1965],"delta_lng":[0,1577,-68380,35732,11872,15867,3212]}},
    {"code":1141310,"id":"d29a91","name":"東上","name_kana":"とうじょう","lat":34.876278,"lng":137.455236,"prefecture":23,"lines":[11413],"attr":"heat","postal_code":"441-1201","address":"豊川市東上町東京寺","next":[1141309,9950533,1141312,1141311,3000108,1141308],"voronoi":{"lat":34.815448,"lng":137.482476,"delta_lat":[0,15491,191523,22644,-25670,-90272],"delta_lng":[0,13870,-110081,-14875,-2202,44908]}},
    {"code":1141311,"id":"201e4f","name":"野田城","name_kana":"のだじょう","lat":34.889282,"lng":137.477861,"prefecture":23,"lines":[11413],"attr":"heat","postal_code":"441-1343","address":"新城市野田","next":[1141310,9950532,1141312,9950533],"voronoi":{"lat":34.850566,"lng":137.520235,"delta_lat":[0,171896,-191523,4004],"delta_lng":[0,-133970,110081,5543]}},
    {"code":1141312,"id":"fcf43a","name":"新城","name_kana":"しんしろ","lat":34.901112,"lng":137.49304,"prefecture":23,"lines":[11413],"attr":"heat","postal_code":"441-1377","address":"新城市宮ノ西","next":[1141313,9952410,1141310,3000108,3000522,1141311,9950532],"voronoi":{"lat":34.850566,"lng":137.520235,"delta_lat":[0,171896,22644,9241,38151,1074,-240871],"delta_lng":[0,-133970,-14875,-321,26420,4118,122214]}},
    {"code":1141313,"id":"f485f4","name":"東新町","name_kana":"ひがししんまち","lat":34.906129,"lng":137.502928,"prefecture":23,"lines":[11413],"attr":"heat","postal_code":"441-1361","address":"新城市平井若杉","next":[1141312,1141314,1141316,9950532,9952410],"voronoi":{"lat":35.093571,"lng":137.401606,"delta_lat":[0,-240871,2076,193475,53358],"delta_lng":[0,122214,4408,-70769,-28029]}},
    {"code":1141314,"id":"442d85","name":"茶臼山","name_kana":"ちゃうすやま","lat":34.910334,"lng":137.514424,"prefecture":23,"lines":[11413],"attr":"cool","postal_code":"441-1302","address":"新城市富永","next":[1141313,9950532,1141316,1141315],"voronoi":{"lat":34.948165,"lng":137.515394,"delta_lat":[0,100087,-193475,308],"delta_lng":[0,-57935,70769,890]}},
    {"code":1141315,"id":"c1ed16","name":"三河東郷","name_kana":"みかわとうごう","lat":34.912224,"lng":137.527242,"prefecture":23,"lines":[11413],"attr":"cool","postal_code":"441-1306","address":"新城市川路","next":[9950532,1141317,1141314,1141316],"voronoi":{"lat":34.948165,"lng":137.515394,"delta_lat":[0,-93080,6625,59953],"delta_lng":[0,13724,29699,-21247]}},
    {"code":1141316,"id":"9455e8","name":"大海","name_kana":"おおみ","lat":34.930164,"lng":137.548682,"prefecture":23,"lines":[11413],"attr":"cool","postal_code":"441-1315","address":"新城市大海","next":[1141318,1141320,1141317,1141321,1141319,1141322,1141313,1141314,9952410,1141315],"voronoi":{"lat":34.927515,"lng":137.556697,"delta_lat":[0,18616,39326,3848,23613,101612,-12920,-53358,-100087,-26502],"delta_lng":[0,4761,-3490,-1550,-14809,-82066,-30113,28029,57935,22176]}},
    {"code":1141317,"id":"23f291","name":"鳥居","name_kana":"とりい","lat":34.920834,"lng":137.551537,"prefecture":23,"lines":[11413],"attr":"cool","postal_code":"441-1317","address":"新城市有海","next":[1141316,9950532,1141315,9950531,1141318],"voronoi":{"lat":34.861742,"lng":137.581519,"delta_lat":[0,-32,59953,5852,-65709],"delta_lng":[0,-22702,-21247,19127,25165]}},
    {"code":1141318,"id":"b28fe9","name":"長篠城","name_kana":"ながしのじょう","lat":34.92599,"lng":137.565,"prefecture":23,"lines":[11413],"attr":"cool","postal_code":"441-1634","address":"新城市長篠","next":[1141316,9950527,9950531,1141319,1141317],"voronoi":{"lat":34.927515,"lng":137.556697,"delta_lat":[0,18616,-76750,-7031,-544],"delta_lng":[0,4761,43233,-15384,-7445]}},
    {"code":1141319,"id":"377bd1","name":"本長篠","name_kana":"ほんながしの","lat":34.932664,"lng":137.576848,"prefecture":23,"lines":[11413],"attr":"cool","postal_code":"441-1634","address":"新城市長篠","next":[9950526,1141316,1141318,9950525,9950527,1141320],"voronoi":{"lat":34.985456,"lng":137.557968,"delta_lat":[0,-39326,-76750,7028,4419,1403],"delta_lng":[0,3490,43233,20504,7383,1900]}},
    {"code":1141320,"id":"839edd","name":"三河大野","name_kana":"みかわおおの","lat":34.952038,"lng":137.602987,"prefecture":23,"lines":[11413],"attr":"cool","postal_code":"441-1632","address":"新城市富栄","next":[9950525,1141316,9950524,1141323,9950522,1141321,1141319],"voronoi":{"lat":34.88954,"lng":137.650769,"delta_lat":[0,14078,5940,24072,55675,-3848,-103226],"delta_lng":[0,24345,6380,-22599,-102477,1550,76510]}},
    {"code":1141321,"id":"600479","name":"湯谷温泉","name_kana":"ゆやおんせん","lat":34.970516,"lng":137.613026,"prefecture":23,"lines":[11413],"attr":"cool","postal_code":"441-1631","address":"新城市豊岡","next":[1141322,1141316,1141320,1141323],"voronoi":{"lat":34.989305,"lng":137.556418,"delta_lat":[0,23613,-40902,-38386],"delta_lng":[0,-14809,92450,24836]}},
    {"code":1141322,"id":"8c4975","name":"三河槙原","name_kana":"みかわまきはら","lat":34.988589,"lng":137.621022,"prefecture":23,"lines":[11413],"attr":"eco","postal_code":"441-1631","address":"愛知県新城市豊岡字ドウデイ2","open_date":"1923-02-01","next":[9952410,1141321,1141324,1141316,1141323,1141325],"voronoi":{"lat":35.042922,"lng":137.627907,"delta_lat":[0,-70907,40902,101612,87342,-8527],"delta_lng":[0,6152,-92450,-82066,118710,3679]}},
    {"code":1141323,"id":"92b5c8","name":"柿平","name_kana":"かきだいら","lat":34.990587,"lng":137.644048,"prefecture":23,"lines":[11413],"attr":"eco","postal_code":"441-1621","address":"新城市下吉田","next":[1141324,1141320,9950521,1141322,9950522,1141321],"voronoi":{"lat":34.972015,"lng":137.63406,"delta_lat":[0,70907,-124979,-5230,-3156,24072],"delta_lng":[0,-6152,69780,-9289,-6904,-22599]}},
    {"code":1141324,"id":"4e5a09","name":"三河川合","name_kana":"みかわかわい","lat":35.001722,"lng":137.663991,"prefecture":23,"lines":[11413],"attr":"eco","postal_code":"441-1601","address":"新城市川合","next":[1141325,9950521,1141323,1141322],"voronoi":{"lat":35.193344,"lng":137.581932,"delta_lat":[0,-262117,-13284,124979],"delta_lng":[0,148447,-32692,-69780]}},
    {"code":1141325,"id":"ef950f","name":"池場","name_kana":"いけば","lat":35.024418,"lng":137.704066,"prefecture":23,"lines":[11413],"attr":"eco","postal_code":"441-1602","address":"新城市池場","next":[1141327,1141324,1141338,9950521,9950517,9952410,9952406,1141322,1141326],"voronoi":{"lat":34.933478,"lng":137.745699,"delta_lat":[0,-2250,262117,8527,6120,11620,-14974,-32681,-234867],"delta_lng":[0,-15320,-148447,-3679,5444,14840,21727,20241,110662]}},
    {"code":1141326,"id":"2f5eb6","name":"東栄","name_kana":"とうえい","lat":35.02901,"lng":137.713812,"prefecture":23,"lines":[11413],"attr":"eco","postal_code":"449-0216","address":"北設楽郡東栄町三輪字平栗","next":[1141327,9950517,1141328,1141325],"voronoi":{"lat":35.171956,"lng":137.640506,"delta_lat":[0,-169405,-48514,-16948],"delta_lng":[0,112951,26669,-28958]}},
    {"code":1141327,"id":"ce684a","name":"出馬","name_kana":"いずんま","lat":35.049322,"lng":137.744276,"prefecture":22,"lines":[11413],"attr":"cool","postal_code":"431-3906","address":"浜松市天竜区佐久間町浦川","next":[1141338,1141325,1141326,1141328,1141329],"voronoi":{"lat":35.002552,"lng":137.753457,"delta_lat":[0,169405,32681,-51024,-77415],"delta_lng":[0,-112951,-20241,97016,28163]}},
    {"code":1141328,"id":"884251","name":"上市場","name_kana":"かみいちば","lat":35.050202,"lng":137.752364,"prefecture":22,"lines":[11413],"attr":"cool","postal_code":"431-3906","address":"浜松市天竜区佐久間町浦川","next":[1141329,1141327,9950517,1141330,1141326],"voronoi":{"lat":35.002552,"lng":137.753457,"delta_lat":[0,73647,-94322,-19624,-8215],"delta_lng":[0,-8013,51615,8897,-25830]}},
    {"code":1141329,"id":"ff0632","name":"浦川","name_kana":"うらかわ","lat":35.056355,"lng":137.763608,"prefecture":22,"lines":[11413],"attr":"cool","postal_code":"431-3906","address":"浜松市天竜区佐久間町浦川","next":[1141331,1141338,1141328,1141332,1141330,1141327],"voronoi":{"lat":35.153613,"lng":137.71728,"delta_lat":[0,-2939,-3790,-49012,-115996,94322],"delta_lng":[0,7177,2791,27855,41955,-51615]}},
    {"code":1141330,"id":"705495","name":"早瀬","name_kana":"はやせ","lat":35.060521,"lng":137.775126,"prefecture":22,"lines":[11413],"attr":"cool","postal_code":"431-3906","address":"浜松市天竜区佐久間町浦川","next":[9950517,1141328,1141331,9950516,1141329],"voronoi":{"lat":34.962253,"lng":137.805955,"delta_lat":[0,3091,6840,125689,-115996],"delta_lng":[0,16396,30669,-97917,41955]}},
    {"code":1141331,"id":"2e8e19","name":"下川合","name_kana":"しもかわい","lat":35.069321,"lng":137.786422,"prefecture":22,"lines":[11413],"attr":"cool","postal_code":"431-3907","address":"浜松市天竜区佐久間町川合","next":[1141329,1141330,9950516,1141332],"voronoi":{"lat":35.146884,"lng":137.727249,"delta_lat":[0,-49012,-125689,6021],"delta_lng":[0,27855,97917,37645]}},
    {"code":1141332,"id":"3e01d0","name":"中部天竜","name_kana":"ちゅうぶてんりゅう","lat":35.085283,"lng":137.802898,"prefecture":22,"lines":[11413],"attr":"cool","postal_code":"431-3905","address":"浜松市天竜区佐久間町半場","next":[9950516,1141338,1141329,1141333,1141334,1141331],"voronoi":{"lat":34.978812,"lng":137.898673,"delta_lat":[0,33645,134341,3877,-3790,-168680],"delta_lng":[0,-19426,-128663,-26126,2791,163417]}},
    {"code":1141333,"id":"632000","name":"佐久間","name_kana":"さくま","lat":35.091877,"lng":137.809783,"prefecture":22,"lines":[11413],"attr":"cool","postal_code":"431-3901","address":"浜松市天竜区佐久間町佐久間","next":[1141338,1141332,1141334],"voronoi":{"lat":35.146797,"lng":137.750584,"delta_lat":[0,-5473,-128868],"delta_lng":[0,61828,66835]}},
    {"code":1141334,"id":"4cefcd","name":"相月","name_kana":"あいづき","lat":35.114988,"lng":137.854345,"prefecture":22,"lines":[11413],"attr":"heat","postal_code":"431-4111","address":"浜松市天竜区佐久間町相月","next":[9950516,9950510,9950714,9950712,1141332,9950715,1141333,1141335,1141338,9950709,9950509],"voronoi":{"lat":34.99272,"lng":137.938801,"delta_lat":[0,22112,44519,11659,71849,-1534,-128868,-33645,-1220,3743,2374],"delta_lng":[0,12244,17549,3080,-156033,-3230,66835,19426,9104,15192,8778]}},
    {"code":1141335,"id":"a7b28a","name":"城西","name_kana":"しろにし","lat":35.131569,"lng":137.86198,"prefecture":22,"lines":[11413],"attr":"heat","postal_code":"431-4111","address":"浜松市天竜区佐久間町相月","next":[1141336,1141338,9950715,1141334],"voronoi":{"lat":35.142858,"lng":137.815641,"delta_lat":[0,11435,-50392,-32892],"delta_lng":[0,15492,151851,-11310]}},
    {"code":1141336,"id":"4c1812","name":"向市場","name_kana":"むかいちば","lat":35.154067,"lng":137.869446,"prefecture":22,"lines":[11413],"attr":"heat","postal_code":"431-4102","address":"浜松市天竜区水窪町地頭方","next":[1141335,1141338,9950715,9950717,1141337],"voronoi":{"lat":35.162461,"lng":137.836971,"delta_lat":[0,-8168,-50392,24784,15481],"delta_lng":[0,-5837,151851,11272,4057]}},
    {"code":1141337,"id":"9fd540","name":"水窪","name_kana":"みさくぼ","lat":35.163371,"lng":137.870501,"prefecture":22,"lines":[11413],"attr":"heat","postal_code":"431-4102","address":"浜松市天竜区水窪町地頭方","next":[9950717,9950803,9950807,1141338,1141336,1141343,1141339],"voronoi":{"lat":35.182161,"lng":137.847237,"delta_lat":[0,-19699,-18295,26763,7464,62296,-15573],"delta_lng":[0,-10267,161343,8060,1094,-941,-101454]}},
    {"code":1141338,"id":"34dce1","name":"大嵐","name_kana":"おおぞれ","lat":35.190466,"lng":137.818509,"prefecture":22,"lines":[11413],"attr":"eco","postal_code":"431-4101","address":"浜松市天竜区水窪町奥領家","next":[1141327,1141329,1141325,1141335,1141341,1141336,1141332,1141333,1141342,9952406,1141340,9952404,1141337,1141339,1141334],"voronoi":{"lat":35.154293,"lng":137.831134,"delta_lat":[0,8168,19699,39426,22356,1230,21043,-14742,-31862,-14974,-51024,-2939,-3877,-5473,1534],"delta_lng":[0,5837,10267,-43793,-61941,-4828,-114761,-8582,-14795,21727,97016,7177,26126,61828,3230]}},
    {"code":1141339,"id":"9d241b","name":"小和田","name_kana":"こわだ","lat":35.209862,"lng":137.835971,"prefecture":22,"lines":[11413],"attr":"eco","postal_code":"431-4101","address":"浜松市天竜区水窪町奥領家","next":[1141340,1141338,1141343,1141337],"voronoi":{"lat":35.182161,"lng":137.847237,"delta_lat":[0,39426,4054,-524],"delta_lng":[0,-43793,99730,1898]}},
    {"code":1141340,"id":"a57cc2","name":"中井侍","name_kana":"なかいさむらい","lat":35.235913,"lng":137.834912,"prefecture":20,"lines":[11413],"attr":"eco","postal_code":"399-1201","address":"下伊那郡天龍村平岡","next":[1141339,1141341,1141343,1141338],"voronoi":{"lat":35.225641,"lng":137.903174,"delta_lat":[0,19666,-1364,-22356],"delta_lng":[0,-39769,-121902,61941]}},
    {"code":1141341,"id":"bedb0a","name":"伊那小沢","name_kana":"いなこざわ","lat":35.25406,"lng":137.834709,"prefecture":20,"lines":[11413],"attr":"eco","postal_code":"399-1201","address":"下伊那郡天龍村平岡","next":[1141340,1141342,1141338,1141343],"voronoi":{"lat":35.262564,"lng":137.845483,"delta_lat":[0,-17392,-1230,1364],"delta_lng":[0,-108808,4828,121902]}},
    {"code":1141342,"id":"42dfd3","name":"鶯巣","name_kana":"うぐす","lat":35.267286,"lng":137.832595,"prefecture":20,"lines":[11413],"attr":"eco","postal_code":"399-1201","address":"下伊那郡天龍村平岡","next":[1141341,1141347,9952404,1141338,1141344,1141343,1141345],"voronoi":{"lat":35.311054,"lng":137.763391,"delta_lat":[0,-22824,-22015,-21043,17392,28223,16967],"delta_lng":[0,-133671,-7806,114761,108808,-8564,-47358]}},
    {"code":1141343,"id":"ee52b2","name":"平岡","name_kana":"ひらおか","lat":35.273652,"lng":137.853574,"prefecture":20,"lines":[11413],"attr":"eco","postal_code":"399-1201","address":"下伊那郡天龍村平岡","next":[1141340,1141344,1141341,9950807,1141342,1141339,1141337],"voronoi":{"lat":35.317113,"lng":138.034377,"delta_lat":[0,-26326,-28223,-17258,-19666,-524,15573],"delta_lng":[0,-197458,8564,17922,39769,1898,101454]}},
    {"code":1141344,"id":"cef8f5","name":"為栗","name_kana":"してぐり","lat":35.311687,"lng":137.848503,"prefecture":20,"lines":[11413],"attr":"eco","postal_code":"399-1201","address":"下伊那郡天龍村平岡","next":[1141343,9950807,9950812,1141342,1141345],"voronoi":{"lat":35.307754,"lng":137.789561,"delta_lat":[0,-16967,26326,8202,62070],"delta_lng":[0,47358,197458,3990,22773]}},
    {"code":1141345,"id":"df3c7c","name":"温田","name_kana":"ぬくた","lat":35.336273,"lng":137.841294,"prefecture":20,"lines":[11413],"attr":"eco","postal_code":"399-1801","address":"下伊那郡泰阜村","next":[1141346,1141415,9950812,1141344,1141347,1141342],"voronoi":{"lat":35.311054,"lng":137.763391,"delta_lat":[0,18369,71681,-1358,-12361,-79631],"delta_lng":[0,26415,270293,6390,-5349,-271579]}},
    {"code":1141346,"id":"c61ac8","name":"田本","name_kana":"たもと","lat":35.348988,"lng":137.837922,"prefecture":20,"lines":[11413],"attr":"cool","postal_code":"399-1801","address":"下伊那郡泰阜村田本","next":[1141345,1141404,1141347,1141415,1141349],"voronoi":{"lat":35.394087,"lng":137.861399,"delta_lat":[0,-64664,71681,8584,1426],"delta_lng":[0,-71592,270293,-35343,-105864]}},
    {"code":1141347,"id":"a63f4e","name":"門島","name_kana":"かどしま","lat":35.375306,"lng":137.814151,"prefecture":20,"lines":[11413],"attr":"cool","postal_code":"399-1801","address":"下伊那郡泰阜村","next":[1141342,1141349,1141348,1141346,1141345,9952404],"voronoi":{"lat":35.288231,"lng":137.62972,"delta_lat":[0,22824,18369,64664,588,-31416],"delta_lng":[0,133671,26415,71592,-8595,-217918]}},
    {"code":1141348,"id":"1f8073","name":"唐笠","name_kana":"からかさ","lat":35.402338,"lng":137.810254,"prefecture":20,"lines":[11413],"attr":"cool","postal_code":"399-1801","address":"下伊那郡泰阜村","next":[1141349,9952404,1141350,1141121,1141347,1141402,1141120],"voronoi":{"lat":35.443549,"lng":137.661303,"delta_lat":[0,-6982,-13835,-28057,-31416,19666,1],"delta_lng":[0,66536,56642,68322,-217918,-144,0]}},
    {"code":1141349,"id":"1d3830","name":"金野","name_kana":"きんの","lat":35.419128,"lng":137.817149,"prefecture":20,"lines":[11413],"attr":"heat","postal_code":"399-2223","address":"飯田市千栄","next":[1141348,1141347,1141404,1141350,1141346],"voronoi":{"lat":35.426581,"lng":137.88017,"delta_lat":[0,-3849,-28057,-588,17027],"delta_lng":[0,-95688,68322,8595,57494]}},
    {"code":1141350,"id":"17a20f","name":"千代","name_kana":"ちよ","lat":35.428949,"lng":137.816754,"prefecture":20,"lines":[11413],"attr":"heat","postal_code":"399-2223","address":"飯田市千栄","next":[1141351,1141348,1141404,1141349,1141403,1141402],"voronoi":{"lat":35.432753,"lng":137.866014,"delta_lat":[0,-1403,-4768,-3849,13835,1349],"delta_lng":[0,4471,9685,-95688,-56642,27194]}},
    {"code":1141351,"id":"efccc1","name":"天竜峡","name_kana":"てんりゅうきょう","lat":35.441114,"lng":137.81732,"prefecture":20,"lines":[11413,11414],"attr":"heat","postal_code":"399-2431","address":"飯田市川路","next":[1141403,1141350,1141402],"voronoi":{"lat":35.432753,"lng":137.866014,"delta_lat":[0,5164,11156],"delta_lng":[0,-110980,75173]}}
  ],
  "north":35.44138,
  "south":34.76105,
  "east":137.87209,
  "west":137.3611,
  "polyline_list":[
    {
      "start":"下地",
      "end":"小坂井",
      "lat":34.78704,
      "lng":137.36673,
      "delta_lat":[0,108,82,74,41,48,76,3,91,59,32,39,25,25,17,12,17,18,36,34,29,27,35,30],
      "delta_lng":[0,-74,-61,-54,-30,-35,-57,-3,-63,-42,-14,-20,-11,-9,-5,-3,-4,-4,-4,0,4,8,10,14]
    },
    {
      "start":"下地",
      "end":"小坂井",
      "lat":34.78704,
      "lng":137.36673,
      "delta_lat":[0,44,49,20,17,20,69,56,11,30,56,10,18,61,32,41,27,47,32,17,19,17,38,53,40,44,37,22,31],
      "delta_lng":[0,-41,-44,-19,-16,-20,-67,-55,-10,-31,-61,-12,-18,-64,-33,-32,-15,-14,-6,-1,-1,-2,4,8,11,17,22,16,27]
    },
    {
      "start":"豊橋",
      "end":"下地",
      "lat":34.76105,
      "lng":137.38333,
      "delta_lat":[0,62,184,4,50,44,20,85,7,119,101,97,26,62,186,119,125,101,18,118,100,94,58,47,91,12,6,15,5,30,22,18,58,18,28,56,8,15,39,42,24,14,82,119,49,12,9],
      "delta_lng":[0,-39,-119,-3,-32,-6,-12,-54,-3,-77,-66,-62,-17,-40,-121,-79,-81,-65,-13,-75,-68,-62,-39,-30,-60,-8,-2,-10,-4,-18,-14,-12,-37,-12,-18,-35,-6,-8,-26,-28,-14,-9,-52,-76,-31,-9,-9]
    },
    {
      "start":"小坂井",
      "end":"天竜峡",
      "lat":34.79662,
      "lng":137.36216,
      "delta_lat":[0,50,10,41,31,20,47,56,27,34,26,54,41,33,41,33,46,25,23,22,24,25,14,25,31,0,20,118,36,19,30,30,36,38,18,22,3,15,63,49,20,36,23,32,104,117,57,104,76,24,45,23,26,26,122,34,15,11,28,37,33,47,46,20,33,29,25,74,4,36,18,43,13,87,76,102,76,51,4,27,36,41,41,77,93,57,91,117,154,88,69,57,152,265,99,74,126,96,45,6,34,51,123,25,40,30,58,71,133,264,101,73,52,4,47,42,102,82,49,50,49,74,38,38,47,43,170,11,22,21,38,33,135,32,14,9,9,7,6,0,3,7,7,8,18,7,11,21,17,16,20,58,54,49,31,52,69,43,20,36,49,60,12,87,83,7,4,20,4,3,7,0,8,11,17,10,16,10,11,11,13,20,60,37,20,60,9,20,12,9,9,3,1,1,4,5,3,6,10,11,17,26,31,23,149,68,88,28,85,62,72,52,20,20,18,31,51,3,87,11,63,45,73,25,36,101,279,81,38,24,19,56,56,61,111,7,94,15,175,97,20,11,55,32,41,6,25,38,31,186,44,45,31,14,33,8,42,47,27,23,6,7,10,1,0,4,3,-3,-4,-1,-2,0,8,2,11,16,20,13,18,27,58,32,59,64,38,98,90,69,27,56,7,60,83,96,89,35,96,46,28,29,2,46,36,23,16,22,17,12,33,34,65,42,16,12,9,40,20,27,34,6,9,2,0,-5,-3,-9,-12,-12,-21,-19,-24,-11,-27,-20,-21,-19,-17,-11,-17,-21,-12,-41,-36,-45,-27,-22,-14,-16,-14,-30,-24,-25,-36,-24,-5,-14,-31,-36,-27,-22,-22,-18,-31,-34,-24,-7,-52,-6,-39,-15,-5,-13,-5,-7,-9,-9,-6,-2,-4,-3,-2,0,0,0,4,3,4,7,9,10,8,6,9,13,11,10,28,66,36,38,18,84,120,18,15,20,36,13,9,7,32,1,48,8,39,29,28,16,10,15,26,28,47,46,32,27,38,18,13,13,18,15,6,25,42,23,17,13,7,7,6,9,10,2,12,8,3,3,1,8,19,29,40,7,9,4,1,1,-1,-3,-3,-9,-13,-2,0,4,12,16,10,12,18,20,15,38,29,48,29,63,58,43,33,42,27,24,9,10,14,20,11,22,34,22,26,21,25,11,9,11,15,23,20,18,17,34,46,44,18,31,54,9,18,20,27,17,28,29,26,23,36,56,45,58,53,45,57,49,46,39,92,35,130,17,14,16,12,14,12,4,13,12,15,17,21,16,23,17,30,36,23,17,18,23,19,23,25,33,67,39,24,20,23,18,22,24,18,16,9,11,36,13,9,24,45,59,55,38,27,21,55,44,38,21,24,22,18,12,16,29,115,35,16,20,23,24,5,27,52,18,94,48,28,22,38,18,25,24,26,30,25,17,32,32,33,98,60,124,33,25,49,24,48,27,24,18,16,41,2,31,38,76,80,77,38,49,32,65,46,27,30,19,16,15,16,10,4,4,0,0,0,-2,-3,-2,-6,-3,1,8,14,23,8,21,26,7,6,9,10,5,6,3,15,7,1,1,0,-5,-4,-7,-6,-3,-4,-18,-10,-22,-22,-6,-5,-5,-6,-3,-2,-2,-2,-4,-1,2,2,3,6,1,7,3,3,2,4,0,0,-2,-1,-3,-11,-5,-6,-2,0,-1,1,2,2,15,25,11,48,38,10,12,20,6,20,29,19,20,7,20,15,21,20,26,12,20,22,25,11,5,24,22,19,26,23,17,17,19,25,6,39,32,22,16,10,7,5,4,7,11,7,7,2,8,6,4,4,7,3,9,8,3,6,9,34,30,18,9,7,5,4,5,14,4,11,9,9,7,13,18,2,25,17,14,18,18,16,20,93,12,94,16,18,25,24,4,18,14,8,9,3,0,-1,-10,-3,-8,0,-8,-2,0,1,2,10,6,17,19,15,9,9,8,9,18,12,9,18,15,14,11,11,5,13,9,22,16,31,32,23,24,27,24,16,20,27,25,2,27,5,44,35,3,11,10,33,7,31,24,20,18,10,3,15,15,13,11,21,14,23,30,5,11,4,14,10,3,18,9,6,3,-2,-8,-8,-5,0,1,4,6,22,19,22,27,30,69,21,26,20,13,23,10,12,23,11,10,45,11,7,28,6,6,40,25,82,38,33,18,95,70,23,24,38,14,2,11,32,22,25,39,37,38,49,38,21,17,12,22,38,29,9,6,7,5,13,14,11,27,18,35,31,12,11,63,15,43,36,18,20,3,35,20,11,9,6,0,-2,-10,-7,-18,-13,-2,-23,-10,-9,-10,-4,-3,2,5,7,7,3,7,11,1,8,18,29,32,20,2,31,17,2,13,11,7,5,15,12,17,49,31,21,13,10,3,3,9,22,20,23,27,37,32,5,13,38,45,37,30,45,29,42,32,33,29,3,22,20,18,17,5,5,13,18,7,14,4,24,5,33,8,22,44,40,29,15,29,6,31,13,29,30,64,21,34,22,20,30,19,14,14,31,13,12,3,0,-3,-1,-8,-14,-11,-5,0,3,4,2,7,6,16,5,23,35,45,18,22,36,20,25,28,26,17,15,17,15,12,9,6,4,5,5,11,9,9,13,15,74,84,13,2,22,40,10,58,17,3,27,32,6,14,18,8,7,9,3,6,11,24,18,21,9,10,12,4,10,9,17,14,5,42,9,34,15,14,21,12,16,14,20,24,23,20,29,51,49,33,12,41,19,77,56,67,84,93,44,87,19,31,22,13,7,27,52,15,7,6,10,7,11,11,22,21,2,26,3,31,18,23,12,28,6,16,89,26,11,2,8,5,32,29,22,31,12,27,13,40,42,32,36,27,16,13,13,20,65,72,40,30,20,31,49,27,9,20,24,56,21,67,46,9,39,25,13,25,2,20,43,35,13,44,55,39,71,36,28,12,11,7,9,11,7,7,6,3,12,3,4,7,12,12,33,13,11,6,9,12,18,18,11,40,32,58,22,33,17,15,35,7,4,43,94,23,16,18,15,1,2,26,18,20,16,9,11,21,21,19,31,34,24,39,31,59,12,31,41,40,32,11,29,13,21,4,44,54,59,71,47,20,23,66,23,32,19,110,67,78,41,12,6,9,9,15,11,19,31,7,19,33,28,22,34,63,11,11,25,71,52,4,25,13,9,19,17,8,17,27,7,17,34,44,59,97,31,116,90,80,36,16,14,26,8,16,43,39,80,9,76,56,29,18,25,20,26,22,26,17,14,25,33,29,18,62,19,13,31,34,22,32,22,42,37,49,39,27,33,31,56,42,29,25,29,16,19,41,80,16,15,18,12,20,60,50,38,35,30,17,41,34,8,22,17,29,46,27,37,47,31,22,40,21,18,13,16,20,26,35,32,25,31,59,35,30,35,26,31,29,42,12,6,13,5,27,15,20,8,29,35,10,67,15,12,13,22,24,18,38,32,38,24,36,16,42,20,101,5,92,72,22,14,22,55,55,65,80,103,42,49,41,32,32,27,54,17,28,30,15,13,8,15,24,23,14,41,12,26,8,10,12,31,40,30,13,24,16,29,3,14,8,7,6,5,13,10,4,22,12,11,4,6,10,6,7,6,3,6,1,11,0,40,21,33,29,33,24,13,11,47,9,29,5,10,17,28,16,13,18,12,29,11,17,14,31,29,16,22,10,10,32,27,38,45,15,26,28,27,27,5,12,29,28,17,29,15,14,13,26,34,76,28,72,30,19,3,18,13,7,56,27,16,10,16,5,9,9,18,11,20,20,23,3,10,71,10,33,20,42,32,23,13,25,33,33,15,21,45,47,45,31,23,16,13,17,12,15,26,24,37,36,26,11,34,11,22,22,35,8,5,6,15,17,10,14,16,13,5,6,12,6,27,9,11,23,10,10,19,12,11,23,6,5,5,12,23,29,32,24,32,22,16,15,15,16,5,22,13,6,9,6,9,7,31,27,16,7,31,30,75,13,7,13,15,10,8,10,9,4,12,12,12,21,15,7,11,8,7,3,7,8,9,12,9,19,3,26,12,9,14,19,14,4,7,5,15,12,15,9,18,27,47,53,41,45,39,30,27,17,32,7,4,1,11,13,9,11,29,7,5,4,5,4,14,3,3,2,12,27,39,32,8,16,27,5,2,13,2,1,5,15,23,15,17,5,12,18,12,12,17,27,30,40,23,30,10,41,38,9,14,10,5,39,32,25,1,25,41,44,34,9,13,20,27,34,9,12,6,11,20,33,39,23,21,41,56,29,9,0,9,7,7,24,8,19,37,9,18,15,44,35,28,37,43,42,20,5,10,8,14,17,17,13,10,12,16,27,10,16,19,12,3,40,7,2,5,6,5,2,18,38,20,5,16,20,6,7,9,17,15,12,12,9,188,18,18,28,30,17,65,10,7,21,10,11,18,40,86,11,22,8,66,52,42,52,50,35,24,58,35,48,33,17,67,11,7,1,9,18,7,6,9,3,4,4,5,49,43,18,45,20,36,9,7,12,8,5,24,38,17,32,17,6,118,56,7,14,46,1,49,40,29,37,27,32,12,27,35,50,52,6,62,74,5,15,18,47,27,20,26,24,29,17,22,18,18,38,22,21,16,37,12,54,2,18,58,13,20,7,5,17,10,13,20,23,13,29,21,12,12,12,6,4,7,4,3,6,5,8,5,5,6,0,3,4,7,4,5,5,8,0,5,0,0,0,3,2,6,7,7,26,2,3,18,13,21,46,3,6,34,34,63,35,4,14,16,13,8,15,12,12,15,2,9,19,35,43,20,19,15,7,17,19,31,19,3,13,16,34,4,9,39,10,9,7,41,33,12,21,11,37,20,10,33,35,45,56,31,30,24,35,19,29,5,6,18,65,6,27,58,45,34,11,9,9,18,5,11,9,22,32,2,2,10,5,5,6,10,10,16,14,24,23,17,12,27,20,16,8,20,21,13,43,20,12,12,12,15,18,9,7,6,12,5,21,18,9,12,5,3,6,3,3,18,15,5,5,2,9,7,24,21,24,15,17,8,4,10,9,9,11,16,12,11,5,11,14,20,22,23,49,40,47,32,25,42,34,37,68,19,8,31,38,50,38,15,31,47,28,15,9,13,16,18,15,18,28,33,18,27,42,15,17,33,13,14,29,31,16,11,4,10,15,5,17,36,14,40,40,23,24,8,26,10,15,17,10,17,19,16,3,10,16,15,16,2,5,1,2,10,2,14,11,1,12,2,12,8,5,11,15,19,7,6,9,14,24,23,33,36,33,12,13,5,11,15,16,15,14,18,41,40,8,14,6,18,11,19,22,7,20,9,27,29,50,42,20,9,32,12,20,9,10,28,21,8,25,27,23,24,21,19,23,21,22,16,10,14,9,14,11,13,18,20,22,16,18,29,27,18,24,23,26,28,2,18,20,19,21,35,5,7,9,21,12,21,33,16,9,15,21,29,18,11,2,13,20,19,17,9,5,9,21,6,11,7,8,53,37,71,71,11,67,7,33,16,20,16,9,10,12,11,7,31,34,27,29,40,29,7,16,41,16,19,60,29,9,15,20,14,13,12,18,20,16,24,4,20,3,14,33,18,18,9,17,30,27,2,14,3,30,20,16,17,14,16,27,13,12,15,9,11,11,12,19,10,6,5,4,4,9,9,5,7,6,3,5,5,9,5,12,16,8,16,15,14,9,12,15,13,19,17,16,15,5,9,28,19,9,19,17,31,38,12,33,60,10,19,40,25,14,19,61,34,33,32,65,22,16,28,20,17,13,22,14,25,11,8,21,14,14,5,29,12,16,21,21,24,25,22,22,24,24,9,29,9,17,12,15,12,25,12,19,23,33,11,18,27,43,29,18,6,12,23,27,21,20,14,11,22,15,16,22,27,25,16,9,11,24,14,36,23,32,24,15,32,28,30,21,33,15,24,16,14,20,38,14,17,12,12,10,10,9,5,4,8,13,8,9,12,6,15,10,7,9,20,53,18,12,40,24,32,12,18,15,24,16,16,20,22,30,13,12,19,19,24,20,26,43,25,20,47,32,29,19,21,18,20,20,21,17,16,25,20,17,30,29,24,23,18,5,32,12,15,21,19,28,18,13,12,11,10,39,22,20,22,39,36,13,13,25,18,20,18,14,15,15,10,19,10,9,9,7,6,5,4,5,4,9,4,2,9,3,5,8,10,15,14,11,9,19,14,18,20,25,27,17,18,20,23,27,43,57,36,63,31,25,26,18,24,23,28,20,23,11,13,22,20,22,16,16,18,15,16,11,19,17,20,7,10,11,17,10,33,47,9,41,29,13,22,12,17,11,13,12,8,8,6,10,6,17,14,12,4,7,29,11,15,7,25,18,15,11,14,23,18,15,9,14,25,17,11,20,19,13,24,11,5,29,21,21,17,7,23,15,13,11,11,21,19,21,11,11,24,31,19,24,21,13,9,31,7,18,11,22,14,19,19,0,20,20,23,20,29,22,27,24,25,25,20,13,8,11,18,27,10,22,10,2,5,11,17,3,18,27,58,31,3,11,26,33,46,57,17,116,32,35,43,11,43,49,45,33,31,32,18,13,34,31,20,22,27,40,46,64,63,42,58,15,80,62,34,40,63,112,114,304,54,34,54,56],
      "delta_lng":[0,45,9,42,32,21,50,52,27,33,27,55,37,35,45,44,66,42,50,49,58,68,40,58,80,5,49,305,98,39,50,55,62,70,31,39,4,30,109,79,32,52,32,41,104,120,61,104,77,27,66,32,39,38,190,45,16,11,19,27,18,25,24,11,24,22,25,77,4,41,21,48,16,99,85,119,84,62,1,27,29,32,26,43,46,30,43,53,71,42,32,36,88,157,60,43,74,57,26,3,25,34,92,20,29,23,42,55,103,212,85,66,48,4,42,37,95,81,53,60,57,92,50,48,63,62,252,18,39,39,72,67,264,69,35,30,36,36,108,81,44,42,29,29,54,21,26,42,34,25,26,43,39,38,23,40,52,59,32,67,102,135,27,194,188,19,17,139,32,30,41,4,63,75,91,47,72,31,25,23,17,15,47,31,19,64,13,35,29,37,52,41,116,77,85,29,19,18,29,25,38,45,41,26,135,63,79,23,54,42,49,39,19,20,19,45,78,4,132,17,90,54,86,25,38,105,292,80,46,31,27,85,90,101,184,15,157,23,299,169,39,28,126,93,108,21,61,105,79,503,118,117,87,38,102,22,129,150,89,76,36,30,71,38,38,87,113,72,58,62,57,59,99,21,41,41,49,27,22,28,38,19,39,42,26,63,63,51,21,53,7,64,80,97,84,36,90,44,30,37,3,62,50,31,20,23,19,10,29,32,57,38,19,17,15,78,42,59,77,25,72,31,43,111,33,35,34,22,28,24,20,10,14,6,3,1,-1,-3,-8,-13,-8,-30,-28,-32,-18,-11,-9,-10,-9,-14,-7,-6,-5,-2,1,0,4,5,9,9,9,9,21,24,31,12,81,9,65,23,10,23,11,16,23,27,19,15,21,26,12,22,28,25,23,23,16,29,27,25,21,16,13,20,14,15,26,66,32,35,18,75,105,16,14,30,51,20,22,28,90,4,129,17,89,65,49,22,10,13,19,19,30,28,22,21,28,18,15,19,33,27,10,44,83,45,32,28,19,27,28,64,103,18,57,44,15,11,4,29,69,87,116,28,29,29,28,41,45,21,23,45,63,21,15,30,75,50,26,21,25,20,13,36,24,32,18,33,29,20,17,21,19,18,8,12,24,40,22,47,66,50,46,38,29,13,7,18,24,53,38,33,22,42,62,56,25,42,70,15,24,23,33,13,22,18,14,14,22,34,26,34,29,27,29,27,18,17,33,12,47,7,9,20,15,24,25,9,29,35,39,46,48,27,32,17,25,24,12,10,7,8,2,-3,-3,-9,-18,-6,-3,3,2,6,9,13,12,17,9,13,37,13,8,24,37,45,42,27,20,21,54,45,35,16,11,6,1,-1,-2,-7,-37,-10,-1,3,3,9,1,12,22,7,47,23,14,11,12,3,5,4,0,0,0,-2,-9,-8,-9,-30,-22,-46,-13,-9,-21,-10,-18,-1,1,3,3,15,0,11,13,30,32,30,16,18,17,37,31,22,27,22,26,31,40,31,26,36,24,32,32,43,68,46,156,30,15,32,32,46,13,34,53,21,15,28,42,24,36,13,85,53,8,7,15,56,31,54,67,14,20,46,35,62,65,25,19,19,24,18,12,25,11,59,20,23,18,14,23,4,29,14,19,16,69,23,14,20,10,18,43,20,27,34,25,65,24,7,7,42,58,27,112,89,21,30,41,15,44,67,39,31,14,30,20,27,25,25,11,18,16,16,6,4,13,18,15,21,17,14,16,22,30,8,51,39,30,23,18,13,14,10,25,34,27,41,22,43,31,25,20,34,13,45,39,13,14,20,54,54,36,18,18,17,13,22,91,45,56,36,28,20,30,33,2,41,23,15,18,12,9,14,64,7,62,11,18,37,36,5,32,31,21,28,17,25,29,70,19,50,3,71,21,22,7,15,28,20,58,59,51,30,41,61,68,106,55,32,39,31,26,14,13,5,15,9,22,15,26,18,9,7,6,3,0,-2,-6,-8,0,-9,0,-27,-17,-2,-3,-4,-9,-1,-3,0,2,2,3,1,7,6,8,10,25,16,23,35,6,16,7,24,19,7,45,31,24,30,46,79,59,42,37,28,25,16,50,45,33,30,26,57,18,24,24,17,33,15,24,42,24,23,103,26,16,78,18,13,116,63,196,89,79,46,185,139,46,44,75,24,3,18,51,35,27,40,40,37,53,48,24,27,24,55,91,84,32,26,49,76,134,91,25,43,26,49,43,18,12,76,19,56,49,24,25,4,48,32,21,24,34,26,27,39,19,36,22,5,40,23,22,38,41,52,32,47,46,57,16,31,49,5,25,36,52,57,25,4,40,24,2,19,18,10,8,27,20,29,86,61,53,43,27,10,6,14,32,21,18,13,11,9,1,-6,2,4,3,7,8,6,14,12,15,22,2,19,20,24,27,12,13,40,65,36,52,21,42,13,53,13,21,39,39,18,9,15,1,6,2,6,2,7,5,10,13,13,31,27,24,30,70,43,53,37,49,33,22,44,73,67,42,34,33,36,13,33,20,43,12,59,71,84,36,41,62,24,26,25,27,24,27,32,34,38,38,41,22,23,31,40,24,22,26,25,107,118,19,3,31,60,16,79,24,7,47,62,15,27,38,21,22,44,6,31,52,105,88,97,51,47,52,23,44,26,37,26,6,58,11,43,22,29,54,28,26,17,21,26,19,17,19,40,42,29,11,43,26,107,81,95,121,141,66,125,28,44,30,21,12,37,74,25,14,14,30,15,32,30,58,53,4,62,9,75,46,59,29,70,11,37,204,57,23,8,16,9,48,40,25,29,11,17,4,9,11,7,12,6,5,3,1,3,3,-4,-3,0,-1,-3,0,0,0,2,3,12,4,17,14,3,15,9,5,13,1,12,28,25,11,40,53,38,66,40,27,20,19,18,18,40,38,37,26,20,85,20,13,21,26,25,57,19,13,7,8,10,11,9,4,7,6,10,8,10,8,6,17,5,4,53,109,27,21,36,33,1,5,63,46,58,43,22,34,56,50,49,89,90,66,97,82,154,33,78,107,102,81,26,75,41,47,11,115,142,155,187,120,53,59,172,59,85,47,289,179,205,110,31,14,16,15,21,16,23,30,6,14,19,12,5,8,10,2,2,7,20,15,2,7,5,3,8,7,3,7,10,2,7,13,15,21,38,10,44,33,30,14,6,4,11,2,5,18,18,32,3,31,20,11,8,13,11,19,19,26,18,16,28,39,34,20,49,10,4,9,8,2,0,-1,-1,-2,-6,-3,-6,-6,-11,-16,-11,0,0,6,5,6,22,46,9,4,4,1,1,-3,0,1,3,2,1,7,0,-1,-1,-3,-6,-10,-4,-1,0,3,6,15,11,11,11,13,20,32,44,41,32,41,76,41,38,40,31,36,31,36,8,1,5,2,5,4,4,1,5,8,1,13,0,0,0,0,-3,-1,-2,0,3,3,9,4,9,6,25,1,20,12,3,2,1,-2,0,2,12,26,8,11,12,11,16,13,34,9,7,5,0,0,0,0,-3,-6,-3,-14,-5,-15,-3,-4,-1,1,3,3,1,-1,-1,-6,0,-3,-3,-4,-2,-3,-9,-9,-5,-20,-14,-16,-5,-8,-17,-12,-16,-15,-11,-25,-9,-37,-3,-139,-70,-117,-101,-123,-90,-46,-43,-166,-41,-98,-14,-35,-64,-98,-62,-44,-64,-41,-107,-40,-58,-51,-112,-99,-60,-77,-37,-38,-119,-102,-146,-171,-47,-100,-105,-109,-99,-17,-42,-104,-103,-53,-108,-55,-52,-52,-97,-119,-263,-98,-260,-102,-60,-10,-43,-28,-14,-92,-43,-26,-12,-19,-6,-7,-7,-11,-6,-6,-4,-4,0,0,0,0,-1,1,4,5,2,3,10,16,20,12,19,46,49,42,25,20,10,6,8,6,6,7,8,10,8,7,2,13,5,13,16,25,9,7,8,25,28,19,28,35,31,12,16,32,22,76,28,30,59,27,28,49,35,25,50,15,11,9,20,39,45,48,32,39,23,15,10,11,7,2,2,1,0,1,-1,-1,-1,-10,-11,-5,-4,-11,-13,-34,-5,0,0,6,6,5,9,10,5,26,30,27,49,37,23,32,31,21,8,22,23,24,34,25,54,11,69,33,30,34,54,40,8,9,3,12,8,10,5,7,7,11,11,9,6,5,2,-1,-3,-3,-1,-1,0,-4,-4,-5,-9,-27,-9,-4,-5,-6,-7,-17,-6,-4,-5,-30,-68,-95,-80,-22,-48,-100,-25,-9,-57,-9,-11,-14,-44,-60,-44,-38,-9,-17,-20,-11,-8,-7,-12,-13,-18,-12,-16,-5,-23,-23,-5,-10,-8,-5,-30,-28,-20,-2,-19,-38,-42,-35,-10,-10,-18,-25,-31,-6,-8,-2,-4,-4,-6,-5,0,2,8,11,8,3,1,4,5,5,21,6,18,35,10,24,21,69,53,40,50,50,49,24,6,16,14,26,30,28,18,10,14,12,26,11,25,35,21,6,79,14,4,9,13,9,3,30,50,23,6,13,17,4,3,2,1,1,-1,-1,-1,-72,-7,-9,-8,-10,-5,-21,-5,-4,-2,-1,0,1,7,17,3,6,2,20,13,11,13,17,10,8,18,9,14,10,6,21,3,2,1,1,1,0,1,-2,-1,-1,-3,-4,-35,-35,-18,-41,-19,-33,-13,-15,-18,-10,-9,-39,-64,-26,-46,-23,-7,-79,-38,-3,-6,-23,-1,-21,-18,-9,-11,-6,-5,-2,0,1,2,3,0,5,5,0,2,0,2,0,0,0,0,1,1,3,5,6,14,10,10,11,23,10,49,3,22,86,18,31,11,10,23,21,33,58,76,51,107,91,61,58,56,30,15,37,26,29,33,42,63,48,72,56,4,37,52,68,48,51,52,73,9,53,1,9,9,17,10,26,23,20,56,6,5,33,19,26,59,4,6,39,40,71,41,4,15,14,9,5,7,5,3,4,0,1,2,3,2,-2,-2,-2,-2,-5,-7,-14,-12,-1,-9,-10,-26,-2,-7,-27,-8,-3,-3,-8,-6,-1,1,4,10,4,1,3,2,2,2,0,0,0,-2,-3,-7,-1,-1,-5,-19,-2,-8,-16,-16,-9,-3,-4,-8,-20,-5,-14,-14,-40,-58,-4,-2,-18,-8,-8,-4,-6,-5,-5,-4,-4,-2,-1,0,0,2,2,0,5,4,1,8,3,1,-1,-3,-5,-9,-6,-6,-3,-9,-4,-22,-25,-15,-35,-10,-12,-23,-12,-10,-63,-40,-13,-10,-8,-14,-13,-48,-33,-41,-23,-26,-12,-5,-12,-9,-6,-9,-9,-4,-5,0,-1,-1,2,3,6,14,13,15,10,7,13,13,13,24,6,4,11,13,14,10,5,9,13,8,4,2,2,1,4,1,2,4,4,6,9,21,8,10,14,4,5,6,6,2,1,0,0,0,-1,-1,-3,-1,-4,-3,-2,-2,-1,-8,-4,-7,-9,-10,-19,-27,-25,-6,-22,-43,-43,-49,-9,-15,-3,-7,-44,-8,-55,-43,-6,-53,-8,-59,-31,-20,-29,-33,-50,-17,-11,-15,-27,-41,-30,-45,-45,-37,-14,-15,-5,-9,-12,-12,-11,-7,-12,-20,-21,-4,-3,-1,-5,0,-3,1,0,6,3,10,10,18,14,4,3,4,1,0,0,-1,-3,-5,-1,-8,-12,-14,-15,-15,-17,-22,-25,-28,-20,-10,-15,-8,-9,-7,-6,-8,-3,-1,1,2,6,6,6,9,9,14,17,2,16,20,19,27,47,7,7,7,14,5,7,13,7,4,9,17,22,15,7,1,7,11,9,7,1,1,1,4,2,3,5,6,37,28,54,53,9,55,6,32,14,18,14,11,11,13,13,9,40,41,30,29,43,23,5,7,18,9,7,23,14,3,7,5,4,1,1,-2,-4,-5,-11,-1,-8,-2,-8,-18,-10,-11,-4,-10,-17,-16,-2,-9,-2,-19,-13,-12,-13,-14,-22,-29,-21,-17,-25,-17,-23,-22,-31,-62,-37,-27,-14,-16,-17,-31,-32,-22,-25,-21,-19,-12,-10,-17,-13,-30,-25,-16,-19,-17,-22,-11,-16,-20,-16,-27,-21,-18,-15,-5,-8,-24,-16,-5,-6,-4,-7,-6,-1,-7,-10,-1,-3,-7,-6,-2,-4,-12,-8,-4,-6,-10,-5,-3,-13,-9,-9,-8,-16,-14,-25,-13,-11,-29,-18,-17,-7,-32,-15,-14,-10,-13,-13,-13,-9,-8,-6,-9,-3,-15,-7,-15,-15,-20,-17,-43,-20,-25,-22,-22,-9,-10,-11,-20,-17,-11,-5,-11,-28,-39,-32,-28,-21,-17,-29,-20,-23,-28,-37,-36,-24,-12,-16,-19,-12,-25,-15,-18,-18,-10,-18,-19,-22,-16,-28,-12,-24,-21,-20,-34,-71,-24,-35,-23,-23,-21,-23,-25,-15,-12,-25,-44,-22,-26,-40,-15,-39,-23,-14,-17,-27,-72,-20,-16,-42,-25,-30,-9,-14,-14,-15,-9,-5,-6,-4,-6,-1,0,-1,2,1,3,3,5,3,2,7,3,3,2,3,1,1,3,4,5,4,10,9,12,21,25,17,19,9,4,21,7,8,6,3,8,4,1,1,2,1,7,3,5,8,17,12,4,2,-5,-4,-6,-9,-10,-16,-15,-13,-21,-15,-19,-22,-16,-29,-26,-19,-23,-31,-35,-18,-7,-32,-9,-15,-17,-14,-16,-10,-7,-8,-10,-5,-4,-3,-1,4,2,6,7,8,5,14,18,12,19,5,2,1,-5,-11,-10,-18,-19,-23,-11,-14,-17,-14,-12,-7,-3,-1,0,1,1,5,6,9,5,7,11,16,12,36,60,11,53,32,18,26,18,22,13,23,23,11,18,14,26,10,19,17,14,5,9,31,14,15,3,16,11,13,13,17,31,27,24,11,16,30,15,13,21,11,9,17,7,2,15,10,8,7,3,9,5,2,0,-1,0,-1,-3,-1,-1,-4,-4,-3,-1,1,0,-1,-5,-1,-7,-5,-10,-7,-11,-12,0,-17,-13,-15,-13,-20,-16,-17,-14,-12,-8,-6,-1,0,1,2,5,1,7,2,1,3,5,9,2,10,19,41,17,0,7,7,-1,-12,-18,-3,3,-3,-12,-30,-7,-32,-33,-20,-2,8,14,9,12,26,16,8,3,2,-7,-7,-10,-2,3,35,11,53,45,13,3,-9,-18,-7,-21,-6,-8,-19,-24]
    }
  ]
}