{
  "code":11421,
  "id":"447d7f",
  "name":"JR越美北線(九頭竜線)",
  "name_kana":"じぇいあーるえつみほくせん(くずりゅうせん)",
  "name_formal":"JR越美北線",
  "station_size":23,
  "company_code":4,
  "station_list":[
    {"code":1141523,"id":"7960cf","name":"福井(福井)","original_name":"福井","name_kana":"ふくい","lat":36.062057,"lng":136.223516,"prefecture":18,"lines":[11415,11421,99419,99420],"attr":"cool","postal_code":"910-0006","address":"福井市中央１丁目","next":[9942116,1142103,9942117,9942122,9942120,9941902],"voronoi":{"lat":36.06681,"lng":136.22228,"delta_lat":[0,-373,-11908,-894,-6441,888],"delta_lng":[0,-497,766,888,12497,1872]}},
    {"code":1141522,"id":"5632c4","name":"越前花堂","name_kana":"えちぜんはなんどう","lat":36.038771,"lng":136.218073,"prefecture":18,"lines":[11415,11421],"attr":"cool","postal_code":"918-8014","address":"福井市花堂中１丁目１番","next":[1142103,9942114,9942116,9942115],"voronoi":{"lat":36.037225,"lng":136.214768,"delta_lat":[0,-9328,18437,-2265],"delta_lng":[0,11320,9078,-15484]}},
    {"code":1142103,"id":"ad4f2e","name":"六条","name_kana":"ろくじょう","lat":36.028175,"lng":136.239594,"prefecture":18,"lines":[11421],"attr":"cool","postal_code":"918-8136","address":"福井市天王町","next":[1141521,9942116,1142104,1141522,1141523,9941902,9942114,9941903,9942113,9941905,9941904],"voronoi":{"lat":36.051499,"lng":136.247953,"delta_lat":[0,-115,-3302,-888,-860,-18437,-506,-5257,-15070,43851,165],"delta_lng":[0,-777,-9370,-1872,-768,-9078,-108,-42,11514,23012,-732]}},
    {"code":1142104,"id":"04b8d7","name":"足羽","name_kana":"あすわ","lat":36.020821,"lng":136.253607,"prefecture":18,"lines":[11421],"attr":"cool","postal_code":"910-2177","address":"福井市稲津町","next":[1142103,1141521,9941906,1141520,1142105,9941905],"voronoi":{"lat":36.050355,"lng":136.26766,"delta_lat":[0,-87781,10186,34303,43851,84],"delta_lng":[0,-11596,-9109,-9503,23012,2176]}},
    {"code":1142105,"id":"9eedf6","name":"越前東郷","name_kana":"えちぜんとうごう","lat":36.018185,"lng":136.273561,"prefecture":18,"lines":[11421],"attr":"heat","postal_code":"910-2165","address":"福井市東郷二ケ町","next":[1142107,9941907,9941906,1142106,1141520,1142104,9941909],"voronoi":{"lat":36.050112,"lng":136.291941,"delta_lat":[0,-111384,23847,87781,2620,394,-597],"delta_lng":[0,-21054,-14824,11596,13979,7233,2682]}},
    {"code":1142106,"id":"032dfe","name":"一乗谷","name_kana":"いちじょうだに","lat":36.013679,"lng":136.2974,"prefecture":18,"lines":[11421],"attr":"heat","postal_code":"910-2151","address":"福井市安波賀中島町","next":[1141519,1142108,1141516,1142110,1142105,1142107,1141520],"voronoi":{"lat":35.892057,"lng":136.29914,"delta_lat":[0,-3366,79912,34403,47106,-111384,-8952],"delta_lng":[0,5880,17843,-6383,-24539,-21054,3816]}},
    {"code":1142107,"id":"ea1232","name":"越前高田","name_kana":"えちぜんたかだ","lat":36.024759,"lng":136.318669,"prefecture":18,"lines":[11421],"attr":"heat","postal_code":"910-2226","address":"福井市高田町","next":[1142105,9941913,1142108,9941914,9941910,9941909,1142106],"voronoi":{"lat":36.054062,"lng":136.337892,"delta_lat":[0,2550,4196,-3257,-4779,-2661,-47106],"delta_lng":[0,-6268,-15645,-13298,-11127,388,24539]}},
    {"code":1142108,"id":"a3c672","name":"市波","name_kana":"いちなみ","lat":36.019813,"lng":136.330463,"prefecture":18,"lines":[11421],"attr":"heat","postal_code":"910-2222","address":"福井市市波町","next":[1142110,1142106,1142107,9941914,1142109],"voronoi":{"lat":36.054062,"lng":136.337892,"delta_lat":[0,-51057,-34403,24086,59934],"delta_lng":[0,-21411,6383,14782,7246]}},
    {"code":1142109,"id":"3d8812","name":"小和清水","name_kana":"こわしょうず","lat":36.01732,"lng":136.351085,"prefecture":18,"lines":[11421],"attr":"heat","postal_code":"910-2212","address":"福井市小和清水町","next":[1142110,9941917,9941914,9941916,9941915,1142108,1142111],"voronoi":{"lat":36.045348,"lng":136.376069,"delta_lat":[0,6116,1579,-421,-59934,23858,26666],"delta_lng":[0,-15565,-11000,-4612,-7246,31964,9653]}},
    {"code":1142110,"id":"e59aaa","name":"美山","name_kana":"みやま","lat":35.998567,"lng":136.365082,"prefecture":18,"lines":[11421],"attr":"heat","postal_code":"910-2347","address":"福井市境寺町","next":[1142109,1142111,1142108,1142106,1142112,1141516,1141514],"voronoi":{"lat":35.819952,"lng":136.371726,"delta_lat":[0,68738,79912,24086,23858,-54562,-158368],"delta_lng":[0,-66705,17843,14782,31964,19031,5314]}},
    {"code":1142111,"id":"ac6de3","name":"越前薬師","name_kana":"えちぜんやくし","lat":36.005283,"lng":136.384336,"prefecture":18,"lines":[11421],"attr":"cool","postal_code":"910-2339","address":"福井市薬師町","next":[1142110,1142112,9941918,9941917,1142109],"voronoi":{"lat":36.016546,"lng":136.369609,"delta_lat":[0,-54562,75345,4278,1605],"delta_lng":[0,19031,15507,-10240,-14645]}},
    {"code":1142112,"id":"63cc3c","name":"越前大宮","name_kana":"えちぜんおおみや","lat":36.000064,"lng":136.409694,"prefecture":18,"lines":[11421],"attr":"cool","postal_code":"910-2334","address":"福井市大宮町","next":[9941918,1142111,1141514,1142110,1142113],"voronoi":{"lat":35.795972,"lng":136.402206,"delta_lat":[0,7645,158368,75345,-982],"delta_lng":[0,-8252,-5314,15507,21787]}},
    {"code":1142113,"id":"349a61","name":"計石","name_kana":"はかりいし","lat":35.997589,"lng":136.434767,"prefecture":18,"lines":[11421],"attr":"cool","postal_code":"910-2331","address":"福井市計石町","next":[1142114,9941919,1142116,9941918,1141514,1142112,9941920],"voronoi":{"lat":35.934576,"lng":136.452964,"delta_lat":[0,-154529,15925,240376,151,42,-4423],"delta_lng":[0,-35566,-15192,23728,529,4600,18973]}},
    {"code":1142114,"id":"9b015b","name":"牛ヶ原","name_kana":"うしがはら","lat":35.998567,"lng":136.467349,"prefecture":18,"lines":[11421],"attr":"eco","postal_code":"912-0091","address":"福井県大野市牛ケ原53下正角1-5","next":[9941920,1142113,1142115,1142116,9941923],"voronoi":{"lat":35.98139,"lng":136.477178,"delta_lat":[0,-46814,97542,2739,-6863],"delta_lng":[0,-24214,-2928,12403,16039]}},
    {"code":1142115,"id":"4a3c93","name":"北大野","name_kana":"きたおおの","lat":35.997992,"lng":136.48795,"prefecture":18,"lines":[11421],"attr":"eco","postal_code":"912-0021","address":"大野市中野","next":[1142117,1142116,1142114,9941923],"voronoi":{"lat":36.027993,"lng":136.478479,"delta_lat":[0,-46604,19856,24049],"delta_lng":[0,-1300,32691,6760]}},
    {"code":1142116,"id":"b59385","name":"越前大野","name_kana":"えちぜんおおの","lat":35.983294,"lng":136.496877,"prefecture":18,"lines":[11421],"attr":"eco","postal_code":"912-0052","address":"大野市弥生町","next":[1142115,9952619,1141514,1142113,1142122,1142117,1142119,1142114],"voronoi":{"lat":36.001245,"lng":136.50987,"delta_lat":[0,-81689,-99215,-33622,-21423,14750,154529,46814],"delta_lng":[0,10220,-14221,-15339,-62706,-10425,35566,24214]}},
    {"code":1142117,"id":"88708c","name":"越前田野","name_kana":"えちぜんたの","lat":35.987048,"lng":136.526884,"prefecture":18,"lines":[11421],"attr":"eco","postal_code":"912-0827","address":"大野市田野","next":[1142115,9941923,1142116,1142118,1142119],"voronoi":{"lat":35.919556,"lng":136.520089,"delta_lat":[0,81689,24049,3398,-59209],"delta_lng":[0,-10220,6760,6767,15894]}},
    {"code":1142118,"id":"a0d863","name":"越前富田","name_kana":"えちぜんとみだ","lat":35.9909,"lng":136.541233,"prefecture":18,"lines":[11421],"attr":"eco","postal_code":"912-0813","address":"大野市上野","next":[1142120,1142119,1142121,1142117,9941923],"voronoi":{"lat":36.028692,"lng":136.523396,"delta_lat":[0,-59209,36152,45480,50365],"delta_lng":[0,15894,31700,28278,21065]}},
    {"code":1142119,"id":"175f4c","name":"下唯野","name_kana":"しもゆいの","lat":35.974208,"lng":136.56027,"prefecture":18,"lines":[11421],"attr":"eco","postal_code":"912-0822","address":"大野市下唯野","next":[1142118,1142122,1142116,1142120,1142117],"voronoi":{"lat":36.005636,"lng":136.57099,"delta_lat":[0,-123667,-61627,99215,49927],"delta_lng":[0,-20612,-44510,14221,19201]}},
    {"code":1142120,"id":"016a3b","name":"柿ヶ島","name_kana":"かきがしま","lat":35.97243,"lng":136.570938,"prefecture":18,"lines":[11421],"attr":"eco","postal_code":"912-0147","address":"福井県大野市柿ケ嶋35中々川原32-2","next":[1142118,1142122,1142119,1142121],"voronoi":{"lat":35.909312,"lng":136.572664,"delta_lat":[0,-27344,123667,45480],"delta_lng":[0,-22285,20612,28278]}},
    {"code":1142121,"id":"70cb55","name":"勝原","name_kana":"かどはら","lat":35.967512,"lng":136.597151,"prefecture":18,"lines":[11421],"attr":"eco","postal_code":"912-0155","address":"大野市西勝原","next":[9952538,1142123,9941616,1142118,9941923,1142122,1142120],"voronoi":{"lat":35.909312,"lng":136.572664,"delta_lat":[0,112304,14706,165606,2581,-103029,-50365],"delta_lng":[0,140544,14411,26746,-46908,-87123,-21065]}},
    {"code":1142122,"id":"2883a4","name":"越前下山","name_kana":"えちぜんしもやま","lat":35.920356,"lng":136.634832,"prefecture":18,"lines":[11421],"attr":"eco","postal_code":"912-0207","address":"大野市下山","next":[1142116,1142119,1142120,1142123,1142121,9952619],"voronoi":{"lat":35.786719,"lng":136.49053,"delta_lat":[0,33622,61627,27344,112304,-240198],"delta_lng":[0,15339,44510,22285,140544,-143119]}},
    {"code":1142123,"id":"00c288","name":"九頭竜湖","name_kana":"くずりゅうこ","lat":35.90449,"lng":136.66146,"prefecture":18,"lines":[11421],"attr":"eco","postal_code":"912-0205","address":"大野市朝日","next":[9952534,9952619,9952537,1142121,9952533,1142122,9952538],"voronoi":{"lat":36.036322,"lng":136.727619,"delta_lat":[0,-14706,-240198,-27797,29244,62821,58568],"delta_lng":[0,-14411,-143119,164086,7166,11467,-5222]}}
  ],
  "north":36.04068,
  "south":35.90173,
  "east":136.66182,
  "west":136.21801,
  "polyline_list":[
    {
      "start":"越前花堂",
      "end":"九頭竜湖",
      "lat":36.04068,
      "lng":136.21801,
      "delta_lat":[0,-48,-54,-11,-78,-35,-43,-26,-23,-16,-25,-7,-4,-6,-8,-12,-27,-39,-85,-60,-15,-34,-110,-97,-96,-112,-42,-54,-62,-36,-38,-45,-16,-18,-86,-33,-62,-76,-70,-80,-89,-92,-16,-18,-40,-65,-45,-17,-23,-11,-9,-5,-2,-2,-2,-7,-9,-3,-4,-7,1,4,5,27,33,36,38,2,2,21,2,1,-2,-1,-3,-8,-6,-13,-15,-31,-32,-38,-21,-31,-37,-33,-109,-125,-48,-32,-67,-24,-39,-27,-40,-30,-25,-19,-18,-12,-4,-1,3,14,4,9,9,50,20,9,9,12,7,23,6,52,87,43,29,27,47,52,35,112,197,120,30,24,37,50,18,24,4,16,10,90,67,25,25,11,9,6,1,0,-3,-7,-13,-30,-55,-112,-105,-9,-27,-107,-49,-29,-28,-49,-49,-36,-11,-58,-68,-39,-47,-14,-7,-2,0,2,6,12,27,52,46,21,11,17,8,4,1,0,-2,-2,-9,-8,-7,-13,-19,-22,-27,-34,-29,-35,-28,-17,-23,-22,-22,-42,-35,-64,-54,-88,-39,-50,-40,-56,-36,-49,-40,-20,-14,-20,-2,-7,-10,-17,-27,-31,-32,-38,-38,-40,-25,-38,-116,-31,-40,-17,-15,-36,-31,-13,-63,-58,-21,-24,-10,-14,-19,-6,-32,-15,-20,-9,-5,-15,-3,-3,-26,-3,-12,-3,3,4,10,13,11,12,12,15,14,7,4,23,7,15,18,9,11,61,17,78,12,8,6,6,7,11,7,10,7,12,17,26,74,35,21,12,19,38,20,17,65,153,40,20,13,-2,-31,-49,-11,-135,-49,-61,-78,-60,-51,-14,-58,-89,-15,-9,-11,-7,-10,-7,-5,-15,-6,-3,-5,-5,-17,-20,-1,-22,-1,-3,-2,-33,-10,-13,-9,-2,-2,-2,-3,-1,-3,-12,-4,-1,-9,-6,-2,-4,-2,-12,-3,-1,-1,-28,-5,-2,-1,-4,-11,-2,0,-5,-4,-9,0,-1,-2,-7,-3,-21,-2,-3,-6,-29,-14,-1,1,2,12,6,23,5,4,15,9,30,8,11,101,14,18,6,9,7,61,18,1,1,18,6,17,8,1,-3,-9,-2,2,-7,-2,-6,-7,-25,-5,-11,-22,-39,-13,-36,-13,-6,0,-7,0,-4,0,-9,-3,-2,-2,-2,-5,-2,1,-1,-1,-3,-23,-1,-3,-5,-2,-1,-2,-20,0,-5,0,-4,-4,-5,0,-2,-3,-9,-24,-11,-6,-20,-28,-20,-16,-28,-14,-27,-23,-228,-653,-90,-61,-44,-105,-65,-18,-96,-41,-27,-13,-14,-8,-12,-6,-2,0,4,25,64,40,3,15,112,115,88,75,86,20,150,104,23,112,23,51,18,9,6,5,-2,-29,-20,-26,-17,-24,-14,-47,-30,-8,-47,-38,-63,-79,-66,-108,-217,-138,-29,-35,-35,-21,-6,-21,-59,-129,-123,-69,-127,-74,-34,-41,-42,-40,-16,-16,-54,-58,-24,-4,4,51,2,8,0,-7,-10,-14,-115,-115,-24,-44,-20,-25,-11,-7,2,4,12,-2,-2,-10,-6,-5,-13,-9,-13,-14,-9,-18,-11,-30,-45,-26,-14,-4,-23,-8,-13,-6,-8,-7,-20,-26,-51,-17,-13,-12,-20,-22,-65,-44,-64,-39,-52,-65,-65,-156,-94,-259,-62,-172,-89,-50,-92,-83,-251,-201,-267,-86,-86,-240,-194,-208,-88,-302,-141,-54,-148,-239,-57,-108,-122,-75,-7,-61,-12,-25,-10,-15,-9,-6,-23,-659,-229,-406,-112,-60,-40,-11,-12,-11,-3,-17,-31,-23,-32,-20,-22,-18,-11,-12,-4,-2,-9,0,0,9,13,23,24,4,21,21,11,45,14,3,14,21,12,26,30],
      "delta_lng":[0,13,15,4,31,22,37,26,27,36,70,52,55,80,43,31,55,72,161,114,28,65,204,188,180,218,76,103,118,72,70,86,31,32,168,63,118,144,132,148,170,165,29,37,83,114,96,51,76,61,78,64,28,117,194,324,441,149,172,194,81,58,41,216,284,288,308,12,20,195,47,28,55,55,44,72,37,42,35,55,36,35,14,15,11,3,6,7,3,2,2,0,4,9,21,22,25,28,37,40,57,60,50,61,18,36,35,201,85,43,25,21,9,19,6,39,67,27,14,9,15,11,5,18,29,19,6,11,20,42,16,31,7,24,20,204,154,60,58,29,41,37,25,37,43,32,33,72,132,267,254,25,62,254,115,69,66,116,115,87,24,140,165,98,128,54,31,42,39,31,28,38,51,91,77,32,21,36,26,19,72,25,46,54,107,94,34,78,72,53,52,42,26,22,14,6,9,5,2,0,-9,-32,-30,-59,-24,-27,-9,-3,14,31,39,30,35,72,22,48,52,42,49,39,30,25,19,11,4,2,13,6,19,3,6,13,24,8,46,42,19,26,11,17,25,11,53,28,44,27,11,50,11,11,92,26,79,67,52,42,56,81,59,73,53,68,58,34,21,309,41,38,42,21,18,75,21,98,26,23,23,27,41,35,14,14,7,10,12,13,51,31,25,32,51,91,37,32,104,241,83,94,108,71,131,131,27,362,129,159,156,66,49,14,59,95,21,17,24,21,28,26,19,45,22,9,17,17,56,67,7,77,6,6,6,115,34,50,41,2,21,20,11,16,32,91,18,16,66,44,10,36,18,85,20,5,14,194,30,16,7,32,69,8,10,43,16,60,8,9,8,45,28,143,14,31,36,212,120,118,65,26,77,36,120,18,22,70,44,90,25,34,172,25,31,8,12,14,106,31,2,3,38,19,69,70,66,34,184,3,2,128,40,39,47,106,24,44,103,172,53,147,68,49,3,206,36,82,18,260,57,52,114,33,104,102,7,3,29,80,697,38,155,150,167,25,36,470,22,98,32,77,89,119,23,32,24,37,54,14,11,27,36,19,10,17,7,11,7,64,176,24,23,20,66,50,13,91,48,40,28,39,30,56,53,23,35,20,105,249,164,10,59,449,459,344,301,337,74,590,402,63,310,68,135,44,31,44,189,37,157,94,90,38,37,22,54,26,4,29,17,14,4,9,-15,-65,-34,-2,9,13,14,5,17,81,180,151,73,136,89,43,52,56,51,35,42,179,197,103,48,55,287,7,82,52,25,23,29,171,184,48,94,64,85,63,30,97,110,193,144,160,225,74,71,159,153,115,68,34,61,29,68,103,61,46,13,128,83,106,43,23,25,41,48,93,26,20,14,23,20,47,34,53,26,37,40,42,98,60,168,40,111,59,28,62,52,162,130,171,55,55,151,124,134,57,191,91,34,96,152,36,67,78,44,6,42,9,25,9,13,8,5,18,551,191,333,96,47,37,13,10,11,3,18,38,29,52,36,48,48,37,44,22,10,68,52,57,57,54,63,46,10,49,49,25,107,34,4,33,48,29,57,70]
    }
  ]
}