{
  "code":11506,
  "name":"JR武豊線",
  "station_list":[
    {"code":1150226,"id":"2e64b6","name":"大府","name_kana":"おおぶ","lat":35.008665,"lng":136.961727,"prefecture":23,"numbering":[{"symbol":"CE","index":"00"}],"lines":[11502,11506],"attr":"cool","postal_code":"474-0025","address":"大府市中央町３丁目"},
    {"code":1150602,"id":"8dacc5","name":"尾張森岡","name_kana":"おわりもりおか","lat":34.993826,"lng":136.970279,"prefecture":23,"numbering":[{"symbol":"CE","index":"01"}],"lines":[11506],"attr":"heat","postal_code":"470-2101","address":"知多郡東浦町森岡字前田"},
    {"code":1150603,"id":"4bf8d0","name":"緒川","name_kana":"おがわ","lat":34.981372,"lng":136.971899,"prefecture":23,"numbering":[{"symbol":"CE","index":"02"}],"lines":[11506],"attr":"heat","postal_code":"470-2102","address":"知多郡東浦町緒川字竹塚"},
    {"code":1150604,"id":"592952","name":"石浜","name_kana":"いしはま","lat":34.967813,"lng":136.972932,"prefecture":23,"numbering":[{"symbol":"CE","index":"03"}],"lines":[11506],"attr":"heat","postal_code":"470-2103","address":"知多郡東浦町石浜字中子新田"},
    {"code":1150605,"id":"c28d63","name":"東浦","name_kana":"ひがしうら","lat":34.949574,"lng":136.970725,"prefecture":23,"numbering":[{"symbol":"CE","index":"04"}],"lines":[11506],"attr":"heat","postal_code":"470-2105","address":"知多郡東浦町藤江字抑牛"},
    {"code":1150606,"id":"4e9f0a","name":"亀崎","name_kana":"かめざき","lat":34.918986,"lng":136.961058,"prefecture":23,"numbering":[{"symbol":"CE","index":"05"}],"lines":[11506],"attr":"cool","postal_code":"475-0029","address":"半田市亀崎常盤町２丁目"},
    {"code":1150607,"id":"172fdf","name":"乙川","name_kana":"おっかわ","lat":34.903306,"lng":136.941344,"prefecture":23,"numbering":[{"symbol":"CE","index":"06"}],"lines":[11506],"attr":"cool","postal_code":"475-0054","address":"半田市乙川町"},
    {"code":1150608,"id":"467543","name":"半田","name_kana":"はんだ","lat":34.894167,"lng":136.930462,"prefecture":23,"numbering":[{"symbol":"CE","index":"07"}],"lines":[11506],"attr":"cool","postal_code":"475-0887","address":"半田市御幸町"},
    {"code":1150609,"id":"6c18d4","name":"東成岩","name_kana":"ひがしならわ","lat":34.874279,"lng":136.923416,"prefecture":23,"numbering":[{"symbol":"CE","index":"08"}],"lines":[11506],"attr":"eco","postal_code":"475-0838","address":"半田市旭町３丁目"},
    {"code":1150610,"id":"4a7e89","name":"武豊","name_kana":"たけとよ","lat":34.853507,"lng":136.921244,"prefecture":23,"numbering":[{"symbol":"CE","index":"09"}],"lines":[11506],"attr":"eco","postal_code":"470-2344","address":"知多郡武豊町金下"}
  ],
  "north":35.00938,
  "south":34.85275,
  "east":136.97364,
  "west":136.92097,
  "polyline_list":[
    {
      "start":"大府１",
      "end":"大府",
      "lat":35.00688,
      "lng":136.96298,
      "delta_lat":[0,4,109,137],
      "delta_lng":[0,-2,-75,-79]
    },
    {
      "start":"大府１",
      "end":"大府２",
      "lat":35.00688,
      "lng":136.96298,
      "delta_lat":[0,-74,-27,-29,-23,-114,-42,-36,-18,-49,-50,-37,-50,-11,-38,-148,-103],
      "delta_lng":[0,53,21,24,19,114,42,31,18,33,30,17,18,3,12,39,30]
    },
    {
      "start":"大府１",
      "end":"大府２",
      "lat":35.00688,
      "lng":136.96298,
      "delta_lat":[0,-106,-11,-45,-137,-64,-126,-24,-4,-23,-116,-193],
      "delta_lng":[0,57,6,27,86,41,73,14,1,15,66,118]
    },
    {
      "start":"武豊",
      "end":"大府２",
      "lat":34.85275,
      "lng":136.92097,
      "delta_lat":[0,103,50,171,56,39,85,140,117,162,78,137,158,36,56,152,74,44,5,77,35,63,53,52,41,33,92,47,42,72,65,23,15,74,20,43,125,130,61,26,103,121,53,68,25,28,34,42,38,29,48,66,183,42,105,109,75,18,24,9,128,76,36,39,47,113,109,60,37,53,36,33,38,26,16,8,7,8,5,25,22,48,24,7,18,39,9,35,15,18,29,12,35,35,45,91,174,27,152,92,157,116,42,119,45,26,43,65,71,86,31,18,63,67,233,91,60,359,347,185,79,101,56,105,6,79,164,170,38,324,180,187,145,374,77,49,56,49,42,54,92,72,53,91,133,23,31,11,21,26,229,232,79,154,179,196,118,193,179,228,7,116,6,184,162,212,146,96,47,47,98,70,74,55,40,84,57,56,117,92],
      "delta_lng":[0,23,10,34,12,1,1,-1,-3,-4,-2,-7,-2,-3,2,-2,0,4,0,9,9,14,18,18,19,18,52,34,29,49,47,14,10,52,14,28,88,88,42,20,70,85,36,49,17,15,14,14,4,0,-6,-11,-39,-10,-24,-15,-3,1,0,3,22,22,7,8,10,23,21,18,15,28,27,34,47,37,36,26,25,34,28,144,128,274,150,27,114,217,45,212,52,55,65,24,61,47,59,89,166,26,146,90,146,110,24,57,19,8,15,17,14,17,7,2,14,13,45,18,15,67,67,37,16,27,20,46,3,37,75,77,17,146,84,86,66,167,36,20,16,11,7,3,-3,-4,-3,-9,-9,-2,-2,-1,0,-3,-16,-18,-5,-11,-13,-14,-9,-13,-17,-18,0,-7,-2,-11,-11,-18,-10,-7,-6,-2,-19,-15,-20,-20,-17,-44,-33,-30,-65,-55]
    }
  ]
}