{
  "code":11507,
  "name":"JR太多線",
  "color":"#BFBA2F",
  "symbol":"CI",
  "station_list":[
    {"code":1141113,"id":"be0527","name":"多治見","name_kana":"たじみ","lat":35.334774,"lng":137.120294,"prefecture":21,"numbering":[{"index":"07"}],"lines":[11411,11507],"attr":"cool","postal_code":"507-0037","address":"多治見市音羽町２丁目","next":[1150702,1141114,1141112],"voronoi":{"lat":35.325982,"lng":137.098908,"delta_lat":[0,54234,-103055],"delta_lng":[0,38973,41587]}},
    {"code":1150702,"id":"39e13f","name":"小泉","name_kana":"こいずみ","lat":35.349055,"lng":137.100421,"prefecture":21,"numbering":[{"index":"06"}],"lines":[11507],"attr":"heat","postal_code":"507-0073","address":"多治見市小泉町１丁目","next":[1141113,1141114,1141112,1150703,3001711],"voronoi":{"lat":35.384088,"lng":137.129751,"delta_lat":[0,-58611,505,54234,1192],"delta_lng":[0,-70318,39476,38973,-156]}},
    {"code":1150703,"id":"471e79","name":"根本","name_kana":"ねもと","lat":35.361548,"lng":137.090008,"prefecture":21,"numbering":[{"index":"05"}],"lines":[11507],"attr":"heat","postal_code":"507-0065","address":"多治見市根本町２丁目","next":[3001710,1141110,1141112,1150704,1141111,1150702,3001711],"voronoi":{"lat":35.325477,"lng":137.059432,"delta_lat":[0,-1827,744,4882,66157,-2902,-8443],"delta_lng":[0,-9731,-6883,-10263,75477,6377,15341]}},
    {"code":1150704,"id":"0f233e","name":"姫","name_kana":"ひめ","lat":35.382004,"lng":137.072078,"prefecture":21,"numbering":[{"index":"04"}],"lines":[11507],"attr":"cool","postal_code":"507-0061","address":"多治見市姫町１丁目","next":[3001709,3001708,3001710,1141110,3001704,1150703,3001703,1150705],"voronoi":{"lat":35.401994,"lng":137.098569,"delta_lat":[0,-4957,-1605,-66157,2656,9941,18596,43780],"delta_lng":[0,7870,1593,-75477,-11039,836,6862,61771]}},
    {"code":1150705,"id":"d31dde","name":"下切","name_kana":"しもぎり","lat":35.393777,"lng":137.063734,"prefecture":21,"numbering":[{"index":"03"}],"lines":[11507],"attr":"cool","postal_code":"509-0245","address":"可児市下切字青木","next":[3001707,3001708,3001704,1150706,3001705,1150704],"voronoi":{"lat":35.360469,"lng":137.029215,"delta_lat":[0,37817,4150,9782,858,-8827],"delta_lng":[0,7766,2232,33880,3120,14773]}},
    {"code":1150706,"id":"0def7e","name":"可児","name_kana":"かに","lat":35.422832,"lng":137.055345,"prefecture":21,"numbering":[{"index":"02"}],"lines":[11507],"attr":"eco","postal_code":"509-0203","address":"可児市下恵土","next":[3001707,1150705,3001705,3001706],"voronoi":{"lat":35.412218,"lng":137.073093,"delta_lat":[0,-9782,9355,16748],"delta_lng":[0,-33880,-1195,8561]}},
    {"code":1150707,"id":"e773b4","name":"美濃川合","name_kana":"みのかわい","lat":35.444138,"lng":137.045309,"prefecture":21,"numbering":[{"index":"01"}],"lines":[11507],"attr":"eco","postal_code":"505-0022","address":"美濃加茂市川合町","next":[3001707,3001706,1141608,3001708,1141609],"voronoi":{"lat":35.45297,"lng":137.032851,"delta_lat":[0,-8510,-11662,9166,5080],"delta_lng":[0,-487,16257,18537,1323]}},
    {"code":1141608,"id":"a98761","name":"美濃太田","name_kana":"みのおおた","lat":35.445617,"lng":137.019467,"prefecture":21,"numbering":[{"index":"00"}],"lines":[11416,11507,99525],"attr":"eco","postal_code":"505-0041","address":"美濃加茂市太田町立石","next":[1141609,1150707,3001705,3001706,9952502],"voronoi":{"lat":35.45297,"lng":137.032851,"delta_lat":[0,-8510,-12724,567,53079],"delta_lng":[0,-487,-9765,-15629,12377]}}
  ],
  "north":35.44579,
  "south":35.33166,
  "east":137.12136,
  "west":137.01794,
  "polyline_list":[
    {
      "start":"多治見",
      "end":"美濃太田",
      "lat":35.33541,
      "lng":137.12136,
      "delta_lat":[0,-10,-78,-45,-45,-81,-17,-33,-19,-24,-19,-4,0,1,4,8,10,11,17,19,17,18,21,20,51,50,242,262,97,68,59,24,277,70,46,30,38,20,39,71,20,27,82,61,219,30,112,35,77,2,48,86,470,45,28,21,54,64,131,33,27,27,42,28,13,11,9,13,9,9,63,54,13,21,30,56,137,47,22,18,66,28,25,20,54,80,21,340,28,71,140,34,47,161,70,127,45,37,10,33,137,103,34,21,56,37,37,39,82,41,22,19,26,26,1,20,150,70,21,7,394,61,261,41,39,76,49,734,41,30,25,16,40,33,66,35,33,24,44,44,35,308,28,24,33,23,7,7,103,104,198,1,339,49,69,87,64,62,92,28,95,6,52,14,15,68,76,8,39,154,164,219,4,87,37,126,8,8,11,10,2,6,1,22,24,21,17,18,18,14,9,5,-2,-38,-9,-1,1,4,18,11,6,12,0,9,8,3,8,8],
      "delta_lng":[0,-19,-143,-88,-82,-151,-36,-60,-35,-48,-71,-48,-29,-22,-42,-35,-30,-33,-31,-31,-23,-19,-16,-11,-26,-26,-121,-138,-49,-31,-22,-9,-89,-24,-26,-24,-41,-34,-78,-105,-28,-26,-59,-42,-146,-21,-73,-23,-52,-1,-36,-78,-491,-48,-23,-16,-25,-26,-47,-16,-17,-27,-61,-50,-33,-40,-42,-96,-57,-34,-171,-146,-29,-26,-31,-41,-72,-34,-22,-21,-117,-33,-26,-15,-28,-32,-9,-124,-13,-47,-86,-22,-22,-64,-27,-49,-20,-19,-5,-19,-95,-78,-35,-27,-97,-54,-44,-35,-67,-36,-17,-14,-18,-14,-1,-11,-59,-25,-7,-1,-108,-19,-104,-14,-13,-16,-11,-164,-6,0,5,3,14,9,18,5,0,-4,-21,-27,-29,-287,-19,-16,-10,-8,-1,0,3,2,4,0,12,0,-6,-10,-15,-16,-30,-15,-45,-1,-34,-6,-7,-45,-59,-6,-32,-123,-127,-174,-4,-68,-28,-101,-8,-7,-8,-10,-2,-6,-1,-21,-22,-24,-29,-41,-55,-54,-52,-47,-105,-496,-140,-201,-411,-222,-252,-111,-41,-108,-3,-77,-78,-30,-71,-70]
    }
  ]
}