{
  "code":11502,
  "name":"JR東海道本線(浜松～岐阜)",
  "color":"#F57615",
  "symbol":"CA",
  "station_list":[
    {"code":100210,"id":"24381e","name":"浜松","name_kana":"はままつ","lat":34.703866,"lng":137.734759,"prefecture":22,"numbering":[{"index":"34"}],"lines":[1002,11501,11502],"attr":"eco","postal_code":"430-0926","address":"浜松市中区砂山町","next":[9950603,1150132,1150131,9950602,1150133,9950601,9950604],"voronoi":{"lat":34.608726,"lng":137.787018,"delta_lat":[0,-271948,-38658,407261,2922,1278,-1207],"delta_lng":[0,26229,2062,-82053,5513,5829,13004]}},
    {"code":1150203,"id":"97c1dd","name":"高塚","name_kana":"たかつか","lat":34.690425,"lng":137.681303,"prefecture":22,"numbering":[{"index":"35"}],"lines":[11502],"attr":"cool","postal_code":"432-8065","address":"浜松市南区高塚町","next":[9950601,9950604,3101515,9950525,9950606,9950528,1150131,1150204,9950605,9950602,9950603,9950526],"voronoi":{"lat":34.752481,"lng":137.682246,"delta_lat":[0,-7752,-8405,-5865,-17291,-4996,-446808,-1404217,474671,1410045,4070,6267],"delta_lng":[0,5538,5003,2852,6732,1653,113350,161886,-208655,-121373,5899,24926]}},
    {"code":1150204,"id":"cf43e5","name":"舞阪","name_kana":"まいさか","lat":34.685701,"lng":137.626422,"prefecture":22,"numbering":[{"index":"36"}],"lines":[11502],"attr":"cool","postal_code":"431-0203","address":"浜松市西区馬郡町","next":[3101515,1150205,9950528,1150203,9952014,1150206],"voronoi":{"lat":34.01198,"lng":137.496521,"delta_lat":[0,-101368,-578794,1410045,-3316,-483172],"delta_lng":[0,5558,268525,-121373,-24904,-91489]}},
    {"code":1150205,"id":"407fff","name":"弁天島","name_kana":"べんてんじま","lat":34.690125,"lng":137.603058,"prefecture":22,"numbering":[{"index":"37"}],"lines":[11502],"attr":"cool","postal_code":"431-0214","address":"浜松市西区舞阪町弁天島","next":[1150204,9950529,1150206,9950528],"voronoi":{"lat":34.739952,"lng":137.609492,"delta_lat":[0,-676,-483901,483172],"delta_lng":[0,-17756,-58897,91489]}},
    {"code":1150206,"id":"c16e29","name":"新居町","name_kana":"あらいまち","lat":34.694276,"lng":137.568953,"prefecture":22,"numbering":[{"index":"38"}],"lines":[11502],"attr":"heat","postal_code":"431-0302","address":"静岡県湖西市新居町新居","next":[1150208,9952014,9952013,9952010,1150207,9950529,1150205,1150204],"voronoi":{"lat":34.01198,"lng":137.496521,"delta_lat":[0,233108,155561,120543,134818,83486,-220,-483901],"delta_lng":[0,-22714,-12268,969,46127,82411,689,-58897]}},
    {"code":1150207,"id":"86992b","name":"鷲津","name_kana":"わしづ","lat":34.716819,"lng":137.546116,"prefecture":22,"numbering":[{"index":"39"}],"lines":[11502],"attr":"heat","postal_code":"431-0431","address":"湖西市鷲津","next":[9950529,9950535,1150206,1150208,9950538,9950536,9950530,9950534],"voronoi":{"lat":34.741636,"lng":137.588135,"delta_lat":[0,-2140,-83486,22585,30467,32664,8760,1545],"delta_lng":[0,2911,-82411,2337,6358,18844,9274,23777]}},
    {"code":1150208,"id":"1431d4","name":"新所原","name_kana":"しんじょはら","lat":34.723205,"lng":137.484399,"prefecture":22,"numbering":[{"index":"40"}],"lines":[11502,99505],"attr":"heat","postal_code":"431-0424","address":"湖西市新所原３丁目","next":[9950536,1150206,1150209,9952010,1150207,9950535,9952113],"voronoi":{"lat":34.761906,"lng":137.472299,"delta_lat":[0,-83311,-22585,-134818,45496,184835,11153],"delta_lng":[0,38673,-2337,-46127,-9871,10593,8231]}},
    {"code":1150209,"id":"9d560a","name":"二川","name_kana":"ふたがわ","lat":34.725809,"lng":137.438966,"prefecture":23,"numbering":[{"index":"41"}],"lines":[11502],"attr":"heat","postal_code":"441-3144","address":"豊橋市大岩町南元屋敷","next":[9952010,9952202,9952008,1150208,9952113,9952007,9952006,9952005],"voronoi":{"lat":34.72015,"lng":137.410182,"delta_lat":[0,-2652,-39840,-25624,-85345,184835,-6442,-12158],"delta_lng":[0,-58,4994,5723,31797,10593,-26805,-23830]}},
    {"code":100211,"id":"ce07ed","name":"豊橋","name_kana":"とよはし","lat":34.762734,"lng":137.382128,"prefecture":23,"numbering":[{"index":"42"}],"lines":[1002,11413,11502,30001],"attr":"heat","postal_code":"440-0075","address":"豊橋市花田町西宿","next":[9952004,1141302,9952001,9952006,9952101,9952003,9952002],"voronoi":{"lat":34.763029,"lng":137.382946,"delta_lat":[0,5428,-23020,-58,4751,2428,1744],"delta_lng":[0,-6191,-37035,4576,27581,5651,2185]}},
    {"code":1150211,"id":"c8b03e","name":"西小坂井","name_kana":"にしこざかい","lat":34.79708,"lng":137.352499,"prefecture":23,"numbering":[{"index":"43"}],"lines":[11502],"attr":"heat","postal_code":"441-0105","address":"愛知県豊川市伊奈町前山20","next":[9952011,1141304,3000103,1150212,3000102,1141303],"voronoi":{"lat":34.798372,"lng":137.357731,"delta_lat":[0,5448,-4545,-49153,-2290,37527],"delta_lng":[0,-14026,-11616,-21220,13993,33441]}},
    {"code":1150212,"id":"562b8e","name":"愛知御津","name_kana":"あいちみと","lat":34.812624,"lng":137.316492,"prefecture":23,"numbering":[{"index":"44"}],"lines":[11502],"attr":"heat","postal_code":"441-0312","address":"豊川市御津町西方字松本","next":[3000105,9952011,1150211,3000103,3000104,1150213],"voronoi":{"lat":34.830642,"lng":137.31035,"delta_lat":[0,-9392,-21975,-49153,-2728,84581],"delta_lng":[0,20140,1598,-21220,-17385,7849]}},
    {"code":1150213,"id":"fb6a50","name":"三河大塚","name_kana":"みかわおおつか","lat":34.815744,"lng":137.28287,"prefecture":23,"numbering":[{"index":"45"}],"lines":[11502],"attr":"heat","postal_code":"443-0013","address":"蒲郡市大塚町笹子","next":[3000107,9952015,1150214,3000106,9952016,3000105,9952011,9952012,1150212],"voronoi":{"lat":34.747395,"lng":137.293483,"delta_lat":[0,-4974,-417,600,236,102592,-1971,-5846,-5639],"delta_lng":[0,-11694,-1491,-18346,-2556,8196,20291,9009,4440]}},
    {"code":1150214,"id":"f03b39","name":"三河三谷","name_kana":"みかわみや","lat":34.818546,"lng":137.247795,"prefecture":23,"numbering":[{"index":"46"}],"lines":[11502],"attr":"heat","postal_code":"443-0021","address":"蒲郡市三谷町上野","next":[3000407,9952016,1150213,1150215,3000107,3000108,3000406],"voronoi":{"lat":34.742839,"lng":137.259397,"delta_lat":[0,102592,10329,1507,-83420,-14443,-19344],"delta_lng":[0,8196,-13537,-9185,-17719,4556,7974]}},
    {"code":1150215,"id":"b96ff7","name":"蒲郡","name_kana":"がまごおり","lat":34.823078,"lng":137.226459,"prefecture":23,"numbering":[{"index":"47"}],"lines":[11502,30004],"attr":"heat","postal_code":"443-0043","address":"蒲郡市元町","next":[1150214,3000108,3000407,3000408,3000109,3000409],"voronoi":{"lat":34.803061,"lng":137.212092,"delta_lat":[0,-6324,-22890,83420,3284,4222],"delta_lng":[0,1680,13380,17719,-6845,-19706]}},
    {"code":1150216,"id":"d99dea","name":"三河塩津","name_kana":"みかわしおつ","lat":34.825295,"lng":137.201261,"prefecture":23,"numbering":[{"index":"48"}],"lines":[11502],"attr":"heat","postal_code":"443-0046","address":"蒲郡市竹谷町油井","next":[3000409,3000408,1150217],"voronoi":{"lat":34.807652,"lng":137.207536,"delta_lat":[0,19641,17715],"delta_lng":[0,-20334,7931]}},
    {"code":1150217,"id":"3b52f5","name":"三ヶ根","name_kana":"さんがね","lat":34.836449,"lng":137.176348,"prefecture":23,"numbering":[{"index":"49"}],"lines":[11502],"attr":"heat","postal_code":"444-0124","address":"愛知県額田郡幸田町大字深溝字大池田12-1","next":[3000409,3000404,3000408,1150218,3000405,3000403,1150216],"voronoi":{"lat":34.864992,"lng":137.203624,"delta_lat":[0,-34303,-2289,-11804,-2489,13186,17715],"delta_lng":[0,-67800,1829,17975,8704,22871,7931]}},
    {"code":1150218,"id":"91f1d5","name":"幸田","name_kana":"こうだ","lat":34.859926,"lng":137.16447,"prefecture":23,"numbering":[{"index":"50"}],"lines":[11502],"attr":"heat","postal_code":"444-0116","address":"額田郡幸田町芦谷字幸田","next":[3000313,1150217,3000403,3000110,1150242,3000409,3000309],"voronoi":{"lat":34.860672,"lng":137.11308,"delta_lat":[0,-19459,-10523,34303,4837,9402,-12705],"delta_lng":[0,6302,16442,67800,4430,-9300,-85057]}},
    {"code":1150242,"id":"3ee381","name":"相見","name_kana":"あいみ","lat":34.887676,"lng":137.160325,"prefecture":23,"numbering":[{"index":"51"}],"lines":[11502],"attr":"heat","postal_code":"444-0113","address":"愛知県額田郡幸田町大字菱池字カマ46","open_date":"2012-03-12","next":[1150219,3000306,3000111,3000316,3000110,1150218,3000309],"voronoi":{"lat":34.870931,"lng":137.112928,"delta_lat":[0,8923,23919,4185,-17819,-10908,-12705],"delta_lng":[0,1999,9903,51245,17866,4812,-85057]}},
    {"code":1150219,"id":"ee2a2f","name":"岡崎","name_kana":"おかざき","lat":34.925417,"lng":137.157243,"prefecture":23,"numbering":[{"index":"52"}],"lines":[11502,99511],"attr":"heat","postal_code":"444-0813","address":"岡崎市羽根町東荒子","next":[3000111,1150242,9951102,3000113,3000306,1150220,3000112],"voronoi":{"lat":34.936514,"lng":137.167924,"delta_lat":[0,637,-10644,-16445,-6288,4185,10004],"delta_lng":[0,-1672,-31931,-10214,724,51245,424]}},
    {"code":1150220,"id":"1bad7a","name":"西岡崎","name_kana":"にしおかざき","lat":34.946572,"lng":137.123187,"prefecture":23,"numbering":[{"index":"53"}],"lines":[11502],"attr":"heat","postal_code":"444-0938","address":"岡崎市昭和町北浦","next":[3000304,3000116,3000305,3000115,3000306,1150219,3000303,9951102],"voronoi":{"lat":34.960098,"lng":137.12615,"delta_lat":[0,-3494,-13629,-13088,-10655,-9171,16445,19875],"delta_lng":[0,-17038,-2397,3782,5951,7659,10214,3753]}},
    {"code":1150221,"id":"be67b1","name":"安城","name_kana":"あんじょう","lat":34.959986,"lng":137.08716,"prefecture":23,"numbering":[{"index":"54"}],"lines":[11502],"attr":"heat","postal_code":"446-0032","address":"安城市御幸本町","next":[100212,3000303,3000304,3000302,3000117],"voronoi":{"lat":34.958353,"lng":137.093396,"delta_lat":[0,-11980,-1395,27863,167],"delta_lng":[0,-18115,-8576,10293,2610]}},
    {"code":100212,"id":"221e91","name":"三河安城","name_kana":"みかわあんじょう","lat":34.96968,"lng":137.060918,"prefecture":23,"numbering":[{"index":"55"}],"lines":[1002,11502],"attr":"heat","postal_code":"446-0054","address":"安城市二本木町二ツ池","next":[3000506,3000316,1150221,3000118,1150223,3000305,3000307,3000304,3000117],"voronoi":{"lat":34.98448,"lng":137.068833,"delta_lat":[0,11,-50806,-2458,7,2863,2672,8210,27863],"delta_lng":[0,-11747,-22580,1347,6922,11140,3893,8896,10293]}},
    {"code":1150223,"id":"fbb418","name":"東刈谷","name_kana":"ひがしかりや","lat":34.97741,"lng":137.043525,"prefecture":23,"numbering":[{"index":"56"}],"lines":[11502],"attr":"heat","postal_code":"448-0807","address":"刈谷市東刈谷町１丁目","next":[3000118,3000506,3000508,3000507,1150240,3000513,100212],"voronoi":{"lat":34.933685,"lng":137.034506,"delta_lat":[0,6796,2138,9690,38696,-655,-5859],"delta_lng":[0,-5914,-1223,-2723,15333,9747,7360]}},
    {"code":1150240,"id":"73aaee","name":"野田新町","name_kana":"のだしんまち","lat":34.983528,"lng":137.028085,"prefecture":23,"numbering":[{"index":"57"}],"lines":[11502],"attr":"cool","postal_code":"448-0862","address":"刈谷市野田新町","next":[3000511,3000119,1150223,3000513,3000508,1150224],"voronoi":{"lat":34.993373,"lng":137.036784,"delta_lat":[0,-491,-1877,-38696,20105,13712],"delta_lng":[0,965,2231,-15333,-12094,5446]}},
    {"code":1150224,"id":"b05cea","name":"刈谷","name_kana":"かりや","lat":34.991156,"lng":137.008878,"prefecture":23,"numbering":[{"index":"58"}],"lines":[11502,30005],"attr":"cool","postal_code":"448-0028","address":"刈谷市桜町１丁目","next":[3000509,3000508,3000120,1150225,3000511,1150240],"voronoi":{"lat":35.005322,"lng":137.013256,"delta_lat":[0,5436,-17538,-17937,-2869,13712],"delta_lng":[0,-7358,-6752,7580,5826,5446]}},
    {"code":1150225,"id":"32228e","name":"逢妻","name_kana":"あいづま","lat":34.998215,"lng":136.990544,"prefecture":23,"numbering":[{"index":"59"}],"lines":[11502],"attr":"cool","postal_code":"448-0831","address":"刈谷市熊野町２丁目","next":[3000122,3000120,1150224,1150226,1150602,3000509,3000121,1150603],"voronoi":{"lat":34.989009,"lng":136.98193,"delta_lat":[0,19039,17816,-3956,-9145,-2006,-17538,-4231],"delta_lng":[0,-4124,6461,9634,11110,887,-6752,-17198]}},
    {"code":1150226,"id":"2e64b6","name":"大府","name_kana":"おおぶ","lat":35.008665,"lng":136.961727,"prefecture":23,"numbering":[{"index":"60"}],"lines":[11502,11506],"attr":"cool","postal_code":"474-0025","address":"大府市中央町３丁目","next":[3000903,3000123,1150602,1150225,1150227,3000904,3000122],"voronoi":{"lat":35.02645,"lng":136.983857,"delta_lat":[0,1781,-14120,-22639,-4948,21524,17816],"delta_lng":[0,-2289,-52655,8023,3523,37347,6461]}},
    {"code":1150227,"id":"608792","name":"共和","name_kana":"きょうわ","lat":35.035245,"lng":136.954599,"prefecture":23,"numbering":[{"index":"61"}],"lines":[11502],"attr":"cool","postal_code":"474-0074","address":"大府市共栄町９丁目","next":[3000123,3000811,3000812,1150226,3000124,3000903,3000125,1150241],"voronoi":{"lat":35.049306,"lng":136.967092,"delta_lat":[0,-10412,-10662,-14120,1907,11097,11041,11741],"delta_lng":[0,10056,4420,-52655,-1839,-17,1630,37241]}},
    {"code":1150241,"id":"05a34a","name":"南大高","name_kana":"みなみおおだか","lat":35.055403,"lng":136.948244,"prefecture":23,"numbering":[{"index":"62"}],"lines":[11502],"attr":"cool","postal_code":"459-8001","address":"名古屋市緑区大高町字池之内4-10","next":[3000126,1150228,3000810,3000811,3000125,1150227],"voronoi":{"lat":35.038157,"lng":136.928687,"delta_lat":[0,4034,11495,12272,-9409,-6651],"delta_lng":[0,-1120,1734,21227,11823,3577]}},
    {"code":1150228,"id":"15672e","name":"大高","name_kana":"おおだか","lat":35.069244,"lng":136.940242,"prefecture":23,"numbering":[{"index":"63"}],"lines":[11502],"attr":"cool","postal_code":"459-8001","address":"名古屋市緑区大高町鶴田","next":[1150241,3000808,3000809,3000127,3000128,3000810,3000126],"voronoi":{"lat":35.069066,"lng":136.950326,"delta_lat":[0,9553,-2436,-65,-6194,-16239,12272],"delta_lng":[0,-9603,-15436,-23,-703,4741,21227]}},
    {"code":1150229,"id":"3c95b6","name":"笠寺","name_kana":"かさでら","lat":35.095113,"lng":136.926321,"prefecture":23,"numbering":[{"index":"64"}],"lines":[11502],"attr":"cool","postal_code":"457-0077","address":"名古屋市南区立脇町２丁目","next":[3000130,3000807,3000808,3000806,9951417,3000129,3000128],"voronoi":{"lat":35.080343,"lng":136.924231,"delta_lat":[0,3802,17346,3713,581,-1767,-11652],"delta_lng":[0,-3319,-2372,2327,2701,2341,6717]}},
    {"code":1150230,"id":"0cbebb","name":"熱田","name_kana":"あつた","lat":35.130028,"lng":136.910502,"prefecture":23,"numbering":[{"index":"65"}],"lines":[11502],"attr":"cool","postal_code":"456-0024","address":"名古屋市熱田区森後町２丁目","next":[9951712,9951414,9951711,9951412,1141102,9951611,3000133,9951415],"voronoi":{"lat":35.132926,"lng":136.906452,"delta_lat":[0,7221,1267,889,-4328,-3873,-1020,-5996],"delta_lng":[0,3799,1637,3196,5506,1641,75,-12612]}},
    {"code":1141102,"id":"27a817","name":"金山(愛知)","name_kana":"かなやま","lat":35.142928,"lng":136.900517,"prefecture":23,"numbering":[{"index":"66"}],"lines":[11411,11502,30001,30008,99514,99515],"attr":"heat","postal_code":"460-0022","address":"名古屋市中区金山１丁目","next":[9951502,1150230,9951414,1150232,9951412],"voronoi":{"lat":35.149525,"lng":136.897719,"delta_lat":[0,-9440,-2013,2076,1267],"delta_lng":[0,-4028,2783,13777,1637]}},
    {"code":1150232,"id":"08c724","name":"尾頭橋","name_kana":"おとうばし","lat":35.146981,"lng":136.89102,"prefecture":23,"numbering":[{"index":"67"}],"lines":[11502],"attr":"eco","postal_code":"454-0000","address":"名古屋市中川区尾頭橋４","next":[9951502,3102703,9950904,9951412,1141102,3000135,9951608],"voronoi":{"lat":35.152877,"lng":136.896473,"delta_lat":[0,-9194,-1385,-4569,2356,9440,3112],"delta_lng":[0,-19218,-624,1088,15971,4028,-782]}},
    {"code":100213,"id":"91ffc2","name":"名古屋","name_kana":"なごや","lat":35.170694,"lng":136.881637,"prefecture":23,"numbering":[{"index":"68"}],"lines":[1002,11411,11502,11508,99509,99513,99517],"attr":"eco","postal_code":"450-0002","address":"名古屋市中村区名駅１丁目４番","next":[3000136,9951701,3102702,9950902,9951703,9951307,3102701],"voronoi":{"lat":35.173783,"lng":136.885066,"delta_lat":[0,3993,-5715,-5569,-308,6,5079],"delta_lng":[0,-740,-7998,2017,1562,295,3442]}},
    {"code":1150234,"id":"8fe63c","name":"枇杷島","name_kana":"びわじま","lat":35.198681,"lng":136.861816,"prefecture":23,"numbering":[{"index":"69"}],"lines":[11502,99510],"attr":"eco","postal_code":"452-0064","address":"清須市西枇杷島町旭１丁目","next":[3001504,3000140,3000139,3000141,9951002],"voronoi":{"lat":35.199688,"lng":136.866441,"delta_lat":[0,-4068,3463,5034,4071],"delta_lng":[0,-3855,-6257,-1527,8559]}},
    {"code":1150235,"id":"bfecc7","name":"清洲","name_kana":"きよす","lat":35.225406,"lng":136.834529,"prefecture":23,"numbering":[{"index":"70"}],"lines":[11502],"attr":"eco","postal_code":"492-8173","address":"稲沢市北市場町","next":[3000145,9951002,3000144,1150236,3001507],"voronoi":{"lat":35.21906,"lng":136.844687,"delta_lat":[0,-1417,21263,9282,-14480],"delta_lng":[0,-18619,1070,18847,7583]}},
    {"code":1150236,"id":"c2cdf4","name":"稲沢","name_kana":"いなざわ","lat":35.252994,"lng":136.820942,"prefecture":23,"numbering":[{"index":"71"}],"lines":[11502],"attr":"eco","postal_code":"492-8143","address":"稲沢市駅前１丁目","next":[3000145,3001509,3001507,3001508,3000147,3000146,3000148,3001510,3001511,3000149,1150235],"voronoi":{"lat":35.255075,"lng":136.847131,"delta_lat":[0,9728,3521,13978,4787,-2856,-20462,-17033,-7617,-215,9282],"delta_lng":[0,-566,-688,-6641,-4058,-4299,-18234,-1160,13358,2295,18847]}},
    {"code":1150237,"id":"10e51a","name":"尾張一宮","name_kana":"おわりいちのみや","lat":35.301765,"lng":136.797567,"prefecture":23,"numbering":[{"index":"72"}],"lines":[11502],"attr":"eco","postal_code":"491-0858","address":"一宮市栄３丁目","next":[3001420,3000149,3000151,3001512,3001511,3001513,3000150],"voronoi":{"lat":35.305064,"lng":136.795152,"delta_lat":[0,12199,11235,-4560,-14457,-13359,-1463],"delta_lng":[0,12675,22480,2018,2946,-1129,-32144]}},
    {"code":1150238,"id":"f6a233","name":"木曽川","name_kana":"きそがわ","lat":35.349319,"lng":136.780726,"prefecture":23,"numbering":[{"index":"73"}],"lines":[11502],"attr":"eco","postal_code":"493-0001","address":"一宮市木曽川町黒田","next":[3000155,3000154,3001612,3001614,3001513,3000152,3001613,3000153],"voronoi":{"lat":35.346041,"lng":136.778081,"delta_lat":[0,15569,9812,-5343,-7891,-6055,-5442,-5014],"delta_lng":[0,4318,15090,11015,12586,6938,-868,-24760]}},
    {"code":1141601,"id":"b0ddaa","name":"岐阜","name_kana":"ぎふ","lat":35.409532,"lng":136.756514,"prefecture":21,"numbering":[{"index":"74"}],"lines":[11416,11502,11503],"attr":"heat","postal_code":"500-8856","address":"岐阜市橋本町１丁目","next":[3000157,1150302,3000159,9952608,3002003,3000160,3002002],"voronoi":{"lat":35.395005,"lng":136.755604,"delta_lat":[0,10581,62040,-1781,-76426,-573,69],"delta_lng":[0,4830,-28016,-1095,11238,1510,1992]}}
  ],
  "north":35.40974,
  "south":34.68523,
  "east":137.7366,
  "west":136.75464,
  "polyline_list":[
    {
      "start":"新所原",
      "end":"浜松",
      "lat":34.72368,
      "lng":137.47606,
      "delta_lat":[0,27,2,-4,-3,-25,-1,-17,-4,-35,-5,-9,-45,-105,-25,-36,-2,-23,-11,-29,-48,-3,-2,2,7,94,51,9,4,3,4,5,2,4,1,1,1,2,0,0,0,2,-2,-2,-1,-8,-3,-6,-11,-27,-62,-56,-149,-78,-8,-12,-112,-36,-36,-45,-42,-33,-47,-34,-51,-97,-37,-24,-18,-35,-32,-73,-31,-26,-62,-69,-97,-112,-188,-244,-42,-23,-10,-28,-21,-36,-37,-31,-69,-72,-134,-32,-20,-15,-14,-18,-5,-13,-6,-27,-18,-20,-1,-2,-6,-3,-9,-3,-8,-1,0,1,0,0,3,0,5,-1,-2,0,-2,0,0,0,-1,-2,-4,-11,-16,-32,-20,-21,-14,-77,-21,-8,-45,-30,-43,-12,-64,-22,-10,-24,-21,-60,-22,-9,-34,-47,-83,-36,-17,-20,-16,-7,-6,0,0,0,0,-2,-1,-1,0,-1,0,-4,-4,-3,-2,-4,-3,-5,-1,0,0,-3,-2,-1,0,-2,-2,-2,-2,-1,-1,-2,-2,0,-3,2,1,6,11,13,18,22,20,24,38,42,13,71,54,41,33,17,15,27,9,8,8,4,7,7,2,2,2,0,3,0,0,1,1,-1,0,-1,0,-1,0,0,0,0,0,1,0,0,3,1,7,15,14,17,22,9,12,18,15,22,25,21,34,19,2,5,15,25,32,28,25,19,22,17,7,7,22,18,16,16,7,16,15,20,17,18,12,16,15,20,22,19,29,25,6,14,5,31,31,43,33,46,45,38,34,42,25,23,18,34,30,19,26,43,18,20,15,11],
      "delta_lng":[0,298,90,42,33,145,9,108,17,196,20,52,224,546,134,181,18,149,61,160,293,25,42,35,77,451,238,50,30,27,36,107,182,279,148,85,57,77,566,22,24,247,175,126,42,61,30,27,35,60,136,118,307,163,16,22,230,92,71,71,63,44,50,33,45,78,26,15,8,15,10,17,9,7,15,18,22,28,46,62,10,5,2,8,5,10,14,19,58,67,135,38,29,30,30,41,12,39,12,81,51,72,6,8,27,17,61,19,159,108,21,186,86,101,374,185,185,185,77,106,181,59,248,167,41,40,45,95,107,137,75,68,36,204,51,21,114,76,111,31,153,57,21,57,53,145,53,23,81,115,198,97,56,84,85,82,104,135,30,42,170,193,82,107,2,112,23,216,170,103,115,142,179,173,170,55,83,189,172,44,33,70,120,173,119,177,133,178,138,61,149,155,35,66,70,51,58,53,54,63,98,110,33,178,139,111,91,50,56,92,38,36,37,37,56,65,49,42,48,90,102,112,38,269,118,113,113,149,133,166,114,150,52,115,57,59,126,45,39,7,58,115,82,86,115,40,54,79,64,78,87,67,117,63,8,17,54,83,113,94,83,65,83,53,31,28,85,66,63,54,23,58,59,70,62,64,45,60,47,57,56,45,60,43,10,25,8,46,42,61,44,59,60,50,45,55,32,34,23,50,45,35,48,82,32,43,36,36]
    },
    {
      "start":"岡崎",
      "end":"新所原",
      "lat":34.93131,
      "lng":137.15654,
      "delta_lat":[0,-30,-52,-25,-8,-59,-20,-31,-87,-42,-99,-12,-276,-103,-124,-9,-88,-35,-38,-186,-257,-127,-23,-36,-20,-78,-338,-267,-179,-65,-320,-235,-217,-61,-175,-17,-104,-65,-21,-40,-239,-254,-61,-31,-65,-213,-205,-184,-113,-40,-50,-178,-108,-46,-134,-148,-47,-135,-42,-168,-173,-11,-15,-162,-141,-120,-116,-110,-97,-34,-14,-97,-60,-28,-26,-135,-27,-105,-140,-160,-111,-26,-35,-24,-32,-40,-50,-71,-34,-40,-47,-134,-152,-124,-158,-104,-87,-15,-128,-127,-118,-183,-55,-61,-33,-39,-38,-16,-28,-18,-23,-40,-45,-42,-59,-31,-38,-1,-21,-10,-8,-2,-3,-4,6,8,17,38,33,28,49,9,11,9,17,3,2,-2,0,-7,-5,-3,-14,-16,-28,-23,-25,-29,-23,-8,-4,-28,-33,-32,-27,-35,-30,-19,-19,-17,-32,-11,-13,-29,-31,-36,-36,-18,-5,-2,-23,-11,-6,-7,-12,-22,-26,-8,-4,-2,-20,-26,-6,-6,-7,-2,-7,-16,-18,-11,-9,-7,-13,-11,-16,-8,-9,-8,-8,-7,-5,-2,-4,-3,-8,-9,-6,-5,-4,-5,-5,-6,-9,-7,-9,-9,-2,-5,-8,-9,-6,-17,-9,-11,-7,-6,-5,-7,-9,-9,-8,-10,-9,-9,-9,-27,-9,-6,-6,-14,-15,-12,-11,-4,-5,-2,-1,-1,1,2,1,3,5,5,7,7,5,5,1,4,4,0,3,1,1,5,9,7,12,12,6,12,6,16,29,14,14,20,11,8,8,8,5,8,7,9,5,8,5,4,1,4,2,2,1,2,2,2,2,1,0,0,5,3,1,2,3,4,5,1,1,0,-1,-1,-1,-3,-6,-7,-2,-18,-16,-12,-24,-19,-32,-19,-30,-11,-12,-12,-16,-11,-16,-10,-6,-4,-3,-8,-8,-8,-21,-18,-18,-12,-24,-15,-60,-6,-35,-38,-9,-9,-4,-4,-4,-12,-11,-9,-9,-6,-12,-11,-11,-9,-8,-8,-13,-14,-18,-29,-25,-33,-27,-39,-20,-20,-19,-20,-20,-25,-16,-11,-9,-9,-3,-4,-6,-9,-16,-7,-11,-41,-30,-29,-21,-22,-16,-9,-20,-19,-14,-7,-10,-8,-20,-32,-60,-28,-4,-42,-41,-33,-44,-32,-47,-32,-37,-26,-30,-23,-24,-30,-15,-28,-32,-23,-27,-22,-29,-25,-23,-34,-32,-36,-23,-24,-34,-20,-13,-15,-14,-9,-15,-37,-4,-26,-36,-41,-5,-20,-10,-21,-46,-35,-9,-47,-38,-31,-64,-55,-45,-9,-18,-22,-50,-66,-99,-20,-23,-25,-53,-24,-5,-71,-10,-16,-4,-80,-34,-11,-15,-8,-62,-74,-39,-10,-32,-85,-137,-83,-24,-46,-173,-145,-168,-57,-25,-93,-105,-29,-86,-77,-32,-47,-50,-4,-184,-62,-18,-11,-16,-49,-30,-96,-38,-93,-114,-138,-89,-2,-22,-59,-20,-40,-34,-53,-63,-213,-175,-80,-15,-3,-15,-68,-145,-31,-68,-5,-55,-38,-198,-153,-110,-7,-161,-225,-76,-74,-31,-26,-28,-40,-24,-27,-42,-104,-51,-16,-65,-46,-58,-32,-69,-2,-30,-37,-6,-78,-31,-52,-65,-15,-3,-17,-2,4,9,11,43,8,50,13,23],
      "delta_lng":[0,11,12,6,2,6,3,3,9,3,6,1,23,10,10,1,8,4,1,17,18,10,2,3,2,7,26,21,12,5,26,18,19,5,13,1,9,6,1,2,21,21,5,3,4,18,20,14,11,5,3,19,12,5,12,11,4,12,10,39,44,3,4,40,40,35,37,32,26,9,4,27,17,7,8,36,8,30,38,46,30,8,11,11,15,24,34,48,26,29,38,102,116,94,128,90,92,17,149,150,144,224,77,87,55,70,68,33,61,44,59,107,122,117,156,85,106,3,62,42,41,24,47,85,78,62,63,86,67,65,118,22,41,40,88,23,39,56,25,47,32,13,68,74,124,108,113,136,108,34,18,130,149,155,125,162,138,83,74,85,148,56,58,136,146,164,174,84,26,10,118,55,28,38,54,116,127,40,19,10,99,129,35,24,45,16,31,86,96,66,53,35,65,59,81,48,45,40,38,37,25,16,17,21,37,66,47,28,33,42,35,55,69,49,57,60,6,24,35,31,21,47,34,30,26,18,9,26,25,26,24,26,24,23,28,70,26,18,19,46,43,38,47,22,24,27,30,36,63,56,36,23,46,59,68,78,54,47,19,32,34,11,28,11,10,48,44,36,66,56,21,41,16,47,86,40,39,56,30,29,27,37,33,42,59,84,66,110,66,62,23,43,29,40,30,27,26,18,23,27,9,9,41,39,12,31,35,84,63,21,86,63,27,20,23,53,44,39,11,86,64,45,89,78,126,76,114,44,50,45,67,44,67,36,18,20,13,29,31,34,76,70,70,48,89,56,248,27,146,153,37,35,17,20,17,50,35,31,28,20,27,32,27,20,18,19,30,27,41,57,54,69,55,80,43,39,41,42,42,50,31,27,17,21,6,7,11,21,33,14,20,89,62,62,43,48,32,20,40,40,26,14,24,13,44,70,123,58,9,88,87,66,94,66,98,65,80,51,63,46,51,59,31,62,68,44,58,48,58,51,48,65,60,62,38,43,54,33,20,18,19,11,21,46,7,28,44,45,7,20,13,21,50,35,7,48,39,29,59,47,36,6,13,16,39,42,61,13,16,17,34,16,3,46,7,11,2,52,20,8,9,5,40,50,25,6,23,57,90,54,16,31,112,95,108,37,17,59,71,18,54,49,21,28,32,3,119,39,11,8,10,37,18,62,27,58,69,86,56,1,15,33,12,28,31,51,71,224,184,81,17,1,17,72,155,34,82,7,66,54,322,250,180,9,260,367,125,124,61,54,66,104,72,100,171,403,197,72,254,180,229,126,299,8,131,160,26,332,127,224,277,80,18,130,107,110,117,141,479,80,617,145,260]
    },
    {
      "start":"岡崎",
      "end":"岡崎陸橋",
      "lat":34.93131,
      "lng":137.15654,
      "delta_lat":[0,33,13,34,6,43,74,27,64,32,59,15,20,43,36,22,25,60,52,27],
      "delta_lng":[0,-1,-2,-5,-1,-8,-17,-11,-34,-21,-47,-15,-22,-47,-44,-28,-40,-104,-112,-78]
    },
    {
      "start":"岡崎",
      "end":"岡崎陸橋",
      "lat":34.93131,
      "lng":137.15654,
      "delta_lat":[0,40,30,28,72,82,50,51,41,52,36,36,43,41,30,45,8],
      "delta_lng":[0,-16,-13,-13,-36,-49,-34,-43,-33,-52,-37,-42,-57,-63,-48,-85,-16]
    },
    {
      "start":"大府陸橋",
      "end":"岡崎陸橋",
      "lat":34.99937,
      "lng":136.97643,
      "delta_lat":[0,-18,-15,-14,-6,-2,-1,3,2,4,3,2,-2,-5,-8,-9,-30,-35,-11,-9,-207,-112,-100,-67,-5,-3,-5,-50,-38,-30,-17,-144,-38,-29,-45,-39,-12,-11,-9,-74,-61,-8,-18,-23,-4,-35,-23,-43,-22,-27,-12,-46,-23,-33,-24,-23,-11,-30,-19,-20,-12,-52,-39,-45,-29,-7,-10,-8,-49,-5,-11,-9,-12,-27,-48,-31,-8,-37,-19,-105,-60,-44,-23,-20,-72,-18,-72,-13,-29,-27,-24,-55,-8,-47,-31,-49,-21,-5,-7,-26,-65,-43,-31,-25,-15,0,-9,-6,-6,-22,-36,-25,-42,-18,-33,-18,-42,-11,-39,-42,-21,-4,-36,-6,-23,-33,-27,-42,-27,-5,-31,-36,-16,-29,-5,-13,-48,-39,-18,-27,-27,-2,-31,-8,-30,-19,-69,-3,-24,-32,-14,-61,-23,-22,-38,-18,-23,-22,-7,-9,-8,-8,-62,-2,-41,-51,-28,-63,-17,-11,-53,-18,-49,-4,-48,-9,-16,-36,-46,-30,-44,-16,-4,-9,-22,-16,-23,-8,-7,-22,-8,-7,-3,-25,-3,-6,-5,-5,-4,-2,-9,-52,-38,-22,-34,-36,-23,-14,-7,-2,-20,-28,-28,-19,-18,-23,-26,-51,-51,-7,-20,-30,-6,-5,-22,-13,-46,-39,-36,-19,-11,-31,-17,-25,-1,-11,-10,-31],
      "delta_lng":[0,74,63,78,40,46,71,113,46,128,90,135,57,127,88,49,143,126,36,27,524,280,252,170,10,9,14,129,98,77,44,368,97,72,113,99,33,28,22,184,159,17,46,57,9,89,54,113,53,66,36,116,55,83,65,55,32,73,46,52,28,130,100,111,72,20,25,21,122,12,26,25,30,67,121,80,21,91,47,271,148,112,59,51,176,47,177,36,70,67,63,137,16,125,80,122,52,12,20,60,169,108,76,67,35,2,21,19,14,53,89,65,105,48,82,47,107,26,101,103,51,12,94,16,54,83,70,107,71,12,80,89,40,78,15,29,125,99,50,66,70,2,79,22,74,45,174,8,63,84,34,158,56,54,99,44,58,55,18,20,22,21,152,7,102,130,69,161,45,27,130,49,125,9,123,25,42,92,119,73,116,51,9,31,71,49,77,27,25,71,27,22,7,80,13,18,22,18,16,6,26,173,129,74,105,114,74,40,26,8,60,88,90,60,61,74,81,161,160,22,71,116,17,20,75,44,162,130,124,63,38,101,49,59,6,25,23,65]
    },
    {
      "start":"大府",
      "end":"大府陸橋",
      "lat":35.00688,
      "lng":136.96298,
      "delta_lat":[0,-106,-11,-45,-93,-41,-15,-23,-11,-18,-65,-18,-61,-20,-26,-2,-3,-3,-2,-2,-2,-2,-2,-3,-2,-2,-2,-2,-3,-11,-7,-14,-19,-25,-21,-39,-30],
      "delta_lng":[0,57,6,27,80,35,16,30,21,33,116,33,133,58,95,10,12,12,11,10,11,14,10,12,13,11,12,12,10,59,28,48,47,54,50,100,60]
    },
    {
      "start":"大府",
      "end":"大府陸橋",
      "lat":35.00688,
      "lng":136.96298,
      "delta_lat":[0,-74,-27,-29,-23,-85,-35,-34,-34,-22,-32,-15,-54,-87,-20,-48,-42,-21,-26,-43],
      "delta_lng":[0,53,21,24,19,102,41,44,54,42,48,31,101,199,51,116,107,62,66,165]
    },
    {
      "start":"大府",
      "end":"名古屋",
      "lat":35.00688,
      "lng":136.96298,
      "delta_lat":[0,4,109,137,147,82,85,71,48,13,33,25,28,42,94,111,119,372,302,96,129,180,159,96,215,112,79,10,126,328,394,41,211,53,48,29,55,83,27,34,15,40,88,255,30,26,242,120,17,170,303,122,9,29,47,17,73,100,4,20,9,63,192,19,34,4,46,7,16,7,41,62,6,37,15,90,105,42,38,130,57,10,21,11,63,10,23,17,103,10,20,13,29,63,16,20,23,33,52,7,44,92,215,64,120,66,95,27,13,66,86,72,131,177,50,27,152,108,82,34,44,27,43,70,66,31,62,55,47,3,38,19,38,83,38,58,86,46,63,27,68,40,26,85,1,24,28,111,80,12,11,182,39,27,41,6,46,53,79,29,38,85,42,130,112,33,103,97,29,9,38,81,48,67,50,97,93,14,91,49,23,92,31,19,66,43,6,26,26,78,37,17,21,32,25,29,23,31,33,30,25,38,9,29,31,31,23,18,36,31,17,24,61,30,25,33,33,30,22,14,10,17,16,37,15,17,19,21,24,25,30,29,42,31,27,50,44,86,26,137,34,95,16,22,51,71,77,73,77,64,87,36,64,94,32,13,89,43,54,60,37,60,65,54,69,14,57,60,39,38,42,41,45,16,158,76,18,87,31,39,16],
      "delta_lng":[0,-2,-75,-79,-85,-46,-46,-32,-22,-6,-12,-10,-9,-11,-21,-21,-24,-73,-62,-19,-26,-35,-32,-20,-42,-23,-13,-2,-26,-66,-81,-9,-38,-10,-12,-8,-21,-30,-12,-16,-7,-21,-51,-150,-18,-15,-139,-70,-10,-105,-180,-72,-4,-18,-28,-9,-39,-54,0,-12,-5,-33,-104,-10,-19,-4,-23,-5,-8,-3,-22,-34,-4,-20,-8,-48,-58,-22,-21,-70,-31,-6,-12,-5,-34,-6,-12,-9,-56,-5,-12,-7,-15,-35,-9,-10,-11,-18,-27,-4,-26,-48,-117,-33,-63,-34,-50,-14,-6,-33,-48,-36,-68,-98,-27,-13,-79,-54,-47,-18,-22,-12,-23,-37,-35,-16,-32,-32,-22,-1,-20,-12,-19,-45,-20,-32,-44,-24,-32,-14,-36,-21,-12,-38,-2,-10,-9,-45,-30,-6,-4,-71,-15,-10,-16,-1,-17,-20,-31,-11,-15,-33,-16,-53,-40,-14,-38,-38,-12,-3,-15,-30,-18,-26,-20,-38,-39,-5,-35,-19,-9,-39,-12,-8,-25,-20,-3,-13,-11,-38,-23,-9,-14,-19,-16,-24,-18,-25,-30,-28,-22,-42,-13,-35,-39,-43,-29,-30,-52,-49,-35,-60,-158,-84,-72,-96,-86,-81,-60,-37,-28,-44,-36,-76,-29,-31,-27,-29,-33,-29,-32,-25,-31,-20,-17,-26,-20,-32,-6,-35,-7,-25,-3,-5,-14,-19,-20,-16,-18,-14,-21,-9,-17,-19,-12,-2,-24,-10,-15,-16,-9,-22,-25,-23,-33,-8,-25,-27,-18,-16,-18,-18,-22,-9,-80,-38,-10,-70,-29,-36,-15]
    },
    {
      "start":"枇杷島",
      "end":"名古屋",
      "lat":35.20675,
      "lng":136.85142,
      "delta_lat":[0,-71,-47,-42,-25,-31,-35,-65,-35,-30,-35,-54,-14,-87,-15,-41,-116,-53,-74,-74,-72,-94,-52,-11,-11,-60,-68,-103,-87,-109,-97,-74,-60,-61,-26,-85,-216,-135,-25,-133,-40,-36,-18,-93,-96,-106,-30,-21,-92,-7,-18,-88,-47,-17,-13],
      "delta_lng":[0,71,48,48,32,45,58,135,59,54,58,80,18,120,20,55,131,51,58,50,46,54,28,5,6,30,31,43,38,47,43,45,46,56,25,87,243,144,25,143,40,36,17,87,76,62,18,14,46,3,9,45,22,7,6]
    },
    {
      "start":"枇杷島陸橋",
      "end":"枇杷島",
      "lat":35.21451,
      "lng":136.84405,
      "delta_lat":[0,-50,-67,-1,-36,-27,-21,-26,-25,-13,-40,-27,-21,-27,-16,-26,-38,-16,-220,-78],
      "delta_lng":[0,67,98,1,50,27,18,16,11,6,14,10,8,12,7,14,36,16,241,84]
    },
    {
      "start":"枇杷島陸橋",
      "end":"枇杷",
      "lat":35.21451,
      "lng":136.84405,
      "delta_lat":[0,-161,-87,-85,-37,-221,-184],
      "delta_lng":[0,154,84,80,35,210,173]
    },
    {
      "start":"枇杷島陸橋",
      "end":"岐阜",
      "lat":35.21451,
      "lng":136.84405,
      "delta_lat":[0,38,33,96,71,176,17,148,182,173,24,24,123,101,395,351,80,422,339,79,243,177,457,123,86,178,68,99,109,51,90,12,21,44,14,12,54,40,103,45,34,18,35,69,74,151,89,106,105,47,62,53,30,45,13,82,59,145,1,25,1,3,66,95,97,8,85,69,16,142,26,14,77,112,92,90,236,28,108,0,5,87,8,72,188,42,93,13,9,2,44,43,59,22,22,22,58,52,289,228,182,147,12,5,82,12,113,23,9,65,35,43,21,38,14,55,4,65,27,36,20,91,21,40,7,42,31,63,114,14,44,20,77,69,18,33,50,7,174,27,36,16,129,23,9,38,54,13,7,90,13,147,31,34,37,48,32,65,28,13,100,58,85,21,29,12,10,47,165,57,51,51,164,581,156,46,63,76,247,27,149,135,121,79,120,136,144,161,22,9,468,128,82,372,167,28,19,73,28,28,77,68,17,2,56,32,48,35,12,13,94,14,581,13,852,33,61,10,61,47,167,29,231,295,55,64,50,46,63,9,34,29,9,15,38,14,10,6,9,24,9],
      "delta_lng":[0,-35,-30,-90,-63,-168,-16,-140,-160,-139,-18,-19,-84,-60,-200,-174,-39,-203,-161,-37,-115,-84,-221,-62,-45,-86,-33,-49,-55,-23,-43,-7,-9,-20,-6,-7,-27,-20,-47,-21,-16,-9,-18,-32,-36,-72,-47,-51,-47,-25,-30,-27,-14,-21,-6,-41,-29,-69,0,-13,-1,-1,-31,-45,-47,-4,-41,-32,-8,-70,-13,-6,-37,-54,-44,-43,-118,-15,-53,0,-2,-42,-2,-35,-89,-18,-42,-7,-5,0,-22,-22,-28,-10,-11,-11,-28,-24,-131,-113,-93,-71,-7,-2,-39,-6,-55,-12,-5,-29,-16,-21,-9,-18,-7,-25,-1,-32,-13,-17,-11,-44,-11,-19,-4,-20,-16,-31,-55,-8,-22,-9,-38,-34,-8,-15,-25,-3,-84,-13,-19,-7,-61,-12,-4,-19,-27,-7,-3,-43,-7,-72,-14,-14,-17,-21,-15,-24,-10,-5,-35,-20,-24,-7,-9,-2,-2,-14,-45,-10,-4,2,5,-26,-12,-4,-11,-17,-57,-5,-34,-31,-25,-8,-5,0,7,13,2,1,63,18,11,50,23,3,3,4,2,2,-4,-6,-1,0,-12,-9,-14,-16,-6,-5,-39,-6,-243,-5,-361,-13,-27,-4,-25,-21,-65,-11,-97,-127,-26,-40,-40,-47,-87,-11,-65,-95,-45,-85,-344,-130,-93,-68,-68,-227,-82]
    }
  ]
}