{
  "code":11601,
  "id":"314055",
  "name":"JR東海道本線(琵琶湖線)(米原～京都)",
  "name_kana":"じぇいあーるとうかいどうほんせん(びわこせん)",
  "name_formal":"JR東海道本線(米原～京都)",
  "station_size":20,
  "company_code":4,
  "color":"#0072BC",
  "symbol":"A",
  "station_list":[
    {"code":100215,"id":"85e377","name":"米原","name_kana":"まいばら","lat":35.314657,"lng":136.289992,"prefecture":25,"numbering":[{"index":"12"}],"lines":[1002,11415,11503,11601,99601],"attr":"cool","postal_code":"521-0012","address":"米原市米原","next":[1141502,1160102,9960102,1150311],"voronoi":{"lat":35.314922,"lng":136.242447,"delta_lat":[0,4576,8601,-31505],"delta_lng":[0,-7289,80768,7432]}},
    {"code":1160102,"id":"32d58b","name":"彦根","name_kana":"ひこね","lat":35.272216,"lng":136.263347,"prefecture":25,"numbering":[{"index":"13"}],"lines":[11601,99601],"attr":"cool","postal_code":"522-0007","address":"彦根市古沢町","next":[1160103,1141504,9960103,9960102,1160517,100215,1160104,9960125,1141502],"voronoi":{"lat":35.326199,"lng":136.2177,"delta_lat":[0,923,-4022,-12827,-34867,-13384,33036,19864,4576],"delta_lng":[0,-63324,-1479,15783,59341,55694,-21099,-20168,-7289]}},
    {"code":1160103,"id":"fb731f","name":"南彦根","name_kana":"みなみひこね","lat":35.246097,"lng":136.248,"prefecture":25,"numbering":[{"index":"14"}],"lines":[11601],"attr":"cool","postal_code":"522-0043","address":"彦根市小泉町","next":[9960107,1160102,9960106,9960125,9960105,1160104],"voronoi":{"lat":35.230118,"lng":136.245578,"delta_lat":[0,15149,20031,10107,34867,-79923],"delta_lng":[0,11892,-16876,-12573,-59341,72878]}},
    {"code":1160104,"id":"972179","name":"河瀬","name_kana":"かわせ","lat":35.225384,"lng":136.225285,"prefecture":25,"numbering":[{"index":"15"}],"lines":[11601],"attr":"cool","postal_code":"522-0222","address":"彦根市南川瀬町","next":[9960107,9960108,1160102,1160517,1160103,1160105],"voronoi":{"lat":35.212364,"lng":136.231715,"delta_lat":[0,17986,79923,12827,-14884,-99512],"delta_lng":[0,9842,-72878,-15783,-10252,71275]}},
    {"code":1160105,"id":"64fff4","name":"稲枝","name_kana":"いなえ","lat":35.203312,"lng":136.194469,"prefecture":25,"numbering":[{"index":"16"}],"lines":[11601],"attr":"cool","postal_code":"521-1125","address":"彦根市稲枝町","next":[9960109,1160516,9960108,1160106,1160515,1160104,1160517],"voronoi":{"lat":35.28733,"lng":136.122559,"delta_lat":[0,-4508,-10777,-92126,15353,13432,99512],"delta_lng":[0,-3231,-5230,75736,22079,2006,-71275]}},
    {"code":1160106,"id":"f1fd3b","name":"能登川","name_kana":"のとがわ","lat":35.179897,"lng":136.165987,"prefecture":25,"numbering":[{"index":"17"}],"lines":[11601],"attr":"cool","postal_code":"521-1224","address":"東近江市林町","next":[9960109,1160105,1160515,1160107,9960110],"voronoi":{"lat":35.179919,"lng":136.189835,"delta_lat":[0,92126,-49068,-75476,29539],"delta_lng":[0,-75736,-35556,86963,24100]}},
    {"code":1160107,"id":"d75d1a","name":"安土","name_kana":"あづち","lat":35.142465,"lng":136.1335,"prefecture":25,"numbering":[{"index":"18"}],"lines":[11601],"attr":"cool","postal_code":"521-1341","address":"滋賀県近江八幡市安土町上豊浦","next":[9960111,9960306,9960110,1160515,1160106,9960305,1160108],"voronoi":{"lat":35.127564,"lng":136.143047,"delta_lat":[0,8752,10101,1083,75476,-9818,-83229],"delta_lng":[0,21518,1145,-205,-86963,-11976,53260]}},
    {"code":1160108,"id":"fd5319","name":"近江八幡","name_kana":"おうみはちまん","lat":35.122765,"lng":136.102715,"prefecture":25,"numbering":[{"index":"19"}],"lines":[11601,99603],"attr":"cool","postal_code":"523-0891","address":"近江八幡市鷹飼町","next":[1160515,1160513,1160514,9960306,1160109,1160107],"voronoi":{"lat":35.084748,"lng":136.107115,"delta_lat":[0,97472,12274,12431,6234,-83229],"delta_lng":[0,-74000,9721,12261,11469,53260]}},
    {"code":1160109,"id":"3e3e8f","name":"篠原(滋賀)","name_kana":"しのはら","lat":35.099203,"lng":136.071679,"prefecture":25,"numbering":[{"index":"20"}],"lines":[11601],"attr":"cool","postal_code":"523-0046","address":"近江八幡市上野町","next":[1160513,1160508,1151108,1160512,1160509,1160108,1151109,9960306,1160110],"voronoi":{"lat":35.150464,"lng":136.005522,"delta_lat":[0,822,10654,6668,13612,-97472,-30675,-2496,6702],"delta_lng":[0,218,4451,6314,16610,74000,8156,-23037,-29192]}},
    {"code":1160110,"id":"ffe5b8","name":"野洲","name_kana":"やす","lat":35.068509,"lng":136.022487,"prefecture":25,"numbering":[{"index":"21"}],"lines":[11601],"attr":"eco","postal_code":"520-2331","address":"野洲市小篠原","next":[1160508,1151110,1151109,1160111,1160109],"voronoi":{"lat":35.037771,"lng":136.028843,"delta_lat":[0,4394,66309,41989,-92185],"delta_lng":[0,-7780,-45115,29574,57520]}},
    {"code":1160111,"id":"45ad6f","name":"守山(滋賀)","name_kana":"もりやま","lat":35.050513,"lng":135.996037,"prefecture":25,"numbering":[{"index":"22"}],"lines":[11601],"attr":"eco","postal_code":"524-0037","address":"守山市梅田町","next":[1160507,1160112,1151110,1160508,1160110],"voronoi":{"lat":35.038255,"lng":135.992749,"delta_lat":[0,46466,22012,1742,-66309],"delta_lng":[0,-38052,19156,2096,45115]}},
    {"code":1160112,"id":"896004","name":"栗東","name_kana":"りっとう","lat":35.037448,"lng":135.980083,"prefecture":25,"numbering":[{"index":"23"}],"lines":[11601],"attr":"eco","postal_code":"520-3031","address":"栗東市綣字新改","next":[1151110,1151111,1160506,1160507,1160111],"voronoi":{"lat":35.084721,"lng":135.954697,"delta_lat":[0,-8525,-7063,-51457,20579],"delta_lng":[0,-10954,-4982,43136,10852]}},
    {"code":1151111,"id":"011774","name":"草津(滋賀)","name_kana":"くさつ","lat":35.022913,"lng":135.962744,"prefecture":25,"numbering":[{"index":"24"}],"lines":[11511,11601],"attr":"heat","postal_code":"525-0026","address":"草津市渋川１丁目","next":[1160114,1160505,1160112,1160506,1151110],"voronoi":{"lat":35.017675,"lng":135.981896,"delta_lat":[0,51457,-10447,-15733,-54056],"delta_lng":[0,-43136,-11498,-8844,66975]}},
    {"code":1160114,"id":"dd72aa","name":"南草津","name_kana":"みなみくさつ","lat":35.003855,"lng":135.947362,"prefecture":25,"numbering":[{"index":"25"}],"lines":[11601],"attr":"eco","postal_code":"525-0059","address":"草津市野路町池之尻","next":[1151111,9960404,9960406,1151110,1160505,1160504,3300607,1160115],"voronoi":{"lat":35.023944,"lng":135.914736,"delta_lat":[0,12836,970,5203,-54056,-45145,-9019,-7870],"delta_lng":[0,-1882,555,5010,66975,20443,-7902,-8753]}},
    {"code":1160115,"id":"ba479c","name":"瀬田(滋賀)","name_kana":"せた","lat":34.987223,"lng":135.925673,"prefecture":25,"numbering":[{"index":"26"}],"lines":[11601],"attr":"heat","postal_code":"520-2144","address":"大津市大萱１丁目","next":[3300607,3300601,3300605,1160114,3300602,1160116,9960406],"voronoi":{"lat":34.909935,"lng":135.975443,"delta_lat":[0,61608,10023,10991,13758,17628,-97081],"delta_lng":[0,-55776,-6145,-3176,463,3926,74446]}},
    {"code":1160116,"id":"c328a7","name":"石山","name_kana":"いしやま","lat":34.97987,"lng":135.900228,"prefecture":25,"numbering":[{"index":"27"}],"lines":[11601],"attr":"heat","postal_code":"520-0832","address":"大津市粟津町","next":[3300604,3300602,3300605,1160115,3300603],"voronoi":{"lat":34.983006,"lng":135.898638,"delta_lat":[0,6150,3401,-10991,-5120],"delta_lng":[0,6547,5162,3176,-12259]}},
    {"code":1160117,"id":"e5d340","name":"膳所","name_kana":"ぜぜ","lat":34.999373,"lng":135.880539,"prefecture":25,"numbering":[{"index":"28"}],"lines":[11601],"attr":"heat","postal_code":"520-0802","address":"大津市馬場２丁目","next":[3300610,1160118,3300606,3300608,3300609,3300705],"voronoi":{"lat":34.986773,"lng":135.869308,"delta_lat":[0,9107,5733,-3504,-12635,-9220],"delta_lng":[0,2077,6217,5363,-4416,-7153]}},
    {"code":1160118,"id":"c80076","name":"大津","name_kana":"おおつ","lat":35.002997,"lng":135.864651,"prefecture":25,"numbering":[{"index":"29"}],"lines":[11601],"attr":"heat","postal_code":"520-0055","address":"大津市春日町","next":[3300706,3300611,3300612,1160117,3300610,3300705],"voronoi":{"lat":34.998274,"lng":135.859626,"delta_lat":[0,8828,200,-5504,-5918,-9107],"delta_lng":[0,4224,2482,4121,931,-2077]}},
    {"code":1160119,"id":"a4984d","name":"山科","name_kana":"やましな","lat":34.992636,"lng":135.816647,"prefecture":26,"numbering":[{"index":"30"}],"lines":[11601,11605,99611],"attr":"heat","postal_code":"607-8009","address":"京都市山科区安朱北屋敷町","next":[9961109,3300615,3300703,3300616,3300702,3300701],"voronoi":{"lat":35.028467,"lng":135.819835,"delta_lat":[0,-1178,-3329,-30457,-3914,31129],"delta_lng":[0,1069,2578,-3038,-12431,7305]}},
    {"code":100216,"id":"deedbe","name":"京都","name_kana":"きょうと","lat":34.985465,"lng":135.757748,"prefecture":26,"numbering":[{"index":"31"}],"lines":[1002,11601,11602,11605,11614,11618,31025,99610],"attr":"heat","postal_code":"600-8216","address":"京都市下京区烏丸通塩小路下ル東塩小路町","next":[9961012,3102502,9961010,1161416,3300104,1161802],"voronoi":{"lat":34.989727,"lng":135.761906,"delta_lat":[0,2059,-4640,-5581,2253,365],"delta_lng":[0,-10388,-1055,5907,7529,125]}}
  ],
  "north":35.315,
  "south":34.97985,
  "east":136.28993,
  "west":135.75459,
  "polyline_list":[
    {
      "start":"腰越山トンネル西",
      "end":"腰越山トンネル東",
      "lat":35.15194,
      "lng":136.14451,
      "delta_lat":[0,71,46,44,83,61,85],
      "delta_lng":[0,54,39,43,82,70,100]
    },
    {
      "start":"腰越山トンネル西",
      "end":"腰越山トンネル東",
      "lat":35.15194,
      "lng":136.14451,
      "delta_lat":[0,62,45,45,77,64,97],
      "delta_lng":[0,65,48,49,79,59,88]
    },
    {
      "start":"腰越山トンネル東",
      "end":"米原",
      "lat":35.15584,
      "lng":136.14839,
      "delta_lat":[0,32,12,33,127,25,116,34,63,16,94,30,102,65,40,24,92,31,18,66,44,7,55,51,17,117,80,13,96,86,61,75,54,47,41,49,38,66,10,56,25,51,24,7,43,34,37,25,165,34,31,37,33,38,17,32,40,36,61,23,14,14,30,22,32,71,20,51,63,13,41,87,14,21,13,35,56,71,17,35,47,107,43,54,67,17,41,16,56,49,63,25,51,60,16,20,9,35,18,36,21,19,27,59,20,7,72,195,50,26,33,15,47,14,12,15,78,34,46,20,19,32,12,30,37,14,16,73,18,11,50,29,38,47,18,38,11,18,21,20,15,30,28,13,30,32,22,14,68,38,16,21,18,19,22,19,40,36,27,66,15,32,30,108,42,123,25,26,88,13,181,43,20,7,54,47,24,60,27,18,31,25,18,17,22,37,28,26,20,47,63,20,22,19,22,89,12,58,38,93,16,178,31,26,30,38,16,13,26,67,23,30,17,20,13,81,26,69,27,29,114,11,141,179,56,96,177,128,7,22,36,39,23,86,29,50,46,39,55,67,60,28,71,128,185,153,156,110,152,183,101,217,61,93,5,89,92,65,16,83,49,39,45,104,5,11,87,114,55,98,40,82,21,182,138,137,98,60,58,115,53,6,48,52,67,36,32,22,33,58,16,16,110,9,38,55,43,17,12,51,43,7,40,47,36,49,74,51,206,302,20,175,51,226],
      "delta_lng":[0,31,11,31,105,20,87,22,41,8,53,17,56,36,21,14,51,16,11,34,25,4,30,29,9,64,47,7,45,48,35,42,33,33,31,46,43,76,12,63,29,60,26,7,49,38,45,26,189,41,36,45,37,42,21,37,45,44,71,27,16,16,32,26,36,81,24,56,72,15,46,100,17,23,14,41,62,83,20,40,56,120,50,64,76,20,46,18,64,55,72,30,58,73,24,26,11,50,29,54,32,28,41,88,29,13,108,300,74,40,50,20,70,20,17,23,112,54,69,28,31,45,18,45,58,21,26,108,25,17,75,43,57,71,27,57,17,28,33,33,20,45,42,19,45,49,32,22,100,57,22,33,27,30,32,30,59,51,40,96,24,43,38,119,46,134,28,29,96,15,200,47,23,9,60,50,26,68,28,20,34,27,20,18,26,41,30,28,21,51,71,21,24,22,23,99,14,65,41,104,17,206,37,30,34,42,17,14,29,74,25,30,18,22,13,85,27,70,28,31,120,13,155,197,61,103,194,141,8,19,37,42,22,85,28,41,31,25,31,30,23,8,17,34,44,39,39,29,37,46,25,50,15,24,1,22,19,13,2,10,2,0,-1,-13,-1,-1,-12,-12,-5,-1,0,-1,0,9,5,11,4,14,22,71,36,6,41,52,88,52,62,54,93,205,54,54,368,39,135,172,78,25,21,78,59,9,51,49,39,35,53,27,87,123,8,73,20,85]
    },
    {
      "start":"瀬田",
      "end":"腰越山トンネル西",
      "lat":34.98069,
      "lng":135.91279,
      "delta_lat":[0,38,36,50,160,24,29,10,207,36,139,91,66,232,150,35,80,109,41,11,110,44,77,130,105,40,5,179,20,7,73,34,121,37,53,106,110,142,22,14,57,25,15,82,49,136,273,25,27,122,62,79,104,45,58,18,24,146,123,116,154,144,18,50,37,5,27,192,92,96,174,18,44,138,13,23,65,19,46,25,123,100,107,111,140,40,26,118,79,113,104,42,38,24,23,54,69,27,47,33,11,23,14,0,51,16,13,21,46,9,61,4,31,2,28,10,8,20,39,52,7,7,4,21,50,14,37,10,16,7,18,7,23,15,31,35,36,90,4,65,16,60,22,3,25,80,52,26,86,183,76,49,5,13,61,3,35,82,7,10,15,36,36,44,2,10,34,33,89,2,86,63,4,37,44,2,29,58,58,7,32,18,49,13,13,14,4,16,27,7,36,22,22,4,11,18,7,13,1,16,4,15,5,40,131,26,21,15,34,15,3,18,13,1,6,112,163,17,197,67,189,197,29,157,40,27,156,41,170,52,48,182,94,101,176,67,241,29,190,17,204,25,231,40,252,176,42,165,119,58,94,50,161,150,34,6,7,216,46,18,77,80,38,22,6,86,21,9,38,46,11,25,27,27,15,20,65,5,4,38,2,112,36,6,40,42,76,77,82,98,25,6,68,103,82,9,54,15,10,40,43],
      "delta_lng":[0,159,121,123,287,38,45,15,341,64,224,149,108,387,244,58,129,175,68,18,169,52,73,102,78,31,3,135,15,5,56,24,93,27,41,81,83,108,17,10,42,20,11,61,36,104,208,18,19,98,51,66,98,41,58,19,29,171,144,139,180,173,20,59,44,4,34,231,111,113,215,20,55,167,15,27,77,24,57,31,148,122,129,133,171,49,32,142,96,141,128,55,43,29,29,67,91,35,70,48,17,34,20,2,83,25,18,34,73,13,95,6,48,6,42,16,12,33,60,83,10,10,9,32,80,23,58,17,24,11,28,12,37,23,48,55,54,137,4,101,22,93,32,7,37,121,76,34,115,252,107,72,9,17,93,5,52,119,10,17,20,52,50,59,2,16,46,49,126,2,124,89,7,51,62,6,39,83,79,13,44,26,69,21,17,21,3,24,38,10,58,34,38,4,19,29,12,21,6,29,6,26,11,74,235,49,35,30,59,27,6,33,22,4,13,193,277,29,340,115,324,340,47,270,67,45,270,71,292,85,83,313,143,134,207,77,281,33,224,18,241,30,269,47,293,206,51,188,138,66,110,71,278,262,60,11,11,372,80,28,129,139,65,39,10,148,37,15,67,78,20,44,47,46,26,34,115,8,7,67,3,197,61,10,62,60,104,90,86,98,22,8,69,102,83,10,53,14,9,41,44]
    },
    {
      "start":"石山",
      "end":"瀬田",
      "lat":34.97989,
      "lng":135.90165,
      "delta_lat":[0,-2,0,0,0,0,0,1,0,1,2,0,6,19,22,7,25],
      "delta_lng":[0,20,5,37,50,128,32,67,7,241,99,35,48,98,108,37,103]
    },
    {
      "start":"石山",
      "end":"瀬田",
      "lat":34.97989,
      "lng":135.90165,
      "delta_lat":[0,2,3,2,2,4,2,3,13,5,2,9,14,5,15],
      "delta_lng":[0,25,37,50,45,79,32,67,255,92,40,133,116,38,106]
    },
    {
      "start":"東山トンネル東",
      "end":"石山",
      "lat":34.98938,
      "lng":135.79966,
      "delta_lat":[0,168,36,25,30,12,11,9,8,1,3,0,4,2,5,3,1,9,0,5,2,-3,5,16,28,28,20,16,26,38,26,28,37,77,47,17,18,14,14,31,127,94,14,126,89,27,76,16,7,3,-4,-6,-7,-5,-18,-7,-6,-34,-4,-7,-16,-17,-25,-24,-32,-47,-80,-72,-29,-9,-14,-25,-98,-164,-151,-140,-141,-39,-317,-337,-25,-103,-22,-25,-43,-47,-37,-61,-45,-33,-21,-11,1,2],
      "delta_lng":[0,277,63,48,72,40,44,77,92,11,59,22,281,45,140,99,170,304,13,77,101,233,36,95,141,115,67,49,55,77,38,43,49,89,53,27,34,41,106,114,568,436,65,556,398,115,333,76,47,155,48,32,40,67,197,84,59,369,37,71,157,131,116,62,73,89,133,106,36,11,17,30,89,133,109,104,104,29,237,248,19,74,21,23,49,54,50,98,99,106,113,171,8,50]
    },
    {
      "start":"東山トンネル西",
      "end":"東山トンネル東",
      "lat":34.98575,
      "lng":135.77346,
      "delta_lat":[0,0,21,14,103,49,29,84,19,22,21],
      "delta_lng":[0,45,335,106,734,359,218,620,101,64,37]
    },
    {
      "start":"東山トンネル西",
      "end":"東山トンネル東",
      "lat":34.98575,
      "lng":135.77346,
      "delta_lat":[0,15,14,3,12,2,143,3,15,113,17,25],
      "delta_lng":[0,109,117,25,112,15,1070,23,108,838,100,102]
    },
    {
      "start":"京都",
      "end":"東山トンネル西",
      "lat":34.98548,
      "lng":135.75459,
      "delta_lat":[0,9,17,-6,-5,0,-2,0,-1,0,0,-1,0,-1,-1,0,0,0,1,5,12],
      "delta_lng":[0,142,268,235,68,90,156,37,134,27,9,106,8,52,65,14,50,9,36,240,141]
    }
  ]
}