{
  "code":11603,
  "name":"JR東海道本線(神戸線)(大阪～神戸)",
  "color":"#0072BC",
  "symbol":"A",
  "station_list":[
    {"code":1160214,"id":"bc143a","name":"大阪","name_kana":"おおさか","lat":34.702398,"lng":135.495188,"prefecture":27,"numbering":[{"index":"47"}],"lines":[11602,11603,11623,11629],"attr":"heat","postal_code":"530-0001","address":"大阪市北区梅田３丁目"},
    {"code":1160302,"id":"1c4d70","name":"塚本","name_kana":"つかもと","lat":34.71271,"lng":135.468843,"prefecture":27,"numbering":[{"index":"48"}],"lines":[11603],"attr":"heat","postal_code":"532-0026","address":"大阪市淀川区塚本２丁目"},
    {"code":1160303,"id":"d0b8be","name":"尼崎(JR)","name_kana":"あまがさき","lat":34.731791,"lng":135.431685,"prefecture":28,"numbering":[{"index":"49"}],"lines":[11603,11625,11629],"attr":"eco","postal_code":"660-0808","address":"兵庫県尼崎市潮江一丁目1-1"},
    {"code":1160304,"id":"b103eb","name":"立花","name_kana":"たちばな","lat":34.737875,"lng":135.399571,"prefecture":28,"numbering":[{"index":"50"}],"lines":[11603],"attr":"heat","postal_code":"661-0025","address":"尼崎市立花町１丁目"},
    {"code":1160305,"id":"2bde48","name":"甲子園口","name_kana":"こうしえんぐち","lat":34.739052,"lng":135.374426,"prefecture":28,"numbering":[{"index":"51"}],"lines":[11603],"attr":"heat","postal_code":"663-8113","address":"西宮市甲子園口２丁目"},
    {"code":1160306,"id":"f33d26","name":"西宮(JR)","name_kana":"にしのみや","lat":34.738985,"lng":135.348703,"prefecture":28,"numbering":[{"index":"52"}],"lines":[11603],"attr":"heat","postal_code":"662-0911","address":"兵庫県西宮市池田町9-3"},
    {"code":1160316,"id":"ae2bd9","name":"さくら夙川","name_kana":"さくらしゅくがわ","lat":34.739079,"lng":135.331093,"prefecture":28,"numbering":[{"index":"53"}],"lines":[11603],"attr":"heat","postal_code":"662-0045","address":"西宮市安井２７９８番地"},
    {"code":1160307,"id":"77d319","name":"芦屋(JR)","name_kana":"あしや","lat":34.734207,"lng":135.307102,"prefecture":28,"numbering":[{"index":"54"}],"lines":[11603],"attr":"cool","postal_code":"659-0093","address":"兵庫県芦屋市船戸町1-30"},
    {"code":1160308,"id":"dc1e78","name":"甲南山手","name_kana":"こうなんやまて","lat":34.730616,"lng":135.292788,"prefecture":28,"numbering":[{"index":"55"}],"lines":[11603],"attr":"cool","postal_code":"658-0001","address":"神戸市東灘区森北町"},
    {"code":1160309,"id":"fcd389","name":"摂津本山","name_kana":"せっつもとやま","lat":34.726661,"lng":135.27699,"prefecture":28,"numbering":[{"index":"56"}],"lines":[11603],"attr":"cool","postal_code":"658-0072","address":"神戸市東灘区岡本１丁目"},
    {"code":1160310,"id":"e9e90a","name":"住吉(JR)","name_kana":"すみよし","lat":34.719595,"lng":135.261859,"prefecture":28,"numbering":[{"index":"57"}],"lines":[11603,99649],"attr":"eco","postal_code":"658-0051","address":"神戸市東灘区住吉本町一丁目2-9"},
    {"code":1160311,"id":"33e613","name":"六甲道","name_kana":"ろっこうみち","lat":34.714945,"lng":135.238588,"prefecture":28,"numbering":[{"index":"58"}],"lines":[11603],"attr":"eco","postal_code":"657-0027","address":"神戸市灘区永手町４丁目"},
    {"code":1160317,"id":"2a9a71","name":"摩耶","name_kana":"まや","lat":34.708667,"lng":135.225167,"prefecture":28,"numbering":[{"index":"59"}],"lines":[11603],"attr":"eco","postal_code":"657-0841","address":"神戸市灘区灘南通六丁目"},
    {"code":1160312,"id":"55a08c","name":"灘","name_kana":"なだ","lat":34.705918,"lng":135.216578,"prefecture":28,"numbering":[{"index":"60"}],"lines":[11603],"attr":"eco","postal_code":"657-0846","address":"神戸市灘区岩屋北町７丁目"},
    {"code":1160313,"id":"60c77a","name":"三ノ宮","name_kana":"さんのみや","lat":34.694766,"lng":135.195058,"prefecture":28,"numbering":[{"index":"61"}],"lines":[11603],"attr":"eco","postal_code":"651-0097","address":"神戸市中央区布引町"},
    {"code":1160314,"id":"ffc8f3","name":"元町(兵庫)","name_kana":"もとまち","lat":34.689602,"lng":135.187401,"prefecture":28,"numbering":[{"index":"62"}],"lines":[11603,35001,99630],"attr":"eco","postal_code":"650-0014","address":"神戸市中央区元町高架通り"},
    {"code":1160315,"id":"29a3a5","name":"神戸(兵庫)","name_kana":"こうべ","lat":34.679453,"lng":135.178221,"prefecture":28,"numbering":[{"index":"63"}],"lines":[11603,11608],"attr":"eco","postal_code":"650-0025","address":"神戸市中央区相生町３丁目"}
  ],
  "north":34.73908,
  "south":34.67787,
  "east":135.49925,
  "west":135.17806,
  "polyline_list":[
    {
      "start":"神戸",
      "end":"大阪",
      "lat":34.67787,
      "lng":135.17806,
      "delta_lat":[0,270,96,107,53,38,36,25,25,42,80,92,90,52,4,25,27,18,34,5,21,33,25,29,30,60,49,77,37,41,28,20,247,25,27,27,50,61,57,91,237,36,34,34,33,27,20,13,16,14,98,20,25,0,20,38,16,4,13,61,16,54,95,41,15,70,0,27,22,21,27,37,11,5,4,60,19,29,5,29,118,31,88,14,88,62,30,32,26,16,16,24,56,18,1,16,9,4,4,-2,-4,-2,-10,-2,-7,-6,-1,3,15,2,6,17,27,21,5,18,15,59,2,36,64,35,104,5,15,4,14,118,26,14,3,13,4,22,17,11,11,1,12,2,25,7,43,57,119,30,10,25,22,7,21,37,7,2,49,27,181,15,12,26,22,30,10,29,13,12,13,7,49,35,32,21,58,10,72,80,24,14,8,7,4,4,0,-2,0,2,0,1,0,1,0,0,0,0,0,-1,0,-1,0,0,0,-2,0,0,0,0,0,0,0,-2,0,0,2,2,2,2,0,0,1,-1,-1,-2,-1,-2,0,0,-2,-3,-4,-5,-11,-30,-7,-36,-29,-29,-6,-23,-5,-36,-5,-58,-64,-43,-9,-48,-28,-41,-46,-88,-2,-39,-37,-30,-11,-7,-38,-58,-7,-8,-7,-36,-31,-27,-22,-43,-14,-18,-23,-25,-37,-35,-15,-25,-34,-37,-41,-13,-43,-61,-55,-106,-273,-187,-33,-4,-70,-273,-31,-72,-87,-65,-22,-168,-251,-42,-273,-89,-21,-33,-68,-7,-20,-21,-29,-1,-11,-3,-9,-9,-13,-89,-3,-15,-7,-33,-7,-13,-3,-31,-18,-9,-5,-1,-3,2,5,17,7,19,9,24,43,44,16,85,9,51,161,21,11,7,52],
      "delta_lng":[0,33,12,13,10,12,18,21,24,49,95,110,111,64,5,35,41,44,96,13,62,75,51,54,56,103,81,118,53,57,33,21,257,26,28,29,58,77,76,129,338,52,50,49,55,49,45,42,57,63,428,91,108,2,91,158,68,15,43,179,45,158,272,114,42,204,2,68,50,49,61,83,26,11,12,160,46,54,10,52,175,44,129,18,125,91,49,60,56,46,54,103,214,68,5,79,58,46,54,63,119,36,230,41,196,127,66,45,87,13,30,79,104,89,23,53,39,104,3,56,103,56,168,7,24,7,23,187,45,24,7,27,8,54,47,39,36,6,43,5,94,27,171,233,464,116,38,98,86,25,81,149,30,6,184,108,719,61,50,100,81,127,64,151,72,80,78,40,270,166,137,78,191,31,238,269,81,53,43,43,62,71,23,61,51,69,108,34,34,265,26,185,251,40,170,106,27,119,79,52,30,182,300,38,186,25,139,37,33,137,284,240,448,625,119,200,144,34,196,129,141,94,354,45,279,26,224,79,68,56,71,169,37,199,152,160,27,122,28,184,32,309,322,238,49,259,143,233,237,467,13,206,224,165,56,38,209,313,40,36,42,199,169,146,109,233,71,76,76,76,85,71,33,51,51,62,52,17,48,68,52,81,243,164,31,3,64,242,26,63,78,58,21,149,223,37,246,77,22,31,66,8,22,27,41,2,20,3,18,21,30,220,9,35,16,84,14,38,6,82,53,35,32,12,38,45,47,57,17,44,22,42,70,63,22,81,9,79,353,43,24,19,163]
    }
  ]
}