{
  "code":11615,
  "name":"JR山陰本線(園部～豊岡)",
  "color":"#878DDC",
  "symbol":"E",
  "station_list":[
    {"code":1161415,"id":"c19ed5","name":"園部","name_kana":"そのべ","lat":35.102167,"lng":135.48347,"prefecture":26,"lines":[11614,11615],"attr":"eco","postal_code":"622-0041","address":"南丹市園部町小山東町溝辺","next":[1161506,9961514,9964002,1161414,1162923,1161502],"voronoi":{"lat":35.012885,"lng":135.434455,"delta_lat":[0,5379,33922,36529,48200,-23023],"delta_lng":[0,-26377,-73561,-5485,87282,86002]}},
    {"code":1161502,"id":"83c876","name":"船岡(京都)","name_kana":"ふなおか","lat":35.133463,"lng":135.491848,"prefecture":26,"lines":[11615],"attr":"heat","postal_code":"622-0031","address":"南丹市園部町船岡","next":[1161503,1161504,1161414,1161413,1161505,1161506,1161415],"voronoi":{"lat":35.136914,"lng":135.416313,"delta_lat":[0,5932,11907,998,-29768,-5506,-6586],"delta_lng":[0,6757,31522,23373,73720,-8848,-40522]}},
    {"code":1161503,"id":"f74131","name":"日吉(京都)","name_kana":"ひよし","lat":35.162151,"lng":135.503432,"prefecture":26,"lines":[11615],"attr":"heat","postal_code":"629-0301","address":"南丹市日吉町保野田","next":[9960710,1161502,9960503,1161413,9960709,1142208,1161504],"voronoi":{"lat":35.155751,"lng":135.477966,"delta_lat":[0,-29768,23129,13161,82382,36228,9045],"delta_lng":[0,73720,75500,12530,17791,6619,-17707]}},
    {"code":1161504,"id":"b127d1","name":"鍼灸大学前","name_kana":"しんきゅうだいがくまえ","lat":35.179141,"lng":135.489899,"prefecture":26,"lines":[11615],"attr":"heat","postal_code":"629-0301","address":"南丹市日吉町保野田小字岩ヶ下９番地の６","next":[1161502,1142208,1142207,1161503,1161505],"voronoi":{"lat":35.154754,"lng":135.454593,"delta_lat":[0,998,134177,6739,23440],"delta_lng":[0,23373,168453,-11530,-55170]}},
    {"code":1161505,"id":"e22500","name":"胡麻","name_kana":"ごま","lat":35.195359,"lng":135.468467,"prefecture":26,"lines":[11615],"attr":"heat","postal_code":"629-0311","address":"南丹市日吉町胡麻","next":[1142205,1142207,1161506,1142203,1161502,1161507,1161504],"voronoi":{"lat":35.154754,"lng":135.454593,"delta_lat":[0,-11907,121472,68801,-659,-9658,-2695],"delta_lng":[0,-31522,44831,65126,6012,35530,5149]}},
    {"code":1161506,"id":"820fbc","name":"下山(京都)","name_kana":"しもやま","lat":35.21226,"lng":135.422673,"prefecture":26,"lines":[11615],"attr":"heat","postal_code":"622-0201","address":"船井郡京丹波町下山","next":[1161508,1161415,1161507,1161509,1161505,1161502,1162923],"voronoi":{"lat":35.13369,"lng":135.300413,"delta_lat":[0,67843,18287,44498,-121472,-5932,-48200],"delta_lng":[0,49276,26348,91864,-44831,-6757,-87282]}},
    {"code":1161507,"id":"bd0cde","name":"和知","name_kana":"わち","lat":35.261101,"lng":135.399015,"prefecture":26,"lines":[11615],"attr":"heat","postal_code":"629-1121","address":"船井郡京丹波町本庄","next":[1142203,1142202,1161508,1161506,1142201,1161505],"voronoi":{"lat":35.264319,"lng":135.467902,"delta_lat":[0,-44498,145696,568,-1558,-31407],"delta_lng":[0,-91864,53556,27869,6856,68709]}},
    {"code":1161508,"id":"cac15e","name":"安栖里","name_kana":"あせり","lat":35.266155,"lng":135.385266,"prefecture":26,"lines":[11615],"attr":"heat","postal_code":"629-1141","address":"船井郡京丹波町安栖里","next":[1161506,1161509,1161507,1162207,1162206,1142201,1161510],"voronoi":{"lat":35.324746,"lng":135.370507,"delta_lat":[0,-123212,18287,145696,215,-9437,-27106],"delta_lng":[0,-20817,26348,53556,-4567,-22499,-30179]}},
    {"code":1161509,"id":"d4f5d5","name":"立木","name_kana":"たちき","lat":35.274256,"lng":135.337318,"prefecture":26,"lines":[11615],"attr":"heat","postal_code":"629-1144","address":"船井郡京丹波町広野","next":[1163008,1161508,1161510,1161506,1163002,1162923,1161511],"voronoi":{"lat":35.170904,"lng":135.256246,"delta_lat":[0,-502,-36146,-566,67843,123212,-89125],"delta_lng":[0,161,43235,772,49276,20817,-93100]}},
    {"code":1161510,"id":"0dc983","name":"山家","name_kana":"やまが","lat":35.29379,"lng":135.318618,"prefecture":26,"lines":[11615],"attr":"cool","postal_code":"629-1271","address":"綾部市上原町戸尻","next":[1161509,1161511,1162205,1162206,1161508],"voronoi":{"lat":35.322386,"lng":135.322868,"delta_lat":[0,-26381,-60384,89125,4443],"delta_lng":[0,-37861,-7601,93100,1842]}},
    {"code":1161511,"id":"59afe4","name":"綾部","name_kana":"あやべ","lat":35.302188,"lng":135.251896,"prefecture":26,"lines":[11615,11622],"attr":"cool","postal_code":"623-0052","address":"綾部市幸通東石ケ坪","next":[1161512,1162205,1161510,1163008,1161509],"voronoi":{"lat":35.170904,"lng":135.256246,"delta_lat":[0,41797,166272,-82969,-60384],"delta_lng":[0,-32394,10384,50772,-7601]}},
    {"code":1161512,"id":"2e167f","name":"高津(京都)","name_kana":"たかつ","lat":35.304982,"lng":135.207158,"prefecture":26,"lines":[11615,11622],"attr":"heat","postal_code":"623-0045","address":"綾部市高津町","next":[1162205,9960808,1161511,1163009,1161513,1163008,9960807],"voronoi":{"lat":35.382554,"lng":135.23328,"delta_lat":[0,-3581,-166272,4141,17354,118786,7713],"delta_lng":[0,956,-10384,-5226,-14511,-17996,10901]}},
    {"code":1161513,"id":"c1a9b5","name":"石原(京都)","name_kana":"いさ","lat":35.300904,"lng":135.180241,"prefecture":26,"lines":[11615,11622],"attr":"heat","postal_code":"620-0804","address":"福知山市字石原","next":[9960807,9960806,9965603,1163009,9965607,1161512,1161514,9965602],"voronoi":{"lat":35.335327,"lng":135.153219,"delta_lat":[0,9126,4837,3693,-118786,43004,27208,22909],"delta_lng":[0,12666,10210,10023,17996,-53066,-2100,958]}},
    {"code":1161514,"id":"19826e","name":"福知山","name_kana":"ふくちやま","lat":35.296143,"lng":135.118564,"prefecture":26,"lines":[11615,11622,11630,99608,99656,99655],"attr":"heat","postal_code":"620-0000","address":"福知山市字天田無番地","next":[9960802,9965602,1161513,1163009],"voronoi":{"lat":35.25075,"lng":135.060699,"delta_lat":[0,48031,5627,-27208],"delta_lng":[0,50182,38068,2100]}},
    {"code":1161515,"id":"e5e3fc","name":"上川口","name_kana":"かみかわぐち","lat":35.329504,"lng":135.073284,"prefecture":26,"lines":[11615],"attr":"eco","postal_code":"620-0916","address":"福知山市六十内","next":[9960802,9960805,9960803,9960804,1161516],"voronoi":{"lat":35.308009,"lng":135.084416,"delta_lat":[0,17615,35654,73467,-186038],"delta_lng":[0,5480,-10506,-57527,24027]}},
    {"code":1161516,"id":"362bdf","name":"下夜久野","name_kana":"しもやくの","lat":35.319893,"lng":134.998868,"prefecture":26,"lines":[11615],"attr":"eco","postal_code":"629-1304","address":"福知山市夜久野町額田","next":[9960910,9960802,9960805,1163006,1161518,1161517,1163009,1163007,1161515],"voronoi":{"lat":35.24458,"lng":135.04539,"delta_lat":[0,-3337,-511,-41092,47486,215575,-2629,-25328,-186038],"delta_lng":[0,-1882,-787,-105935,1166,70394,4608,8910,24027]}},
    {"code":1161517,"id":"d32a2a","name":"上夜久野","name_kana":"かみやくの","lat":35.34182,"lng":134.931718,"prefecture":26,"lines":[11615],"attr":"eco","postal_code":"629-1322","address":"福知山市夜久野町平野","next":[9960916,9960918,9960910,1161523,1161519,9960911,1161516,1161518,1161520],"voronoi":{"lat":35.462532,"lng":134.91688,"delta_lat":[0,12652,1982,-11230,-3235,-215575,124916,63240,6616],"delta_lng":[0,27714,43962,16439,3350,-70394,-46563,-322,1625]}},
    {"code":1161518,"id":"a40fab","name":"梁瀬","name_kana":"やなせ","lat":35.322796,"lng":134.880682,"prefecture":28,"lines":[11615],"attr":"eco","postal_code":"669-5101","address":"朝来市山東町滝田","next":[1163516,1163006,1161516,1161519,1161517,1163517],"voronoi":{"lat":35.191815,"lng":134.929514,"delta_lat":[0,7825,47486,124916,-56586,-95526],"delta_lng":[0,7272,1166,-46563,-35933,51366]}},
    {"code":1161519,"id":"e58f15","name":"和田山","name_kana":"わだやま","lat":35.34141,"lng":134.85137,"prefecture":28,"lines":[11615,11635],"attr":"eco","postal_code":"669-5202","address":"朝来市和田山町東谷","next":[1163517,1161518,1161517,1161520],"voronoi":{"lat":35.331339,"lng":134.812681,"delta_lat":[0,-15883,56586,63240],"delta_lng":[0,42774,35933,-322]}},
    {"code":1161520,"id":"eee9b5","name":"養父","name_kana":"やぶ","lat":35.371306,"lng":134.811726,"prefecture":28,"lines":[11615],"attr":"eco","postal_code":"667-0126","address":"養父市堀畑","next":[1163516,1161523,1161521,1161517,1163517,1161519],"voronoi":{"lat":35.441899,"lng":134.892692,"delta_lat":[0,-2868,-119855,51,12113,103943],"delta_lng":[0,-30593,-169887,83231,37239,78385]}},
    {"code":1161521,"id":"6e5000","name":"八鹿","name_kana":"ようか","lat":35.414287,"lng":134.781403,"prefecture":28,"lines":[11615],"attr":"cool","postal_code":"667-0021","address":"養父市八鹿町八鹿","next":[1161523,9970109,1163515,1161520,1161522,1163516],"voronoi":{"lat":35.317291,"lng":134.683087,"delta_lat":[0,-6219,110704,25117,-7862,-119855],"delta_lng":[0,-80863,-19948,245218,34604,-169887]}},
    {"code":1161522,"id":"16e225","name":"江原","name_kana":"えばら","lat":35.469477,"lng":134.77575,"prefecture":28,"lines":[11615],"attr":"cool","postal_code":"669-5311","address":"豊岡市日高町日置","next":[9970109,1161611,1161523,1161602,1161608,1161521,1161607],"voronoi":{"lat":35.529321,"lng":134.674501,"delta_lat":[0,-82962,-10500,-14084,25117,94946,4303],"delta_lng":[0,-90436,-6424,4635,245218,-104610,-21772]}},
    {"code":1161523,"id":"d67660","name":"国府(兵庫)","name_kana":"こくふ","lat":35.496213,"lng":134.800016,"prefecture":28,"lines":[11615],"attr":"heat","postal_code":"669-5331","address":"豊岡市日高町上石","next":[1161602,1161521,1161524,1161522,1161520,1161517,9960918],"voronoi":{"lat":35.441899,"lng":134.892692,"delta_lat":[0,-2868,7862,94946,60,-31472,-47894],"delta_lng":[0,-30593,-34604,-104610,7810,109551,76635]}},
    {"code":1161524,"id":"0e175d","name":"豊岡(兵庫)","name_kana":"とよおか","lat":35.543825,"lng":134.813694,"prefecture":28,"lines":[11615,11616,99609,99654],"attr":"heat","postal_code":"668-0031","address":"豊岡市大手町","next":[1161523,9960918,1161602],"voronoi":{"lat":35.541899,"lng":134.730694,"delta_lat":[0,-31472,58817],"delta_lng":[0,109551,-24373]}}
  ],
  "north":35.54576,
  "south":35.10145,
  "east":135.50622,
  "west":134.76943,
  "polyline_list":[
    {
      "start":"豊岡",
      "end":"園部",
      "lat":35.54576,
      "lng":134.81273,
      "delta_lat":[0,-338,-94,-114,-216,-292,-27,-20,-41,-91,-23,-168,-32,-26,-488,-336,-15,-164,-23,-36,-44,-9,-6,-45,-123,-81,-25,-89,-22,-38,-207,-44,-25,-29,-34,-16,-44,-210,-14,-18,-116,-75,-132,-82,-51,-25,-83,-29,-9,-7,-11,-39,-42,-18,-9,-15,-16,-18,-13,-11,-16,-11,-18,-18,-71,-123,-76,-79,-9,-11,-4,-3,-63,-114,-123,-99,-77,-32,-16,-27,-103,-100,-64,-13,-69,-61,-86,-84,-95,-85,-80,-82,-22,-43,-83,-46,-21,-36,-33,-52,-34,-97,-108,-89,-72,-30,-78,-63,-78,-87,-88,-51,-86,-28,-18,-27,-39,-30,-50,-23,-20,-21,-18,-20,-66,-272,-82,-80,-55,-23,-38,-77,-140,-96,-61,-18,-17,-32,-71,-36,-90,-28,-93,-56,-27,-31,-48,-26,-29,-72,-108,-100,-21,-40,-24,-117,-89,-85,-32,-33,-29,-22,-28,-18,-22,-35,-18,-19,-26,-9,-9,-7,-9,-8,-7,-16,-4,-26,-27,-15,-23,-6,-9,-11,-12,-11,-13,-18,-33,-20,-16,-16,-15,-27,-66,-8,-36,-50,-23,-21,-18,-16,-19,-19,-20,-20,-35,-24,-31,-29,-33,-11,-48,-75,-74,-27,-30,-26,-30,-24,-27,-26,-17,-17,-3,-26,-27,-30,-33,-55,-68,-40,-45,-20,-19,-22,-22,-12,-19,-23,-33,-36,-26,-28,-25,-19,-38,-43,-31,-25,-58,-14,-22,-20,-20,-27,-24,-19,-13,-36,-20,-9,-12,-12,-17,-24,-20,-36,-62,-1,-54,0,-86,-86,-18,-18,-18,-63,-40,-31,-44,-27,-29,-23,-20,-22,-13,-14,-27,-29,-39,-80,-94,-23,-21,-28,-93,-29,-23,-33,-52,-52,-36,-30,-26,-46,-34,-15,-17,-22,-22,-35,-18,-17,-13,-38,-17,-15,-40,-42,-32,-94,-84,-86,-53,-34,-71,-39,-22,-15,-14,-18,-16,-15,-9,-43,-29,-23,-45,-37,-42,-43,-47,-43,-49,-6,-26,-6,-2,-5,-11,-6,-14,-22,-7,-5,-13,-9,-12,-15,-13,-13,-10,-15,-14,-52,-30,-20,-24,-33,-24,-54,-51,-36,-46,-23,-46,-47,-26,-23,-15,-25,-13,-43,-45,-56,-76,-41,-26,-36,-69,-25,-58,-29,-37,-21,-21,-29,-49,-29,-34,-60,-38,-89,-1,-73,-72,-67,-76,-13,-44,-26,-27,-67,-65,-29,-19,-22,-25,-58,-78,-91,-57,-11,-13,-2,-90,-73,-82,-57,-34,-20,-16,-34,-71,-19,-8,-4,-14,-13,-72,-49,-19,-59,-32,-22,-16,-13,-21,-25,-76,-60,-60,-22,-25,-15,-47,-26,-60,-118,-84,-98,-23,-33,-67,-100,-73,-4,-32,-21,-16,-30,-4,-4,-8,-8,-24,-26,-12,-21,-22,-22,-10,-13,-7,-10,-12,-20,-31,-28,-53,-12,-62,-11,-1,-4,-31,-3,-15,-11,-49,-45,-18,-15,-36,-37,-59,-117,-56,-11,-69,-23,-98,-5,-67,-159,-36,-34,-24,-19,-26,-15,-9,-54,-22,-19,-15,-13,-1,-67,-33,-115,-13,-85,-25,-99,-83,-5,-21,-24,-25,-32,-42,-27,-42,-32,-32,-21,-8,-4,2,3,2,9,33,61,54,13,27,111,72,58,61,36,157,40,29,67,59,15,30,20,45,435,48,2,0,83,65,5,34,25,72,101,14,71,49,9,25,45,30,61,61,67,32,29,17,13,6,4,1,-1,-1,-1,-5,-13,-10,-29,-24,-20,-24,-32,-94,-61,-51,-36,-45,-26,-25,-13,-14,-9,-18,0,-5,-9,-148,-17,-39,-4,-37,-37,-6,-11,-36,-27,-27,-80,-34,-44,-27,-26,-64,-16,-13,-8,-17,-38,-20,-14,-10,-14,-2,-12,-26,-63,-2,-28,-71,-136,-19,-18,-19,-17,-12,-31,-4,-4,-4,0,-6,2,3,15,50,50,9,2,-4,-4,-12,-17,-23,-36,-29,-18,-16,-22,-14,-33,-24,-8,-19,0,4,3,-3,-18,-41,-26,-15,-68,-7,-18,-13,-3,1,2,5,4,8,19,83,27,2,2,-2,-9,-3,-35,-74,-9,-4,-5,-2,-3,4,5,5,0,-1,-2,-1,-9,-5,-5,-4,-11,-13,-5,-5,-1,0,0,2,0,4,4,5,11,6,9,5,20,5,11,9,20,6,19,8,1,6,2,0,-9,-8,-5,-2,-9,-15,-19,-9,-18,-10,-5,3,9,6,20,20,5,15,3,37,8,19,7,5,7,2,6,3,1,0,-2,-2,2,5,6,7,17,10,13,25,22,66,42,16,12,14,1,6,14,9,6,8,1,-1,-3,-6,-12,-3,-17,-9,-4,4,0,0,-4,-8,-21,-45,-19,-6,-2,-7,-6,-1,-1,0,6,5,3,1,11,2,19,8,1,31,6,19,6,4,0,-9,-2,1,4,15,10,15,2,2,0,1,3,8,11,11,25,13,45,29,82,12,18,46,23,30,20,24,18,5,19,14,20,9,7,5,0,2,2,0,2,-2,0,2,2,4,1,7,4,4,7,7,8,8,8,14,45,26,8,8,6,-1,-1,-8,-1,-3,-14,-2,-27,-33,-23,-27,-1,-11,-1,-38,-9,-1,-2,-2,-13,-7,-6,-8,-90,-11,-27,-105,-9,-301,-7,-11,-14,-7,-6,-5,-5,-6,-6,-8,-12,-18,-17,-15,-30,-29,-11,-26,-34,-30,-26,-54,-187,-24,-95,-34,-26,-24,-49,-286,-49,-65,-76,-1,-132,-134,-60,-42,-9,-414,-2,-16,-108,-61,-15,-22,-23,-8,-28,-11,-3,-28,-34,-22,-7,-6,-15,-21,-9,-3,-25,-15,-2,-19,-2,-2,-10,-30,-13,-63,-9,-47,-20,-5,-15,-4,-3,-9,-5,-1,-1,2,2,5,2,5,6,1,5,2,1,6,8,1,8,5,2,2,7,7,2,11,3,2,1,8,2,2,0,2,3,13,4,2,16,2,9,16,3,4,16,2,9,0,6,0,3,2,11,6,25,5,5,2,33,0,2,21,0,1,1,4,13,10,13,8,60,1,10,9,3,12,6,8,8,10,13,8,3,0,22,59,31,15,37,18,20,27,19,2,32,21,13,2,9,0,7,10,20,1,4,0,0,0,-2,2,0,1,0,2,6,1,15,0,18,11,12,9,22,6,12,16,15,2,-2,-2,0,-5,-8,-7,0,-2,-5,-3,-4,-29,-18,-7,-11,-16,-1,-10,0,-15,0,-1,-19,-1,-6,-8,-5,-3,-7,-2,-2,0,-19,-8,0,-2,-3,-2,-2,-6,-3,-3,-3,-3,-2,-1,-1,-2,-1,0,-1,-10,-2,-2,-3,-13,-4,-2,-5,-15,-10,-25,-9,-13,-8,-6,-12,-10,-16,-27,-23,-9,-41,-26,-92,-59,-165,-61,-22,-19,-58,-53,-56,-38,-68,-19,-19,-29,-25,-24,-55,-14,-10,-37,-13,-9,-18,-9,-10,-6,-6,-5,-2,-11,-3,0,5,-2,-11,-5,-9,-4,-12,-27,-2,-2,-4,-3,-1,-3,-16,-1,-4,-4,-4,-14,-39,-37,-34,-40,-29,-25,-20,-20,-7,-13,-9,-1,1,7,34,53,65,28,19,15,14,9,9,7,40,71,14,20,32,2,1,1,6,10,11,11,9,22,19,22,168,130,68,32,17,10,9,8,5,2,1,1,-2,-4,-4,-20,-14,-11,-7,-25,-27,-4,0,-26,-23,-30,-44,-38,-38,-85,-38,-63,-23,-47,-42,-60,-57,-85,-54,-33,-55,-52,-33,-32,-27,-60,-105,-50,-55,-64,-80,-65,-40,-12,-16,-28,-21,-64,-54,-20,-32,-24,-110,-11,-17,-23,-21,-4,-17,-8,-4,-4,-1,-8,-28,-32,-7,-30,-89,-18,-18,-56,-34,-49,-16,-8,-5,-3,-2,2,7,1,10,24,41,76,27,19,17,10,13,20,6,0,-6,-6,-14,-25,-15,-17,-32,-23,-38,-21,-48,-35,-22,-10,-6,-4,-18,-13,-12,-8,-31,-19,-10,-1,-10,-1,-4,-4,-3,0,7,-2,0,-5,-2,-1,-6,-9,-11,-33,-20,-64,-66,-84,-24,-15,-12,-11,-5,-5,-2,5,16,31,22,50,11,21,26,32,33,65,65,29,27,10,10,0,2,-3,-4,-13,-18,-11,-2,-8,-11,-10,-7,-7,-9,-13,-11,-14,-13,-27,-45,-20,-36,-25,-31,-25,-35,-30,-31,-31,-41,-86,-76,-37,-25,-26,-21,-26,-47,-16,-16,-15,-52,-40,-53,-8,-6,-7,-4,-5,-5,-6,-3,-4,-4,-10,-5,-12,-9,-11,-7,-60,-46,-26,-27,-41,-5,-3,-3,-6,-6,-5,-9,-7,-32,-17,-20,-27,-53,-93,-13,-27,-33,-54,-21,-33,-45,-13,-13,-14,-7,-20,-20,-13,-14,-18,-41,-21,-30,-28,-28,-37,-28,-21,-37,-60,-57,-28,-36,-53,-18,-23,-20,-18,-16,-31,-25,-82,-61,-76,-53,-12,-27,-43,-36,-64,-47,-29,-48,-27,-44,-33,-39,-34,-28,-41,-84,-39,-18,-64,-40,-25,-27,-45,-34,-34,-22,-26,-29,-37,-30,-50,-26,-28,-42,-67,-59,-31,-24,-35,-29,-33,-17,-16,-11,-19,-27,-31,-51,-38,-2,-63,-21,-35,-32,-9,-47,-51,-5,-50,-17,-34,-19,-36,-68,-39,-48,-57,-39,-32,-15,-11,-8,-25,-27,-16,-29,-15,-15,-6,-11,-9,-20,-12,-11,-22,-27,-42,-21,-54,-27,-19,-20,-17,-13,-11,-27,-24,-34,-32,-26,-36,-4,-18,-18,-12,-24,-12,-9,-13,-7,-6,-15,-10,-1,-12,-12,-15,-11,-5,-9,-4,-2,-1,-2,0,-2,-2,-2,0,-2,-2,0,-2,0,-5,-1,-1,-2,-4,-5,-8,-13,-11,-15,-15,-14,-16,-20,-23,-23,-13,-15,-32,-40,-32,-37,-28,-24,-22,-17,-28,-14,-10,-10,-13,-9,-15,-23,-21,-6,-16,-23,-17,-29,-10,-26,-15,-18,-9,-9,-7,-9,-5,-7,-8,-16,-11,-2,-4,-8,-15,-13,-17,-36,-26,-27,-31,-27,-25,-20,-24,-25,-50,-8,-16,-11,-11,-5,-5,0,-10,-10,-8,-8,-5,-8,-6,-5,-7,-6,-5,-9,-10,-12,-9,-13,-16,-5,-24,-22,-27,-20,-26,-33,-31,-33,-44,-3,-56,-25,-52,-40,-48,-28,-54,-50,-50,-38,-43,-50,-55,-45,-22,-20,-26,-35,-36,-24,-25,-21,-29,-47,-40,-31,-38,-49,-59,-18,-24,-22,-25,-9,-9,-14,-24,-47,-6,-55,-31,-22,-16,-25,-16,-13,-14,-18,-17,-11,-9,-15,-12,-9,-16,-17,-16,-18,-23,-22,-27,-38,-38,-23,-27,-33,-20,-20,-24,-25,-15,-27,-28,-49,-38,-29,-38,-144,-28,-69,-34,-25,-29,-22,-20,-9,-8,-6,-30,-29,-28,-58,-68,-51,-80,-24,-96,-64,-10,-26,-57,-11,-13,-11,-8,-12,-9,-7,-13,-54,-20,-29,-6,-160,-100,-65,-63,-57,-48,-27,-15,-23,-20,-134,-150,-7,-29,-32,-38,-41,-23,-44,-33,-31,-23,-15,-8,-172,-28,-17,-6,-9,-11,-11,-16,-21,-12,-21,-22,-45,-29,-11,-20,-31,-53,-1,-20,-43,-45,-6,-12,-33,-4,-39,-26,-18,-20,-43,-23,-17,-11,-18,-16,-45,-27,-120,-97,-5,-60,-9,-4,-1,-3,-15,-60,-2,-40,-40,-34,-13,-47,-55,-55,-119,-32,-13,-87,-78,-55,-126,-34,-25,-47,-41,-20,-46,-4,-130,-99,-29,-19,-20,-31,-31,-27,-20,-14,-6,-62,-41,-10,-23,-3,-73,-1,-58,-127,-11,-30,-21,-4,-63,-19,-110,-129,-17,-29,-20,-6,-34,-25,-7,-44,-38,-36,-21,-20,-17,-34,-11,-18,-34,-35,-7,-11,-39,-19,-144],
      "delta_lng":[0,164,44,54,109,142,11,5,8,9,3,15,3,2,36,21,1,11,0,0,-3,-1,-1,-10,-32,-22,-8,-24,-8,-10,-56,-12,-9,-17,-25,-16,-41,-214,-14,-18,-119,-77,-134,-96,-62,-33,-116,-40,-13,-15,-18,-91,-113,-42,-20,-22,-27,-26,-15,-12,-13,-10,-14,-12,-40,-66,-42,-42,-6,-6,-2,-2,-35,-62,-64,-52,-48,-21,-14,-31,-113,-110,-67,-14,-77,-66,-93,-90,-100,-89,-89,-88,-26,-47,-91,-49,-22,-40,-34,-56,-31,-82,-88,-72,-60,-25,-63,-54,-64,-73,-73,-44,-76,-19,-11,-20,-31,-21,-31,-15,-12,-11,-9,-5,-19,-77,-24,-25,-15,-6,-11,-19,-27,-22,-11,-3,-5,-5,-14,-7,-24,-10,-38,-24,-12,-4,1,2,4,15,30,29,10,17,10,47,36,36,17,19,18,17,24,18,26,48,26,34,47,20,23,22,26,29,28,73,22,157,165,101,132,27,34,29,27,23,21,27,45,24,18,15,14,24,48,6,28,38,18,14,12,8,9,5,4,1,1,0,-5,-4,-3,-3,-12,-18,-12,-4,-5,-3,-1,-2,2,4,3,6,1,9,13,16,22,38,54,31,34,12,11,10,9,3,5,3,4,3,0,-1,-5,-6,-15,-21,-16,-17,-44,-16,-23,-26,-24,-39,-42,-40,-29,-88,-51,-20,-25,-19,-24,-27,-20,-32,-59,-2,-51,-1,-80,-79,-17,-17,-17,-58,-36,-29,-32,-18,-16,-10,-7,-7,-1,-3,-5,-6,-7,-16,-19,-2,-2,1,19,8,8,16,27,26,21,18,16,40,28,16,21,36,37,58,29,25,16,45,19,14,33,30,22,70,60,60,35,21,51,33,19,17,18,26,37,37,26,119,77,60,125,95,119,112,147,166,179,24,102,35,24,150,170,110,103,123,50,33,43,26,29,27,25,22,17,22,18,59,28,15,18,16,7,15,7,3,-3,-5,-13,-17,-14,-13,-12,-23,-9,-39,-39,-45,-63,-29,-15,-18,-29,-8,-17,-4,-2,0,2,5,13,10,16,35,24,54,2,42,44,40,45,10,31,19,20,51,48,27,19,23,32,75,108,133,80,16,16,5,130,107,117,94,63,43,35,86,166,48,15,9,18,21,100,76,28,107,44,27,15,13,17,17,46,40,44,17,24,17,43,24,53,113,75,90,24,41,85,124,91,7,45,37,30,68,15,12,25,29,130,145,70,143,143,133,50,57,38,29,26,51,62,48,92,24,117,17,4,7,52,6,27,15,69,62,18,21,28,24,29,102,48,13,91,22,81,3,57,136,38,41,31,39,59,45,33,188,69,61,39,22,5,101,46,167,19,97,28,117,98,6,28,33,33,43,56,36,66,66,92,86,61,89,77,58,13,58,117,198,156,27,53,189,117,96,100,61,201,55,37,89,76,18,41,21,43,350,40,0,2,67,58,5,43,42,154,236,25,100,81,14,36,72,51,89,87,103,53,50,44,48,47,147,155,193,68,77,44,36,27,50,37,24,18,15,33,20,23,21,37,33,35,28,50,69,142,4,22,22,159,18,34,4,21,15,0,2,1,3,-3,-23,-4,1,3,9,41,15,14,8,26,65,54,62,68,98,6,44,63,116,4,48,104,145,21,21,37,46,52,218,28,26,20,7,51,43,24,51,134,138,41,46,47,42,39,47,42,60,48,30,35,49,56,169,132,47,116,29,89,81,34,64,130,75,44,199,22,56,50,33,38,75,145,64,34,59,217,98,40,18,56,58,18,170,338,35,32,97,87,111,108,167,96,56,22,17,6,46,25,22,20,46,92,37,52,46,29,45,56,19,45,38,26,44,23,35,18,81,22,41,41,75,24,74,36,4,30,20,24,113,51,27,13,41,50,53,24,54,58,47,45,50,25,48,35,12,27,5,60,14,44,18,14,28,5,34,15,19,91,45,42,59,32,26,25,42,18,18,26,21,67,41,18,15,25,4,7,35,28,26,50,30,39,19,46,48,16,77,41,46,161,14,29,38,30,50,90,45,17,10,41,46,11,63,35,43,25,7,11,49,0,84,38,3,134,28,79,46,45,33,85,30,33,15,77,42,60,32,78,16,16,52,57,41,25,45,23,78,62,192,29,40,105,44,55,34,45,29,11,35,30,54,31,46,30,16,6,55,137,89,178,228,58,7,75,13,48,34,22,30,28,30,28,25,53,149,91,30,39,50,55,19,36,9,15,53,6,90,111,80,88,2,38,1,132,25,7,5,7,33,14,10,15,127,14,32,123,10,365,11,28,48,44,55,57,72,31,31,22,28,36,28,18,28,21,7,10,7,4,2,1,-13,0,-8,-1,1,4,12,96,16,20,26,1,44,44,20,12,4,134,1,6,34,22,4,9,9,5,17,9,1,22,38,27,9,10,22,41,22,5,72,57,9,86,0,12,37,126,51,251,38,201,101,36,83,28,14,65,54,25,68,24,38,75,30,51,48,21,38,15,7,71,89,15,99,45,43,12,76,75,24,135,49,7,20,112,26,21,6,38,20,174,47,27,197,36,114,195,35,66,187,23,109,9,66,15,33,18,140,77,309,48,73,26,424,6,17,251,13,6,18,54,140,75,71,51,281,8,45,45,14,58,25,37,40,40,46,25,10,1,71,191,91,41,108,48,50,71,54,0,98,63,45,11,34,6,27,56,133,23,53,30,42,56,171,96,133,64,5,69,128,41,170,17,175,99,93,81,223,59,116,139,133,40,34,22,7,28,86,84,9,5,67,31,55,316,206,89,119,191,27,106,9,157,8,3,223,19,66,98,48,26,100,7,29,7,221,94,5,15,39,13,28,75,38,24,48,9,35,15,18,15,1,14,4,113,24,19,36,150,48,33,54,164,123,265,78,133,50,25,54,33,40,51,38,14,49,24,81,58,148,56,18,13,26,14,16,5,-2,-1,1,2,4,11,30,9,6,32,12,12,22,14,16,15,17,13,17,56,27,60,44,27,63,26,29,14,34,89,9,10,14,17,21,37,419,77,76,24,22,61,141,130,134,166,121,102,95,89,49,85,77,98,60,42,97,129,144,66,61,67,63,49,41,34,201,321,109,166,230,22,6,7,45,75,86,53,40,52,41,37,279,216,120,54,31,25,27,29,26,31,35,18,28,30,33,94,61,38,18,44,30,4,7,22,17,19,24,15,14,31,18,39,18,42,32,45,39,47,21,14,19,14,9,3,0,-5,-13,-6,-10,-20,-33,-32,-20,-4,-5,-4,-1,8,14,9,23,21,109,14,19,32,32,4,39,17,11,15,5,41,131,174,34,153,406,75,47,110,73,122,48,30,21,21,22,47,35,6,27,50,61,106,49,35,42,46,68,141,62,32,44,25,42,58,23,18,34,25,44,29,56,47,32,19,9,6,42,30,35,30,114,73,35,7,52,11,28,57,75,137,161,38,1,134,97,58,54,36,31,60,29,70,66,81,26,24,21,35,27,32,50,57,67,108,69,176,43,61,61,57,60,115,114,57,57,29,40,36,38,67,24,45,51,27,5,17,18,17,8,10,9,11,8,9,8,13,15,4,5,1,-3,-9,-15,-11,-3,0,7,24,22,9,12,15,15,25,47,21,22,23,98,75,102,17,9,17,12,10,13,13,13,14,12,42,27,71,50,40,23,144,109,58,66,97,11,8,7,10,11,9,11,10,33,13,12,19,34,65,10,18,28,42,15,24,38,9,12,12,9,16,12,8,9,8,16,5,7,0,-3,-13,-16,-14,-35,-55,-56,-28,-36,-52,-21,-25,-17,-14,-9,-15,-7,-16,-11,-13,-9,-1,-5,-8,-7,-10,-9,-6,-8,-4,-9,-6,-1,2,7,10,24,11,5,18,14,9,15,26,20,22,14,13,15,16,11,19,12,10,16,24,23,11,7,7,5,1,0,2,0,1,-3,-2,2,0,0,5,3,9,5,2,9,11,0,14,8,14,12,24,45,25,29,38,25,24,13,9,9,32,42,27,50,26,24,9,21,21,36,18,14,21,26,34,20,43,23,13,20,18,15,16,38,36,60,48,40,57,8,28,27,23,44,22,22,35,18,21,65,37,7,42,47,60,37,33,54,22,65,62,58,63,50,56,32,42,54,55,37,34,55,89,48,35,39,30,34,30,35,31,29,26,23,18,22,19,18,10,11,18,24,22,25,17,14,15,13,24,13,10,11,17,13,30,48,49,11,37,55,40,64,24,54,38,39,28,27,25,29,23,75,54,97,91,21,36,49,68,49,61,118,84,91,98,86,83,67,79,75,162,31,54,44,50,27,44,1,69,74,61,50,39,60,44,36,44,35,24,24,29,24,20,18,20,8,28,23,25,15,26,27,24,25,31,1,40,20,37,28,35,19,40,37,35,27,33,36,39,33,18,15,18,26,28,22,23,23,28,45,37,28,36,47,54,15,22,21,24,9,7,10,11,20,2,26,17,14,11,21,18,15,17,26,22,18,15,22,15,11,18,17,12,15,13,11,19,21,26,15,18,21,16,17,19,17,9,11,4,5,4,3,3,16,6,38,31,31,60,51,53,23,22,16,65,54,40,66,57,33,50,15,56,39,7,18,37,5,3,2,1,0,-1,-2,-3,-21,-9,-11,-3,-71,-44,-27,-25,-25,-20,-15,-7,-15,-16,-127,-143,-7,-36,-38,-37,-36,-15,-28,-15,-10,-5,-3,0,-13,-1,-3,0,-2,-4,-6,-11,-17,-10,-23,-21,-46,-26,-11,-15,-18,-21,-3,-8,-19,-15,-3,-6,-14,-2,-17,-11,-8,-11,-28,-16,-13,-10,-19,-17,-56,-31,-143,-118,-8,-71,-9,-7,-2,-3,-17,-72,-3,-49,-37,-25,-11,-38,-44,-44,-97,-26,-10,-71,-62,-42,-101,-25,-22,-37,-35,-12,-22,0,-53,-37,-9,-6,-5,-7,-2,0,3,5,2,22,16,5,9,2,27,1,22,49,4,12,7,3,23,8,41,50,5,0,-2,-1,-8,-6,-1,-9,-9,-8,-2,0,4,12,4,9,24,27,3,9,33,17,127]
    }
  ]
}