{
  "code":11625,
  "name":"JR東西線",
  "color":"#FF1493",
  "symbol":"H",
  "station_list":[
    {"code":1161724,"id":"d1f089","name":"京橋(大阪)","name_kana":"きょうばし","lat":34.696047,"lng":135.534253,"prefecture":27,"numbering":[{"index":"41"}],"lines":[11617,11623,11625,33001,99624],"attr":"cool","postal_code":"536-0015","address":"大阪市城東区新喜多一丁目2-31"},
    {"code":1162502,"id":"bd6bba","name":"大阪城北詰","name_kana":"おおさかじょうきたづめ","lat":34.694283,"lng":135.525538,"prefecture":27,"numbering":[{"index":"42"}],"lines":[11625],"attr":"heat","postal_code":"534-0026","address":"大阪市都島区網島町７番"},
    {"code":1162503,"id":"168e55","name":"大阪天満宮","name_kana":"おおさかてんまんぐう","lat":34.697404,"lng":135.513442,"prefecture":27,"numbering":[{"index":"43"}],"lines":[11625],"attr":"heat","postal_code":"530-0044","address":"大阪市北区東天満２丁目１０番先"},
    {"code":1162504,"id":"2f212c","name":"北新地","name_kana":"きたしんち","lat":34.698323,"lng":135.497038,"prefecture":27,"numbering":[{"index":"44"}],"lines":[11625],"attr":"heat","postal_code":"530-0001","address":"大阪市北区梅田１丁目３番先"},
    {"code":1162505,"id":"585dde","name":"新福島","name_kana":"しんふくしま","lat":34.695094,"lng":135.48593,"prefecture":27,"numbering":[{"index":"45"}],"lines":[11625],"attr":"eco","postal_code":"553-0003","address":"大阪市福島区福島５丁目９番先"},
    {"code":1162506,"id":"047dcc","name":"海老江","name_kana":"えびえ","lat":34.69544,"lng":135.473276,"prefecture":27,"numbering":[{"index":"46"}],"lines":[11625],"attr":"eco","postal_code":"553-0001","address":"大阪市福島区海老江５丁目２番先"},
    {"code":1162507,"id":"0b8724","name":"御幣島","name_kana":"みてじま","lat":34.71259,"lng":135.45568,"prefecture":27,"numbering":[{"index":"47"}],"lines":[11625],"attr":"cool","postal_code":"555-0012","address":"大阪市西淀川区御幣島１丁目８番先"},
    {"code":1162508,"id":"4d5222","name":"加島","name_kana":"かしま","lat":34.727496,"lng":135.454183,"prefecture":27,"numbering":[{"index":"48"}],"lines":[11625],"attr":"cool","postal_code":"532-0031","address":"大阪市淀川区加島３丁目"},
    {"code":1160303,"id":"d0b8be","name":"尼崎(JR)","name_kana":"あまがさき","lat":34.731791,"lng":135.431685,"prefecture":28,"numbering":[{"index":"49"}],"lines":[11603,11625,11629],"attr":"eco","postal_code":"660-0808","address":"兵庫県尼崎市潮江一丁目1-1"}
  ],
  "north":38.26167,
  "south":38.24312,
  "east":140.94933,
  "west":140.83474,
  "polyline_list":[
    {
      "start":"八木山動物公園",
      "end":"荒井",
      "lat":38.24312,
      "lng":140.84364,
      "delta_lat":[0,42,40,60,24,25,28,30,31,19,32,35,27,21,13,12,16,38,88,88,59,50,43,31,17,24,24,29,17,24,25,23,16,21,34,63,70,82,34,30,26,19,35,15,9,5,0,-2,-6,-16,-7,0,7,9,19,85,28,47,50,46,34,58,7,1,1,0,-2,-3,-5,-4,-9,-9,-12,-34,-26,-6,-11,-5,-7,-7,-13,-2,-7,-17,-7,-10,-35,-12,-2,-7,-10,-7,-9,-2,-14,0,5,11,18,20,33,15,9,13,3,0,-2,-7,-10,-15,-15,-25,-18,-13,-5,1,38,35,26,23,8,-1,-12,-30,-18,-28,-27,-34,-30,-71,-33,-33,-30,-13,-23,-20,-5,-20,-12,-28,-40,-36,-30,-33,-33,-68,-40,-44,-30,-40,-18,-10,-11,-11,-19,-13,-17,-26,-42,-23,-9,0,3,9,0,-8,-12,-36,3,10,25,23,30,40,35,45,42,18,3,-7,-24,-6,-30,-28,-3,-8,-22,-15,-52,-17,-41,-42,-251,-57,-27,-24,-23,-7,-5,-4,-14],
      "delta_lng":[0,76,70,106,35,27,21,14,7,0,-3,-14,-17,-20,-14,-19,-27,-91,-224,-218,-147,-127,-106,-76,-39,-36,-26,-20,-10,-7,-5,1,2,6,12,25,29,40,19,23,34,37,79,41,32,36,31,28,36,88,57,51,36,36,58,258,80,116,122,109,83,126,27,18,14,16,15,17,17,10,18,15,18,49,39,13,26,17,27,60,126,16,74,161,38,34,94,35,12,40,92,71,91,21,149,38,62,56,71,81,178,91,48,79,26,22,22,23,16,21,16,28,25,32,35,24,154,144,104,107,61,78,58,125,47,31,13,2,-3,-15,-7,0,5,8,23,36,35,212,64,56,37,19,6,-3,-10,-19,-6,10,20,43,39,38,97,92,164,98,85,62,80,71,49,25,144,270,69,75,89,270,40,38,33,17,10,7,8,24,61,53,53,158,622,93,633,751,94,165,614,80,71,16,17,0,-17,3,4,20,37,29,27,67,184]
    }
  ]
}