{
  "code":11623,
  "name":"JR大阪環状線",
  "color":"#E80000",
  "symbol":"O",
  "station_list":[
    {"code":1160719,"id":"4382c4","name":"天王寺","name_kana":"てんのうじ","lat":34.647844,"lng":135.513227,"prefecture":27,"numbering":[{"index":"01"}],"lines":[11607,11623,11626,99618,99619],"attr":"heat","postal_code":"543-0055","address":"大阪市天王寺区悲田院町"},
    {"code":1160720,"id":"13b494","name":"新今宮","name_kana":"しんいまみや","lat":34.650149,"lng":135.501076,"prefecture":27,"numbering":[{"index":"19"}],"lines":[11607,11623,32001,32007],"attr":"heat","postal_code":"556-0003","address":"大阪市浪速区恵美須西３丁目"},
    {"code":1160721,"id":"71ad14","name":"今宮","name_kana":"いまみや","lat":34.654156,"lng":135.492975,"prefecture":27,"numbering":[{"index":"18"}],"lines":[11607,11623],"attr":"heat","postal_code":"556-0014","address":"大阪市浪速区大国３丁目"},
    {"code":1162304,"id":"233b74","name":"芦原橋","name_kana":"あしはらばし","lat":34.658608,"lng":135.48924,"prefecture":27,"numbering":[{"index":"17"}],"lines":[11623],"attr":"heat","postal_code":"556-0025","address":"大阪市浪速区浪速東１丁目"},
    {"code":1162305,"id":"15780f","name":"大正(大阪)","name_kana":"たいしょう","lat":34.665582,"lng":135.479932,"prefecture":27,"numbering":[{"index":"16"}],"lines":[11623,99624],"attr":"heat","postal_code":"551-0002","address":"大阪市大正区三軒家東１丁目"},
    {"code":1162306,"id":"c54e71","name":"弁天町","name_kana":"べんてんちょう","lat":34.669403,"lng":135.462348,"prefecture":27,"numbering":[{"index":"15"}],"lines":[11623,99621],"attr":"heat","postal_code":"552-0001","address":"大阪市港区波除３丁目"},
    {"code":1162307,"id":"78c266","name":"西九条","name_kana":"にしくじょう","lat":34.68269,"lng":135.466779,"prefecture":27,"numbering":[{"index":"14"}],"lines":[11623,11624,35002],"attr":"heat","postal_code":"554-0012","address":"大阪市此花区西九条１丁目"},
    {"code":1162308,"id":"208900","name":"野田(JR)","name_kana":"のだ","lat":34.689069,"lng":135.474837,"prefecture":27,"numbering":[{"index":"13"}],"lines":[11623],"attr":"heat","postal_code":"553-0001","address":"大阪市福島区海老江一丁目"},
    {"code":1162309,"id":"c12dc0","name":"福島(大阪)","name_kana":"ふくしま","lat":34.697167,"lng":135.486563,"prefecture":27,"numbering":[{"index":"12"}],"lines":[11623,35001],"attr":"eco","postal_code":"553-0003","address":"大阪市福島区福島７丁目"},
    {"code":1160214,"id":"bc143a","name":"大阪","name_kana":"おおさか","lat":34.702398,"lng":135.495188,"prefecture":27,"numbering":[{"index":"11"}],"lines":[11602,11603,11623,11629],"attr":"heat","postal_code":"530-0001","address":"大阪市北区梅田３丁目"},
    {"code":1162311,"id":"f2a00e","name":"天満","name_kana":"てんま","lat":34.704923,"lng":135.512233,"prefecture":27,"numbering":[{"index":"10"}],"lines":[11623],"attr":"eco","postal_code":"530-0034","address":"大阪市北区錦町"},
    {"code":1162312,"id":"fdc409","name":"桜ノ宮","name_kana":"さくらのみや","lat":34.704976,"lng":135.520944,"prefecture":27,"numbering":[{"index":"09"}],"lines":[11623],"attr":"eco","postal_code":"534-0027","address":"大阪市都島区中野町５丁目"},
    {"code":1161724,"id":"d1f089","name":"京橋(大阪)","name_kana":"きょうばし","lat":34.696047,"lng":135.534253,"prefecture":27,"numbering":[{"index":"08"}],"lines":[11617,11623,11625,33001,99624],"attr":"cool","postal_code":"536-0015","address":"大阪市城東区新喜多一丁目2-31"},
    {"code":1162314,"id":"bdef8f","name":"大阪城公園","name_kana":"おおさかじょうこうえん","lat":34.68858,"lng":135.534482,"prefecture":27,"numbering":[{"index":"07"}],"lines":[11623],"attr":"eco","postal_code":"540-0002","address":"大阪市中央区大阪城"},
    {"code":1162315,"id":"f4f805","name":"森ノ宮","name_kana":"もりのみや","lat":34.680412,"lng":135.533996,"prefecture":27,"numbering":[{"index":"06"}],"lines":[11623,99621,99624],"attr":"heat","postal_code":"540-0003","address":"大阪市中央区森ノ宮中央１丁目"},
    {"code":1162316,"id":"be305d","name":"玉造","name_kana":"たまつくり","lat":34.673559,"lng":135.532901,"prefecture":27,"numbering":[{"index":"05"}],"lines":[11623,99624],"attr":"cool","postal_code":"543-0014","address":"大阪市天王寺区玉造元町"},
    {"code":1162317,"id":"14945a","name":"鶴橋","name_kana":"つるはし","lat":34.665264,"lng":135.530133,"prefecture":27,"numbering":[{"index":"04"}],"lines":[11623,31005,99622],"attr":"cool","postal_code":"543-0025","address":"大阪市天王寺区下味原町"},
    {"code":1162318,"id":"a86ee7","name":"桃谷","name_kana":"ももだに","lat":34.658453,"lng":135.527908,"prefecture":27,"numbering":[{"index":"03"}],"lines":[11623],"attr":"cool","postal_code":"543-0033","address":"大阪市天王寺区堂ケ芝１丁目"},
    {"code":1162319,"id":"f65940","name":"寺田町","name_kana":"てらだちょう","lat":34.647957,"lng":135.523437,"prefecture":27,"numbering":[{"index":"02"}],"lines":[11623],"attr":"cool","postal_code":"543-0052","address":"大阪市天王寺区大道４丁目"}
  ],
  "north":34.70661,
  "south":34.64582,
  "east":135.53543,
  "west":135.46051,
  "polyline_list":[
    {
      "start":"新今宮",
      "end":"新今宮",
      "lat":34.65019,
      "lng":135.50066,
      "delta_lat":[0,11,20,33,5,16,7,3,5,1,6,9,7,2,6,18,3,6,9,5,15,17,6,41,31,31,5,4,53,64,9,14,68,7,29,18,49,30,41,1,33,36,6,15,87,2,20,13,46,44,29,42,125,16,19,20,1,34,14,11,16,22,9,12,40,29,29,11,11,71,118,5,15,28,7,7,0,2,7,2,0,2,3,-3,-2,-2,-9,0,-2,-19,-6,-44,-5,-3,-20,-40,-14,-9,-11,-6,-4,-5,2,2,5,6,9,16,14,21,13,4,8,26,35,3,10,25,16,18,13,82,10,11,63,40,45,7,55,52,47,44,35,41,43,47,43,33,41,71,110,40,27,25,32,50,44,109,139,4,60,67,1,23,64,27,59,111,170,36,4,113,3,150,240,31,25,30,7,37,36,32,51,80,7,78,2,106,6,43,89,36,35,70,137,7,18,22,14,11,36,42,37,10,5,20,7,31,36,17,14,25,9,7,2,6,3,1,0,-3,-5,-4,-9,-10,-15,-29,-27,-14,-102,-20,-18,-7,-9,-10,-9,-3,-2,0,1,2,5,5,2,35,11,10,8,1,8,7,14,9,13,13,8,3,3,0,0,-5,-3,-3,-2,-5,-6,-16,-21,-6,-7,-6,-17,-14,-27,-25,-2,-8,-6,-20,-16,-18,-8,-3,-3,-26,-29,-33,-12,-2,-22,-50,-11,-58,-13,-5,-11,-16,-29,-27,-25,-15,-9,-16,-16,-39,-27,-25,-143,-25,-11,-42,-27,-55,-15,-50,-35,-38,-47,-39,-31,-78,-103,-12,-43,-12,-7,-69,-52,-54,-84,-40,-26,-12,-98,-75,-29,-67,-19,-18,-104,-16,-9,-13,-54,-125,-7,-36,-83,-29,-7,-47,-83,-83,-1,-34,-29,-39,-26,-48,-158,-9,-10,-19,-37,-51,-26,-54,-76,-148,-164,-147,-29,-32,-196,-187,-163,-144,-69,-187,-63,-33,-90,-186,-94,-53,-15,-26,-14,-43,-20,-23,-6,-26,-78,-70,-33,-31,-12,-11,-1,-8,-7,3,4,8,18,6,32,12,20,56,3,61,66,17,35,33,6,57],
      "delta_lng":[0,-50,-83,-120,-16,-53,-26,-16,-25,-1,-31,-45,-20,-7,-20,-45,-9,-10,-20,-12,-23,-24,-9,-46,-28,-21,-3,-2,-31,-31,-5,-4,-42,-4,-18,-8,-27,-24,-41,-2,-37,-43,-5,-15,-90,-2,-19,-10,-32,-33,-21,-29,-90,-12,-13,-16,0,-28,-18,-15,-24,-45,-22,-27,-104,-79,-79,-28,-32,-193,-321,-14,-44,-81,-20,-24,-4,0,-43,-32,-3,-4,-71,-26,-3,-16,-37,-1,-11,-47,-12,-97,-12,-4,-45,-88,-30,-20,-31,-17,-21,-55,-41,-22,-42,-20,-29,-34,-23,-29,-17,-5,-8,-23,-25,-2,-7,-15,-12,-9,-9,-48,-6,-5,-34,-23,-24,-5,-31,-26,-19,-14,-7,-4,0,7,7,11,18,35,52,20,15,21,29,49,43,118,146,3,65,75,3,28,82,37,80,147,225,47,5,148,4,194,318,35,27,32,6,37,46,44,100,156,14,156,6,196,10,78,145,59,71,155,249,13,32,35,28,19,70,92,91,24,12,56,12,60,69,31,28,61,37,38,6,40,19,39,116,80,41,46,45,43,35,62,46,26,160,37,36,20,24,37,37,25,20,44,14,11,39,25,9,118,36,38,22,3,24,20,48,24,41,39,35,19,29,4,47,51,19,14,18,17,20,41,43,10,14,9,29,22,43,39,3,12,11,32,25,30,15,5,3,42,50,52,19,2,36,80,18,94,20,5,16,23,29,23,14,8,2,8,9,17,13,11,64,10,5,21,12,25,5,20,12,11,0,-5,-6,-18,-26,-2,-11,-3,-3,-15,-11,-7,-9,-3,-2,-1,-6,-4,-1,-6,-1,-1,-7,-2,-1,0,5,10,0,5,4,0,-1,-8,-21,-27,-1,-11,-10,-13,-7,-13,-33,-1,-1,-5,-15,-27,-12,-19,-27,-44,-50,-48,-9,-9,-65,-61,-55,-46,-24,-60,-21,-10,-30,-61,-32,-18,-5,-14,-9,-30,-15,-20,-6,-21,-82,-82,-49,-57,-32,-33,-6,-35,-29,-77,-34,-31,-72,-18,-124,-38,-80,-229,-85,-257,-275,-70,-146,-144,-25,-225]
    }
  ]
}