{
  "code":11709,
  "id":"5263fd",
  "name":"JR宇野線",
  "name_kana":"じぇいあーるうのせん",
  "station_size":15,
  "company_code":4,
  "station_list":[
    {"code":100306,"id":"a9d3b2","name":"岡山","name_kana":"おかやま","lat":34.666572,"lng":133.918552,"prefecture":33,"lines":[1003,11609,11610,11631,11703,11709,11713,11715],"attr":"heat","postal_code":"700-0024","address":"岡山市駅元町１丁目","next":[9970601,9970602,1171302,1170902,1171516],"voronoi":{"lat":34.681852,"lng":133.910571,"delta_lat":[0,-22452,-1766,11258,6893],"delta_lng":[0,-1602,4326,8102,1502]}},
    {"code":1170902,"id":"d56652","name":"大元","name_kana":"おおもと","lat":34.647571,"lng":133.910795,"prefecture":33,"lines":[11709],"attr":"heat","postal_code":"700-0923","address":"岡山市大元駅前","next":[9970708,9970601,9970709,1170903,1171302,1161002,100306,9970707],"voronoi":{"lat":34.654293,"lng":133.917021,"delta_lat":[0,-27925,18809,9122,5101,-1766,-1476,-431],"delta_lng":[0,7664,-27713,1943,10053,4326,2837,249]}},
    {"code":1170903,"id":"d8a4b9","name":"備前西市","name_kana":"びぜんにしいち","lat":34.631448,"lng":133.899852,"prefecture":33,"lines":[11709],"attr":"cool","postal_code":"700-0953","address":"岡山市西市","next":[9970610,1170904,1170902,1161002,1170913,9970708],"voronoi":{"lat":34.590174,"lng":133.952324,"delta_lat":[0,-7280,48357,13926,-18809,-33273],"delta_lng":[0,-36824,-39183,20655,27713,25950]}},
    {"code":1170904,"id":"3da07f","name":"妹尾","name_kana":"せのお","lat":34.608269,"lng":133.871246,"prefecture":33,"lines":[11709],"attr":"cool","postal_code":"701-0211","address":"岡山市東畦","next":[1170905,1170911,1170903,1161003,1170910,1170912,1170913,1161002],"voronoi":{"lat":34.631586,"lng":133.875255,"delta_lat":[0,-7911,-47402,-2854,1952,988,6536,48357],"delta_lng":[0,-16297,5989,19551,17202,3475,10325,-39183]}},
    {"code":1170905,"id":"2c7d3e","name":"備中箕島","name_kana":"びっちゅうみしま","lat":34.605697,"lng":133.850889,"prefecture":33,"lines":[11709],"attr":"cool","postal_code":"701-0206","address":"岡山市箕島","next":[1170904,1170907,1170908,1170906,1170910,1161003],"voronoi":{"lat":34.576272,"lng":133.864948,"delta_lat":[0,-1357,6556,8002,36239,-2038],"delta_lng":[0,-7669,-7547,-4725,-7294,21246]}},
    {"code":1170906,"id":"d40f1a","name":"早島","name_kana":"はやしま","lat":34.602158,"lng":133.833306,"prefecture":33,"lines":[11709],"attr":"eco","postal_code":"701-0303","address":"都窪郡早島町前潟","next":[1170907,1161004,1170905,1161003],"voronoi":{"lat":34.62775,"lng":133.833791,"delta_lat":[0,-21256,-17021,36239],"delta_lng":[0,-20624,31839,-7294]}},
    {"code":1170907,"id":"0c54df","name":"久々原","name_kana":"くぐはら","lat":34.592158,"lng":133.82796,"prefecture":33,"lines":[11709],"attr":"eco","postal_code":"701-0303","address":"都窪郡早島町前潟","next":[1170906,1170908,1170905,1161004,1161005],"voronoi":{"lat":34.606495,"lng":133.813168,"delta_lat":[0,-17021,-8002,7321,8303],"delta_lng":[0,31839,4725,-54238,1321]}},
    {"code":1170908,"id":"690535","name":"茶屋町","name_kana":"ちゃやまち","lat":34.57694,"lng":133.825906,"prefecture":33,"lines":[11709,11710,99719],"attr":"eco","postal_code":"710-1101","address":"倉敷市茶屋町","next":[1161005,1170907,1170905,1170910,9971914,1170909,9971913],"voronoi":{"lat":34.565777,"lng":133.827394,"delta_lat":[0,20583,2433,-7321,-6556,-896,-9366],"delta_lng":[0,-32916,1016,54238,7547,-826,-25525]}},
    {"code":1170909,"id":"5c15ce","name":"彦崎","name_kana":"ひこさき","lat":34.552035,"lng":133.835045,"prefecture":33,"lines":[11709],"attr":"eco","postal_code":"709-1213","address":"岡山市灘崎町彦崎","next":[9971913,1171002,1170910,1170908,1171003],"voronoi":{"lat":34.538137,"lng":133.833183,"delta_lat":[0,24370,2146,9366,-40853],"delta_lng":[0,-3025,770,25525,-12541]}},
    {"code":1170910,"id":"3a9ee6","name":"備前片岡","name_kana":"びぜんかたおか","lat":34.54381,"lng":133.861837,"prefecture":33,"lines":[11709],"attr":"eco","postal_code":"709-1215","address":"岡山市灘崎町片岡","next":[1170904,1170909,1170908,1170905,1170911,1171003],"voronoi":{"lat":34.533167,"lng":133.843911,"delta_lat":[0,40853,896,1357,-2854,-68580],"delta_lng":[0,12541,826,7669,19551,-28616]}},
    {"code":1170911,"id":"26afc8","name":"迫川","name_kana":"はざかわ","lat":34.536484,"lng":133.879394,"prefecture":33,"lines":[11709],"attr":"cool","postal_code":"709-1211","address":"岡山市灘崎町迫川","next":[1170904,1171003,1171004,1170910,1170912],"voronoi":{"lat":34.48472,"lng":133.867893,"delta_lat":[0,16011,4108,68580,1952],"delta_lng":[0,-11364,-646,28616,17202]}},
    {"code":1170912,"id":"fd60f1","name":"常山","name_kana":"つねやま","lat":34.531374,"lng":133.893096,"prefecture":33,"lines":[11709],"attr":"cool","postal_code":"706-0000","address":"玉野市藤木","next":[9971904,1170915,1170914,1171005,1170904,1171004,1170913,1170911],"voronoi":{"lat":34.48472,"lng":133.867893,"delta_lat":[0,-26570,-239,-5282,31490,4627,87613,-988],"delta_lng":[0,13797,192,5201,18880,1419,-2206,-3475]}},
    {"code":1170913,"id":"1b42cf","name":"八浜","name_kana":"はちはま","lat":34.532039,"lng":133.919504,"prefecture":33,"lines":[11709],"attr":"cool","postal_code":"706-0224","address":"玉野市八浜町大崎","next":[9970610,1170914,1170904,1170903,1170912],"voronoi":{"lat":34.576358,"lng":133.905176,"delta_lat":[0,6536,7280,-3961,-97468],"delta_lng":[0,10325,36824,21151,-66094]}},
    {"code":1170914,"id":"56e854","name":"備前田井","name_kana":"びぜんたい","lat":34.516027,"lng":133.943117,"prefecture":33,"lines":[11709],"attr":"cool","postal_code":"706-0001","address":"玉野市田井","next":[1163117,1163118,1170913,1170912,1170915,9970610],"voronoi":{"lat":34.575593,"lng":134.010824,"delta_lat":[0,-21633,-69841,4627,97468,31],"delta_lng":[0,33595,-138456,1419,66094,12142]}},
    {"code":1170915,"id":"145258","name":"宇野","name_kana":"うの","lat":34.495035,"lng":133.953706,"prefecture":33,"lines":[11709],"attr":"cool","postal_code":"706-0002","address":"玉野市築港１丁目","next":[1180201,1170912,1163116,1180602,1170914,9980201,1180608,9971903,1163117,9980409,1180603,1180607,9971904],"voronoi":{"lat":34.410728,"lng":133.901366,"delta_lat":[0,-8069,-2326,725,26070,25796,33886,19183,43973,3993,-69841,-31490,-28001],"delta_lng":[0,21499,9044,3063,71853,39970,51021,17105,-62508,-7994,-138456,-18880,9088]}}
  ],
  "north":34.66843,
  "south":34.49132,
  "east":133.95392,
  "west":133.82404,
  "polyline_list":[
    {
      "start":"宇野",
      "end":"岡山",
      "lat":34.49132,
      "lng":133.95392,
      "delta_lat":[0,243,84,56,54,61,56,53,55,57,51,53,52,61,28,22,23,184,7,34,23,276,172,162,20,7,174,21,40,67,35,22,26,16,100,23,44,38,29,27,24,3,27,67,38,22,63,51,57,31,9,61,53,125,76,11,70,362,43,105,16,9,36,91,50,24,30,19,29,34,27,29,14,17,8,7,3,2,0,-1,-5,-7,-18,-20,-24,-10,-31,-22,-29,-26,-15,-4,-4,0,-2,-9,-3,-4,-3,-1,0,-7,-3,-11,-4,-11,-16,-11,-3,-33,-5,-6,-54,-18,-12,-12,-7,-9,-5,-4,0,0,0,0,2,2,1,4,2,3,5,1,8,10,11,16,35,3,16,6,16,14,42,7,89,65,36,6,9,63,44,36,10,10,16,7,32,119,9,13,6,27,9,25,47,49,21,41,209,26,34,51,63,48,77,295,258,18,162,14,11,24,9,-2,-5,-13,-59,-44,-34,-13,-6,0,3,5,7,58,95,26,11,18,16,29,9,14,38,50,38,35,67,124,48,36,56,206,5,34,121,39,49,58,85,97,58,329,14,194,260,168,240,529,310,194,255,50,18,123,103,298,86,33,37,54,38,42,37,38,46,32,140,1,88,29,18,1,12,18,10,14,25,38,4,19,12,23,2,7,36,28,1,8,21,8,9,12,22,21,96,28,26,43,17,27,13,7,22,37,11,33,29,21,22,2,34,11,8,17,35,31,31,25,28,161,82,209,56,18,15,139,35,41,93,32,69,21,11,88,6,12,33,40,184,65,158,86,26,72,27,23,134,22,73,209,77,33,6,51,160,58,65,47,32,37,39,35,34,24,55,57,33,57,32,76,13,85,18,109,103,96,147,185,3,118,38,44,27,30,35,38,106,28,25,14,43,51,12,21,21,29,29,20,31,20,13,4,15,24,17,5,3,27,12,24,42,40,31,50,36,291],
      "delta_lng":[0,-2,-7,-5,-8,-14,-17,-18,-15,-21,-20,-22,-25,-29,-14,-11,-13,-99,-3,-17,-10,-131,-80,-76,-10,-4,-81,-11,-19,-41,-27,-20,-25,-11,-97,-22,-45,-37,-30,-27,-22,-4,-27,-67,-32,-17,-42,-30,-29,-16,-3,-23,-19,-45,-28,-4,-30,-148,-10,-22,-3,-2,-6,-15,-6,-5,-9,-8,-18,-27,-31,-44,-31,-38,-22,-31,-18,-20,-20,-22,-35,-37,-75,-83,-98,-42,-128,-85,-116,-112,-63,-33,-122,-23,-87,-287,-105,-142,-112,-24,-23,-196,-42,-103,-23,-63,-62,-42,-12,-80,-15,-12,-114,-38,-39,-42,-27,-48,-39,-44,-13,-60,-13,-26,-83,-52,-55,-142,-42,-17,-41,-11,-40,-46,-47,-56,-108,-8,-42,-17,-40,-38,-117,-18,-239,-175,-93,-18,-26,-164,-118,-95,-28,-26,-44,-19,-83,-319,-25,-35,-15,-73,-26,-69,-127,-131,-46,-101,-552,-60,-74,-86,-102,-77,-121,-468,-406,-30,-253,-25,-26,-92,-73,-60,-41,-51,-194,-147,-113,-62,-44,-41,-32,-38,-33,-180,-277,-85,-33,-61,-40,-58,-18,-23,-58,-67,-44,-32,-49,-82,-37,-16,-29,-123,-4,-19,-57,-14,-11,-8,-4,5,5,51,2,23,41,29,33,76,50,25,40,7,3,18,16,46,17,10,16,29,27,37,43,52,73,50,217,3,143,56,45,2,38,78,71,111,324,436,36,242,152,281,26,105,438,331,28,78,238,67,61,54,69,57,220,58,56,92,39,60,29,16,45,82,25,71,64,40,38,6,52,14,13,24,48,35,36,25,31,165,82,216,55,18,15,143,34,43,95,32,69,22,12,89,5,13,33,43,185,68,160,88,26,73,29,21,138,23,75,212,77,36,6,53,162,59,60,37,23,20,15,12,7,3,6,0,-1,-2,-3,-3,-1,-5,-1,-8,-5,-6,-8,-10,0,-7,-1,-3,-1,-3,-1,-2,-8,0,1,0,7,16,4,13,12,24,26,21,43,31,30,11,39,68,44,11,10,49,20,34,48,41,25,36,26,198]
    }
  ]
}