{
  "code":11701,
  "id":"6cbdb8",
  "name":"JR山陰本線(米子～益田)",
  "name_kana":"じぇいあーるさんいんほんせん",
  "station_size":45,
  "company_code":4,
  "color":"#F26122",
  "symbol":"D",
  "station_list":[
    {"code":1161642,"id":"0bd38f","name":"米子","name_kana":"よなご","lat":35.42327,"lng":133.33657,"prefecture":31,"lines":[11616,11701,11703,11705],"attr":"heat","postal_code":"683-0036","address":"米子市弥生町","next":[1170504,1170503,1170330,1170502,1170505,1170324,1170102,1161641],"voronoi":{"lat":35.308258,"lng":133.325187,"delta_lat":[0,-788,108071,9750,3701,-43,-4079,-38111],"delta_lng":[0,-34486,6607,16533,11688,8501,11252,18601]}},
    {"code":1170102,"id":"6bcd8d","name":"安来","name_kana":"やすぎ","lat":35.427995,"lng":133.259279,"prefecture":32,"lines":[11701],"attr":"eco","postal_code":"692-0011","address":"安来市安来町","next":[1170103,1170506,1170508,1170509,1170507,1170324,1170505,1161642],"voronoi":{"lat":35.30747,"lng":133.290701,"delta_lat":[0,-24023,173765,81,-3359,-14143,-19025,-5225],"delta_lng":[0,-68142,12810,1455,28389,18744,11863,1488]}},
    {"code":1170103,"id":"098003","name":"荒島","name_kana":"あらしま","lat":35.431817,"lng":133.207432,"prefecture":32,"lines":[11701],"attr":"eco","postal_code":"692-0007","address":"安来市荒島町小山廻","next":[1170102,1170323,1170510,1170513,1170104,1170511,1170512,1170509,1170324,1170105,1170613],"voronoi":{"lat":35.280972,"lng":133.218178,"delta_lat":[0,2474,173765,16064,6956,3952,3905,3011,-10980,-192540,-10169],"delta_lng":[0,4380,12810,-18923,-12278,-7785,-10068,-9271,-1904,12445,22490]}},
    {"code":1170104,"id":"10f466","name":"揖屋","name_kana":"いや","lat":35.428062,"lng":133.149334,"prefecture":32,"lines":[11701],"attr":"eco","postal_code":"699-0101","address":"島根県松江市東出雲町揖屋804","next":[1170609,1170612,1170105,1170613,1170107,1170103],"voronoi":{"lat":35.480119,"lng":133.17514,"delta_lat":[0,-104033,-39709,-19225,-20728,-8845],"delta_lng":[0,-86993,-7071,19941,47634,38934]}},
    {"code":1170105,"id":"20252e","name":"東松江(島根)","name_kana":"ひがしまつえ","lat":35.445507,"lng":133.128472,"prefecture":32,"lines":[11701],"attr":"eco","postal_code":"690-0025","address":"松江市八幡町灘大土手外","next":[1170104,1170106,1170515,1170514,1170107,1170516,1170103,1170513],"voronoi":{"lat":35.492902,"lng":133.175779,"delta_lat":[0,7539,6333,39110,-118176,-51622,104033,10980],"delta_lng":[0,-6313,-6005,-41270,-33732,-313,86993,1904]}},
    {"code":1170106,"id":"2a5fa4","name":"松江","name_kana":"まつえ","lat":35.463947,"lng":133.063871,"prefecture":32,"lines":[11701],"attr":"eco","postal_code":"690-0003","address":"松江市朝日町","next":[1170107,1170105,9970222,1170516],"voronoi":{"lat":35.620451,"lng":133.084154,"delta_lat":[0,-163055,-29687,118176],"delta_lng":[0,-30751,35057,33732]}},
    {"code":1170107,"id":"50a652","name":"乃木","name_kana":"のぎ","lat":35.44599,"lng":133.048665,"prefecture":32,"lines":[11701],"attr":"eco","postal_code":"690-0044","address":"松江市浜乃木２","next":[1170106,1170609,1170104,9970222,1170105,1170108],"voronoi":{"lat":35.453769,"lng":133.023963,"delta_lat":[0,3626,-29687,-51622,-39709,3232],"delta_lng":[0,29440,35057,-313,-7071,-10324]}},
    {"code":1170108,"id":"71d5c6","name":"玉造温泉","name_kana":"たまつくりおんせん","lat":35.430891,"lng":133.011825,"prefecture":32,"lines":[11701],"attr":"eco","postal_code":"699-0202","address":"松江市玉湯町湯町","next":[9970220,1170609,1170109,9970222,1170605,9970219,9970221,1170107],"voronoi":{"lat":35.341162,"lng":133.057779,"delta_lat":[0,34396,68714,3884,2790,5543,-2719,-114160],"delta_lng":[0,-67506,-11626,5076,5840,31504,2895,46789]}},
    {"code":1170109,"id":"ef25ca","name":"来待","name_kana":"きまち","lat":35.420722,"lng":132.951719,"prefecture":32,"lines":[11701],"attr":"eco","postal_code":"699-0404","address":"松江市宍道町東来待","next":[1170108,9970218,1170110,1170605,9970215,1170604,9970216,9970219,1170602,9970217],"voronoi":{"lat":35.447576,"lng":132.970041,"delta_lat":[0,-3305,-68714,-1347,652,25672,34563,9238,2859,1718],"delta_lng":[0,8607,11626,-19849,-4524,-31114,-11222,12892,6850,11641]}},
    {"code":1170110,"id":"4660be","name":"宍道","name_kana":"しんじ","lat":35.406925,"lng":132.909224,"prefecture":32,"lines":[11701,11706],"attr":"eco","postal_code":"699-0401","address":"松江市宍道町宍道","next":[9970215,1170111,1170109,9970212,1170602,9970211,9970214],"voronoi":{"lat":35.435097,"lng":132.923565,"delta_lat":[0,-34563,-13907,38099,1023,5864,4449],"delta_lng":[0,11222,-41683,-12354,990,7027,28930]}},
    {"code":1170111,"id":"2c595f","name":"荘原","name_kana":"しょうばら","lat":35.393603,"lng":132.868139,"prefecture":32,"lines":[11701],"attr":"eco","postal_code":"699-0501","address":"島根県出雲市斐川町学頭1606","next":[9970210,9970211,9970209,1170603,1170110,1170602,1170112],"voronoi":{"lat":35.401343,"lng":132.835799,"delta_lat":[0,18323,3733,1327,-38099,-18944,-35120],"delta_lng":[0,15955,16164,12832,12354,-5121,-40998]}},
    {"code":1170112,"id":"adcf28","name":"直江","name_kana":"なおえ","lat":35.383754,"lng":132.807578,"prefecture":32,"lines":[11701],"attr":"eco","postal_code":"699-0624","address":"島根県出雲市斐川町上直江1100","next":[1170603,9970209,1170607,9970204,9970205,9970206,9970208,9970203,9970207,1170111],"voronoi":{"lat":35.401343,"lng":132.835799,"delta_lat":[0,1547,-271,-5050,-9218,-3635,-5241,-74572,25016,2644],"delta_lng":[0,-4665,-14923,-15206,-9407,-1327,-649,32719,23626,1018]}},
    {"code":1170113,"id":"ff0dfa","name":"出雲市","name_kana":"いずもし","lat":35.360694,"lng":132.756518,"prefecture":32,"lines":[11701],"attr":"eco","postal_code":"693-0001","address":"出雲市今市町","next":[9970302,1170114,9970303,9970202,9970201],"voronoi":{"lat":35.29954,"lng":132.775191,"delta_lat":[0,62207,9278,4778,-49839],"delta_lng":[0,-46398,8598,14568,17356]}},
    {"code":1170114,"id":"1c6da8","name":"西出雲","name_kana":"にしいずも","lat":35.334871,"lng":132.721897,"prefecture":32,"lines":[11701],"attr":"eco","postal_code":"693-0033","address":"出雲市知井宮町","next":[9970303,1170115,9970202,1170113,9970304,1170607],"voronoi":{"lat":35.187286,"lng":132.783429,"delta_lat":[0,170559,4709,-807,-62207,-38960],"delta_lng":[0,-85209,18823,11749,46398,24608]}},
    {"code":1170115,"id":"50fdfc","name":"出雲神西","name_kana":"いずもじんざい","lat":35.325116,"lng":132.702371,"prefecture":32,"lines":[11701],"attr":"eco","postal_code":"699-0823","address":"出雲市東神西町羽根板","next":[1170114,1170718,9970305,1170607,9970304,1170116],"voronoi":{"lat":35.354808,"lng":132.674877,"delta_lat":[0,3646,-609,-170559,-23960,1670],"delta_lng":[0,16737,6606,85209,-3656,-6593]}},
    {"code":1170116,"id":"f3c692","name":"江南(島根)","name_kana":"こうなん","lat":35.31522,"lng":132.683263,"prefecture":32,"lines":[11701],"attr":"eco","postal_code":"699-0813","address":"出雲市湖陵町三部","next":[9970305,1170718,1170117,1170115],"voronoi":{"lat":35.173229,"lng":132.729567,"delta_lat":[0,184382,-2804,-189812],"delta_lng":[0,-105941,51252,98303]}},
    {"code":1170117,"id":"a4022e","name":"小田(島根)","name_kana":"おだ","lat":35.28474,"lng":132.630215,"prefecture":32,"lines":[11701],"attr":"eco","postal_code":"699-0902","address":"出雲市多伎町多岐","next":[9970305,1170716,1170718,1170116,1170118],"voronoi":{"lat":35.376819,"lng":132.587263,"delta_lat":[0,-19208,-184382,-1549,2768],"delta_lng":[0,36362,105941,-78641,-15756]}},
    {"code":1170118,"id":"6ffc82","name":"田儀","name_kana":"たぎ","lat":35.275256,"lng":132.590152,"prefecture":32,"lines":[11701],"attr":"eco","postal_code":"699-0904","address":"出雲市多伎町口田儀","next":[1170716,9970305,1170119,1170117],"voronoi":{"lat":35.376819,"lng":132.587263,"delta_lat":[0,142320,-345118,427],"delta_lng":[0,-172442,189153,31195]}},
    {"code":1170119,"id":"b0741c","name":"波根","name_kana":"はね","lat":35.240137,"lng":132.526076,"prefecture":32,"lines":[11701],"attr":"eco","postal_code":"699-2211","address":"大田市波根町中浜","next":[1170716,1170120,9970305,1170121,1170118],"voronoi":{"lat":35.519139,"lng":132.414822,"delta_lat":[0,193679,-507202,-37373,5778],"delta_lng":[0,-183666,303420,54904,14495]}},
    {"code":1170120,"id":"056dc6","name":"久手","name_kana":"くて","lat":35.22943,"lng":132.508178,"prefecture":32,"lines":[11701],"attr":"eco","postal_code":"694-0051","address":"大田市久手町波根西","next":[1170122,9970305,1170119,1170123,1170121],"voronoi":{"lat":35.712818,"lng":132.231156,"delta_lat":[0,81333,-534263,-37225,-17047],"delta_lng":[0,-74287,291112,31478,55117]}},
    {"code":1170121,"id":"e6f0b2","name":"大田市","name_kana":"おおだし","lat":35.200864,"lng":132.499343,"prefecture":32,"lines":[11701],"attr":"eco","postal_code":"694-0064","address":"大田市大田町大田","next":[1170714,1170716,1170120,1170119,1170122],"voronoi":{"lat":35.114804,"lng":132.51615,"delta_lat":[0,53439,37373,17047,-114912],"delta_lng":[0,73330,-54904,-55117,19796]}},
    {"code":1170122,"id":"9b0b70","name":"静間","name_kana":"しずま","lat":35.195467,"lng":132.468015,"prefecture":32,"lines":[11701],"attr":"eco","postal_code":"694-0031","address":"大田市静間町","next":[1170120,1170123,1170124,1170713,1170714,1170121],"voronoi":{"lat":35.104195,"lng":132.493669,"delta_lat":[0,-3649,37515,121828,-37225,-114912],"delta_lng":[0,-7776,-25878,-12035,31478,19796]}},
    {"code":1170123,"id":"2b12dd","name":"五十猛","name_kana":"いそたけ","lat":35.192792,"lng":132.440938,"prefecture":32,"lines":[11701],"attr":"eco","postal_code":"694-0035","address":"大田市五十猛町野田","next":[1170222,1170122,1170120,1170132,1170131,9970305,1170124,1170134],"voronoi":{"lat":36.190847,"lng":131.432886,"delta_lat":[0,-512829,-539958,121828,534263,4206016,-1478582,-1064702],"delta_lng":[0,423794,603336,-12035,-291112,-3419029,839802,840618]}},
    {"code":1170124,"id":"76fc8c","name":"仁万","name_kana":"にま","lat":35.150972,"lng":132.403511,"prefecture":32,"lines":[11701],"attr":"heat","postal_code":"699-2301","address":"大田市仁摩町仁万","next":[1170131,1170712,1170122,1170128,1170125,1170713,1170123],"voronoi":{"lat":35.678019,"lng":131.85668,"delta_lat":[0,-229734,-181053,-180994,8845,5463,37515],"delta_lng":[0,175979,180507,258301,9690,4737,-25878]}},
    {"code":1170125,"id":"2d44c2","name":"馬路","name_kana":"まじ","lat":35.128011,"lng":132.387422,"prefecture":32,"lines":[11701],"attr":"heat","postal_code":"699-2304","address":"大田市仁摩町馬路","next":[1170126,1170128,1170712,1170127,1170124,1170710],"voronoi":{"lat":35.086237,"lng":132.471467,"delta_lat":[0,180994,-18518,-106454,-67916,5540],"delta_lng":[0,-258301,16274,106917,122761,7201]}},
    {"code":1170126,"id":"db9886","name":"湯里","name_kana":"ゆさと","lat":35.106568,"lng":132.375559,"prefecture":32,"lines":[11701],"attr":"heat","postal_code":"699-2502","address":"大田市温泉津町湯里","next":[1170125,1170127,1170708,1170710],"voronoi":{"lat":35.043712,"lng":132.428954,"delta_lat":[0,-11853,110401,-67916],"delta_lng":[0,-24249,-68348,122761]}},
    {"code":1170127,"id":"a59dc8","name":"温泉津","name_kana":"ゆのつ","lat":35.091256,"lng":132.350826,"prefecture":32,"lines":[11701],"attr":"heat","postal_code":"699-2511","address":"大田市温泉津町小浜","next":[1170126,1170706,1170125,1170128,1170708],"voronoi":{"lat":35.029862,"lng":132.402006,"delta_lat":[0,-5400,224252,-106454,-110401],"delta_lng":[0,-22358,-150209,106917,68348]}},
    {"code":1170128,"id":"134f6e","name":"石見福光","name_kana":"いわみふくみつ","lat":35.076536,"lng":132.32885,"prefecture":32,"lines":[11701],"attr":"heat","postal_code":"699-2514","address":"大田市温泉津町福光","next":[1170125,1170706,1170129,1170124,1170130,1170131,1170127],"voronoi":{"lat":35.023036,"lng":132.376455,"delta_lat":[0,92850,220868,111531,-181053,-18518,-224252],"delta_lng":[0,-117536,-159020,-67240,180507,16274,150209]}},
    {"code":1170129,"id":"37a1da","name":"黒松(島根)","name_kana":"くろまつ","lat":35.056963,"lng":132.313388,"prefecture":32,"lines":[11701],"attr":"heat","postal_code":"699-2831","address":"江津市黒松町","next":[1170704,1170706,1170128,1170705,1170130],"voronoi":{"lat":35.010376,"lng":132.333247,"delta_lat":[0,7342,5317,92850,-92088],"delta_lng":[0,35350,7858,-117536,46541]}},
    {"code":1170130,"id":"15c327","name":"浅利","name_kana":"あさり","lat":35.037084,"lng":132.274054,"prefecture":32,"lines":[11701],"attr":"heat","postal_code":"695-0002","address":"江津市浅利町","next":[1170704,1170128,1170129,1170702,1170131,1170703],"voronoi":{"lat":35.023798,"lng":132.305459,"delta_lat":[0,92088,220868,-303726,-3580,-15022],"delta_lng":[0,-46541,-159020,144839,2443,21976]}},
    {"code":1170131,"id":"861d7a","name":"江津","name_kana":"ごうつ","lat":35.012801,"lng":132.223133,"prefecture":32,"lines":[11701,11707],"attr":"heat","postal_code":"695-0011","address":"江津市江津町","next":[1170124,1170123,1170132,1170128,1170130,1170702],"voronoi":{"lat":34.991057,"lng":132.211851,"delta_lat":[0,1199791,-512829,-229734,-111531,-303726],"delta_lng":[0,-778966,423794,175979,67240,144839]}},
    {"code":1170132,"id":"16a05f","name":"都野津","name_kana":"つのづ","lat":34.9896,"lng":132.187398,"prefecture":32,"lines":[11701],"attr":"heat","postal_code":"695-0021","address":"江津市都野津町","next":[1170134,1170703,1170702,1170123,1170133,1170131],"voronoi":{"lat":36.190847,"lng":131.432886,"delta_lat":[0,1266036,-2378410,-153554,31109,35028],"delta_lng":[0,-1014626,1679330,134651,-5998,-14391]}},
    {"code":1170133,"id":"9a8705","name":"敬川","name_kana":"うやがわ","lat":34.977826,"lng":132.173971,"prefecture":32,"lines":[11701],"attr":"heat","postal_code":"699-3162","address":"江津市敬川町","next":[1170703,1170132,1170705,1170135,1170134],"voronoi":{"lat":35.078474,"lng":132.09759,"delta_lat":[0,-153554,-38774,-26864,53946],"delta_lng":[0,134651,12170,-3044,-43809]}},
    {"code":1170134,"id":"9ea1bd","name":"波子","name_kana":"はし","lat":34.964103,"lng":132.151287,"prefecture":32,"lines":[11701],"attr":"heat","postal_code":"699-3161","address":"江津市波子町","next":[1170139,1170132,1170222,1170203,1170205,1170135,1170136,1170133,1170123],"voronoi":{"lat":38.521585,"lng":129.577642,"delta_lat":[0,-334686,-1281595,-345571,-952952,-568007,-125547,165246,2378410],"delta_lng":[0,171910,803897,227182,753543,512735,150649,-99968,-1679330]}},
    {"code":1170135,"id":"75a859","name":"久代","name_kana":"くしろ","lat":34.949568,"lng":132.139174,"prefecture":32,"lines":[11701],"attr":"cool","postal_code":"697-0004","address":"浜田市久代町","next":[1170137,1170136,1170134,1170133,1170705],"voronoi":{"lat":34.859282,"lng":132.241366,"delta_lat":[0,53946,125547,-249725,-4701],"delta_lng":[0,-43809,-150649,194020,4356]}},
    {"code":1170136,"id":"d19b75","name":"下府","name_kana":"しもこう","lat":34.927322,"lng":132.110541,"prefecture":32,"lines":[11701],"attr":"cool","postal_code":"697-0006","address":"浜田市下府町","next":[1170137,1170139,1170135,1170134],"voronoi":{"lat":35.606782,"lng":131.534173,"delta_lat":[0,-554606,-263126,249725],"delta_lng":[0,411435,295320,-194020]}},
    {"code":1170137,"id":"e76f0d","name":"浜田","name_kana":"はまだ","lat":34.902683,"lng":132.088588,"prefecture":32,"lines":[11701],"attr":"cool","postal_code":"697-0022","address":"浜田市浅井町","next":[1170138,1170139,1170135,1170136,9970917,1170705],"voronoi":{"lat":34.784349,"lng":132.245285,"delta_lat":[0,4701,263126,-84915,-285696,13855],"delta_lng":[0,-4356,-295320,53050,249229,18106]}},
    {"code":1170138,"id":"4b6d9b","name":"西浜田","name_kana":"にしはまだ","lat":34.869399,"lng":132.050434,"prefecture":32,"lines":[11701],"attr":"cool","postal_code":"697-0062","address":"浜田市熱田町","next":[1170137,9970918,9970917,1170139,9970919,1170140],"voronoi":{"lat":34.786495,"lng":132.060114,"delta_lat":[0,180766,-285696,-20424,-9248,-34849],"delta_lng":[0,-61456,249229,-22093,-10388,-40676]}},
    {"code":1170139,"id":"15cbd8","name":"周布","name_kana":"すふ","lat":34.85812,"lng":132.017258,"prefecture":32,"lines":[11701],"attr":"cool","postal_code":"697-1326","address":"浜田市治和町","next":[1170134,1170137,1170203,1170136,1170140,1170143,1170138,1170142],"voronoi":{"lat":35.242705,"lng":131.612561,"delta_lat":[0,247331,1069697,-952952,-554606,-84915,-180766,328044],"delta_lng":[0,-189354,-642576,753543,411435,53050,61456,-341978]}},
    {"code":1170140,"id":"01ff3e","name":"折居","name_kana":"おりい","lat":34.826336,"lng":131.986769,"prefecture":32,"lines":[11701],"attr":"cool","postal_code":"697-1337","address":"浜田市西村町","next":[1170142,1170139,1170141,1170138,9970919],"voronoi":{"lat":34.786495,"lng":132.060114,"delta_lat":[0,328044,-189026,-313433,4964],"delta_lng":[0,-341978,138729,313464,4401]}},
    {"code":1170141,"id":"5b8d08","name":"三保三隅","name_kana":"みほみすみ","lat":34.795619,"lng":131.956055,"prefecture":32,"lines":[11701],"attr":"cool","postal_code":"699-3223","address":"浜田市三隅町西河内","next":[1170142,1161121,1170144,9970919,1170823,1170140],"voronoi":{"lat":34.925513,"lng":131.856865,"delta_lat":[0,-313964,-17474,-37381,14948,40438],"delta_lng":[0,171454,13960,79218,18200,30632]}},
    {"code":1170142,"id":"7084c5","name":"岡見","name_kana":"おかみ","lat":34.771848,"lng":131.912526,"prefecture":32,"lines":[11701],"attr":"cool","postal_code":"699-3226","address":"浜田市三隅町岡見","next":[1170144,1170141,1170143,1170140,1170139],"voronoi":{"lat":35.242705,"lng":131.612561,"delta_lat":[0,-530026,-101131,313964,189026],"delta_lng":[0,311677,104082,-171454,-138729]}},
    {"code":1170143,"id":"ea5455","name":"鎌手","name_kana":"かまて","lat":34.751677,"lng":131.878224,"prefecture":32,"lines":[11701],"attr":"cool","postal_code":"699-3506","address":"益田市西平原町","next":[1170144,1170142,1170139,1170203,1170202],"voronoi":{"lat":34.712679,"lng":131.924238,"delta_lat":[0,530026,247331,-567281,-136979],"delta_lng":[0,-311677,-189354,266942,76724]}},
    {"code":1170144,"id":"e05204","name":"石見津田","name_kana":"いわみつだ","lat":34.722685,"lng":131.864757,"prefecture":32,"lines":[11701],"attr":"cool","postal_code":"699-3671","address":"益田市津田町","next":[1170823,1170142,1170143,1170141,1170145,1170202],"voronoi":{"lat":34.595935,"lng":132.031511,"delta_lat":[0,-1860,17474,101131,73097,-46387],"delta_lng":[0,10769,-13960,-104082,-157365,18147]}},
    {"code":1170145,"id":"f3d307","name":"益田","name_kana":"ますだ","lat":34.678311,"lng":131.838932,"prefecture":32,"lines":[11701,11702,11708],"attr":"cool","postal_code":"698-0024","address":"益田市駅前町","next":[1170202,1170144,1170823,1170827],"voronoi":{"lat":34.595935,"lng":132.031511,"delta_lat":[0,143455,-52785,-87979],"delta_lng":[0,-246491,2765,188001]}}
  ],
  "north":35.46477,
  "south":34.67614,
  "east":133.33743,
  "west":131.8384,
  "polyline_list":[
    {
      "start":"益田",
      "end":"直江",
      "lat":34.67851,
      "lng":131.8384,
      "delta_lat":[0,-47,-57,-33,-15,-13,-29,-17,-9,-7,-7,-4,0,3,6,6,5,7,11,7,15,14,29,18,17,21,31,22,32,27,73,59,22,142,38,18,33,31,22,21,25,28,32,27,20,38,23,22,22,16,18,19,28,19,19,18,11,17,12,29,41,4,18,16,19,17,11,31,62,113,85,71,79,86,29,26,29,36,51,88,43,81,47,34,35,35,30,23,49,37,22,55,50,31,78,46,96,125,3,13,45,20,31,18,22,13,27,72,49,49,87,47,12,18,18,33,31,14,7,6,23,31,30,15,12,33,40,13,65,18,23,20,21,17,54,44,18,27,21,33,47,52,62,38,14,13,27,32,18,18,17,12,11,13,20,14,22,22,25,20,18,20,5,13,9,11,48,17,45,85,116,72,26,29,32,15,47,75,123,36,51,29,18,40,19,13,23,42,53,50,40,22,21,26,27,23,22,22,31,23,27,35,25,23,35,14,12,6,6,62,32,32,24,19,26,32,25,28,49,29,52,21,22,23,20,22,22,19,26,6,10,49,5,12,8,33,34,16,18,38,27,35,49,21,28,30,19,29,19,13,22,23,18,20,12,8,5,2,2,1,6,6,9,14,5,6,7,18,14,39,36,36,7,17,7,18,78,14,42,28,8,31,10,5,3,3,3,-5,-3,-9,-30,-3,-1,0,7,1,6,12,13,18,38,18,24,21,22,18,13,32,63,22,15,11,3,11,58,72,17,12,12,53,112,82,88,35,16,23,27,43,33,18,15,25,40,22,26,24,14,33,14,24,13,14,20,22,30,13,23,17,21,21,35,30,38,7,23,20,18,11,45,26,14,16,15,8,12,9,3,4,-2,0,2,4,6,6,5,13,26,10,10,16,5,-2,-3,-8,-16,-2,-12,-15,-18,-54,-54,-28,-28,-25,-19,-9,-3,2,1,2,5,11,33,11,16,7,34,33,38,38,7,18,25,59,25,46,17,22,20,27,23,23,23,19,16,49,20,22,41,28,35,103,82,43,93,38,23,32,51,14,24,18,15,12,40,42,14,29,59,41,41,30,23,7,30,51,65,59,24,20,0,-3,-8,-2,1,1,5,17,7,8,10,36,31,25,27,33,27,15,57,138,74,54,89,23,31,40,32,19,23,43,87,16,9,26,63,25,45,49,16,11,112,32,17,168,235,190,128,165,117,52,44,45,27,26,23,32,26,16,38,22,48,38,41,41,7,16,17,31,42,9,5,1,0,-12,-12,-6,-3,-3,-2,0,4,2,8,15,16,10,11,9,12,12,35,74,52,8,164,25,12,10,7,8,5,11,4,12,15,50,27,15,22,18,31,21,24,25,24,23,19,18,20,26,22,68,72,44,18,58,21,24,26,19,23,24,20,18,9,57,48,47,29,29,12,17,20,23,16,20,199,49,48,37,43,52,19,27,29,24,21,101,60,36,141,18,14,22,15,23,17,12,100,308,21,32,16,61,66,43,43,42,83,31,9,39,33,62,115,64,49,54,79,73,36,40,86,238,35,36,44,92,38,21,80,48,24,38,44,84,41,33,3,21,18,13,6,16,16,5,8,9,7,16,27,2,15,17,10,12,4,1,0,-2,-6,-6,-1,-8,-11,-20,-41,-23,-21,-73,-38,-17,-47,-43,-24,-31,-26,-19,-12,-8,-13,-1,-4,-4,-21,0,-7,-4,-9,0,4,7,16,22,6,26,16,17,25,20,33,36,21,39,40,57,43,22,31,68,4,52,20,33,38,39,19,25,46,28,33,69,26,32,27,24,21,36,19,24,18,25,80,30,70,43,63,62,100,23,14,12,48,12,13,23,10,5,2,11,8,7,8,3,15,32,24,6,14,14,48,18,43,24,75,11,47,18,24,48,13,13,32,8,14,33,72,99,33,22,39,13,24,19,56,29,38,56,14,51,11,47,22,94,23,15,37,13,25,100,27,23,13,13,16,17,8,7,14,15,6,9,5,20,16,15,33,84,30,34,67,36,60,50,63,2,58,73,43,43,29,50,27,31,30,254,185,99,33,32,65,226,18,38,23,39,18,30,28,34,54,126,116,131,37,24,34,217,54,170,34,25,32,27,36,34,27,33,3,13,14,11,11,11,6,1,8,7,11,6,6,11,16,20,25,22,23,27,15,69,60,34,18,30,22,20,19,19,16,13,11,16,15,32,28,104,0,20,25,15,13,7,14,9,2,9,22,13,30,27,45,33,12,18,9,3,8,12,17,2,6,4,1,6,12,6,23,13,27,14,6,43,8,7,26,33,15,18,23,6,22,10,7,6,5,4,5,13,12,3,3,13,11,28,27,40,29,18,35,96,18,56,26,66,39,28,37,31,29,33,36,21,49,37,45,7,87,36,70,34,13,109,20,28,89,38,18,9,107,13,12,31,34,22,25,11,4,11,9,21,15,54,16,56,42,25,14,17,14,15,16,6,9,9,20,14,66,14,17,30,15,18,11,2,15,12,10,2,16,12,5,10,14,13,21,22,4,12,11,11,16,6,14,19,10,28,37,28,23,25,18,14,15,34,30,36,47,19,56,26,16,43,27,101,11,38,39,26,36,23,106,40,32,25,9,102,36,41,65,4,63,12,139,23,35,5,3,92,77,88,26,93,27,40,40,43,13,13,23,11,70,24,72,22,16,18,4,18,7,26,1,13,15,20,5,18,11,11,12,0,0,11,4,14,17,11,1,18,27,46,68,76,50,13,20,23,132,44,33,126,47,27,23,74,6,45,55,57,57,46,28,126,15,19,16,19,23,25,47,18,47,32,36,41,49,22,29,16,128,79,55,16,26,43,33,42,53,32,60,96,65,46,3,38,34,35,25,30,15,31,52,60,92,47,47,62,63,7,14,36,13,22,12,12,24,26,6,6,35,27,36,20,18,29,18,11,9,-2,-5,-7,-9,-19,-14,-16,-19,-12,-11,0,0,2,0,2,3,-1,-6,-1,1,9,17,20,17,37,39,58,45,54,67,64,49,21,105,27,20,26,6,15,24,10,11,45,17,23,17,12,20,12,6,3,9,2,9,4,0,6,5,3,26,18,7,27,29,28,30,27,65,29,27,17,45,23,40,56,31,60,20,19,28,26,34,33,22,34,29,15,86,51,185,59,64,68,148,15,67,30,16,48,3,20,40,23,36,63,26,25,34,36,57,30,13,38,40,57,21,26,51,43,26,21,37,45,32,15,18,33,32,24,40,52,27,34,11,17,10,20,9,17,18,36,17,30,90,81,47,33,14,25,24,9,29,27,17,17,15,14,17,13,21,35,29,24,78,29,13,21,35,44,68,47,50,60,11,123,124,23,17,51,36,27,22,7,18,2,14,11,7,2,4,6,3,0,4,3,-3,-4,-7,0,-2,0,-4,-3,-8,-1,-4,-1,-4,-4,-1,-4,-4,-3,-2,-1,-3,0,0,5,10,18,22,17,19,1,8,36,76,87,133,83,31,110,76,59,68,52,42,153,20,36,6,50,103,58,29,3,32,27,35,15,89,36,74,25,24,45,18,14,31,23,41,55,45,12,17,21,32,135,60,52,116,80,45,105,106,26,16,27,18,43,19,17,31,30,159,95,29,24,19,26,25,14,13,13,20,20,14,143,101,141,20,16,37,39,20,31,19,27,137,48,42,25,7,52,30,12,26,32,30,43,39,167,19,13,71,85,77,118,57,38,16,83,51,11,96,62,70,11,48,33,25,78,87,115,120,5,35,25,116,23,14,18,65,133,65,258,2,36,38,27,20,27,43,51,80,31,3,67,15,15,21,77,32,70,57,2,233,152,36,93,6,32,36,46,27,30,26,69,22,31,16,29,77,76,65,53,65,92,113,39,68,44,7,11,44,81,27,64,28,23,10,42,17,54,4,5,12,8,15,41,17,12,11,33,14,15,19,6,16,4,13,11,6,8,4,6,2,1,3,2,9,17,1,85,42,18,13,7,43,50,33,18,5,11,6,9,5,19,12,38,6,16,5,3,4,5,4,2,2,5,0,1,1,4,0,3,4,4,0,4,1,3,1,2,6,-7,-18,-5,2,2,2,1,2,3,5,13,1,3,2,9,4,5,8,3,2,7,3,6,6,9,2,1,2,2,2,13,1,13,5,5,4,9,2,4,5,3,9,3,3,2,2,1,6,4,3,4,3,3,5,7,1,-1,1,2,3,7,2,0,8,4,16,13,12,19,34,36,26,19,19,37,7,158,38,40,57,13,21,6,0,14,22,31,18,20,47,45,9,9,114,93,57,27,78,36,20,7,20,25,6,41,7,46,40,41,42,40,29,34,31,23,9,22,16,379,283,54,9,84,53,50,98,35,67,12,2,42,19,33,5,123,93,16,128,82,59,7,10,16,115,33,34,35,38,29,6,15,2,4,131,67,43,24,31,2,8,14,18,12,7,6,5,2,0,-2,-3,-4,-8,-6,-13,-8,-7,-1,-17,-12,-2,-2,0,6,7,3,4,10,17,13,50,22,9,5,105,60,11,29,45,24,12,22,41,23,23,17,22,20,50,32,114,39,92,111,109,100,83,9,29,45,78,8,65,15,84,0,12,4,9,32,32,3,33,14,29,16,4,7,79,19,11,1,16,17,3,11,20,18,2,7,15,1,3,1,8,1,7,13,18,18,15,1,24,14,30,12,27,23,2,10,23,16,18,20,11,3,14,57,26,29,14,13,9,6,4,1,-1,-1,1,2,7,16,13,17,35,39,70,24,23,5,29,6,3,27,31,51,16,2,18,18,2,2,7,0,9,5,2,-1,-4,-7,-11,-16,-4,-3,0,0,5,9,10,13,11,18,13,24,6,20,39,39,23,35,6,29,4,17,24,6,15,5,10,9,16,2,23,20,23,39,8,35,21,26,14,19,16,2,5,9,4,3,2,5,3,41,32,4,4,-1,-5,-11,-18,-9,-3,-2,1,3,1,8,18,39,17,11,6,12,32,4,5,14,9,4,0,8,7,5,3,2,11,17,27,10,18,2,1,12,12,3,0,2,3,4,14,9,14,9,15,22,4,32,7,11,15,7,9,2,3,2,4,12,16,17,29,23,17,10,11,12,8,7,9,14,2,7,5,4,6,13,16,17,19,18,22,63,112,9,65,17,32,29,31,29,31,126,5,42,30,26,26,21,22,22,15,17,21,9,22,60,49,15,25,12,14,6,5,2,2,2,0,2,7,12,0,3,5,2,2,6,5,6,8,5,13,2,13,17,17,19,30,79,138,86,27,22,12,12,9,7,2,-1,-5,-15,-3,-14,-6,-2,1,0,9,7,9,11,20,17,20,85,241,115,42,24,19,24,28,26,25,197,136,60,32,36,36,25,42,15,271,121,34,49,40,69,229,47,25,16,19,18,14,14,11,8,4,4,35,18,11,9,11,19,24,24,137,15,68,438,19,221,221,64,124,34,75,149,20,38,38,49,47,41,56,44,8,50,136,216,39,185,142,238,28,151,36,41,36,29,32,29,27,48,58,78,27,18,23,18,6,9,5,7,6,18,13,8,11,11,7,2,6,6,3,3,3,14,17,19,27,25,14,17,25,25,27,40,11,27,18,24,69,35,31,14,6,6,32,29,9,6,41,31,27,7,35,19,26,25,9,13,7,11,14,27,31,39,41,43,50,21,64,69,62,70,120,189,188,67,121,191,33,114,45,57,30,11],
      "delta_lng":[0,109,139,79,37,34,69,46,33,28,37,33,30,23,45,28,22,25,35,14,25,16,39,22,15,16,18,12,9,5,6,4,2,8,3,4,6,13,13,19,14,16,18,9,5,5,0,-2,-3,-6,-5,-10,-16,-17,-21,-23,-18,-33,-22,-37,-51,-4,-16,-12,-13,-8,-3,-10,-45,-82,-66,-52,-59,-66,-22,-17,-13,-16,-18,-30,-15,-29,-14,-8,-9,-6,-4,-1,2,3,4,15,14,9,25,17,34,44,1,5,26,13,24,17,24,21,50,134,88,77,141,68,15,23,17,27,22,9,8,5,24,42,40,16,11,22,24,5,21,7,13,14,19,21,65,54,20,22,13,16,22,23,27,19,8,8,23,34,24,31,34,33,47,58,102,76,131,128,141,93,77,81,13,31,18,18,72,18,43,72,86,53,15,16,8,2,5,7,7,3,3,1,0,-9,-7,-5,-15,-35,-45,-49,-33,-16,-11,-12,-9,-4,-1,1,7,7,12,19,21,24,45,23,25,14,17,118,58,49,27,20,18,20,9,5,0,-2,-10,-7,-12,-19,-23,-28,-38,-38,-54,-14,-15,-64,-8,-15,-7,-23,-17,-7,-5,-6,0,0,6,3,2,7,8,18,12,10,22,25,27,37,23,26,27,30,57,74,75,54,50,51,18,18,15,31,26,65,57,57,14,28,11,19,76,13,44,35,13,68,32,22,18,63,43,70,28,39,116,18,14,26,226,33,33,39,36,37,66,26,23,17,15,11,5,8,16,5,0,-1,-1,-3,-17,-25,-4,-3,0,1,5,3,8,4,4,10,12,20,14,6,3,2,-2,-4,-7,-10,-7,-15,-4,-5,-2,0,2,4,8,6,9,9,12,19,32,24,26,4,11,4,9,8,31,24,18,20,28,13,33,31,26,71,29,35,63,40,26,22,19,32,63,28,35,66,24,21,30,35,54,10,32,29,36,109,111,55,61,61,57,45,27,81,17,14,17,29,82,27,37,27,95,100,110,129,27,55,74,188,89,161,49,54,42,45,31,27,28,24,16,51,20,22,32,17,18,53,36,22,60,23,17,26,44,15,34,29,34,28,115,100,27,41,76,56,57,43,38,14,75,124,151,145,92,90,87,91,142,72,27,24,30,65,27,17,21,54,42,31,29,28,15,5,21,45,27,14,27,9,15,27,24,21,28,80,171,25,11,23,56,17,21,18,5,4,36,7,2,22,28,18,15,11,9,4,5,10,10,11,15,25,23,21,47,33,72,60,69,74,16,27,34,60,99,29,21,23,28,75,77,30,34,38,24,42,33,20,24,45,35,19,17,13,18,15,56,113,70,11,260,41,22,26,26,27,34,68,21,46,59,126,56,27,33,28,48,28,30,29,20,17,12,11,10,10,9,19,16,14,5,20,7,11,15,16,19,24,27,29,12,91,71,57,36,29,29,26,14,15,2,0,0,-3,2,10,25,38,18,31,40,36,41,201,99,88,396,44,24,30,18,24,14,6,76,155,14,27,17,67,77,54,47,42,76,23,8,28,24,50,87,44,30,38,63,59,29,32,65,186,32,34,44,92,37,21,77,46,26,47,56,108,55,47,7,35,34,29,21,76,43,19,19,19,14,25,43,1,23,36,27,55,26,27,81,29,34,20,9,24,22,39,54,26,20,54,28,11,34,41,27,42,48,46,30,31,63,10,36,46,292,22,83,62,113,52,26,45,68,73,17,68,31,29,36,25,40,38,20,30,19,29,26,17,29,77,4,61,18,24,23,19,8,7,3,3,0,-16,-5,-5,2,3,5,11,5,8,10,15,60,18,46,28,33,27,50,13,10,14,68,20,24,49,37,30,15,51,28,22,25,10,39,64,33,7,16,16,49,20,52,31,124,14,52,16,24,60,24,28,74,15,23,50,78,114,47,37,68,22,41,30,90,42,60,83,18,72,17,63,31,118,30,18,44,18,32,133,47,47,33,30,53,55,30,29,66,87,56,45,26,68,41,33,45,74,22,25,39,18,22,8,3,0,1,-4,3,6,6,20,15,22,29,284,206,110,37,51,71,260,16,31,18,18,6,7,1,0,-9,-41,-31,-41,-7,-4,-6,20,9,39,12,12,19,20,36,40,32,50,4,24,30,30,36,47,44,36,204,66,76,34,32,36,42,41,41,31,27,27,16,52,39,22,14,29,25,26,27,36,41,44,35,45,38,61,34,131,1,27,42,33,33,21,54,41,12,23,49,26,41,33,57,43,16,31,21,6,22,44,75,9,26,15,5,19,40,20,61,37,75,45,17,90,17,12,55,67,30,34,45,16,54,35,29,36,35,23,25,54,35,7,11,30,19,37,28,50,24,11,22,63,10,38,18,41,25,18,16,9,3,0,-4,-4,-6,-5,-6,-1,-10,-5,-9,-5,-1,-14,-1,-3,-8,0,2,1,18,4,1,4,11,11,18,8,2,9,7,21,17,75,25,73,72,53,35,49,40,40,46,13,26,28,54,37,184,40,44,84,37,49,30,6,47,48,40,8,71,57,14,38,65,53,85,103,15,54,36,39,45,13,37,39,22,53,79,54,47,50,38,30,30,70,51,56,62,27,80,36,24,54,28,104,9,32,33,21,27,18,80,30,22,20,6,78,28,29,47,4,46,10,104,16,29,2,3,71,58,66,21,71,19,31,31,34,11,9,18,7,49,14,37,16,11,18,2,20,5,27,0,17,18,33,9,42,33,40,46,3,1,57,23,70,82,42,6,76,79,111,139,137,89,23,36,40,237,78,60,227,94,54,57,224,21,137,171,173,160,140,84,371,36,42,28,28,24,26,36,14,21,10,8,4,-6,-6,-14,-8,-58,-34,-17,-4,-2,3,7,17,27,20,59,101,69,51,2,49,45,49,39,47,30,50,72,65,94,47,48,63,64,8,14,42,19,37,21,30,62,81,25,14,114,89,142,99,88,157,105,95,150,63,39,32,43,80,61,85,121,92,189,44,145,164,32,40,291,168,330,111,33,66,75,62,49,75,68,86,67,83,103,90,66,37,209,56,39,48,12,32,46,21,22,87,35,46,45,41,65,61,100,36,144,46,142,41,27,31,24,9,65,34,11,38,32,28,25,19,46,26,33,24,86,43,78,104,53,75,13,14,15,12,13,10,7,9,7,4,21,15,48,15,15,17,38,2,18,13,5,29,2,13,36,32,54,103,39,29,23,27,50,31,16,48,48,34,10,10,14,10,4,4,12,20,18,10,13,34,39,35,76,134,93,72,17,23,13,23,10,15,15,23,9,14,38,27,23,20,10,21,29,12,39,47,40,44,45,52,75,55,75,124,87,61,176,57,20,34,52,53,63,30,26,23,-1,15,16,9,8,33,27,27,31,9,28,4,26,29,24,6,24,31,17,10,15,53,61,52,51,12,6,14,39,19,105,18,24,29,48,38,24,26,35,58,21,6,21,19,27,25,39,63,58,48,47,5,20,98,200,234,353,195,55,112,61,37,44,30,23,68,9,14,5,27,61,36,14,4,16,9,9,3,17,5,23,10,14,28,14,13,32,27,56,75,48,13,12,10,7,20,8,4,-7,-14,-9,-17,-20,-5,-2,0,0,9,5,6,13,18,108,61,17,20,20,31,39,28,28,38,49,38,27,206,144,191,32,27,77,100,42,59,30,42,211,68,59,35,11,70,35,12,23,24,15,18,13,33,5,2,14,18,17,21,18,10,5,23,16,2,27,18,21,2,13,11,6,23,22,35,34,2,9,8,32,6,4,5,18,38,19,72,1,12,19,20,16,25,36,42,64,25,4,54,14,14,25,109,41,84,61,2,249,177,39,97,6,37,37,39,22,21,16,36,12,18,8,17,45,43,37,23,19,14,12,3,11,9,3,3,11,28,15,39,21,19,10,48,23,96,10,9,23,17,32,88,34,23,19,59,22,25,31,13,31,10,34,35,24,38,43,52,11,11,10,19,34,53,0,233,112,51,35,19,120,135,86,52,10,31,16,24,14,54,30,104,14,51,20,10,15,36,77,35,51,52,20,4,18,54,19,27,82,38,18,33,53,27,20,30,111,234,574,134,46,45,22,41,39,24,79,138,15,20,30,78,33,61,73,43,5,76,20,80,49,77,25,10,13,30,11,137,18,118,43,64,23,94,32,25,65,29,75,20,35,10,23,4,75,49,40,81,64,97,107,158,0,7,19,36,67,64,5,8,39,24,54,44,28,45,71,63,35,28,29,47,10,209,49,54,75,13,19,3,2,11,13,16,5,5,6,1,-3,0,-12,-15,-7,-2,-11,-7,-7,-2,-12,-13,-3,-22,-6,-24,-20,-17,-10,-7,-1,1,5,4,3,5,6,163,121,24,3,40,28,25,50,18,33,8,0,22,10,17,3,63,47,9,65,43,31,3,6,7,60,18,17,21,30,21,7,11,1,3,107,53,39,26,37,2,12,23,38,30,23,32,40,31,31,42,29,23,35,23,54,35,23,6,71,51,20,55,23,61,37,10,20,32,34,22,78,35,14,8,162,90,17,44,54,25,12,17,26,13,9,5,4,3,3,1,9,2,2,13,32,61,87,15,44,74,154,14,101,22,124,2,20,7,14,61,72,8,74,33,70,39,7,16,182,43,26,1,39,49,8,35,77,73,33,45,96,9,30,10,50,13,32,49,51,34,17,3,29,13,23,8,21,23,1,12,27,24,27,37,17,7,24,102,43,51,35,34,47,54,50,51,123,33,15,12,30,48,37,35,63,67,119,39,43,6,52,10,6,49,54,92,33,2,51,59,15,3,45,5,66,44,59,55,56,49,54,67,43,35,11,25,43,48,37,44,33,46,30,46,14,35,66,70,38,60,12,48,6,27,42,11,26,8,17,14,23,2,29,20,22,33,7,35,26,31,18,32,31,2,15,23,16,11,12,24,31,186,116,30,43,31,65,62,73,44,32,59,19,28,9,35,63,110,48,37,17,32,99,7,19,46,45,24,20,65,41,26,2,13,38,39,60,26,55,11,0,58,89,41,27,38,27,23,55,25,32,20,33,39,7,48,12,31,43,37,70,20,61,17,25,51,55,44,62,56,64,46,46,55,50,51,82,134,30,58,49,30,43,59,48,40,38,32,34,97,175,11,104,26,40,31,26,19,21,70,2,20,21,20,21,23,27,39,33,43,54,25,46,112,93,33,69,34,40,32,22,18,23,33,14,22,230,367,36,128,246,83,48,53,33,31,25,18,32,6,31,36,27,27,36,87,145,88,35,30,25,29,34,36,27,45,31,91,14,87,41,30,12,17,48,23,21,22,34,23,26,113,311,147,52,25,19,19,21,18,14,91,60,27,15,20,25,18,40,15,247,108,34,47,36,66,224,50,31,21,33,40,39,43,44,34,25,27,279,144,70,39,34,52,57,48,280,28,137,868,39,441,441,127,250,63,149,295,31,51,41,43,43,28,35,21,4,21,48,74,12,66,49,82,9,52,14,18,19,21,27,28,35,64,84,122,44,38,52,52,17,29,24,56,57,127,92,76,109,131,98,43,81,123,52,40,38,132,132,121,152,134,57,74,90,83,90,125,33,77,48,58,157,73,67,36,19,20,153,140,56,29,242,169,159,40,197,102,149,143,51,66,29,39,41,70,72,66,62,58,58,22,65,66,63,70,121,190,190,69,121,190,35,117,42,57,34,10]
    },
    {
      "start":"直江",
      "end":"来待",
      "lat":35.3857,
      "lng":132.80964,
      "delta_lat":[0,12,29,26,25,13,16,21,8,13,92,25,7,2,3,1,2,1,-3,-6,-14,-4,-9,-3,-6,-7,-4,-2,-10,-18,-7,-12,-21,-22,-24,-74,-28,-83,-6,-50,-20,-11,-13,-15,-14,-6,-10,-8,-7,-3,-4,-4,-1,-4,0,3,3,1,7,1,8,13,9,51,25,28,26,89,12,94,2,26,114,10,16,15,11,9,13,23,23,10,9,19,23,10,35,36,7,27,23,27,13,24,34,36,42,45,31,39,12,7,7,4,10,52,44,24,3,37,5,31,30,56,13,5,8,3,16,11,7,4,9,3,6,6,2,3,5,10,17,13,16,9,51,112,35,12,24,3,20,11,4,11,3,9,0,3,2,6,9,23,31,23,13,35,11,28,7,22,13,21,93,63,91,53,48,16,9,29,15,66,66,5,14,87,11,9,24,28,29,9,9,5,0,-5,0,-7,-4,-5,-11,-1,-4,-15,-19,-10,-8,-5,-4,-2,-3,5,6,4,14,6,25,15,10,4,7,68,65,64,15,11,30,24,15,16,8,24,25,36,11,17,51,35,11,6,9,9,3,11,8,5,17,14,11,23,29,2,7,18,25,4,3,6,5,8,5,3,17,0,3,15,3,28,1,6,13,14,14,8,4,15,6,29,33,3,13,32,13,6,2,5,9,5,2,0,2,1,-3,-11,-3,-2,-4,-1,-5,-7,-7,-9,-1,-2,-7,-12,-1],
      "delta_lng":[0,13,34,29,33,22,21,36,15,42,257,77,27,15,16,18,49,68,46,83,164,51,105,45,35,48,19,14,30,42,16,20,33,30,26,77,29,91,7,56,24,17,19,30,27,21,30,27,28,16,18,23,5,28,46,45,24,11,39,4,32,49,26,152,74,80,68,241,35,256,6,70,310,31,46,45,30,38,41,77,76,40,32,80,111,44,155,157,33,121,102,115,64,104,161,150,188,201,142,173,62,29,17,10,28,112,93,53,6,68,9,59,57,112,27,12,36,19,97,112,71,45,97,26,72,47,15,35,34,37,46,37,35,17,85,207,59,27,53,15,56,44,14,49,36,84,5,17,15,29,39,96,139,132,69,199,48,128,27,57,30,36,117,77,120,70,61,22,8,24,16,51,46,5,7,61,10,8,23,37,64,20,40,36,44,33,20,32,19,15,28,2,8,37,53,41,46,18,30,23,66,69,48,24,44,16,58,31,22,10,10,137,128,129,36,38,135,111,41,38,16,44,41,51,15,25,67,47,19,15,22,33,9,68,67,55,135,116,69,129,151,10,31,93,111,24,6,37,19,52,38,13,99,11,18,87,15,165,2,48,70,63,43,24,13,37,11,60,61,6,29,79,41,20,5,17,47,30,23,7,29,21,42,86,31,17,33,20,46,66,53,91,16,16,59,67,8]
    },
    {
      "start":"来待",
      "end":"玉造温泉",
      "lat":35.42241,
      "lng":132.96691,
      "delta_lat":[0,-7,-8,-2,-2,-3,-2,0,-2,0,-2,-2,-3,0,0,0,2,7,9,4,10,4,0,2,0,12,4,22,16,9,2,9,7,4,49,18,22,8,3,12,38,47,31,68,36,9,10,14,33,30,25,11,9,18,10,11,3,20,34,15,14,9,2,8,12,12,2,10,3,7,1,3,4],
      "delta_lng":[0,32,40,30,27,41,39,48,55,1,44,79,21,7,34,39,46,74,49,19,69,25,11,12,4,40,17,80,65,33,7,40,15,13,129,38,38,15,5,18,43,50,26,52,27,6,8,13,24,23,16,10,8,17,11,12,5,25,49,28,25,19,8,16,26,31,8,30,18,29,3,29,27]
    },
    {
      "start":"来待",
      "end":"玉造温泉",
      "lat":35.42241,
      "lng":132.96691,
      "delta_lat":[0,-1,0,0,3,8,9,2,-3,-2,-4,-14,-4,-1,-2,-1,-3,4,5,8,4,14,9,1,7,7,4,5,4,10,1,9,4,5,2,3,6,7,22,35,10,18,6,16,1,22,26,30,24,51,126,9,20,2,25,27,11,26,30,6,1,27,10,14,18,13,14,6,8,1,0,0,0],
      "delta_lng":[0,11,65,20,30,42,64,64,57,23,25,69,13,17,25,9,55,36,55,41,17,57,38,5,29,36,15,23,15,44,3,36,17,28,8,13,24,23,68,78,22,26,7,20,2,19,21,21,13,16,39,3,9,1,14,15,8,22,30,6,3,41,17,28,43,38,54,49,146,32,2,29,27]
    },
    {
      "start":"玉造温泉",
      "end":"米子",
      "lat":35.43002,
      "lng":132.98812,
      "delta_lat":[0,8,1,2,1,2,0,-9,-3,-8,-2,-14,-2,-1,-8,-4,-5,-4,-5,-7,-4,0,9,9,13,6,9,5,3,2,0,-5,-6,-7,-12,-8,-5,-5,-2,3,2,4,2,6,8,0,9,32,12,5,85,25,24,23,45,42,51,64,30,21,26,7,7,20,43,31,12,10,3,4,1,1,-1,0,-5,-7,-13,-16,-22,-12,-15,-3,-2,1,9,10,9,31,12,23,24,40,27,10,19,11,36,28,2,47,22,36,58,2,12,11,12,12,2,23,47,56,69,44,1,15,12,43,20,53,61,37,66,10,47,3,50,56,29,26,4,29,30,61,32,28,83,130,96,36,93,93,50,57,28,12,32,26,6,14,12,64,38,65,83,89,68,70,62,18,11,14,18,1,6,6,7,15,9,12,38,20,11,5,6,7,0,-1,-3,-5,-15,-23,-33,-23,-33,-26,-36,-4,-40,-18,-14,-20,-4,-14,-31,-18,-2,-25,-31,-11,-15,-32,-56,-81,-78,-50,-15,-17,-21,-34,-4,-15,-45,-63,-20,-42,-42,-50,-45,-23,-19,-21,-14,-7,-12,-14,-35,-41,-65,-38,-14,-15,-24,-14,-9,-9,-15,-24,-4,-11,-3,-4,-11,-28,-28,-9,-5,0,1,2,2,1,6,4,8,6,20,14,1,9,17,13,8,10,8,5,1,-1,-2,-2,-4,-8,-9,-22,-13,-19,-24,-23,-35,-38,-49,-11,-68,-131,-84,-147,-34,-67,-45,-46,-42,-13,-11,-98,-107,-99,-32,-62,-36,-49,-107,-97,-114,-89,-83,-23,-25,-35,-46,-23,-14,-7,-34,-51,-40,-12,-10,-5,0,3,12,14,33,52,25,29,38,35,6,29,26,16,9,5,11,3,7,11,6,1,5,3,1,1,2,2,3,8,9,11,14,20,22,19,43,42,28,27,7,13,11,13,8,11,6,5,0,2,-2,-6,-8,-9,-11,-10,-17,-15,-18,-18,-8,-4,-3,-16,-33,-53,-51,-27,-15,-11,-2,-1,0,3,8,11,12,38,34,1,17,15,5,1,1,0,-2,-14,-11,-15,-5,-2,1,3,6,10,13,21,26,0,0,-2,0,-13,-8,-12,-12,-8,0,-13,-1,-1,-9,-6,-18,-11,-22,-20,-23,-20,-9,-2,-23,-25,-15,-18,-29,-9,-6,-10,-24,-25,-3,-17,0,-27,-6,-8,-7,-10,-16,-2,0,-2,-1,-1,1,0,1,0,0,1,-1,0,0,0,1,0,0,0,1,0,0,2,0,4,8,6,9,0,3,3,2,3,1,17,11,5,-1,-8,-10,-21,-11,-5,-3,-6,-3,-12,-17,-9,-18,-24,-30,-64,-56,-32,-24,-21,-26,-20,-42,-21,-29,-32,-46,-83,-77,-39,-19,-18,-18,-31,-33,-49,-40,-46,-24,-27,-34,-31,-18,-13,-14,-14,-26,-20,-5,-16,-22,-15,-9,-7,-13,-18,-12,-27,-60,-35,-20,-32,-44,-27,-50,-9,-76,-70,-24,-24,-32,-29,-18,-21,-12,-25,-13,-8,-3,0,1,0,3,1,-3,-1,2,7,43,47,15,1,51,12,76,19,61,12,19,7,44,6,6,24,32,38,79,53,53,36,108,71,94,23,24,111,15,6,33,98,128,187],
      "delta_lng":[0,66,16,24,30,44,124,91,34,82,18,150,3,17,84,48,48,30,19,62,48,52,61,71,62,37,41,34,25,31,27,45,50,48,79,52,52,50,44,43,21,35,16,29,36,5,30,99,42,18,267,92,79,65,113,106,131,156,80,73,80,21,16,47,104,72,30,37,18,26,42,34,57,14,28,28,36,33,37,29,48,23,22,24,63,37,24,84,33,58,63,79,54,18,24,12,36,25,2,38,18,29,44,2,12,15,17,22,5,42,88,106,135,89,3,30,26,81,30,67,70,37,65,10,51,4,50,58,31,14,3,15,16,26,8,4,5,6,5,-1,-10,-7,-2,-3,1,3,17,17,4,10,11,67,43,79,109,115,88,90,79,26,20,25,49,4,21,28,38,83,55,74,243,120,70,37,49,67,29,38,27,31,61,76,97,64,99,80,99,11,110,52,42,60,10,44,90,50,5,74,81,22,33,56,92,133,126,86,31,42,54,101,9,50,125,183,56,126,128,147,140,69,58,67,46,14,24,20,46,44,68,45,21,27,50,34,28,39,79,137,27,79,28,18,40,81,91,40,31,28,55,69,90,91,52,39,108,41,112,65,3,39,81,50,34,48,56,45,27,26,16,20,16,23,27,40,22,27,31,23,31,25,28,6,37,71,45,81,19,36,24,26,23,7,6,54,58,54,20,44,26,37,81,70,86,68,66,20,21,43,67,43,31,20,81,118,98,46,54,46,37,32,73,59,113,177,86,104,123,90,15,67,52,34,25,13,33,11,30,49,37,12,45,42,44,80,52,24,24,47,41,37,35,40,36,23,44,40,30,32,12,21,23,30,23,41,29,49,16,11,24,47,75,89,98,87,155,128,150,144,69,20,17,53,86,137,128,77,61,50,30,27,28,32,51,45,43,89,70,2,43,48,22,12,25,38,52,99,88,123,45,62,42,45,36,54,73,107,139,12,14,25,14,128,88,142,136,99,6,135,7,17,84,46,119,65,111,100,123,100,44,11,112,129,63,98,153,45,27,52,123,120,24,81,5,135,29,40,36,47,76,16,8,26,5,67,118,123,127,157,132,135,152,20,62,40,126,116,16,84,80,94,18,35,79,73,192,167,196,36,34,78,40,81,13,291,189,74,41,117,171,313,133,66,34,48,23,42,59,18,30,33,34,69,63,34,21,19,17,10,14,7,5,5,3,5,4,5,4,9,9,17,25,39,36,53,27,36,57,48,37,28,41,80,173,135,29,106,149,111,48,42,51,61,31,48,83,49,22,25,30,18,24,4,31,32,11,15,20,27,20,34,25,61,48,48,54,78,34,69,312,188,65,37,38,67,271,294,105,26,181,39,261,68,207,35,46,16,99,12,14,56,59,59,106,68,58,37,98,67,86,24,18,83,13,4,24,82,102,151]
    }
  ]
}