{
  "code":11705,
  "name":"JR境線",
  "color":"#0066B3",
  "symbol":"C",
  "station_list":[
    {"code":1161642,"id":"0bd38f","name":"米子","name_kana":"よなご","lat":35.42327,"lng":133.33657,"prefecture":31,"lines":[11616,11701,11703,11705],"attr":"heat","postal_code":"683-0036","address":"米子市弥生町"},
    {"code":1170502,"id":"3f213e","name":"博労町","name_kana":"ばくろうまち","lat":35.43168,"lng":133.339619,"prefecture":31,"lines":[11705],"attr":"heat","postal_code":"683-0052","address":"米子市博労町"},
    {"code":1170503,"id":"682d04","name":"富士見町(鳥取)","name_kana":"ふじみちょう","lat":35.434602,"lng":133.336627,"prefecture":31,"lines":[11705],"attr":"heat","postal_code":"683-0055","address":"米子市冨士見町"},
    {"code":1170504,"id":"5b005a","name":"後藤","name_kana":"ごとう","lat":35.440026,"lng":133.331264,"prefecture":31,"lines":[11705],"attr":"eco","postal_code":"683-0804","address":"米子市米原"},
    {"code":1170505,"id":"1cd420","name":"三本松口","name_kana":"さんぼんまつぐち","lat":35.446159,"lng":133.323072,"prefecture":31,"lines":[11705],"attr":"eco","postal_code":"683-0853","address":"米子市両三柳"},
    {"code":1170506,"id":"a16443","name":"河崎口","name_kana":"かわさきぐち","lat":35.45676,"lng":133.305407,"prefecture":31,"lines":[11705],"attr":"eco","postal_code":"683-0852","address":"米子市河崎"},
    {"code":1170507,"id":"6a0f3d","name":"弓ヶ浜","name_kana":"ゆみがはま","lat":35.466757,"lng":133.288527,"prefecture":31,"lines":[11705],"attr":"eco","postal_code":"683-0851","address":"鳥取県米子市夜見町字樋口三1351"},
    {"code":1170508,"id":"2da13b","name":"和田浜","name_kana":"わだはま","lat":35.480541,"lng":133.265496,"prefecture":31,"lines":[11705],"attr":"eco","postal_code":"683-0102","address":"米子市和田町"},
    {"code":1170509,"id":"c1e7ed","name":"大篠津町","name_kana":"おおしのづちょう","lat":35.4889,"lng":133.255891,"prefecture":31,"lines":[11705],"attr":"cool","postal_code":"683-0101","address":"米子市大篠津町中沢"},
    {"code":1170510,"id":"0d31b6","name":"米子空港","name_kana":"よなごくうこう","lat":35.502321,"lng":133.247372,"prefecture":31,"lines":[11705],"attr":"cool","postal_code":"684-0055","address":"境港市佐斐神町"},
    {"code":1170511,"id":"1875c7","name":"中浜","name_kana":"なかはま","lat":35.506165,"lng":133.24518,"prefecture":31,"lines":[11705],"attr":"cool","postal_code":"684-0053","address":"境港市小篠津町"},
    {"code":1170512,"id":"9e7c30","name":"高松町","name_kana":"たかまつちょう","lat":35.515408,"lng":133.23985,"prefecture":31,"lines":[11705],"attr":"cool","postal_code":"684-0045","address":"境港市高松町五輪松"},
    {"code":1170513,"id":"4054eb","name":"余子","name_kana":"あまりこ","lat":35.521216,"lng":133.236464,"prefecture":31,"lines":[11705],"attr":"cool","postal_code":"684-0043","address":"境港市竹内町"},
    {"code":1170514,"id":"882828","name":"上道(鳥取)","name_kana":"あがりみち","lat":35.531148,"lng":133.230748,"prefecture":31,"lines":[11705],"attr":"cool","postal_code":"684-0041","address":"境港市中野町"},
    {"code":1170515,"id":"01c798","name":"馬場崎町","name_kana":"ばばさきちょう","lat":35.538461,"lng":133.2265,"prefecture":31,"lines":[11705],"attr":"cool","postal_code":"684-0021","address":"境港市馬場崎町"},
    {"code":1170516,"id":"ffad78","name":"境港","name_kana":"さかいみなと","lat":35.545002,"lng":133.222762,"prefecture":31,"lines":[11705],"attr":"cool","postal_code":"684-0004","address":"境港市大正町１"}
  ],
  "north":35.54513,
  "south":35.4224,
  "east":133.34063,
  "west":133.22276,
  "polyline_list":[
    {
      "start":"米子",
      "end":"境港",
      "lat":35.4224,
      "lng":133.33593,
      "delta_lat":[0,187,123,146,63,82,36,29,57,28,46,24,29,29,16,53,57,106,82,53,81,90,96,80,115,11,95,83,63,20,34,27,26,17,24,33,61,65,89,37,60,42,52,62,52,54,86,79,92,69,37,48,87,77,76,53,34,83,96,74,83,83,99,11,93,150,97,73,84,110,165,97,102,58,37,80,96,172,150,22,117,98,68,58,51,83,89,102,96,45,40,56,20,56,41,33,56,69,47,37,40,52,42,49,46,43,46,45,61,77,63,58,54,68,47,39,36,42,35,33,20,12,9,5,7,17,28,32,61,45,65,57,81,134,44,219,121,123,202,152,34,60,153,368,66,66,123,70,130,233,194,108,65,222,265,160,25,59,43,238,263,88],
      "delta_lng":[0,151,102,119,52,30,10,3,4,-2,-10,-9,-13,-19,-14,-47,-62,-110,-81,-53,-79,-92,-96,-77,-111,-11,-97,-82,-64,-20,-33,-31,-31,-22,-38,-54,-105,-106,-148,-64,-101,-71,-83,-99,-91,-90,-149,-138,-162,-107,-59,-78,-149,-130,-125,-83,-62,-143,-161,-126,-142,-141,-167,-18,-153,-250,-161,-117,-141,-178,-278,-165,-178,-96,-62,-134,-161,-282,-253,-37,-203,-153,-102,-90,-70,-108,-109,-122,-114,-47,-42,-54,-19,-54,-35,-26,-46,-38,-36,-32,-50,-64,-32,-32,-15,-9,0,9,25,56,39,43,28,6,0,-13,-15,-28,-34,-47,-52,-45,-64,-71,-75,-79,-71,-56,-75,-35,-38,-34,-43,-80,-7,-125,-70,-72,-118,-87,-21,-33,-89,-214,-37,-38,-70,-41,-77,-135,-110,-63,-39,-128,-154,-92,-16,-38,-22,-137,-151,-50]
    }
  ]
}