{
  "code":11703,
  "name":"JR伯備線",
  "color":"#35934A",
  "symbol":"V",
  "station_list":[
    {"code":100306,"id":"a9d3b2","name":"岡山","name_kana":"おかやま","lat":34.666572,"lng":133.918552,"prefecture":33,"lines":[11609,11610,11631,11703,11709,11713,11715,1003],"attr":"heat","postal_code":"700-0024","address":"岡山市駅元町１丁目","next":[9970601,9970602,1171302,1170902,1171516],"voronoi":{"lat":34.681852,"lng":133.910571,"delta_lat":[0,-22452,-1766,11258,6893],"delta_lng":[0,-1602,4326,8102,1502]}},
    {"code":1161002,"id":"f88113","name":"北長瀬","name_kana":"きたながせ","lat":34.652995,"lng":133.885325,"prefecture":33,"lines":[11610,11703],"attr":"heat","postal_code":"700-0963","address":"岡山市北長瀬","next":[1171304,1171303,1171302,1170903,1170904,1170902,1161003],"voronoi":{"lat":34.658977,"lng":133.866261,"delta_lat":[0,2978,-6795,-860,-9122,-13926,334],"delta_lng":[0,3623,28190,842,-1943,-20655,-1062]}},
    {"code":1161003,"id":"5f7b38","name":"庭瀬","name_kana":"にわせ","lat":34.642858,"lng":133.854454,"prefecture":33,"lines":[11610,11703],"attr":"heat","postal_code":"701-0151","address":"岡山市平野","next":[1171305,1161004,1170904,1170906,1171304,1161002,1170905],"voronoi":{"lat":34.625713,"lng":133.837713,"delta_lat":[0,2038,24360,8818,-1952,-27391,-7911],"delta_lng":[0,-3921,-8624,33800,7293,8995,-16297]}},
    {"code":1161004,"id":"0cac15","name":"中庄","name_kana":"なかしょう","lat":34.626493,"lng":133.808225,"prefecture":33,"lines":[11610,11703],"attr":"heat","postal_code":"710-0012","address":"倉敷市鳥羽","next":[1171305,1171306,1170906,1161003,1171308,1170907,1161005,1170306,1171309],"voronoi":{"lat":34.661016,"lng":133.796129,"delta_lat":[0,-5979,-2926,-24360,-21256,-9399,43174,4348,8625],"delta_lng":[0,25339,3699,8624,-20624,-16353,-24780,999,7786]}},
    {"code":1161005,"id":"42a7cf","name":"倉敷","name_kana":"くらしき","lat":34.602072,"lng":133.765676,"prefecture":33,"lines":[11610,11703],"attr":"heat","postal_code":"710-0055","address":"倉敷市阿知１丁目","next":[1170908,9971914,1170306,1161004,9970401,9970402,1170907],"voronoi":{"lat":34.64027,"lng":133.772035,"delta_lat":[0,-21998,-6846,-25820,754,2433,8303],"delta_lng":[0,-28407,4045,46217,588,1016,1321]}},
    {"code":1170306,"id":"bb9076","name":"清音","name_kana":"きよね","lat":34.643671,"lng":133.733461,"prefecture":33,"lines":[11703,99705],"attr":"heat","postal_code":"719-1175","address":"総社市清音上中島","next":[9970402,1171309,1170307,1161005,9970503,1161004],"voronoi":{"lat":34.656305,"lng":133.75083,"delta_lat":[0,6356,-46010,1621,21998,4348],"delta_lng":[0,-41756,28348,6206,28407,999]}},
    {"code":1170307,"id":"b6395f","name":"総社","name_kana":"そうじゃ","lat":34.673534,"lng":133.738007,"prefecture":33,"lines":[11703,11713,99705],"attr":"heat","postal_code":"719-1136","address":"総社市駅前１丁目","next":[1170308,1170306,1170309,1171309,9970503],"voronoi":{"lat":34.671319,"lng":133.693525,"delta_lat":[0,2226,20419,-37660,6356],"delta_lng":[0,1956,43436,11913,-41756]}},
    {"code":1170308,"id":"e7bae2","name":"豪渓","name_kana":"ごうけい","lat":34.706299,"lng":133.722604,"prefecture":33,"lines":[11703],"attr":"heat","postal_code":"719-1153","address":"総社市宍粟","next":[1170307,1171510,1171307,1170309,1171309,1170313,1171308],"voronoi":{"lat":34.821059,"lng":133.77488,"delta_lat":[0,24369,-13506,-158377,20419,12394,64690],"delta_lng":[0,-18767,-14899,-45734,43436,12273,18560]}},
    {"code":1170309,"id":"f42268","name":"日羽","name_kana":"ひわ","lat":34.715716,"lng":133.689993,"prefecture":33,"lines":[11703],"attr":"heat","postal_code":"719-1316","address":"総社市日羽","next":[1170310,1170313,9970503,1170307,1170308,9970505,9970504,1170312],"voronoi":{"lat":34.831922,"lng":133.741215,"delta_lat":[0,-158377,-2226,-13,-558,611,106877,34620],"delta_lng":[0,-45734,-1956,-42,-24565,-2045,12250,34367]}},
    {"code":1170310,"id":"35ed22","name":"美袋","name_kana":"みなぎ","lat":34.719797,"lng":133.654388,"prefecture":33,"lines":[11703],"attr":"heat","postal_code":"719-1311","address":"総社市美袋","next":[1170309,1170312,9970506,9970507,1170311,9970505],"voronoi":{"lat":34.778237,"lng":133.679123,"delta_lat":[0,-16944,-66840,-22857,-2710,2474],"delta_lng":[0,-30810,-54052,32140,8076,32396]}},
    {"code":1170311,"id":"d153ee","name":"備中広瀬","name_kana":"びっちゅうひろせ","lat":34.758552,"lng":133.606464,"prefecture":33,"lines":[11703],"attr":"heat","postal_code":"716-0051","address":"高梁市松山","next":[9970507,1170312,9970509,1170315,1170314,9970508,1170310,9970510],"voronoi":{"lat":34.715917,"lng":133.494308,"delta_lat":[0,-12587,-8878,66840,33424,-7671,-29552,-30175],"delta_lng":[0,30035,69917,54052,-99990,-39200,-69848,36327]}},
    {"code":1170312,"id":"8a5d5f","name":"備中高梁","name_kana":"びっちゅうたかはし","lat":34.788648,"lng":133.616524,"prefecture":33,"lines":[11703],"attr":"eco","postal_code":"716-0039","address":"高梁市旭町","next":[1170311,1170310,1170313,1170309,1170314],"voronoi":{"lat":34.794716,"lng":133.548322,"delta_lat":[0,-33424,16944,34620,-8338],"delta_lng":[0,99990,30810,34367,-143629]}},
    {"code":1170313,"id":"3ba46d","name":"木野山","name_kana":"きのやま","lat":34.825682,"lng":133.614374,"prefecture":33,"lines":[11703],"attr":"eco","postal_code":"716-0002","address":"高梁市津川町今津","next":[1170312,1170309,1171510,1170308,1170314,1163416],"voronoi":{"lat":34.926021,"lng":133.684853,"delta_lat":[0,-121503,8338,19066,13506,29435],"delta_lng":[0,-114993,143629,27725,14899,-1716]}},
    {"code":1170314,"id":"4e3b89","name":"備中川面","name_kana":"びっちゅうかわも","lat":34.850129,"lng":133.588543,"prefecture":33,"lines":[11703],"attr":"eco","postal_code":"719-2121","address":"高梁市川面町","next":[1163416,1170311,1163420,1170315,1170313,1170312],"voronoi":{"lat":34.794716,"lng":133.548322,"delta_lat":[0,-7671,157376,-17493,-907,-121503],"delta_lng":[0,-39200,130562,44251,918,-114993]}},
    {"code":1170315,"id":"7fbcd3","name":"方谷","name_kana":"ほうこく","lat":34.876748,"lng":133.556457,"prefecture":33,"lines":[11703],"attr":"eco","postal_code":"719-2402","address":"高梁市中井町西方","next":[1171407,1170311,1163421,9970510,1163420,1170314,1170316],"voronoi":{"lat":34.952245,"lng":133.627532,"delta_lat":[0,-7824,-157376,-29552,7276,58092,134975],"delta_lng":[0,12153,-130562,-69848,-23587,9285,184789]}},
    {"code":1170316,"id":"1ce1dc","name":"井倉","name_kana":"いくら","lat":34.931724,"lng":133.516301,"prefecture":33,"lines":[11703],"attr":"eco","postal_code":"719-2551","address":"新見市井倉","next":[1163423,1171407,1163424,1170315,1170317,1163421],"voronoi":{"lat":34.822861,"lng":133.424972,"delta_lat":[0,3391,151110,1834,-9638,-11722],"delta_lng":[0,-284,94572,45968,29530,15003]}},
    {"code":1170317,"id":"404169","name":"石蟹","name_kana":"いしが","lat":34.954752,"lng":133.479506,"prefecture":33,"lines":[11703],"attr":"eco","postal_code":"718-0015","address":"新見市石蟹","next":[1163425,1171402,1171407,1171406,1163424,1170316,1171404],"voronoi":{"lat":34.950292,"lng":133.43859,"delta_lat":[0,39179,-12108,-151110,54219,1100,30873],"delta_lng":[0,55895,24775,-94572,-13234,-85,5170]}},
    {"code":1163425,"id":"c2ade2","name":"新見","name_kana":"にいみ","lat":34.987232,"lng":133.45674,"prefecture":33,"lines":[11634,11703,11714],"attr":"cool","postal_code":"718-0017","address":"新見市西方","next":[1163424,1170317,1171402,1170320],"voronoi":{"lat":34.98947,"lng":133.494486,"delta_lat":[0,-39179,92039,15057],"delta_lng":[0,-55895,2281,10644]}},
    {"code":1170319,"id":"33e9dc","name":"備中神代","name_kana":"びっちゅうこうじろ","lat":34.994571,"lng":133.40079,"prefecture":33,"lines":[11703,11714],"attr":"cool","postal_code":"718-0017","address":"新見市西方","next":[1171402,1170320,1171404],"voronoi":{"lat":35.028562,"lng":133.422771,"delta_lat":[0,-20955,-46807],"delta_lng":[0,-54159,33723]}},
    {"code":1170320,"id":"b3526f","name":"足立","name_kana":"あしだち","lat":35.038908,"lng":133.383636,"prefecture":33,"lines":[11703],"attr":"cool","postal_code":"719-3612","address":"新見市神郷油野","next":[1163424,1170319,1170321,1171402,1171404,1171405,1163425],"voronoi":{"lat":35.089827,"lng":133.45561,"delta_lat":[0,-55932,-22069,-4218,20955,13768,15057],"delta_lng":[0,-152371,43718,21654,54159,18101,10644]}},
    {"code":1170321,"id":"8a5c3e","name":"新郷(岡山)","name_kana":"にいざと","lat":35.082087,"lng":133.367786,"prefecture":33,"lines":[11703],"attr":"cool","postal_code":"719-2801","address":"新見市神郷釜村","next":[1171405,1171411,1170326,1170322,1170320,1163422,1163424,1170325],"voronoi":{"lat":35.137178,"lng":133.433169,"delta_lat":[0,-82608,-18421,-2254,55932,30395,11972,681],"delta_lng":[0,-152755,10299,12527,152371,12475,350,-1461]}},
    {"code":1170322,"id":"f9475a","name":"上石見","name_kana":"かみいわみ","lat":35.112622,"lng":133.351273,"prefecture":31,"lines":[11703],"attr":"eco","postal_code":"689-5664","address":"日野郡日南町中石見","next":[1170323,1170324,1171411,1170325,1170321],"voronoi":{"lat":35.05457,"lng":133.280414,"delta_lat":[0,41614,59034,1502,-19542],"delta_lng":[0,-35080,118081,12898,56856]}},
    {"code":1170323,"id":"614a46","name":"生山","name_kana":"しょうやま","lat":35.171066,"lng":133.322054,"prefecture":31,"lines":[11703],"attr":"eco","postal_code":"689-5211","address":"日野郡日南町生山","next":[1170613,1171411,1170324,1170322,1170103,1170615,1171412],"voronoi":{"lat":35.108057,"lng":133.231138,"delta_lat":[0,69782,99571,3562,-125755,-59034,2025],"delta_lng":[0,-23814,2751,8104,145236,-118081,-3225]}},
    {"code":1170324,"id":"24caa5","name":"上菅","name_kana":"かみすげ","lat":35.193886,"lng":133.341813,"prefecture":31,"lines":[11703],"attr":"eco","postal_code":"689-5137","address":"日野郡日野町上菅","next":[1170323,1170325,1170322,1170102,1170330,1170103,1161642],"voronoi":{"lat":35.30747,"lng":133.290701,"delta_lat":[0,-24023,-2474,-125755,1502,149953,1585],"delta_lng":[0,-68142,-4380,145236,12898,-46593,-4533]}},
    {"code":1170325,"id":"eeab99","name":"黒坂","name_kana":"くろさか","lat":35.206893,"lng":133.383674,"prefecture":31,"lines":[11703],"attr":"eco","postal_code":"689-5131","address":"日野郡日野町黒坂","next":[1170330,1170326,1170324,1170322,1170329,1170321],"voronoi":{"lat":35.137178,"lng":133.433169,"delta_lat":[0,19542,149953,-39,-15875,-157884],"delta_lng":[0,-56856,-46593,276,43404,93575]}},
    {"code":1170326,"id":"a009d8","name":"根雨","name_kana":"ねう","lat":35.241483,"lng":133.442036,"prefecture":31,"lines":[11703],"attr":"eco","postal_code":"689-4503","address":"日野郡日野町根雨","next":[1170327,1170325,1170321,1163422,1170329],"voronoi":{"lat":35.171696,"lng":133.521086,"delta_lat":[0,-39502,681,157884,3528],"delta_lng":[0,-52650,-1461,-93575,56376]}},
    {"code":1170327,"id":"d639c1","name":"武庫","name_kana":"むこ","lat":35.267419,"lng":133.476857,"prefecture":31,"lines":[11703],"attr":"cool","postal_code":"689-4411","address":"日野郡江府町武庫","next":[1170326,1170328,1163422,1170329],"voronoi":{"lat":35.294287,"lng":133.429775,"delta_lat":[0,-122591,39603,86513],"delta_lng":[0,91310,84934,-169383]}},
    {"code":1170328,"id":"7e1296","name":"江尾","name_kana":"えび","lat":35.283043,"lng":133.484837,"prefecture":31,"lines":[11703],"attr":"cool","postal_code":"689-4401","address":"日野郡江府町大字江尾","next":[1172509,1163422,1161635,1170327,1170329,1163419],"voronoi":{"lat":35.21902,"lng":133.625692,"delta_lat":[0,-7721,86513,91990,-6186,-159303],"delta_lng":[0,-19672,-169383,121149,17901,55112]}},
    {"code":1170329,"id":"742d59","name":"伯耆溝口","name_kana":"ほうきみぞぐち","lat":35.348207,"lng":133.435357,"prefecture":31,"lines":[11703],"attr":"cool","postal_code":"689-4201","address":"西伯郡伯耆町溝口","next":[1161637,1161635,1161639,1170328,1161638,1170325,1170326,1170330,1170327],"voronoi":{"lat":35.294287,"lng":133.429775,"delta_lat":[0,-3528,15875,98337,1621,-3551,-4949,-8290,-91990],"delta_lng":[0,-56376,-43404,148657,31668,22747,13916,10802,-121149]}},
    {"code":1170330,"id":"df80fe","name":"岸本","name_kana":"きしもと","lat":35.387333,"lng":133.409475,"prefecture":31,"lines":[11703],"attr":"cool","postal_code":"689-4135","address":"西伯郡伯耆町押口","next":[1161641,1170325,1161642,1170324,1161639,1161640,1170329],"voronoi":{"lat":35.306633,"lng":133.329995,"delta_lat":[0,39,1585,78501,4557,30862,-17207],"delta_lng":[0,-276,-4533,38696,3437,52304,59029]}},
    {"code":1161640,"id":"42f652","name":"伯耆大山","name_kana":"ほうきだいせん","lat":35.430142,"lng":133.384216,"prefecture":31,"lines":[11616,11703],"attr":"heat","postal_code":"689-3543","address":"米子市蚊屋","next":[1170504,1170505,1170330,1161641,1161639],"voronoi":{"lat":35.391316,"lng":133.367319,"delta_lat":[0,105805,3031,4408,-82382],"delta_lng":[0,2000,566,1155,48583]}},
    {"code":1161641,"id":"a14353","name":"東山公園(鳥取)","name_kana":"ひがしやまこうえん","lat":35.430753,"lng":133.351902,"prefecture":31,"lines":[11616,11703],"attr":"heat","postal_code":"683-0006","address":"米子市車尾","next":[1170330,1170502,1170503,1170504,1161640,1161642],"voronoi":{"lat":35.391316,"lng":133.367319,"delta_lat":[0,105805,-44680,-10663,-16908,-38111],"delta_lng":[0,2000,-20075,-2687,-1276,18601]}},
    {"code":1161642,"id":"0bd38f","name":"米子","name_kana":"よなご","lat":35.42327,"lng":133.33657,"prefecture":31,"lines":[11616,11701,11703,11705],"attr":"heat","postal_code":"683-0036","address":"米子市弥生町","next":[1170504,1170503,1170330,1170502,1170505,1170324,1170102,1161641],"voronoi":{"lat":35.308258,"lng":133.325187,"delta_lat":[0,-788,108071,9750,3701,-43,-4079,-38111],"delta_lng":[0,-34486,6607,16533,11688,8501,11252,18601]}}
  ],
  "north":35.43198,
  "south":34.59886,
  "east":133.91922,
  "west":133.31949,
  "polyline_list":[
    {
      "start":"米子",
      "end":"伯耆大山",
      "lat":35.4224,
      "lng":133.33593,
      "delta_lat":[0,187,123,146,63,109,9,33,37,24,24,14,22,26,24,13,14,10,9,5,4,0,-4,-7,-24,-5,-7,-24,-32,-33,-26,-5,-2,-25,-3,-3,-5,-49,-10,-3,-43,-34,-6,-41,-22,-7,-9,-5,0,3,9,13,14,18,28,23,56,18,76],
      "delta_lng":[0,151,102,119,52,92,8,29,41,31,37,26,49,67,58,40,62,47,56,55,63,37,44,61,123,35,35,140,180,188,154,24,14,150,10,24,13,283,52,17,242,197,33,239,128,35,55,73,56,94,140,115,75,68,74,53,107,33,141]
    },
    {
      "start":"高倉山トンネル北",
      "end":"高倉山トンネル南",
      "lat":34.76714,
      "lng":133.60614,
      "delta_lat":[0,30,52,42,109,57,157,18,73,60,83,60,21,38,44,95,159,103,55,71,8,32,29],
      "delta_lng":[0,-1,-3,-4,-2,-2,-3,-2,0,0,9,8,4,9,11,30,71,50,34,47,4,25,25]
    },
    {
      "start":"美袋トンネル西",
      "end":"美袋トンネル東",
      "lat":34.72004,
      "lng":133.66001,
      "delta_lat":[0,2,7,14,24,4,2,41,2,6,3,4,3,0,-2,-3,-5,-6,-2,2,2,2,2,1,2,4,3,5,6,47,3,2,2,15,23,8],
      "delta_lng":[0,5,24,38,66,9,5,92,4,19,16,15,24,39,18,16,17,27,16,56,40,49,34,18,16,18,18,16,17,100,8,2,4,33,51,15]
    },
    {
      "start":"大黒山トンネル南",
      "end":"大黒山トンネル北",
      "lat":34.72678,
      "lng":133.64777,
      "delta_lat":[0,45,8,22,58,18,37,283,251,25,58,49,28,30,33,70],
      "delta_lng":[0,18,1,9,12,2,-4,-59,-60,-7,-19,-20,-10,-14,-15,-35]
    },
    {
      "start":"大黒山トンネル北",
      "end":"高倉山トンネル北",
      "lat":34.73693,
      "lng":133.64576,
      "delta_lat":[0,7,66,24,5,38,75,16,33,26,37,29,17,32,54,18,38,6,2,7,38,8,19,7,7,103,120,26,11,9,13,11,7,8,7,5,22,7,13,17,8,6,15,4,4,27,7,11,16,17,10,7,3,2,1,3,6,2,12,27,3,3,5,6,53,50,52,10,12,56,15,61,12,15,54,46,45,39,11,37,18,17,44,54,31,0,56,31,39,42,22,21,19,21,8,6,-3,-11,-13,-11,-5,0,8,12,15,17,22,25,26,18,25,31,33,31,39,32,33,31,35,43,43,34,13,13,18,34,33,34,23,20,78,55],
      "delta_lng":[0,-6,-49,-20,-4,-35,-77,-16,-40,-31,-48,-36,-24,-51,-80,-28,-52,-7,-2,-7,-35,-6,-21,-9,-9,-123,-142,-28,-13,-13,-21,-18,-14,-14,-17,-15,-50,-20,-29,-47,-27,-24,-59,-16,-11,-76,-22,-34,-45,-44,-30,-22,-20,-14,-21,-27,-54,-18,-50,-120,-7,-9,-8,-8,-63,-58,-50,-12,-10,-45,-10,-52,-6,-12,-42,-38,-38,-36,-9,-31,-27,-35,-113,-115,-57,-2,-101,-52,-51,-59,-31,-42,-49,-78,-44,-51,-45,-55,-65,-81,-77,-66,-56,-78,-53,-42,-46,-44,-40,-17,-20,-17,-10,-4,0,6,12,16,25,32,41,35,19,11,14,22,18,19,8,5,10,3]
    },
    {
      "start":"高倉山トンネル北",
      "end":"高倉山トンネル南",
      "lat":34.76714,
      "lng":133.60614,
      "delta_lat":[0,41,32,44,59,74,59,129,60,24,23,55,34,55,43,39,64,12,20,54,25,26,32,35,25,21,26,31,29,23,18,18,11,3,9,17,13,8,6,4,25,11,12,4,7,11,12,13],
      "delta_lng":[0,-13,-14,-24,-35,-45,-30,-57,-28,-6,-2,-1,-4,-9,-14,-18,-39,-9,-13,-48,-17,-13,-13,-13,-2,-1,4,14,20,18,23,30,20,6,15,49,50,38,47,27,117,72,89,34,32,32,22,19]
    },
    {
      "start":"美袋トンネル西",
      "end":"美袋トンネル東",
      "lat":34.72004,
      "lng":133.66001,
      "delta_lat":[0,34,11,11,61,15,7,10,10,5,4,2,7,2,6,1,18,19],
      "delta_lng":[0,60,18,21,98,36,17,30,45,27,27,34,223,91,51,5,89,73]
    },
    {
      "start":"大黒山トンネル南",
      "end":"大黒山トンネル北",
      "lat":34.72678,
      "lng":133.64777,
      "delta_lat":[0,26,55,29,12,16,18,42,286,184,62,32,26,23,23,24,27,43,27,22,18,14,6],
      "delta_lng":[0,22,25,13,2,1,1,-2,-65,-43,-17,-10,-9,-9,-9,-9,-15,-21,-16,-13,-13,-11,-3]
    },
    {
      "start":"美袋トンネル東",
      "end":"秋葉山トンネル北",
      "lat":34.72226,
      "lng":133.66947,
      "delta_lat":[0,11,14,11,23,29,12,6,4,2,1,0,0,0,-2,-5,-3,-6,-11,-11,-17,-5,-10,-17,-1,-11,-31,-9,-15,-59,-38,-31,-90,-117,-192,-9,-5,-26,-4,-14,-11,-52,-26,-12,-15,-1,-2,-20,-35,-19,-2,-6,-3,-4,-5,-6,-16,-7,-6,-5,-12,-4,-5,-9,-11,-6,-4,-14,-9,-20,-60,-92,-81,-65,-25,-51,-49,-47,-18,-15,-19,-27,-10,-5,-9,-2,-25,-26,-25,-26,-52,-3,-3,-6,-2,1,1,9,2,3,3,3,7,17,15,23,12,2,36,26,18,12,17,1,5,4,0],
      "delta_lng":[0,31,49,43,80,117,46,36,18,17,41,26,59,12,19,21,20,29,43,42,46,13,22,31,3,18,48,12,23,108,68,52,153,199,320,15,9,44,9,26,24,127,96,48,86,8,10,148,295,160,17,48,21,29,28,27,60,25,18,13,38,10,13,22,19,8,9,22,16,28,78,116,104,84,32,66,63,63,25,23,28,40,16,9,20,8,63,71,64,70,138,11,18,54,17,13,35,144,23,21,16,11,29,58,47,80,44,3,115,78,58,42,51,12,16,20,14]
    },
    {
      "start":"美袋トンネル西",
      "end":"大黒山トンネル南",
      "lat":34.72004,
      "lng":133.66001,
      "delta_lat":[0,-4,-5,0,0,-9,-2,-3,-1,-3,0,0,0,4,11,7,4,10,5,8,7,7,26,34,39,20,10,56,70,11,36,14,17,34,31,12,15,20,18,9,29,16,17,14,91],
      "delta_lng":[0,-22,-23,-31,-37,-404,-119,-115,-44,-73,-5,-10,-13,-36,-67,-26,-10,-22,-10,-14,-10,-10,-29,-31,-30,-14,-5,-33,-37,-5,-12,-6,-3,-7,-3,-1,1,3,4,2,9,7,6,8,53]
    },
    {
      "start":"高倉山トンネル南",
      "end":"伯耆大山",
      "lat":34.7811,
      "lng":133.60924,
      "delta_lat":[0,19,34,23,29,51,280,105,136,150,9,64,75,46,46,38,32,25,64,119,79,141,58,60,15,17,111,126,2,40,23,40,60,90,129,96,68,121,67,80,61,22,20,19,6,31,66,86,57,27,19,37,71,59,58,36,22,32,10,14,35,26,26,36,40,30,33,27,20,18,31,23,31,31,31,29,40,54,27,19,20,42,9,20,27,27,23,6,18,20,16,19,19,40,54,6,14,23,22,25,30,45,40,23,23,21,53,4,32,35,40,40,66,49,58,41,80,65,47,46,48,36,44,42,19,7,4,26,32,7,52,38,26,31,27,20,9,30,13,83,100,223,28,60,50,27,47,27,29,63,42,40,20,12,25,13,25,28,77,16,80,80,52,148,38,51,29,17,23,26,6,6,-1,-23,-2,9,20,29,9,29,10,6,73,118,103,10,4,9,61,45,18,8,12,4,21,34,26,33,43,38,43,49,60,11,23,29,44,28,147,60,26,121,8,31,130,65,61,72,28,21,20,68,111,16,15,7,5,4,-2,0,11,3,11,37,39,31,11,39,108,80,73,33,40,10,36,28,30,141,103,38,38,59,51,40,16,29,32,33,38,19,71,26,54,17,14,49,41,9,92,33,36,26,24,15,11,11,3,12,56,86,45,71,4,21,114,153,53,67,34,65,76,58,89,87,10,9,52,8,40,59,40,56,9,23,23,75,29,23,17,15,229,11,90,358,200,22,11,22,7,29,43,45,48,47,40,82,107,123,193,69,80,50,60,47,33,29,21,22,8,5,-2,0,-17,-21,-58,-1,-7,-3,-2,6,6,10,7,25,31,38,70,130,3,44,64,63,175,2,9,84,29,135,98,3,79,201,27,24,123,25,60,37,179,141,11,8,26,189,5,47,163,66,272,493,112,29,9,38,43,36,11,13,62,14,18,38,13,85,90,82,14,92,65,37,89,35,33,200,78,45,36,34,348,35,44,22,23,96,70,13,69,30,24,13,74,32,26,68,9,13,58,27,20,4,16,206,48,103,33,44,7,52,35,27,16,22,137,58,33,10,6,-4,-13,-38,-45,-42,-54,-63,-18,-36,-35,-11,-36,-52,-19,-344,-18,-4,-11,-5,-13,-3,-15,-1,-10,-9,-16,-38,-78,-25,-12,-2,3,4,9,10,22,13,45,45,19,30,13,36,69,27,13,59,46,42,26,20,14,58,14,10,4,-4,-58,-5,-3,3,10,22,27,45,20,81,28,41,54,11,27,22,16,14,46,61,40,37,48,65,78,88,230,25,6,61,5,22,42,20,20,9,12,28,25,34,29,21,23,42,44,40,58,40,171,47,45,18,46,50,18,31,7,0,-5,-14,-2,0,1,6,2,16,10,0,9,13,22,58,44,39,163,10,11,19,11,34,32,23,42,7,48,50,50,120,29,15,122,78,20,31,29,47,52,31,54,88,10,20,19,19,39,51,18,16,30,64,20,15,21,24,83,63,11,87,38,3,9,43,39,36,5,14,17,11,70,83,40,100,149,28,11,19,26,10,13,117,22,76,27,43,60,40,36,28,34,48,36,15,40,14,29,24,21,30,43,3,22,78,54,40,81,61,35,227,21,35,33,54,66,37,58,56,33,123,5,51,74,70,47,31,32,150,4,34,28,3,28,61,25,101,33,47,51,17,13,15,3,38,11,9,3,5,17,8,11,20,28,19,28,25,7,67,19,5,74,49,33,25,22,44,40,60,23,23,54,108,70,98,51,107,81,36,10,32,90,31,23,68,86,23,46,9,34,25,31,18,23,23,37,22,26,38,32,18,19,42,69,56,69,65,30,20,34,73,14,99,147,172,29,104,82,48,58,22,76,18,72,52,11,60,67,32,51,96,59,67,64,12,28,30,25,24,25,10,12,7,8,8,1,7,13,19,20,18,8,2,13,17,16,28,50,18,33,8,12,10,13,7,9,10,4,3,-1,-5,-12,-17,0,-1,0,1,4,3,6,7,9,14,42,42,16,11,29,12,16,18,24,5,12,25,12,6,12,38,12,21,14,35,34,22,25,65,27,31,22,32,20,52,51,29,36,24,37,37,52,33,5,4,52,28,32,34,15,28,22,18,31,23,20,22,41,26,32,22,20,14,26,43,29,22,34,25,35,3,24,4,23,33,30,18,51,59,203,103,17,17,21,120,18,47,56,60,36,113,48,87,125,88,19,57,17,34,31,15,24,47,18,25,40,2,31,25,22,30,24,33,23,20,27,45,20,26,7,23,24,25,30,32,21,17,18,16,9,5,11,12,10,14,24,27,24,28,38,65,35,20,34,57,51,24,30,24,22,13,37,38,16,33,38,25,36,55,30,30,16,21,26,28,24,26,30,31,16,13,30,42,50,39,23,16,34,15,38,14,145,29,27,50,37,29,21,30,47,38,5,96,93,4,13,14,57,151,229,53,29,130,29,35,35,33,35,33,26,148,87,38,36,45,36,19,14,6,3,-4,1,3,11,13,11,19,11,51,56,94,23,29,13,30,10,2,-2,-21,-24,-4,-25,-15,-23,-8,0,0,5,12,12,28,9,7,20,39,31,51,9,5,54,34,38,22,15,12,20,9,7,-2,-15,-17,-29,-74,-36,-12,-17,-7,2,1,10,14,16,24,10,20,100,23,9,19,15,15,6,32,18,2,15,1,16,20,16,20,7,10,16,14,49,38,28,26,26,20,30,22,14,9,6,16,25,13,14,47,35,9,16,7,39,40,106,16,123,159,14,3,30,6,38,27,13,30,63,14,5,24,6,69,28,18,26,6,48,6,31,70,15,9,10,15,14,20,7,17,8,2,11,15,12,55,14,33,3,22,4,20,28,7,15,2,5,14,4,18,18,7,51,2,18,16,4,26,26,10,11,8,24,21,84,61,22,28,15,11,35,5,9,20,8,8,31,5,11,14,9,10,11,6,4,18,22,27,4,34,38,13,70,5,10,36,1,3,30,15,20,30,27,29,23,33,42,25,36,27,26,18,28,32,35,51,80,25,29,22,3,24,18,19,57,19,13,40,13,32,33,5,27,2,16,8,12,38,26,38,5,5,14,13,10,1,0,0,2,0,-2,0,-14,-20,-22,-22,-17,-38,-17,-10,-1,-16,-5,-8,-4,-4,-5,-3,0,5,4,7,8,23,33,14,2,52,22,35,35,18,15,52,1,17,15,95,11,51,17,7,3,1,3,0,12,4,5,4,7,10,10,11,20,3,29,15,13,1,37,32,40,50,44,13,59,2,69,54,16,119,22,20,14,33,85,14,1,17,17,34,38,27,23,6,31,43,29,47,38,23,33,47,49,48,38,44,29,52,58,28,24,80,32,22,15,16,14,13,11,7,5,1,4,7,3,2,3,13,19,21,26,24,24,36,33,22,37,42,27,27,11,8,15,21,19,24,51,59,32,18,19,14,14,28,19,15,23,24,23,15,25,17,14,16,9,13,25,13,13,25,24,21,23,44,29,74,233,66,131,110,26,36,139,108,107,241,25,15,29,27,7,28,46,36,29,22,21,23,32,21,33,20,12,8,7,7,9,7,5,7,0,6,7,4,13,23,17,15,24,18,19,300,139,178,16,161,279,18,18,24,30,20,26,16,33,243,42,99,7,71,36,5,42,126,50,21,29,20,18,295,57,15,21,28,18,13,9,23,21,26,21,9,33,11,67,14,7,87,13,200,57,61,38,33,19,50,26,28,39,1,15,27,17,23,255,64,30,19,342,17,21,10,38,75,31,39,74,43,155,8,75,9,116,9,98,67,117,50,24,44,38,19,25,46,118,37,38,17,61,81,45,29,37,25,60,53,42,13,5,24,40,17,33,45,26,38,10,4,52,38,12,26,37,102,94,64,15,16,7,43,7,26,126,170,154,54,98,101,19,13,6,86,89,203,148,50,55,84,49,42,45,29,43,13,18,50,6,49,45,20,38,65,44,175,68,44,43,41,52,90,68,43,43,43,213,5,87,58,116,8,3,29,151,58,16,58,46,81,57,53,76,36,117,40,20,43,1,57,19,21,8,82,66,31,15,69,85,45,22,16,24,63,157,123,71,8,124,26,59,22,6,27,103,17,71,57,54,18,37,85,96,130,209,174,136,62,95,126,76,45,43,29,26,19,21,16,9,1,-1,-4,-14,-24,-12,-80,-103],
      "delta_lng":[0,22,41,24,30,48,267,95,131,143,9,62,63,36,22,13,7,-3,-10,-24,-17,-32,-13,-15,-2,-3,-26,-31,-1,-9,-3,-3,-8,-11,-3,-2,-2,-3,0,-3,-9,-3,-3,-3,-2,-9,-19,-26,-21,-12,-11,-23,-53,-40,-31,-14,-4,-1,3,3,10,12,21,33,39,35,49,41,39,44,73,52,47,25,19,13,7,8,-3,-2,-6,-13,-6,-11,-22,-23,-30,-8,-25,-33,-33,-53,-62,-144,-186,-30,-64,-70,-46,-37,-32,-46,-36,-21,-26,-33,-89,-6,-44,-53,-43,-33,-56,-40,-49,-37,-71,-52,-36,-33,-38,-28,-35,-53,-40,-14,-15,-103,-135,-34,-125,-62,-31,-28,-25,-13,-6,-14,-5,-22,8,48,3,2,-8,-5,-17,-9,-16,-33,-35,-45,-31,-32,-64,-47,-140,-83,-156,-30,-87,-61,-36,-76,-26,-46,-40,-34,-48,-93,-46,-57,-35,-197,-41,-47,-68,-60,-17,-54,-14,-9,-81,-118,-92,-9,-4,-10,-70,-73,-56,-24,-93,-9,-44,-50,-28,-25,-24,-15,-11,-8,-2,0,0,-1,-7,-11,-74,-30,-17,-90,-4,-14,-36,-24,-26,-36,-24,-24,-21,-76,-150,-32,-34,-27,-19,-50,-140,-27,-129,-11,-63,-110,-77,-43,-13,-34,-66,-33,-12,2,7,2,6,5,5,12,2,0,-4,-7,-10,-14,-7,-14,-15,-23,-30,-13,-45,-5,-9,-6,-5,-34,-38,-7,-87,-39,-39,-40,-42,-35,-32,-33,-9,-38,-140,-133,-68,-126,-8,-31,-159,-171,-50,-59,-32,-36,-26,-9,17,31,4,2,5,-1,-5,-22,-25,-43,-7,-27,-27,-99,-26,-21,-16,-11,-164,-8,-63,-266,-165,-27,-21,-38,-28,-87,-91,-69,-54,-36,-17,-11,8,16,19,-3,-7,-9,-25,-33,-38,-40,-54,-80,-52,-56,-78,-10,-120,-83,-177,-5,-41,-43,-31,-50,-31,-40,-34,-77,-64,-50,-65,-122,-3,-38,-65,-77,-244,-4,-14,-119,-41,-201,-182,-7,-152,-391,-42,-27,-118,-23,-59,-40,-202,-161,-12,-9,-28,-199,-5,-33,-75,-31,-132,-235,-54,-13,-7,-24,-41,-55,-27,-34,-241,-41,-38,-68,-21,-95,-69,-47,-8,-53,-36,-12,-6,6,12,137,51,21,6,-1,-25,-6,-15,-13,-11,-72,-63,-14,-87,-47,-39,-31,-257,-108,-90,-230,-31,-50,-197,-97,-44,-6,-27,-276,-90,-286,-111,-153,-25,-189,-75,-34,-22,-29,-153,-82,-80,-43,-78,-34,-58,-77,-62,-38,-27,-25,-10,-19,-28,-9,-42,-59,-23,-456,-21,-6,-22,-16,-44,-10,-162,-10,-77,-25,-36,-53,-104,-67,-73,-66,-44,-16,-25,-26,-55,-23,-52,-32,-6,-11,-4,-3,-2,0,-2,-16,-25,-38,-30,-37,-23,-156,-37,-39,-55,-56,-247,-51,-128,-27,-54,-63,-51,-68,-30,-106,-42,-64,-78,-15,-36,-32,-20,-14,-36,-26,-6,-2,7,28,48,62,177,38,13,139,10,39,52,20,14,5,7,12,7,4,2,-2,-6,-20,-30,-23,-25,-8,-10,-2,-14,-9,-35,-62,-32,-105,-39,-42,-56,-90,-39,-5,-40,-39,-5,-47,-24,-1,-20,-22,-29,-50,-23,-8,0,0,0,-2,0,-11,-18,-13,-20,-3,-15,-17,0,13,3,2,0,18,5,2,-3,-15,-20,-16,-27,-51,-5,-13,-12,-12,-43,-67,-23,-22,-38,-88,-14,-12,-12,-12,-45,-35,-10,-83,-25,-2,-2,-16,-10,-16,-1,-10,-11,-9,-87,-120,-28,-57,-71,-12,-7,-9,-8,-1,0,18,5,14,6,13,31,20,19,14,18,20,5,0,0,0,-8,-13,-19,-27,-39,-5,-13,-54,-20,-3,4,13,11,68,7,10,10,6,2,1,2,23,13,32,2,-8,-39,-43,-48,-50,-55,-260,-7,-62,-53,-4,-40,-63,-14,-30,-11,-28,-31,-20,-20,-28,-9,-164,-41,-34,-9,-26,-45,-21,-22,-38,-44,-16,-24,-20,-5,-46,-10,-3,-41,-25,-16,-5,-2,0,2,8,-3,-3,-12,-30,-15,-10,-2,0,-16,-17,-6,-17,-49,-14,-8,-18,-25,-11,-22,-4,-6,-3,1,2,7,9,23,15,20,28,17,4,3,-2,-11,-16,-19,-17,-6,-5,-7,-18,-3,-25,-49,-64,-12,-49,-37,-23,-28,-9,-36,-9,-41,-29,-7,-36,-40,-20,-36,-69,-41,-50,-46,-9,-22,-25,-25,-30,-34,-18,-25,-20,-22,-32,-3,-42,-107,-172,-189,-154,-43,-13,-50,-42,-35,-41,-76,-24,-51,-14,-24,-25,-39,-18,-31,-48,-45,-48,-20,-34,-57,-77,-3,-15,-18,-18,-27,-26,-25,-33,-21,-39,-100,-100,-32,-15,-38,-14,-22,-22,-33,-10,-22,-66,-28,-16,-28,-79,-19,-36,-17,-28,-24,-12,-9,-8,-3,-6,-5,-11,-11,-41,-46,-27,-23,-9,-10,-8,-6,-1,1,0,13,9,19,28,12,18,13,4,9,4,0,-4,-11,-10,-16,-17,-17,-18,-42,-84,-51,-25,-31,-18,-20,-1,-12,-2,-4,-3,1,5,16,20,65,33,4,0,-4,-42,-2,0,4,4,3,9,2,8,8,6,4,14,7,16,18,10,18,39,21,39,73,5,47,29,23,22,17,15,7,3,0,-6,-5,-13,-2,-13,-16,-23,-27,-37,-36,-30,-40,-38,-35,-33,-47,-43,-27,-22,-25,-12,-7,-8,-16,-30,-15,-6,-5,-9,-10,-8,-15,-15,-16,-15,-44,-48,-24,-53,-55,-38,-60,-86,-48,-31,-11,-4,-2,2,5,6,17,17,14,10,29,36,42,26,12,5,12,3,4,1,3,-1,-7,-12,-7,-1,2,10,26,33,6,162,156,5,11,10,29,81,124,23,2,-21,-3,4,5,9,5,8,5,34,28,23,25,48,54,44,38,31,19,200,42,21,46,43,26,30,13,50,53,89,28,57,32,92,41,74,111,127,107,19,114,110,198,82,69,65,71,129,89,168,27,22,40,55,30,30,6,3,28,25,36,30,23,25,50,35,69,75,60,39,47,111,55,27,64,52,42,12,51,44,40,45,14,25,99,27,13,37,45,57,24,97,55,6,44,0,44,45,27,26,7,12,15,11,40,26,22,23,30,33,79,118,67,46,22,36,43,19,14,43,20,6,7,3,11,3,9,1,14,13,2,0,3,2,1,8,5,10,30,6,3,11,5,41,16,12,18,3,30,5,19,50,13,9,11,17,25,43,19,47,24,8,41,48,38,183,47,107,11,70,13,70,91,24,49,6,16,44,16,52,58,29,183,9,66,38,11,46,36,13,13,9,25,20,71,52,18,29,18,17,53,9,19,60,22,24,90,22,30,38,23,31,33,14,10,58,54,60,2,70,76,24,134,12,18,74,2,7,55,23,24,26,20,17,9,10,5,-1,-5,-8,-9,-4,-9,-12,-11,-18,-19,-3,-3,3,1,2,3,7,20,9,7,21,12,30,42,10,38,4,32,11,26,77,62,108,13,22,54,64,95,19,208,57,68,45,20,15,47,63,41,39,29,76,29,12,4,26,13,26,19,18,24,17,59,26,27,22,19,49,53,24,2,84,36,57,56,29,24,83,3,27,23,151,19,102,40,23,13,10,6,7,44,28,20,41,36,33,19,25,34,7,47,23,16,3,50,45,42,43,35,10,39,1,39,28,5,58,10,12,9,34,106,16,3,20,27,45,47,33,18,4,31,44,37,58,48,28,46,62,72,71,55,68,40,60,61,30,23,61,26,25,26,41,46,66,79,52,66,8,115,223,84,83,33,49,47,42,32,29,22,21,13,8,9,3,2,-1,-2,-1,-4,-9,-9,-14,-34,-41,-20,-11,-6,-4,-4,-2,1,0,6,7,11,10,20,16,16,19,16,22,57,33,21,48,34,23,22,32,23,44,145,43,70,50,9,9,34,20,24,43,3,1,-2,-2,-1,-7,-17,-18,-16,-17,-18,-23,-35,-25,-44,-34,-23,-22,-18,-27,-45,-41,-48,-92,-33,-58,-32,-18,-27,-53,-27,-19,-28,-18,-15,-163,-75,-96,-7,-60,-98,-7,-11,-18,-26,-18,-25,-18,-44,-312,-52,-126,-9,-90,-46,-5,-56,-161,-57,-19,-22,-10,-9,-64,-11,-5,-9,-15,-14,-12,-13,-55,-53,-67,-49,-18,-72,-26,-131,-27,-14,-126,-18,-264,-78,-94,-66,-66,-47,-145,-73,-70,-86,-3,-31,-49,-21,-24,-178,-37,-18,-8,-108,-3,-3,-3,-1,0,-2,-5,7,4,10,0,5,0,7,2,5,4,7,1,-2,-10,-15,-10,-20,-43,-100,-33,-37,-13,-50,-64,-37,-17,-18,-11,-18,-17,-12,-3,-2,-4,-7,-3,-6,-14,-10,-18,-5,-3,-27,-21,-6,-15,-22,-67,-71,-55,-13,-15,-7,-41,-5,-25,-113,-140,-130,-51,-92,-102,-19,-13,-6,-87,-90,-203,-154,-41,-41,-53,-31,-25,-16,-11,-28,-9,-14,-45,-5,-40,-30,-15,-9,-15,1,10,4,-2,-11,-20,-30,-73,-53,-28,-31,-29,-135,-4,-55,-37,-73,-5,0,-19,-94,-37,-11,-36,-31,-45,-30,-24,-28,-13,-41,-17,-4,-17,0,-20,-7,-8,-3,-28,-22,-8,-4,-15,-16,-9,-3,-3,-2,-4,-14,-10,-6,-2,-9,-1,-4,-1,-3,-1,-8,-1,-5,-5,-7,-5,-15,-45,-52,-66,-104,-85,-65,-29,-44,-58,-43,-29,-36,-38,-41,-39,-57,-63,-46,-29,-25,-46,-77,-79,-22,-151,-196]
    },
    {
      "start":"酒津トンネル北",
      "end":"酒津トンネル南",
      "lat":34.62295,
      "lng":133.74678,
      "delta_lat":[0,-32,-9,-29,-34,-192,-90],
      "delta_lng":[0,45,12,40,39,276,106]
    },
    {
      "start":"秋葉山トンネル北",
      "end":"秋葉山トンネル南",
      "lat":34.70728,
      "lng":133.72598,
      "delta_lat":[0,-1,-3,-5,-3,-7,-5,-12,-11,-22,-58,-1,-40,-53,-174,-192,-127,-85,-65,-1,-35,-6,-27,-34,-16,-23,-18,-67],
      "delta_lng":[0,76,19,26,25,28,16,25,24,38,78,1,41,47,151,163,110,74,52,1,28,4,14,16,6,5,2,1]
    },
    {
      "start":"古地トンネル南",
      "end":"古地トンネル北",
      "lat":34.62367,
      "lng":133.74538,
      "delta_lat":[0,40,16,18,17,20,19,29,25,38,29,28,19,33,25,46,30,26,39,46,53,53,60,55,56,46,4,50,76,15,45,47,52,54,73,68],
      "delta_lng":[0,-116,-62,-72,-65,-70,-63,-65,-51,-68,-55,-67,-64,-151,-121,-208,-136,-57,-54,-40,-32,-21,-7,12,24,29,3,38,74,15,44,34,27,18,19,13]
    },
    {
      "start":"古地トンネル北",
      "end":"秋葉山トンネル南",
      "lat":34.63716,
      "lng":133.73243,
      "delta_lat":[0,87,421,93,173,484,332,162,519,213,282,500,7,42,99,18,67,10,57,14,244,12,16,32,39,66,18,11,31,7,158,16,9,35,14,59,21,21,30,20,15,19,9,42,16,33,21,14,16,8,20,31,28,32,6,5,11,7,18,42,14,54,127,38,40,91,13,11,47,103,15,23,11,28,32,12,18,24,22,28,13,20,21,36,15,97,107,28],
      "delta_lng":[0,14,66,14,27,73,53,26,80,33,43,78,0,8,15,3,9,1,9,3,34,2,2,4,7,9,2,2,-2,0,-23,-3,-1,-9,-2,-20,-5,-4,-2,0,2,3,1,14,4,18,12,5,6,2,4,5,4,1,0,-1,-2,-2,-12,-26,-8,-29,-63,-19,-18,-44,-6,-6,-21,-50,-3,-8,-3,-9,-8,-2,-3,-1,1,4,3,6,7,14,7,44,48,9]
    },
    {
      "start":"古地トンネル南",
      "end":"酒津トンネル北",
      "lat":34.62367,
      "lng":133.74538,
      "delta_lat":[0,-9,-42,-19,-1],
      "delta_lng":[0,26,84,29,1]
    },
    {
      "start":"秋葉山トンネル北",
      "end":"秋葉山トンネル南",
      "lat":34.70728,
      "lng":133.72598,
      "delta_lat":[0,9,2,0,0,0,-2,-7,-7,-14,-17,-13,-8,-37,-3,-24,-47,-13,-23,-73,-194,-57,-152,-110,-32,-46,-17,-35,-3,-19,-11,-29,-15,-19,-17,-21,-37],
      "delta_lng":[0,51,25,23,24,18,17,23,27,37,34,28,17,59,6,28,50,14,22,62,162,50,128,94,23,25,9,14,1,5,2,6,1,1,-1,-4,-10]
    },
    {
      "start":"古地トンネル北",
      "end":"古地トンネル南",
      "lat":34.63716,
      "lng":133.73243,
      "delta_lat":[0,-52,-32,-57,-65,-21,-19,-35,-57,-84,-87,-95,-99,-66,-100,-84,-207,-102,-5,-7,-16,-38,-22],
      "delta_lng":[0,-2,3,9,17,6,8,14,26,50,62,81,103,80,134,112,278,135,8,11,26,85,49]
    },
    {
      "start":"酒津トンネル北",
      "end":"酒津トンネル南",
      "lat":34.62295,
      "lng":133.74678,
      "delta_lat":[0,-52,-9,-74,-33,-29,-8,-17,-23,-19,-23,-20,-16,-20,-18,-25],
      "delta_lng":[0,49,8,45,19,19,6,12,23,24,34,38,45,67,66,63]
    },
    {
      "start":"酒津トンネル南",
      "end":"倉敷",
      "lat":34.61909,
      "lng":133.75196,
      "delta_lat":[0,-15,-25,-23,-9,-15,-4,-70,-34,-10,-10,-5,-6,-20,-25,-35,-40,-38,-50,-30,-126,-139,-294,-89,-117,-49,-40,-469,-29,-27,-20,-26,-33,-27,-18,-18,-18,-14,-5,0,-1,6,12,21,39,73,59,150,33],
      "delta_lng":[0,19,28,33,14,21,7,104,48,12,10,4,5,18,17,18,13,10,5,2,14,12,28,9,11,6,3,47,5,6,10,16,30,29,26,33,42,68,46,15,27,42,41,45,67,99,88,203,71]
    },
    {
      "start":"岡山南",
      "end":"岡山",
      "lat":34.66058,
      "lng":133.90947,
      "delta_lat":[0,20,15,30,11,44,14,20,18,17,5,27,23,20,44,33,39,56,23,39,280],
      "delta_lng":[0,53,34,78,27,111,30,48,34,31,10,45,35,30,55,37,41,51,16,31,178]
    },
    {
      "start":"北長瀬",
      "end":"岡山南",
      "lat":34.65317,
      "lng":133.88554,
      "delta_lat":[0,9,10,14,29,14,11,6,12,6,11,74,22,25,29,13,37,29,19,9,3,34,36,22,18,31,9,5,62,92,50],
      "delta_lng":[0,52,48,74,136,69,57,27,54,25,32,193,58,63,83,38,135,128,76,36,18,127,123,65,52,73,25,9,149,242,126]
    },
    {
      "start":"北長瀬",
      "end":"岡山南",
      "lat":34.65317,
      "lng":133.88554,
      "delta_lat":[0,76,55,42,34,11,36,46,33,27,20,0,43,24,34,13,23,17,9,10,13,33,54,6,20,25,37],
      "delta_lng":[0,175,132,98,88,26,100,143,99,79,59,4,125,76,99,37,67,58,34,39,50,168,301,27,84,92,133]
    },
    {
      "start":"倉敷",
      "end":"北長瀬",
      "lat":34.60279,
      "lng":133.76724,
      "delta_lat":[0,49,393,48,185,44,41,87,143,54,92,76,17,58,65,16,20,52,26,18,102,162,36,19,31,27,114,29,148,148,18,96,36,145,147,16,128,72,9,58,67,60,103,10,3,18,101,14,7,2,18,5,8,7,34,40,60,12,28,79,18,18,33,16,44,10,34,9,75,89,104,159,103,55,186,22,10,9,23,22,15,12,10,2,10,9,11,18,18,29,22,25,25,11,34,47],
      "delta_lng":[0,65,535,66,254,60,56,119,197,72,124,105,22,80,88,20,30,73,34,24,135,227,50,35,61,63,343,92,434,437,55,280,102,438,436,50,388,224,28,186,225,212,391,33,11,68,368,59,22,12,62,7,23,22,66,66,77,14,36,106,24,25,60,36,117,28,96,24,216,244,292,434,288,150,510,60,30,25,73,71,69,61,62,12,82,55,71,69,64,94,65,72,60,28,82,114]
    }
  ]
}