{
  "code":11724,
  "id":"7d00ac",
  "name":"JR岩徳線",
  "name_kana":"じぇいあーるがんとくせん",
  "station_size":16,
  "company_code":4,
  "color":"#00A663",
  "station_list":[
    {"code":1161128,"id":"226bd7","name":"岩国","name_kana":"いわくに","lat":34.171828,"lng":132.225631,"prefecture":35,"lines":[11611,11612,11724],"attr":"eco","postal_code":"740-0018","address":"岩国市麻里布町１丁目","next":[1161205,1161202,1172402,1161129,1161124,1161204,1171622],"voronoi":{"lat":34.173209,"lng":132.385658,"delta_lat":[0,5278,10966,-35270,-54206,-2631,-7769],"delta_lng":[0,-10652,-170798,10409,101079,13181,83157]},"impl":true},
    {"code":1172402,"id":"44b4f7","name":"西岩国","name_kana":"にしいわくに","lat":34.16302,"lng":132.195786,"prefecture":35,"lines":[11724],"attr":"eco","postal_code":"741-0061","address":"岩国市錦見６丁目","next":[1172403,100313,1161128,1161202,1161129,1161127],"voronoi":{"lat":34.208036,"lng":132.174684,"delta_lat":[0,-12472,-49905,8524,35270,10412],"delta_lng":[0,-537,17319,23150,-10409,-13430]},"impl":true},
    {"code":1172403,"id":"855c09","name":"川西(山口)","original_name":"川西","name_kana":"かわにし","lat":34.156612,"lng":132.177321,"prefecture":35,"lines":[11724,99718],"attr":"eco","postal_code":"741-0082","address":"岩国市川西２丁目","next":[1161203,1172402,1172404,1161202,100313],"voronoi":{"lat":34.156738,"lng":132.162319,"delta_lat":[0,-27113,1510,14525,49905],"delta_lng":[0,15200,3132,10816,-17319]},"impl":true},
    {"code":1172404,"id":"a0c862","name":"柱野","name_kana":"はしらの","lat":34.143874,"lng":132.154599,"prefecture":35,"lines":[11724],"attr":"eco","postal_code":"741-0073","address":"岩国市柱野","next":[1172403,9971802,1161203,9971804,9971803,100313,1172405],"voronoi":{"lat":34.134733,"lng":132.120282,"delta_lat":[0,6301,3698,10941,1065,-27113,-36627],"delta_lng":[0,2715,5134,29503,4684,15200,-26026]},"impl":true},
    {"code":1172405,"id":"403c4e","name":"欽明路","name_kana":"きんめいじ","lat":34.1044,"lng":132.101813,"prefecture":35,"lines":[11724],"attr":"eco","postal_code":"742-0344","address":"岩国市玖珂町中野口","next":[1161204,1172406,9971804,1161203,9971805,1172404,1161209],"voronoi":{"lat":34.083287,"lng":132.152323,"delta_lat":[0,9710,41735,514,-4699,-95131,606],"delta_lng":[0,-830,-31210,-20381,-18811,34509,20137]},"impl":true},
    {"code":1172406,"id":"cede9a","name":"玖珂","name_kana":"くが","lat":34.097195,"lng":132.081951,"prefecture":35,"lines":[11724],"attr":"cool","postal_code":"742-0344","address":"岩国市玖珂町萃石","next":[1172405,9971805,1172407,1161209],"voronoi":{"lat":34.028087,"lng":132.075512,"delta_lat":[0,104338,-1877,-95131],"delta_lng":[0,-18621,24200,34509]},"impl":true},
    {"code":1172407,"id":"c42652","name":"周防高森","name_kana":"すおうたかもり","lat":34.090701,"lng":132.045564,"prefecture":35,"lines":[11724],"attr":"cool","postal_code":"742-0417","address":"岩国市周東町下久原","next":[9971807,1161209,9971806,1172406,1161210,1172408,9971805],"voronoi":{"lat":34.028087,"lng":132.075512,"delta_lat":[0,-3594,83,113072,2661,-7032,-852],"delta_lng":[0,-7434,-7454,-59363,22490,31649,1491]},"impl":true},
    {"code":1172408,"id":"177a37","name":"米川","name_kana":"よねかわ","lat":34.074521,"lng":132.014745,"prefecture":35,"lines":[11724],"attr":"cool","postal_code":"742-0424","address":"岩国市周東町差川","next":[1161211,9971807,9971809,1161210,1172407,1172409],"voronoi":{"lat":34.020112,"lng":132.043017,"delta_lat":[0,4464,113072,2399,-2973,-110350],"delta_lng":[0,17606,-59363,-15329,-25120,50642]},"impl":true},
    {"code":1172409,"id":"0e09ad","name":"高水","name_kana":"たかみず","lat":34.055395,"lng":131.973069,"prefecture":35,"lines":[11724],"attr":"cool","postal_code":"745-0621","address":"周南市原","next":[1172413,9971809,1161212,1172410,1161211,1172408],"voronoi":{"lat":34.137074,"lng":131.960811,"delta_lat":[0,8910,-24552,-101649,-533,7474],"delta_lng":[0,-54005,5715,71282,2831,24819]},"impl":true},
    {"code":1172410,"id":"a317db","name":"勝間","name_kana":"かつま","lat":34.042008,"lng":131.953979,"prefecture":35,"lines":[11724],"attr":"heat","postal_code":"745-0612","address":"周南市呼坂","next":[1172413,1161212,1172411,1172409,1172412],"voronoi":{"lat":34.015997,"lng":131.955491,"delta_lat":[0,3786,101649,-27894,-15698],"delta_lng":[0,28313,-71282,2748,5784]},"impl":true},
    {"code":1172411,"id":"7a2126","name":"大河内","name_kana":"おおかわち","lat":34.03098,"lng":131.934175,"prefecture":35,"lines":[11724],"attr":"heat","postal_code":"745-0651","address":"周南市大河内","next":[1172412,1172410,1161212,1161213],"voronoi":{"lat":34.015997,"lng":131.955491,"delta_lat":[0,61843,-77313,-407],"delta_lng":[0,-34437,9162,1196]},"impl":true},
    {"code":1172412,"id":"1474aa","name":"周防久保","name_kana":"すおうくぼ","lat":34.029211,"lng":131.919248,"prefecture":35,"lines":[11724],"attr":"heat","postal_code":"744-0061","address":"下松市大字河内","next":[1172411,1172413,1161214,1161213,1172410],"voronoi":{"lat":34.000526,"lng":131.930216,"delta_lat":[0,2443,4103,86465,-15698],"delta_lng":[0,-30226,-1623,16903,5784]},"impl":true},
    {"code":1172413,"id":"98a467","name":"生野屋","name_kana":"いくのや","lat":34.035445,"lng":131.887359,"prefecture":35,"lines":[11724],"attr":"heat","postal_code":"744-0031","address":"下松市大字生野屋","next":[1172410,1172409,1172412,9971809,1161214,1172414,9971810],"voronoi":{"lat":34.145984,"lng":131.906807,"delta_lat":[0,-24552,-27894,-86465,15585,139816,-1004],"delta_lng":[0,5715,2748,-16903,-21333,3329,2088]},"impl":true},
    {"code":1172414,"id":"f25be4","name":"周防花岡","name_kana":"すおうはなおか","lat":34.035922,"lng":131.867328,"prefecture":35,"lines":[11724],"attr":"heat","postal_code":"744-0024","address":"下松市大字末武上","next":[1161215,9971810,1172413,1161214,100314],"voronoi":{"lat":34.075434,"lng":131.842805,"delta_lat":[0,-53447,671,139816,8379],"delta_lng":[0,6875,27354,3329,-14405]},"impl":true},
    {"code":1161215,"id":"b29405","name":"櫛ヶ浜","name_kana":"くしがはま","lat":34.031002,"lng":131.829079,"prefecture":35,"lines":[11612,11724],"attr":"eco","postal_code":"745-0801","address":"山口県周南市大字久米字院内3975-1","next":[1161220,1172414,100314,1161218,1161214],"voronoi":{"lat":33.775149,"lng":131.709682,"delta_lat":[0,141832,13091,145361,-53447],"delta_lng":[0,13064,5937,114122,6875]},"impl":true},
    {"code":100314,"id":"7061fa","name":"徳山","name_kana":"とくやま","lat":34.051555,"lng":131.8029,"prefecture":35,"lines":[1003,11612,11724],"attr":"eco","postal_code":"745-0034","address":"周南市御幸通り２丁目","next":[1161217,1161218,1161215,9971810,1172414,9971812],"voronoi":{"lat":34.170853,"lng":131.865957,"delta_lat":[0,-95419,-145361,58635,192835,-10540],"delta_lng":[0,-23153,-114122,18690,104392,14039]},"impl":true}
  ],
  "north":34.17345,
  "south":34.02832,
  "east":132.22632,
  "west":131.82843,
  "polyline_list":[
    {
      "start":"櫛ヶ浜",
      "end":"岩国",
      "lat":34.03168,
      "lng":131.82843,
      "delta_lat":[0,-154,-32,-24,-20,-25,-23,-25,-16,-9,-3,-3,-2,0,5,4,8,12,32,37,14,20,13,5,6,-2,-5,-10,-3,0,1,10,5,3,12,17,16,22,28,23,2,14,13,9,7,9,6,2,-2,-4,-2,-9,-2,-1,2,3,7,11,22,32,43,59,57,44,41,11,13,25,27,15,13,1,8,0,-3,-16,-7,-2,-5,-2,-3,-14,-10,-11,0,0,15,8,2,8,14,34,33,7,2,-2,-4,-7,-16,-14,-36,-49,-100,-85,-38,-30,-44,-14,-19,-12,-7,-4,-4,0,6,7,6,1,4,13,0,-4,-11,-21,-50,-50,-32,-60,-29,-11,-16,-13,-9,0,5,4,15,46,73,67,27,12,8,3,-1,-6,-10,-2,-4,-16,-33,-2,1,6,15,9,27,26,73,69,103,38,29,29,24,59,40,26,19,9,16,28,74,92,36,53,32,40,30,30,19,18,55,35,26,49,108,72,91,74,55,104,22,67,47,29,52,18,52,31,84,39,52,74,55,49,141,40,50,21,60,39,39,9,42,56,75,71,70,57,60,28,26,39,2,24,30,33,38,79,10,6,10,126,72,80,76,70,31,29,29,18,20,23,30,48,24,21,19,24,41,95,37,42,49,39,48,29,61,53,17,55,65,100,45,38,134,115,89,25,18,49,47,58,35,33,18,26,51,52,85,23,19,14,9,7,1,3,1,-5,-7,-18,-12,-6,-13,-3,-4,4,3,10,43,22,35,68,25,3,1,-9,-13,-20,-11,-11,-9,-4,-3,0,4,3,7,11,5,22,29,43,86,46,27,44,34,47,18,15,11,76,50,64,30,15,26,13,46,32,25,39,27,34,45,72,84,10,13,108,31,135,174,121,147,55,12,46,92,35,45,61,42,15,34,110,83,95,67,95,134,128,105,78,81,35,14,32,26,13,42,86,90,56,14,13,26,37,57,83,44,39,51,47,51,94,49,60,37,51,44,53,19,15,20,70,49,29,25,24,19,4,40,15,23,43,49,25,26,22,24,42,232,184,27,33,40,19,15,25,16,13,11,10,6,7,10,14,4,0,-2,-8,-2,2,4,2,10,12,11,12,16,27,24,27,31,16,9,14,36,44,35,23,29,14,14,11,22,16,17,18,47,57,91,90,31,24,14,18,8,5,12,15,16,16,18,186,24,9,13,10,6,20,9,3,2,2,0,-3,-4,-2,-5,-17,-5,-27,-4,-3,-4,-1,0,1,4,7,9,9,18,9,7,13,45,170,79,68,37,30,20,24,29,24,114,36,27,36,18,20,17,16,16,15,12,9,7,2,2,-2,-4,-8,-33,-36,-25,-15,-14,-17,-16,-76,-40,-81,-34,-33,-12,-9,-11,-8,-6,-5,-3,-2,0,2,4,7,13,10,13,14,22,18,37,50,68,51,103,31,18,334],
      "delta_lng":[0,142,36,35,40,52,63,71,58,50,21,28,36,36,40,40,40,39,87,103,42,63,45,35,56,59,78,105,31,29,24,62,21,12,35,45,35,46,61,58,2,43,38,40,50,76,69,28,53,78,46,138,63,35,40,38,43,46,65,61,74,107,104,80,74,24,29,55,67,60,66,30,86,101,62,220,104,56,162,42,48,194,180,185,171,59,220,97,22,60,87,198,180,65,16,8,43,32,62,39,63,65,115,110,51,49,90,43,64,39,49,46,70,62,101,77,53,13,54,144,58,43,67,64,106,79,40,107,62,26,65,66,98,39,74,18,84,161,233,206,81,44,56,30,43,39,60,13,20,74,177,28,43,83,87,40,72,57,121,120,159,61,54,60,45,136,105,80,76,28,42,51,90,88,41,67,53,95,66,52,39,38,122,64,39,59,105,74,101,71,63,129,27,104,68,42,63,21,57,35,93,61,101,149,114,103,287,88,154,63,152,108,113,19,82,99,138,126,161,125,136,63,60,96,8,54,65,78,93,191,24,14,32,294,162,181,179,164,75,57,51,30,29,34,36,64,34,38,35,49,90,215,75,73,74,51,57,30,55,46,12,39,43,59,31,29,108,91,72,18,12,22,24,25,24,25,21,46,122,126,207,58,55,53,70,45,19,70,65,72,57,128,99,32,84,58,74,68,69,65,196,115,127,249,108,32,51,78,59,60,34,30,36,45,59,144,163,187,125,140,45,70,77,109,239,124,81,136,110,161,64,52,41,285,190,255,124,51,99,44,147,96,66,81,54,78,107,168,193,24,30,250,70,310,395,276,342,109,20,84,163,58,86,111,79,28,57,176,132,137,92,131,179,165,130,99,99,42,16,38,32,15,51,105,110,69,15,17,31,44,71,100,55,43,48,36,41,74,39,50,30,42,39,40,13,7,9,29,28,20,21,21,18,7,48,20,29,49,44,22,20,12,14,18,76,60,11,17,26,18,14,24,21,24,23,27,26,25,44,90,25,16,29,80,26,41,56,17,100,85,75,82,81,126,99,90,70,34,18,20,55,71,58,45,67,30,30,16,31,16,16,14,34,40,64,58,26,18,12,18,9,6,14,21,24,25,28,314,46,17,22,25,13,55,27,20,20,24,22,36,21,21,19,78,18,115,24,29,39,38,27,24,36,42,54,41,43,28,14,24,89,294,129,117,60,41,28,25,22,14,48,15,13,29,18,24,23,28,32,33,36,42,48,39,41,51,39,45,170,168,91,44,33,31,26,120,63,130,52,54,24,22,34,28,29,33,29,25,24,32,26,34,48,30,29,22,38,22,44,47,44,19,43,14,8,141]
    }
  ],
  "impl":true
}