{
  "code":11723,
  "name":"JR小野田線",
  "color":"#695FAA",
  "station_list":[
    {"code":1172115,"id":"abc42f","name":"宇部新川","name_kana":"うべしんかわ","lat":33.958369,"lng":131.242441,"prefecture":35,"lines":[11721,11723],"attr":"heat","postal_code":"755-0051","address":"宇部市上町１丁目"},
    {"code":1172116,"id":"0c556a","name":"居能","name_kana":"いのう","lat":33.96706,"lng":131.228161,"prefecture":35,"lines":[11721,11723],"attr":"heat","postal_code":"755-0055","address":"宇部市居能町２丁目"},
    {"code":1172303,"id":"238d5a","name":"妻崎","name_kana":"つまざき","lat":33.970359,"lng":131.20278,"prefecture":35,"lines":[11723],"attr":"cool","postal_code":"759-0206","address":"宇部市大字東須恵"},
    {"code":1172304,"id":"c62555","name":"長門長沢","name_kana":"ながとながさわ","lat":33.966562,"lng":131.196786,"prefecture":35,"lines":[11723],"attr":"cool","postal_code":"759-0206","address":"宇部市大字東須恵"},
    {"code":1172305,"id":"22f500","name":"雀田","name_kana":"すずめだ","lat":33.960743,"lng":131.186951,"prefecture":35,"lines":[11723],"attr":"cool","postal_code":"756-0817","address":"山陽小野田市小野田"},
    {"code":1172306,"id":"155a57","name":"小野田港","name_kana":"おのだこう","lat":33.972,"lng":131.175146,"prefecture":35,"lines":[11723],"attr":"cool","postal_code":"756-0833","address":"山陽小野田市北竜王町"},
    {"code":1172307,"id":"ded1b5","name":"南小野田","name_kana":"みなみおのだ","lat":33.97743,"lng":131.174949,"prefecture":35,"lines":[11723],"attr":"cool","postal_code":"756-0837","address":"山陽小野田市平成町"},
    {"code":1172308,"id":"1d41db","name":"南中川","name_kana":"みなみなかがわ","lat":33.986973,"lng":131.17887,"prefecture":35,"lines":[11723],"attr":"eco","postal_code":"756-0806","address":"山陽小野田市中川２丁目"},
    {"code":1172309,"id":"863a9e","name":"目出","name_kana":"めで","lat":33.996595,"lng":131.183334,"prefecture":35,"lines":[11723],"attr":"eco","postal_code":"756-0817","address":"山陽小野田市小野田"},
    {"code":1161229,"id":"bc6384","name":"小野田","name_kana":"おのだ","lat":34.007877,"lng":131.185605,"prefecture":35,"lines":[11612,11723],"attr":"cool","postal_code":"756-0088","address":"山陽小野田市東高泊"},
    {"code":1172311,"id":"ec8289","name":"浜河内","name_kana":"はまごうち","lat":33.950529,"lng":131.179518,"prefecture":35,"lines":[11723],"attr":"heat","postal_code":"756-0817","address":"山陽小野田市小野田"},
    {"code":1172312,"id":"4fe46a","name":"長門本山","name_kana":"ながともとやま","lat":33.942755,"lng":131.173213,"prefecture":35,"lines":[11723],"attr":"heat","postal_code":"756-0817","address":"山陽小野田市小野田"}
  ],
  "north":34.00803,
  "south":33.94265,
  "east":131.22826,
  "west":131.17309,
  "polyline_list":[
    {
      "start":"長門本山",
      "end":"雀田",
      "lat":33.94265,
      "lng":131.17309,
      "delta_lat":[0,68,24,58,41,30,43,52,40,63,52,43,86,49,69,41,58,79,60,74,93,117,88,63,49,60,76,27,6,8,23,23,27,72,65],
      "delta_lng":[0,39,15,38,28,23,39,49,35,57,47,40,77,47,57,34,50,59,45,52,61,76,55,37,29,39,51,19,5,6,19,21,31,75,64]
    },
    {
      "start":"雀田",
      "end":"居能",
      "lat":33.96093,
      "lng":131.18729,
      "delta_lat":[0,13,6,95,83,75,17,19,14,9,11,27,7,11,15,17,42,49,15,0,10,20,13,16,132,65,17,10,9,28,14,12,17,20,32,18,25,4,3,-3,-9,2,1,24,11,4,1,-2,0,-5,-7,0,-5,-7,-8,-1,-10,-10,-6,0,-6,-3,-11,-24,-29,-25,-31,-71,-39,-54,-33,-124],
      "delta_lng":[0,12,5,103,85,81,22,29,23,22,37,116,33,38,38,41,91,90,25,1,17,27,17,20,127,61,14,11,12,35,22,24,41,65,121,86,126,46,38,30,155,27,36,238,102,51,36,119,36,96,167,9,93,146,146,35,135,135,80,18,55,31,36,44,48,30,25,52,13,18,11,43]
    },
    {
      "start":"雀田",
      "end":"小野田",
      "lat":33.96093,
      "lng":131.18729,
      "delta_lat":[0,-28,-20,-13,-11,-6,-2,2,4,24,32,51,14,25,60,44,46,42,44,1,44,29,18,23,20,25,78,46,28,31,29,78,124,127,14,87,126,109,79,19,26,19,72,16,13,22,70,76,105,23,13,15,32,22,16,15,28,40,15,10,11,26,19,25,15,74,66,32,29,29,16,9,12,13,10,25,16,9,13,13,9,8,8,7,3,4,5,2,6,5,11,9,9,9,16,11,37,50,22,17,43,10,25,33,16,62,29,14,11,39,20,22,38,35,18,16,83,29,9,70,24,27,24,17,28,16,14,12,9,5,22,11,12,15,9,8,24,9,20,11,7,14,16,17,38,38,39,49,27,21,37,38,22,16,15,25,36,27,11,29,46,102,40,49,31,29,18,28,24,40,7,35],
      "delta_lng":[0,-46,-40,-32,-41,-44,-39,-31,-34,-64,-78,-109,-34,-46,-106,-75,-77,-75,-78,-1,-73,-41,-18,-19,-13,-14,-32,-14,-7,-4,1,9,16,16,2,11,18,14,10,1,-5,-3,-25,-4,-3,-1,-4,-4,-1,0,3,5,16,12,13,14,31,43,12,7,6,9,6,3,0,-3,-4,1,1,3,2,3,3,3,6,12,11,7,13,16,16,15,23,21,14,21,30,12,37,23,49,37,31,32,35,16,49,58,20,13,31,5,5,0,-1,-15,-7,-2,-1,0,3,6,8,7,2,-1,-8,-7,-2,-17,-3,-3,4,4,10,7,7,9,7,6,25,15,20,28,22,24,107,36,82,44,22,29,24,23,35,36,37,47,22,18,27,24,8,3,1,-6,-9,-6,-4,-13,-23,-53,-21,-24,-13,-14,-17,-32,-34,-72,-66,-273]
    }
  ]
}