{
  "code":11809,
  "name":"鍛冶屋原線",
  "closed":true,
  "station_list":[
    {"code":1180222,"id":"4ce1dd","name":"板野","name_kana":"いたの","lat":34.141971,"lng":134.465512,"prefecture":36,"lines":[11802,11809],"attr":"eco","postal_code":"779-0105","address":"板野郡板野町大寺字平田"},
    {"code":1180902,"id":"ea3d58","name":"犬伏","name_kana":"いぬぶし","closed":true,"lat":34.141029,"lng":134.452139,"prefecture":36,"lines":[11809],"attr":"unknown","postal_code":"779-0108","address":"日本徳島県板野郡板野町犬伏大坪４２"},
    {"code":1180903,"id":"b09af5","name":"羅漢","name_kana":"らかん","closed":true,"lat":34.134115,"lng":134.433087,"prefecture":36,"lines":[11809],"attr":"unknown","postal_code":"779-0114","address":"日本徳島県板野郡板野町羅漢吉田１５−１"},
    {"code":1180904,"id":"775b04","name":"神宅","name_kana":"かんやけ","closed":true,"lat":34.130807,"lng":134.415028,"prefecture":36,"lines":[11809],"attr":"unknown","postal_code":"771-1320","address":"日本徳島県板野郡上板町神宅北屋敷３２−２"},
    {"code":1180905,"id":"4e684d","name":"鍛冶屋原","name_kana":"かじやはら","closed":true,"lat":34.119559,"lng":134.400474,"prefecture":36,"lines":[11809],"attr":"unknown","postal_code":"771-1301","address":"日本徳島県板野郡上板町鍛冶屋原妙楽寺１−２"}
  ]
}