{
  "code":11806,
  "name":"JR予讃線",
  "color":"#FF9900",
  "symbol":"Y",
  "station_list":[
    {"code":1180201,"id":"a3a37a","name":"高松(香川)","name_kana":"たかまつ","lat":34.350754,"lng":134.046821,"prefecture":37,"numbering":[{"index":"00"}],"lines":[11802,11806],"attr":"cool","postal_code":"760-0011","address":"高松市浜ノ町","next":[1170915,9980202,9980201,1180202,1180602,1180203,9980203],"voronoi":{"lat":34.342349,"lng":134.044574,"delta_lat":[0,1032,60789,22958,25796,-108317,-708],"delta_lng":[0,-3251,-28456,-6043,39970,1452,-433]}},
    {"code":1180602,"id":"60946c","name":"香西","name_kana":"こうざい","lat":34.34096,"lng":134.009609,"prefecture":37,"numbering":[{"index":"01"}],"lines":[11806],"attr":"heat","postal_code":"760-0093","address":"高松市鶴市町","next":[1180603,1170915,1180201,1180203,1180202],"voronoi":{"lat":34.404171,"lng":134.012867,"delta_lat":[0,22958,-26070,-87026,11594],"delta_lng":[0,-6043,-71853,85624,2457]}},
    {"code":1180603,"id":"c460c0","name":"鬼無","name_kana":"きなし","lat":34.325455,"lng":133.99385,"prefecture":37,"numbering":[{"index":"02"}],"lines":[11806],"attr":"heat","postal_code":"761-8023","address":"高松市鬼無町佐藤","next":[1180607,1180602,9980206,1180604,1180605,9980210,1170915,1180203,9980209],"voronoi":{"lat":34.313698,"lng":134.020657,"delta_lat":[0,335,87026,-725,-21899,-17941,-59142,10167,609],"delta_lng":[0,-61,-85624,-3063,4600,8579,46881,26991,900]}},
    {"code":1180604,"id":"180f29","name":"端岡","name_kana":"はしおか","lat":34.305021,"lng":133.968071,"prefecture":37,"numbering":[{"index":"03"}],"lines":[11806],"attr":"heat","postal_code":"769-0101","address":"高松市国分寺町新居","next":[9980212,1180603,9980210,9980213,1180605,9980211],"voronoi":{"lat":34.301351,"lng":133.991968,"delta_lat":[0,59142,-79332,659,857,10628],"delta_lng":[0,-46881,13505,8670,3266,17429]}},
    {"code":1180605,"id":"498c6a","name":"国分(香川)","name_kana":"こくぶ","lat":34.300541,"lng":133.941754,"prefecture":37,"numbering":[{"index":"04"}],"lines":[11806],"attr":"heat","postal_code":"769-0102","address":"高松市国分寺町国分","next":[1180606,1180607,9980213,1180603,9980214,1180604],"voronoi":{"lat":34.360494,"lng":133.945088,"delta_lat":[0,17941,-66950,-36178,1011,4844],"delta_lng":[0,-8579,-11619,18532,8425,6746]}},
    {"code":1180606,"id":"0d9d0d","name":"讃岐府中","name_kana":"さぬきふちゅう","lat":34.291404,"lng":133.923917,"prefecture":37,"numbering":[{"index":"05"}],"lines":[11806],"attr":"eco","postal_code":"762-0024","address":"坂出市府中町","next":[9980215,9980214,1180605,1180607,9980222,9980216],"voronoi":{"lat":34.269748,"lng":133.923912,"delta_lat":[0,2702,2856,36178,-37006,-3954],"delta_lng":[0,14601,4908,-18532,-30768,8988]}},
    {"code":1180607,"id":"3d228e","name":"鴨川","name_kana":"かもがわ","lat":34.306863,"lng":133.905324,"prefecture":37,"numbering":[{"index":"06"}],"lines":[11806],"attr":"eco","postal_code":"762-0024","address":"坂出市府中町西福寺","next":[1180603,1180605,1180606,1170915,1180608,9980216],"voronoi":{"lat":34.274971,"lng":133.884968,"delta_lat":[0,127688,-2326,-21899,-66950,-37006],"delta_lng":[0,37896,9044,4600,-11619,-30768]}},
    {"code":1180608,"id":"521815","name":"八十場","name_kana":"やそば","lat":34.312804,"lng":133.885306,"prefecture":37,"numbering":[{"index":"07"}],"lines":[11806],"attr":"eco","postal_code":"762-0021","address":"坂出市西庄町","next":[9980217,9971903,9980216,1180609,1170915,1180607],"voronoi":{"lat":34.410728,"lng":133.901366,"delta_lat":[0,-18089,-119074,-116,1522,127688],"delta_lng":[0,-29227,-1609,7814,6625,37896]}},
    {"code":1180609,"id":"f3fba3","name":"坂出","name_kana":"さかいで","lat":34.313189,"lng":133.856819,"prefecture":37,"numbering":[{"index":"08"}],"lines":[11806],"attr":"eco","postal_code":"762-0045","address":"坂出市元町１丁目","next":[1171006,9971903,1180608,9980218,9980217],"voronoi":{"lat":34.392639,"lng":133.872139,"delta_lat":[0,-18697,-107654,364,6913],"delta_lng":[0,-47185,17267,8243,20066]}},
    {"code":1171006,"id":"60d264","name":"宇多津","name_kana":"うたづ","lat":34.306271,"lng":133.813686,"prefecture":37,"numbering":[{"index":"09"}],"lines":[11710,11806],"attr":"cool","postal_code":"769-0203","address":"綾歌郡宇多津町浜三番丁","next":[1180609,9971903,9971901,9980218,1180611],"voronoi":{"lat":34.364733,"lng":133.758142,"delta_lat":[0,7992,1217,-107654,-6534],"delta_lng":[0,43962,22850,17267,-11820]}},
    {"code":1180611,"id":"70395f","name":"丸亀","name_kana":"まるがめ","lat":34.291976,"lng":133.792918,"prefecture":37,"numbering":[{"index":"10"}],"lines":[11806],"attr":"eco","postal_code":"763-0022","address":"丸亀市浜町","next":[9980218,1180612,1180103,1180102,9971901,1171006],"voronoi":{"lat":34.364733,"lng":133.758142,"delta_lat":[0,-157,-97954,-7045,-853,1030],"delta_lng":[0,-6856,43690,20006,14342,1077]}},
    {"code":1180612,"id":"119835","name":"讃岐塩屋","name_kana":"さぬきしおや","lat":34.285093,"lng":133.777486,"prefecture":37,"numbering":[{"index":"11"}],"lines":[11806],"attr":"eco","postal_code":"763-0065","address":"丸亀市塩屋町","next":[1180102,1180611,1180101,9971901],"voronoi":{"lat":34.368143,"lng":133.705801,"delta_lat":[0,-101521,0,97954],"delta_lng":[0,69457,19718,-43690]}},
    {"code":1180101,"id":"fc4501","name":"多度津","name_kana":"たどつ","lat":34.271238,"lng":133.757235,"prefecture":37,"numbering":[{"index":"12"}],"lines":[11801,11806],"attr":"cool","postal_code":"764-0011","address":"仲多度郡多度津町栄町３丁目","next":[1180102,9971901,1180612,1180614],"voronoi":{"lat":34.266622,"lng":133.775258,"delta_lat":[0,101521,6465,-127384],"delta_lng":[0,-69457,-33558,80902]}},
    {"code":1180614,"id":"957bbe","name":"海岸寺","name_kana":"かいがんじ","lat":34.253732,"lng":133.729671,"prefecture":37,"numbering":[{"index":"13"}],"lines":[11806],"attr":"eco","postal_code":"764-0037","address":"仲多度郡多度津町大字西白方","next":[1180617,1161009,1180615,1180101,9971901,1180102,1161010],"voronoi":{"lat":34.378171,"lng":133.636456,"delta_lat":[0,-152018,-8162,29233,127384,8805,-2168],"delta_lng":[0,92633,20644,3411,-80902,-27241,-4178]}},
    {"code":1180615,"id":"ef3b94","name":"津島ノ宮","name_kana":"つしまのみや","lat":34.23828,"lng":133.704313,"prefecture":37,"lines":[11806],"attr":"eco","postal_code":"767-0031","address":"三豊市三野町大見","next":[1180614,1180616,1161010,1180617],"voronoi":{"lat":34.222356,"lng":133.70954,"delta_lat":[0,107331,48485,-152018],"delta_lng":[0,-158220,85136,92633]}},
    {"code":1180616,"id":"051d81","name":"詫間","name_kana":"たくま","lat":34.221326,"lng":133.692812,"prefecture":37,"numbering":[{"index":"14"}],"lines":[11806],"attr":"eco","postal_code":"769-1102","address":"三豊市詫間町松崎字浜","next":[1180621,1161011,1180615,1180617,1161010,1161012,1180619],"voronoi":{"lat":34.222356,"lng":133.70954,"delta_lat":[0,107331,-5813,-30830,-35676,-59550,-3449],"delta_lng":[0,-158220,-11729,-46479,-39100,155299,75614]}},
    {"code":1180617,"id":"529f6e","name":"みの","name_kana":"みの","lat":34.205633,"lng":133.710655,"prefecture":37,"numbering":[{"index":"15"}],"lines":[11806],"attr":"cool","postal_code":"767-0032","address":"三豊市三野町下高瀬","next":[1180619,1180614,1180616,1180103,1180618,1180615,1180102],"voronoi":{"lat":34.217992,"lng":133.749733,"delta_lat":[0,8162,-3798,-27987,-384,2442,21073],"delta_lng":[0,-20644,-19549,-24615,733,70928,-6540]}},
    {"code":1180618,"id":"6ce2c8","name":"高瀬(香川)","name_kana":"たかせ","lat":34.184083,"lng":133.711397,"prefecture":37,"numbering":[{"index":"16"}],"lines":[11806],"attr":"cool","postal_code":"767-0002","address":"三豊市高瀬町新名","next":[1180103,1180106,9980221,1180107,1180619,1180617,1180620],"voronoi":{"lat":34.150446,"lng":133.721358,"delta_lat":[0,43538,2442,-15495,-19703,-16196,-13900],"delta_lng":[0,-35699,70928,9145,1247,-7589,-8957]}},
    {"code":1180619,"id":"c3e84d","name":"比地大","name_kana":"ひじだい","lat":34.166805,"lng":133.690325,"prefecture":37,"numbering":[{"index":"17"}],"lines":[11806],"attr":"cool","postal_code":"769-1501","address":"三豊市豊中町比地大","next":[1180617,1180618,1180621,1180620,1180616],"voronoi":{"lat":34.193985,"lng":133.685659,"delta_lat":[0,-43538,13382,33989,-3449],"delta_lng":[0,35699,-70541,-41505,75614]}},
    {"code":1180620,"id":"e96415","name":"本山(香川)","name_kana":"もとやま","lat":34.146589,"lng":133.68649,"prefecture":37,"numbering":[{"index":"18"}],"lines":[11806],"attr":"cool","postal_code":"769-1507","address":"三豊市豊中町岡本","next":[1180621,1180112,1180111,1180622,1180107,1180619,1180618],"voronoi":{"lat":34.150446,"lng":133.721358,"delta_lat":[0,13382,-74972,-16602,399,7437,51042],"delta_lng":[0,-70541,53743,26200,553,7532,11588]}},
    {"code":1180621,"id":"748d70","name":"観音寺(香川)","name_kana":"かんおんじ","lat":34.124508,"lng":133.655687,"prefecture":37,"numbering":[{"index":"19"}],"lines":[11806],"attr":"cool","postal_code":"768-0060","address":"観音寺市観音寺町","next":[1180623,1180616,1180620,1161013,1180627,1180619,100308,1180622,1180624,1161012],"voronoi":{"lat":34.253545,"lng":133.447387,"delta_lat":[0,-20682,-4414,-24174,-57367,-19249,-38803,74972,33989,59550],"delta_lng":[0,-30610,-5472,19134,79073,40634,154413,-53743,-41505,-155299]}},
    {"code":1180622,"id":"01dabf","name":"豊浜","name_kana":"とよはま","lat":34.080544,"lng":133.644639,"prefecture":37,"numbering":[{"index":"20"}],"lines":[11806],"attr":"cool","postal_code":"769-1601","address":"観音寺市豊浜町姫浜","next":[1180623,1180620,1180112,1180621,1180114],"voronoi":{"lat":34.072254,"lng":133.730759,"delta_lat":[0,16602,38803,-111135,15145],"delta_lng":[0,-26200,-154413,143568,16096]}},
    {"code":1180623,"id":"505b94","name":"箕浦","name_kana":"みのうら","lat":34.04799,"lng":133.619439,"prefecture":37,"numbering":[{"index":"21"}],"lines":[11806],"attr":"cool","postal_code":"769-1604","address":"観音寺市豊浜町箕浦","next":[1180621,1180622,1180114,1180624],"voronoi":{"lat":34.146909,"lng":133.509513,"delta_lat":[0,-19249,-111135,-60856],"delta_lng":[0,40634,143568,-37964]}},
    {"code":1180624,"id":"bcd3bd","name":"川之江","name_kana":"かわのえ","lat":34.014903,"lng":133.57617,"prefecture":38,"numbering":[{"index":"22"}],"lines":[11806],"attr":"eco","postal_code":"799-0101","address":"四国中央市川之江町","next":[1180627,1180115,1180623,1180626,1180625,1180114,1180621],"voronoi":{"lat":34.204275,"lng":133.43044,"delta_lat":[0,-109876,-39737,-136397,14198,23205,191240],"delta_lng":[0,44176,24520,142831,7119,6665,-146238]}},
    {"code":1180625,"id":"13a41b","name":"伊予三島","name_kana":"いよみしま","lat":33.979541,"lng":133.542401,"prefecture":38,"numbering":[{"index":"23"}],"lines":[11806],"attr":"eco","postal_code":"799-0405","address":"四国中央市三島中央３丁目","next":[1180120,1180121,1180624,1180115,1180626],"voronoi":{"lat":33.878624,"lng":133.618296,"delta_lat":[0,12817,26824,136397,-210455],"delta_lng":[0,16705,6965,-142831,57559]}},
    {"code":1180626,"id":"988e40","name":"伊予寒川","name_kana":"いよさんがわ","lat":33.967978,"lng":133.500123,"prefecture":38,"numbering":[{"index":"24"}],"lines":[11806],"attr":"eco","postal_code":"799-0431","address":"四国中央市寒川町","next":[1180627,1180121,1180624,1180628,1180625],"voronoi":{"lat":34.054663,"lng":133.499135,"delta_lat":[0,39737,-277956,-28331,56095],"delta_lng":[0,-24520,7925,3531,70623]}},
    {"code":1180627,"id":"c3d45b","name":"赤星","name_kana":"あかぼし","lat":33.96673,"lng":133.456352,"prefecture":38,"numbering":[{"index":"25"}],"lines":[11806],"attr":"eco","postal_code":"799-0704","address":"四国中央市土居町津根","next":[1180626,1180628,100308,1180624,1180621,1161015,1180630],"voronoi":{"lat":34.228363,"lng":133.410833,"delta_lat":[0,86,-24174,-109876,-277956,316933,91196],"delta_lng":[0,472,19134,44176,7925,-87044,2642]}},
    {"code":1180628,"id":"c5db8c","name":"伊予土居","name_kana":"いよどい","lat":33.959024,"lng":133.428294,"prefecture":38,"numbering":[{"index":"26"}],"lines":[11806],"attr":"eco","postal_code":"799-0711","address":"四国中央市土居町土居","next":[9981826,9981827,1180627,1180630,1180136,1180121,1180138,1180626,1180629],"voronoi":{"lat":33.755126,"lng":133.435213,"delta_lat":[0,786,184,3392,28624,28331,316933,-4858,-373770],"delta_lng":[0,11382,1066,14419,23991,-3531,-87044,-542,33942]}},
    {"code":1180629,"id":"0eae28","name":"関川","name_kana":"せきがわ","lat":33.955791,"lng":133.392692,"prefecture":38,"numbering":[{"index":"27"}],"lines":[11806],"attr":"eco","postal_code":"799-0722","address":"四国中央市土居町北野","next":[1180631,9981827,9981833,9981829,1180632,1180628,1180630],"voronoi":{"lat":33.909029,"lng":133.347087,"delta_lat":[0,-129432,-31490,4166,728,1748,373770],"delta_lng":[0,10133,6678,47509,5714,11775,-33942]}},
    {"code":1180630,"id":"182a65","name":"多喜浜","name_kana":"たきはま","lat":33.970533,"lng":133.325094,"prefecture":38,"numbering":[{"index":"28"}],"lines":[11806],"attr":"heat","postal_code":"792-0882","address":"新居浜市又野１丁目","next":[1180640,1161018,1180628,1171603,1161015,1180629,1180631,1161016,1180627,1161017],"voronoi":{"lat":34.224215,"lng":133.38903,"delta_lat":[0,358,-91196,-4858,-219490,202482,59775,557,47481,4252],"delta_lng":[0,9109,-2642,-542,-47867,-149587,8544,923,155969,21478]}},
    {"code":1180631,"id":"747913","name":"新居浜","name_kana":"にいはま","lat":33.948124,"lng":133.294761,"prefecture":38,"numbering":[{"index":"29"}],"lines":[11806],"attr":"heat","postal_code":"792-0812","address":"新居浜市坂井町","next":[1180629,1180640,1180632,1180630],"voronoi":{"lat":33.779597,"lng":133.357221,"delta_lat":[0,311876,20038,-202482],"delta_lng":[0,-164651,4931,149587]}},
    {"code":1180632,"id":"1415aa","name":"中萩","name_kana":"なかはぎ","lat":33.926232,"lng":133.253294,"prefecture":38,"numbering":[{"index":"30"}],"lines":[11806],"attr":"heat","postal_code":"792-0060","address":"新居浜市大生院","next":[1180145,1180633,1180144,1180634,1180161,9981833,1180629,1180631,1180640],"voronoi":{"lat":34.078376,"lng":133.187416,"delta_lat":[0,-325297,-31804,4751,7434,13533,1113,31490,311876],"delta_lng":[0,68283,10102,28164,30083,37451,2400,-6678,-164651]}},
    {"code":1180633,"id":"1e54cd","name":"伊予西条","name_kana":"いよさいじょう","lat":33.912584,"lng":133.188275,"prefecture":38,"numbering":[{"index":"31"}],"lines":[11806],"attr":"heat","postal_code":"793-0030","address":"西条市大町福森","next":[1180632,1180639,1180640,1180637,1180635,1180638,1180634],"voronoi":{"lat":33.953335,"lng":133.146148,"delta_lat":[0,8702,43,45839,31248,39210,-325297],"delta_lng":[0,-2405,0,7638,10536,25498,68283]}},
    {"code":1180634,"id":"8e871a","name":"石鎚山","name_kana":"いしづちやま","lat":33.895882,"lng":133.157744,"prefecture":38,"numbering":[{"index":"32"}],"lines":[11806],"attr":"heat","postal_code":"793-0062","address":"西条市西田甲","next":[1180146,1180632,1180145,1180633,1180635],"voronoi":{"lat":33.675698,"lng":133.137327,"delta_lat":[0,35457,10120,31804,200255],"delta_lng":[0,105424,23049,-10102,-109550]}},
    {"code":1180635,"id":"9abb0b","name":"伊予氷見","name_kana":"いよひみ","lat":33.896734,"lng":133.130929,"prefecture":38,"numbering":[{"index":"33"}],"lines":[11806],"attr":"heat","postal_code":"793-0000","address":"西条市氷見","next":[1180146,1180636,1180637,1180633,1180634],"voronoi":{"lat":33.962037,"lng":133.143743,"delta_lat":[0,-36255,-261081,10998,277636],"delta_lng":[0,-18242,-15303,27129,8821]}},
    {"code":1180636,"id":"8c1de9","name":"伊予小松","name_kana":"いよこまつ","lat":33.897567,"lng":133.116717,"prefecture":38,"numbering":[{"index":"34"}],"lines":[11806],"attr":"heat","postal_code":"799-1101","address":"西条市小松町新屋敷","next":[1180146,1180637,1180635,9980715],"voronoi":{"lat":33.664701,"lng":133.110199,"delta_lat":[0,261081,-123030,-150915],"delta_lng":[0,15303,-105630,61186]}},
    {"code":1180637,"id":"ea9832","name":"玉之江","name_kana":"たまのえ","lat":33.912829,"lng":133.098941,"prefecture":38,"numbering":[{"index":"35"}],"lines":[11806],"attr":"heat","postal_code":"799-1363","address":"西条市玉之江","next":[1180636,1180635,1180638,1180633,9980715],"voronoi":{"lat":33.925781,"lng":133.125501,"delta_lat":[0,36255,43,-115798,-43530],"delta_lng":[0,18242,0,-146079,22207]}},
    {"code":1180638,"id":"0bf9dc","name":"壬生川","name_kana":"にゅうがわ","lat":33.929699,"lng":133.085568,"prefecture":38,"numbering":[{"index":"36"}],"lines":[11806],"attr":"heat","postal_code":"799-1351","address":"西条市三津屋","next":[9980715,1180637,1180639,1180633],"voronoi":{"lat":33.865213,"lng":132.985778,"delta_lat":[0,-18932,115798,45839],"delta_lng":[0,11886,146079,7638]}},
    {"code":1180639,"id":"89b2d6","name":"伊予三芳","name_kana":"いよみよし","lat":33.954382,"lng":133.064298,"prefecture":38,"numbering":[{"index":"37"}],"lines":[11806],"attr":"cool","postal_code":"799-1301","address":"西条市三芳","next":[1180640,1180638,1180633,9980715],"voronoi":{"lat":33.925696,"lng":132.935019,"delta_lat":[0,113471,-31248,-142705],"delta_lng":[0,226899,-10536,-165603]}},
    {"code":1180640,"id":"0ecad5","name":"伊予桜井","name_kana":"いよさくらい","lat":34.011923,"lng":133.035522,"prefecture":38,"numbering":[{"index":"38"}],"lines":[11806],"attr":"cool","postal_code":"799-1527","address":"今治市長沢甲","next":[1180641,1180630,1180639,1171603,1180631,1180633,9980715,1180642,1171604,1180632],"voronoi":{"lat":34.078376,"lng":133.187416,"delta_lat":[0,-39210,-113471,1645,172883,72773,-148,-1563,-59775,-20038],"delta_lng":[0,-25498,-226899,-2269,160085,91036,10560,11614,-8544,-4931]}},
    {"code":1180641,"id":"c9429a","name":"伊予富田","name_kana":"いよとみた","lat":34.036302,"lng":133.009194,"prefecture":38,"numbering":[{"index":"39"}],"lines":[11806],"attr":"cool","postal_code":"799-1511","address":"今治市上徳甲","next":[1180640,1180645,1180642,1180647,9980715,1180646],"voronoi":{"lat":33.93167,"lng":132.926932,"delta_lat":[0,-1223,-3107,172883,-72918,-86144],"delta_lng":[0,21,5797,160085,-132496,-32177]}},
    {"code":1180642,"id":"35325e","name":"今治","name_kana":"いまばり","lat":34.063765,"lng":132.99408,"prefecture":38,"numbering":[{"index":"40"}],"lines":[11806],"attr":"cool","postal_code":"794-0028","address":"今治市北宝来町１丁目","next":[1180643,1180645,1171604,1180640,1180641],"voronoi":{"lat":34.027305,"lng":132.960338,"delta_lat":[0,39075,117132,-10516,-72773],"delta_lng":[0,1426,159398,62708,-91036]}},
    {"code":1180643,"id":"83cf87","name":"波止浜","name_kana":"はしはま","lat":34.098001,"lng":132.968922,"prefecture":38,"numbering":[{"index":"41"}],"lines":[11806],"attr":"cool","postal_code":"799-2113","address":"今治市高部町","next":[1171606,1180642,1180645,1180644,1171604,1171605],"voronoi":{"lat":34.183512,"lng":133.121163,"delta_lat":[0,-117132,3863,147065,786,-4284],"delta_lng":[0,-159398,-3111,-15657,30178,45750]}},
    {"code":1180644,"id":"2bffee","name":"波方","name_kana":"なみかた","lat":34.095217,"lng":132.942771,"prefecture":38,"numbering":[{"index":"42"}],"lines":[11806],"attr":"cool","postal_code":"799-2102","address":"今治市波方町樋口","next":[1171609,1180646,1171606,1171607,1180643,1180645,1171611],"voronoi":{"lat":34.218041,"lng":132.9339,"delta_lat":[0,-2,-731,-147065,30478,80657,11530],"delta_lng":[0,198,8899,15657,-66034,-48597,16318]}},
    {"code":1180645,"id":"91417e","name":"大西","name_kana":"おおにし","lat":34.066128,"lng":132.929345,"prefecture":38,"numbering":[{"index":"43"}],"lines":[11806],"attr":"heat","postal_code":"799-2203","address":"今治市大西町新町","next":[1180641,1180642,1180643,1180646,1180644],"voronoi":{"lat":34.100721,"lng":132.89262,"delta_lat":[0,-159560,86144,39075,3863],"delta_lng":[0,35542,32177,1426,-3111]}},
    {"code":1180646,"id":"466102","name":"伊予亀岡","name_kana":"いよかめおか","lat":34.053811,"lng":132.874049,"prefecture":38,"numbering":[{"index":"44"}],"lines":[11806],"attr":"heat","postal_code":"799-2301","address":"今治市菊間町佐方","next":[1180644,1171611,1180645,1171613,1180647,1180641],"voronoi":{"lat":33.93167,"lng":132.926932,"delta_lat":[0,217666,26955,5087,-80657,-159560],"delta_lng":[0,-134857,35735,16213,48597,35542]}},
    {"code":1180647,"id":"a90073","name":"菊間","name_kana":"きくま","lat":34.033404,"lng":132.841111,"prefecture":38,"numbering":[{"index":"45"}],"lines":[11806],"attr":"heat","postal_code":"799-2303","address":"今治市菊間町浜","next":[1180648,1180651,1171613,9980715,1180646,1180641,1171614],"voronoi":{"lat":34.126569,"lng":132.757637,"delta_lat":[0,-189897,-13184,6959,1223,217666,-7614],"delta_lng":[0,116715,15569,37032,-21,-134857,-14213]}},
    {"code":1180648,"id":"1dc192","name":"浅海","name_kana":"あさなみ","lat":34.010017,"lng":132.80306,"prefecture":38,"numbering":[{"index":"46"}],"lines":[11806],"attr":"heat","postal_code":"799-2402","address":"松山市浅海本谷","next":[1180647,1180650,1180651,1171614,1180649],"voronoi":{"lat":34.121232,"lng":132.746959,"delta_lat":[0,5338,-189897,20695,28889],"delta_lng":[0,10678,116715,-39508,-38678]}},
    {"code":1180649,"id":"e0f9c9","name":"大浦","name_kana":"おおうら","lat":34.000005,"lng":132.775597,"prefecture":38,"numbering":[{"index":"47"}],"lines":[11806],"attr":"heat","postal_code":"799-2408","address":"松山市大浦","next":[1171614,1180650,1171616,1180648,9980601,1171615],"voronoi":{"lat":34.121232,"lng":132.746959,"delta_lat":[0,-134975,1238,51303,7713,61396],"delta_lng":[0,49207,-129981,-81467,11981,113290]}},
    {"code":1180650,"id":"7cc157","name":"伊予北条","name_kana":"いよほうじょう","lat":33.972903,"lng":132.775339,"prefecture":38,"numbering":[{"index":"48"}],"lines":[11806],"attr":"heat","postal_code":"799-2430","address":"松山市北条辻","next":[1180649,1180648,9980601,1180651,1180653],"voronoi":{"lat":33.978185,"lng":132.677572,"delta_lat":[0,9310,-1238,-28889,12689],"delta_lng":[0,-11387,129981,38678,-131245]}},
    {"code":1180651,"id":"59ff28","name":"柳原(愛媛)","name_kana":"やなぎはら","lat":33.953519,"lng":132.773465,"prefecture":38,"numbering":[{"index":"49"}],"lines":[11806],"attr":"heat","postal_code":"799-2436","address":"松山市河野別府","next":[9980715,1180647,1180652,1180650,1180648,1180653],"voronoi":{"lat":33.918003,"lng":132.88249,"delta_lat":[0,5486,13184,20695,12689,-7403],"delta_lng":[0,7430,-15569,-39508,-131245,15775]}},
    {"code":1180652,"id":"69fe1e","name":"粟井","name_kana":"あわい","lat":33.942965,"lng":132.770576,"prefecture":38,"numbering":[{"index":"50"}],"lines":[11806],"attr":"heat","postal_code":"799-2461","address":"松山市鹿峰","next":[1180653,1180651,9981011,9980715],"voronoi":{"lat":33.962653,"lng":132.719374,"delta_lat":[0,-59566,8570,6345],"delta_lng":[0,99673,55658,7786]}},
    {"code":1180653,"id":"20bbe7","name":"光洋台","name_kana":"こうようだい","lat":33.926886,"lng":132.760967,"prefecture":38,"numbering":[{"index":"51"}],"lines":[11806],"attr":"heat","postal_code":"799-2468","address":"松山市小川","next":[9980601,1180652,1180654,1180651,9981011,1180650],"voronoi":{"lat":33.978185,"lng":132.677572,"delta_lat":[0,-46131,-32966,4000,59566,7403],"delta_lng":[0,34109,94551,12815,-99673,-15775]}},
    {"code":1180654,"id":"3ce914","name":"堀江","name_kana":"ほりえ","lat":33.905458,"lng":132.753496,"prefecture":38,"numbering":[{"index":"52"}],"lines":[11806],"attr":"heat","postal_code":"799-2651","address":"松山市堀江町","next":[9980810,1180653,1180655,9980601,9981011],"voronoi":{"lat":33.932054,"lng":132.711681,"delta_lat":[0,-9260,-41851,1251,16894],"delta_lng":[0,3977,51985,8932,29657]}},
    {"code":1180655,"id":"82e3be","name":"伊予和気","name_kana":"いよわけ","lat":33.889529,"lng":132.740672,"prefecture":38,"numbering":[{"index":"53"}],"lines":[11806],"attr":"heat","postal_code":"799-2656","address":"松山市和気町１丁目","next":[9980809,9980607,1180656,9980601,9980603,9980602,9980604,1180654,9980810],"voronoi":{"lat":33.922794,"lng":132.715658,"delta_lat":[0,-33807,-3253,-6637,-1063,-6925,403,4898,4533],"delta_lng":[0,5368,1464,4868,1319,16395,4523,9920,8128]}},
    {"code":1180656,"id":"6649f1","name":"三津浜","name_kana":"みつはま","lat":33.86142,"lng":132.728798,"prefecture":38,"numbering":[{"index":"54"}],"lines":[11806],"attr":"heat","postal_code":"791-8076","address":"松山市会津町","next":[9980605,9980604,1180655,9980607,9980606],"voronoi":{"lat":33.871108,"lng":132.745071,"delta_lat":[0,6925,-17637,-4980,3172],"delta_lng":[0,-16395,-4900,6814,6886]}},
    {"code":1180657,"id":"89f6ed","name":"松山(愛媛)","name_kana":"まつやま","lat":33.839954,"lng":132.751149,"prefecture":38,"numbering":[{"index":"55"}],"lines":[11806,11807],"attr":"heat","postal_code":"790-0062","address":"松山市南江戸１丁目","next":[9980607,9980606,9980609,9980806,9980502,9980805,9980503],"voronoi":{"lat":33.836529,"lng":132.737504,"delta_lat":[0,5616,2382,-1958,-4306,-2487,-3849],"delta_lng":[0,3338,4079,5294,2967,-134,-5202]}}
  ],
  "north":34.35106,
  "south":33.83805,
  "east":134.04646,
  "west":132.72869,
  "polyline_list":[
    {
      "start":"高松１",
      "end":"高松",
      "lat":34.34577,
      "lng":134.02878,
      "delta_lat":[0,1,8,55,8,4,31,15,10,32,24,35,35,37,36,27,71,99],
      "delta_lng":[0,1,27,183,23,14,101,54,39,200,77,112,127,147,149,107,182,225]
    },
    {
      "start":"高松２",
      "end":"高松１",
      "lat":34.34637,
      "lng":134.01723,
      "delta_lat":[0,-13,-27,-52,-34,-8,-4,-6,-3,4,11,13,19,4,22,14],
      "delta_lng":[0,58,90,157,112,47,33,147,183,67,65,47,49,11,53,36]
    },
    {
      "start":"高松２",
      "end":"高松１",
      "lat":34.34637,
      "lng":134.01723,
      "delta_lat":[0,-2,-1,-2,-2,-2,-7,-4,-18,-18,-11,-2,0,9],
      "delta_lng":[0,65,99,89,93,54,113,39,147,131,107,58,64,96]
    },
    {
      "start":"松山",
      "end":"高松２",
      "lat":33.83805,
      "lng":132.7511,
      "delta_lat":[0,101,164,61,139,108,45,31,35,29,49,44,71,26,57,36,49,32,28,36,61,48,18,6,3,-6,-14,-16,-26,-14,-10,-5,-2,2,9,6,14,20,12,8,29,34,24,21,66,95,136,77,69,54,54,31,132,103,46,65,150,178,145,106,39,19,50,57,65,33,48,40,26,10,12,8,4,2,5,15,18,25,20,45,40,34,69,100,151,56,90,161,143,116,146,152,92,6,13,35,54,46,45,98,50,94,139,143,150,149,18,50,112,40,18,44,48,56,67,85,63,94,105,108,101,105,105,37,47,36,30,48,33,49,71,53,46,54,40,63,22,13,26,74,104,44,36,27,29,25,20,25,24,45,69,14,70,21,20,26,24,23,27,44,36,31,43,58,129,92,59,181,192,138,53,78,71,65,35,104,41,85,139,131,126,89,103,135,61,46,30,27,29,60,41,24,46,26,42,44,33,35,53,77,159,78,139,45,49,29,29,27,64,43,41,38,90,192,276,96,131,34,47,63,52,93,40,30,36,105,48,124,94,103,161,88,21,162,79,45,32,26,44,39,50,55,59,148,175,206,29,78,18,29,50,29,31,21,27,58,44,20,32,33,14,55,68,45,45,26,23,22,30,24,112,67,69,29,107,30,15,12,45,53,7,7,11,9,7,17,9,14,18,26,28,47,25,14,10,14,21,9,5,9,9,16,7,23,19,16,16,12,16,11,14,55,34,10,20,10,5,5,5,2,2,0,-4,-3,-4,-7,-27,-9,-11,-18,-9,-10,-13,-4,-2,-19,-47,-11,-7,-3,-3,-2,3,4,6,11,10,13,11,11,9,23,67,72,54,46,109,118,45,31,21,23,21,24,52,35,79,20,44,28,13,11,12,11,10,12,7,2,11,5,4,2,3,4,4,9,20,13,8,10,15,17,16,25,15,12,13,11,7,15,4,6,13,14,8,13,11,12,18,9,20,18,16,17,29,31,42,19,14,11,23,15,38,70,36,18,40,41,13,11,8,23,17,12,22,20,16,18,20,7,9,10,16,14,13,20,31,36,19,29,31,25,27,10,19,20,5,2,6,5,4,4,3,8,12,33,9,7,9,7,3,5,13,19,18,14,4,6,10,15,25,14,22,23,21,27,14,20,27,29,32,125,89,81,61,26,20,20,29,32,17,66,35,70,18,28,12,7,9,22,12,6,7,7,2,15,14,15,22,32,33,21,9,27,62,22,26,10,15,11,11,11,29,19,15,9,18,28,16,9,16,11,22,49,16,36,34,40,34,10,14,14,17,7,7,9,6,2,2,1,4,0,3,5,6,14,41,61,61,63,60,20,32,38,13,8,6,4,-2,-3,-13,-10,-12,-5,2,-2,4,5,8,6,8,9,7,3,23,28,29,33,31,32,40,52,58,40,63,17,4,17,15,9,8,6,2,-2,-3,-5,-7,-3,-8,-12,-27,-27,-14,-5,-3,-4,1,5,1,3,3,6,9,0,-4,-2,-13,-32,-11,0,4,4,25,19,37,19,10,10,17,70,71,76,63,65,67,49,47,19,41,19,23,19,31,32,33,30,35,29,27,52,162,174,163,110,44,20,46,100,92,83,51,32,82,55,51,54,27,45,38,31,22,17,24,18,43,64,56,44,69,65,96,86,29,38,77,9,67,31,38,53,25,13,3,-20,-13,-6,-4,1,5,8,11,9,5,48,76,21,13,10,3,-1,-6,-17,-49,-41,-28,-9,-34,-10,-2,3,0,29,22,43,46,54,55,15,15,10,1,-3,-8,-8,-18,-9,-20,-36,-52,-87,-88,-73,-53,-32,-54,-83,-82,-52,-91,-79,-36,-21,-40,-39,-41,-41,-23,-45,-32,-32,-62,-47,-20,-36,-35,-100,-100,-31,-67,-137,-184,-156,-89,-33,-47,-140,-48,-13,-28,-32,-21,-77,-70,-135,-109,-72,-90,-105,-6,-106,-8,-46,-32,-81,-63,-121,-49,-35,-18,-38,-97,-62,-99,-92,-97,-67,-74,-22,-112,-54,-30,-86,-145,-98,-72,-101,-114,-23,-98,-100,-160,-177,-134,-80,-79,-147,-141,-62,-29,-33,-40,-49,-27,-15,-27,-41,-45,-17,-16,-21,-31,-27,-19,-14,-52,-79,-97,-140,-131,-47,-87,-177,-110,-72,-157,-17,-97,-20,-18,-25,-24,-30,-91,-83,-69,-79,-107,-69,-20,-23,-47,-34,-24,-47,-70,-69,-32,-15,-15,-57,-58,-24,-49,-6,-33,-43,-60,-33,-40,-53,-44,-44,-37,-38,-35,-40,-37,-39,-38,-39,-35,-5,-40,-43,-42,-38,-37,-35,-74,-51,-21,-13,-9,-15,-10,-13,-27,-21,-21,-28,-22,-7,-26,-27,-36,-27,-33,-39,-69,-22,-16,-20,-34,-29,-29,-51,-30,-26,-28,-28,-23,-27,-36,-45,-22,-19,-28,-43,-28,-30,-18,-3,-41,-105,-115,-83,-93,-106,-60,-76,-76,-105,-170,-168,-135,-28,-24,-26,-27,-36,-31,-23,-28,-26,-19,-18,-20,-29,-27,-24,-27,-56,-54,-97,-80,-12,-15,-47,-25,-28,-21,-31,-38,-36,-24,-23,-33,-30,-62,-90,-90,-65,-71,-87,-39,-24,-16,-23,-20,-42,-44,-43,-50,-35,-124,-147,-74,-54,-36,-42,-47,-43,-131,-94,-81,-126,-130,-57,-57,-101,-129,-180,-158,-25,-116,-116,-115,-93,-184,-25,-161,-186,-145,-44,-89,-210,-92,-37,-26,-29,-36,-54,-75,-66,-136,-186,-171,-130,-155,-104,-9,-29,-46,-50,-36,-47,-33,-47,-38,-38,-20,-27,-23,-24,-29,-10,-10,-11,-7,-6,-3,-5,-6,-2,-5,-2,-14,-15,-12,-15,-1,-12,-21,-29,-4,-9,-29,-3,-24,-3,-20,1,2,2,2,0,0,0,3,6,9,17,79,141,67,23,73,16,19,42,20,20,18,36,37,109,154,28,24,190,207,23,63,23,17,14,21,21,78,25,83,55,38,3,159,100,92,67,16,18,57,9,87,54,35,26,19,19,18,12,13,4,-1,-13,-3,-30,-2,2,5,25,32,13,15,14,15,3,2,-4,-10,-26,-13,-6,-1,7,4,8,1,-3,-6,0,6,8,6,4,7,32,28,21,22,5,37,8,8,63,27,29,24,23,18,43,57,36,21,16,6,7,4,0,-3,-1,0,2,5,1,9,18,13,17,25,26,34,31,47,38,89,182,33,104,59,28,18,24,22,12,16,8,3,24,11,7,12,11,13,16,24,114,55,26,166,118,184,26,17,49,134,44,43,117,206,243,112,113,163,150,76,78,135,22,128,134,145,81,70,33,45,55,21,32,42,29,16,27,24,5,10,-3,0,2,4,5,9,20,22,34,31,35,18,12,24,14,18,36,20,11,6,3,0,-5,-19,-12,-5,-2,4,3,2,-2,0,-3,-15,-29,-24,-21,-9,-8,-7,-11,-7,-7,-7,-13,-20,-21,-24,-87,-45,-51,-97,-74,-61,-93,-60,-29,-18,-16,-19,-13,-16,-19,-11,-11,-12,0,-11,-4,-3,0,4,2,-4,-8,-23,-54,-26,-16,-5,0,0,7,9,7,0,-4,-9,-14,-13,-10,-40,-34,-60,-82,-89,-97,-67,-29,-21,-22,-13,-7,-17,-20,-8,-13,-6,-6,-4,-30,-7,-9,-15,-38,-85,-20,-44,-33,-29,-17,-7,-2,2,3,4,22,30,22,60,7,7,24,12,12,39,37,36,34,41,25,19,12,11,18,39,39,7,19,59,43,56,75,9,30,63,58,10,47,48,5,62,43,24,23,47,42,15,54,34,27,79,15,11,45,17,10,11,6,14,13,18,21,2,4,0,1,19,19,4,26,20,-1,-7,-11,-12,-10,-12,-15,-23,-42,-57,-30,-18,-14,-12,-10,-7,-2,2,2,3,4,0,7,2,0,1,7,0,2,1,5,6,4,5,7,2,2,2,4,8,8,18,40,50,68,102,99,7,91,87,14,18,65,84,99,37,26,11,10,17,38,2,32,24,4,3,44,33,42,5,5,9,12,20,29,56,133,20,22,123,112,150,108,26,23,48,133,128,118,40,75,53,26,128,19,20,133,126,203,120,65,28,18,17,28,27,27,54,38,201,32,47,134,132,29,29,118,16,108,177,73,43,159,145,59,53,34,13,21,31,29,63,38,20,35,76,104,72,163,67,35,26,42,23,38,42,49,27,61,114,53,30,4,42,28,31,127,172,97,36,34,30,25,33,15,4,4,10,14,16,7,11,11,11,19,38,72,17,45,113,52,38,26,40,20,27,18,29,65,40,20,30,24,34,31,40,25,52,53,34,27,13,14,14,12,30,13,13,11,9,12,11,18,30,19,8,18,46,33,35,82,111,71,39,197,148,34,196,30,228,56,47,225,38,47,118,33,144,120,52,28,41,56,44,220,166,62,190,81,83,11,114,290,170,97,200,242,284,65,219,267,121,35,30,24,12,29,30,72,286,287,166,112,83,34,45,3,32,43,34,26,38,34,17,30,31,30,15,24,22,37,129,72,65,96,16,119,96,62,23,94,76,56,14,20,22,29,42,26,18,26,50,33,47,17,32,21,152,89,159,297,327,144,116,38,389,473,6,355,268,268,70,101,31,56,76,10,41,108,110,112,40,86,85,23,25,25,21,29,18,18,15,19,6,8,7,13,17,3,17,20,6,7,8,12,13,22,19,19,28,29,94,94,43,4,100,74,103,34,18,18,17,15,24,26,48,73,103,94,150,146,16,63,27,32,120,183,2,153,69,23,42,65,132,163,103,110,63,146,85,39,32,26,30,38,27,28,14,7,7,6,7,33,30,42,42,45,75,1,52,68,53,62,15,15,15,19,21,37,24,14,7,8,4,19,51,105,145,93,114,147,143,27,20,30,25,34,22,18,31,36,69,98,30,47,29,18,13,12,13,31,7,62,94,9,54,15,14,16,47,29,9,38,54,60,16,13,10,11,10,7,9,23,22,14,11,15,23,25,29,33,16,47,60,62,110,91,91,138,101,34,9,71,21,114,85,27,27,11,16,19,23,30,6,25,4,22,16,27,24,19,16,23,15,3,3,0,-4,-10,-25,-21,-54,-16,-12,-15,-22,-22,-10,-6,-4,-5,-3,-10,-9,-3,-4,-2,1,3,6,5,12,23,18,24,24,11,83,87,121,100,27,77,73,12,149,38,36,50,74,53,90,270,195,203,118,96,219,85,102,93,39,77,34,25,40,40,30,42,7,60,52,63,11,11,29,65,89,27,32,39,8,11,36,66,3,18,17,82,66,67,28,22,58,42,50,71,32,51,51,104,29,16,11,7,18,20,22,22,37,42,37,43,40,34,54,121,67,170,289,159,127,190,246,57,41,34,21,13,5,0,-4,-7,-14,-63,-41,-53,-35,-21,-21,-18,-88,-60,-37,-28,-14,-6,0,2,6,9,9,14,16,4,6,39,27,57,19,20,18,29,65,9,9,2,0,-3,-3,2,2,18,1,14,1,27,0,32,25,21,10,12,7,33,0,-2,-16,-64,-77,-26,-18,-99,-43,-72,-3,-81,-36,-9,-17,-27,-44,-144,-52,-198,-214,-227,-30,-211,-259,-187,-13,-40,-21,-12,-9,-23,-18,-9,-12,-10,-16,-6,-6,-6,0,4,9,41,74,48,9,45,14,12,17,29,41,40,29,27,38,76,97,38,35,31,34,25,13,20,34,22,7,8,8,38,11,9,51,5,40,27,11,16,15,18,37,39,48,68,19,75,46,29,17,18,21,169,59,41,33,36,43,24,9,22,32,49,44,79,166,180,128,5,285,250,136,59,199,148,85,58,51,32,16,16,30,32,8,28,17,9,11,15,17,12,9,15,49,26,23,31,27,27,28,22,22,27,56,149,244,56,91,131,96,27,43,42,25,15,10,2,-9],
      "delta_lng":[0,-8,-8,-2,-7,-2,-11,-16,-28,-24,-50,-49,-80,-24,-54,-43,-62,-55,-58,-92,-161,-154,-88,-46,-58,-72,-65,-42,-60,-48,-55,-54,-53,-57,-72,-33,-45,-37,-15,-11,-28,-33,-17,-13,-35,-43,-59,-36,-29,-18,-10,-4,-5,-1,0,0,-2,0,-7,-2,1,3,13,25,38,28,51,47,45,30,41,45,73,50,49,61,52,46,31,44,19,11,13,10,14,4,8,11,12,7,15,12,8,1,6,10,23,29,33,83,43,81,115,121,132,126,16,43,99,36,15,41,42,43,54,62,48,68,80,80,77,75,76,21,21,16,4,4,2,-2,-7,-5,-3,4,7,19,11,8,16,49,63,29,18,8,5,3,-3,-8,-14,-27,-37,-4,-21,-1,0,5,5,9,15,24,20,20,37,49,99,71,43,141,149,105,37,48,39,37,20,55,18,40,65,61,59,44,49,61,19,7,6,-1,-5,-9,-8,-2,-3,0,5,8,12,14,25,38,79,36,67,21,22,12,8,6,4,1,-2,-3,-10,-30,-42,-16,-19,-5,-3,-2,5,12,12,11,16,52,19,62,45,52,75,46,10,77,37,17,6,0,-1,-5,-8,-16,-29,-72,-83,-94,-14,-34,-8,-6,-4,1,6,6,11,25,19,3,1,-4,-5,-26,-33,-27,-20,-10,-3,0,2,2,34,16,19,8,29,10,8,9,48,54,4,7,15,15,23,62,35,40,40,40,45,65,38,16,21,14,51,20,15,27,18,26,11,38,30,36,30,21,35,27,42,172,104,32,52,36,23,33,44,22,16,33,33,13,17,19,64,20,14,26,18,19,32,6,10,77,184,40,27,21,26,29,30,22,22,38,31,31,23,16,13,22,60,66,45,37,86,95,36,25,16,11,10,8,13,11,27,7,21,19,18,9,13,15,17,25,15,6,30,20,19,24,26,32,17,30,56,33,16,14,20,21,19,31,20,23,24,25,26,66,22,20,35,32,26,26,16,14,21,9,27,20,17,16,23,26,36,18,15,16,32,24,84,147,72,39,78,84,25,18,11,22,14,14,26,23,24,34,46,21,17,19,24,22,16,19,27,34,18,27,33,22,29,13,48,44,15,8,41,56,41,59,27,36,33,69,15,13,20,19,16,56,109,167,126,77,25,26,29,33,48,25,34,31,27,31,18,18,22,21,22,79,56,53,37,19,11,12,25,31,23,109,60,119,27,47,24,19,31,88,69,25,19,14,6,24,19,16,21,28,27,14,9,27,65,25,28,16,26,25,26,32,96,60,52,29,44,64,34,16,21,12,22,61,20,35,38,53,52,16,35,32,59,35,57,87,80,22,16,19,10,27,16,19,18,27,89,111,113,117,116,37,57,77,29,28,28,31,33,33,57,51,48,38,77,66,60,81,69,66,60,43,27,5,48,57,61,61,59,62,65,81,98,76,130,47,13,56,41,35,39,33,25,94,86,91,67,40,46,36,55,47,32,25,27,34,47,70,25,119,68,63,116,34,35,29,114,265,84,21,21,22,107,81,166,76,29,23,30,106,109,120,96,98,104,70,73,28,51,18,17,12,11,12,6,6,0,-3,-7,-13,-38,-43,-40,-25,-7,-3,-7,-7,-4,-8,-8,-4,-19,-16,-17,-15,-5,-4,-1,2,5,8,13,10,32,60,45,24,25,29,36,29,16,40,92,11,78,40,61,98,63,45,39,134,80,69,63,78,85,79,45,26,11,97,142,48,46,56,51,55,46,68,159,138,106,36,114,43,33,40,1,92,50,108,103,138,124,53,65,63,79,53,57,43,79,30,45,59,70,112,124,108,79,51,90,138,126,71,140,117,47,28,31,22,19,14,4,3,-1,-4,-15,-10,-2,0,0,16,19,6,12,28,37,33,18,10,16,54,19,6,12,16,14,62,62,121,95,66,82,100,5,99,8,42,31,77,53,99,34,25,12,16,41,25,40,37,38,28,30,9,45,19,16,45,76,51,38,53,60,11,49,53,88,94,69,42,43,79,74,37,20,27,35,46,32,17,34,60,79,31,31,47,77,57,35,21,61,104,128,183,167,61,113,231,141,96,199,24,129,17,15,13,11,11,32,35,27,27,32,19,2,-1,-10,-7,-3,-14,-20,-19,-6,0,3,17,14,9,24,7,16,23,25,14,24,36,39,50,51,51,51,48,49,49,49,50,43,5,47,47,45,48,50,53,108,81,37,30,31,58,29,30,49,32,23,25,17,5,19,10,12,5,1,-1,-8,-1,0,4,10,4,1,-1,1,3,4,4,5,11,20,26,10,6,6,2,-1,-1,-1,0,-7,-21,-22,-13,-14,-11,-4,-3,3,15,25,27,20,3,0,0,-1,-4,-8,-9,-16,-10,-5,-4,1,4,4,7,9,27,26,52,38,6,6,26,17,19,18,26,33,36,29,34,54,57,118,171,174,124,132,171,72,40,24,25,18,23,26,22,27,12,55,64,36,27,24,29,37,37,117,85,72,112,118,51,52,89,115,160,141,23,102,106,101,87,163,22,143,167,132,36,74,181,74,27,15,15,15,15,17,6,6,9,9,6,7,4,1,1,9,16,13,24,24,36,30,38,24,39,38,52,72,40,46,71,57,63,46,87,84,57,74,43,245,279,201,251,47,193,333,487,90,163,500,61,387,35,306,458,288,362,95,194,22,91,57,39,33,52,205,368,179,66,187,44,47,89,40,30,24,38,37,92,126,23,19,155,170,20,50,19,24,25,50,53,188,64,194,122,86,7,366,236,215,157,36,43,134,22,205,134,91,77,62,72,80,78,129,93,80,167,20,339,49,44,61,207,268,110,137,131,116,57,50,36,42,93,75,50,43,154,112,182,173,83,130,53,41,37,27,5,22,63,55,29,34,7,70,12,15,118,47,65,58,67,52,142,182,124,67,57,33,37,31,37,155,194,65,62,33,7,47,70,49,50,64,54,61,44,56,41,82,164,31,94,62,33,29,45,51,39,78,61,39,202,84,43,40,29,28,24,34,135,63,29,189,129,204,28,19,54,153,49,50,134,225,278,124,123,180,172,95,116,200,33,190,195,213,113,86,40,57,65,27,37,64,55,31,75,81,27,152,230,124,70,67,37,37,56,60,59,49,58,34,35,78,43,59,130,86,65,62,63,64,61,131,80,48,45,45,55,55,37,8,32,57,63,54,62,37,39,62,132,70,49,45,40,38,36,26,72,38,43,86,66,45,55,38,20,18,19,28,26,37,54,50,69,87,4,73,42,38,46,84,119,39,36,51,116,65,47,30,16,14,89,75,63,41,47,29,29,21,15,42,38,63,78,81,84,68,42,29,45,39,27,230,277,116,171,87,77,85,341,42,37,45,83,193,47,104,73,87,65,45,43,47,27,30,126,158,126,325,43,42,75,36,21,60,52,41,32,47,34,36,42,46,61,151,155,25,75,232,162,218,296,32,125,253,238,41,190,197,21,250,179,87,69,141,124,45,162,104,75,242,48,29,137,51,36,65,37,160,139,206,223,30,34,4,24,200,204,37,295,219,90,57,66,59,36,34,43,58,81,109,71,53,47,74,64,66,44,37,63,89,133,11,167,79,27,33,179,82,152,41,194,209,199,185,178,40,71,34,47,41,31,53,88,92,128,194,195,13,177,165,27,31,125,159,190,73,61,35,53,91,192,6,164,114,18,15,227,161,223,22,24,29,31,41,45,87,205,31,37,189,169,231,158,33,29,54,146,135,128,44,80,58,27,139,20,20,142,136,219,131,66,25,15,13,15,11,9,9,0,-5,-2,-1,-7,-6,1,5,25,4,25,39,16,10,37,32,13,20,18,6,15,30,31,88,46,20,25,50,66,44,101,47,26,19,37,29,51,59,73,48,143,266,114,52,7,60,38,34,114,160,91,37,42,47,48,76,52,21,18,72,128,144,96,80,44,40,53,75,135,32,78,203,93,52,31,41,21,42,30,80,211,120,68,90,69,61,41,48,31,61,63,38,33,16,18,25,26,72,53,74,36,29,31,27,29,36,20,7,16,36,23,20,46,61,40,21,110,82,19,108,18,128,31,27,126,22,26,66,19,80,66,29,13,17,18,12,43,35,12,41,18,17,2,24,62,36,21,42,51,60,14,48,56,27,6,3,0,0,0,-8,-20,-76,-76,-44,-28,-20,-7,-4,0,2,8,9,8,15,20,12,25,30,33,21,42,40,96,415,240,214,309,57,383,323,197,77,315,242,179,43,44,43,43,54,30,18,23,37,21,25,7,10,5,29,17,30,54,63,28,22,5,76,90,1,69,50,52,12,20,6,18,27,6,18,41,40,42,14,34,34,12,17,22,24,42,31,40,36,58,32,60,94,124,168,24,179,204,46,40,25,32,29,42,28,23,25,24,78,71,31,4,81,58,81,26,13,10,5,6,3,5,3,2,0,-3,1,0,0,-1,1,-1,0,0,0,-3,-5,-4,-13,-27,-49,-64,-43,-46,-25,-58,-38,-18,-18,-18,-22,-37,-33,-39,-21,-10,-11,-10,-9,-61,-69,-99,-101,-113,-180,-2,-120,-164,-126,-143,-33,-26,-18,-19,-17,-25,-14,-5,-3,-2,-1,-7,-12,-17,-22,-15,-16,-19,-19,-1,1,4,8,13,11,13,25,28,54,77,22,35,25,18,15,16,22,61,13,119,171,15,98,30,21,20,49,33,9,43,57,61,18,14,12,17,17,15,27,76,77,43,27,24,36,29,31,30,15,42,50,53,99,80,80,124,86,28,5,53,16,83,62,19,23,12,21,31,46,73,16,60,10,56,46,87,92,69,44,74,50,21,28,33,37,40,84,61,160,47,38,42,61,72,38,27,22,40,58,125,150,42,77,42,21,41,52,18,37,56,32,35,29,12,90,102,136,110,28,95,84,14,168,39,26,34,49,28,48,146,116,114,66,55,115,43,59,61,27,62,38,43,83,100,68,116,23,163,152,160,32,30,75,189,237,81,76,94,19,30,91,189,9,49,42,171,143,149,62,43,105,83,111,161,90,152,134,278,82,59,58,28,106,107,73,48,62,57,45,42,34,26,37,75,41,108,181,101,79,117,157,56,54,59,57,58,61,66,46,49,65,216,144,186,120,64,53,36,140,102,81,83,59,65,37,45,49,44,37,43,32,12,11,69,46,89,39,48,61,115,265,59,55,52,88,70,103,89,94,218,18,185,14,268,5,342,257,209,130,163,76,289,15,18,82,304,373,127,86,483,214,364,15,379,152,31,41,57,67,166,57,217,239,253,32,233,287,210,14,46,25,16,13,36,35,16,29,21,39,28,40,45,74,50,54,175,305,215,37,191,48,27,27,44,43,36,20,11,12,15,17,11,16,19,24,25,16,25,48,41,35,48,79,474,114,77,390,44,300,223,70,75,77,71,136,125,155,224,70,237,156,81,42,37,33,275,98,68,61,76,99,54,21,40,46,63,42,64,135,140,104,6,223,198,110,44,156,113,70,46,43,29,13,16,33,42,11,40,28,17,23,33,43,30,24,47,136,64,50,53,36,33,32,23,20,25,31,89,141,31,53,78,54,24,62,78,72,59,86,64,77]
    }
  ]
}