{
  "code":11801,
  "name":"JR土讃線",
  "color":"#FF3399",
  "station_list":[
    {"code":1180101,"id":"fc4501","name":"多度津","name_kana":"たどつ","lat":34.271238,"lng":133.757235,"prefecture":37,"numbering":[{"symbol":"D","index":"12"}],"lines":[11801,11806],"attr":"cool","postal_code":"764-0011","address":"仲多度郡多度津町栄町３丁目","next":[1180102,9971901,1180612,1180614],"voronoi":{"lat":34.266622,"lng":133.775258,"delta_lat":[0,101521,6465,-127384],"delta_lng":[0,-69457,-33558,80902]}},
    {"code":1180102,"id":"988c8b","name":"金蔵寺","name_kana":"こんぞうじ","lat":34.248152,"lng":133.777486,"prefecture":37,"numbering":[{"symbol":"D","index":"13"}],"lines":[11801],"attr":"cool","postal_code":"765-0022","address":"善通寺市稲木町","next":[1180612,1180101,1180103,1180614,1180611,1180617],"voronoi":{"lat":34.217992,"lng":133.749733,"delta_lat":[0,29233,19398,0,-7045,-42078],"delta_lng":[0,3411,22113,19718,20006,-64935]}},
    {"code":1180103,"id":"a43ac1","name":"善通寺","name_kana":"ぜんつうじ","lat":34.230021,"lng":133.789235,"prefecture":37,"numbering":[{"symbol":"D","index":"14"}],"lines":[11801],"attr":"cool","postal_code":"765-0013","address":"善通寺市文京町１丁目","next":[1180618,9980220,9980221,1180102,9980218,1180611,9980219,1180617,1180104],"voronoi":{"lat":34.223829,"lng":133.819709,"delta_lat":[0,22998,11898,853,-42078,-21073,-15495,32190,8503],"delta_lng":[0,8093,1521,-14342,-64935,6540,9145,41969,10054]}},
    {"code":1180104,"id":"b59c69","name":"琴平","name_kana":"ことひら","lat":34.192106,"lng":133.8213,"prefecture":37,"numbering":[{"symbol":"D","index":"15"}],"lines":[11801],"attr":"cool","postal_code":"766-0004","address":"仲多度郡琴平町榎井","next":[9980220,9980221,1180103],"voronoi":{"lat":34.173575,"lng":133.830693,"delta_lat":[0,39547,8503],"delta_lng":[0,-22993,10054]}},
    {"code":1180105,"id":"b05022","name":"塩入","name_kana":"しおいり","lat":34.156089,"lng":133.849938,"prefecture":37,"numbering":[{"symbol":"D","index":"16"}],"lines":[11801],"attr":"eco","postal_code":"769-0314","address":"香川県仲多度郡まんのう町帆山","next":[1180323,9980217,9980219,1180109,9980218,1180107,9980220,1180321,9980216,1180322,9980222,9980221,1180324,1180106,9980214],"voronoi":{"lat":34.155582,"lng":133.944796,"delta_lat":[0,3141,13167,9299,3154,-1227,-12257,-8804,-51673,-12501,-173,406,33129,10659,1359],"delta_lng":[0,-3590,-21586,-21161,-18629,-25297,-22938,-9984,39748,13734,13895,2153,51301,12926,1305]}},
    {"code":1180106,"id":"bed5e4","name":"黒川(香川)","name_kana":"くろかわ","lat":34.133145,"lng":133.82011,"prefecture":37,"numbering":[{"symbol":"D","index":"17"}],"lines":[11801],"attr":"eco","postal_code":"769-0317","address":"香川県仲多度郡まんのう町新目","next":[9980221,1180107,1180618,1180105],"voronoi":{"lat":34.145032,"lng":133.75939,"delta_lat":[0,16196,826,-51673],"delta_lng":[0,7589,54632,39748]}},
    {"code":1180107,"id":"afeea3","name":"讃岐財田","name_kana":"さぬきさいだ","lat":34.117463,"lng":133.814781,"prefecture":37,"numbering":[{"symbol":"D","index":"18"}],"lines":[11801],"attr":"cool","postal_code":"769-0401","address":"三豊市財田町財田上","next":[1180106,1180105,1180618,1180620,1180108,1180109,1180111],"voronoi":{"lat":34.080091,"lng":133.738845,"delta_lat":[0,51042,13900,-34651,-12501,-6298,-14058],"delta_lng":[0,11588,8957,101969,13734,-14412,-98852]}},
    {"code":1180108,"id":"439514","name":"坪尻","name_kana":"つぼじり","lat":34.053932,"lng":133.823816,"prefecture":36,"numbering":[{"symbol":"D","index":"19"}],"lines":[11801],"attr":"cool","postal_code":"778-0040","address":"三好市池田町西山立谷","next":[1180109,1180107,1180111],"voronoi":{"lat":34.091583,"lng":133.86068,"delta_lat":[0,-14058,-46385],"delta_lng":[0,-98852,65509]}},
    {"code":1180109,"id":"46c6f2","name":"箸蔵","name_kana":"はしくら","lat":34.040318,"lng":133.848495,"prefecture":36,"numbering":[{"symbol":"D","index":"20"}],"lines":[11801],"attr":"cool","postal_code":"778-0020","address":"三好市池田町州津","next":[1180108,1180110,1180105,1180111,1180107,1180324],"voronoi":{"lat":34.057558,"lng":133.87126,"delta_lat":[0,-44670,18252,60443,6298,-173],"delta_lng":[0,-38331,-5591,33343,14412,13895]}},
    {"code":1180110,"id":"57faa8","name":"佃","name_kana":"つくだ","lat":34.032439,"lng":133.857677,"prefecture":36,"numbering":[{"symbol":"D","index":"21"}],"lines":[11801,11803],"attr":"cool","postal_code":"779-4806","address":"三好市井川町西井川","next":[1180109,1180324,1180111,1180112,1180113],"voronoi":{"lat":33.978851,"lng":133.837391,"delta_lat":[0,3467,30570,44670,-96819],"delta_lng":[0,-1262,-3200,38331,-19861]}},
    {"code":1180111,"id":"cad9cb","name":"阿波池田","name_kana":"あわいけだ","lat":34.026891,"lng":133.804669,"prefecture":36,"numbering":[{"symbol":"D","index":"22"}],"lines":[11801,11803],"attr":"cool","postal_code":"778-0003","address":"三好市池田町サラダ","next":[1180109,1180620,1180112,1180110,1180107,1180108],"voronoi":{"lat":34.012888,"lng":133.832929,"delta_lat":[0,-30570,90336,7437,-2566,-46385],"delta_lng":[0,3200,-104816,7532,22984,65509]}},
    {"code":1180112,"id":"234212","name":"三縄","name_kana":"みなわ","lat":34.006854,"lng":133.7874,"prefecture":36,"numbering":[{"symbol":"D","index":"23"}],"lines":[11801],"attr":"heat","postal_code":"779-5161","address":"三好市池田町中西","next":[1180114,1180620,1180111,1180113,1180110,1180622],"voronoi":{"lat":34.03167,"lng":133.70981,"delta_lat":[0,-36626,-16193,3467,90336,-399],"delta_lng":[0,48295,79285,-1262,-104816,-553]}},
    {"code":1180113,"id":"61652a","name":"祖谷口","name_kana":"いやぐち","lat":33.972692,"lng":133.780423,"prefecture":36,"numbering":[{"symbol":"D","index":"24"}],"lines":[11801],"attr":"heat","postal_code":"779-5303","address":"三好市山城町下川","next":[1180115,1180114,1180112,1180324,1180116,1180110],"voronoi":{"lat":33.978851,"lng":133.837391,"delta_lat":[0,16193,-49615,-30497,-5046,50853],"delta_lng":[0,-79285,17397,69484,37124,-30712]}},
    {"code":1180114,"id":"ea0c8d","name":"阿波川口","name_kana":"あわかわぐち","lat":33.963649,"lng":133.754634,"prefecture":36,"numbering":[{"symbol":"D","index":"25"}],"lines":[11801],"attr":"heat","postal_code":"779-5304","address":"三好市山城町大川持","next":[1180112,1180113,1180623,1180622,1180624,1180115],"voronoi":{"lat":33.932463,"lng":133.649086,"delta_lat":[0,23205,60856,15145,-36626,-49615],"delta_lng":[0,6665,37964,16096,48295,17397]}},
    {"code":1180115,"id":"c595f8","name":"小歩危","name_kana":"こぼけ","lat":33.923352,"lng":133.758767,"prefecture":36,"numbering":[{"symbol":"D","index":"26"}],"lines":[11801],"attr":"eco","postal_code":"779-5451","address":"三好市山城町西宇","next":[1180120,1180113,1180624,1180114,1180625,1180116],"voronoi":{"lat":33.945429,"lng":133.775503,"delta_lat":[0,-12965,-14198,-26824,-10530,34020],"delta_lng":[0,-126417,-7119,-6965,24235,185750]}},
    {"code":1180116,"id":"01504d","name":"大歩危","name_kana":"おおぼけ","lat":33.8765,"lng":133.767348,"prefecture":36,"numbering":[{"symbol":"D","index":"27"}],"lines":[11801],"attr":"eco","postal_code":"778-0105","address":"三好市西祖谷山村徳善","next":[1180118,1180117,1180119,1180324,1180113,1180120,1180115],"voronoi":{"lat":33.880911,"lng":133.659236,"delta_lat":[0,-27250,-13431,-2104,58833,12926,5046],"delta_lng":[0,37230,29946,21757,152464,-18523,-37124]}},
    {"code":1180117,"id":"a9cb90","name":"土佐岩原","name_kana":"とさいわはら","lat":33.822582,"lng":133.788154,"prefecture":39,"numbering":[{"symbol":"D","index":"28"}],"lines":[11801],"attr":"cool","postal_code":"789-0158","address":"長岡郡大豊町岩原","next":[1180118,1180324,9981615,1180321,1180116,1180320,9981614,1180323,1180319,1180322,9980102],"voronoi":{"lat":33.798522,"lng":134.029585,"delta_lat":[0,11551,40758,31132,6523,8474,-58833,-158131,66328,472,430],"delta_lng":[0,-10175,-47104,-41194,-10058,-20420,-152464,143036,178080,1110,214]}},
    {"code":1180118,"id":"a6372f","name":"豊永","name_kana":"とよなが","lat":33.796788,"lng":133.759638,"prefecture":39,"numbering":[{"symbol":"D","index":"29"}],"lines":[11801],"attr":"cool","postal_code":"789-0166","address":"長岡郡大豊町東土居","next":[1180117,1180116,9981611,1180125,1180123,9981612,9981614,1180119],"voronoi":{"lat":33.840231,"lng":133.726413,"delta_lat":[0,-2104,-158131,-176,-1368,-8525,11780,36854],"delta_lng":[0,21757,143036,-351,-3802,-36609,-27146,-55518]}},
    {"code":1180119,"id":"3b9ede","name":"大田口","name_kana":"おおたぐち","lat":33.785539,"lng":133.726552,"prefecture":39,"numbering":[{"symbol":"D","index":"30"}],"lines":[11801],"attr":"cool","postal_code":"789-0250","address":"長岡郡大豊町黒石","next":[1180123,1180116,1180120,1180122,1180118],"voronoi":{"lat":33.840231,"lng":133.726413,"delta_lat":[0,13431,-110998,-17554,-6549],"delta_lng":[0,-29946,23154,30862,17297]}},
    {"code":1180120,"id":"1397e8","name":"土佐穴内","name_kana":"とさあなない","lat":33.779192,"lng":133.696126,"prefecture":39,"numbering":[{"symbol":"D","index":"31"}],"lines":[11801],"attr":"cool","postal_code":"789-0307","address":"長岡郡大豊町穴内","next":[1180115,1180625,1180122,1180119,1180121,1180116],"voronoi":{"lat":33.742664,"lng":133.719621,"delta_lat":[0,3945,132016,12817,-10530,-27250],"delta_lng":[0,-25885,-75439,16705,24235,37230]}},
    {"code":1180121,"id":"a13232","name":"大杉","name_kana":"おおすぎ","lat":33.761091,"lng":133.66445,"prefecture":39,"numbering":[{"symbol":"D","index":"32"}],"lines":[11801],"attr":"cool","postal_code":"789-0315","address":"長岡郡大豊町中村大王","next":[1180136,1180626,1180132,1180625,1180133,1180122,1180120,1180628],"voronoi":{"lat":33.759488,"lng":133.462081,"delta_lat":[0,-18233,-43822,-6174,55349,132016,-34417,-56095],"delta_lng":[0,24785,76755,12897,117218,-75439,-61602,-70623]}},
    {"code":1180122,"id":"8391a6","name":"土佐北川","name_kana":"とさきたがわ","lat":33.714792,"lng":133.686312,"prefecture":39,"numbering":[{"symbol":"D","index":"33"}],"lines":[11801],"attr":"cool","postal_code":"789-0324","address":"長岡郡大豊町久寿軒","next":[1180124,1180123,1180132,1180120,1180121,1180119],"voronoi":{"lat":33.742664,"lng":133.719621,"delta_lat":[0,3945,-55349,-5482,7966,31366],"delta_lng":[0,-25885,-117218,6828,70743,96394]}},
    {"code":1180123,"id":"e7da30","name":"角茂谷","name_kana":"かくもだに","lat":33.695689,"lng":133.692528,"prefecture":39,"numbering":[{"symbol":"D","index":"34"}],"lines":[11801],"attr":"heat","postal_code":"789-0321","address":"長岡郡大豊町角茂谷","next":[1180122,1180119,1180118,1180124,1180125],"voronoi":{"lat":33.677348,"lng":133.761197,"delta_lat":[0,16395,31366,-6549,-36854],"delta_lng":[0,-107109,96394,17297,55518]}},
    {"code":1180124,"id":"dc4fae","name":"繁藤","name_kana":"しげとう","lat":33.680389,"lng":133.690186,"prefecture":39,"numbering":[{"symbol":"D","index":"35"}],"lines":[11801],"attr":"heat","postal_code":"789-0585","address":"香美市土佐山田町繁藤","next":[1180122,1180128,1180132,1180130,1180125,1180123,1180127],"voronoi":{"lat":33.652725,"lng":133.623368,"delta_lat":[0,2374,11501,19178,7966,-16395,-24788],"delta_lng":[0,-7526,-15271,-17225,70743,107109,-136865]}},
    {"code":1180125,"id":"718931","name":"新改","name_kana":"しんがい","lat":33.649596,"lng":133.695763,"prefecture":39,"numbering":[{"symbol":"D","index":"36"}],"lines":[11801],"attr":"heat","postal_code":"782-0063","address":"香美市土佐山田町東川","next":[9981611,1180127,1180126,9981607,1180124,1180118,9981610,9981608,1180123],"voronoi":{"lat":33.677348,"lng":133.761197,"delta_lat":[0,-24788,-19328,-22871,3045,24671,15812,16037,11780],"delta_lng":[0,-136865,47145,87600,8111,48402,18278,16575,-27146]}},
    {"code":1180126,"id":"35a239","name":"土佐山田","name_kana":"とさやまだ","lat":33.607085,"lng":133.684664,"prefecture":39,"numbering":[{"symbol":"D","index":"37"}],"lines":[11801],"attr":"heat","postal_code":"782-0037","address":"香美市土佐山田町宮前町","next":[1180125,9981607,9981604,1180127,9981603],"voronoi":{"lat":33.584814,"lng":133.688246,"delta_lat":[0,48418,-22871,-9209,-17143],"delta_lng":[0,-16769,87600,-11901,-56846]}},
    {"code":1180127,"id":"843254","name":"山田西町","name_kana":"やまだにしまち","lat":33.60453,"lng":133.677287,"prefecture":39,"numbering":[{"symbol":"D","index":"38"}],"lines":[11801],"attr":"eco","postal_code":"782-0032","address":"香美市土佐山田町西本町","next":[1180125,9981603,1180126,1180124,1180128],"voronoi":{"lat":33.652725,"lng":133.623368,"delta_lat":[0,-164,-19328,-48418,1699],"delta_lng":[0,965,47145,16769,-8625]}},
    {"code":1180128,"id":"87b3e2","name":"土佐長岡","name_kana":"とさながおか","lat":33.591728,"lng":133.662219,"prefecture":39,"numbering":[{"symbol":"D","index":"39"}],"lines":[11801],"attr":"eco","postal_code":"783-0029","address":"南国市西山","next":[9981707,9981603,1180129,1180130,1180124,9981602,1180127],"voronoi":{"lat":33.652725,"lng":133.623368,"delta_lat":[0,2374,-12435,-29776,-28317,-4950,6893],"delta_lng":[0,-7526,3735,13840,21116,7874,17215]}},
    {"code":1180129,"id":"2d7094","name":"後免","name_kana":"ごめん","lat":33.579245,"lng":133.645479,"prefecture":39,"numbering":[{"symbol":"D","index":"40"}],"lines":[11801,99816],"attr":"eco","postal_code":"783-0002","address":"南国市駅前町２丁目","next":[9981703,9981706,9981704,1180128,9981702,9981705,9981707,9981602],"voronoi":{"lat":33.612888,"lng":133.633416,"delta_lat":[0,-16809,-9718,-6304,-2676,45,1122,6023],"delta_lng":[0,2345,2806,2513,3196,3491,1991,4774]}},
    {"code":1180130,"id":"253821","name":"土佐大津","name_kana":"とさおおつ","lat":33.576661,"lng":133.612062,"prefecture":39,"numbering":[{"symbol":"D","index":"41"}],"lines":[11801],"attr":"eco","postal_code":"780-0000","address":"高知市大津字関","next":[1180132,9981708,1180128,9981710,9981714,9981709,9981713,9981711,1180124,1180131,9981712,9981707],"voronoi":{"lat":33.591948,"lng":133.619251,"delta_lat":[0,-8659,-4664,-2547,-750,10913,11147,36369,32843,-11501,-12435,-14673],"delta_lng":[0,-1542,-1754,-2676,-3254,-5970,-3880,-1788,2183,15271,3735,439]}},
    {"code":1180131,"id":"d86e9d","name":"布師田","name_kana":"ぬのしだ","lat":33.575595,"lng":133.590379,"prefecture":39,"numbering":[{"symbol":"D","index":"42"}],"lines":[11801],"attr":"eco","postal_code":"781-5101","address":"高知市布師田","next":[1180132,9981719,9981715,9981718,9981714,1180130,9981717],"voronoi":{"lat":33.569987,"lng":133.588221,"delta_lat":[0,270,539,62960,-36369,-19653,-5822],"delta_lng":[0,-4024,-2044,16234,1788,-2702,-3172]}},
    {"code":1180132,"id":"a6600c","name":"土佐一宮","name_kana":"とさいっく","lat":33.578974,"lng":133.577274,"prefecture":39,"numbering":[{"symbol":"D","index":"43"}],"lines":[11801],"attr":"eco","postal_code":"781-8130","address":"高知市一宮","next":[1180130,1180121,9981721,1180131,1180122,9981720,1180124,9981723,9981724,1180133,9981722,9981719],"voronoi":{"lat":33.633757,"lng":133.598387,"delta_lat":[0,32843,19178,5482,6174,-127533,-390,-265,-110,181,153,1327],"delta_lng":[0,2183,-17225,-6828,-12897,5414,1938,3177,3710,1577,467,2250]}},
    {"code":1180133,"id":"8163e9","name":"薊野","name_kana":"あぞうの","lat":33.578243,"lng":133.560056,"prefecture":39,"numbering":[{"symbol":"D","index":"44"}],"lines":[11801],"attr":"eco","postal_code":"781-0010","address":"高知市薊野","next":[9981901,9981727,1180136,9981726,1180121,9981730,9981729,1180134,1180132,9981724,1180135,9981728],"voronoi":{"lat":33.568351,"lng":133.564352,"delta_lat":[0,924,626,127533,43822,-69631,-79259,-22115,-768,-818,-489,-22],"delta_lng":[0,3730,952,-5414,-76755,22037,29088,15362,546,2511,2881,2698]}},
    {"code":1180134,"id":"0de670","name":"高知","name_kana":"こうち","lat":33.566758,"lng":133.543522,"prefecture":39,"numbering":[{"symbol":"D","index":"45"},{"symbol":"K","index":"00"}],"lines":[11801],"attr":"eco","postal_code":"780-0056","address":"高知市北本町２丁目","next":[9981802,9981901,1180133,9981902,1180135],"voronoi":{"lat":33.56577,"lng":133.536856,"delta_lat":[0,-36,-124,4641,22115],"delta_lng":[0,64,3836,12597,-15362]}},
    {"code":1180135,"id":"9f8bec","name":"入明","name_kana":"いりあけ","lat":33.567322,"lng":133.530298,"prefecture":39,"numbering":[{"symbol":"K","index":"01"}],"lines":[11801],"attr":"eco","postal_code":"780-0045","address":"高知市幸町","next":[9981807,9981808,9981804,9981802,9981805,1180136,9981806,1180133,1180134,9981803],"voronoi":{"lat":33.56577,"lng":133.536856,"delta_lat":[0,26596,79259,-108356,-187,-313,-221,230,995,1845],"delta_lng":[0,1135,-29088,17165,355,985,2254,2322,2225,2518]}},
    {"code":1180136,"id":"6f22da","name":"円行寺口","name_kana":"えんぎょうじぐち","lat":33.565816,"lng":133.520791,"prefecture":39,"numbering":[{"symbol":"K","index":"02"}],"lines":[11801],"attr":"eco","postal_code":"780-0000","address":"高知市西新屋敷","next":[1180121,1180138,9981811,1180133,9981812,1180137,9981808,9981810,1180135,1180628,9981809],"voronoi":{"lat":33.561457,"lng":133.521277,"delta_lat":[0,440,1921,330,20186,171762,3392,-18233,-69631,-108356,-1187],"delta_lng":[0,-3276,-3984,-411,-11528,-54417,14419,24785,22037,17165,-2290]}},
    {"code":1180137,"id":"0ad534","name":"旭(高知)","name_kana":"あさひ","lat":33.558808,"lng":133.50852,"prefecture":39,"numbering":[{"symbol":"K","index":"03"}],"lines":[11801],"attr":"eco","postal_code":"780-0938","address":"高知市旭駅前町","next":[9981814,1180136,9981812,9981813,9981815,1180138],"voronoi":{"lat":33.559319,"lng":133.504354,"delta_lat":[0,-2364,1283,5911,20186,-22378],"delta_lng":[0,3605,3243,2405,-11528,786]}},
    {"code":1180138,"id":"18bd5e","name":"高知商業前","name_kana":"こうちしょうぎょうまえ","lat":33.558419,"lng":133.497443,"prefecture":39,"numbering":[{"symbol":"K","index":"04"}],"lines":[11801],"attr":"eco","postal_code":"780-0946","address":"高知市上本宮町月の輪","next":[1180136,9981819,9981826,9981816,9981822,9981824,1180628,1180139,9981818,1180137,9981823,9981815],"voronoi":{"lat":33.558036,"lng":133.500653,"delta_lat":[0,-2346,2072,1853,7469,9586,25537,50859,102846,184,-171762,-22378],"delta_lng":[0,-6378,-3404,-2071,-4294,-3827,-7181,-11355,-15548,1066,54417,786]}},
    {"code":1180139,"id":"165562","name":"朝倉(JR)","name_kana":"あさくら","lat":33.551545,"lng":133.485487,"prefecture":39,"numbering":[{"symbol":"K","index":"05"}],"lines":[11801],"attr":"heat","postal_code":"780-8063","address":"高知県高知市朝倉丙133-2","next":[9981822,9981819,9981821,1180138,9981820],"voronoi":{"lat":33.551879,"lng":133.487056,"delta_lat":[0,-1944,17150,-7469,-2773],"delta_lng":[0,-3906,1356,4294,-196]}},
    {"code":1180140,"id":"71e1bb","name":"枝川","name_kana":"えだがわ","lat":33.55073,"lng":133.44849,"prefecture":39,"numbering":[{"symbol":"K","index":"06"}],"lines":[11801,99818],"attr":"heat","postal_code":"781-2120","address":"吾川郡いの町枝川字スミ澤","next":[9981821,9981829,9981834,9981827,9981825,9981826],"voronoi":{"lat":33.416727,"lng":133.467519,"delta_lat":[0,-16147,139757,28890,-40774,-2635],"delta_lng":[0,43,-20733,-1127,11062,494]}},
    {"code":1180141,"id":"a07767","name":"伊野(JR)","name_kana":"いの","lat":33.547507,"lng":133.430128,"prefecture":39,"numbering":[{"symbol":"K","index":"07"}],"lines":[11801],"attr":"heat","postal_code":"781-2100","address":"高知県吾川郡いの町1419-3","next":[9981833,9981832,9981834,1180153,9981830,9981831,1180142,9981821],"voronoi":{"lat":33.382047,"lng":133.46124,"delta_lat":[0,157186,8454,986,-12457,-35854,-119714,-4861],"delta_lng":[0,-37558,5348,2322,5770,8210,22699,290]}},
    {"code":1180142,"id":"2481b1","name":"波川","name_kana":"はかわ","lat":33.543699,"lng":133.414191,"prefecture":39,"numbering":[{"symbol":"K","index":"08"}],"lines":[11801],"attr":"heat","postal_code":"781-2128","address":"吾川郡いの町波川","next":[1180151,1180153,9981833,1180141,1180161],"voronoi":{"lat":33.389089,"lng":133.452447,"delta_lat":[0,-7043,157186,115082,-241424],"delta_lng":[0,8793,-37558,-39719,41996]}},
    {"code":1180161,"id":"255b0c","name":"小村神社前","name_kana":"おむらじんじゃまえ","lat":33.539989,"lng":133.392863,"prefecture":39,"numbering":[{"symbol":"K","index":"08-1"}],"lines":[11801],"attr":"heat","postal_code":"781-2151","address":"高岡郡日高村下分字椋ノ島","next":[1180143,1180150,1180151,1180632,1180144,9981833,1180142],"voronoi":{"lat":33.654314,"lng":133.383963,"delta_lat":[0,92679,-13533,-32891,-280813,-5526,-1340],"delta_lng":[0,-22464,-37451,7953,85961,6233,1764]}},
    {"code":1180143,"id":"e72f7b","name":"日下","name_kana":"くさか","lat":33.533436,"lng":133.371456,"prefecture":39,"numbering":[{"symbol":"K","index":"09"}],"lines":[11801],"attr":"heat","postal_code":"781-2153","address":"高岡郡日高村本郷字米神の前","next":[1180161,1180144,1180150],"voronoi":{"lat":33.451098,"lng":133.375343,"delta_lat":[0,249471,-280813],"delta_lng":[0,-43342,85961]}},
    {"code":1180144,"id":"e5ba3d","name":"岡花","name_kana":"おかばな","lat":33.529922,"lng":133.35123,"prefecture":39,"numbering":[{"symbol":"K","index":"10"}],"lines":[11801],"attr":"heat","postal_code":"781-2153","address":"高岡郡日高村本郷","next":[1180145,1180143,1180632,1180148,1180150,1180161],"voronoi":{"lat":33.733461,"lng":133.324047,"delta_lat":[0,-7434,-240213,-32509,-2206,249471],"delta_lng":[0,-30083,50939,26488,3951,-43342]}},
    {"code":1180145,"id":"4825b4","name":"土佐加茂","name_kana":"とさかも","lat":33.523558,"lng":133.321219,"prefecture":39,"numbering":[{"symbol":"K","index":"11"}],"lines":[11801],"attr":"heat","postal_code":"789-1204","address":"高岡郡佐川町加茂字保木屋敷","next":[1180632,1180148,1180144,1180146,1180634,1180147],"voronoi":{"lat":33.514012,"lng":133.305225,"delta_lat":[0,197143,10120,4751,-240213,19138],"delta_lng":[0,-62473,23049,28164,50939,-32244]}},
    {"code":1180146,"id":"e26324","name":"西佐川","name_kana":"にしさかわ","lat":33.512604,"lng":133.286652,"prefecture":39,"numbering":[{"symbol":"K","index":"12"}],"lines":[11801],"attr":"heat","postal_code":"789-1200","address":"高岡郡佐川町字垣添","next":[1180636,1180149,1180145,1180147,1180634,1180157,1180635,9980715,9980714,1180156,9980713],"voronoi":{"lat":33.619403,"lng":133.057618,"delta_lat":[0,32434,12864,10998,35457,-197143,-19835,1628,10528,5290,100846],"delta_lng":[0,23440,29141,27129,105424,62473,-40441,-237165,-32131,-11070,68353]}},
    {"code":1180147,"id":"3b2032","name":"佐川","name_kana":"さかわ","lat":33.500189,"lng":133.292741,"prefecture":39,"numbering":[{"symbol":"K","index":"13"}],"lines":[11801],"attr":"heat","postal_code":"789-1200","address":"高岡郡佐川町大字寺中","next":[1180149,1180146,1180148,1180145],"voronoi":{"lat":33.514012,"lng":133.305225,"delta_lat":[0,-19835,-5820,16594],"delta_lng":[0,-40441,22694,25182]}},
    {"code":1180148,"id":"452b1a","name":"襟野々","name_kana":"えりのの","lat":33.488527,"lng":133.300426,"prefecture":39,"numbering":[{"symbol":"K","index":"14"}],"lines":[11801],"attr":"heat","postal_code":"789-1231","address":"高岡郡佐川町大字永野","next":[1180145,1180149,1180144,1180150,1180147],"voronoi":{"lat":33.485814,"lng":133.344903,"delta_lat":[0,-32509,4613,30440,16594],"delta_lng":[0,26488,-55546,-28368,25182]}},
    {"code":1180149,"id":"5e5f3c","name":"斗賀野","name_kana":"とがの","lat":33.475453,"lng":133.286397,"prefecture":39,"numbering":[{"symbol":"K","index":"15"}],"lines":[11801],"attr":"heat","postal_code":"789-1232","address":"高岡郡佐川町大字東組","next":[1180152,1180156,1180146,1180147,1180148,1180155,1180150],"voronoi":{"lat":33.488357,"lng":133.287478,"delta_lat":[0,5820,1628,-32953,-23298,518,17845],"delta_lng":[0,-22694,-237165,80566,91961,27976,87724]}},
    {"code":1180150,"id":"396e12","name":"吾桑","name_kana":"あそう","lat":33.43027,"lng":133.295588,"prefecture":39,"numbering":[{"symbol":"K","index":"16"}],"lines":[11801],"attr":"heat","postal_code":"785-0047","address":"須崎市吾井郷甲","next":[1180152,1180161,1180148,1180151,1180144,1180149,1180143],"voronoi":{"lat":33.451098,"lng":133.375343,"delta_lat":[0,2206,4613,-17845,-19099,-6743,5526],"delta_lng":[0,-3951,-55546,-87724,56410,139663,-6233]}},
    {"code":1180151,"id":"a795bc","name":"多ノ郷","name_kana":"おおのごう","lat":33.410655,"lng":133.294641,"prefecture":39,"numbering":[{"symbol":"K","index":"17"}],"lines":[11801],"attr":"heat","postal_code":"785-0042","address":"須崎市妙見町","next":[1180142,1180161,1180153,1180150,1180152],"voronoi":{"lat":33.420973,"lng":133.284531,"delta_lat":[0,-6743,-1340,-23801,12473],"delta_lng":[0,139663,1764,26488,-157387]}},
    {"code":1180152,"id":"9a91a4","name":"大間","name_kana":"おおま","lat":33.406872,"lng":133.287666,"prefecture":39,"numbering":[{"symbol":"K","index":"18"}],"lines":[11801],"attr":"heat","postal_code":"785-0035","address":"須崎市大間東町１丁目","next":[1180155,1180149,1180150,1180153,1180154,1180151],"voronoi":{"lat":33.420973,"lng":133.284531,"delta_lat":[0,19099,-518,-12009,-30824,4841],"delta_lng":[0,-56410,-27976,16680,65824,12410]}},
    {"code":1180153,"id":"abd7a0","name":"須崎","name_kana":"すさき","lat":33.392649,"lng":133.293214,"prefecture":39,"numbering":[{"symbol":"K","index":"19"}],"lines":[11801],"attr":"heat","postal_code":"785-0001","address":"須崎市原町１丁目","next":[9981820,1180156,1180141,9981406,9981821,1180142,1180154,1180152,1180151,9981617,9981609,1180155,9981911],"voronoi":{"lat":32.963615,"lng":133.665887,"delta_lat":[0,-104,33516,214880,127276,57539,4841,-12473,-7043,-6260,-11367,-14149,-250692],"delta_lng":[0,8,-58912,-205045,-95436,-23853,12410,157387,8793,7081,9334,11472,142503]}},
    {"code":1180154,"id":"7a3247","name":"土佐新荘","name_kana":"とさしんじょう","lat":33.386369,"lng":133.278065,"prefecture":39,"numbering":[{"symbol":"K","index":"20"}],"lines":[11801],"attr":"heat","postal_code":"785-0009","address":"須崎市西町２丁目","next":[1180155,1180153,1180152],"voronoi":{"lat":33.427545,"lng":133.216825,"delta_lat":[0,-88363,57539],"delta_lng":[0,89677,-23853]}},
    {"code":1180155,"id":"bbce88","name":"安和","name_kana":"あわ","lat":33.36692,"lng":133.258901,"prefecture":39,"numbering":[{"symbol":"K","index":"21"}],"lines":[11801],"attr":"heat","postal_code":"785-0024","address":"須崎市安和","next":[1180152,1180154,1180156,1180149,1180153],"voronoi":{"lat":33.462852,"lng":133.108184,"delta_lat":[0,-23298,-12009,-88363,-127276],"delta_lng":[0,91961,16680,89677,95436]}},
    {"code":1180156,"id":"8d83b1","name":"土佐久礼","name_kana":"とさくれ","lat":33.328972,"lng":133.226483,"prefecture":39,"numbering":[{"symbol":"K","index":"22"}],"lines":[11801],"attr":"heat","postal_code":"789-1301","address":"高岡郡中土佐町大字久礼","next":[1180153,1180158,1180149,1180157,9981406,1180155,1180146,1180159],"voronoi":{"lat":33.163133,"lng":133.353041,"delta_lat":[0,78921,264280,-10528,-32953,-250946,-214880,44040],"delta_lng":[0,-92504,-265049,32131,80566,293754,205045,-97104]}},
    {"code":1180157,"id":"ff6e5b","name":"影野","name_kana":"かげの","lat":33.275854,"lng":133.173519,"prefecture":39,"numbering":[{"symbol":"K","index":"23"}],"lines":[11801],"attr":"heat","postal_code":"786-0032","address":"高岡郡四万十町影野宮の前甲","next":[1180146,1180805,1180156,1180806,9980713,1180158,1180159],"voronoi":{"lat":33.309847,"lng":133.044054,"delta_lat":[0,101749,98860,1167,-5290,-264280,57606],"delta_lng":[0,-41664,-19982,2010,11070,265049,-191038]}},
    {"code":1180158,"id":"29bf4d","name":"六反地","name_kana":"ろくたんじ","lat":33.261992,"lng":133.169339,"prefecture":39,"numbering":[{"symbol":"K","index":"24"}],"lines":[11801],"attr":"heat","postal_code":"786-0035","address":"高岡郡四万十町六反地","next":[1180156,1180159,1180157],"voronoi":{"lat":33.163133,"lng":133.353041,"delta_lat":[0,136527,-57606],"delta_lng":[0,-283542,191038]}},
    {"code":1180159,"id":"26cdc4","name":"仁井田(高知)","name_kana":"にいだ","lat":33.245097,"lng":133.161204,"prefecture":39,"numbering":[{"symbol":"K","index":"25"}],"lines":[11801],"attr":"heat","postal_code":"786-0021","address":"高岡郡四万十町仁井田","next":[9981406,1180805,1180160,9981403,1180158,1180156,1180157],"voronoi":{"lat":33.309847,"lng":133.044054,"delta_lat":[0,-4265,-173067,-89599,-1850,122066,136527],"delta_lng":[0,1156,234728,223830,6112,-156839,-283542]}},
    {"code":1180160,"id":"55d0a6","name":"窪川","name_kana":"くぼかわ","lat":33.212656,"lng":133.137285,"prefecture":39,"numbering":[{"symbol":"K","index":"26"}],"lines":[11801,11808,99814],"attr":"heat","postal_code":"786-0013","address":"高岡郡四万十町琴平町","next":[1180804,1180159,1180805,9981403,1180802],"voronoi":{"lat":33.132516,"lng":133.279937,"delta_lat":[0,173067,-383,-13509,-124326],"delta_lng":[0,-234728,42,4732,97508]}}
  ],
  "north":34.27184,
  "south":33.21233,
  "east":133.86707,
  "west":133.13731,
  "polyline_list":[
    {
      "start":"新改スイッチバック",
      "end":"新改",
      "lat":33.64857,
      "lng":133.69511,
      "delta_lat":[0,23,54,60],
      "delta_lng":[0,22,33,29]
    },
    {
      "start":"新改スイッチバック",
      "end":"多度津",
      "lat":33.64857,
      "lng":133.69511,
      "delta_lat":[0,13,36,53,31,39,28,34,35,27,38,29,30,39,49,27,32,45,24,13,9,14,7,0,-9,0,6,19,25,19,25,27,52,82,270,70,40,37,44,40,36,59,67,27,92,36,29,15,18,9,-1,-4,-4,-22,-25,-32,-29,-52,-30,-25,-16,-7,2,18,35,37,29,21,19,25,22,23,92,53,209,20,252,178,137,47,53,71,49,68,27,20,32,13,11,7,4,19,29,33,40,29,30,75,42,39,33,50,49,44,14,169,80,73,81,27,22,34,45,42,60,39,46,43,157,118,79,24,29,57,60,33,14,19,8,146,42,34,92,76,4,60,85,41,23,46,45,82,62,39,39,52,48,60,52,31,23,52,106,35,22,34,33,16,56,57,56,66,58,21,94,73,53,59,101,120,111,161,59,91,151,112,115,113,91,60,65,70,26,27,34,31,13,10,6,11,9,21,13,11,22,30,100,12,13,18,24,43,67,72,38,69,92,111,99,128,5,106,41,72,134,102,53,30,52,50,49,33,37,24,26,21,51,54,38,36,33,27,24,59,77,118,49,88,31,40,72,31,41,47,35,50,10,38,21,16,11,11,7,7,13,11,3,5,8,11,11,32,47,46,34,11,13,28,39,17,10,3,5,-3,-4,-8,-2,0,5,9,21,39,65,43,24,10,9,15,11,12,11,16,24,26,30,33,48,78,50,91,120,77,22,38,31,23,29,18,12,17,36,23,13,22,7,8,8,2,9,20,42,43,38,22,3,33,21,6,29,32,37,68,56,11,24,39,87,33,25,11,7,0,0,-3,-8,-13,-25,-37,-37,-16,-11,-9,-5,-3,2,4,9,7,13,13,21,51,43,46,36,31,23,12,8,3,0,0,-5,-2,-3,0,3,9,19,7,2,-2,-4,-11,-3,0,9,7,5,7,7,12,10,25,38,23,19,20,27,58,15,91,87,35,43,87,19,55,31,10,96,58,54,47,60,18,18,64,47,41,36,38,63,71,94,49,36,24,23,43,37,38,21,24,86,188,156,132,35,40,36,22,31,31,47,70,34,30,21,14,13,20,18,25,19,39,46,29,36,40,33,30,28,46,43,34,12,24,32,37,49,29,44,46,55,18,18,43,42,32,47,46,15,22,42,50,86,53,34,97,47,43,58,44,27,35,35,106,57,93,14,9,12,21,43,21,35,65,74,41,38,35,17,24,29,18,27,47,97,6,65,110,86,135,49,81,27,79,132,75,5,97,115,52,58,90,132,197,63,115,247,157,166,100,25,121,107,36,56,53,45,45,97,13,5,36,15,12,24,34,65,47,40,35,54,14,45,64,33,30,25,30,30,36,65,129,75,50,121,70,76,96,18,23,20,82,47,29,57,91,54,43,37,115,30,26,50,62,47,65,45,40,58,38,28,37,74,82,50,54,37,26,25,61,46,55,63,21,37,61,20,27,44,59,65,94,11,18,29,79,13,74,47,24,47,24,55,38,29,44,38,41,36,31,101,20,18,46,62,15,32,20,31,18,28,37,37,70,35,32,52,38,76,65,34,56,36,32,30,34,31,38,182,49,20,18,29,37,82,23,23,15,28,29,33,49,68,65,22,21,44,24,23,26,30,29,72,29,69,206,52,34,79,5,110,146,199,147,193,105,83,215,161,127,142,172,7,56,42,37,81,146,65,116,66,28,43,19,46,61,78,52,51,18,25,34,15,24,8,8,7,2,4,3,9,9,1,-2,-26,-9,-16,-17,-5,-3,3,14,18,17,35,26,40,38,51,61,29,9,38,27,71,108,52,29,28,32,23,35,43,17,17,43,82,63,49,13,69,38,33,46,111,59,78,45,38,45,38,51,197,81,47,44,52,41,29,31,23,18,20,4,25,73,12,8,10,24,31,39,30,41,43,31,46,48,36,38,24,18,14,16,29,37,29,34,20,49,121,47,125,30,121,58,188,148,51,13,18,36,41,40,29,97,78,27,19,21,29,38,25,75,23,34,18,158,66,49,87,33,27,41,31,50,29,105,159,94,18,31,31,18,69,23,9,3,0,-3,-5,-6,-47,-21,-10,-25,-60,-58,-82,-33,-12,-21,-5,-9,-11,-9,-7,0,4,14,11,2,0,-6,-9,-21,-24,-11,-5,-2,5,4,45,8,53,32,6,12,6,9,15,134,18,18,16,4,49,113,11,85,48,16,11,7,19,9,6,29,27,9,11,15,5,0,-6,-10,-8,-4,-3,0,-3,30,14,20,19,28,27,109,316,195,35,34,29,29,34,24,32,40,34,27,22,22,25,11,7,4,-1,-3,-14,-11,-10,-49,-13,-7,-4,-3,0,-2,-6,-5,-6,-12,-18,-4,-6,-12,-20,-18,-21,-104,-56,-30,-19,-18,-25,-3,0,5,7,15,18,16,15,26,27,91,23,11,18,9,4,3,-6,-11,-8,-3,1,13,32,14,29,41,30,28,32,34,13,29,55,25,45,67,50,35,23,28,30,27,27,27,20,43,42,63,37,48,31,36,28,52,24,27,65,12,9,44,41,23,36,41,10,29,15,7,11,14,19,19,20,56,155,118,154,158,31,33,13,37,174,100,92,126,131,127,51,71,135,280,13,146,207,158,130,129,69,173,156,117,84,15,98,35,21,140,141,27,62,158,27,31,43,74,36,30,12,72,45,27,29,37,36,68,37,23,31,30,27,60,49,47,44,46,31,19,28,27,18,34,21,14,26,35,33,41,35,36,34,78,56,56,45,53,41,33,23,49,47,17,11,23,18,22,23,25,37,38,47,18,21,27,11,29,64,34,22,48,15,72,60,54,41,33,35,36,37,63,55,45,35,39,46,39,38,85,94,54,66,48,46,54,50,42,34,43,34,19,13,49,3,16,18,17,84,152,164,44,102,57,26,62,87,56,160,50,26,34,10,89,42,25,49,220,72,14,127,61,56,43,30,28,36,72,50,37,107,226,101,59,67,73,93,45,30,27,61,43,72,2,13,13,16,18,47,16,42,41,28,13,23,11,7,24,33,51,48,27,32,50,20,49,24,40,17,22,20,18,14,15,22,11,19,78,81,48,61,32,28,49,39,29,34,19,18,22,16,27,5,9,11,18,8,26,7,10,20,14,29,14,17,16,24,28,28,21,18,26,25,72,88,78,46,77,110,97,32,48,6,6,11,25,21,48,28,22,22,14,13,10,13,19,25,5,7,0,13,22,21,26,23,6,19,19,59,89,116,100,87,92,107,71,25,56,79,42,42,39,54,77,75,75,67,77,51,40,17,38,62,52,78,67,82,55,67,40,83,114,0,51,41,64,38,28,49,105,112,94,106,106,77,102,43,9,70,85,94,76,96,95,109,87,91,9,84,39,60,123,75,46,80,91,93,87,73,32,49,81,26,43,83,80,81,45,78,42,38,62,33,5,23,36,77,25,77,59,68,24,70,29,23,24,47,106,64,51,56,61,117,195,203,118],
      "delta_lng":[0,21,62,85,46,43,25,23,15,6,0,-5,-4,0,13,19,32,38,30,24,23,57,45,69,102,74,33,53,55,37,28,21,25,28,93,22,6,-4,-10,-22,-25,-53,-69,-33,-111,-45,-46,-28,-53,-44,-46,-42,-32,-80,-81,-68,-52,-89,-56,-64,-51,-41,-42,-123,-134,-112,-64,-30,-24,-29,-22,-18,-43,-20,-75,-9,-94,-66,-50,-11,-6,2,11,32,19,18,42,21,24,30,35,98,117,69,83,53,46,87,40,23,11,2,-4,-10,-6,-60,-30,-26,-22,-3,3,6,16,21,30,12,8,-4,-41,-31,-16,-4,-2,0,5,0,-2,-7,-5,-100,-37,-25,-47,-37,-2,-42,-68,-36,-19,-23,-17,-25,-14,-3,3,14,18,27,27,3,0,-6,-22,-13,-11,-17,-18,-11,-32,-42,-44,-53,-45,-17,-73,-47,-27,-24,-31,-32,-26,-33,-12,-19,-34,-22,-24,-23,-27,-26,-36,-57,-30,-34,-55,-61,-27,-24,-18,-45,-51,-125,-94,-55,-53,-56,-165,-25,-22,-19,-14,-22,-14,-1,0,12,28,28,30,37,1,29,12,21,49,31,9,0,-6,-15,-15,-20,-29,-30,-47,-31,-79,-81,-61,-46,-39,-28,-18,-28,-33,-61,-23,-38,-10,-12,-15,-1,5,10,11,26,4,20,19,21,23,34,26,60,137,116,46,35,29,28,21,37,55,54,44,23,40,99,128,63,53,39,57,72,110,99,60,26,29,29,47,79,128,83,53,33,38,94,56,38,28,29,33,27,25,17,15,19,13,33,46,32,9,22,22,22,36,29,21,33,93,57,38,79,36,43,47,14,58,125,247,273,232,134,18,194,124,33,92,91,109,187,157,29,44,61,123,51,58,36,38,34,35,42,48,40,59,67,62,29,27,39,33,45,35,32,37,19,34,20,21,34,32,38,34,34,39,32,36,32,72,74,77,16,87,34,32,44,72,33,27,51,37,52,30,22,97,77,45,46,26,27,23,52,86,48,24,26,28,89,24,185,176,77,115,152,41,129,70,16,117,91,96,92,121,21,21,49,35,35,38,45,77,69,93,42,27,14,9,8,9,16,10,11,48,100,84,70,18,21,16,16,22,26,43,42,26,30,29,24,42,51,32,28,23,56,79,37,49,60,60,65,71,127,134,112,28,54,59,54,53,27,36,32,21,1,4,13,17,19,31,38,10,7,7,6,8,10,11,33,18,8,-2,-6,-8,-18,-24,-83,-41,-73,-12,-9,-9,-19,-37,-17,-9,-27,-35,-17,-12,-6,0,6,8,11,18,36,83,6,47,71,53,78,13,13,0,-15,-34,-26,-2,-45,-61,-25,-30,-62,-91,-138,-45,-81,-173,-108,-116,-68,-17,-90,-107,-40,-81,-81,-85,-90,-222,-36,-16,-116,-55,-30,-33,-36,-65,-52,-55,-58,-101,-30,-93,-129,-65,-45,-29,-20,-17,-14,-11,-19,-9,-3,6,2,3,1,-5,-8,-15,-79,-44,-27,-45,-67,-35,-24,-12,-25,-8,-8,-13,-16,-10,-10,-7,-5,-11,-9,-13,-23,-55,-53,-26,-23,-4,-3,1,7,9,13,22,7,15,27,12,15,29,41,42,59,7,2,0,0,0,-1,0,0,0,-5,-18,-19,-12,-10,-8,-11,-12,-9,-36,-1,1,6,12,4,16,17,28,15,23,34,29,28,16,13,13,5,1,14,10,30,26,18,13,8,2,-3,-34,-12,-13,-18,-24,-31,-72,-15,-13,-10,-15,-23,-25,-41,-58,-54,-17,-17,-23,-6,-3,0,6,9,28,10,13,23,-1,-1,-7,0,-9,-9,-10,-10,-12,-6,-6,-12,-11,-8,-9,-14,-1,-8,-2,1,13,29,17,25,15,9,24,13,48,62,83,64,78,31,59,103,62,107,37,69,82,46,65,27,113,68,24,21,118,43,80,134,66,151,99,85,88,73,93,57,69,50,54,63,33,11,51,35,77,106,42,18,8,7,4,4,0,-1,-3,-6,-14,-7,-2,-1,2,4,10,14,51,29,43,27,19,18,15,15,55,23,21,20,30,34,26,30,31,31,51,9,47,141,16,8,6,14,11,11,9,9,5,-5,-18,-29,-28,-32,-24,-22,-26,-31,-51,-53,-30,-24,-13,-20,-54,-19,-64,-17,-60,-30,-94,-76,-23,-4,-6,-7,-5,7,8,48,39,8,2,-4,-5,-13,-9,-37,-11,-9,-4,-14,-6,-5,-4,0,5,17,17,38,25,153,214,120,26,89,123,95,358,121,55,45,33,40,36,22,105,44,21,40,82,86,121,48,20,31,9,16,28,36,42,48,40,79,57,23,32,27,36,55,71,50,50,50,75,33,190,32,225,129,39,115,40,26,31,262,42,44,49,19,212,482,45,360,200,84,60,54,173,101,69,276,219,50,52,52,22,42,66,61,40,20,124,135,173,108,32,44,28,31,24,66,195,122,21,12,8,8,1,-2,-11,-19,-24,-26,-27,-37,-48,-31,-46,-48,-24,-39,-75,-37,-32,-110,-40,-32,-38,-54,-102,-74,-76,-49,-58,-85,-78,-18,-26,-60,-60,-37,-36,-216,-112,-65,-54,-50,-89,-44,-134,-77,-65,-71,-88,-53,-30,-46,-27,-96,-34,-28,-65,-43,-34,-54,-112,-37,-57,-45,-57,-60,-84,-31,-51,-54,-34,-17,-12,-15,-3,-2,-1,-3,-11,-27,-33,-33,-22,-38,-45,-47,-27,-23,-13,-14,-7,-2,5,0,-9,-19,-18,-40,-23,-33,-64,-9,-5,-9,-13,-12,-32,-36,-9,-62,-28,-24,-15,-20,-25,-19,-10,-27,-67,-52,-65,-65,-17,-12,-5,-13,-79,-42,-40,-54,-57,-55,-22,-32,-58,-120,-7,-63,-91,-67,-53,-53,-27,-80,-70,-55,-41,-5,-45,-13,-6,-34,-33,-5,-9,-21,-5,-14,-26,-48,-15,-8,-3,-6,3,6,8,16,23,51,19,7,8,1,-3,-16,-3,3,8,18,20,16,33,46,41,131,60,38,52,50,36,40,22,24,13,26,26,35,33,40,39,39,39,104,147,47,48,120,81,71,51,30,39,27,18,5,0,-1,-2,-8,-21,-13,-12,-36,-11,-49,-33,-21,-5,5,13,21,28,61,47,31,15,8,1,-3,-7,-23,-30,-15,-18,-8,-5,1,9,18,22,41,45,45,49,311,15,84,60,39,147,241,257,67,152,85,31,68,93,55,144,49,30,43,12,125,52,29,44,180,67,19,224,108,101,90,47,36,38,65,40,27,78,166,74,40,38,37,38,17,8,7,9,2,-7,0,-1,-2,-5,-6,-28,-12,-36,-39,-38,-20,-49,-28,-19,-76,-106,-170,-152,-89,-105,-166,-67,-162,-76,-130,-60,-71,-53,-34,-26,-23,-25,-12,-20,-79,-80,-48,-59,-32,-21,-33,-28,-16,-22,-13,-15,-24,-20,-48,-13,-29,-40,-87,-38,-119,-34,-53,-99,-76,-139,-62,-54,-34,-41,-48,-43,-33,-21,-24,-23,-54,-67,-60,-35,-58,-79,-69,-23,-35,-4,-4,-8,-17,-15,-34,-23,-21,-26,-22,-28,-22,-40,-67,-102,-28,-26,-2,-51,-90,-63,-59,-44,-9,-27,-19,-37,-56,-73,-64,-54,-60,-68,-44,-16,-36,-50,-27,-25,-26,-42,-61,-58,-61,-52,-61,-39,-31,-13,-29,-49,-40,-62,-56,-66,-45,-55,-31,-68,-91,-1,-40,-35,-50,-29,-22,-36,-66,-64,-56,-60,-60,-44,-59,-21,-7,-39,-48,-55,-41,-58,-64,-74,-61,-62,-7,-56,-26,-44,-83,-52,-31,-55,-62,-63,-61,-50,-24,-33,-56,-18,-28,-58,-52,-58,-31,-75,-42,-44,-95,-60,-8,-46,-93,-201,-68,-231,-175,-199,-70,-200,-59,-29,-26,-37,-78,-44,-20,-13,-3,14,116,114,66]
    },
    {
      "start":"窪川",
      "end":"新改スイッチバック",
      "lat":33.21233,
      "lng":133.13731,
      "delta_lat":[0,69,83,63,67,29,93,88,72,74,43,32,68,83,52,71,71,63,22,21,36,40,41,80,79,42,2,51,32,38,46,37,38,29,35,30,58,20,2,42,50,26,1,18,2,53,48,16,48,39,84,39,26,23,36,15,14,11,19,22,26,34,33,66,8,56,113,105,96,81,47,50,63,54,34,90,42,73,55,93,61,27,29,65,74,99,57,5,69,83,22,26,35,34,22,29,27,38,20,25,18,18,17,22,45,34,71,28,74,13,64,26,42,44,21,22,33,18,75,75,80,22,15,15,14,13,25,47,23,20,9,18,22,22,32,35,56,57,39,24,26,18,31,18,29,21,20,16,15,3,21,12,47,46,72,20,25,24,23,25,18,18,11,7,6,5,6,3,5,6,2,2,1,2,4,3,3,3,0,1,2,4,6,5,2,9,3,2,5,6,3,3,1,4,1,1,4,0,6,6,9,9,9,14,15,16,19,20,18,21,17,17,18,16,14,12,18,22,21,24,47,36,24,19,22,18,33,33,25,14,12,14,16,5,34,22,23,18,15,13,11,9,9,4,5,3,4,6,1,-1,1,4,5,4,4,11,10,11,7,9,11,12,34,13,14,18,37,28,43,52,53,75,48,56,40,36,30,25,23,27,20,21,27,29,45,40,33,53,24,23,24,49,22,16,9,20,20,19,22,27,26,9,12,17,20,12,20,37,91,62,48,38,53,63,81,95,34,20,12,12,14,12,9,33,14,33,8,35,42,51,50,49,23,18,17,27,20,15,8,16,11,17,14,22,29,22,20,14,20,11,11,17,17,28,35,36,73,33,40,47,22,25,22,27,7,19,14,18,14,11,9,7,6,4,12,28,2,6,8,20,22,8,9,9,19,12,14,14,16,18,14,15,19,18,17,20,18,23,23,41,23,24,23,27,34,4,18,29,16,18,20,20,67,36,25,109,61,7,4,11,15,8,46,54,16,16,13,11,30,10,14,25,19,7,11,14,29,18,42,66,83,20,18,37,29,36,29,10,12,12,23,31,18,13,9,20,31,93,95,141,32,28,17,11,18,11,35,34,36,9,13,10,10,14,9,7,4,1,6,6,3,15,19,8,16,4,8,9,14,25,16,16,29,13,11,21,24,38,23,14,24,20,18,24,10,13,11,24,3,13,16,18,24,20,28,19,15,33,31,24,18,12,20,6,17,13,13,14,11,18,11,17,14,16,18,11,16,16,18,30,12,20,27,20,34,26,20,18,11,10,10,12,16,13,16,11,18,8,9,15,11,6,9,22,23,26,20,28,25,26,22,45,30,51,23,18,15,11,32,80,44,6,12,5,7,54,8,5,7,6,2,3,15,14,2,4,3,9,8,3,5,9,11,8,9,10,5,3,14,7,13,41,13,56,103,67,12,6,9,8,9,33,19,13,6,6,7,8,41,9,22,16,8,12,20,58,16,5,9,11,13,13,17,10,10,15,121,240,22,37,200,227,191,49,12,36,9,11,6,16,10,12,12,7,9,6,7,7,9,6,1,1,0,-1,-1,-9,-2,-1,1,1,1,2,3,3,4,18,57,57,8,5,2,1,1,0,0,-2,-9,-13,-2,0,2,5,7,13,7,15,15,17,12,17,24,19,13,13,17,14,22,36,75,13,11,13,14,15,12,13,16,4,79,38,136,61,125,115,9,20,31,31,15,17,13,13,16,38,25,22,13,49,17,22,16,13,24,11,18,19,57,18,21,10,19,24,19,19,27,33,17,16,15,18,14,33,11,11,7,26,12,59,69,33,20,19,18,17,15,12,13,11,12,11,13,9,5,6,5,5,8,27,5,11,9,8,5,5,7,12,3,5,5,8,18,18,9,2,23,16,20,23,30,49,34,34,46,40,54,19,31,35,21,20,15,13,14,19,15,26,35,116,25,12,14,18,50,58,90,32,34,9,43,40,26,26,49,105,101,83,51,33,30,26,17,28,72,40,34,26,26,45,64,21,80,64,12,46,56,41,29,56,56,43,40,21,32,29,30,44,59,38,26,59,33,36,25,21,24,38,56,38,44,28,54,122,20,17,15,90,114,154,99,134,121,127,11,74,126,139,133,145,158,119,147,70,114,91,79,79,51,36,34,45,35,16,13,45,138,66,98,116,93,109,128,125,67,47,11,39,35,42,37,21,32,25,27,18,21,28,25,24,29,27,29,27,27,33,69,64,66,44,61,84,152,38,112,80,48,27,33,26,18,21,22,20,31,17,30,41,32,20,12,7,5,1,0,1,-1,5,1,5,6,9,25,2,17,18,16,22,20,28,31,38,36,38,51,74,29,30,275,132,47,76,86,75,105,112,89,36,32,103,56,29,13,19,18,20,16,12,7,5,5,2,2,0,2,2,9,25,11,17,1,4,0,9,5,6,10,28,1,13,18,9,12,10,7,53,41,11,7,9,9,2,2,-2,-2,-4,0,3,14,16,9,6,19,18,35,38,27,40,43,18,9,14,20,9,33,16,73,112,96,18,7,5,2,-6,-6,-5,-17,-13,0,3,4,27,46,8,26,16,50,41,32,7,6,5,8,9,133,15,5,7,0,7,3,5,-1,-3,-4,-8,-17,-12,-8,-5,-4,-3,0,2,8,4,47,25,13,60,14,58,63,69,25,0,16,4,9,11,18,16,28,34,33,39,8,10,14,15,18,16,22,31,15,4,4,13,18,32,56,13,35,63,16,4,13,6,3,5,4,5,14,20,29,7,0,0,-2,1,-2,-2,0,-2,0,6,12,29,22,156,6,15,21,20,17,50,20,19,30,40,58,57,10,77,11,13,5,7,-3,-6,-1,5,6,-2,-10,-24,-17,-9,0,6,1,0,2,9,4,5,12,14,10,31,40,14,5,6,3,0,3,8,6,6,12,4,30,8,36,8,11,11,2,-1,-8,-12,-10,-19,-25,-28,-11,-23,-16,-6,-4,-1,3,4,7,20,25,27,21,48,28,21,94,36,7,25,13,6,12,24,12,33,36,58,27,23,17,14,20,10,14,3,0,-5,-2,-14,-15,-41,-17,-11,-9,-5,0,0,3,6,16,55,56,47,52,15,23,32,27,35,52,66,58,38,26,29,17,19,18,20,13,36,2,21,31,31,18,37,23,25,22,19,2,6,2,11,3,2,0,0,-6,-3,-5,-9,-8,-3,-4,-1,-10,-5,-2,-7,0,2,2,9,7,12,15,13,14,18,22,39,37,56,75,55,34,44,21,7,55,43,42,68,32,44,44,32,27,22,18,16,79,79,61,22,17,21,18,8,6,35,12,13,40,32,30,15,7,4,0,0,-6,-7,-10,-17,-13,-37,-64,-12,-64,-54,-27,-29,-16,-14,-21,-32,-41,-22,-22,-1,-28,-16,-2,-27,-6,-8,-1,-3,0,0,9,12,6,5,7,1,10,4,11,23,18,22,20,29,16,18,15,20,25,17,19,18,7,4,4,-1,-1,0,1,-5,-7,0,-6,-3,0,6,8,62,2,50,10,38,30,27,82,67,208,195,70,264,216,47,270,287,96,56,103,221,202,49,41,29,20,36,87,40,118,34,25,25,29,53,83,45,65,2,31,108,31,16,92,39,128,103,88,29,29,34,122,68,51,42,39,38,61,33,22,32,51,24,23,32,49,35,26,24,24,22,21,18,38,26,28,31,49,25,81,49,32,26,43,31,42,108,28,36,29,19,13,16,13,7,7,10,9,9,3,-5,-12,-6,-2,3,11,18,27,20,35,32,27,62,112,54,48,24,20,31,16,29,29,25,14,19,25,80,46,58,42,36,40,43,24,30,19,12,31,18,18,98],
      "delta_lng":[0,3,4,8,12,13,52,55,41,48,26,20,45,66,43,68,72,58,10,10,11,6,0,0,3,0,0,6,9,12,22,26,36,32,43,48,91,30,5,68,75,35,2,25,2,65,49,12,30,18,31,21,19,23,45,17,38,33,48,51,41,47,33,70,8,56,94,89,83,62,29,26,28,20,11,22,5,-2,-1,-1,0,2,7,24,39,52,38,5,44,53,15,22,32,33,20,32,29,42,20,24,14,14,13,15,24,19,38,15,39,7,34,13,20,23,9,8,9,3,10,10,16,4,3,3,3,3,4,9,4,3,0,-2,-2,-4,-8,-6,-17,-17,-9,-5,-4,0,2,4,4,6,9,11,15,2,22,15,56,55,89,26,28,38,34,43,33,37,25,12,29,40,49,32,74,119,41,32,48,31,71,54,68,35,39,12,24,90,106,115,57,124,77,77,53,115,72,55,42,66,33,30,51,26,34,29,32,29,17,23,20,21,22,18,18,15,9,7,7,4,2,0,-2,-2,-5,-5,-19,-14,-6,-1,-2,1,4,4,5,5,1,5,8,5,24,21,21,20,21,19,24,20,23,21,20,35,43,79,73,80,53,87,57,38,28,55,33,33,29,32,30,29,59,21,19,26,42,29,42,39,37,61,33,43,28,31,18,18,16,20,18,23,31,33,53,38,32,41,18,16,16,30,9,12,5,17,23,24,29,46,40,11,16,25,24,15,17,21,42,31,22,19,23,30,37,44,17,10,11,11,22,18,25,89,46,117,25,91,122,135,130,133,57,54,49,72,58,39,20,29,16,18,13,18,21,15,8,4,2,3,-3,-2,-7,-17,-19,-20,-43,-18,-25,-25,-12,-15,-16,-16,-6,-14,-13,-19,-17,-15,-16,-18,-14,-18,-71,-158,-10,-38,-47,-101,-125,-44,-51,-50,-65,-34,-29,-22,-21,-17,-14,-13,-13,-13,-12,-10,-9,-9,-5,-10,-4,-4,-3,-1,-2,0,2,1,3,4,5,5,18,12,7,31,19,3,0,5,4,4,16,13,5,0,-2,0,-4,-2,-4,-8,-9,-3,-6,-8,-13,-8,-19,-32,-39,-9,-8,-17,-14,-17,-14,-4,-5,-5,-11,-13,-7,-4,-1,0,2,8,12,19,4,8,6,5,9,8,30,28,38,15,16,18,22,34,29,31,16,7,42,37,28,94,124,59,104,15,18,18,22,29,22,13,19,7,2,3,-2,-2,-1,3,3,4,6,10,8,13,11,23,2,9,8,9,10,9,7,1,0,-3,-2,-1,1,0,4,1,3,3,4,6,7,13,10,17,14,15,14,11,11,7,11,15,6,7,6,4,11,10,8,10,8,8,10,11,18,15,12,14,24,12,18,27,20,14,17,40,43,46,37,55,45,49,40,88,55,96,43,32,31,20,74,197,125,18,27,9,14,85,14,11,14,13,11,16,96,134,18,21,18,40,32,12,11,17,21,11,14,13,6,3,16,8,12,41,12,52,96,43,10,5,8,7,12,36,32,25,14,22,32,52,221,30,64,49,20,29,50,144,34,10,14,15,15,18,20,8,8,11,52,109,8,17,91,102,86,22,7,19,7,8,4,17,9,18,18,15,19,11,18,23,35,25,13,21,25,15,15,69,28,17,15,12,9,13,13,12,12,49,161,153,23,17,13,13,22,14,26,37,132,200,42,15,22,26,30,37,18,26,20,22,14,13,21,16,7,6,6,3,5,3,3,-2,0,-3,-3,-4,-4,-6,-7,-3,-51,-26,-86,-40,-81,-74,-6,-20,-34,-31,-13,-10,-8,-5,-6,-8,-4,-2,0,0,-2,-1,-4,-4,-10,-5,-13,-17,-37,-11,-11,-4,-9,-8,-3,-3,-3,2,1,2,3,5,3,12,4,6,4,14,8,34,41,18,11,14,14,16,11,15,16,16,20,18,25,18,15,16,19,21,50,212,46,79,76,51,35,28,24,40,9,13,14,20,42,34,15,7,35,24,22,29,28,39,23,22,20,14,12,1,3,-1,-2,-1,0,-3,-2,-5,-3,-7,-11,-40,-4,-2,0,1,5,12,17,6,4,1,-2,-6,-7,-12,-24,-54,-53,-44,-26,-24,-29,-31,-30,-56,-143,-82,-68,-47,-34,-42,-50,-17,-57,-31,-5,-13,-11,-4,0,6,5,2,-3,-4,-13,-14,-21,-43,-64,-37,-17,-19,-9,-13,-8,-12,-18,-28,-31,-22,-23,-11,-14,-19,-5,-1,-3,-14,-18,-26,-14,-22,-18,-21,-2,-13,-19,-22,-22,-22,-26,-19,-23,-11,-18,-13,-13,-12,-4,4,7,16,20,10,6,38,110,54,76,95,74,86,102,99,54,41,9,42,46,64,75,49,90,71,72,41,47,52,35,29,25,21,15,15,11,9,13,6,-1,-4,-11,-18,-32,-8,-25,-16,-11,-6,-9,-8,-9,-13,-15,-16,-32,-22,-47,-70,-51,-40,-36,-33,-31,-21,-124,-90,-62,-228,-68,-44,-32,-24,-46,-5,-22,-22,-18,-16,-12,-13,-11,-8,-5,-3,-4,-3,-2,-2,-15,-7,4,14,20,21,30,29,26,9,9,42,25,20,12,19,23,34,36,36,31,36,36,85,263,59,21,16,28,72,32,42,13,13,27,129,44,21,26,52,2,25,41,26,29,36,50,249,217,57,48,67,75,69,36,35,41,63,62,37,147,162,86,39,100,76,128,116,75,103,99,61,32,59,98,35,99,34,171,258,211,62,30,42,39,84,118,106,253,200,32,69,28,146,222,37,117,78,233,195,154,34,28,16,25,19,257,28,14,22,2,31,18,36,83,20,31,34,44,39,38,38,31,40,31,68,74,20,209,107,57,219,38,167,185,209,76,5,62,27,50,56,47,35,39,44,50,61,16,32,72,179,160,71,76,101,48,13,12,56,54,90,125,31,110,181,72,9,85,71,74,176,65,66,98,119,188,75,71,9,139,85,69,73,32,33,104,56,46,86,49,394,15,41,61,76,93,274,99,98,170,211,329,321,50,423,55,70,54,81,92,90,53,115,83,68,61,101,78,51,76,154,76,99,67,70,14,25,39,45,22,75,98,52,33,51,104,3,28,62,29,18,29,7,51,13,68,18,36,58,50,129,123,174,65,104,120,131,57,103,75,60,53,17,74,46,38,76,64,57,35,69,29,25,102,41,11,49,32,27,43,63,23,40,37,48,21,25,22,24,49,35,59,45,33,25,21,47,31,94,40,35,41,30,25,30,35,68,56,187,186,157,175,36,34,37,26,27,21,18,25,21,17,29,20,31,37,45,31,128,6,96,128,131,69,189,175,165,137,141,18,47,11,69,35,31,26,81,141,101,122,180,179,107,74,59,248,109,59,118,46,39,30,48,35,40,35,26,25,25,25,34,31,41,56,45,22,23,11,3,18,10,9,12,4,8,11,18,18,24,25,34,153,158,119,49,41,60,67,26,28,128,45,60,153,123,120,73,36,50,51,42,49,46,48,55,43,91,141,27,148,134,75,92,55,60,94,150,192,104,95,7,126,72,11,145,36,35,9,23,19,8,235,228,238,159,216,23,248,60,89,109,64,68,72,101,50,66,53,77,94,63,64,69,37,34,42,20,106,158,56,641,467,9,609,179,18,41,45,191,6,138,27,130,70,45,120,87,253,237,83,315,251,56,316,337,112,66,121,257,239,57,68,68,51,125,325,146,446,119,79,61,55,75,78,38,54,1,27,96,33,28,191,86,255,196,175,29,17,12,22,16,18,31,34,41,71,34,18,19,20,6,0,-6,-15,-14,-16,-19,-23,-34,-41,-40,-93,-40,-31,-29,-32,-9,-21,-12,-15,-21,-41,-32,-32,-61,-16,-33,-32,-24,-21,-33,-31,-38,-46,-53,-60,-69,-55,-54,-148,-67,-50,-40,-58,-49,-52,-25,-30,-26,-10,-8,9,4,-6,-10,-10,-20,-9,-30,-33,-41,-28,-30,-29,-56,-22,-9,-3,9,19,31,20,33,29,36,139,85,49,164]
    }
  ]
}