{
  "code":11805,
  "name":"JR鳴門線",
  "color":"#8C2C5F",
  "symbol":"N",
  "station_list":[
    {"code":1180225,"id":"6365a0","name":"池谷","name_kana":"いけのたに","lat":34.152783,"lng":134.529097,"prefecture":36,"numbering":[{"index":"04"}],"lines":[11802,11805],"attr":"heat","postal_code":"779-0303","address":"鳴門市大麻町池谷"},
    {"code":1180506,"id":"9c1ef0","name":"阿波大谷","name_kana":"あわおおたに","lat":34.158024,"lng":134.540221,"prefecture":36,"numbering":[{"index":"05"}],"lines":[11805],"attr":"heat","postal_code":"779-0302","address":"鳴門市大麻町大谷"},
    {"code":1180505,"id":"19e812","name":"立道","name_kana":"たつみち","lat":34.162024,"lng":134.557539,"prefecture":36,"numbering":[{"index":"06"}],"lines":[11805],"attr":"heat","postal_code":"779-0301","address":"鳴門市大麻町姫田"},
    {"code":1180504,"id":"0e3fdf","name":"教会前","name_kana":"きょうかいまえ","lat":34.167579,"lng":134.577148,"prefecture":36,"numbering":[{"index":"07"}],"lines":[11805],"attr":"heat","postal_code":"772-0004","address":"鳴門市撫養町木津"},
    {"code":1180503,"id":"6b1f3c","name":"金比羅前","name_kana":"こんぴらまえ","lat":34.169651,"lng":134.585014,"prefecture":36,"numbering":[{"index":"08"}],"lines":[11805],"attr":"eco","postal_code":"772-0004","address":"鳴門市撫養町木津"},
    {"code":1180502,"id":"f0e5b1","name":"撫養","name_kana":"むや","lat":34.173162,"lng":134.600851,"prefecture":36,"numbering":[{"index":"09"}],"lines":[11805],"attr":"eco","postal_code":"772-0003","address":"鳴門市撫養町南浜"},
    {"code":1180501,"id":"29eee1","name":"鳴門","name_kana":"なると","lat":34.179131,"lng":134.608355,"prefecture":36,"numbering":[{"index":"10"}],"lines":[11805],"attr":"eco","postal_code":"772-0012","address":"鳴門市撫養町小桑島"}
  ],
  "north":34.17944,
  "south":34.15188,
  "east":134.60868,
  "west":134.5292,
  "polyline_list":[
    {
      "start":"池谷",
      "end":"鳴門",
      "lat":34.15188,
      "lng":134.52929,
      "delta_lat":[0,68,74,42,36,41,20,20,29,40,30,28,19,15,103,38,11,7,4,1,-5,0,0,-9,0,2,2,4,3,0,6,7,41,40,25,15,7,16,17,41,26,64,74,29,17,10,0,4,9,11,13,14,16,16,23,18,18,18,25,35,21,16,13,7,8,8,16,21,41,41,29,9,6,5,4,6,6,8,18,20,16,20,14,6,0,0,0,4,10,21,36,23,18,23,28,9,61,44,18,18,2,32,5,4,3,28,5,0,-11,0,6,7,5,8,77,13,3,-3,-13,-5,-4,2,16,37,37,18,24,27,20,23,22,34,82,121,127,54],
      "delta_lng":[0,-9,0,9,14,25,26,27,55,98,45,35,35,36,225,86,30,35,31,27,33,9,30,104,45,84,166,195,133,43,41,44,166,163,75,36,18,35,27,96,68,162,193,77,61,46,20,50,45,36,38,30,28,40,69,67,73,70,70,86,70,81,59,28,32,31,55,60,91,83,69,39,44,48,41,63,39,39,75,85,65,65,38,42,37,95,57,35,27,54,71,34,31,49,70,22,171,127,60,67,11,153,26,95,22,114,31,19,99,17,60,65,28,34,304,70,21,22,85,27,43,20,51,135,117,43,47,37,18,16,11,8,17,13,7,2]
    }
  ]
}