{
  "code":11807,
  "id":"4993bb",
  "name":"JR予讃・内子線",
  "name_kana":"じぇいあーるよさん・うちこせん",
  "station_size":41,
  "company_code":5,
  "station_list":[
    {"code":1180657,"id":"89f6ed","name":"松山(愛媛)","name_kana":"まつやま","lat":33.839954,"lng":132.751149,"prefecture":38,"numbering":[{"symbol":"U","color":"#FF9900","index":"00"}],"lines":[11806,11807],"attr":"heat","postal_code":"790-0062","address":"松山市南江戸１丁目","next":[9980607,9980606,9980609,9980806,9980502,9980805,9980503],"voronoi":{"lat":33.836529,"lng":132.737504,"delta_lat":[0,5616,2382,-1958,-4306,-2487,-3849],"delta_lng":[0,3338,4079,5294,2967,-134,-5202]}},
    {"code":1180702,"id":"9143f7","name":"市坪","name_kana":"いちつぼ","lat":33.809113,"lng":132.749283,"prefecture":38,"numbering":[{"symbol":"U","color":"#FF9900","index":"01"}],"lines":[11807],"attr":"heat","postal_code":"790-0947","address":"松山市市坪南２丁目","next":[9980505,9980506,9980503,9980502,1180703,9981302,9980504,9980703],"voronoi":{"lat":33.797906,"lng":132.76483,"delta_lat":[0,607,119,9355,7268,4653,-1501,-4559],"delta_lng":[0,-25813,-47,480,3333,13440,4924,3597]}},
    {"code":1180703,"id":"3adee7","name":"北伊予","name_kana":"きたいよ","lat":33.787441,"lng":132.748774,"prefecture":38,"numbering":[{"symbol":"U","color":"#FF9900","index":"02"}],"lines":[11807],"attr":"heat","postal_code":"791-3161","address":"伊予郡松前町大字神崎","next":[9981302,1180741,1180702,9981303,9980506],"voronoi":{"lat":33.797906,"lng":132.76483,"delta_lat":[0,-5386,-43975,42808,7160],"delta_lng":[0,3737,3264,-36215,3401]}},
    {"code":1180741,"id":"06256a","name":"南伊予","name_kana":"みなみいよ","lat":33.777727,"lng":132.737292,"prefecture":38,"numbering":[{"symbol":"U","color":"#FF9900","index":"02-1"}],"lines":[11807],"attr":"heat","postal_code":"799-3104","address":"愛媛県伊予市上三谷字堤池下甲388番地","open_date":"2020-03-14","next":[1180704,1180703,9980506,1180708,9980507,9981303],"voronoi":{"lat":33.748545,"lng":132.771831,"delta_lat":[0,42808,-4232,-1704,-52226,-12358],"delta_lng":[0,-36215,-6941,-1252,24740,26485]}},
    {"code":1180704,"id":"b341c1","name":"伊予横田","name_kana":"いよよこた","lat":33.772909,"lng":132.727121,"prefecture":38,"numbering":[{"symbol":"U","color":"#FF9900","index":"03"}],"lines":[11807],"attr":"heat","postal_code":"791-3154","address":"伊予郡松前町大字横田","next":[1180741,1180708,9980507,9980509,1180705,9980510],"voronoi":{"lat":33.775835,"lng":132.71553,"delta_lat":[0,4186,5396,-52226,5088,36348],"delta_lng":[0,1283,10610,24740,-15543,-21051]}},
    {"code":1180705,"id":"04b250","name":"鳥ノ木","name_kana":"とりのき","lat":33.763751,"lng":132.711309,"prefecture":38,"numbering":[{"symbol":"U","color":"#FF9900","index":"04"}],"lines":[11807],"attr":"heat","postal_code":"799-3111","address":"伊予市下吾川","next":[1180706,1180708,9980511,9980510,1180704],"voronoi":{"lat":33.774626,"lng":132.715568,"delta_lat":[0,-8185,-10349,-17206,-608],"delta_lng":[0,-9632,4308,16111,10264]}},
    {"code":1180706,"id":"e30aa9","name":"伊予市","name_kana":"いよし","lat":33.755532,"lng":132.702532,"prefecture":38,"numbering":[{"symbol":"U","color":"#FF9900","index":"05"}],"lines":[11807],"attr":"heat","postal_code":"799-3113","address":"伊予市米湊","next":[1180705,9980512,1180708,9980511,1180707],"voronoi":{"lat":33.750818,"lng":132.684331,"delta_lat":[0,6309,-1035,-17206,-786],"delta_lng":[0,22387,3526,16111,-5232]}},
    {"code":1180707,"id":"6a6bd2","name":"向井原","name_kana":"むかいばら","lat":33.735871,"lng":132.695736,"prefecture":38,"numbering":[{"symbol":"U","color":"#FF9900","index":"06"},{"symbol":"S","color":"#82A2B2","index":"06"}],"lines":[11807],"attr":"heat","postal_code":"799-3122","address":"伊予市市場","next":[9980512,1180708,1180715,1180706],"voronoi":{"lat":33.71326,"lng":132.682337,"delta_lat":[0,54441,-16883,-12718],"delta_lng":[0,-50437,52432,36792]}},
    {"code":1180708,"id":"96333d","name":"伊予大平","name_kana":"いよおおひら","lat":33.715973,"lng":132.708479,"prefecture":38,"numbering":[{"symbol":"U","color":"#FF9900","index":"07"}],"lines":[11807],"attr":"heat","postal_code":"799-3131","address":"伊予市大平","next":[1180706,1180707,9981303,1180705,1180741,1180715,1180704,1180709],"voronoi":{"lat":33.682036,"lng":132.69135,"delta_lat":[0,31225,24840,786,-608,-5088,-12358,-33173],"delta_lng":[0,-9013,38787,5232,10264,15543,26485,30711]}},
    {"code":1180709,"id":"716176","name":"伊予中山","name_kana":"いよなかやま","lat":33.649881,"lng":132.711629,"prefecture":38,"numbering":[{"symbol":"U","color":"#FF9900","index":"08"}],"lines":[11807],"attr":"heat","postal_code":"791-3206","address":"伊予市中山町中山","next":[9981303,9980711,1180715,9980712,1180716,1180708,1180806,1180807,9980713,1180710],"voronoi":{"lat":33.646649,"lng":132.663659,"delta_lat":[0,12633,22754,5624,-11811,-913,-35742,-128887,-717,-27386],"delta_lng":[0,5416,22274,118009,21484,918,33252,113822,-1658,-78819]}},
    {"code":1180710,"id":"181706","name":"伊予立川","name_kana":"いよたちかわ","lat":33.600458,"lng":132.677,"prefecture":38,"numbering":[{"symbol":"U","color":"#FF9900","index":"09"}],"lines":[11807],"attr":"heat","postal_code":"791-3331","address":"喜多郡内子町立山","next":[1180716,1180711,1180807,1180717,1180709],"voronoi":{"lat":33.459859,"lng":132.852677,"delta_lat":[0,141920,30000,14869,-164445],"delta_lng":[0,-235757,18677,28062,234698]}},
    {"code":1180711,"id":"526f12","name":"内子","name_kana":"うちこ","lat":33.549305,"lng":132.646207,"prefecture":38,"numbering":[{"symbol":"U","color":"#FF9900","index":"10"}],"lines":[11807],"attr":"heat","postal_code":"791-3301","address":"喜多郡内子町大字内子","next":[1180713,1180710,1180807,1180714,1180814,1180717,1180712],"voronoi":{"lat":33.419481,"lng":132.792109,"delta_lat":[0,40378,141920,-6239,-9263,-22524,-146011],"delta_lng":[0,60568,-235757,-11584,2976,10283,162210]}},
    {"code":1180712,"id":"dd43af","name":"五十崎","name_kana":"いかざき","lat":33.537809,"lng":132.635859,"prefecture":38,"numbering":[{"symbol":"U","color":"#FF9900","index":"11"}],"lines":[11807],"attr":"heat","postal_code":"795-0301","address":"喜多郡内子町五十崎","next":[1180713,1180818,1180711,1180817,1180814],"voronoi":{"lat":33.563754,"lng":132.618596,"delta_lat":[0,-149414,-923,2392,1934],"delta_lng":[0,26806,33719,91829,9856]}},
    {"code":1180713,"id":"bea497","name":"喜多山(愛媛)","name_kana":"きたやま","lat":33.533426,"lng":132.611428,"prefecture":38,"numbering":[{"symbol":"U","color":"#FF9900","index":"12"}],"lines":[11807],"attr":"heat","postal_code":"795-0075","address":"大洲市喜多山","next":[1180711,1180712,1180714,1180726,1180735,1180818],"voronoi":{"lat":33.413605,"lng":132.63537,"delta_lat":[0,15590,2139,154943,-22524,-149414],"delta_lng":[0,-35673,-476,9091,10283,26806]}},
    {"code":1180714,"id":"42a479","name":"新谷","name_kana":"にいや","lat":33.534153,"lng":132.599037,"prefecture":38,"numbering":[{"symbol":"U","color":"#FF9900","index":"13"}],"lines":[11807],"attr":"heat","postal_code":"795-0071","address":"大洲市新谷乙","next":[1180726,1180713,1180725,1180711,1180724,1180717],"voronoi":{"lat":33.595265,"lng":132.601941,"delta_lat":[0,-10941,-76294,-76696,154943,9263],"delta_lng":[0,-5377,-19354,22012,9091,-2976]}},
    {"code":1180715,"id":"cfe2b6","name":"高野川","name_kana":"こうのかわ","lat":33.701624,"lng":132.65877,"prefecture":38,"numbering":[{"symbol":"S","color":"#82A2B2","index":"07"}],"lines":[11807],"attr":"heat","postal_code":"799-3201","address":"伊予市双海町高野川","next":[1180709,1180716,9980512,1180708,9980509,1180707,9980510,9980508],"voronoi":{"lat":33.807483,"lng":132.565847,"delta_lat":[0,-148201,22754,31225,54441,5584,4338,20641],"delta_lng":[0,103229,22274,-9013,-50437,-7011,-6746,-35497]}},
    {"code":1180716,"id":"82991c","name":"伊予上灘","name_kana":"いよかみなだ","lat":33.683626,"lng":132.632931,"prefecture":38,"numbering":[{"symbol":"S","color":"#82A2B2","index":"08"}],"lines":[11807],"attr":"heat","postal_code":"799-3207","address":"伊予市双海町高岸","next":[1180718,1180710,1180715,1180717,9980601,1180709,9980508],"voronoi":{"lat":33.829698,"lng":132.534323,"delta_lat":[0,9467,-51924,-155462,14869,12633,148201],"delta_lng":[0,-27315,27168,101422,28062,5416,-103229]}},
    {"code":1180717,"id":"65ce6e","name":"下灘","name_kana":"しもなだ","lat":33.655109,"lng":132.589219,"prefecture":38,"numbering":[{"symbol":"S","color":"#82A2B2","index":"09"}],"lines":[11807],"attr":"heat","postal_code":"799-3311","address":"伊予市双海町大久保","next":[1180716,1180724,1180711,1180718,1180714,1180710],"voronoi":{"lat":33.60178,"lng":132.61692,"delta_lat":[0,-6239,-275,3292,188684,-155462],"delta_lng":[0,-11584,-3396,-9662,-58103,101422]}},
    {"code":1180718,"id":"d7b412","name":"串","name_kana":"くし","lat":33.647034,"lng":132.562996,"prefecture":38,"numbering":[{"symbol":"S","color":"#82A2B2","index":"10"}],"lines":[11807],"attr":"heat","postal_code":"799-3313","address":"伊予市双海町串","next":[1180716,1180722,9980601,1180724,1180717,1180719],"voronoi":{"lat":33.854409,"lng":132.481119,"delta_lat":[0,-15243,-51924,-188684,2039,5065],"delta_lng":[0,25889,27168,58103,-24307,-9574]}},
    {"code":1180719,"id":"ee8dc0","name":"喜多灘","name_kana":"きたなだ","lat":33.637145,"lng":132.531165,"prefecture":38,"numbering":[{"symbol":"S","color":"#82A2B2","index":"11"}],"lines":[11807],"attr":"heat","postal_code":"799-3411","address":"大洲市長浜町今坊甲","next":[1180722,1161206,9980601,1180720,1180721,1180718],"voronoi":{"lat":33.854409,"lng":132.481119,"delta_lat":[0,27266,-36366,-226862,-10351,-2434],"delta_lng":[0,-39264,-40882,111874,13064,32487]}},
    {"code":1180720,"id":"393343","name":"伊予長浜","name_kana":"いよながはま","lat":33.615297,"lng":132.486861,"prefecture":38,"numbering":[{"symbol":"S","color":"#82A2B2","index":"12"}],"lines":[11807],"attr":"heat","postal_code":"799-3402","address":"大洲市長浜乙","next":[1161207,1161208,1180730,1180719,1161206,1180721],"voronoi":{"lat":33.55334,"lng":132.409743,"delta_lat":[0,80023,29324,168243,14378,-226862],"delta_lng":[0,-248489,28537,191304,19877,111874]}},
    {"code":1180721,"id":"f0fe00","name":"伊予出石","name_kana":"いよいずし","lat":33.596338,"lng":132.498833,"prefecture":38,"numbering":[{"symbol":"S","color":"#82A2B2","index":"13"}],"lines":[11807],"attr":"cool","postal_code":"799-3444","address":"大洲市長浜町上老松甲","next":[1180730,1180728,1180719,1180722,1180727,1180729,1180720],"voronoi":{"lat":33.55334,"lng":132.409743,"delta_lat":[0,-2674,-13952,2185,4339,64857,10351],"delta_lng":[0,5905,44049,11460,13558,41195,-13064]}},
    {"code":1180722,"id":"016544","name":"伊予白滝","name_kana":"いよしらたき","lat":33.578588,"lng":132.526778,"prefecture":38,"numbering":[{"symbol":"S","color":"#82A2B2","index":"14"}],"lines":[11807],"attr":"cool","postal_code":"799-3431","address":"大洲市白滝甲","next":[1180724,1180719,1180723,1180718,1180727,1180721],"voronoi":{"lat":33.543238,"lng":132.484715,"delta_lat":[0,67,57218,73,5065,2434],"delta_lng":[0,17857,65340,59,-9574,-32487]}},
    {"code":1180723,"id":"99af1a","name":"八多喜","name_kana":"はたき","lat":33.562643,"lng":132.540741,"prefecture":38,"numbering":[{"symbol":"S","color":"#82A2B2","index":"15"}],"lines":[11807],"attr":"cool","postal_code":"795-0041","address":"大洲市八多喜町","next":[1180727,1180724,1180722,1180726],"voronoi":{"lat":33.600523,"lng":132.567913,"delta_lat":[0,-57218,-4696,1656],"delta_lng":[0,-65340,18657,17740]}},
    {"code":1180724,"id":"d60195","name":"春賀","name_kana":"はるか","lat":33.555636,"lng":132.555329,"prefecture":38,"numbering":[{"symbol":"S","color":"#82A2B2","index":"16"}],"lines":[11807],"attr":"cool","postal_code":"795-0046","address":"大洲市春賀甲","next":[1180722,1180723,1180726,1180717,1180718,1180714,1180725],"voronoi":{"lat":33.53665,"lng":132.551744,"delta_lat":[0,3615,60258,73,-2039,-3292,-10941],"delta_lng":[0,-12775,28943,59,24307,9662,-5377]}},
    {"code":1180725,"id":"6b4465","name":"五郎","name_kana":"ごろう","lat":33.541399,"lng":132.570473,"prefecture":38,"numbering":[{"symbol":"S","color":"#82A2B2","index":"17"}],"lines":[11807],"attr":"cool","postal_code":"795-0051","address":"大洲市五郎大谷甲","next":[1180726,1180714,1180724],"voronoi":{"lat":33.53665,"lng":132.551744,"delta_lat":[0,-28620,76294],"delta_lng":[0,25465,19354]}},
    {"code":1180726,"id":"4a4199","name":"伊予大洲","name_kana":"いよおおず","lat":33.518601,"lng":132.54485,"prefecture":38,"numbering":[{"symbol":"S","color":"#82A2B2","index":"18"},{"symbol":"U","color":"#FF9900","index":"14"}],"lines":[11807],"attr":"cool","postal_code":"795-0054","address":"大洲市中村","next":[1180714,1180728,1180725,1180724,1180727,1180713,1180723,1180735],"voronoi":{"lat":33.429338,"lng":132.597937,"delta_lat":[0,47660,61611,1656,-3615,-28620,-76696,-2139],"delta_lng":[0,-40738,-35969,17740,12775,25465,22012,476]}},
    {"code":1180727,"id":"c8096d","name":"西大洲","name_kana":"にしおおず","lat":33.508204,"lng":132.527041,"prefecture":38,"numbering":[{"symbol":"U","color":"#FF9900","index":"15"}],"lines":[11807],"attr":"cool","postal_code":"795-0025","address":"大洲市阿蔵甲","next":[1180723,1180722,1180726,1180728,1180721],"voronoi":{"lat":33.543305,"lng":132.502572,"delta_lat":[0,-4696,-61611,61901,4339],"delta_lng":[0,18657,35969,-86041,13558]}},
    {"code":1180728,"id":"8a570a","name":"伊予平野","name_kana":"いよひらの","lat":33.495672,"lng":132.518025,"prefecture":38,"numbering":[{"symbol":"U","color":"#FF9900","index":"16"}],"lines":[11807],"attr":"cool","postal_code":"795-0021","address":"大洲市平野町野田","next":[1180729,1180733,1180731,1180735,1180726,1180721,1180727],"voronoi":{"lat":33.538899,"lng":132.471158,"delta_lat":[0,-2185,-91182,-8513,-9313,1632,47660],"delta_lng":[0,-11460,45458,10110,64567,18104,-40738]}},
    {"code":1180729,"id":"599d65","name":"千丈","name_kana":"せんじょう","lat":33.465432,"lng":132.457369,"prefecture":38,"numbering":[{"symbol":"U","color":"#FF9900","index":"17"}],"lines":[11807],"attr":"cool","postal_code":"796-8020","address":"八幡浜市大字郷字堀田","next":[1180728,1180730,1180731,1180721],"voronoi":{"lat":33.445533,"lng":132.505156,"delta_lat":[0,-728,105862,-13952],"delta_lng":[0,-52439,-37068,44049]}},
    {"code":1180730,"id":"c06aa0","name":"八幡浜","name_kana":"やわたはま","lat":33.458024,"lng":132.436213,"prefecture":38,"numbering":[{"symbol":"U","color":"#FF9900","index":"18"}],"lines":[11807],"attr":"cool","postal_code":"796-0031","address":"八幡浜市江戸岡１丁目","next":[1190656,1180721,1161208,1180731,1180732,1180729,1161210,1180720,1190649],"voronoi":{"lat":33.268247,"lng":132.17276,"delta_lat":[0,24177,152381,105862,2674,80023,-44578,-34816,-212310],"delta_lng":[0,43534,236422,-37068,-5905,-248489,-73882,-44462,74238]}},
    {"code":1180731,"id":"ec8a44","name":"双岩","name_kana":"ふたいわ","lat":33.424314,"lng":132.45794,"prefecture":38,"numbering":[{"symbol":"U","color":"#FF9900","index":"19"}],"lines":[11807],"attr":"cool","postal_code":"796-8035","address":"八幡浜市若山","next":[1180728,1180730,1180732,1180729,1180733],"voronoi":{"lat":33.425592,"lng":132.50359,"delta_lat":[0,-133168,152381,728,-8513],"delta_lng":[0,-287296,236422,52439,10110]}},
    {"code":1180732,"id":"9df15a","name":"伊予石城","name_kana":"いよいわき","lat":33.391582,"lng":132.473112,"prefecture":38,"numbering":[{"symbol":"U","color":"#FF9900","index":"20"}],"lines":[11807],"attr":"cool","postal_code":"797-0026","address":"西予市宇和町岩木","next":[1190656,1180733,1180730,1180731,1180734,1180737,1180736],"voronoi":{"lat":33.355841,"lng":132.474917,"delta_lat":[0,69750,-133168,-24177,-101556,85102,31375],"delta_lng":[0,28674,-287296,-43534,59639,141819,44675]}},
    {"code":1180733,"id":"3619fe","name":"上宇和","name_kana":"かみうわ","lat":33.379979,"lng":132.501337,"prefecture":38,"numbering":[{"symbol":"U","color":"#FF9900","index":"21"}],"lines":[11807],"attr":"eco","postal_code":"797-0018","address":"西予市宇和町下松葉","next":[1180728,1180732,1180734,1180731,1180735],"voronoi":{"lat":33.390109,"lng":132.541784,"delta_lat":[0,-34268,69750,11428,-9313],"delta_lng":[0,-66868,28674,11675,64567]}},
    {"code":1180734,"id":"344641","name":"卯之町","name_kana":"うのまち","lat":33.363192,"lng":132.50994,"prefecture":38,"numbering":[{"symbol":"U","color":"#FF9900","index":"22"}],"lines":[11807],"attr":"eco","postal_code":"797-0015","address":"西予市宇和町卯之町","next":[1180736,1180735,1180733,1180732],"voronoi":{"lat":33.283167,"lng":132.418894,"delta_lat":[0,34338,72604,-34268],"delta_lng":[0,77048,45843,-66868]}},
    {"code":1180735,"id":"7a75b2","name":"下宇和","name_kana":"しもうわ","lat":33.349786,"lng":132.531172,"prefecture":38,"numbering":[{"symbol":"U","color":"#FF9900","index":"23"}],"lines":[11807],"attr":"eco","postal_code":"797-0012","address":"西予市宇和町皆田","next":[1180819,1180728,1180818,1180736,1180734,1180726,1180733,1180713],"voronoi":{"lat":33.429195,"lng":132.599698,"delta_lat":[0,143,-1632,-37597,-72604,12560,38920,44620],"delta_lng":[0,-1761,-18104,-38048,-45843,81244,31668,26517]}},
    {"code":1180736,"id":"d0ca65","name":"立間","name_kana":"たちま","lat":33.297371,"lng":132.539275,"prefecture":38,"numbering":[{"symbol":"U","color":"#FF9900","index":"24"}],"lines":[11807],"attr":"eco","postal_code":"799-3730","address":"宇和島市吉田町立間","next":[1180820,1180734,1180735,1180819,1180732,1180737],"voronoi":{"lat":33.311601,"lng":132.57487,"delta_lat":[0,18464,-12560,-34338,-31375,39199],"delta_lng":[0,2316,-81244,-77048,-44675,195746]}},
    {"code":1180737,"id":"a3f4cc","name":"伊予吉田","name_kana":"いよよしだ","lat":33.273287,"lng":132.544098,"prefecture":38,"numbering":[{"symbol":"U","color":"#FF9900","index":"25"}],"lines":[11807],"attr":"eco","postal_code":"799-3710","address":"宇和島市吉田町立間尻","next":[1180738,1180820,1180732,1190656,1180740,1180736,1180739],"voronoi":{"lat":33.285374,"lng":132.570923,"delta_lat":[0,5617,-39199,-85102,-65492,137098,14151],"delta_lng":[0,-959,-195746,-141819,21706,278827,18748]}},
    {"code":1180738,"id":"d933c1","name":"高光","name_kana":"たかみつ","lat":33.25607,"lng":132.573559,"prefecture":38,"numbering":[{"symbol":"U","color":"#FF9900","index":"26"}],"lines":[11807],"attr":"eco","postal_code":"798-0020","address":"宇和島市高串","next":[1180739,1180737,1180820],"voronoi":{"lat":33.285374,"lng":132.570923,"delta_lat":[0,-32927,-16135],"delta_lng":[0,-19243,68512]}},
    {"code":1180739,"id":"180cfb","name":"北宇和島","name_kana":"きたうわじま","lat":33.239442,"lng":132.569643,"prefecture":38,"numbering":[{"symbol":"U","color":"#FF9900","index":"27"}],"lines":[11807,11808],"attr":"eco","postal_code":"798-0024","address":"宇和島市伊吹町北通り","next":[1180738,1180816,1180820,1180737,1180740],"voronoi":{"lat":33.238297,"lng":132.532932,"delta_lat":[0,14151,-16135,-170,-12438],"delta_lng":[0,18748,68512,241,3867]}},
    {"code":1180740,"id":"d028b5","name":"宇和島","name_kana":"うわじま","lat":33.225774,"lng":132.56746,"prefecture":38,"numbering":[{"symbol":"U","color":"#FF9900","index":"28"}],"lines":[11807,11808],"attr":"eco","postal_code":"798-0034","address":"宇和島市錦町","next":[1180815,1190657,1180816,1180813,9981508,1190656,1180737,1180739],"voronoi":{"lat":33.210752,"lng":132.630136,"delta_lat":[0,-32362,-99103,-166978,150152,38737,137098,-14592],"delta_lng":[0,8893,1788,-334961,-42212,-9539,278827,91368]}}
  ],
  "north":33.8407,
  "south":33.22576,
  "east":132.75155,
  "west":132.43272,
  "polyline_list":[
    {
      "start":"向井原",
      "end":"松山",
      "lat":33.73302,
      "lng":132.69538,
      "delta_lat":[0,39,14,27,113,62,65,116,193,194,47,69,31,37,45,27,30,97,99,104,124,18,28,23,25,28,26,20,8,29,27,31,43,59,19,21,40,52,96,96,63,56,28,137,152,217,101,25,16,34,40,241,39,27,6,119,137,44,134,49,37,44,30,205,42,23,170,47,107,14,56,31,16,29,31,23,18,56,65,76,20,36,49,40,28,37,36,68,58,105,425,125,48,279,362,260,34,85,139,96,241,70,392,96,97,27,262,190,69,32,120,162,212,88,48,49,104,73,180,514,21,38,81,101,164],
      "delta_lng":[0,4,2,2,11,8,8,12,22,21,3,1,-1,-5,-6,-6,-4,-25,-28,-30,-36,-3,0,1,7,14,17,19,7,33,37,49,76,105,30,26,41,58,110,108,68,62,28,140,156,220,105,27,20,55,63,384,65,44,10,192,219,73,223,90,90,113,75,487,101,54,411,110,254,34,137,63,32,45,44,27,19,64,56,61,19,19,23,17,14,11,10,13,6,0,4,4,1,11,15,4,0,1,2,2,4,0,10,3,1,-1,8,20,7,7,33,42,67,19,9,3,-3,-4,-6,-22,-1,-3,-6,-8,-8]
    },
    {
      "start":"新谷",
      "end":"内子",
      "lat":33.53414,
      "lng":132.59894,
      "delta_lat":[0,-3,-1,-3,-5,-9,-19,-31,-26,-11,0,0,5,4,5,6,32,15,17,6,5,6,3,7,2,2,-2,-12,-20,-20,-38,-11,-7,-13,-7,-1,-2,-2,-4,-9,-2,0,9,11,15,2,-1,-1,7,14,29,23,14,14,23,19,30,36,11,23,20,16,12,12,11,11,15,66,70,51,4,7,62,79,70,91,58,18,71,66,56,10,24,47,28,51,41,49,70,35,66,37],
      "delta_lng":[0,114,54,103,73,62,136,217,184,76,29,33,55,24,32,17,81,37,64,25,30,69,19,29,17,12,14,46,63,66,133,33,28,44,24,17,42,33,40,57,23,22,36,41,62,31,45,63,42,84,124,92,48,23,31,20,26,31,16,29,43,44,55,72,90,35,28,110,107,73,8,11,97,110,91,117,75,23,90,85,74,10,25,39,19,23,12,12,10,3,9,2]
    },
    {
      "start":"伊予大洲",
      "end":"向井原",
      "lat":33.53163,
      "lng":132.56469,
      "delta_lat":[0,285,121,30,91,36,53,53,31,32,12,35,50,42,27,35,74,25,31,61,90,28,26,20,45,22,16,28,23,29,15,31,25,13,7,9,10,11,2,12,17,23,22,24,27,60,83,97,161,129,33,21,9,18,23,47,44,41,41,35,25,35,36,54,54,9,6,5,0,-3,-4,-13,-7,-3,1,2,0,12,15,16,10,12,18,15,8,68,41,100,58,95,35,23,32,82,81,26,23,38,30,37,52,36,17,7,25,15,10,15,25,60,88,36,48,29,35,15,20,31,34,38,27,40,23,25,30,29,18,9,7,7,2,11,13,10,11,63,57,28,44,60,30,20,21,89,83,25,18,17,7,20,35,25,9,16,12,21,8,96,29,55,14,33,30,28,27,32,38,30,6,7,5,2,8,5,6,11,19,15,14,20,28,27,30,24,30,20,31,51,41,24,5,16,31,42,27,29,13,9,25,13,16,23,9,5,6,11,22,41,47,54,38,47,38,38,36,18,11,67,41,88,85,64,51,74,43,15,18,4,16,25,18,25,33,38,41,30,21,17,23,36,29,17,15,19,16,56,59,55,41,20,40,59,24,29,15,17,21,41,25,11,20,27,18,19,15,18,29,4,25,30,27,34,24,21,33,22,38,44,50,39,27,6,14,15,20,44,40,27,25,50,20,38,57,51,22,32,29,23,13,13,25,23,33,6,11,14,14,9,10,21,34,20,17,17,15,16,29,35,25,10,5,3,0,0,3,3,6,11,19,17,33,47,29,15,12,2,7,9,13,18,15,10,36,17,13,14,12,11,22,32,18,12,15,8,7,9,14,23,38,51,13,6,9,3,2,5,13,20,34,38,35,33,16,3,10,5,23,18,7,11,8,10,7,4,2,0,-2,0,2,6,6,6,5,6,16,13,14,16,19,16,7,5,6,26,21,11,9,18,6,3,7,6,10,12,14,7,5,2,2,3,5,23,7,6,1,4,3,3,3,12,20,17,16,15,6,8,6,9,10,17,27,21,11,8,14,10,15,11,12,30,8,12,38,76,27,15,15,29,23,48,41,18,7,4,4,7,2,2,8,11,15,4,10,11,6,19,11,9,7,15,20,27,18,27,16,2,9,36,54,12,10,26,31,59,11,34,40,12,12,23,11,12,9,44,41,31,26,18,20,20,21,24,36,22,12,30,26,27,34,73,14,14,26,27,23,13,52,70,34,28,49,42,25,22,13,59,23,20,24,67,34,29,54,48,20,37,26,19,26,28,42,22,54,56,37,36,57,54,41,39,51,34,34,30,79,33,3,27,18,11,12,12,26,9,31,13,17,15,18,26,24,27,18,14,20,45,31,38,13,20,48,45,73,30,40,22,11,13,12,12,13,14,20,13,18,54,60,34,38,22,132,34,22,20,14,13,14,32,7,11,14,14,22,18,14,11,15,18,15,9,32,47,29,23,20,34,46,80,77,29,22,28,42,29,35,39,29,36,35,54,36,59,93,47,75,40,58,80,27,13,9,12,14,10,7,13,16,16,24,23,29,26,43,36,81,58,29,31,23,24,18,14,13,16,17,3,24,21,28,41,57,53,67,135,50,48,46,28,19,21,22,25,33,18,20,52,27,21,33,52,31,24,20,14,20,13,3,11,11,5,12,19,20,25,34,28,53,41,33,29,71,98,19,44,59,95,103,144,33,37,18,10,19,34,46],
      "delta_lng":[0,187,80,19,59,23,47,44,27,29,9,13,21,18,6,5,-7,-4,-8,-16,-27,-10,-14,-15,-54,-34,-27,-53,-58,-72,-29,-49,-40,-28,-21,-57,-71,-52,-14,-39,-48,-55,-46,-30,-22,-44,-51,-58,-97,-74,-20,-16,-7,-21,-32,-71,-69,-69,-57,-42,-28,-36,-58,-91,-92,-25,-35,-59,-58,-44,-27,-73,-56,-54,-35,-18,-13,-36,-45,-38,-21,-19,-24,-18,-14,-109,-35,-70,-40,-68,-24,-22,-35,-90,-89,-27,-23,-34,-20,-21,-29,-16,-9,-4,-12,-5,-3,1,0,0,8,3,-1,2,2,0,-4,-9,-18,-25,-22,-38,-25,-22,-31,-38,-27,-24,-21,-50,-7,-69,-66,-34,-30,-121,-112,-55,-79,-114,-52,-23,-21,-93,-82,-29,-27,-31,-25,-69,-128,-93,-26,-26,-13,-14,-4,-57,-14,-19,-8,-24,-25,-23,-23,-38,-44,-45,-12,-20,-15,-23,-79,-39,-20,-24,-27,-19,-16,-18,-19,-16,-20,-18,-25,-20,-23,-39,-33,-20,-6,-21,-40,-65,-46,-59,-31,-33,-91,-62,-99,-138,-59,-33,-24,-29,-40,-50,-44,-48,-33,-44,-35,-40,-36,-20,-13,-86,-56,-126,-116,-102,-90,-131,-78,-29,-40,-11,-28,-27,-14,-14,-13,-11,-9,-16,-15,-12,-23,-40,-35,-18,-10,-10,-4,-6,-12,-13,-13,-10,-20,-22,-7,0,1,6,9,27,21,12,24,36,31,40,35,52,80,12,75,78,88,118,87,56,87,45,76,74,80,59,53,14,19,20,19,42,44,30,34,76,34,72,124,114,57,59,56,64,27,29,68,52,106,20,38,35,28,15,11,17,19,9,13,15,17,25,50,65,51,28,22,19,58,35,30,19,24,29,40,28,48,47,27,18,21,5,18,30,50,55,38,21,58,32,28,37,22,18,30,47,27,27,43,28,27,22,37,42,70,89,22,14,62,13,13,13,22,35,47,48,50,55,33,6,21,11,55,41,25,40,24,35,29,35,31,70,25,21,15,21,24,18,12,15,20,15,21,35,60,62,39,12,15,45,34,20,25,52,20,17,38,27,28,26,32,26,23,14,30,13,23,66,27,20,20,69,36,11,11,24,38,25,20,19,17,25,26,28,28,39,69,59,33,32,60,63,72,28,31,63,16,43,129,247,91,51,48,94,76,158,142,54,24,22,37,109,52,20,25,37,45,25,67,51,32,67,44,31,24,64,69,101,70,101,56,9,30,135,201,43,23,60,71,144,21,44,49,21,34,71,23,19,13,64,57,48,36,23,21,15,19,28,47,27,22,68,56,53,56,112,26,31,63,62,59,24,92,109,49,38,59,55,40,46,27,119,44,37,36,91,47,33,52,42,23,43,30,18,18,22,25,13,32,37,32,34,62,63,61,69,96,56,40,32,76,33,3,31,27,30,45,67,167,48,187,69,70,47,52,49,41,40,21,12,17,36,20,25,14,26,73,64,101,50,68,43,31,66,67,60,43,29,35,23,24,69,66,24,21,14,60,16,17,25,32,47,54,162,35,30,30,21,31,30,28,30,42,52,29,15,47,72,47,37,29,38,48,87,86,34,27,37,46,26,22,31,26,35,37,65,46,73,120,60,96,54,89,124,51,33,36,67,84,62,38,35,44,34,34,26,24,14,16,12,15,14,9,18,25,36,36,34,36,42,33,7,36,23,20,22,31,31,40,68,33,37,36,28,27,35,43,56,68,26,28,51,24,16,23,33,27,25,24,26,41,41,9,56,69,31,31,36,26,28,34,24,40,34,31,33,86,125,24,50,67,105,108,156,36,37,16,9,9,11,13]
    },
    {
      "start":"内子",
      "end":"向井原",
      "lat":33.54873,
      "lng":132.64618,
      "delta_lat":[0,150,119,110,54,62,63,52,38,91,71,44,82,70,101,80,92,91,31,43,66,36,37,7,26,30,34,42,31,22,25,22,73,100,190,163,162,106,71,76,159,55,176,19,36,16,92,108,149,128,93,35,29,30,23,21,42,32,19,32,33,22,14,18,25,34,30,25,80,44,51,28,48,22,116,81,81,138,84,28,46,53,87,28,29,42,42,50,57,72,27,89,37,58,29,32,55,32,45,31,23,23,27,20,30,26,23,32,45,42,29,12,94,79,82,68,45,43,18,65,84,95,18,51,58,48,25,55,70,65,40,29,31,44,41,15,25,50,112,90,44,15,21,22,25,22,23,57,17,31,22,18,4,16,11,14,15,23,23,24,26,38,34,5,163,63,45,49,35,41,27,18,33,22,27,21,18,49,53,38,52,87,63,83,54,53,23,112,112,46,48,29,61,40,120,88,49,24,57,26,84,79,162,109,147,136,81,77,50,96,97,69,53,64,71,110,120,61,110,143,182,145,176,143,112,44,163,157,163,170,166,38,137,182,141,215,185,41,127,156,170,114,124,11,195,67,76,44,71,24,73,148,87,34,99,82,31,27,49,32,25,66,67,37,16,36,50,95,74,113,49,28,38,33,23,29,56,83,42,39,20,33,69,70,33,23,13,16,15,26,35,27,9,11,11,11,25,4,37,56,14,23,21,20,18,19,27,73],
      "delta_lng":[0,17,16,15,11,20,20,21,17,42,42,34,71,62,89,70,82,81,28,38,57,32,35,8,23,24,21,23,17,11,10,9,25,37,68,57,57,38,24,27,54,20,70,7,14,5,48,50,72,73,53,20,19,29,28,26,57,56,31,43,38,24,14,18,21,24,17,15,46,25,36,22,43,22,101,71,72,120,72,26,41,48,87,27,24,27,22,20,17,16,4,15,9,16,11,13,27,20,31,30,24,30,42,38,66,48,38,47,61,45,29,11,86,63,57,44,24,26,10,37,48,53,11,27,35,37,19,70,88,86,49,27,27,34,27,9,11,30,62,51,24,12,23,29,38,44,48,154,57,91,71,60,8,51,25,36,35,52,37,35,34,39,24,3,116,48,33,44,36,50,37,28,43,24,24,16,11,27,26,14,16,13,3,-4,-6,-12,-8,-33,-32,-13,-15,-8,-17,-14,-35,-24,-14,-8,-12,-5,-11,-4,-6,-5,-7,-6,-3,-3,-1,-4,-4,-3,-2,-5,-1,-4,-4,-4,-3,-3,-4,-7,-5,-9,-3,-2,-8,-5,-8,-9,-5,-1,-7,-6,-8,-9,-6,-1,-5,-6,-6,-4,-5,-2,-4,-1,-5,0,-5,-1,-5,-16,-9,-2,-16,-8,-1,0,3,4,5,14,15,10,3,4,2,-3,-3,0,-4,-5,-9,-10,-11,-16,-40,-59,-30,-27,-17,-37,-82,-92,-44,-41,-29,-41,-48,-87,-134,-96,-27,-26,-19,-17,-35,-3,-49,-78,-16,-24,-18,-13,-10,-11,-12,-21]
    },
    {
      "start":"伊予大洲",
      "end":"新谷",
      "lat":33.53163,
      "lng":132.56469,
      "delta_lat":[0,43,33,22,15,12,14,42,3,2,-4,-5,-11,-12,-6,-11,-5,-1,-3,3,5,7,16,15,1,7,11,15,17,19,20,14,18,11,0,-11,-5,-2,0,2,2,5,12,12,7,12,2,2,0,0,-9,-12,-33,-13,-6,-10,-3,-4,-1,-3],
      "delta_lng":[0,50,46,38,34,34,63,198,35,39,49,32,53,39,25,53,32,25,36,36,40,43,83,89,10,34,31,29,32,50,44,31,51,43,8,56,73,71,46,30,39,79,180,141,89,136,55,37,42,28,38,61,118,55,32,104,88,143,67,82]
    },
    {
      "start":"宇和島",
      "end":"伊予大洲",
      "lat":33.22576,
      "lng":132.56717,
      "delta_lat":[0,85,29,34,2,13,34,31,19,13,42,53,57,64,50,45,196,26,29,157,211,124,67,138,164,219,32,22,9,9,5,27,2,2,148,44,39,26,37,13,24,179,188,54,34,15,18,16,148,56,107,32,15,6,21,27,40,71,63,37,31,29,46,97,42,30,28,46,25,24,29,27,19,6,15,4,5,20,2,0,-6,-9,-10,-17,-3,-24,-31,-34,-53,-14,-12,-11,-4,-3,-2,0,1,4,12,4,4,-2,-15,-2,4,4,6,12,20,22,23,15,25,16,53,38,21,14,42,74,24,16,20,16,31,21,49,48,20,26,75,27,52,25,7,121,64,24,106,29,22,22,61,98,18,23,49,72,81,29,37,12,20,52,28,32,24,50,49,20,36,13,29,23,23,53,42,35,32,27,31,17,107,109,68,50,50,115,76,88,132,86,68,63,19,45,45,267,133,44,39,34,52,60,79,84,49,30,53,104,31,27,96,45,43,60,26,36,110,47,30,136,105,141,80,38,19,78,92,56,157,39,90,72,60,49,22,47,99,68,132,67,120,25,34,22,45,15,177,117,44,32,108,11,89,152,198,181,116,39,12,10,26,34,21,35,135,109,63,71,38,40,25,21,20,22,4,23,26,34,25,65,29,29,24,21,20,11,7,7,8,7,32,71,16,56,24,20,35,33,20,26,36,12,27,51,115,89,40,57,34,69,104,231,228,115,118,230,227,128,136,61,69,43,38,84,22,35,44,29,13,23,32,20,29,40,99,97,17,67,66,59,94,4,97,22,90,98,25,15,22,41,74,5,58,69,48,124,157,100,113,18,75,83,101,124,36,27,37,29,23,26,37,39,19,28,30,26,32,20,36,20,16,25,31,32,32,48,31,3,38,33,53,137,58,41,37,45,41,49,73,104,62,34,27,29,34,29,26,59,64,30,63,91,23,18,39,10,11,18,24,17,15,9,12,14,21,59,28,66,17,14,28,36,27,21,17,12,11,9,13,41,26,16,12,19,42,28,76,67,22,51,88,52,20,11,32,136,73,28,25,9,12,19,21,18,14,13,11,10,11,50,144,50,23,18,156,156,20,36,32,20,20,12,22,22,22,17,24,20,23,15,14,15,19,100,84,27,19,19,33,22,28,43,18,16,34,17,16,20,32,30,12,14,36,69,44,85,21,30,19,14,18,12,7,5,5,4,2,4,5,6,8,8,12,40,36,24,15,19,37,14,21,8,8,6,6,14,8,9,1,0,0,5,4,6,5,2,-2,0,0,4,7,31,30,17,12,11,36,38,26,32,11,9,6,6,8,7,7,7,10,12,15,25,51,34,30,37,23,28,10,27,9,8,9,41,18,11,7,4,6,3,0,-2,7,8,61,116,31,43,80,120,87,24,39,19,81,44,84,84,41,12,36,24,26,18,11,6,3,0,-8,-1,3,3,12,19,76,60,85,45,45,64,138,91,45,24,61,27,17,19,19,12,5,6,3,9,17,54,29,27,29,24,41,28,32,24,53,77,90,78,40,39,41,24,23,23,28,63,45,28,19,32,27,81,77,60,20,29,34,40,40,33,24,32,16,16,21,30,20,20,27,30,28,8,31,18,17,9,6,1,2,3,12,14,16,21,31,76,60,28,18,27,17,27,27,47,7,29,10,20,19,11,5,63,13,10,10,15,25,45,60,105,196,91,63,22,27,31,25,18,28,27,25,21,13,3,4,6,5,3,6,6,3,7,11,17,61,30,41,50,52,105,67,130,212],
      "delta_lng":[0,108,43,42,2,17,37,31,15,7,23,22,14,6,-1,-6,-27,-3,-5,-21,-30,-16,-7,-17,-22,-30,-3,-3,-1,-2,0,-4,0,0,-18,1,3,5,15,7,26,197,200,56,19,4,2,-3,-44,-12,-34,-11,-8,-3,-15,-25,-37,-95,-66,-35,-19,-9,-7,-12,-7,-12,-16,-35,-22,-24,-38,-41,-40,-13,-37,-26,-119,-487,-138,-65,-47,-48,-51,-51,-11,-58,-64,-48,-90,-33,-37,-53,-29,-32,-47,-68,-84,-56,-137,-77,-68,-21,-91,-51,-51,-20,-15,-20,-34,-27,-23,-12,-6,-1,10,11,8,4,33,51,13,7,3,0,-11,-8,-31,-27,-6,-3,0,4,7,7,3,57,24,1,-4,-1,-3,-3,-27,-52,-10,-11,-20,-21,-10,-7,-11,-4,-6,-33,-19,-14,-5,0,1,1,0,1,-2,-3,-7,-25,-23,-13,-8,-4,-1,-3,4,-1,-6,-7,-10,-19,-11,-20,-35,-16,-18,-23,-11,-29,-31,-171,-82,-20,-11,-3,2,13,23,28,9,5,8,1,4,6,46,15,10,2,-3,-11,-42,-15,-11,-56,-38,-50,-38,-29,-20,-92,-114,-66,-182,-53,-109,-91,-76,-54,-18,-27,-47,-34,-60,-27,-46,-8,-4,3,18,7,119,81,32,19,75,8,62,105,135,127,75,32,8,3,3,1,-4,-13,-57,-46,-27,-31,-21,-31,-25,-34,-40,-55,-8,-60,-42,-47,-27,-56,-32,-34,-35,-40,-54,-45,-54,-24,-41,-36,-104,-203,-44,-157,-67,-60,-103,-83,-37,-44,-42,-14,-21,-42,-96,-73,-32,-46,-24,-40,-51,-113,-110,-56,-57,-111,-111,-62,-64,-35,-38,-30,-25,-73,-25,-43,-58,-48,-30,-51,-77,-58,-94,-131,-308,-307,-55,-212,-226,-205,-332,-12,-339,-75,-323,-352,-81,-41,-44,-68,-90,-7,-60,-55,-35,-84,-98,-59,-69,-11,-45,-50,-62,-74,-17,-8,-3,-1,2,7,16,22,16,32,44,39,65,47,105,63,35,38,37,24,19,21,9,0,5,2,4,9,4,0,-4,-11,-18,-25,-42,-59,-37,-18,-18,-19,-28,-23,-15,-34,-32,-12,-24,-35,-9,-7,-20,-6,-8,-17,-32,-22,-18,-10,-12,-9,-9,-18,-9,-14,-4,-5,-15,-25,-23,-23,-25,-18,-21,-20,-40,-112,-61,-33,-18,-22,-44,-35,-84,-76,-21,-45,-77,-48,-14,-6,-12,-56,-29,-12,-13,-7,-11,-19,-28,-26,-25,-22,-13,-12,-10,-33,-95,-33,-15,-11,-102,-103,-13,-21,-24,-16,-22,-16,-30,-34,-44,-35,-54,-53,-43,-29,-18,-13,-16,-68,-55,-18,-10,-6,-8,-3,0,3,4,5,13,10,12,19,31,31,15,17,54,101,64,120,28,44,27,24,36,30,21,27,32,51,58,39,31,29,27,20,22,62,59,40,21,26,40,14,24,14,19,23,48,94,64,59,13,52,60,66,27,33,31,30,38,30,25,18,25,87,87,45,24,21,65,68,44,60,22,23,22,25,49,46,28,20,23,21,20,27,53,31,30,45,35,49,23,69,22,15,13,51,25,18,16,19,33,36,48,95,33,50,176,329,88,123,226,347,252,71,111,55,234,130,240,242,118,20,107,65,51,39,45,35,48,49,63,50,40,11,40,39,109,93,121,63,50,55,101,74,33,17,46,29,27,34,44,47,30,67,40,37,46,122,64,54,35,16,12,1,-1,-6,-27,-44,-57,-43,-17,-9,-4,2,7,12,22,63,40,17,11,14,7,6,4,6,2,6,12,24,30,32,27,45,32,40,80,122,60,56,58,62,52,17,69,38,40,39,42,76,37,26,30,31,22,22,23,40,31,15,13,27,30,57,71,120,17,72,27,50,47,50,29,295,56,45,22,23,23,36,29,44,84,41,28,12,21,29,31,31,66,68,58,58,63,32,109,90,131,51,160,105,34,30,28,34,105,45,51,49,43,70,46,85,139]
    }
  ]
}