{
  "code":11808,
  "id":"4d4ab7",
  "name":"JR予土線(しまんとグリーンライン)",
  "name_kana":"じぇいあーるよどせん",
  "name_formal":"JR予土線",
  "station_size":22,
  "company_code":5,
  "color":"#009257",
  "symbol":"G",
  "station_list":[
    {"code":1180160,"id":"55d0a6","name":"窪川","name_kana":"くぼかわ","lat":33.212656,"lng":133.137285,"prefecture":39,"numbering":[{"symbol":"K","color":"#E25885","index":"26"}],"lines":[11801,11808,99814],"attr":"heat","postal_code":"786-0013","address":"高岡郡四万十町琴平町","next":[1180804,1180159,1180805,9981403,1180802],"voronoi":{"lat":33.132516,"lng":133.279937,"delta_lat":[0,173067,-383,-13509,-124326],"delta_lng":[0,-234728,42,4732,97508]}},
    {"code":1180802,"id":"257e33","name":"若井","name_kana":"わかい","lat":33.18807,"lng":133.105937,"prefecture":39,"numbering":[{"index":"27"}],"lines":[11808,99814],"attr":"heat","postal_code":"786-0068","address":"高岡郡四万十町若井","next":[1180804,9981403,1180803,1180160],"voronoi":{"lat":33.29169,"lng":133.049984,"delta_lat":[0,-86898,-45671,8243],"delta_lng":[0,14645,39098,43765]}},
    {"code":1180803,"id":"494b85","name":"家地川","name_kana":"いえぢがわ","lat":33.1614,"lng":133.074784,"prefecture":39,"numbering":[{"index":"28"}],"lines":[11808],"attr":"heat","postal_code":"786-0064","address":"高岡郡四万十町家地川","next":[9981403,1180804,1180802,9981404],"voronoi":{"lat":33.159122,"lng":133.103727,"delta_lat":[0,45671,-93496,21622],"delta_lng":[0,-39098,-30069,51224]}},
    {"code":1180804,"id":"f6f445","name":"打井川","name_kana":"うついがわ","lat":33.175455,"lng":133.031082,"prefecture":39,"numbering":[{"index":"29"}],"lines":[11808],"attr":"heat","postal_code":"786-0322","address":"高岡郡四万十町打井川","next":[1180160,1180803,9981411,1180802,1180805,9981404],"voronoi":{"lat":33.107484,"lng":133.030586,"delta_lat":[0,488,197227,-13509,-86898,-93496],"delta_lng":[0,-54170,68835,4732,14645,-30069]}},
    {"code":1180805,"id":"8e9d02","name":"土佐大正","name_kana":"とさたいしょう","lat":33.194815,"lng":132.975612,"prefecture":39,"numbering":[{"index":"30"}],"lines":[11808],"attr":"heat","postal_code":"786-0301","address":"高岡郡四万十町大正田野々","next":[9981411,1180159,1180806,1180157,1180804,9981415,1180160,9981502,9981413,9981412],"voronoi":{"lat":33.107973,"lng":132.976416,"delta_lat":[0,197227,383,4265,101749,-312233,-1897,-38,2444,2407],"delta_lng":[0,68835,-42,-1156,-41664,-100747,6793,252,40007,11420]}},
    {"code":1180806,"id":"dde596","name":"土佐昭和","name_kana":"とさしょうわ","lat":33.220047,"lng":132.897413,"prefecture":39,"numbering":[{"index":"31"}],"lines":[11808],"attr":"cool","postal_code":"786-0511","address":"高岡郡四万十町昭和","next":[9981502,9981503,9980713,1180805,1180807,1180709,1180809,1180157],"voronoi":{"lat":33.510456,"lng":132.982408,"delta_lat":[0,-150,-717,-346823,-62477,-1213,287,312233],"delta_lng":[0,-3573,-1658,-123614,22919,21346,3815,100747]}},
    {"code":1180807,"id":"736480","name":"十川(高知)","original_name":"十川","name_kana":"とおかわ","lat":33.234869,"lng":132.855827,"prefecture":39,"numbering":[{"index":"32"}],"lines":[11808],"attr":"cool","postal_code":"786-0504","address":"高岡郡四万十町十川","next":[1180809,1180811,1180711,1180806,1180710,1180814,1180709,1180808],"voronoi":{"lat":33.162766,"lng":132.853563,"delta_lat":[0,346823,-27386,-22344,-40378,-50800,-97746,-103182],"delta_lng":[0,123614,-78819,-45680,-60568,-5251,9614,53199]}},
    {"code":1180808,"id":"30cfab","name":"半家","name_kana":"はげ","lat":33.201666,"lng":132.791428,"prefecture":39,"numbering":[{"index":"33"}],"lines":[11808],"attr":"cool","postal_code":"787-1606","address":"四万十市西土佐半家","next":[1180809,1180811,1180810,1180807],"voronoi":{"lat":33.270935,"lng":132.796473,"delta_lat":[0,-58016,-20732,-24434],"delta_lng":[0,-28074,12357,68916]}},
    {"code":1180809,"id":"5bbe22","name":"江川崎","name_kana":"えかわさき","lat":33.178104,"lng":132.783074,"prefecture":39,"numbering":[{"index":"34"}],"lines":[11808],"attr":"eco","postal_code":"787-1601","address":"四万十市西土佐江川崎","next":[1180807,1180808,9981504,9981506,1180806,9981508,9981505,1180810,9981507,9981503],"voronoi":{"lat":33.072975,"lng":132.822425,"delta_lat":[0,-5100,-1080,-3483,2520,1055,125300,-24434,-4987,-62477],"delta_lng":[0,-22117,-12707,-65092,-11336,-3733,73315,68916,3891,22919]}},
    {"code":1180810,"id":"c23d00","name":"西ヶ方","name_kana":"にしがほう","lat":33.187309,"lng":132.767342,"prefecture":39,"numbering":[{"index":"35"}],"lines":[11808],"attr":"eco","postal_code":"787-1602","address":"高知県四万十市西土佐西ヶ方馬引田","next":[1180811,1180813,1180809,1180812,1180808,9981508],"voronoi":{"lat":33.079405,"lng":132.648058,"delta_lat":[0,85050,29016,19449,-20732,-125300],"delta_lng":[0,59632,28362,32347,12357,-73315]}},
    {"code":1180811,"id":"55f49d","name":"真土","name_kana":"まつち","lat":33.223996,"lng":132.745283,"prefecture":38,"numbering":[{"index":"36"}],"lines":[11808],"attr":"heat","postal_code":"798-2112","address":"北宇和郡松野町大字蕨生","next":[1180814,1180810,1180807,1180812,1180808],"voronoi":{"lat":33.212919,"lng":132.768398,"delta_lat":[0,-19449,83982,91229,-97746],"delta_lng":[0,-32347,3213,47594,9614]}},
    {"code":1180812,"id":"1c29a5","name":"吉野生","name_kana":"よしのぶ","lat":33.224612,"lng":132.72918,"prefecture":38,"numbering":[{"index":"37"}],"lines":[11808],"attr":"heat","postal_code":"798-2111","address":"北宇和郡松野町大字吉野","next":[1180814,1180813,1180811,1180810],"voronoi":{"lat":33.164455,"lng":132.707689,"delta_lat":[0,93040,19958,-83982],"delta_lng":[0,16986,14589,-3213]}},
    {"code":1180813,"id":"698b5b","name":"松丸","name_kana":"まつまる","lat":33.228325,"lng":132.708843,"prefecture":38,"numbering":[{"index":"38"}],"lines":[11808],"attr":"heat","postal_code":"798-2101","address":"北宇和郡松野町大字松丸","next":[9981508,1180815,1180812,1180810,1180740,1180814],"voronoi":{"lat":33.222879,"lng":132.676484,"delta_lat":[0,-44489,-99103,117,85050,93040],"delta_lng":[0,-37454,1788,7240,59632,16986]}},
    {"code":1180814,"id":"1d5bff","name":"出目","name_kana":"いずめ","lat":33.251805,"lng":132.691978,"prefecture":38,"numbering":[{"index":"39"}],"lines":[11808],"attr":"heat","postal_code":"798-1332","address":"北宇和郡鬼北町出目","next":[1180811,1180817,1180812,1180815,1180816,1180711,1180813,1180807,1180712],"voronoi":{"lat":33.415808,"lng":132.77095,"delta_lat":[0,-79426,-39355,-74148,34615,19958,91229,50800,-1739],"delta_lng":[0,-56281,-19755,-18430,48192,14589,47594,5251,-11304]}},
    {"code":1180815,"id":"7f5cd2","name":"近永","name_kana":"ちかなが","lat":33.255693,"lng":132.676335,"prefecture":38,"numbering":[{"index":"40"}],"lines":[11808],"attr":"heat","postal_code":"798-1300","address":"北宇和郡鬼北町","next":[1180740,1180816,1180813,1180814],"voronoi":{"lat":33.210752,"lng":132.630136,"delta_lat":[0,-32362,44489,74148],"delta_lng":[0,8893,37454,18430]}},
    {"code":1180816,"id":"845851","name":"深田","name_kana":"ふかた","lat":33.267655,"lng":132.660403,"prefecture":38,"numbering":[{"index":"41"}],"lines":[11808],"attr":"heat","postal_code":"798-1363","address":"北宇和郡鬼北町内深田","next":[1180740,1180815,1180820,1180814,1180817,1180739],"voronoi":{"lat":33.210752,"lng":132.630136,"delta_lat":[0,86275,39355,-84219,-16021,-12438],"delta_lng":[0,64777,19755,-90185,-4050,3867]}},
    {"code":1180817,"id":"045271","name":"大内","name_kana":"おおうち","lat":33.286941,"lng":132.642393,"prefecture":38,"numbering":[{"index":"42"}],"lines":[11808],"attr":"cool","postal_code":"798-1135","address":"宇和島市三間町古藤田","next":[1180820,1180814,1180816,1180818,1180712],"voronoi":{"lat":33.413417,"lng":132.679121,"delta_lat":[0,-157483,-3770,84219,79426],"delta_lng":[0,-55002,365,90185,56281]}},
    {"code":1180818,"id":"367615","name":"二名","name_kana":"ふたな","lat":33.291576,"lng":132.629122,"prefecture":38,"numbering":[{"index":"43"}],"lines":[11808],"attr":"cool","postal_code":"798-1133","address":"宇和島市三間町中野中","next":[1180820,1180819,1180735,1180712,1180817,1180713],"voronoi":{"lat":33.413605,"lng":132.63537,"delta_lat":[0,-44620,-98139,-14913,157483,923],"delta_lng":[0,-26517,10766,4499,55002,-33719]}},
    {"code":1180819,"id":"2173a1","name":"伊予宮野下","name_kana":"いよみやのした","lat":33.289023,"lng":132.605849,"prefecture":38,"numbering":[{"index":"44"}],"lines":[11808],"attr":"cool","postal_code":"798-1112","address":"宇和島市三間町宮野下","next":[1180735,1180818,1180736,1180820],"voronoi":{"lat":33.311601,"lng":132.57487,"delta_lat":[0,18464,38920,-98139],"delta_lng":[0,2316,31668,10766]}},
    {"code":1180820,"id":"cc7ffc","name":"務田","name_kana":"むでん","lat":33.282862,"lng":132.600238,"prefecture":38,"numbering":[{"index":"45"}],"lines":[11808],"attr":"cool","postal_code":"798-1113","address":"宇和島市三間町迫目","next":[1180817,1180818,1180736,1180816,1180737,1180738,1180819,1180739],"voronoi":{"lat":33.236312,"lng":132.620193,"delta_lat":[0,49062,5617,20610,-40755,-14913,-3770,-16021],"delta_lng":[0,-49269,-959,4905,44750,4499,365,-4050]}},
    {"code":1180739,"id":"180cfb","name":"北宇和島","name_kana":"きたうわじま","lat":33.239442,"lng":132.569643,"prefecture":38,"numbering":[{"index":"46"}],"lines":[11807,11808],"attr":"eco","postal_code":"798-0024","address":"宇和島市伊吹町北通り","next":[1180738,1180816,1180820,1180737,1180740],"voronoi":{"lat":33.238297,"lng":132.532932,"delta_lat":[0,14151,-16135,-170,-12438],"delta_lng":[0,18748,68512,241,3867]}},
    {"code":1180740,"id":"d028b5","name":"宇和島","name_kana":"うわじま","lat":33.225774,"lng":132.56746,"prefecture":38,"numbering":[{"index":"47"}],"lines":[11807,11808],"attr":"eco","postal_code":"798-0034","address":"宇和島市錦町","next":[1180815,1190657,1180816,1180813,9981508,1190656,1180737,1180739],"voronoi":{"lat":33.210752,"lng":132.630136,"delta_lat":[0,-32362,-99103,-166978,150152,38737,137098,-14592],"delta_lng":[0,8893,1788,-334961,-42212,-9539,278827,91368]}}
  ],
  "north":33.29202,
  "south":33.15623,
  "east":133.13734,
  "west":132.56717,
  "polyline_list":[
    {
      "start":"若井",
      "end":"窪川",
      "lat":33.18838,
      "lng":133.10605,
      "delta_lat":[0,47,33,59,107,0,5,4,8,26,15,68,26,85,27,29,17,18,18,36,61,38,34,38,4,7,8,10,40,71,138,51,76,37,21,16,11,2,16,18,22,18,44,39,27,7,49,76,93,46,51,21,23,3,16,17,14,9,7,17,16,13,23,16,20,23,21,23,13,12,36,13,23,22,29,2,54,85,27,69],
      "delta_lng":[0,41,35,81,156,1,6,6,12,42,33,167,69,215,55,52,29,44,49,114,189,104,70,69,6,10,11,18,45,70,136,53,93,55,39,44,27,7,54,42,32,19,30,19,9,2,9,9,12,9,21,13,17,2,14,21,31,28,32,104,104,55,59,31,23,25,11,9,5,4,8,1,0,3,0,0,3,2,1,3]
    },
    {
      "start":"北宇和島",
      "end":"若井",
      "lat":33.2389,
      "lng":132.56975,
      "delta_lat":[0,67,138,39,54,13,13,30,101,23,16,16,22,11,14,31,63,23,38,43,27,48,70,0,29,24,29,35,32,15,21,45,23,17,27,39,46,35,15,55,21,40,18,50,33,23,24,36,26,30,40,36,20,53,32,34,18,22,50,21,16,25,29,18,26,88,7,51,45,35,19,42,31,36,36,22,21,37,34,41,56,58,92,34,20,30,65,3,62,21,22,7,22,15,12,9,29,9,9,14,37,34,63,25,24,60,46,30,25,38,23,19,26,62,30,99,10,14,15,15,25,66,70,110,60,21,15,10,20,16,13,9,8,9,10,13,15,14,13,12,18,14,26,166,125,18,25,20,74,37,9,5,2,-1,6,11,65,16,18,28,29,6,0,-3,-2,-7,-8,0,2,3,6,51,32,10,11,7,5,2,-2,-2,-5,-15,-32,-27,-14,-15,-23,-68,-63,-12,-74,-92,-53,-206,-197,-162,-30,-19,-26,-54,-20,-47,-57,-22,-30,-27,-32,-18,-8,-12,-14,-20,-25,-84,-27,-23,-29,-36,-35,-31,-25,-37,-26,-20,-23,-20,-55,-50,-38,-18,-13,-14,-18,-24,-27,-32,-38,-138,-69,-72,-19,-22,-24,-19,-124,-220,-65,-24,-25,-22,-27,-42,-37,-19,-3,-26,-24,-20,-17,-18,-13,-111,-121,-24,-8,-34,-30,-40,-15,-45,-11,-22,-3,-7,0,5,4,27,4,2,-2,-9,-22,-18,-29,-60,-47,-27,-49,-67,-18,-72,-82,-32,-54,-36,-24,-18,-10,-10,-7,-4,-10,-6,-7,-9,-6,-10,-15,-23,-26,-31,-5,-9,-20,-18,-31,-12,-76,-54,-51,-34,-49,-83,-112,-92,-22,-42,-16,-15,-18,-24,-21,-17,-41,-47,-39,-9,-90,-97,-135,-62,-41,-20,-20,-27,-24,-19,-18,-26,-14,-14,-41,-26,-31,-9,-11,-42,-14,-31,-9,-19,-31,-8,2,0,4,7,7,11,24,61,6,9,46,31,46,39,20,20,6,1,0,-7,-25,-13,-31,-27,-18,-20,-9,-10,-23,-14,-27,-20,-27,-20,-24,-36,-139,-43,-43,-33,-44,-12,-20,-18,-23,-27,-6,-7,-6,-2,3,9,12,17,20,21,23,26,28,17,11,16,5,2,-4,-16,-19,-9,-37,-4,-14,-9,-1,1,6,13,10,0,-9,-9,-18,-26,-32,-24,-36,-28,-29,-31,-40,-23,-33,-36,-49,-87,-38,-55,-76,-94,-73,-42,-88,-63,-34,-60,-43,-10,-6,-17,-11,-3,-1,15,3,0,0,-9,-24,-28,-30,-29,-45,-56,-38,-39,-13,-32,-51,-37,-40,-53,-27,-27,-54,-47,-29,-29,-29,-56,-67,-119,-48,-10,-36,-32,-74,-77,-66,-44,-48,-56,-15,-22,-45,-110,-72,-1,-7,-12,-73,-45,-45,-43,-33,-36,-3,-13,-15,-20,-103,-21,-22,-22,-47,-31,-39,-61,-58,-208,-116,-47,-62,-14,-34,-24,-32,-24,-18,-18,-42,-38,-26,-50,-25,-34,-14,-20,-42,-40,-51,-70,-21,-11,-11,-20,-11,-18,-4,-5,0,2,4,9,12,9,7,6,25,100,48,26,14,8,8,4,0,-2,-4,-9,-23,-29,-12,-6,-3,-17,-9,-3,-4,-4,2,8,15,11,20,16,22,24,27,5,47,70,33,146,80,100,97,99,66,45,27,42,39,17,36,22,20,21,35,25,34,25,33,4,32,5,4,16,22,87,107,72,19,20,9,13,32,35,27,29,27,55,79,43,13,20,23,11,76,31,43,40,43,6,8,44,29,45,34,13,11,18,42,25,51,11,65,16,108,35,32,23,17,19,8,5,13,5,10,2,3,5,17,17,5,28,18,33,30,27,1,45,15,19,20,121,40,12,35,2,43,27,23,44,9,9,15,1,10,6,103,87,11,48,68,32,6,24,3,62,41,88,3,48,4,114,13,29,3,259,84,2,13,29,37,28,33,28,28,10,6,2,1,-5,-27,-4,-3,-6,-2,-3,-8,-1,-1,-20,-50,-27,2,1,0,8,7,6,19,20,5,3,20,16,1,4,18,18,156,166,7,87,54,29,22,20,8,4,19,18,19,20,6,5,7,2,2,15,13,8,9,12,11,29,26,13,16,4,5,14,2,18,3,9,3,0,0,1,-3,-6,-5,-2,-6,-14,-11,-3,-29,-34,-38,-26,-41,-33,-7,-20,-17,-23,-4,-18,-43,-42,-7,-40,-35,-46,-68,-40,-22,-13,-23,-35,-34,-29,-32,-27,-29,-67,-25,-16,-9,-5,-5,-14,-43,-11,-42,-2,-9,-6,-4,-8,0,-18,-31,-23,-35,-8,-22,-11,-3,-1,-7,-2,-13,-5,-3,-21,-5,0,-7,0,-3,-2,-4,-2,-2,-7,-6,-10,-13,-14,-5,-17,-16,-5,-22,-26,-17,-21,-18,-18,-27,-30,-2,-11,-27,-24,-31,-30,-31,-14,-28,-12,-13,-11,-10,-8,-2,-5,-6,-3,-5,-6,-1,-5,-12,-29,-2,0,-5,-2,-18,-17,-12,-11,-7,-9,-9,-8,-7,-8,-8,-9,-9,-6,-16,-5,-7,-2,-3,-6,-2,2,0,0,5,2,6,3,10,4,14,0,28,29,40,34,31,24,1,11,22,12,6,2,2,1,-1,-7,-4,-5,-3,-10,-25,-6,-16,-9,-10,-23,-27,-46,-60,-78,-9,-36,-53,-7,-40,-108,-22,-127,-27,-18,-22,-18,-16,-20,-18,-14,-15,-14,-9,-15,-25,-5,-33,-6,-23,-20,-5,-2,-12,-13,-15,-11,-17,-10,-10,-19,-2,-15,-22,-24,0,-7,-13,-16,-11,-11,-4,-9,-14,-23,-11,-18,-6,-28,-10,-3,-5,-11,-15,-20,-1,-5,-17,-7,-10,-2,-11,-13,-11,-13,-13,-12,-12,-14,-14,-8,-14,-11,-11,-13,-21,-16,-20,-15,-22,-30,-40,-27,-33,-1,-24,-14,-34,-15,-17,-4,-42,-56,-136,-6,-56,-4,-105,-50,-43,-27,-38,-24,-23,-27,-22,-30,-20,-25,-42,-35,-21,-23,-40,-42,-39,-41,-41,-42,-40,-42,-44,-35,-32,-56,-52,-30,-21,-20,-24,-37,-44,-36,-40,-12,-22,-29,-29,-27,-27,-25,-24,-25,-13,-11,-7,-5,1,3,10,14,15,18,25,84,45,21,93,9,12,13,16,8,10,36,24,15,9,7,43,9,9,20,11,9,7,8,5,2,1,4,-2,-7,-2,-1,-8,-7,-11,-31,-21,-35,-56,-33,-24,-53,-51,-41,-15,-5,-16,-13,-9,-9,-11,0,4,3,4,5,6,5,4,-2,-12,-12,-7,-7,-18,-16,-31,-2,-67,-86,-15,-15,-18,-14,-5,-9,-39,-34,-21,-19,-19,-6,-4,-1,5,1,1,2,3,0,4,4,-2,-3,0,0,-1,-2,0,0,-2,0,0,-1,-3,-4,-5,-8,-5,-8,-11,-14,-11,-22,-21,-20,-69,-14,-4,-12,-7,-6,-4,2,3,5,14,7,2,-2,-4,-12,-19,-24,-18,-11,-17,-34,-46,-24,-17,-15,-18,-20,-21,-12,-12,-12,-15,-13,-27,-35,-24,-16,-22,-15,-14,-24,-26,-26,-14,-25,-12,-15,-23,-21,-23,-22,-13,-9,-13,-3,-26,-49,-71,-71,-20,-41,-132,-2,-48,-32,-29,-33,-9,-7,-2,0,1,4,5,7,2,4,6,4,75,3,16,13,11,8,5,1,2,0,0,3,8,7,4,1,0,-5,-5,-13,-24,-26,-29,-15,-23,-66,-14,-35,-26,-18,-18,-11,-17,-39,-10,-34,-16,-49,-31,-7,-1,-1,-1,-6,0,4,10,9,15,22,27,13,21,43,27,1,23,15,7,59,27,42,34,98,97,112,146,6,132,103,62,99,92,38,133,197,137,177,116,65,41,24,21,15,27,21,15,18,22,22,23,69,12,42,21,20,33,34,21,24,44,3,24,2,27,117,57,50,33,28,2,27,67],
      "delta_lng":[0,-7,-17,10,18,8,11,42,137,39,35,51,71,24,16,23,34,7,9,4,0,-13,-26,-1,-12,-6,-5,0,9,9,18,45,24,11,10,13,4,0,1,17,17,26,9,32,31,20,17,19,11,18,27,29,11,20,15,18,18,28,94,30,18,16,9,4,4,-1,0,4,10,11,15,29,18,14,10,12,18,35,23,12,17,21,37,15,14,31,79,6,82,42,52,13,29,25,30,37,116,21,15,7,19,9,10,0,-7,-24,-23,-11,-8,-13,-4,4,17,46,28,119,21,55,56,26,27,57,66,117,65,25,23,32,55,78,76,63,58,51,30,28,21,14,9,7,10,5,10,59,45,12,22,29,107,73,31,31,43,107,35,35,167,54,87,153,181,52,34,60,193,364,284,81,47,27,31,141,85,31,42,40,44,42,98,135,27,74,125,85,32,26,32,92,76,14,85,103,56,219,203,170,30,10,5,1,0,3,8,12,29,36,54,43,38,21,26,30,26,74,17,11,7,3,4,5,14,22,14,18,26,39,136,157,125,40,18,18,17,18,14,12,11,42,19,23,8,10,14,17,125,218,66,18,16,11,4,8,4,5,0,13,14,17,23,28,43,372,402,64,22,90,81,129,58,179,59,130,57,79,29,45,26,117,34,41,21,39,66,30,51,92,74,44,57,54,14,53,64,24,39,35,29,26,22,32,29,30,83,68,63,31,36,31,32,43,33,34,3,7,11,6,8,3,16,17,25,24,30,59,72,65,12,16,4,1,0,-6,-8,-6,-23,-29,-25,-2,-15,-14,-23,-10,-1,1,5,7,16,15,17,27,19,29,90,54,67,20,21,94,27,71,23,37,78,30,53,18,34,23,19,20,24,59,9,15,72,48,48,49,32,41,21,25,24,37,98,60,142,116,76,81,39,32,54,25,47,26,36,22,28,27,108,39,45,38,59,13,23,24,40,60,18,26,44,38,37,44,45,33,37,30,24,32,37,28,27,58,49,23,34,42,54,21,82,9,38,31,41,66,39,61,79,24,65,39,78,62,50,32,28,22,20,16,20,6,5,-8,-15,-44,-21,-29,-38,-37,-21,-4,7,23,21,50,37,11,10,49,50,29,37,115,59,18,64,109,171,132,133,98,100,106,46,33,8,16,12,4,-6,-25,-22,-37,-96,-97,-47,-34,-22,-30,-19,-18,-3,-1,4,8,24,31,33,19,24,29,11,17,38,122,83,1,8,17,90,62,64,72,63,89,7,25,19,17,67,8,8,4,2,-2,-8,-19,-21,-86,-50,-16,-13,0,-1,1,4,7,2,3,4,5,8,16,9,21,10,26,55,46,56,80,32,21,25,76,38,42,19,26,29,18,27,34,40,28,14,16,62,245,111,96,59,44,71,73,31,40,36,39,68,79,35,20,10,60,43,18,41,61,48,49,52,25,38,22,29,25,17,4,20,20,6,13,15,17,29,40,34,29,21,43,49,31,64,31,18,16,10,3,-4,-8,-17,-1,-25,-2,-7,-15,-32,-143,-173,-119,-29,-32,-10,-13,-26,-26,-16,-9,-4,-5,3,7,4,5,9,3,29,19,34,42,56,7,12,65,46,68,50,19,19,23,53,25,54,13,73,17,119,37,45,40,40,49,46,60,239,58,46,8,10,12,36,36,10,47,20,35,23,17,1,21,6,6,2,10,5,2,5,1,10,10,10,31,8,9,14,1,12,6,129,104,15,50,59,22,5,16,3,39,23,43,1,23,1,50,8,15,1,119,43,1,9,25,29,34,54,56,66,31,34,26,24,96,302,24,42,60,16,30,85,5,9,193,486,251,13,41,54,77,36,26,64,70,13,13,65,54,4,23,43,30,221,237,12,122,76,42,40,39,17,11,52,56,82,87,27,27,36,6,7,63,58,32,39,43,43,115,116,64,81,20,20,71,10,101,15,73,50,93,23,40,106,71,49,2,58,71,47,12,92,84,78,46,66,53,9,31,20,26,6,19,42,38,7,34,33,44,64,39,21,12,22,37,34,31,37,36,41,92,34,21,13,7,9,24,110,32,117,1,27,24,11,15,3,33,61,44,68,16,45,33,9,7,22,12,51,20,13,88,18,7,71,15,78,26,31,10,28,30,24,21,33,30,8,28,26,6,24,29,17,23,18,20,25,27,1,11,27,23,33,38,39,24,42,18,25,23,24,20,18,20,36,12,45,55,9,42,80,193,20,2,48,12,122,122,60,86,51,59,70,54,52,61,52,50,58,53,109,32,40,17,36,70,75,52,20,11,71,12,48,16,48,15,49,2,76,66,74,65,55,59,1,32,63,47,37,14,34,19,51,66,22,23,8,36,53,9,25,12,14,28,30,43,52,59,6,27,39,5,29,84,16,96,23,19,26,28,30,44,63,97,148,126,46,74,100,26,135,30,96,85,36,13,40,56,56,56,68,46,42,80,10,65,99,98,9,25,55,66,48,51,19,36,58,99,52,82,9,117,44,13,27,53,58,85,7,14,71,34,45,11,44,52,49,51,55,55,50,44,42,18,26,22,22,18,23,13,13,9,11,10,8,3,1,0,-1,-1,-6,-2,-3,0,-11,-17,-42,-3,-26,-2,-54,-24,-14,-8,-5,2,2,6,8,8,9,13,26,20,11,14,23,23,24,22,24,25,22,24,25,20,18,30,33,18,16,11,16,21,27,21,21,8,13,18,23,26,28,30,31,49,32,35,46,76,32,28,51,45,45,37,46,143,66,33,145,14,19,21,25,11,17,57,38,25,15,13,76,13,15,34,22,24,22,39,33,38,33,32,36,48,15,18,29,28,24,62,30,44,59,35,23,60,56,45,19,5,27,24,23,33,64,40,101,34,55,24,37,28,14,15,95,70,24,26,37,25,31,2,63,81,15,17,19,15,9,14,75,77,61,66,91,34,39,60,87,12,24,28,49,9,65,121,216,186,5,4,53,111,17,1,82,1,26,177,179,71,72,76,29,46,51,49,33,55,45,40,144,32,9,27,23,29,31,46,31,25,59,34,30,44,15,53,44,46,33,18,30,69,96,52,24,23,22,22,18,11,11,15,13,8,13,18,14,13,15,17,18,38,46,59,35,64,40,48,81,73,77,62,37,16,26,5,45,74,102,101,28,58,189,3,69,48,54,75,23,27,30,22,22,24,22,17,5,7,13,11,163,4,39,33,26,28,20,24,37,25,79,59,67,53,25,31,34,28,26,40,54,49,47,23,29,77,21,46,41,36,40,36,51,122,28,104,54,146,100,24,10,3,12,86,18,52,67,50,68,69,79,29,41,68,38,1,30,17,7,62,24,30,15,25,16,19,25,1,21,18,7,16,13,4,21,35,21,32,19,15,13,9,10,8,18,15,12,15,16,17,18,53,9,33,17,14,18,13,6,3,1,0,0,0,0,7,7,10,11,8,1,10,44]
    },
    {
      "start":"宇和島",
      "end":"北宇和島",
      "lat":33.22576,
      "lng":132.56717,
      "delta_lat":[0,85,29,34,2,13,34,31,19,13,42,53,57,64,50,45,196,26,29,157,211,124],
      "delta_lng":[0,108,43,42,2,17,37,31,15,7,23,22,14,6,-1,-6,-27,-3,-5,-21,-30,-16]
    }
  ]
}