{
  "code":11905,
  "id":"5df168",
  "name":"JR長崎本線(鳥栖～長崎)",
  "name_kana":"じぇいあーるながさきほんせん",
  "station_size":42,
  "company_code":6,
  "station_list":[
    {"code":1190316,"id":"8994c0","name":"鳥栖","name_kana":"とす","lat":33.373864,"lng":130.519374,"prefecture":41,"lines":[11903,11905],"attr":"heat","postal_code":"841-0034","address":"鳥栖市京町","next":[3600122,101002,1190315,1190317,3600121],"voronoi":{"lat":33.37193,"lng":130.535809,"delta_lat":[0,16482,-25043,-11845,18288],"delta_lng":[0,-32639,3177,11963,17839]}},
    {"code":101002,"id":"61e338","name":"新鳥栖","name_kana":"しんとす","lat":33.370278,"lng":130.491111,"prefecture":41,"lines":[1010,11905],"attr":"heat","postal_code":"841-0071","address":"佐賀県鳥栖市原古賀町字一本松220-2","open_date":"2011-03-12","next":[1190502,1190315,1190312,1190317,1190316,1190314,1190313],"voronoi":{"lat":33.432788,"lng":130.466078,"delta_lat":[0,2667,-76699,4612,25043,10785,22542],"delta_lng":[0,-4054,25345,18977,-3177,-4435,-19085]}},
    {"code":1190502,"id":"572845","name":"肥前麓","name_kana":"ひぜんふもと","lat":33.36578,"lng":130.477499,"prefecture":41,"lines":[11905],"attr":"heat","postal_code":"841-0076","address":"鳥栖市平田町","next":[101002,1190503,1190102,1190312,1190317],"voronoi":{"lat":33.33672,"lng":130.468836,"delta_lat":[0,95036,9488,-5788,-76699],"delta_lng":[0,-49580,35648,7120,25345]}},
    {"code":1190503,"id":"5a6476","name":"中原","name_kana":"なかばる","lat":33.346241,"lng":130.440046,"prefecture":41,"lines":[11905],"attr":"heat","postal_code":"849-0101","address":"三養基郡みやき町原古賀","next":[1190502,3600130,1190102,1190317,3600129,1190504,101003],"voronoi":{"lat":33.314958,"lng":130.462942,"delta_lat":[0,-8712,-6162,130790,881,-95036,-6944],"delta_lng":[0,-10652,-13799,-68876,49641,49580,496]}},
    {"code":1190504,"id":"1c4ace","name":"吉野ヶ里公園","name_kana":"よしのがりこうえん","lat":33.324917,"lng":130.399553,"prefecture":41,"lines":[11905],"attr":"heat","postal_code":"842-0031","address":"佐賀県神埼郡吉野ヶ里町吉田","next":[3600130,1190505,3600132,1190102,1190503,3600133,9990705],"voronoi":{"lat":33.429382,"lng":130.347641,"delta_lat":[0,-162779,1279,12203,19999,130790,1443],"delta_lng":[0,58779,2492,14923,14657,-68876,-7440]}},
    {"code":1190505,"id":"075a1c","name":"神埼","name_kana":"かんざき","lat":33.315851,"lng":130.374446,"prefecture":41,"lines":[11905],"attr":"heat","postal_code":"842-0002","address":"神埼市神埼町田道ケ里","next":[3600134,1190504,9990701,1190506,9990705,9990703,3600133,9990704,9990702],"voronoi":{"lat":33.421056,"lng":130.282864,"delta_lat":[0,-1472,-166800,640,13180,162779,-2682,-659,-1146],"delta_lng":[0,-6603,113534,1080,15544,-58779,-31609,-5577,-7359]}},
    {"code":1190506,"id":"3cbacf","name":"伊賀屋","name_kana":"いがや","lat":33.290195,"lng":130.336753,"prefecture":41,"lines":[11905],"attr":"heat","postal_code":"849-0911","address":"佐賀市兵庫町大字若宮","next":[1190507,1190505,3600135,1192105,9990701,3600134,1190508],"voronoi":{"lat":33.219333,"lng":130.355593,"delta_lat":[0,19978,13473,166800,-756,-62712,-3192],"delta_lng":[0,23374,10828,-113534,-12759,2019,1399]}},
    {"code":1190507,"id":"e660da","name":"佐賀","name_kana":"さが","lat":33.264212,"lng":130.297608,"prefecture":41,"lines":[11905,11921],"attr":"heat","postal_code":"840-0801","address":"佐賀市駅前中央１丁目","next":[1190506,1190508,3600135,3600136],"voronoi":{"lat":33.145442,"lng":130.30041,"delta_lat":[0,207481,-133591,-6951],"delta_lng":[0,-33490,88673,-4143]}},
    {"code":1190508,"id":"54ac24","name":"鍋島","name_kana":"なべしま","lat":33.259062,"lng":130.265702,"prefecture":41,"lines":[11905,11921],"attr":"eco","postal_code":"849-0932","address":"佐賀市鍋島町大字八戸溝","next":[1190509,1190507,1190518,1192105,1190506,3600136],"voronoi":{"lat":33.352924,"lng":130.26692,"delta_lat":[0,3192,-32895,-194719,-9597,26538],"delta_lng":[0,-1399,-13098,14721,18247,15019]}},
    {"code":1190509,"id":"ed39bd","name":"バルーンさが","name_kana":"ばるーんさが","lat":33.257795,"lng":130.248942,"prefecture":41,"lines":[11905,11921],"attr":"eco","postal_code":"840-0864","address":"佐賀市嘉瀬町荻野字黒木篭","next":[1190508,1192105,1190510,1190518],"voronoi":{"lat":33.135111,"lng":130.252333,"delta_lat":[0,157526,30584,-194719],"delta_lng":[0,-16918,17009,14721]}},
    {"code":1190510,"id":"e23b8c","name":"久保田(佐賀)","name_kana":"くぼた","lat":33.255717,"lng":130.229594,"prefecture":41,"lines":[11905,11921],"attr":"eco","postal_code":"849-0202","address":"佐賀市久保田町久富","next":[1192105,1190509,1190518,1190512,1190511],"voronoi":{"lat":33.267491,"lng":130.210987,"delta_lat":[0,25145,-157526,1187,7488],"delta_lng":[0,24427,16918,-3351,-3979]}},
    {"code":1190511,"id":"8bac4d","name":"牛津","name_kana":"うしづ","lat":33.247859,"lng":130.201016,"prefecture":41,"lines":[11905],"attr":"cool","postal_code":"849-0302","address":"小城市牛津町柿樋瀬","next":[1190512,1192106,1192105,1190510],"voronoi":{"lat":33.267491,"lng":130.210987,"delta_lat":[0,-2463,-9249,-111994],"delta_lng":[0,-39931,-6007,79953]}},
    {"code":1190512,"id":"118cdc","name":"肥前山口","name_kana":"ひぜんやまぐち","lat":33.21919,"lng":130.160858,"prefecture":41,"lines":[11905,11918],"attr":"cool","postal_code":"849-0501","address":"杵島郡江北町大字山口","next":[1192106,1190511,1190513,1192107,1190518,1191802,1190510],"voronoi":{"lat":33.136476,"lng":130.235157,"delta_lat":[0,77615,32110,300,9279,-111994,-7488],"delta_lng":[0,-101314,-3967,398,34776,79953,3979]}},
    {"code":1190513,"id":"d42a57","name":"肥前白石","name_kana":"ひぜんしろいし","lat":33.186679,"lng":130.135952,"prefecture":41,"lines":[11905],"attr":"cool","postal_code":"849-1112","address":"杵島郡白石町大字福田","next":[1190512,1190518,1191802,1190517,1190514],"voronoi":{"lat":33.177026,"lng":130.101507,"delta_lat":[0,37064,-77615,-146,-1860],"delta_lng":[0,32335,101314,-842,-23165]}},
    {"code":1190514,"id":"ba1f3c","name":"肥前竜王","name_kana":"ひぜんりゅうおう","lat":33.146663,"lng":130.12042,"prefecture":41,"lines":[11905],"attr":"cool","postal_code":"849-1204","address":"杵島郡白石町坂田","next":[1191804,1190515,1190516,1190517,1191802,1191803,1190513],"voronoi":{"lat":33.118126,"lng":130.161293,"delta_lat":[0,2461,39172,5783,8657,2827,-42557],"delta_lng":[0,-37981,-55806,4549,16189,13264,109642]}},
    {"code":1190515,"id":"9e74d4","name":"肥前鹿島","name_kana":"ひぜんかしま","lat":33.114445,"lng":130.097805,"prefecture":41,"lines":[11905],"attr":"cool","postal_code":"849-1311","address":"鹿島市大字高津原","next":[1191805,1191806,1190514,1191804,1190516,1192207],"voronoi":{"lat":33.096081,"lng":130.000184,"delta_lat":[0,10314,49047,4318,-39172,-83537],"delta_lng":[0,6944,53091,7286,55806,-83832]}},
    {"code":1190516,"id":"3a9c7f","name":"肥前浜","name_kana":"ひぜんはま","lat":33.095103,"lng":130.117079,"prefecture":41,"lines":[11905],"attr":"cool","postal_code":"849-1322","address":"鹿島市浜町","next":[1190517,1190514,1190515,1192207],"voronoi":{"lat":33.118126,"lng":130.161293,"delta_lat":[0,2461,-83537,-39089],"delta_lng":[0,-37981,-83832,18688]}},
    {"code":1190517,"id":"00300b","name":"肥前七浦","name_kana":"ひぜんななうら","lat":33.070931,"lng":130.145245,"prefecture":41,"lines":[11905],"attr":"eco","postal_code":"849-1323","address":"鹿島市大字音成","next":[1192208,1190516,1192207,1190514,1190513,1190518,1190524],"voronoi":{"lat":33.136329,"lng":130.234314,"delta_lat":[0,-1860,-16343,-120165,-775,-3424,-2066],"delta_lng":[0,-23165,-49857,-103125,225,1609,11255]}},
    {"code":1190518,"id":"d59224","name":"肥前飯田","name_kana":"ひぜんいいだ","lat":33.055701,"lng":130.158754,"prefecture":41,"lines":[11905],"attr":"eco","postal_code":"849-1324","address":"鹿島市大字飯田乙","next":[1190524,1190513,1190519,1190512,3600137,1190508,1190510,3600136,1190517,1190509],"voronoi":{"lat":33.135111,"lng":130.252333,"delta_lat":[0,1187,178,-146,-144633,-1933,119923,8083,1135,9597],"delta_lng":[0,-3351,-13825,-842,-163058,6837,211216,-3395,-523,-18247]}},
    {"code":1190519,"id":"f721f6","name":"多良","name_kana":"たら","lat":33.02524,"lng":130.176049,"prefecture":41,"lines":[11905],"attr":"eco","postal_code":"849-1602","address":"藤津郡太良町大字多良","next":[1190523,3600139,1190518,3600137,1190522,1190524,1190520,3600140],"voronoi":{"lat":33.078955,"lng":130.306207,"delta_lat":[0,6993,23738,-119923,-2953,-12254,-2028,100086],"delta_lng":[0,-3246,-13651,-211216,6201,41647,21108,161491]}},
    {"code":1190520,"id":"fb5c5e","name":"肥前大浦","name_kana":"ひぜんおおうら","lat":32.975043,"lng":130.207159,"prefecture":41,"lines":[11905],"attr":"eco","postal_code":"849-1613","address":"藤津郡太良町大字大浦丙","next":[1190521,9991215,3600140,1190330,1190329,1190328,9991216,9991214,1190519,1190522],"voronoi":{"lat":32.930443,"lng":130.243675,"delta_lat":[0,5835,16943,32183,1683,57041,26754,1733,-100086,-6510],"delta_lng":[0,16275,28034,32694,68,-4923,-6186,-1097,-161491,9338]}},
    {"code":1190521,"id":"374378","name":"小長井","name_kana":"こながい","lat":32.924075,"lng":130.186386,"prefecture":42,"lines":[11905],"attr":"eco","postal_code":"859-0165","address":"諫早市小長井町小川原浦","next":[9991212,1190520,1190522,9991214,9991213],"voronoi":{"lat":32.930443,"lng":130.243675,"delta_lat":[0,35576,-79649,7083,3594],"delta_lng":[0,-87288,33590,18017,5863]}},
    {"code":1190522,"id":"44e53c","name":"長里","name_kana":"ながさと","lat":32.91526,"lng":130.165484,"prefecture":42,"lines":[11905],"attr":"eco","postal_code":"859-0151","address":"諫早市小長井町打越","next":[1190521,9991211,1190519,9991212,1190520,1190523],"voronoi":{"lat":32.974556,"lng":130.125941,"delta_lat":[0,-2028,-6510,-79649,-7694,-4074],"delta_lng":[0,21108,9338,33590,-9541,-12500]}},
    {"code":1190523,"id":"bf3994","name":"湯江","name_kana":"ゆえ","lat":32.904811,"lng":130.140614,"prefecture":42,"lines":[11905],"attr":"eco","postal_code":"859-0132","address":"諫早市高来町三部壱","next":[9991207,1190524,1190519,9991210,1190522,9991211],"voronoi":{"lat":32.974556,"lng":130.125941,"delta_lat":[0,12254,-117551,-1188,1968,4562],"delta_lng":[0,-41647,55846,16855,4971,5970]}},
    {"code":1190524,"id":"b8d07b","name":"小江","name_kana":"おえ","lat":32.891351,"lng":130.112282,"prefecture":42,"lines":[11905],"attr":"eco","postal_code":"859-0113","address":"諫早市高来町下与","next":[1190523,1192210,1192212,1190525,1192209,1190518,9991207,1192208,1190519,9991206,1190517],"voronoi":{"lat":32.989764,"lng":130.078093,"delta_lat":[0,-2953,-117551,-5842,-344,67706,24095,18421,4007,16460,-2066],"delta_lng":[0,6201,55846,-14355,-17311,-61979,-154,3911,1223,8526,11255]}},
    {"code":1190525,"id":"5f6214","name":"肥前長田","name_kana":"ひぜんながた","lat":32.861773,"lng":130.079971,"prefecture":42,"lines":[11905],"attr":"eco","postal_code":"859-0301","address":"諫早市長田町","next":[9991204,1190524,1192212,9991205,9991206,1190526,1190527,9991203],"voronoi":{"lat":32.848464,"lng":130.085674,"delta_lat":[0,9850,4759,67706,-11481,-12735,-58028,-1592],"delta_lng":[0,18984,3816,-61979,-3341,3569,28386,3017]}},
    {"code":1190526,"id":"fbb624","name":"東諫早","name_kana":"ひがしいさはや","lat":32.852823,"lng":130.061675,"prefecture":42,"lines":[11905],"attr":"eco","postal_code":"859-0311","address":"諫早市小豆崎町","next":[9991203,1190527,1190525,9991202],"voronoi":{"lat":32.848535,"lng":130.075109,"delta_lat":[0,58028,-54715,-7868],"delta_lng":[0,-28386,4918,9789]}},
    {"code":1190527,"id":"a86fba","name":"諫早","name_kana":"いさはや","lat":32.851018,"lng":130.041596,"prefecture":42,"lines":[11905,11922,99912],"attr":"heat","postal_code":"854-0072","address":"諫早市永昌町","next":[9991202,1190526,1192212,1190528,1190525],"voronoi":{"lat":32.919299,"lng":130.043154,"delta_lat":[0,-43777,-41019,17346,54715],"delta_lng":[0,-28636,22976,14147,-4918]}},
    {"code":1190528,"id":"cbaba7","name":"西諫早","name_kana":"にしいさはや","lat":32.839632,"lng":130.021269,"prefecture":42,"lines":[11905],"attr":"heat","postal_code":"854-0075","address":"諫早市馬渡町","next":[1190529,1190531,9991202,1190527,1192212,9991203],"voronoi":{"lat":32.834503,"lng":130.037495,"delta_lat":[0,41019,-12602,-96490,-34812,52401],"delta_lng":[0,-22976,-16011,18993,20562,2964]}},
    {"code":1190529,"id":"1e5c07","name":"喜々津","name_kana":"ききつ","lat":32.832743,"lng":129.98627,"prefecture":42,"lines":[11905],"attr":"heat","postal_code":"859-0401","address":"諫早市多良見町化屋","next":[1190528,1190533,1190530,1192212,1190531],"voronoi":{"lat":32.77102,"lng":130.012965,"delta_lat":[0,62768,28194,937,-96490],"delta_lng":[0,-42247,17083,10707,18993]}},
    {"code":1190530,"id":"96bd4d","name":"市布","name_kana":"いちぬの","lat":32.818986,"lng":129.965831,"prefecture":42,"lines":[11905],"attr":"heat","postal_code":"859-0403","address":"諫早市多良見町市布","next":[1190534,1190533,1190529,1190531,1190535],"voronoi":{"lat":32.829971,"lng":129.937601,"delta_lat":[0,3818,-62768,55497,593],"delta_lng":[0,33117,42247,-79872,115]}},
    {"code":1190531,"id":"2749bd","name":"肥前古賀","name_kana":"ひぜんこが","lat":32.798463,"lng":129.951571,"prefecture":42,"lines":[11905],"attr":"heat","postal_code":"851-0131","address":"長崎市松原町","next":[9991203,9991209,1190528,1190532,1190535,1190530,9991401,9991204,1190529],"voronoi":{"lat":32.731618,"lng":130.038063,"delta_lat":[0,-42300,-80968,-18349,143913,89106,3498,-55497,-4591],"delta_lng":[0,14150,21464,1829,-118833,-25837,2257,79872,4536]}},
    {"code":1190532,"id":"3565a7","name":"現川","name_kana":"うつつがわ","lat":32.79118,"lng":129.926453,"prefecture":42,"lines":[11905],"attr":"cool","postal_code":"851-0135","address":"長崎市現川町","next":[9991402,9991401,1190536,1190531,9991306,1190535],"voronoi":{"lat":32.804614,"lng":129.902668,"delta_lat":[0,-14302,-5790,-5842,-44767,89106],"delta_lng":[0,-8456,489,6297,55675,-25837]}},
    {"code":1190533,"id":"61adfa","name":"東園(長崎)","name_kana":"ひがしその","lat":32.847091,"lng":129.962591,"prefecture":42,"lines":[11905],"attr":"cool","postal_code":"859-0411","address":"諫早市多良見町東園","next":[1190534,1190529,1190530,1192212],"voronoi":{"lat":32.833789,"lng":129.970717,"delta_lat":[0,-3818,43229,-11217],"delta_lng":[0,-33117,24052,26148]}},
    {"code":1190534,"id":"8099dd","name":"大草","name_kana":"おおくさ","lat":32.860232,"lng":129.938972,"prefecture":42,"lines":[11905],"attr":"cool","postal_code":"859-0414","address":"諫早市多良見町元釜","next":[1192209,1190533,1190530,1192212,1192211,1190535],"voronoi":{"lat":32.913441,"lng":129.870343,"delta_lat":[0,-5624,-23323,-11295,-43229,-2860],"delta_lng":[0,31880,51333,8096,-24052,-4393]}},
    {"code":1190535,"id":"57e341","name":"本川内","name_kana":"ほんかわち","lat":32.831792,"lng":129.899916,"prefecture":42,"lines":[11905],"attr":"cool","postal_code":"851-2122","address":"西彼杵郡長与町本川内郷","next":[1190536,1190537,1190531,1190530,1190532,1190534,1192209],"voronoi":{"lat":32.92641,"lng":129.843935,"delta_lat":[0,-78912,-42883,18405,3498,593,86331],"delta_lng":[0,31911,26822,28168,2257,115,-62864]}},
    {"code":1190536,"id":"85c29e","name":"長与","name_kana":"ながよ","lat":32.818981,"lng":129.879434,"prefecture":42,"lines":[11905],"attr":"cool","postal_code":"851-2126","address":"西彼杵郡長与町吉無田郷","next":[1190535,1190537,1190532,9991306,9991303,9991302,9991305],"voronoi":{"lat":32.796094,"lng":129.883244,"delta_lat":[0,4697,1832,44875,-42883,-14302,4548],"delta_lng":[0,-7105,-2515,2222,26822,-8456,-8808]}},
    {"code":1190537,"id":"eb356b","name":"高田(長崎)","name_kana":"こうだ","lat":32.819475,"lng":129.869457,"prefecture":42,"lines":[11905],"attr":"cool","postal_code":"851-2127","address":"西彼杵郡長与町高田郷","next":[1192208,9991302,1190536,1190538,1190535,1192209,9991301,1192204],"voronoi":{"lat":32.936641,"lng":129.829186,"delta_lat":[0,-10232,-78912,-44875,1661,497,122879,10310],"delta_lng":[0,14749,31911,-2222,-4731,-1113,-113069,71742]}},
    {"code":1190538,"id":"ab2f30","name":"道ノ尾","name_kana":"みちのお","lat":32.804329,"lng":129.852997,"prefecture":42,"lines":[11905],"attr":"cool","postal_code":"852-8053","address":"長崎市葉山町","next":[9991309,1192203,1190537,1192204,1192202,1190540,9991310,9991301,9991134],"voronoi":{"lat":32.485955,"lng":128.739142,"delta_lat":[0,261400,12067,12734,32624,122879,-3036,-20222,-10851],"delta_lng":[0,977989,40806,40014,69828,-113069,-42237,-110158,-55196]}},
    {"code":1190539,"id":"2ae477","name":"西浦上","name_kana":"にしうらかみ","lat":32.790245,"lng":129.859206,"prefecture":42,"lines":[11905],"attr":"cool","postal_code":"852-8044","address":"長崎市音無町","next":[9991306,9991308,9991303,9991301,9991309,9991307,9991302,9991305,9991304],"voronoi":{"lat":32.791067,"lng":129.859787,"delta_lat":[0,663,-16399,1613,6814,88,802,3391,1896],"delta_lng":[0,-1925,-45456,8938,33101,239,1168,3549,678]}},
    {"code":1190540,"id":"89254c","name":"浦上","name_kana":"うらかみ","lat":32.765767,"lng":129.863304,"prefecture":42,"lines":[11905],"attr":"cool","postal_code":"852-8108","address":"長崎市川口町","next":[9991311,9991611,9991310,1190538,9991315,9991312,9991314,9991610,9991134,9991313],"voronoi":{"lat":32.764466,"lng":129.863356,"delta_lat":[0,-9440,-14012,-16809,-284941,46691,261400,21425,-190,-1341],"delta_lng":[0,-13575,-24085,-64222,-1118993,96662,977989,140213,1901,5028]}},
    {"code":1190541,"id":"5fd6b6","name":"長崎(長崎)","name_kana":"ながさき","lat":32.753085,"lng":129.870515,"prefecture":42,"lines":[11905],"attr":"cool","postal_code":"850-0058","address":"長崎市尾上町","next":[9991321,9991315,9991319,9991318,9991317,9991316,9991320],"voronoi":{"lat":32.750674,"lng":129.870127,"delta_lat":[0,3418,-297,-2397,-5958,1905,262],"delta_lng":[0,1773,-7110,-7102,-10604,15056,1367]}}
  ],
  "north":33.37563,
  "south":32.75431,
  "east":130.52052,
  "west":129.85298,
  "polyline_list":[
    {
      "start":"さが１",
      "end":"さが２",
      "lat":33.25704,
      "lng":130.23939,
      "delta_lat":[0,1,1,4,2,5,9,10,11,16,8,12],
      "delta_lng":[0,87,4,47,33,63,115,120,148,214,68,44]
    },
    {
      "start":"さが１",
      "end":"さが２",
      "lat":33.25704,
      "lng":130.23939,
      "delta_lat":[0,15,7,1,5,7,3,14,8,10,12,0,-3],
      "delta_lng":[0,87,36,5,40,51,14,107,132,145,214,52,60]
    },
    {
      "start":"長崎",
      "end":"浦上",
      "lat":32.75431,
      "lng":129.86967,
      "delta_lat":[0,69,68,57,20,146,16,201,78,66,47,85,74,81,212,174,278,33,111,510,213,38,7,10,86,157,93,83],
      "delta_lng":[0,-39,-39,-41,-17,-120,-13,-161,-58,-42,-23,-30,-22,-16,-35,-33,-50,-6,-21,-81,-35,-1,-1,0,7,21,9,11]
    },
    {
      "start":"西諫早",
      "end":"諫早",
      "lat":32.84137,
      "lng":130.03403,
      "delta_lat":[0,1,3,4,18,13,25,31,70,141,133,84,21,21,27,23,41,68],
      "delta_lng":[0,56,46,48,63,29,40,41,75,156,145,93,16,11,8,5,4,5]
    },
    {
      "start":"西諫早",
      "end":"諫早",
      "lat":32.84137,
      "lng":130.03403,
      "delta_lat":[0,-8,-2,-4,0,1,5,7,11,14,9,14,7,17,24,69,29,25,18,29,52,33,52,93,32,24,26,19,30,28,27,43],
      "delta_lng":[0,60,50,95,46,36,42,47,49,50,22,37,18,34,35,93,35,22,15,18,26,12,13,21,5,0,-4,-1,-9,-12,-5,-9]
    },
    {
      "start":"浦上",
      "end":"西諫早",
      "lat":32.78444,
      "lng":129.86131,
      "delta_lat":[0,61,87,185,142,270,57,38,60,23,3,3,5,-2,-32,-2,-4,-5,-1,-6,-6,-10,-13,-9,-4,-14,-11,-1,-17,-12,-9,-8,-24,-14,-14,-8,-5,-13,-5,-18,-13,-10,-8,2,21,22,17,39,35,46,39,32,15,27,10,4,55,54,55,31,33,24,17,18,15,33,27,32,16,27,9,35,17,41,27,50,41,73,55,43,41,33,94,36,82,94,61,54,93,73,168,103,46,87,40,51,47,40,41,25,55,36,24,31,81,13,18,8,14,32,152,110,22,18,26,50,36,246,25,51,95,26,51,21,15,12,24,41,89,91,46,36,30,25,25,23,22,24,23,14,9,9,8,5,2,5,0,-3,-4,0,-1,-13,-29,-47,-18,-20,-12,-21,-19,-13,-7,-9,-16,-15,-20,-11,-9,-12,-4,-2,0,9,6,3,10,12,15,19,19,16,20,40,39,31,41,29,23,109,64,32,40,21,20,11,17,18,17,11,10,9,16,7,13,5,9,27,9,10,9,14,23,18,24,21,17,77,12,50,31,4,5,0,-7,-2,-4,-1],
      "delta_lng":[0,8,8,55,144,307,183,126,190,122,34,48,106,117,507,63,66,62,39,117,91,166,184,134,89,254,159,51,221,166,166,148,387,203,209,158,75,238,50,277,215,167,83,42,167,207,81,159,138,184,146,135,53,103,40,22,211,206,224,121,131,72,45,44,32,69,52,62,26,46,15,55,19,49,29,48,36,65,46,35,33,25,77,29,50,54,30,20,36,22,49,31,13,34,14,20,22,20,25,20,45,34,32,36,103,18,24,10,18,44,177,129,27,17,28,55,33,181,13,31,63,17,33,14,9,9,15,27,71,71,37,28,28,30,29,33,34,39,46,38,36,40,60,44,31,66,51,38,43,20,7,70,137,234,92,99,68,96,92,52,26,26,34,24,35,28,24,46,28,36,94,69,27,9,45,50,40,47,36,26,27,46,38,26,34,22,17,83,50,30,44,27,32,24,30,33,41,34,30,47,98,79,108,43,90,280,106,71,62,69,108,74,97,80,76,311,50,200,115,21,46,56,117,75,161,80]
    },
    {
      "start":"浦上",
      "end":"喜々津",
      "lat":32.78444,
      "lng":129.86131,
      "delta_lat":[0,41,98,65,53,54,52,11,23,87,71,56,202,185,22,135,33,39,47,150,159,43,42,49,87,47,21,71,6,91,189,49,51,6,56,32,22,33,43,31,32,36,31,33,121,29,29,29,31,28,71,20,25,53,130,66,50,16,32,18,24,25,30,47,17,34,13,3,4,2,0,-2,-4,-12,-20,-36,-8,-25,-25,-100,-50,-9,-30,-17,-14,-15,-5,-4,0,0,7,9,16,12,5,18,18,31,52,117,19,40,32,13,18,14,9,15,60,10,8,11,15,13,17,27,12,17,23,38,20,54,16,20,31,18,18,36,31,72,49,21,30,37,36,20,31,57,47,97,105,57,91,38,87,87,68,36,43,32,61,42,48,71,70,74,16,62,47,45,42,63,83,65,31,35,24,6,0,-2,-9,-34,-29,-17,-18,-5,-2,2,8,10,20,23,35,26,118,152,136,116,146,88,32,19,26,38,103,75,49,29,8,34,40,70,29,75,24,35,22,9,3,0,1,0,-3,-4,-6,-8,-13,-17,-19,-24,-9,-136,-84,-45,-9,-43,-35,-20,-11,-14,-11,-12,-18,-35,-7,-16,-28,-37,-36,-35,-27,-23,-62,-114,-38,-33,-66,-49,-29,-27,-26,-23,-30,-32,-35,-33,-20,-29,-22,-23,-16,-13,-1,-5,-1,1,4,45,21,9,0,-1,-10,-35,-5,0,-4,2,7,11,11,9,6,16,28,68,38,11,12,7,4,-2,-6,-14,-15,-15,-23,-29,-60,-71,-69,-38,-56,-33,-16,-21,-72,-179,-41,-93,-123,-49,-67,-41,-26,-22,-20,-23,-21,-24,-29,-26,-23,-18,-41,-26,-11,-39,-13,-12,-14,-9,-10,-16],
      "delta_lng":[0,0,-2,-7,-9,-20,-28,-7,-15,-63,-55,-48,-142,-131,-16,-96,-22,-22,-21,-48,-51,-11,-13,-6,0,1,1,1,0,-1,0,0,9,2,20,13,12,29,46,37,26,29,20,17,54,12,20,31,45,49,135,37,50,97,249,131,94,30,62,47,100,100,124,173,72,127,57,12,31,37,65,17,16,35,46,79,14,44,33,133,83,17,62,36,35,39,22,27,48,18,35,36,51,31,12,40,31,50,76,168,29,60,49,20,40,36,28,43,188,34,21,35,27,16,17,21,9,10,15,16,5,19,5,8,16,12,13,31,29,72,45,18,22,16,11,4,6,6,2,5,3,5,14,4,17,17,13,16,29,29,63,47,67,103,108,109,25,100,78,84,85,138,191,158,79,103,90,51,50,28,36,132,109,63,78,42,40,52,45,35,42,38,42,21,66,89,75,66,85,59,22,19,27,48,122,92,60,40,10,55,69,111,52,128,44,69,56,38,32,81,110,99,161,133,55,36,36,36,32,30,10,138,84,47,9,47,46,41,38,50,53,35,38,59,12,18,24,22,15,11,3,-3,-22,-43,-20,-22,-48,-34,-16,-7,-5,-2,5,8,14,18,12,20,30,43,46,51,12,33,47,35,22,206,100,44,24,28,40,137,30,9,29,41,30,37,27,22,11,24,38,79,89,26,42,51,39,40,25,29,30,21,27,25,40,36,35,14,21,9,2,0,4,13,1,8,9,4,9,9,9,10,15,19,23,25,31,34,31,28,73,51,25,83,27,34,46,45,41,71]
    },
    {
      "start":"諫早",
      "end":"さが１",
      "lat":32.84861,
      "lng":130.04244,
      "delta_lat":[0,43,87,28,209,101,64,41,69,49,52,34,26,17,28,30,16,11,4,2,-2,-5,-11,-7,-11,-6,-9,-14,-9,-16,-36,-48,-70,-5,-20,-20,-17,-46,-40,-26,-27,-20,-12,-5,-8,-3,-3,0,1,0,5,5,4,7,16,24,28,33,24,17,7,3,18,16,12,6,6,17,26,35,43,111,92,29,55,18,41,95,70,80,18,43,35,18,60,60,72,112,51,173,119,70,38,107,137,56,18,22,25,33,28,19,34,29,0,30,14,14,22,16,34,41,30,38,45,26,38,140,118,82,28,31,40,27,21,19,23,26,14,23,17,12,8,48,55,19,20,34,23,30,44,39,29,76,20,20,47,16,4,63,24,25,21,13,11,5,4,-2,-18,-12,-6,-6,-2,2,9,10,23,22,25,33,113,8,52,62,59,94,20,27,43,35,31,14,18,13,7,5,4,2,3,2,2,4,5,8,10,11,59,43,13,39,37,66,36,10,35,14,44,7,14,10,5,11,18,18,4,5,0,0,2,-3,-3,-3,-4,-4,-3,-3,-1,-2,0,2,2,4,7,6,32,31,21,21,36,50,33,14,42,14,11,11,11,20,9,6,4,2,0,2,3,4,5,8,10,6,18,11,12,17,27,59,106,57,114,25,19,25,15,18,21,31,33,15,44,17,23,32,9,11,10,10,5,0,-2,-5,-7,-2,0,2,11,3,0,-3,-2,4,4,5,5,11,15,32,45,14,15,15,12,28,27,8,26,19,12,12,29,27,11,12,56,17,38,18,38,25,25,13,19,32,32,105,67,49,101,42,46,91,100,32,13,13,7,5,6,-1,-7,-4,-3,-17,-12,-4,-3,-2,2,5,0,13,12,16,14,12,27,20,22,263,55,19,20,15,54,25,27,17,20,18,14,35,49,16,7,18,18,18,29,27,17,26,27,21,21,24,75,14,17,15,44,28,36,19,61,103,54,20,105,38,24,17,35,16,36,49,41,31,56,11,24,28,65,87,27,76,105,147,56,48,22,31,42,23,40,26,29,18,24,11,52,27,91,27,13,23,20,16,21,30,38,30,44,56,67,32,76,56,174,48,42,40,12,13,31,71,39,37,95,24,25,36,29,54,15,62,70,22,23,24,59,27,47,26,39,27,65,48,25,18,14,11,11,58,22,16,24,41,43,56,61,26,34,25,12,28,31,34,12,12,23,22,34,15,12,21,30,11,24,35,48,52,20,16,24,14,18,11,13,18,9,7,27,9,6,4,5,3,1,-1,-3,-7,-9,-10,-14,-13,-28,-21,-36,-16,-29,-18,-25,-17,-11,-7,-11,-5,0,5,9,11,22,13,7,11,9,27,27,20,29,36,31,32,29,26,35,34,37,22,21,14,12,15,21,25,39,28,69,65,33,105,23,18,30,41,20,12,13,12,11,9,9,5,9,8,4,10,9,8,11,14,16,16,13,24,3,9,14,22,17,20,41,56,74,20,20,18,60,14,15,31,21,23,266,18,15,20,19,18,18,18,15,17,12,15,12,11,13,11,11,10,10,9,9,100,59,117,29,19,9,11,12,11,10,13,13,12,15,12,15,14,15,20,37,38,18,17,18,18,18,18,18,94,80,14,15,14,14,13,144,30,261,66,267,40,43,13,16,22,16,18,13,14,11,15,10,18,13,13,12,13,11,13,12,11,79,84,11,12,13,12,14,14,14,15,14,16,13,11,29,16,13,16,21,12,112,16,16,17,17,15,18,18,17,17,17,16,15,29,74,70,115,44,210,17,15,18,17,18,17,22,246,16,17,16,17,16,17,15,16,15,13,1,15,13,12,14,118,27,53,68,20,18,16,31,29,27,61,18,21,59,23,8,9,11,11,11,12,11,27,38,40,99,24,16,16,93,9,12,14,15,363,13,11,9,78,12,15,13,16,16,13,18,87,273,104,98,81,153,621,14,250,25,95,191,57,11,27,32,31,136,58,7,31,135,40,255,108,28,88,125,182,46,28,62,60,294,46,1,63,42,27,54,47,43,39,68,311,181,27,60,54,90,49,13,23,11,45,65,90,23,177,294,74,92,122,64,149,34,56,32,6,92,51,24,21,17,6,9,10,8,4,2,-49,-3,1,4,9,11,9,4,17,20,22,49,26,46,25,24,38,44,37,37,31,41,42,65,30,210,33,29,124,77,52,7,34,25,83,20,49,14,67,37,437,51,37,735,844,130,23,18,250,458,105,93,94,79,85,69,117,76,46,117,127,126,898,195,62,52,55,59,51,46,35,60,144,76,38,61,252,19,349,337,41,36,20,20,22,19,51,34,24,26,18,-10,-21,-31,-20,11,9,12,15,27,23,35,97,76,153,242,103,32,38,41,44,44,44,41,61,296,593,56,50,42,47,46,30,7,37,36,42,9,35,24,34,114,184,106,113,149,146,88,24,20,14,11,6,3,29,32,6,12,18,32,5,50,49,16,41,4],
      "delta_lng":[0,-16,-38,-9,-61,-24,-13,-10,-16,6,12,10,14,12,33,46,25,33,32,35,34,115,121,83,95,58,92,111,39,39,56,64,95,8,28,27,23,62,58,46,58,56,38,32,68,63,83,103,35,13,86,84,60,53,68,79,64,63,54,48,39,44,137,133,104,31,28,54,62,57,39,61,52,15,52,19,41,116,89,109,25,50,44,20,70,58,65,101,45,161,110,64,36,97,124,51,20,29,43,69,74,65,113,112,1,106,38,33,38,23,43,44,24,25,22,2,4,3,2,0,8,11,20,13,14,21,30,41,21,48,38,26,20,108,122,50,51,59,31,29,40,35,27,72,23,23,58,21,6,89,48,57,51,44,49,42,46,29,77,47,27,35,27,25,47,41,69,44,28,23,64,3,29,25,26,53,10,17,33,30,37,20,30,27,21,16,20,4,21,28,157,32,29,33,26,28,107,81,24,71,69,119,66,21,63,23,84,18,33,27,20,36,59,62,14,22,20,11,150,74,37,23,23,26,20,23,4,35,36,23,28,21,27,21,100,79,58,56,99,136,86,39,112,37,28,30,31,54,28,30,52,51,38,110,100,34,25,27,26,14,26,12,12,13,11,21,34,20,45,12,12,21,18,26,36,57,62,25,87,31,45,61,17,31,32,48,31,27,46,44,46,43,31,24,112,28,36,302,87,35,27,22,21,22,22,51,75,29,41,45,39,81,62,17,43,57,20,12,13,14,4,2,2,3,9,4,9,10,14,9,17,26,29,89,54,44,81,35,31,65,71,29,16,22,18,17,28,51,70,20,11,53,40,21,11,53,28,30,2,40,32,27,20,15,24,16,12,132,26,11,6,4,-3,0,-1,-6,-13,-12,-12,-32,-50,-17,-5,-14,-9,-8,-7,-2,0,6,8,10,12,16,58,11,12,4,11,4,10,6,26,48,26,9,49,14,7,2,-1,-2,-14,-21,-22,-23,-47,-8,-7,-7,-10,-11,-3,-9,-12,-14,-7,-6,-2,-3,-1,2,8,8,13,9,18,9,47,26,82,25,12,22,14,10,12,16,19,11,18,18,25,12,29,19,60,17,15,13,5,3,6,9,3,7,13,9,13,24,21,46,13,50,61,18,17,17,39,14,20,8,8,4,0,-3,-7,-7,-5,-7,-7,-40,-13,-6,-6,-6,0,15,21,9,6,0,-2,-10,-15,-24,-11,-15,-30,-34,-59,-26,-15,-20,-22,-4,-9,-11,-12,-17,-9,-9,-19,-11,-20,-15,-25,-36,-24,-18,-81,-29,-31,-21,-47,-20,-24,-46,-20,-28,-30,-26,-32,-24,-42,-27,-42,-17,-30,-16,-34,-26,-21,-19,-37,-23,-36,-33,-43,-45,-67,-43,-20,-33,-20,-43,-32,-19,-17,-18,-7,0,4,9,17,18,27,21,18,13,7,6,7,7,5,2,6,0,0,0,-3,-5,-12,-13,-11,-8,-13,-17,-19,-33,-35,-15,-33,-31,-14,-28,-22,-15,-19,-18,-14,-10,-8,-10,-2,-4,-4,-7,-3,-1,-3,-4,-5,-5,-8,-11,-34,-7,-2,-6,0,2,42,0,-3,-6,-8,-7,-11,-10,-11,-13,-12,-11,-13,-12,-14,-13,-14,-15,-15,-15,-15,-177,-106,-210,-50,-30,-14,-13,-14,-12,-13,-12,-11,-11,-10,-10,-9,-9,-8,-9,-12,-10,-4,-4,-1,-2,0,1,2,18,9,0,0,-2,-4,-4,-56,-12,-102,-28,-106,-15,-16,-7,-7,-11,-10,-11,-9,-10,-11,-9,-8,-13,-10,-10,-13,-10,-12,-13,-11,-13,-97,-105,-12,-13,-11,-11,-10,-9,-9,-8,-8,-6,-3,-3,-3,0,1,2,4,2,49,7,7,6,5,4,3,3,2,1,-1,-3,-2,-9,-36,-31,-46,-18,-85,-8,-4,-4,-1,-1,1,1,46,3,2,0,-1,-2,-4,-3,-6,-6,-7,-1,-9,-10,-12,-15,-146,-35,-69,-75,-23,-28,-27,-67,-65,-65,-164,-45,-49,-83,-29,-9,-8,-7,-6,-6,-3,-5,-2,-5,-8,-22,-5,-7,-6,-69,-6,-11,-12,-15,-466,-20,-15,-17,-178,-28,-26,-22,-20,-17,-14,-13,-53,-152,-59,-57,-55,-114,-534,-12,-217,-20,-83,-175,-56,-13,-35,-56,-73,-494,-210,-22,-44,-152,-46,-288,-122,-31,-100,-141,-212,-51,-32,-91,-118,-608,-79,-3,-86,-51,-28,-53,-46,-31,-16,-6,-23,-14,-2,-5,-2,-7,5,4,7,4,22,50,75,20,149,249,58,62,77,41,97,25,40,24,5,78,54,27,30,31,11,23,31,35,36,36,666,100,36,35,35,33,26,8,31,30,28,54,26,41,14,10,9,7,2,-9,-10,-18,-26,-35,-11,-98,-14,-13,-57,-32,-13,-1,-6,-6,-1,0,4,2,22,13,200,24,18,341,389,62,12,6,111,212,50,41,33,18,17,7,6,-2,-2,-16,-15,-15,-102,-22,1,9,16,19,23,23,22,45,110,61,29,46,192,14,271,258,34,28,25,19,30,25,80,70,63,87,93,148,296,370,322,248,70,90,68,88,59,77,176,138,281,446,190,49,43,43,36,30,23,17,18,72,144,14,18,23,29,32,25,6,41,49,68,19,69,62,84,315,479,244,288,356,344,209,64,75,70,84,33,23,204,227,45,77,136,227,34,382,351,109,316,29]
    },
    {
      "start":"神崎",
      "end":"鳥栖",
      "lat":33.32075,
      "lng":130.38893,
      "delta_lat":[0,30,31,48,56,158,121,112,71,28,41,27,72,168,76,217,230,105,14,12,11,10,12,11,11,10,11,10,9,10,9,9,9,9,8,7,9,4,3,7,6,7,5,2,6,6,6,4,2,4,3,9,134,7,26,8,105,13,35,15,40,199,70,94,56,15,43,13,27,10,46,6,7,6,6,6,6,5,6,5,5,5,4,5,4,116,7,6,3,4,5,5,5,6,6,5,11,4,7,9,9,9,9,11,11,11,11,8,4,11,14,13,13,14,14,14,15,15,15,14,17,15,17,16,16,17,16,10,5,16,14,16,13,16,13,14,13,13,12,186,251,88,21,56,11,12,11,12,10,11,12,11,11,10,10,10,10,9,9,9,8,8,8,7,7,9,29,7,4,7,4,5,4,3,3,1,2,18,2,22,3,2,0,3,2,2,2,3,3,3,3,3,3,4,4,4,4,4,5,4,6,5,181,10,66,12,8,6,6,6,6,5,5,5,5,4,4,4,3,3,3,3,2,3,1,2,1,0,-2,-1,-1,-1,-2,-23,-2,-3,-1,-3,0,-3,-1,-5,-2,-8,-3,-6,-22,-1,-6,-9,-5,-4,-3,-2,-2,-2,0,0,0,2,2,3,2,4,4,5,5,11,8,8,8,65,97,54,36,42,40,118,153],
      "delta_lng":[0,120,116,146,160,326,251,232,149,45,58,34,73,150,69,197,209,92,15,11,14,13,14,13,14,13,16,14,14,15,15,15,15,15,15,16,16,8,8,15,17,16,11,5,17,15,17,18,6,11,16,33,506,33,94,30,399,45,112,49,105,531,179,247,144,40,111,36,70,24,121,17,17,16,17,18,17,17,17,17,17,18,17,18,17,515,27,27,17,16,17,16,16,17,16,11,26,10,15,15,15,15,15,14,14,14,13,9,5,12,13,11,12,11,11,10,10,9,9,10,7,9,7,7,7,8,7,7,2,9,11,10,11,11,11,13,12,13,13,220,293,107,25,65,14,13,15,12,16,14,14,14,13,16,15,14,16,15,16,15,16,16,16,17,16,16,74,17,18,17,17,17,17,18,17,18,17,206,31,279,43,18,17,17,18,17,17,17,17,16,18,18,17,17,17,16,17,17,16,17,17,17,472,25,174,29,18,17,16,17,16,17,16,17,17,17,17,17,17,17,17,18,16,18,17,18,17,18,160,51,48,29,112,766,41,133,28,104,25,89,25,34,10,28,15,16,72,6,17,31,18,17,18,18,16,18,21,19,14,19,18,16,18,17,16,16,14,32,15,14,14,103,101,49,33,32,26,63,70]
    },
    {
      "start":"さが２",
      "end":"神崎",
      "lat":33.25783,
      "lng":130.24881,
      "delta_lat":[0,2,1,17,1,11,45,25,8,23,9,2,7,40,16,95,28,5,31,4,32,60,101,30,6,60,18,76,46,30,5,8,14,36,10,21,462,152,210,17,50,403,183,305,17,157,301,125,40,435,18,79,230,274,52,415,194,24,31,77,47,53,55,106,16,22,75,13,56,12,86,41,112,72,78,97,42,20,47,22,14,13,7,6,1,2,2],
      "delta_lng":[0,33,30,226,22,189,597,342,96,307,124,29,97,570,102,416,124,22,137,17,142,277,574,169,37,354,84,402,170,81,12,18,36,56,15,33,566,187,259,21,67,492,227,380,20,195,371,155,51,539,23,98,284,343,63,509,247,32,44,119,83,106,114,236,34,48,167,27,128,26,186,99,251,167,183,221,103,49,115,65,69,96,72,41,31,21,41]
    }
  ]
}