{
  "code":11906,
  "name":"JR日豊本線(門司港～佐伯)",
  "station_list":[
    {"code":1190202,"id":"4f17c1","name":"門司港","name_kana":"もじこう","lat":33.945138,"lng":130.961549,"prefecture":40,"lines":[11902,11906],"attr":"heat","postal_code":"801-0841","address":"北九州市門司区西海岸１丁目","next":[9992802,1190203,9992803,1161236,9992801],"voronoi":{"lat":33.930683,"lng":130.95019,"delta_lat":[0,7312,17447,-4164,-4811],"delta_lng":[0,-9202,2341,16678,3412]}},
    {"code":1190203,"id":"ebf907","name":"小森江","name_kana":"こもりえ","lat":33.916352,"lng":130.938674,"prefecture":40,"lines":[11902,11906],"attr":"heat","postal_code":"800-0007","address":"北九州市門司区小森江３丁目","next":[9992801,1161237,1190202,1161236],"voronoi":{"lat":33.930683,"lng":130.95019,"delta_lat":[0,-54407,46387,15332],"delta_lng":[0,64194,-106692,33296]}},
    {"code":1161237,"id":"9834f5","name":"門司","name_kana":"もじ","lat":33.904309,"lng":130.933438,"prefecture":40,"lines":[11612,11902,11906],"attr":"heat","postal_code":"800-0039","address":"北九州市門司区中町","next":[1190608,9992801,1190609,1190203,1190610,100318,1190607,1161236],"voronoi":{"lat":33.920771,"lng":130.89933,"delta_lat":[0,-44515,-45,-7854,1470,2774,3674,46387],"delta_lng":[0,15393,44,16348,75890,12456,-5077,-106692]}},
    {"code":100318,"id":"456856","name":"小倉(福岡)","name_kana":"こくら","lat":33.886756,"lng":130.882678,"prefecture":40,"lines":[11902,11906,11914,99908,1003],"attr":"heat","postal_code":"802-0001","address":"北九州市小倉北区浅野１丁目","next":[9990804,9990802,1161237,1161236,1190206,1190607],"voronoi":{"lat":33.920771,"lng":130.89933,"delta_lat":[0,7712,-41960,-9853,-1058,644],"delta_lng":[0,-12143,-9160,24751,6790,5155]}},
    {"code":1190206,"id":"5a5215","name":"西小倉","name_kana":"にしこくら","lat":33.888673,"lng":130.873897,"prefecture":40,"lines":[11902,11906,11914],"attr":"heat","postal_code":"803-0812","address":"北九州市小倉北区室町３丁目","next":[9990803,1190207,1190606,1161236,100318,9990802],"voronoi":{"lat":33.928483,"lng":130.887188,"delta_lat":[0,11520,-53385,-7547,4771,2681],"delta_lng":[0,-14448,-18500,15677,6099,2012]}},
    {"code":1190606,"id":"465c6e","name":"南小倉","name_kana":"みなみこくら","lat":33.869972,"lng":130.864895,"prefecture":40,"lines":[11906,11914],"attr":"heat","postal_code":"803-0851","address":"北九州市小倉北区木町３丁目","next":[9990808,9990803,1190209,1190206,1190210,9990807,1190207,9990806,9990811,9990809,9990804,9990810,9990805],"voronoi":{"lat":33.87647,"lng":130.871728,"delta_lat":[0,2602,7547,-12419,-21171,-4894,-10,1104,1146,412,5143,6573,7334],"delta_lng":[0,-1812,-15677,-15219,-3856,-106,353,16417,4787,960,8175,5173,2160]}},
    {"code":1190607,"id":"8febcb","name":"城野(JR)","name_kana":"じょうの","lat":33.858202,"lng":130.886242,"prefecture":40,"lines":[11906,11914],"attr":"heat","postal_code":"802-0802","address":"北九州市小倉南区城野一丁目6-1","next":[1190608,9990805,9990806,9990807,9990804,1161237,100318],"voronoi":{"lat":33.875613,"lng":130.909568,"delta_lat":[0,-7008,-6847,-8680,-7478,30612,45],"delta_lng":[0,-18477,-8068,-256,8316,23684,-44]}},
    {"code":1190608,"id":"337170","name":"安部山公園","name_kana":"あべやまこうえん","lat":33.844078,"lng":130.904498,"prefecture":40,"lines":[11906],"attr":"heat","postal_code":"800-0256","address":"北九州市小倉南区湯川新町４丁目","next":[1161237,1191405,1190607,9990807,1190609],"voronoi":{"lat":33.818191,"lng":130.912002,"delta_lat":[0,27139,269,30612,-7854],"delta_lng":[0,-20970,51,23684,16348]}},
    {"code":1190609,"id":"acffe6","name":"下曽根","name_kana":"しもそね","lat":33.832522,"lng":130.934829,"prefecture":40,"lines":[11906],"attr":"heat","postal_code":"800-0217","address":"北九州市小倉南区下曽根１丁目","next":[1191407,1191406,1190610,1191405,1161237,1190608],"voronoi":{"lat":33.818191,"lng":130.912002,"delta_lat":[0,-11750,-8097,-2230,73713,-1470],"delta_lng":[0,137,2043,1072,91751,-75890]}},
    {"code":1190610,"id":"9bb330","name":"朽網","name_kana":"くさみ","lat":33.807384,"lng":130.955025,"prefecture":40,"lines":[11906],"attr":"heat","postal_code":"802-0000","address":"北九州市小倉南区井無田","next":[9992801,1190611,1190609,1191408,1161237,1191407,1190612],"voronoi":{"lat":33.766041,"lng":130.918086,"delta_lat":[0,6874,23200,73713,2774,-1071,-96448],"delta_lng":[0,-1730,-1101,91751,12456,19797,-92150]}},
    {"code":1190611,"id":"474baf","name":"苅田","name_kana":"かんだ","lat":33.784462,"lng":130.979016,"prefecture":40,"lines":[11906],"attr":"heat","postal_code":"800-0361","address":"京都郡苅田町神田町１丁目","next":[1190615,9992802,1190610,1190612,1172312,1190616,9992801],"voronoi":{"lat":33.87153,"lng":131.039259,"delta_lat":[0,-96448,-20505,15890,24036,79638,-1369],"delta_lng":[0,-92150,91580,48436,45318,-64913,-16287]}},
    {"code":1190612,"id":"b1c52e","name":"小波瀬西工大前","name_kana":"おばせにしこうだいまえ","lat":33.752992,"lng":130.97197,"prefecture":40,"lines":[11906],"attr":"cool","postal_code":"800-0344","address":"京都郡苅田町新津","next":[1191409,1190611,1191408,1190614,1190610,1190615,1190613],"voronoi":{"lat":33.744331,"lng":130.916712,"delta_lat":[0,18226,3483,9042,-20505,-7312,-8156],"delta_lng":[0,324,1050,29023,91580,-11635,-32687]}},
    {"code":1190613,"id":"7640c5","name":"行橋","name_kana":"ゆくはし","lat":33.72835,"lng":130.970313,"prefecture":40,"lines":[11906,99904],"attr":"cool","postal_code":"824-0031","address":"行橋市西宮市２丁目","next":[9990417,1191409,9990414,1190614,9990415,1190612],"voronoi":{"lat":33.744331,"lng":130.916712,"delta_lat":[0,-18143,-5658,-1150,4341,15388],"delta_lng":[0,-4447,29921,17553,17513,17115]}},
    {"code":1190614,"id":"2b432f","name":"南行橋","name_kana":"みなみゆくはし","lat":33.716332,"lng":130.981118,"prefecture":40,"lines":[11906],"attr":"cool","postal_code":"824-0034","address":"行橋市泉中央２丁目","next":[9990415,1190613,9990414,1190615,9990417,1190612],"voronoi":{"lat":33.739109,"lng":130.994366,"delta_lat":[0,-15388,-14445,-13634,-944,52567],"delta_lng":[0,-17115,-105,8163,808,40936]}},
    {"code":1190615,"id":"735cda","name":"新田原","name_kana":"しんでんばる","lat":33.695152,"lng":131.008316,"prefecture":40,"lines":[11906],"attr":"cool","postal_code":"824-0026","address":"行橋市大字道場寺","next":[1190611,9990413,1190616,1190614,9990414,9990412,1190612],"voronoi":{"lat":33.770468,"lng":131.087124,"delta_lat":[0,-119299,35400,5185,2945,52567,7312],"delta_lng":[0,-88345,-12327,-874,539,40936,11635]}},
    {"code":1190616,"id":"5da3d0","name":"築城","name_kana":"ついき","lat":33.673119,"lng":131.038069,"prefecture":40,"lines":[11906],"attr":"eco","postal_code":"829-0101","address":"築上郡築上町東築城","next":[9990411,1190617,9990412,1190619,1190615,1190611,1172312],"voronoi":{"lat":33.794504,"lng":131.132443,"delta_lat":[0,-24036,-119299,-14241,-21700,155572,9683],"delta_lng":[0,-45318,-88345,-1269,2858,154367,5683]}},
    {"code":1190617,"id":"12059f","name":"椎田","name_kana":"しいだ","lat":33.653377,"lng":131.057965,"prefecture":40,"lines":[11906],"attr":"eco","postal_code":"829-0301","address":"築上郡築上町椎田","next":[1190616,9990410,1190618,9990411,1190619],"voronoi":{"lat":33.682176,"lng":131.113181,"delta_lat":[0,-135967,59827,9192,155572],"delta_lng":[0,-112133,-1355,675,154367]}},
    {"code":1190618,"id":"9dafb5","name":"豊前松江","name_kana":"ぶぜんしょうえ","lat":33.622487,"lng":131.095421,"prefecture":40,"lines":[11906],"attr":"eco","postal_code":"828-0002","address":"豊前市大字松江","next":[1191420,1191318,1191421,1190617,1191315,1190619,1190621,9990409,9990410],"voronoi":{"lat":33.537934,"lng":130.999554,"delta_lat":[0,-7407,-39250,-38967,-716,645,34975,194962,-135967],"delta_lng":[0,-576,21116,34968,2701,39980,8020,7419,-112133]}},
    {"code":1190619,"id":"7d54d3","name":"宇島","name_kana":"うのしま","lat":33.62131,"lng":131.126354,"prefecture":40,"lines":[11906],"attr":"eco","postal_code":"828-0021","address":"豊前市大字八屋","next":[1190620,1190616,1190618,1190617,1190621,1172312],"voronoi":{"lat":33.780482,"lng":131.160418,"delta_lat":[0,-9683,-88624,-194962,50343,240500],"delta_lng":[0,-5683,-41554,-7419,17794,53502]}},
    {"code":1190620,"id":"0b6e21","name":"三毛門","name_kana":"みけかど","lat":33.614597,"lng":131.15653,"prefecture":40,"lines":[11906],"attr":"eco","postal_code":"828-0031","address":"豊前市大字三毛門","next":[1190622,1172112,1190619,1190621,1172312],"voronoi":{"lat":33.778056,"lng":131.177059,"delta_lat":[0,-240500,145563,80097,13525],"delta_lng":[0,-53502,84364,36014,-41006]}},
    {"code":1190621,"id":"b3393e","name":"吉富(福岡)","name_kana":"よしとみ","lat":33.604465,"lng":131.174012,"prefecture":40,"lines":[11906],"attr":"eco","postal_code":"871-0811","address":"築上郡吉富町大字広津","next":[1190620,1191319,1190618,1190622,1190619,1191318],"voronoi":{"lat":33.452239,"lng":131.097743,"delta_lat":[0,34975,50343,145563,-237579,475],"delta_lng":[0,8020,17794,84364,-74618,-8105]}},
    {"code":1190622,"id":"5664eb","name":"中津(大分)","name_kana":"なかつ","lat":33.599202,"lng":131.190769,"prefecture":44,"lines":[11906],"attr":"eco","postal_code":"871-0033","address":"中津市大字島田","next":[1190620,1190623,1190624,1172112,1191319,1190621],"voronoi":{"lat":33.763216,"lng":131.243935,"delta_lat":[0,-2206,-312035,-8411,4976,237579],"delta_lng":[0,10371,-73763,-2991,-44249,74618]}},
    {"code":1190623,"id":"ee09c8","name":"東中津","name_kana":"ひがしなかつ","lat":33.58788,"lng":131.238664,"prefecture":44,"lines":[11906],"attr":"eco","postal_code":"871-0003","address":"中津市大字是則","next":[1172111,1172112,1190622,1190624,1190626],"voronoi":{"lat":33.674577,"lng":131.305501,"delta_lat":[0,-225601,312035,-2836,-3038],"delta_lng":[0,-124959,73763,41967,29726]}},
    {"code":1190624,"id":"eb18e1","name":"今津(大分)","name_kana":"いまづ","lat":33.571929,"lng":131.267462,"prefecture":44,"lines":[11906],"attr":"eco","postal_code":"879-0101","address":"中津市大字今津","next":[1190622,1190623,1190625,1190626,1191319],"voronoi":{"lat":33.440565,"lng":131.177551,"delta_lat":[0,8411,225601,-26530,-230689],"delta_lng":[0,2991,124959,-2614,-65597]}},
    {"code":1190625,"id":"c738f7","name":"天津","name_kana":"あまつ","lat":33.564678,"lng":131.292962,"prefecture":44,"lines":[11906],"attr":"eco","postal_code":"879-0161","address":"宇佐市大字下敷田","next":[1191324,1190630,1190624,1191319,1190626,1191323],"voronoi":{"lat":33.409943,"lng":131.306117,"delta_lat":[0,22191,215913,-230689,-14000,-638],"delta_lng":[0,9813,-13043,-65597,28631,5032]}},
    {"code":1190626,"id":"6e617c","name":"豊前善光寺","name_kana":"ぶぜんぜんこうじ","lat":33.566479,"lng":131.322776,"prefecture":44,"lines":[11906],"attr":"eco","postal_code":"879-0309","address":"宇佐市大字東高家","next":[1190630,1172111,1190627,1190629,1190624,1190625,1190623,1172110],"voronoi":{"lat":33.755212,"lng":131.326572,"delta_lat":[0,-75,-80560,-26530,-215913,30533,14473,279950],"delta_lng":[0,-574,-20497,-2614,13043,17791,5674,10507]}},
    {"code":1190627,"id":"353650","name":"柳ヶ浦","name_kana":"やなぎがうら","lat":33.564982,"lng":131.362665,"prefecture":44,"lines":[11906],"attr":"eco","postal_code":"872-0032","address":"大分県宇佐市大字江須賀","next":[1172110,1190626,1190629,1190628],"voronoi":{"lat":33.525796,"lng":131.372336,"delta_lat":[0,-48657,279950,4888],"delta_lng":[0,-32940,10507,26240]}},
    {"code":1190628,"id":"4814ab","name":"豊前長洲","name_kana":"ぶぜんながす","lat":33.56465,"lng":131.383264,"prefecture":44,"lines":[11906],"attr":"eco","postal_code":"872-0001","address":"宇佐市大字長洲","next":[1172108,1161220,1190629,1161221,1190627,1172110],"voronoi":{"lat":33.787347,"lng":131.533349,"delta_lat":[0,-19098,-21875,-220577,236181,13997],"delta_lng":[0,50311,41384,-252708,3807,58109]}},
    {"code":1190629,"id":"9171e9","name":"宇佐","name_kana":"うさ","lat":33.531373,"lng":131.41231,"prefecture":44,"lines":[11906],"attr":"eco","postal_code":"879-1132","address":"宇佐市大字岩崎","next":[1190628,1161220,1190630,1190627,1190626,1190631],"voronoi":{"lat":33.557689,"lng":131.483783,"delta_lat":[0,-95023,14473,48657,220577,-1071],"delta_lng":[0,-150061,5674,32940,252708,2442]}},
    {"code":1190630,"id":"551e26","name":"西屋敷","name_kana":"にしやしき","lat":33.504332,"lng":131.429433,"prefecture":44,"lines":[11906],"attr":"eco","postal_code":"879-1127","address":"宇佐市大字西屋敷","next":[1190631,1190626,1190629,1191324,1190625,1190637],"voronoi":{"lat":33.557689,"lng":131.483783,"delta_lat":[0,-95023,-30533,-22191,-21684,17949],"delta_lng":[0,-150061,-17791,-9813,70459,35532]}},
    {"code":1190631,"id":"0556b8","name":"立石","name_kana":"たていし","lat":33.481829,"lng":131.476993,"prefecture":44,"lines":[11906],"attr":"eco","postal_code":"879-1302","address":"杵築市山香町立石","next":[1190633,1190630,1161220,1190632,1190637,1190629,1161213],"voronoi":{"lat":33.724721,"lng":131.699465,"delta_lat":[0,20582,-187613,-151482,2935,166943,134021],"delta_lng":[0,-71979,-143703,-71674,14441,192890,96454]}},
    {"code":1190632,"id":"a00370","name":"中山香","name_kana":"なかやまが","lat":33.448636,"lng":131.505721,"prefecture":44,"lines":[11906],"attr":"eco","postal_code":"879-1307","address":"杵築市山香町野原","next":[1190633,1190631,1190636,1190637],"voronoi":{"lat":33.413689,"lng":131.53178,"delta_lat":[0,162397,-166943,-3935],"delta_lng":[0,87660,-192890,78440]}},
    {"code":1190633,"id":"420b38","name":"杵築","name_kana":"きつき","lat":33.411081,"lng":131.575295,"prefecture":44,"lines":[11906],"attr":"eco","postal_code":"873-0015","address":"杵築市大字八坂野添","next":[1190631,1190632,1190649,1161213,1190647,1190636,1190634,1190648,1190635],"voronoi":{"lat":33.404545,"lng":131.540158,"delta_lat":[0,9144,162397,134021,-114380,-146430,-3837,-48436,356],"delta_lng":[0,-8379,87660,96454,189649,-118074,-3795,-55759,-178393]}},
    {"code":1190634,"id":"18d11c","name":"大神","name_kana":"おおが","lat":33.383576,"lng":131.57524,"prefecture":44,"lines":[11906],"attr":"eco","postal_code":"879-1504","address":"速見郡日出町大字大神","next":[1190642,1190635,1190647,1190644,1190633,1190645,1190646],"voronoi":{"lat":33.397023,"lng":131.727914,"delta_lat":[0,356,-82560,1870,107,28318,22536],"delta_lng":[0,-178393,37571,34426,251,49504,28402]}},
    {"code":1190635,"id":"e1f675","name":"日出","name_kana":"ひじ","lat":33.368921,"lng":131.543036,"prefecture":44,"lines":[11906],"attr":"eco","postal_code":"879-1505","address":"速見郡日出町川崎字則次","next":[1190639,1190634,1190636,1190642,1190633],"voronoi":{"lat":33.404545,"lng":131.540158,"delta_lat":[0,-72921,-24224,7420,82560],"delta_lng":[0,-6973,30792,23115,-37571]}},
    {"code":1190636,"id":"9b9a08","name":"暘谷","name_kana":"ようこく","lat":33.370112,"lng":131.530581,"prefecture":44,"lines":[11906],"attr":"eco","postal_code":"879-1505","address":"速見郡日出町大字川崎字佐尾","next":[1190639,1190637,1190635,1190632,1190633,1190638],"voronoi":{"lat":33.331624,"lng":131.533185,"delta_lat":[0,72921,9144,-8481,-65927,-5463],"delta_lng":[0,6973,-8379,-26790,18482,5733]}},
    {"code":1190637,"id":"628c23","name":"豊後豊岡","name_kana":"ぶんごとよおか","lat":33.361923,"lng":131.50137,"prefecture":44,"lines":[11906],"attr":"eco","postal_code":"879-1507","address":"速見郡日出町大字豊岡","next":[1190638,1190636,1190631,1190630,1190632,1191324],"voronoi":{"lat":33.33928,"lng":131.523471,"delta_lat":[0,65927,3935,-2935,-17949,-11857],"delta_lng":[0,-18482,-78440,-14441,-35532,8052]}},
    {"code":1190638,"id":"0bbbab","name":"亀川","name_kana":"かめがわ","lat":33.330688,"lng":131.493019,"prefecture":44,"lines":[11906],"attr":"eco","postal_code":"874-0014","address":"別府市亀川浜田町","next":[1191324,1190639,1190637,1190636],"voronoi":{"lat":33.33928,"lng":131.523471,"delta_lat":[0,37121,-80172,37588],"delta_lng":[0,-138843,39586,104990]}},
    {"code":1190639,"id":"96a9ef","name":"別府大学","name_kana":"べっぷだいがく","lat":33.31327,"lng":131.499255,"prefecture":44,"lines":[11906],"attr":"eco","postal_code":"874-0023","address":"別府市上人ケ浜町","next":[1190635,1190638,1190636,1190641,1190640,1191324,1190642],"voronoi":{"lat":33.304587,"lng":131.561685,"delta_lat":[0,-7062,-3427,2131,37588,-2194,-24224],"delta_lng":[0,-28492,-108229,-749,104990,3981,30792]}},
    {"code":1190640,"id":"ff1ac7","name":"別府(大分)","name_kana":"べっぷ","lat":33.279665,"lng":131.500319,"prefecture":44,"lines":[11906],"attr":"eco","postal_code":"874-0935","address":"別府市駅前町","next":[1190639,1191330,1191328,1190641,1191324],"voronoi":{"lat":33.294098,"lng":131.424964,"delta_lat":[0,3427,-55533,2813,15620],"delta_lng":[0,108229,-64739,-16027,-23497]}},
    {"code":1190641,"id":"07dd11","name":"東別府","name_kana":"ひがしべっぷ","lat":33.267753,"lng":131.510537,"prefecture":44,"lines":[11906],"attr":"heat","postal_code":"874-0947","address":"別府市大字浜脇","next":[1190642,1190639,1191331,1190640,1191333,1191330],"voronoi":{"lat":33.233004,"lng":131.528686,"delta_lat":[0,14357,57227,-7062,-55533,-10480],"delta_lng":[0,15116,17883,-28492,-64739,30256]}},
    {"code":1190642,"id":"de1332","name":"西大分","name_kana":"にしおおいた","lat":33.245184,"lng":131.582758,"prefecture":44,"lines":[11906],"attr":"heat","postal_code":"870-0003","address":"大分市大字生石","next":[1190641,1191333,1190634,1191334,1190643,1190635,1190639,1190644],"voronoi":{"lat":33.280208,"lng":131.616101,"delta_lat":[0,-49883,-1709,18744,57227,2812,7420,1870],"delta_lng":[0,-25928,-16744,-29628,17883,2293,23115,34426]}},
    {"code":1190643,"id":"5edc55","name":"大分","name_kana":"おおいた","lat":33.232794,"lng":131.606595,"prefecture":44,"lines":[11906,11913,11923],"attr":"eco","postal_code":"870-0831","address":"大分市要町","next":[1190642,1191334,1190644,1191335],"voronoi":{"lat":33.224982,"lng":131.594958,"delta_lat":[0,5343,49883,-51255],"delta_lng":[0,-4785,25928,6912]}},
    {"code":1190644,"id":"35c568","name":"牧(大分)","name_kana":"まき","lat":33.237006,"lng":131.637828,"prefecture":44,"lines":[11906],"attr":"heat","postal_code":"870-0152","address":"大分市大字牧","next":[1192336,1191335,1190634,1190643,1190645,1190642],"voronoi":{"lat":33.280208,"lng":131.616101,"delta_lat":[0,-51255,-2433,-17354,107630,-107],"delta_lng":[0,6912,1343,32439,-35026,-251]}},
    {"code":1190645,"id":"e12458","name":"高城","name_kana":"たかじょう","lat":33.242837,"lng":131.655746,"prefecture":44,"lines":[11906],"attr":"heat","postal_code":"870-0156","address":"大分市高城新町","next":[1190646,1192336,1190634,1190644,1192333],"voronoi":{"lat":33.199471,"lng":131.6667,"delta_lat":[0,9695,107630,28318,-146652],"delta_lng":[0,-9905,-35026,49504,70]}},
    {"code":1190646,"id":"a8000d","name":"鶴崎","name_kana":"つるさき","lat":33.242852,"lng":131.686899,"prefecture":44,"lines":[11906],"attr":"heat","postal_code":"870-0106","address":"大分市大字鶴崎","next":[1190645,1190647,1192333,1190634],"voronoi":{"lat":33.345114,"lng":131.671273,"delta_lat":[0,-146652,-21218,190406],"delta_lng":[0,70,34488,-6156]}},
    {"code":1190647,"id":"4e6698","name":"大在","name_kana":"おおざい","lat":33.243938,"lng":131.720487,"prefecture":44,"lines":[11906],"attr":"heat","postal_code":"870-0268","address":"大分市大字政所","next":[1190648,1190652,1190634,1192333,1190633,1190646],"voronoi":{"lat":33.166433,"lng":131.716329,"delta_lat":[0,1851,277176,-48436,-29373,-190406],"delta_lng":[0,2982,64362,-55759,-28239,6156]}},
    {"code":1190648,"id":"54ce86","name":"坂ノ市","name_kana":"さかのいち","lat":33.236715,"lng":131.751593,"prefecture":44,"lines":[11906],"attr":"heat","postal_code":"870-0302","address":"大分市大字坂ノ市","next":[1190651,1190647,1190652,1190649,1190650,1190633],"voronoi":{"lat":33.445459,"lng":131.783673,"delta_lat":[0,-277176,15790,2038,4478,258707],"delta_lng":[0,-64362,44227,2672,4184,17074]}},
    {"code":1190649,"id":"58ca94","name":"幸崎","name_kana":"こうざき","lat":33.233844,"lng":131.795095,"prefecture":44,"lines":[11906],"attr":"heat","postal_code":"879-2111","address":"大分市本神崎","next":[1190656,1161213,1190633,1190648,1161210,1190650,1180730],"voronoi":{"lat":33.55397,"lng":132.04291,"delta_lat":[0,36932,4825,-146430,-258707,113445,37625],"delta_lng":[0,-107530,-29838,-118074,-17074,295685,51069]}},
    {"code":1190650,"id":"ada874","name":"佐志生","name_kana":"さしう","lat":33.174957,"lng":131.817688,"prefecture":44,"lines":[11906],"attr":"heat","postal_code":"875-0001","address":"臼杵市大字佐志生","next":[1190648,1190655,1190649,1190651,1190656],"voronoi":{"lat":33.151245,"lng":131.901366,"delta_lat":[0,-10195,45062,4478,113445],"delta_lng":[0,-22626,-112529,4184,295685]}},
    {"code":1190651,"id":"85409b","name":"下ノ江","name_kana":"したのえ","lat":33.158653,"lng":131.811159,"prefecture":44,"lines":[11906],"attr":"heat","postal_code":"875-0003","address":"臼杵市大字田井","next":[1190648,1190654,1190655,1190652,1190650],"voronoi":{"lat":33.133484,"lng":131.866385,"delta_lat":[0,5244,45345,2038,-45062],"delta_lng":[0,-58738,-44108,2672,112529]}},
    {"code":1190652,"id":"1afd6a","name":"熊崎","name_kana":"くまさき","lat":33.135768,"lng":131.787632,"prefecture":44,"lines":[11906],"attr":"cool","postal_code":"875-0083","address":"臼杵市大字井村","next":[1190647,1190648,1192333,1192332,1190653,1190654,1190651],"voronoi":{"lat":33.125488,"lng":131.796179,"delta_lat":[0,-17457,52899,5502,1851,15790,-45345],"delta_lng":[0,-75459,-5455,1064,2982,44227,44108]}},
    {"code":1190653,"id":"93223a","name":"上臼杵","name_kana":"かみうすき","lat":33.112499,"lng":131.793015,"prefecture":44,"lines":[11906],"attr":"cool","postal_code":"875-0053","address":"臼杵市大字福良","next":[1192331,1190654,1190703,1190655,1190652,1192332],"voronoi":{"lat":33.077357,"lng":131.71879,"delta_lat":[0,-62404,4426,54115,51994,-17457],"delta_lng":[0,13707,54746,30354,-21417,-75459]}},
    {"code":1190654,"id":"632a78","name":"臼杵","name_kana":"うすき","lat":33.118496,"lng":131.807574,"prefecture":44,"lines":[11906],"attr":"cool","postal_code":"875-0042","address":"臼杵市大字海添","next":[1190653,1190651,1190652,1190655],"voronoi":{"lat":33.138728,"lng":131.807646,"delta_lat":[0,-13240,-51994,59990],"delta_lng":[0,-11467,21417,48788]}},
    {"code":1190655,"id":"4a4ec3","name":"津久見","name_kana":"つくみ","lat":33.072853,"lng":131.863696,"prefecture":44,"lines":[11906],"attr":"cool","postal_code":"879-2441","address":"津久見市中央町","next":[1190659,1190653,1190657,1190703,1190658,1190702,1190656,1190650,1190651,1190654],"voronoi":{"lat":33.073494,"lng":131.817596,"delta_lat":[0,-54115,-3614,-342,16205,12143,10349,97124,-10195,-7565],"delta_lng":[0,-30354,9356,19007,51299,16948,5462,12051,-22626,-12355]}},
    {"code":1190656,"id":"884612","name":"日代","name_kana":"ひしろ","lat":33.066024,"lng":131.918735,"prefecture":44,"lines":[11906],"attr":"cool","postal_code":"879-2682","address":"津久見市大字網代","next":[1190649,1180730,1180732,1190655,1180740,1180737,1190657,1190650],"voronoi":{"lat":33.341659,"lng":132.117149,"delta_lat":[0,-73413,-101556,-65492,-38737,-8341,97124,152790],"delta_lng":[0,55612,59639,21706,9539,-374330,12051,164714]}},
    {"code":1190657,"id":"d986a8","name":"浅海井","name_kana":"あざむい","lat":33.043539,"lng":131.919236,"prefecture":44,"lines":[11906],"attr":"cool","postal_code":"879-2601","address":"佐伯市上浦大字浅海井浦","next":[1180740,1190655,1190658,1190660,1190656,9981508],"voronoi":{"lat":32.911326,"lng":132.305719,"delta_lat":[0,76087,56358,10349,8341,-150152],"delta_lng":[0,-310923,-110944,5462,374330,42212]}},
    {"code":1190658,"id":"d8977f","name":"狩生","name_kana":"かりう","lat":33.015334,"lng":131.904908,"prefecture":44,"lines":[11906],"attr":"cool","postal_code":"876-1101","address":"佐伯市大字狩生","next":[1190660,1190655,1190657,1190659],"voronoi":{"lat":32.987413,"lng":131.994796,"delta_lat":[0,56358,-12143,-38200],"delta_lng":[0,-110944,-16948,43485]}},
    {"code":1190659,"id":"35c281","name":"海崎","name_kana":"かいざき","lat":32.996041,"lng":131.88796,"prefecture":44,"lines":[11906],"attr":"cool","postal_code":"876-1105","address":"佐伯市大字海崎","next":[1190702,1190655,1190660,1190658],"voronoi":{"lat":33.031628,"lng":131.866904,"delta_lat":[0,-16205,-41253,19258],"delta_lng":[0,-51299,62191,32593]}},
    {"code":1190660,"id":"5065cb","name":"佐伯","name_kana":"さいき","lat":32.972521,"lng":131.901857,"prefecture":44,"lines":[11906,11907],"attr":"cool","postal_code":"876-0803","address":"佐伯市駅前２丁目","next":[1190658,1190709,9981508,1190713,1190659,1190657,1190702,1190707],"voronoi":{"lat":32.710913,"lng":131.983859,"delta_lat":[0,263257,19258,-6015,-76087,-406129,12514,119922],"delta_lng":[0,-106063,32593,84407,310923,-20006,-25224,-183239]}}
  ],
  "north":33.94493,
  "south":32.9717,
  "east":131.93201,
  "west":130.86153,
  "polyline_list":[
    {
      "start":"東別府１",
      "end":"東別府２",
      "lat":33.26474,
      "lng":131.5186,
      "delta_lat":[0,-32,-9,-38,-18,-21,-17,-16,-20,-22,-18,-16,-11,-29,-18,-36,-85,-7,-16,-19,-66,-35,-27,-33,-21,-13,-13,-9,-14,-20,-2],
      "delta_lng":[0,123,35,192,103,115,64,64,63,61,37,40,22,58,32,50,124,11,21,22,64,35,28,38,28,15,21,14,27,45,3]
    },
    {
      "start":"東別府３",
      "end":"東別府４",
      "lat":33.25487,
      "lng":131.55707,
      "delta_lat":[0,0,-3,-8,-3,-2,-4,0,-6,0,-23,-16,-12,-17,-12,-46,-34,-13,-14,-13,-11,-2,-7,-3,-15,-12,-6,-9,-7],
      "delta_lng":[0,31,31,64,21,14,19,17,34,3,76,49,26,27,19,67,48,18,25,23,22,6,15,8,43,36,18,31,31]
    },
    {
      "start":"東別府４",
      "end":"東別府５",
      "lat":33.25188,
      "lng":131.56529,
      "delta_lat":[0,-11,-8,-5,-7,-1,-4,-6,-10,-15,-15,-14,-11,-16],
      "delta_lng":[0,65,74,61,78,33,22,24,25,35,34,35,35,51]
    },
    {
      "start":"東別府６",
      "end":"東別府７",
      "lat":33.25731,
      "lng":131.53519,
      "delta_lat":[0,-11,-9,-9,-4,-2,-4,-2,-2,-6,-1],
      "delta_lng":[0,30,54,53,24,28,35,34,30,68,13]
    },
    {
      "start":"東別府８",
      "end":"東別府３",
      "lat":33.25466,
      "lng":131.54718,
      "delta_lat":[0,-1,-6,-2,0,0,2,2,4,3,14,1,5,7,0,2,-2,0,-2,-7,2,1,-5,2],
      "delta_lng":[0,7,52,24,2,25,35,30,27,29,101,5,34,46,47,5,36,73,54,222,40,33,39,23]
    },
    {
      "start":"立石トンネル西",
      "end":"立石トンネル東",
      "lat":33.50133,
      "lng":131.43539,
      "delta_lat":[0,-71,-38,-40,-4,-13,-16,-18,-156,-249,-312,-109,-33,-37,-15,-18,-13,-14,-27,-53,-30,-28,-168,-184,-74,-11,-60,-41,-20,-12,-23,-10,-8,-11,-9,-14,0,-2,-16],
      "delta_lng":[0,119,85,100,7,37,54,32,480,738,945,325,95,111,37,43,28,35,38,78,36,25,118,158,67,17,73,58,28,23,46,20,22,41,43,103,29,7,208]
    },
    {
      "start":"東別府２",
      "end":"東別府６",
      "lat":33.25773,
      "lng":131.53415,
      "delta_lat":[0,-25,-18],
      "delta_lng":[0,54,50]
    },
    {
      "start":"立石トンネル西",
      "end":"立石トンネル東",
      "lat":33.50133,
      "lng":131.43539,
      "delta_lat":[0,-59,-65,-53,-90,-29,-56,-116,-88,-41,-182,-64,-185,-30,-24,-36,-22,-10,-8,3,18,28,21,20,12,7,6,4,-1,-19,-23,-13,-11,-54,-27,-1,-21,-38,-39,-91,-291,-102,-64,-9,-13,-7,-20,-16,-16,-20,-7,-4,-4,-1,0,-4,-2,-1,1],
      "delta_lng":[0,53,46,34,31,6,13,14,22,26,123,40,135,26,39,72,70,56,68,75,69,78,86,113,186,133,118,102,46,189,201,70,56,219,120,4,46,62,49,68,206,84,62,6,21,10,35,28,37,56,36,50,79,23,17,330,246,18,201]
    },
    {
      "start":"東別府８",
      "end":"東別府３",
      "lat":33.25466,
      "lng":131.54718,
      "delta_lat":[0,0,2,0,3,3,5,7,9,8,3,42,32,2,11,10,7,0,-12,0,-12,-28,-34,-16,-11,-5,-1,-5],
      "delta_lng":[0,52,30,3,26,16,20,27,28,20,7,98,79,7,52,44,60,54,53,4,29,59,83,46,44,22,7,19]
    },
    {
      "start":"東別府６",
      "end":"東別府７",
      "lat":33.25731,
      "lng":131.53519,
      "delta_lat":[0,0,3,0,-3,-2,-9,-13,-17,-9],
      "delta_lng":[0,48,37,31,30,27,44,56,67,29]
    },
    {
      "start":"大分",
      "end":"東別府５",
      "lat":33.23143,
      "lng":131.6094,
      "delta_lat":[0,23,16,20,29,57,15,16,30,35,21,11,8,38,58,52,38,43,44,2,11,42,41,30,37,25,57,38,48,23,34,35,41,53,61,49,52,19,17,31,44,21,26,25,19,23,28,22,31,49,26,15,9,11,9,11,9,6,8,8,14,8,5,7,9,9,6,10,10,17,16,10,12,9,16,11,9,6,6,8,7,6,11],
      "delta_lng":[0,-52,-41,-46,-70,-123,-33,-31,-50,-65,-42,-21,-16,-87,-128,-117,-87,-95,-95,-5,-26,-90,-85,-67,-78,-55,-121,-72,-90,-51,-63,-58,-69,-85,-100,-80,-87,-30,-28,-51,-72,-30,-30,-29,-18,-21,-26,-21,-31,-45,-28,-16,-12,-16,-14,-19,-20,-18,-18,-27,-58,-26,-20,-24,-34,-26,-13,-23,-22,-32,-31,-22,-24,-22,-37,-34,-27,-27,-30,-48,-49,-48,-61]
    },
    {
      "start":"東別府４",
      "end":"東別府５",
      "lat":33.25188,
      "lng":131.56529,
      "delta_lat":[0,-45,-16,-12,-16,-13,-10,-4,-7],
      "delta_lng":[0,161,62,56,66,66,44,22,95]
    },
    {
      "start":"山中香",
      "end":"杵築",
      "lat":33.4381,
      "lng":131.51847,
      "delta_lat":[0,-54,-46,-23,-15,-11,-3,5,2,6,10,0,-10,-10,-11,-7,-27,-43,-26,-57,-49,-13,-40,-36,-41,-71,-30,-53,-85,-12,-24,-35,-9,-10,-15,-23,-47,1],
      "delta_lng":[0,49,59,35,35,47,49,72,36,71,97,73,72,49,60,31,132,136,42,70,40,8,19,13,14,12,3,6,28,5,9,21,8,9,14,19,83,-2]
    },
    {
      "start":"杵築",
      "end":"山中香",
      "lat":33.42898,
      "lng":131.53371,
      "delta_lat":[0,4,24,8,1,10,13,7,30,33,23,45,40,56,52,5,49,20,18,39,127,45,39,63,16,43,76,26],
      "delta_lng":[0,-16,-92,-29,-7,-32,-48,-28,-85,-102,-62,-108,-99,-101,-87,-9,-76,-31,-23,-49,-160,-56,-46,-69,-15,-39,-44,-11]
    },
    {
      "start":"山中香",
      "end":"立石トンネル東",
      "lat":33.4381,
      "lng":131.51847,
      "delta_lat":[0,49,115,34,78,31,34,38,42,52,18,40,65,58,21,8,32,20,23,6,6,32,35,14,34,63,58,103,100,32,44,34,54,56,78,24,52,69,480,224,30,30,56,63,76,267,164,100,279,24,52,30,87,58,73,64,116,98,61,145,41,28,25,15,13,8,4,3],
      "delta_lng":[0,-21,-19,-3,-7,-5,-6,-12,-19,-29,-14,-28,-70,-81,-33,-12,-69,-55,-86,-21,-20,-107,-100,-35,-79,-124,-116,-206,-191,-69,-81,-51,-58,-38,-28,-1,-3,13,83,39,3,-5,-18,-29,-43,-137,-98,-43,-98,-9,-21,-12,-46,-38,-67,-82,-152,-126,-77,-179,-61,-60,-71,-55,-86,-136,-190,-101]
    },
    {
      "start":"東別府１",
      "end":"杵築",
      "lat":33.26474,
      "lng":131.5186,
      "delta_lat":[0,5,10,4,1,22,8,14,18,42,37,59,18,9,5,7,22,7,26,1,42,28,5,1,9,5,6,4,5,7,11,13,13,12,5,24,18,18,5,24,14,18,18,33,58,34,60,18,45,18,49,63,107,20,29,27,21,69,47,73,164,141,47,33,21,20,22,23,20,19,107,23,39,20,50,17,48,15,45,18,9,49,58,61,21,86,37,36,36,23,90,35,43,228,265,150,236,161,271,25,53,148,129,138,145,73,187,151,69,36,24,30,19,19,22,13,209,51,181,157,138,121,115,60,36,47,29,71,144,112,85,43,60,29,9,9,11,17,312,96,60,39,117,32,68,29,23,159,22,121,116,72,109,12,189,122,98,45,186,72,13,19,37,43,35,27,27,27,26,26,15,8,6,10,10,15,11,15,18,84,64,63,49,116,115,138,61,32,18,13,9,11,11,12,8,3,2,4,10,10,9,11,18,30,28,10,2,3,0,-1,-4,-3,-10,-7,-134,-83,-45,-66,-18,-22,-28,-16,-5,-5,-2,1,4,6,7,11,15,15,15,23,16,20,19,17,31,46,32,60,106,197,105,36,112,56,43,19,14,18,16,13,11,7,13,15,21,13,18,16,18,23,28,23,19,23,25,18,31,29,22,35,29,33,43,18,15,13,8,13,19,79,49,28,24,26,21,24,23,25,47,40,62,50,29,28,23,28,37,29,61,31,9,40,32,31,21,15,15,12,19,21,22,19,19,36,30,51,49,22,25,25,20,16,20,47,31,35,21,36,33,136,104,41,17,20,40,32,22,16,16,13,18,38,27,22,24,27,39,51,30,27,37,34,33,29,18,18,19,12,21,27,20,27,28,3,11,7,12,11,2,5,8,15,17,10,11,9,7,9,5,38,9,6,14,18,16,13,11,10,11,3,1,2,0,-2,-2,-3,-1,-1,0,0,-2,0,3,5,12,16,13,22,17,15,29,27,26,25,23,27,26,16,16,28,57,53,28,33,50,62,24,10,7,33,29,24,21,28,55,65,60,226,126,47,29,40,29,11,12,8,23,13,12,6,2,0,3,9,19,21,13,23,18],
      "delta_lng":[0,-22,-53,-17,-6,-110,-40,-44,-42,-81,-64,-110,-41,-26,-13,-20,-62,-21,-72,-3,-131,-99,-17,-21,-78,-63,-95,-49,-45,-37,-33,-36,-29,-23,-9,-40,-25,-19,-4,-23,-9,-13,-10,-18,-25,-14,-23,-7,-17,-7,-19,-25,-37,-5,-2,4,3,25,19,28,81,68,18,9,4,0,1,-1,-2,-2,-15,-3,-5,-4,-7,-2,-7,-2,-7,-3,-1,-8,-9,-8,-4,-11,-5,-5,-6,-2,-7,-2,-3,-11,-14,-7,-11,-7,-17,0,-3,-8,-7,-5,-7,-6,-9,-8,-3,-3,-4,-5,-5,-7,-9,-6,-114,-33,-101,-90,-77,-63,-54,-18,-10,-11,-5,-6,-3,-5,-5,-5,-6,-4,0,1,2,3,37,4,2,0,2,6,15,4,2,25,2,37,34,21,33,4,59,40,35,12,56,19,5,6,4,10,16,12,16,15,18,20,15,6,8,14,17,27,24,33,47,220,168,152,136,311,312,381,164,90,52,46,37,53,65,69,72,35,27,108,170,134,89,84,114,184,159,66,26,25,18,21,26,21,36,27,450,263,153,238,60,88,118,81,30,50,54,47,36,33,32,29,29,32,22,32,18,20,17,11,22,29,20,37,70,121,66,20,77,43,37,22,19,34,34,34,39,46,78,81,86,48,50,40,38,43,50,37,29,29,31,19,30,27,23,31,30,33,45,17,22,18,15,23,41,169,118,65,54,45,31,33,24,20,35,21,27,18,8,6,3,0,-3,-2,-3,-4,-1,-4,3,3,3,5,5,5,12,16,19,19,23,43,35,61,59,25,23,21,12,8,8,13,9,8,2,4,1,11,9,1,-1,-3,-10,-9,-8,-8,-10,-14,-18,-48,-32,-21,-20,-21,-21,-27,-16,-12,-14,-11,-7,-7,-2,-1,-2,-2,-9,-13,-10,-22,-24,-6,-10,-8,-16,-18,-2,-10,-15,-31,-46,-36,-46,-50,-48,-82,-39,-257,-63,-42,-97,-134,-118,-101,-75,-81,-97,-40,-33,-98,-11,-103,-123,-71,-68,-109,-254,-17,-92,-24,-66,-26,-44,-54,-28,-41,-28,-20,-32,-24,-16,-14,-12,-10,-8,-3,-3,0,-2,0,-2,-7,-14,-26,-10,-5,-4,-21,-22,-18,-19,-21,-51,-79,-68,-251,-139,-53,-36,-55,-44,-18,-31,-17,-71,-44,-45,-39,-59,-25,-54,-47,-95,-72,-61,-101,-62]
    },
    {
      "start":"東別府１",
      "end":"東別府２",
      "lat":33.26474,
      "lng":131.5186,
      "delta_lat":[0,0,0,1,7,1,0,-3,0,2,14,4,3,0,-3,-6,-11,-15,-15,-80,-54,-10,-9,-28,-72,-27,-13,-20,-13,-44,-30,-54,-36,-52,-65,-20,-26,-27],
      "delta_lng":[0,60,45,27,80,58,45,35,14,17,65,41,29,21,34,35,42,37,32,146,95,12,10,29,61,24,13,23,14,59,38,64,41,54,67,23,30,35]
    },
    {
      "start":"東別府７",
      "end":"東別府８",
      "lat":33.2568,
      "lng":131.53888,
      "delta_lat":[0,-2,-6,-1,-2,-4,-12,-6,-22,-13,-32,-12,-2,-28,-18,-14,-17,-6,-6,-3,-8],
      "delta_lng":[0,29,75,44,51,29,85,41,69,32,56,24,4,53,37,35,46,21,29,18,52]
    },
    {
      "start":"小倉",
      "end":"立石トンネル西",
      "lat":33.88458,
      "lng":130.89423,
      "delta_lat":[0,-34,28,13,22,117,55,20,24,21,8,13,16,2,24,43,23,12,3,-5,-6,-9,-12,-24,-29,-22,-28,-36,-26,-96,-80,-90,-27,-60,-100,-82,-89,-77,-31,-29,-51,-17,-19,-40,-29,-8,-18,-35,-40,-52,-41,-59,-147,-76,-59,-32,-21,-35,-48,-39,-36,-32,-37,-23,-11,-13,-9,-7,-5,-2,-6,-5,-9,-19,-37,-39,-87,-165,-43,-33,-50,-140,-46,-17,-159,-24,-106,-161,-157,-190,-47,-49,-45,-58,-294,-163,-65,-32,-73,-56,-71,-45,-272,-273,-26,-21,-31,-38,-34,-22,-16,-28,-34,-54,-41,-30,-63,-69,-88,-56,-73,-59,-62,-58,-10,-29,-16,-45,-93,-47,-22,-43,-29,-32,-29,-34,-9,-51,-76,-67,-27,-88,-176,-79,-178,-34,-56,-57,-17,-62,-148,-81,-73,-47,-98,-62,-31,-58,-70,-176,-53,-162,-14,-64,-59,-34,-57,-34,-45,-18,-101,-17,-24,-46,-15,-5,-10,-15,-8,-10,-25,-6,-3,-17,-36,-22,-14,-26,-56,-34,-63,-34,-45,-55,-177,-9,-27,-29,-29,-36,-43,-45,-56,-55,-74,-85,-78,-85,-81,-62,-82,-24,-54,-46,-38,-19,-23,-57,-51,-43,-31,-20,-27,-23,-33,-66,-60,-114,-54,-61,-33,-44,-61,-60,-72,-78,-63,-57,-32,-68,-18,-18,-22,-68,-132,-54,-80,-33,-25,-38,-38,-74,-82,-70,-105,-74,-12,-97,-104,-40,-83,-69,-103,-75,-48,-21,-24,-54,-33,-149,-120,-239,-90,-442,-64,-29,-249,-278,-71,-31,-47,-42,-42,-95,-37,-23,-70,-89,-88,-9,-231,-9,-251,-227,-7,-80,-23,-25,-9,-18,-27,-6,-47,-27,-20,-77,-15,-69,-148,-86,-118,-135,-57,-110,-130,-41,-176,-80,-16,-29,-35,-62,-16,-16,-30,-43,-50,-14,-102,-268,-294,-48,-18,-58,-56,-147,-41,-221,-203,-51,-273,-153,-56,-60,-48,-41,-32,-11,-49,-128,-124,-46,-38,-38,-16,-21,-31,-39,-32,-33,-15,-14,-7,-21,-18,-13,0,-4,0,0,-1,-10,-6,-11,-11,-13,-17,-36,-93,-111,-48,-17,-54,-30,-26,-40,-42,-83,-84,-250,-40,-47,-50,-58,-78,-4,-17,-74,-129,-51,-50,-49,-45,-45,-9,-20,-13,-39,-44,-42,-129,-82,-7,-17,-7,-178,-29,-96,-67,-25,-59,-79,-85,-85,-36,-29,-33,-73,-245,-19,-203,-19,-28,-19,-73,-82,-120,-33,-11,-18,-22,-45,-23,-10,-9,-3,-136,-6,-26,-12,-12,-81,-22,-10,-156,-56,-150,-14,0,-13,-106,-60,-187,-123,-68,-31,-9,-110,-11,-23,-34,-51,-111,-32,-4,-11,-5,-71,-34,-29,-9,-16,-27,-20,-7,-4,-1,-8,-3,-20,-1,-5,0,4,3,4,3,15,27,20,5,12,5,13,38,24,29,4,18,4,62,8,28,14,47,16,11,22,16,13,11,1,4,0,0,-2,-1,-3,-1,0,-1,0,0,0,1,-1,-1,-2,-2,-3,-4,-1,-4,-6,-7,-6,-23,-24,-11,-12,-7,-8,-3,-11,-7,-8,-8,-10,-18,-50,-26,-17,-30,-53,-26,-56,-91,-12,-94,-95,-76,-86,-65,-8,-61,-68,-26,-12,-29,-16,-20,-20,-3,-22,-42,-52,-99,-149,-87,-36,-16,-12,-2,-19,-14,-20,-3,-10,-12,-2,-7,-19,-9,-33,-28,-38,-8,-12,-28,-15,-13,-57,-82,-68,-77,-15,-17,-14,-7,-6,0,7,4,0,0,-2,-2,-4,-5,-9,-11,-31,-5,-10,-22,-16,-55,-78,-133,-24,-5,-7,-13,-4,-4,-1,4,3,4,5,5,6,11,5,0,0,0,-1,-2,-6,-7,-12,-19,-11,-7,-13,-20,-187,-174,-56,-152,-31,-32,-45,-47,-47,-52,-57,-124,-93,-160,-159,-63,-44,-11,-11,-11,-10,-24,-18,-38,-11,-25,-46,-17,-10,-15,-42,-5,-8,-14,-63,-18,-22,-72,-12,-11,-8,-4,-3,-3,-7,-7,-3,-6,0,-2,-1,-2,-4,-2,-3,-4,-3,-12,-25,-27,-38,-43,-129,-30,-29,-6,-16,-10,-26,-16,-26,-17,-47,-39,-25,-11,-68,-29,-13,-30,-10,-2,8,30,10,6,4,15,7,12,2,4,11,34,7,4,5,3,7,11,12,3,9,8,2,3,2,3,6,4,5,4,5,10,3,2,2,0,-4,-2,-5,-8,-3,-9,-14,-30,-7,-12,-7,-10,-1,-3,-3,-27,-4,-40,-7,-3,-4,-4,-7,-5,-15,-7,-2,-4,-7,-17,-8,-1,-1,0,0,2,4,3,2,2,3,3,3,3,9,5,12,16,26,3,4,5,4,1,3,1,2,5,9,3,24,6,0,2,1,0,0,-1,-2,-3,-8,-3,-6,-13,-6,-10,-11,-14,-11,-11,-12,-11,-15,-13,-14,-14,-24,-11,-10,-62,-152,-89,-106,-11,-27,-74,-89,-30,-20,-24,-22,-35,-33,-20,-29,-43,-25,-67,-368,-48,-326,-61,-71,-30,-20,-23,-26,-27,-24,-25,-31,-21,-16,-18,-204,-68,-27,-16,-14,-10,-11,-30,-29,-12,-13,-13,-15,-32,-20,-20,-21,-22,-6,-15,-20,-12,-17,-33,-31,-16,-56,-221,-249,-164,-129,-227,-109,-174,-255,-173,-30,-64,-30,-373,-30,-44,-340,-76,-19,-32,-39,-29,-11,-19,-46,-42,-14,-57,-102,-15,-45,-58,-74,-67],
      "delta_lng":[0,-307,-193,-48,-58,-340,-174,-91,-112,-77,-29,-52,-74,-9,-122,-209,-109,-111,-46,-55,-29,-35,-36,-64,-69,-50,-44,-45,-22,-71,-57,-63,-18,-40,-51,-57,-66,-54,-23,-26,-46,-15,-16,-26,-14,-2,-7,-5,-4,3,6,20,54,27,19,15,15,27,42,52,43,49,65,56,38,47,45,57,75,101,123,37,37,57,95,56,80,125,41,29,61,212,70,25,251,38,167,250,253,302,64,56,43,45,180,100,45,31,91,120,265,173,1057,1056,105,66,74,69,54,26,16,29,36,61,40,32,63,71,82,54,74,65,76,86,15,43,22,69,141,72,33,65,36,36,27,25,7,33,43,39,16,51,103,45,103,19,33,33,10,35,86,45,44,27,58,44,23,48,57,143,44,129,11,52,53,35,70,50,64,29,151,25,40,91,48,32,54,78,39,48,85,15,13,45,71,35,18,35,74,42,80,47,57,72,230,10,34,27,23,23,25,19,21,11,11,12,14,11,15,9,10,3,13,8,5,4,5,5,0,-4,-7,-4,-9,-8,-17,-32,-31,-55,-27,-29,-14,-19,-19,-16,-9,-9,-8,-6,-4,-8,-1,-2,-4,-9,-13,-8,-11,-8,-7,-12,-10,-21,-25,-22,-30,-23,-3,-29,-31,-11,-23,-21,-29,-19,-10,-6,-2,-14,-9,-38,-21,-47,-15,-85,-11,-6,-50,-53,-14,-2,-2,2,5,20,10,7,23,32,35,4,97,3,123,99,3,31,9,11,1,13,19,6,50,34,30,134,27,120,260,148,202,238,102,154,179,56,234,147,30,53,62,110,25,20,36,44,51,13,96,258,280,46,18,57,55,145,41,226,210,54,281,157,60,52,32,21,13,4,14,33,30,16,21,25,11,18,29,42,41,55,32,28,14,62,66,55,6,35,15,42,59,274,88,68,50,41,49,81,213,253,110,37,123,58,46,61,58,106,98,287,47,44,38,33,30,3,5,22,40,19,22,24,30,32,7,17,10,38,43,42,129,89,6,18,7,178,28,101,68,25,61,81,95,92,38,24,30,53,179,15,146,15,20,14,53,62,90,29,11,20,38,69,36,17,15,4,211,9,39,19,18,125,34,16,243,88,228,24,1,20,169,90,292,210,123,56,15,195,20,32,33,45,102,27,4,9,5,61,38,41,17,28,76,67,40,19,10,63,88,433,37,87,47,59,29,39,24,63,79,49,7,20,6,24,53,34,39,6,23,4,83,12,39,21,66,24,17,36,35,46,68,30,68,95,41,74,116,312,64,90,61,8,23,48,98,117,150,76,43,32,33,18,17,21,32,22,94,109,48,54,35,32,11,54,29,27,30,39,69,175,82,48,85,126,62,140,224,30,233,242,183,208,155,19,150,161,60,29,64,36,37,29,5,24,40,48,90,137,83,41,16,17,3,28,25,43,10,23,38,5,24,70,36,122,98,148,27,47,109,59,50,222,309,259,278,58,64,63,36,41,42,476,66,46,24,18,21,37,26,34,32,82,13,27,56,40,140,196,327,59,17,29,46,37,68,50,151,71,101,135,140,130,276,114,44,26,21,23,21,36,31,39,41,19,11,19,27,248,228,75,199,39,37,51,48,42,44,42,83,62,106,108,41,30,5,10,15,9,26,23,60,24,81,162,57,35,51,145,14,28,45,212,62,72,256,58,69,57,42,48,84,205,202,150,133,36,43,66,33,25,12,16,15,12,41,57,59,78,90,262,59,58,13,33,21,53,33,50,34,95,79,50,20,140,62,30,121,57,53,94,261,75,63,40,141,66,107,24,44,110,319,59,46,30,31,63,92,109,26,86,73,16,31,22,22,59,42,62,33,43,87,29,60,45,43,75,22,56,87,29,99,148,307,55,131,74,87,13,33,35,279,47,390,69,38,29,52,72,49,155,56,20,45,79,213,106,44,18,49,62,92,76,41,45,36,54,63,71,35,156,96,218,314,442,63,70,110,50,35,46,29,28,101,180,56,415,66,22,23,22,19,19,18,24,31,61,27,26,66,31,31,33,33,25,26,24,22,27,23,21,23,30,12,10,60,145,84,101,11,25,69,86,28,18,18,18,25,19,10,13,15,8,15,90,11,73,18,26,12,7,12,15,20,20,25,31,23,23,28,379,129,57,42,37,34,45,118,124,40,41,36,32,58,31,31,27,23,5,16,16,9,12,19,16,7,20,109,94,68,54,91,42,75,103,68,13,36,18,239,20,27,224,50,13,26,34,34,14,30,77,81,27,112,201,28,88,113,142,113]
    },
    {
      "start":"門司",
      "end":"門司港",
      "lat":33.90439,
      "lng":130.93287,
      "delta_lat":[0,105,124,26,99,147,146,229,125,27,79,94,117,84,152,450,85,83,226,6,111,95,625,16,62,48,21,9,7,104,114,102,53,8,54,46,175],
      "delta_lng":[0,82,87,19,64,87,71,83,39,9,24,22,49,33,81,262,28,14,-14,0,9,27,367,11,56,73,57,25,20,262,266,232,93,13,78,52,165]
    },
    {
      "start":"小倉",
      "end":"門司",
      "lat":33.88458,
      "lng":130.89423,
      "delta_lat":[0,11,16,50,46,60,77,38,60,134,39,81,31,20,12,8,20,16,46,4,-4,-12,-1,0,0,10,13,18,29,38,47,257,13,56,67,79,68,224,57,108,145],
      "delta_lng":[0,33,52,117,100,119,123,52,60,111,36,155,72,51,27,23,79,90,343,87,115,359,30,20,53,72,68,54,57,54,51,268,12,70,114,148,87,247,55,85,115]
    },
    {
      "start":"小倉",
      "end":"門司",
      "lat":33.88458,
      "lng":130.89423,
      "delta_lat":[0,57,21,49,129,48,50,38,34,93,12,105,26,18,9,12,70,20,12,1,-3,-22,-2,-5,3,2,20,16,36,31,87,432,40,77,190,56,49,48,122],
      "delta_lng":[0,75,32,52,136,52,71,62,61,187,25,211,57,48,25,34,296,102,109,100,88,273,46,80,26,29,70,41,63,40,91,438,40,114,325,94,71,47,153]
    },
    {
      "start":"日代１",
      "end":"日代２",
      "lat":33.0662,
      "lng":131.91903,
      "delta_lat":[0,-1,-2,-10,-3,-3,-8,-18,-9],
      "delta_lng":[0,77,53,99,28,45,48,84,42]
    },
    {
      "start":"日代２",
      "end":"日代１",
      "lat":33.06567,
      "lng":131.92379,
      "delta_lat":[0,26,15,11,10,10,4,0,-22],
      "delta_lng":[0,-67,-58,-54,-67,-75,-43,-38,-74]
    },
    {
      "start":"大分",
      "end":"日代１",
      "lat":33.23143,
      "lng":131.6094,
      "delta_lat":[0,-32,-18,-21,-19,-19,-10,-17,-26,-20,-13,-12,-7,-4,0,-2,2,0,2,2,3,2,7,11,9,14,10,8,6,6,7,5,38,6,6,17,11,7,12,0,10,19,12,2,6,20,13,9,23,24,47,80,137,70,71,36,38,56,50,41,27,35,28,42,79,36,74,58,18,18,16,29,31,2,7,4,5,2,-20,-18,0,-22,-1,-6,-2,-10,-1,-11,-14,-6,-7,-2,-3,-7,-6,0,-5,0,-5,-10,-12,-5,-6,-2,-15,-1,-2,0,0,2,7,9,5,10,4,5,14,67,98,9,28,4,52,59,25,23,10,10,4,0,-5,-5,-9,-12,-13,-34,-99,-51,-32,-127,-52,-42,-27,-22,-16,-12,-37,-45,-34,-21,-19,-15,-14,-15,-21,-25,-22,-22,-41,-59,-48,-8,-7,-8,-10,-5,-2,-4,1,3,9,8,48,4,11,23,3,4,60,45,31,4,0,-4,-12,-11,-35,-195,-26,-3,-2,-2,-14,-8,0,10,16,18,62,2,6,33,9,8,30,23,6,6,15,4,1,-5,-15,-29,-2,-22,-8,-35,-34,-49,-151,-36,-61,-206,-216,-36,-57,-19,-129,-30,-38,-79,-18,-40,-200,-40,-35,-73,-62,-58,-63,-76,-43,-71,-80,-82,-64,-45,-58,-56,-2,-18,-25,-58,-280,-83,-62,-128,-27,-65,-58,-78,-40,-45,-20,-88,-36,-484,-23,-582,-52,-18,-59,-44,-37,-118,-23,-29,-48,-70,-43,-59,-14,-200,-113,-28,-89,-47,-41,-24,-29,-36,-188,-87,-92,-56,-21,-33,-40,-58,-36,-36,-45,-42,-206,-49,-48,-73,-56,-29,-92,-76,-90,-81,-55,-74,-83,-96,-92,-60,-52,-18,-49,-60,-49,-32,-36,-31,-52,-18,-313,-29,-25,-15,-55,-76,-9,-26,-30,-28,-22,-117,-168,-49,-28,-57,-374,-36,-49,-16,-41,-46,-34,-320,-5,-31,-28,-287,-166,-186,-49,-16,-43,-61,-72,-52,-105,-83,-50,-56,-39,-17,-8,-51,-52,-18,-41,-53,-51,-77,-31,-38,-29,-65,-58,-16,-15,-25,-21,-56,-85,-20,-33,-27,0,-29,-6,-8,-20,-33,-19,-2,-6,-3,-1,4,8,25,17,102,30,14,42,53,38,56,47,17,133,51,90,40,18,16,6,49,25,12,22,24,16,5,2,-7,-23,-26,-51,-5,-179,-20,-9,-2,-31,-23,-6,-9,-50,-20,-2,-21,-33,-30,-35,-9,-47,-32,-39,-43,-15,-36,-53,-37,-29,-103,-25,-38,-42,-43,-47,-65,-49,-43,-132,-17,-329,-263,-363,-160,-19,-12,-80,-102,-66,-38,-51,-22,-32,-51,-13,-25,-44,-41,-41,-42,-9,-116,-83,-9,-21,-46,-51,-43,-40,-47,-41,-43,-44,-42,-43,-32,-24,-30,-33,-24,-16,-11,-9,-27,-68,-6,-47,-5,-46,-18,-45,-32,-15,-41,-15,-13,-17,-12,-14,-61,-105,-31,-54,-33,-25,-23,-6,0,4,12,10,12,20,22,52,45,55,47,21,17,9,9,9,5,5,4,12,13,9,0,-9,-13,-15,-12,-16,-34,-41,-49,-33,-15,-28,-49,-91,-54,-77,-29,-11,-7,-27,-31,-27,-35,-10,-8,-9,-4,-8,-17,-11,-18,-10,-8,-6,-7,-5,-9,-12,-35,-49,-45,-12,-26,-16,-15,-10,-3,1,-4,-4,-3,-4,-7,-2,6,8,4,4,14],
      "delta_lng":[0,78,35,48,42,58,23,43,67,59,43,53,44,31,26,36,43,34,29,17,24,27,47,79,25,54,49,45,46,44,69,46,287,32,48,131,51,36,34,1,23,44,23,4,13,31,20,13,34,29,59,100,180,97,101,57,66,105,102,90,64,96,83,163,299,143,285,219,69,72,57,117,149,7,54,14,97,39,485,395,40,479,37,120,65,243,21,266,327,145,163,43,43,161,168,5,90,4,55,59,54,48,48,15,317,32,33,26,18,28,47,53,14,36,12,14,35,144,199,22,54,11,105,126,65,65,42,46,41,54,88,55,44,45,35,78,207,108,65,260,113,113,92,72,71,61,203,260,195,122,109,78,62,56,55,57,42,32,63,83,84,19,17,25,38,32,10,48,51,50,57,42,350,19,90,170,24,30,450,350,226,51,68,70,91,57,116,667,96,20,13,12,92,100,72,98,101,79,222,5,21,112,31,25,106,82,20,21,59,33,66,65,80,61,4,36,15,41,33,26,65,16,21,75,77,13,38,12,87,17,17,29,7,15,74,13,7,14,-3,-5,-4,9,16,44,57,83,69,36,36,23,1,3,7,4,-8,-4,8,23,0,-4,-6,2,2,17,8,42,16,258,11,311,29,12,41,42,53,188,34,36,49,53,34,34,8,96,53,12,38,11,3,-1,-2,-6,-30,-26,-34,-26,-10,-19,-22,-43,-34,-52,-80,-61,-244,-59,-53,-58,-37,-18,-40,-26,-26,-7,2,15,34,58,53,28,20,7,8,-5,-15,-15,-26,-28,-47,-28,-495,-52,-59,-49,-238,-346,-31,-53,-50,-38,-23,-97,-149,-42,-24,-50,-322,-27,-27,-6,-14,-7,-2,11,0,2,1,6,3,8,2,1,6,24,48,42,97,73,36,27,8,3,1,3,-6,-4,-16,-34,-45,-71,-25,-18,-11,-11,0,5,5,9,9,23,34,7,23,18,1,29,5,13,29,67,56,9,36,45,12,56,46,82,42,218,66,32,90,113,79,119,101,33,283,109,191,90,43,54,33,319,160,101,88,77,59,55,66,66,62,54,106,10,358,46,34,11,125,98,36,43,213,69,5,40,51,42,35,10,45,21,17,10,0,2,-3,-11,-16,-73,-16,-19,-15,-10,0,16,15,21,77,8,184,148,205,92,12,8,61,90,56,27,22,7,10,10,-1,-1,-8,-12,-23,-35,-17,-173,-128,-14,-33,-64,-59,-36,-24,-19,-8,-1,4,12,18,21,20,30,49,43,33,37,34,96,263,21,181,18,182,64,175,127,57,155,50,36,44,22,24,89,147,47,86,63,60,99,39,39,36,55,42,31,34,34,68,56,70,60,36,33,30,44,61,28,39,37,77,98,78,23,60,85,86,35,25,58,59,61,47,28,62,120,223,129,185,72,26,16,71,101,87,108,38,42,74,24,125,261,202,246,184,135,56,66,45,35,34,53,73,67,22,43,35,60,38,37,29,62,85,66,55,70,35,33,54,25,13,68]
    },
    {
      "start":"佐伯",
      "end":"日代２",
      "lat":32.9717,
      "lng":131.90214,
      "delta_lat":[0,189,90,46,34,18,19,75,108,53,27,26,271,247,172,284,124,78,103,88,37,51,253,90,114,46,47,125,319,34,119,50,40,55,30,33,21,26,38,35,23,14,17,12,9,18,11,16,10,68,69,51,103,68,70,67,40,47,13,51,20,23,21,22,22,24,16,19,21,21,31,33,37,52,30,39,57,50,40,12,36,40,38,31,61,64,19,89,62,38,26,34,1,49,25,65,29,29,29,31,11,14,54,46,28,69,26,19,26,30,40,32,28,27,33,27,21,54,43,66,85,29,46,37,76,58,81,81,79,39,37,37,60,21,29,22,27,24,12,4,7,12,16,8,11,20,16,20,25,37,36,115,55,68,62,79,98,47,32,23,56,116,18,20,22,43,29,46,41,36,29,34,28,30,27,39,24,29,53,63,107,24,121,86,18,24,22,43,25],
      "delta_lng":[0,-65,-39,-30,-26,-21,-25,-117,-173,-74,-27,-19,-182,-160,-113,-179,-68,-41,-35,-18,-4,-4,-1,-1,6,5,12,41,113,10,52,26,34,50,37,51,41,60,114,131,98,54,52,40,25,48,20,22,13,64,56,42,82,60,56,56,34,43,13,57,26,34,39,55,66,74,43,39,34,25,28,23,21,31,20,33,54,54,43,20,63,61,48,36,63,68,20,95,55,25,14,11,1,10,0,-1,-3,-5,-4,0,-1,0,-2,-2,1,11,6,13,19,22,26,14,13,9,9,4,-2,-11,-9,-13,-13,-6,-8,-4,-9,-5,-4,-2,-2,3,6,13,31,19,29,30,39,40,23,11,27,56,80,35,38,52,32,31,26,27,21,65,25,20,26,34,44,27,25,23,69,151,22,26,16,28,15,16,9,5,3,-2,-3,-9,-15,-24,-21,-31,-55,-68,-117,-26,-130,-79,-22,-35,-39,-81,-65]
    }
  ]
}