{
  "code":11903,
  "name":"JR鹿児島本線(博多～八代)",
  "station_list":[
    {"code":100319,"id":"dee3bc","name":"博多","name_kana":"はかた","lat":33.590002,"lng":130.420622,"prefecture":40,"lines":[11901,11902,11903,11908,99905,1003,1010],"attr":"heat","postal_code":"812-0012","address":"福岡市博多区博多駅中央街","next":[9990603,9990502,9990504,1190302,3600104,1190230,9990715,3600103],"voronoi":{"lat":33.580138,"lng":130.415351,"delta_lat":[0,5536,12870,32,-686,-18656,-1855,1390],"delta_lng":[0,-2116,8829,65,3855,-77,-3592,-5403]}},
    {"code":1190302,"id":"08c015","name":"竹下","name_kana":"たけした","lat":33.568688,"lng":130.431625,"prefecture":40,"lines":[11903],"attr":"heat","postal_code":"812-0895","address":"福岡市博多区竹下４丁目","next":[9990501,1190303,3600104,100319,3600105,9990502,3600106],"voronoi":{"lat":33.559797,"lng":130.436851,"delta_lat":[0,7198,10384,1855,322,-4170,-11834],"delta_lng":[0,-13582,-954,3592,19861,7040,-10638]}},
    {"code":1190303,"id":"400ca1","name":"笹原","name_kana":"ささばる","lat":33.553612,"lng":130.448396,"prefecture":40,"lines":[11903],"attr":"heat","postal_code":"811-1302","address":"福岡市南区井尻３丁目","next":[1190302,3600106,3600107,9990501,1193104,1190304],"voronoi":{"lat":33.542662,"lng":130.449461,"delta_lat":[0,20889,11834,-24,-2651,-24988],"delta_lng":[0,-7291,10638,9965,2761,-11236]}},
    {"code":1190304,"id":"13dfee","name":"南福岡","name_kana":"みなみふくおか","lat":33.542092,"lng":130.460447,"prefecture":40,"lines":[11903],"attr":"heat","postal_code":"812-0884","address":"福岡市博多区寿町２丁目","next":[3600106,1190305,1190102,3600107,3600108,1190303],"voronoi":{"lat":33.542115,"lng":130.46752,"delta_lat":[0,-924,-16090,9007,8554,5060],"delta_lng":[0,-310,-13421,-9271,4943,4837]}},
    {"code":1190305,"id":"9f4709","name":"春日(福岡)","name_kana":"かすが","lat":33.534701,"lng":130.469308,"prefecture":40,"lines":[11903],"attr":"heat","postal_code":"816-0802","address":"春日市春日原北町","next":[1190304,3600108,1190306,1190102],"voronoi":{"lat":33.525102,"lng":130.453788,"delta_lat":[0,16090,-10333,-17412],"delta_lng":[0,13421,8416,-15797]}},
    {"code":1190306,"id":"c4da5e","name":"大野城","name_kana":"おおのじょう","lat":33.524944,"lng":130.480063,"prefecture":40,"lines":[11903],"attr":"heat","postal_code":"816-0943","address":"大野城市白木原１丁目","next":[3600109,3600108,1190307,3600110,1190305,1190102],"voronoi":{"lat":33.513446,"lng":130.459829,"delta_lat":[0,17412,73,-6715,-5452,-28089],"delta_lng":[0,15797,135,9040,-1492,-19784]}},
    {"code":1190307,"id":"3d2414","name":"水城","name_kana":"みずき","lat":33.51779,"lng":130.49022,"prefecture":40,"lines":[11903],"attr":"heat","postal_code":"816-0952","address":"大野城市下大利３丁目","next":[1190308,1190102,1190306,3600111,3600110],"voronoi":{"lat":33.518765,"lng":130.483309,"delta_lat":[0,-28089,-19385,37775,13579],"delta_lng":[0,-19784,-60,33703,4666]}},
    {"code":1190308,"id":"2889ef","name":"都府楼南","name_kana":"とふろうみなみ","lat":33.503153,"lng":130.506625,"prefecture":40,"lines":[11903],"attr":"heat","postal_code":"818-0105","address":"太宰府市都府楼南３丁目","next":[1190307,3600111,3600112,1190102,1190309,1190312],"voronoi":{"lat":33.444571,"lng":130.457784,"delta_lat":[0,26719,37775,-2506,-9035,-44019],"delta_lng":[0,5681,33703,15413,-772,-31121]}},
    {"code":1190309,"id":"71f1f7","name":"二日市","name_kana":"ふつかいち","lat":33.494515,"lng":130.518843,"prefecture":40,"lines":[11903],"attr":"heat","postal_code":"818-0072","address":"福岡県筑紫野市二日市中央一丁目1-1","next":[3600149,1190310,1190312,3600112,1190308],"voronoi":{"lat":33.49848,"lng":130.519359,"delta_lat":[0,-10943,-32267,-1765,44019],"delta_lng":[0,4467,-35866,-7273,31121]}},
    {"code":1190310,"id":"b95fa1","name":"天拝山","name_kana":"てんぱいざん","lat":33.481847,"lng":130.53024,"prefecture":40,"lines":[11903],"attr":"heat","postal_code":"818-0042","address":"筑紫野市立明寺","next":[1190309,3600113,1190311,1190312,3600114,3600149],"voronoi":{"lat":33.47748,"lng":130.53697,"delta_lat":[0,-13421,-8033,-756,32267,1058],"delta_lng":[0,-11210,-26447,-11352,35866,1936]}},
    {"code":1190311,"id":"4362df","name":"原田(福岡)","name_kana":"はるだ","lat":33.451769,"lng":130.539376,"prefecture":40,"lines":[11903,11912],"attr":"heat","postal_code":"818-0024","address":"筑紫野市大字原田","next":[1190312,3600117,3600116,1190310,3600114,3600115],"voronoi":{"lat":33.461389,"lng":130.542935,"delta_lat":[0,2670,-8033,-16915,5678,4551],"delta_lng":[0,-17176,-26447,48709,3555,932]}},
    {"code":1190312,"id":"6af59f","name":"けやき台","name_kana":"けやきだい","lat":33.434537,"lng":130.533392,"prefecture":41,"lines":[11903],"attr":"eco","postal_code":"841-0201","address":"三養基郡基山町小倉","next":[1190311,1190102,1190313,101002,3600118,1190309,1190502,3600117,1190310,1190308],"voronoi":{"lat":33.45527,"lng":130.48796,"delta_lat":[0,756,-16915,-6345,-6017,6039,2667,5788,3328,8934],"delta_lng":[0,11352,48709,495,-2521,-79917,-4054,-7120,2879,22904]}},
    {"code":1190313,"id":"7dd864","name":"基山","name_kana":"きやま","lat":33.420945,"lng":130.532365,"prefecture":41,"lines":[11903,99901],"attr":"eco","postal_code":"841-0201","address":"三養基郡基山町大字小倉","next":[3600118,1190312,1190314,9990102,101002],"voronoi":{"lat":33.432788,"lng":130.466078,"delta_lat":[0,-6039,-1498,-13698,10185],"delta_lng":[0,79917,122,-16216,-50252]}},
    {"code":1190314,"id":"14fb2c","name":"弥生が丘","name_kana":"やよいがおか","lat":33.401944,"lng":130.528514,"prefecture":41,"lines":[11903],"attr":"cool","postal_code":"841-0011","address":"鳥栖市永吉町字来帰り６３３-１","next":[1190313,9990102,1190315,101002,9990103],"voronoi":{"lat":33.390168,"lng":130.539036,"delta_lat":[0,9028,22542,-10185,-11519],"delta_lng":[0,-40302,-19085,50252,10904]}},
    {"code":1190315,"id":"007b24","name":"田代","name_kana":"たしろ","lat":33.384007,"lng":130.524496,"prefecture":41,"lines":[11903],"attr":"heat","postal_code":"841-0014","address":"鳥栖市桜町","next":[3600121,101002,3600120,9990103,1190316,1190314],"voronoi":{"lat":33.399196,"lng":130.498734,"delta_lat":[0,-10785,-16482,17761,251,227],"delta_lng":[0,4435,32639,3442,-106,-108]}},
    {"code":1190316,"id":"8994c0","name":"鳥栖","name_kana":"とす","lat":33.373864,"lng":130.519374,"prefecture":41,"lines":[11903,11905],"attr":"heat","postal_code":"841-0034","address":"鳥栖市京町","next":[3600122,101002,1190315,1190317,3600121],"voronoi":{"lat":33.37193,"lng":130.535809,"delta_lat":[0,16482,-25043,-11845,18288],"delta_lng":[0,-32639,3177,11963,17839]}},
    {"code":1190317,"id":"f7452b","name":"肥前旭","name_kana":"ひぜんあさひ","lat":33.350237,"lng":130.495981,"prefecture":41,"lines":[11903],"attr":"heat","postal_code":"841-0066","address":"鳥栖市儀徳町","next":[1190503,101003,101002,3600123,3600122,1190502,1190316],"voronoi":{"lat":33.363368,"lng":130.506347,"delta_lat":[0,-4612,-22037,-6944,7597,10999,3152],"delta_lng":[0,-18977,-18533,496,42637,6545,-205]}},
    {"code":101003,"id":"2e81c7","name":"久留米","name_kana":"くるめ","lat":33.319778,"lng":130.501408,"prefecture":40,"lines":[11903,11913,1010],"attr":"cool","postal_code":"830-0022","address":"久留米市城南町２丁目","next":[3600126,3600125,3600129,1190317,3600127,3600128,1190503,3600124,3600123],"voronoi":{"lat":33.337373,"lng":130.511969,"delta_lat":[0,-7597,-14817,-1928,-4929,3558,4368,4289,13970],"delta_lng":[0,-42637,-6390,5225,31689,7435,3939,1638,114]}},
    {"code":1190319,"id":"6eaf40","name":"荒木","name_kana":"あらき","lat":33.277149,"lng":130.50268,"prefecture":40,"lines":[11903],"attr":"cool","postal_code":"830-0062","address":"久留米市荒木町白口","next":[1191337,1190320,3600128,3600129,1191302,3600130],"voronoi":{"lat":33.271317,"lng":130.488866,"delta_lat":[0,15225,2244,-15388,-14027,2921],"delta_lng":[0,10242,8879,23914,12214,-53143]}},
    {"code":1190320,"id":"5286ac","name":"西牟田","name_kana":"にしむた","lat":33.246243,"lng":130.500981,"prefecture":40,"lines":[11903],"attr":"cool","postal_code":"833-0053","address":"筑後市大字西牟田","next":[1190319,3600130,3600132,1191304,1190321,1191302,3600131],"voronoi":{"lat":33.262293,"lng":130.490972,"delta_lat":[0,-2921,-12924,-27492,10729,10291,18311],"delta_lng":[0,53143,23435,29816,-115914,310,5632]}},
    {"code":1190321,"id":"4dbf0b","name":"羽犬塚","name_kana":"はいぬづか","lat":33.209822,"lng":130.49761,"prefecture":40,"lines":[11903],"attr":"cool","postal_code":"833-0031","address":"筑後市山ノ井諏訪ノ前","next":[3600133,1191306,1191304,1190320,3600132,1191305,101004,3600134],"voronoi":{"lat":33.201946,"lng":130.467775,"delta_lat":[0,22619,5120,-10729,-2521,-31965,-20020,34613],"delta_lng":[0,8127,5549,115914,4010,31700,15536,-180798]}},
    {"code":101004,"id":"83dba4","name":"筑後船小屋","name_kana":"ちくごふなごや","lat":33.178058,"lng":130.491529,"prefecture":40,"lines":[11903,1010],"attr":"cool","postal_code":"833-0015","address":"筑後市大字津島","next":[1191306,3600135,1190323,101005,3600134,1190321],"voronoi":{"lat":33.119295,"lng":130.691763,"delta_lat":[0,1259,56735,1740,20034,-34613],"delta_lng":[0,-47577,-188204,294,11538,180798]}},
    {"code":1190323,"id":"b696f6","name":"瀬高","name_kana":"せたか","lat":33.157,"lng":130.485181,"prefecture":40,"lines":[11903],"attr":"eco","postal_code":"835-0024","address":"みやま市瀬高町下庄２３１５","next":[3600135,3600138,101004,1190324,3600139,101005],"voronoi":{"lat":33.115763,"lng":130.527452,"delta_lat":[0,42795,1487,16106,1138,-56735],"delta_lng":[0,-71262,-365,-438,595,188204]}},
    {"code":1190324,"id":"19fa97","name":"南瀬高","name_kana":"みなみせたか","lat":33.133699,"lng":130.471188,"prefecture":40,"lines":[11903],"attr":"eco","postal_code":"835-0013","address":"みやま市瀬高町太神","next":[3600139,3600141,101005,1190325,1190323,3600140],"voronoi":{"lat":33.139678,"lng":130.451452,"delta_lat":[0,18879,-42795,-8893,10805,4806],"delta_lng":[0,4737,71262,-31736,-33190,-4841]}},
    {"code":1190325,"id":"b77e80","name":"渡瀬(福岡)","name_kana":"わたぜ","lat":33.099622,"lng":130.460094,"prefecture":40,"lines":[11903],"attr":"eco","postal_code":"839-0215","address":"みやま市高田町濃施","next":[3600142,101005,3600141,1190324,3600143,1190326],"voronoi":{"lat":33.106869,"lng":130.495716,"delta_lat":[0,10805,-12127,-12193,-2030,1071],"delta_lng":[0,-33190,-8313,4084,18996,4044]}},
    {"code":1190326,"id":"46dc54","name":"吉野(福岡)","name_kana":"よしの","lat":33.075599,"lng":130.466459,"prefecture":40,"lines":[11903],"attr":"eco","postal_code":"837-0906","address":"大牟田市倉永字神屋原","next":[3600143,3600145,101005,1190325,3600144],"voronoi":{"lat":33.078715,"lng":130.458944,"delta_lat":[0,12610,1071,-24894,609],"delta_lng":[0,18349,4044,-4922,-3974]}},
    {"code":1190327,"id":"daa0ce","name":"銀水","name_kana":"ぎんすい","lat":33.054932,"lng":130.460944,"prefecture":40,"lines":[11903],"attr":"eco","postal_code":"837-0917","address":"大牟田市大字草木","next":[3600144,3600145,3600146,101005],"voronoi":{"lat":33.067343,"lng":130.439009,"delta_lat":[0,-1261,-16239,-22206],"delta_lng":[0,7745,35820,13015]}},
    {"code":1190328,"id":"7785f9","name":"大牟田","name_kana":"おおむた","lat":33.029754,"lng":130.443784,"prefecture":40,"lines":[11903,36001],"attr":"heat","postal_code":"836-0843","address":"大牟田市不知火町１丁目","next":[3600147,3600140,1190329,1190520,3600142,3600141],"voronoi":{"lat":33.070802,"lng":130.395543,"delta_lat":[0,-74083,47408,26754,1695,-1416],"delta_lng":[0,103659,-183378,-6186,42997,40307]}},
    {"code":1190329,"id":"069782","name":"荒尾(熊本)","name_kana":"あらお","lat":32.994682,"lng":130.434717,"prefecture":43,"lines":[11903],"attr":"heat","postal_code":"864-0002","address":"荒尾市大字万田","next":[1190332,1190520,1190331,1190328,3600147,1190330],"voronoi":{"lat":32.982292,"lng":130.494472,"delta_lat":[0,11666,2762,47408,-57041,-9536],"delta_lng":[0,12640,-7910,-183378,4923,160255]}},
    {"code":1190330,"id":"04950f","name":"南荒尾","name_kana":"みなみあらお","lat":32.966029,"lng":130.433012,"prefecture":43,"lines":[11903],"attr":"heat","postal_code":"864-0032","address":"荒尾市大字増永","next":[1190520,1190331,9991216,9991217,1190329],"voronoi":{"lat":32.907405,"lng":130.385499,"delta_lat":[0,21696,56303,1683,-9536],"delta_lng":[0,-22320,-42501,68,160255]}},
    {"code":1190331,"id":"bcfd0b","name":"長洲","name_kana":"ながす","lat":32.935205,"lng":130.455652,"prefecture":43,"lines":[11903],"attr":"heat","postal_code":"869-0121","address":"玉名郡長洲町高浜１４７９","next":[9991221,1190330,1190332,1190329,9991220,9991217,9991219,9991218],"voronoi":{"lat":32.859982,"lng":130.42481,"delta_lat":[0,-14136,-6420,142865,-4741,-70146,-566,-43698],"delta_lng":[0,17256,10926,41480,-13470,-95502,342,36012]}},
    {"code":1190332,"id":"45e8b3","name":"大野下","name_kana":"おおのしも","lat":32.921737,"lng":130.502038,"prefecture":43,"lines":[11903],"attr":"heat","postal_code":"869-0224","address":"玉名市岱明町大野下","next":[1192406,3600147,9991223,1190329,9991222,1190331,1190333,101005,1190334,9991221],"voronoi":{"lat":32.803202,"lng":130.491378,"delta_lat":[0,-5439,8992,14309,177458,-115,-4450,-11666,-142865,-12492],"delta_lng":[0,6277,35656,1436,-16365,-1290,-9981,-12640,-41480,12476]}},
    {"code":1190333,"id":"32295a","name":"玉名","name_kana":"たまな","lat":32.926021,"lng":130.548494,"prefecture":43,"lines":[11903],"attr":"heat","postal_code":"865-0064","address":"玉名市中","next":[1190332,1190334,101006,101005],"voronoi":{"lat":32.998522,"lng":130.518383,"delta_lat":[0,-177458,101576,75966],"delta_lng":[0,16365,33907,-50066]}},
    {"code":1190334,"id":"536a04","name":"肥後伊倉","name_kana":"ひごいくら","lat":32.913233,"lng":130.586803,"prefecture":43,"lines":[11903],"attr":"heat","postal_code":"865-0041","address":"玉名市伊倉北方","next":[101006,1192405,1190336,101007,1192406,1190335,1190333,1190332],"voronoi":{"lat":32.92264,"lng":130.568654,"delta_lat":[0,16349,-76159,-40399,-15227,-1992,1543,14309],"delta_lng":[0,35963,6331,-8407,-18570,-37702,-12958,1436]}},
    {"code":1190335,"id":"920b46","name":"木葉","name_kana":"このは","lat":32.916528,"lng":130.626441,"prefecture":43,"lines":[11903],"attr":"heat","postal_code":"869-0303","address":"玉名郡玉東町大字木葉","next":[1191306,9991713,101006,1190334,1190336,101005,1191308,1191309],"voronoi":{"lat":33.038792,"lng":130.723486,"delta_lat":[0,-175961,76159,171840,6050,-1503,-58,-2926],"delta_lng":[0,-112537,-6331,84299,6794,38822,194,7530]}},
    {"code":1190336,"id":"fdf9b7","name":"田原坂","name_kana":"たばるざか","lat":32.899416,"lng":130.653197,"prefecture":43,"lines":[11903],"attr":"heat","postal_code":"861-0155","address":"熊本市北区植木町轟1687","next":[1190334,1190335,9991713,1190337,101007,1190339],"voronoi":{"lat":32.823325,"lng":130.60533,"delta_lat":[0,-893,40399,175961,-86106,-112960],"delta_lng":[0,-2788,8407,112537,-12820,-78434]}},
    {"code":1190337,"id":"e2c7bf","name":"植木","name_kana":"うえき","lat":32.880226,"lng":130.680834,"prefecture":43,"lines":[11903],"attr":"heat","postal_code":"861-0142","address":"熊本市北区植木町鐙田75","next":[1190338,9991713,9991711,9991710,1190339,9991712,1190336],"voronoi":{"lat":32.839725,"lng":130.632231,"delta_lat":[0,9900,34669,6754,8169,2200,51268],"delta_lng":[0,34645,46008,1057,266,-21,-3521]}},
    {"code":1190338,"id":"9558d5","name":"西里","name_kana":"にしさと","lat":32.854607,"lng":130.700139,"prefecture":43,"lines":[11903],"attr":"heat","postal_code":"861-5522","address":"熊本市下硯川町","next":[1190337,9991707,9991710,9991803,9991706,9991709,1190339,9991705],"voronoi":{"lat":32.84195,"lng":130.707953,"delta_lat":[0,-794,8470,34669,-737,-11184,-7259,-16239],"delta_lng":[0,-2977,-38099,46008,282,2824,-323,-3637]}},
    {"code":1190339,"id":"90c9bf","name":"崇城大学前","name_kana":"そうじょうだいがくまえ","lat":32.83102,"lng":130.694895,"prefecture":43,"lines":[11903],"attr":"heat","postal_code":"860-0082","address":"熊本市池田４丁目","next":[1190340,9991803,1190337,9991802,9992304,101007,1190338,1190336,9992305],"voronoi":{"lat":32.818909,"lng":130.678557,"delta_lat":[0,4535,7707,10004,8470,-9900,-16401,-5772,736],"delta_lng":[0,15803,7484,3131,-38099,-34645,-26902,37734,29352]}},
    {"code":1190340,"id":"a280ec","name":"上熊本(JR/熊本電気鉄道)","name_kana":"かみくまもと","lat":32.817305,"lng":130.698831,"prefecture":43,"lines":[11903,99918],"attr":"heat","postal_code":"860-0079","address":"熊本市上熊本２丁目","next":[1190339,9992301,9991802,9992303,9992302,9992304],"voronoi":{"lat":32.818909,"lng":130.678557,"delta_lat":[0,4535,-2632,-4656,-253,680],"delta_lng":[0,15803,5881,-1552,-4459,-6855]}},
    {"code":101007,"id":"278487","name":"熊本","name_kana":"くまもと","lat":32.789207,"lng":130.688499,"prefecture":43,"lines":[11903,11923,11924,1010],"attr":"heat","postal_code":"860-0047","address":"熊本市春日３丁目","next":[1190334,9992307,9992202,1192405,1190351,9992203,1190339,9992201,1190336,9992305],"voronoi":{"lat":32.800354,"lng":130.68576,"delta_lat":[0,-12069,-1061,-1965,8961,12985,15227,893,-5772,-17005],"delta_lng":[0,3654,-2712,-46490,-43742,-12498,18570,2788,37734,42463]}},
    {"code":1190351,"id":"e05fbc","name":"西熊本","name_kana":"にしくまもと","lat":32.762639,"lng":130.683056,"prefecture":43,"lines":[11903,11924],"attr":"eco","postal_code":"861-4134","address":"熊本市南区刈草一丁目","next":[1192302,1192405,1190342,9992201,101007],"voronoi":{"lat":32.772211,"lng":130.693199,"delta_lat":[0,-24785,16351,30442,-8961],"delta_lng":[0,22905,-97964,-21670,43742]}},
    {"code":1190342,"id":"5e9dca","name":"川尻","name_kana":"かわしり","lat":32.743772,"lng":130.679907,"prefecture":43,"lines":[11903,11924],"attr":"heat","postal_code":"861-4113","address":"熊本市八幡町","next":[1192404,9992221,9992226,9992224,9992225,1192302,1190350,1190351,1192405],"voronoi":{"lat":32.738289,"lng":130.635744,"delta_lat":[0,-24766,1840,8221,3514,14793,5535,16351,-16506],"delta_lng":[0,105056,-783,-3774,-1726,-9560,-8854,-97964,8401]}},
    {"code":1190350,"id":"ef6ee8","name":"富合","name_kana":"とみあい","lat":32.713658,"lng":130.672808,"prefecture":43,"lines":[11903,11924],"attr":"heat","postal_code":"861-4163","address":"熊本県熊本市南区富合町志々水63-6","next":[1192404,1190342,9992226,1190343],"voronoi":{"lat":32.713523,"lng":130.740801,"delta_lat":[0,24766,-30419,-20720],"delta_lng":[0,-105056,14415,109950]}},
    {"code":1190343,"id":"6955dc","name":"宇土","name_kana":"うと","lat":32.694237,"lng":130.669148,"prefecture":43,"lines":[11903,11924],"attr":"eco","postal_code":"869-0406","address":"宇土市三拾町","next":[9992226,1192404,1190344,1190350],"voronoi":{"lat":32.676709,"lng":130.769653,"delta_lat":[0,-4098,35260,-20720],"delta_lng":[0,-119279,-215,109950]}},
    {"code":1190344,"id":"2d36fe","name":"松橋","name_kana":"まつばせ","lat":32.652324,"lng":130.670588,"prefecture":43,"lines":[11903],"attr":"cool","postal_code":"869-0551","address":"宇城市不知火町御領","next":[9992226,1192404,1192407,1190345,1190343,1190346],"voronoi":{"lat":32.607926,"lng":130.602416,"delta_lat":[0,22077,42608,4098,-5917,-63101],"delta_lng":[0,2710,45249,119279,8231,-136410]}},
    {"code":1190345,"id":"6824ed","name":"小川(熊本)","name_kana":"おがわ","lat":32.600979,"lng":130.694339,"prefecture":43,"lines":[11903],"attr":"cool","postal_code":"869-0623","address":"宇城市小川町川尻","next":[9992226,9992014,9992012,1190344,9991906,1190346,1192503],"voronoi":{"lat":32.482248,"lng":130.839106,"delta_lat":[0,125443,63101,-61019,-49184,-65768,-19770],"delta_lng":[0,-197631,136410,161880,30995,-73556,-25347]}},
    {"code":1190346,"id":"4793d5","name":"有佐","name_kana":"ありさ","lat":32.562711,"lng":130.670049,"prefecture":43,"lines":[11903],"attr":"cool","postal_code":"869-4212","address":"八代市鏡町下有佐","next":[1192503,1192502,1190345,1190347,1192407,1190344],"voronoi":{"lat":32.607926,"lng":130.602416,"delta_lat":[0,-9270,-98219,-10290,-7899,125443],"delta_lng":[0,-7895,121621,40046,82918,-197631]}},
    {"code":1190347,"id":"772ef7","name":"千丁","name_kana":"せんちょう","lat":32.532387,"lng":130.64556,"prefecture":43,"lines":[11903],"attr":"cool","postal_code":"869-4702","address":"八代市千丁町吉王丸","next":[1192502,1192410,1192409,101008,1190346,1192407],"voronoi":{"lat":32.582356,"lng":130.572176,"delta_lat":[0,-3368,-1391,-77275,115,98219],"delta_lng":[0,-2681,-734,105291,42089,-121621]}},
    {"code":101008,"id":"a00705","name":"新八代","name_kana":"しんやつしろ","lat":32.517888,"lng":130.634919,"prefecture":43,"lines":[11903,1010],"attr":"cool","postal_code":"866-0824","address":"八代市上日置町字女夫木４７７４-２","next":[1192502,1190347,1190349,1192410],"voronoi":{"lat":32.571141,"lng":130.564468,"delta_lat":[0,-76941,6121,77275],"delta_lng":[0,81410,28175,-105291]}},
    {"code":1190349,"id":"5c4fda","name":"八代","name_kana":"やつしろ","lat":32.503805,"lng":130.621609,"prefecture":43,"lines":[11903,11925,99921],"attr":"cool","postal_code":"866-0831","address":"八代市萩原町１丁目","next":[1192410,9992102,1192502,101008],"voronoi":{"lat":32.484888,"lng":130.632096,"delta_lat":[0,35223,51031,-76941],"delta_lng":[0,-110337,42708,81410]}}
  ],
  "north":33.59458,
  "south":32.50375,
  "east":130.70278,
  "west":130.42051,
  "polyline_list":[
    {
      "start":"田原坂",
      "end":"博多",
      "lat":32.89012,
      "lng":130.65897,
      "delta_lat":[0,9,343,104,35,41,61,27,122,148,63,43,66,50,40,47,61,18,31,45,33,43,40,47,54,172,16,49,45,16,20,212,297,75,34,2,29,36,11,6,-4,-18,-31,-18,-9,-4,0,1,0,5,9,18,35,99,33,48,37,15,13,11,2,3,-5,-5,-24,-50,-64,-12,-11,-13,-7,2,2,0,12,29,6,21,0,4,-4,-14,-11,-33,-54,-32,-51,-76,-40,-31,-9,-12,-8,-21,-16,-9,-31,-15,-7,-3,1,17,12,4,22,1,2,22,3,15,5,2,6,12,15,5,6,2,3,2,7,4,11,18,3,49,5,42,24,3,9,4,23,2,13,11,13,19,36,20,16,11,16,27,26,3,6,25,43,5,19,76,43,38,22,24,27,31,34,25,11,16,8,11,8,13,76,72,0,5,18,4,2,0,3,2,1,1,7,10,19,26,42,5,2,8,-5,0,-7,-13,-1,-2,-2,-9,0,-7,-8,-1,-7,-5,-9,-6,-6,-15,-11,-7,-21,-29,-25,-6,-31,-30,-31,-30,-26,-20,-20,-19,-11,-6,-2,0,0,2,9,13,12,4,0,0,0,-2,-7,-7,-10,-12,-7,-7,-6,-7,-8,-12,-1,-10,-1,-1,4,20,22,14,20,14,1,5,3,9,8,8,19,43,9,2,5,91,5,7,18,80,112,6,31,19,25,13,13,184,55,32,32,11,8,12,5,13,20,24,11,12,7,6,18,7,82,21,157,83,19,14,7,0,0,-4,-3,-14,-2,-5,-11,-3,-12,-2,-1,3,4,3,5,6,15,28,22,38,38,25,63,50,79,56,71,187,110,328,54,455,326,96,514,64,27,279,196,78,62,206,265,64,47,143,110,150,122,306,22,249,96,275,276,14,165,243,82,678,23,151,54,47,148,23,66,171,58,67,18,84,59,106,51,63,42,68,19,74,76,81,58,64,68,58,69,54,162,91,43,49,237,206,12,123,83,100,251,273,164,49,143,83,230,139,29,128,356,230,112,242,30,116,60,242,105,141,72,47,8,55,67,125,490,161,90,92,58,92,401,29,21,377,224,47,208,8,26,16,46,9,43,114,184,250,224,237,23,27,26,25,27,27,25,24,24,140,263,452,70,54,233,49,129,92,79,278,854,223,216,135,62,139,11,349,377,92,259,36,42,169,266,195,190,129,45,211,44,45,22,23,24,25,23,25,24,25,24,27,25,273,17,17,102,106,57,28,60,85,79,8,18,101,106,78,63,40,83,67,75,79,100,101,123,117,59,78,125,81,92,109,4,115,119,112,129,123,65,117,65,44,36,116,115,24,18,101,67,71,70,72,34,140,86,82,70,24,183,2,15,1,94,12,2,192,55,31,2,2,2,61,10,9,1,18,20,7,8,1,42,9,4,27,1,9,4,9,150,62,92,24,45,6,2,6,22,27,14,11,18,17,56,21,34,45,85,78,109,4,7,49,170,66,87,61,37,90,58,3,25,6,3,118,244,13,30,19,1,15,45,163,143,14,13,45,60,23,43,86,177,101,29,117,31,50,24,14,19,23,331,121,12,18,212,39,151,108,366,276,83,14,342,154,204,71,95,43,94,33,87,265,86,54,20,23,99,20,184,559,159,423,130,20,72,125,20,22,29,269,129,79,80,62,96,105,16,62,29,7,83,72,84,55,10,54,15,56,216,179,11,15,46,51,76,62,29,68,167,59,38,47,33,31,33,42,179,244,156,153,20,194,24,209,19,331,119,31,136,152,50,258,138,17,17,17,16,16,16,16,15,14,14,19,18,13,12,44,14,25,293,13,96,25,60,16,26,14,143,20,220,15,9,12,160,57,42,97,54,36,42,40,118,153,129,383,298,160,346,101,46,28,16,15,13,12,14,13,13,14,13,93,154,96,27,24,20,62,43,25,40,251,81,20,104,48,29,4,14,618,177,25,129,194,37,219,163,34,29,61,15,36,88,76,15,44,144,7,24,23,40,40,37,26,248,148,119,93,103,15,145,89,145,104,65,31,40,40,102,163,47,111,21,47,103,98,63,81,72,13,96,68,70,55,60,67,85,104,58,50,57,20,42,150,54,124,62,115,48,19,46,113,51,31,31,74,16,23,112,111,48,65,10,30,60,121,102,126,392,139,36,18,21,124,56,201,148,36,13,207,206,71,194,181,112,35,22,55,9,17,36,21,34,45,33,30,8,26,44,50,15,31,71,37,4,59,10,23,34,35,34,46,39,7,7,8,48,78,22,209,159,107,114,273,79,47,6,7,22,35,14,14,20,35,16,25,17,28,34,42,264,134,148,69,151,82,76,14,183,171,95,111,186,53,182,133,70,141,132,77,87,18,157,49,37,25,15,41,30,26,120,158,134,98,47,67,92,81,173,4,107,59,58,37,37,24,81,62,76,66,11,37,114,50,179,121,69,25,78,105,20,54,50,96,85,188,45,71,27,16,50,48,36,41,40,38,36,11,83,54,168,54,76,42,67,52,201,341,17],
      "delta_lng":[0,-8,-287,-87,-22,-26,-27,-11,-42,-55,-25,-24,-43,-36,-41,-58,-81,-31,-56,-67,-47,-38,-29,-28,-21,-57,-6,-24,-33,-15,-19,-207,-293,-81,-51,-2,-67,-104,-73,-64,-51,-91,-105,-70,-57,-62,-65,-34,-70,-86,-60,-60,-78,-175,-58,-88,-89,-45,-49,-54,-38,-39,-30,-25,-92,-182,-239,-42,-41,-61,-80,-50,-33,-9,-116,-266,-36,-166,-34,-96,-42,-71,-42,-78,-84,-49,-65,-106,-57,-51,-19,-28,-19,-59,-58,-51,-204,-105,-65,-66,-60,-114,-74,-31,-130,-1,-14,-137,-21,-91,-14,-13,-32,-71,-80,-28,-21,-10,-9,-7,-23,-13,-28,-44,-6,-103,-13,-89,-48,-6,-19,-8,-48,-6,-24,-24,-28,-40,-73,-44,-30,-20,-24,-34,-27,-4,-7,-23,-36,-5,-14,-58,-26,-25,-16,-18,-28,-38,-44,-34,-17,-28,-19,-25,-23,-40,-336,-355,-7,-20,-96,-19,-17,-1,-9,-10,-8,-4,-37,-52,-102,-127,-228,-44,-15,-103,-87,-14,-174,-254,-34,-43,-55,-223,-3,-168,-132,-30,-134,-103,-160,-69,-61,-133,-60,-40,-96,-126,-108,-19,-126,-127,-128,-125,-108,-80,-99,-92,-60,-37,-31,-36,-1,-29,-66,-63,-68,-27,-4,-28,-34,-37,-62,-68,-60,-71,-59,-71,-61,-68,-62,-130,-28,-103,-69,-62,-70,-158,-191,-103,-159,-117,-18,-33,-23,-48,-29,-29,-62,-144,-26,-7,-18,-311,-15,-23,-59,-269,-382,-16,-107,-57,-64,-30,-27,-336,-107,-59,-58,-32,-31,-55,-32,-108,-167,-162,-92,-77,-31,-27,-55,-28,-267,-67,-510,-223,-58,-59,-41,-36,-3,-61,-31,-81,-16,-31,-81,-24,-134,-39,-99,-57,-51,-12,-27,-33,-49,-72,-45,-61,-49,-28,-57,-37,-45,-28,-24,-56,-34,-99,-17,-135,-100,-29,-157,-17,-6,-13,-4,-8,-3,-8,-9,-4,-2,-7,0,0,13,33,3,33,15,34,34,2,20,31,11,85,4,18,5,5,19,3,21,54,20,20,5,26,18,33,7,-2,-3,-11,-3,-12,-7,-5,3,6,17,18,28,27,106,63,31,37,174,150,8,86,58,70,173,192,104,32,94,57,152,92,20,85,232,140,73,159,20,74,40,154,69,70,23,6,0,3,-5,-15,-58,-21,-12,-15,-12,-24,-119,-9,-6,-117,-47,-9,-38,-3,-3,-6,-13,-3,-13,-34,-48,-72,-66,-65,-4,-1,1,2,2,7,7,8,10,57,111,185,30,22,98,20,56,42,35,117,358,93,93,57,31,76,6,199,215,53,150,22,30,145,219,161,148,100,37,171,34,26,12,9,10,8,8,5,5,4,3,2,0,-9,0,0,-2,-2,-2,-3,-1,-4,-4,-1,0,-5,-6,0,3,5,18,16,20,19,28,28,36,35,15,13,23,13,16,20,0,21,21,20,21,20,12,17,13,7,6,18,21,4,2,17,11,11,12,11,6,20,13,14,12,2,32,2,1,0,16,2,2,32,10,6,-1,1,0,11,1,1,2,3,2,1,0,1,8,3,-2,5,2,0,1,0,27,10,16,4,6,4,-1,1,3,6,1,3,1,3,6,0,3,1,3,2,4,-1,1,2,5,2,1,2,2,2,2,0,2,1,-1,3,8,0,1,0,0,0,3,4,4,1,0,2,3,0,1,3,5,4,1,11,3,6,2,4,3,2,46,17,0,4,28,4,21,5,-2,2,0,0,-2,-1,1,0,1,-2,4,2,14,46,9,0,0,0,0,0,1,5,0,0,0,0,-1,1,0,0,0,0,-6,-9,-13,-15,-25,-24,-4,-12,-5,-2,-14,-8,-15,-8,-2,-10,-4,-9,-46,-48,-4,-3,-15,-13,-28,-28,-17,-41,-115,-40,-20,-22,-11,-8,-6,-3,-9,-12,-10,-5,-1,-11,-1,-9,0,-14,-6,-1,-7,-3,-2,-17,-2,2,3,4,5,6,6,8,7,9,11,15,18,12,13,61,22,39,450,20,148,39,92,25,38,24,223,31,338,22,14,18,242,78,48,101,49,33,32,26,63,70,64,189,143,75,176,52,20,13,5,6,3,3,2,1,1,0,0,-14,-29,-18,-4,-4,-1,4,4,5,8,53,18,4,21,11,6,0,4,133,38,4,28,41,7,46,30,7,5,24,0,0,-4,-10,-3,-12,-46,-2,-6,-6,-4,1,6,6,93,54,43,0,-5,-1,-8,-3,-6,3,13,10,16,18,53,93,21,39,6,26,81,72,43,37,24,3,26,18,14,5,3,-6,-18,-24,-15,-15,-10,-4,-1,-9,0,0,-2,-2,-1,0,-1,-3,-2,-1,1,-1,-1,0,-4,-5,-4,-4,-2,-12,-32,-79,-66,-86,-265,-100,-30,-15,-16,-109,-55,-182,-134,-33,-12,-187,-187,-65,-171,-169,-105,-34,-20,-51,-7,-15,-41,-27,-50,-80,-60,-52,-15,-47,-81,-86,-28,-53,-128,-68,-7,-108,-18,-46,-62,-65,-50,-66,-50,-6,-9,-7,-52,-77,-22,-197,-152,-98,-105,-257,-85,-56,-13,-10,-33,-75,-39,-52,-77,-133,-58,-58,-36,-45,-40,-43,-249,-129,-136,-66,-141,-87,-90,-16,-218,-204,-113,-133,-224,-60,-212,-159,-87,-187,-166,-99,-102,-21,-193,-63,-49,-38,-15,-42,-31,-22,-81,-106,-90,-67,-36,-59,-86,-81,-170,-4,-108,-59,-63,-42,-47,-37,-123,-97,-110,-99,-15,-48,-151,-60,-194,-120,-66,-23,-75,-99,-17,-49,-46,-84,-76,-167,-36,-50,-15,-9,-25,-19,-12,-10,-9,-6,-4,0,0,1,4,2,2,2,2,-12,8,37,1]
    },
    {
      "start":"田原坂",
      "end":"植木",
      "lat":32.89012,
      "lng":130.65897,
      "delta_lat":[0,-91,-69,-96,-694,-45,-55,-19,-33,-27,-22,-25,-12,-6,-7,0,5,16],
      "delta_lng":[0,75,56,76,589,44,63,25,49,52,47,62,51,36,71,79,85,97]
    },
    {
      "start":"田原坂",
      "end":"植木",
      "lat":32.89012,
      "lng":130.65897,
      "delta_lat":[0,-48,-60,-61,-60,-52,-63,-79,-77,-135,-57,-56,-31,-66,-33,-31,-56,-48,-54,-33,-35,-20,-19,-26,-30,-25,0,1,6,3,4,14,47],
      "delta_lng":[0,24,18,8,-5,-20,-25,-20,-15,-9,0,11,7,29,18,18,48,46,69,49,71,86,109,217,243,209,35,31,38,16,32,58,161]
    },
    {
      "start":"西熊本",
      "end":"植木",
      "lat":32.76012,
      "lng":130.68276,
      "delta_lat":[0,22,108,56,87,154,218,36,49,72,134,64,81,45,62,74,115,76,40,85,54,56,56,11,79,74,44,41,17,23,2,22,29,51,44,44,22,26,29,53,47,109,25,24,19,105,44,46,145,145,77,90,32,27,25,31,39,46,21,17,41,101,156,10,71,121,24,14,76,110,112,231,36,19,34,36,43,105,151,374,58,50,60,14,143,106,51,110,49,65,44,39,28,101,99,179,85,83,176,85,28,48,67,83,81,70,64,53,64,58,19,24,26,14,35,38,28,61,60,29,46,46,39,66,150,47,154,42,74,12,158,52,60,74,59,71,40,58,63,50,140,72,105,37,22,58,78,72,68,56,15,40,45,25,133,24,60,63,80,65,26,47,52,5,78,65,53,20,38,131,42,77,67,69,74,53,52,41,192,45,53,43,60,36,27,24,14,21,9,4,0,-4,-12,-9,-53,-103,-45],
      "delta_lng":[0,6,25,13,14,27,44,7,4,10,24,13,14,9,13,13,22,14,8,17,11,12,12,2,14,10,-1,-1,-3,0,-1,-2,-6,-11,-12,-9,-4,-3,-1,1,3,33,11,12,11,58,31,27,99,98,50,58,22,19,26,44,40,45,14,15,18,28,42,2,20,31,2,1,2,-1,-1,-2,4,4,9,14,18,44,62,157,24,20,22,5,51,41,19,33,10,8,-1,-6,-9,-52,-54,-96,-49,-50,-99,-47,-11,-12,-10,-8,2,1,1,2,6,17,6,12,12,7,25,36,30,81,84,32,39,33,25,23,59,16,62,16,38,6,80,21,15,10,-1,-10,-13,-26,-33,-34,-113,-62,-91,-32,-12,-30,-29,-28,-44,-47,-17,-44,-63,-50,-247,-35,-77,-54,-53,-27,-7,-9,0,0,9,13,15,10,26,87,22,29,16,6,-5,-10,-21,-16,-76,-18,-20,-31,-59,-45,-42,-49,-46,-75,-54,-85,-109,-133,-103,-36,-199,-367,-169]
    },
    {
      "start":"八代",
      "end":"西熊本",
      "lat":32.50375,
      "lng":130.62254,
      "delta_lat":[0,132,2,19,33,7,11,19,21,34,35,25,32,18,26,61,40,32,26,30,17,12,1,41,0,38,8,16,20,12,6,9,55,57,40,16,23,32,35,45,28,53,62,9,32,109,18,132,291,159,364,1,16,49,248,145,171,191,50,5,16,4,125,151,172,141,21,26,116,164,7,19,3,62,16,126,105,88,32,75,329,252,113,328,56,90,107,0,135,38,9,22,66,12,34,21,28,4,23,54,25,26,56,97,185,235,9,787,418,52,109,128,217,81,59,197,12,35,29,27,39,40,31,43,23,45,58,144,57,161,23,248,152,125,32,131,25,19,71,36,67,15,25,63,33,29,41,16,114,94,2,297,196,382,70,177,234,173,138,279,89,76,46,103,324,22,84,79,4,21,19,23,20,42,66,36,16,31,13,3,15,20,36,34,40,36,131,74,32,29,69,210,215,93,49,35,66,38,31,40,45,73,48,132,72,67,172,224,197,50,31,89,204,54,17,25,30,44,23,224,129,123,330,196,162,80,103,264,238,97,242,3,103,38,64,79,30,241,222,427,101,214,133,96,338,29,49,76,149,50,212,194,219,5,56,70,50,99,184,71,74,63,40,21,1,66,134,74,13,13,26,100,40,2,95,174,208,90,109,108,176,127,111,161,191,57,73,38,96,76,49,94],
      "delta_lng":[0,-268,-2,-39,-67,-15,-18,-30,-26,-31,-31,-16,-16,-6,-4,-1,2,5,11,15,14,10,1,38,2,39,12,26,40,32,16,30,292,334,142,47,66,62,71,69,39,68,68,8,32,98,14,106,230,126,289,1,13,39,199,112,135,152,41,3,15,2,103,120,140,110,16,23,92,131,5,16,2,49,14,101,85,68,27,60,265,204,89,265,58,90,105,1,135,41,10,29,117,21,62,37,50,7,43,82,28,25,45,60,121,153,6,513,275,33,72,77,133,50,36,124,5,10,8,4,2,1,-1,-1,-3,-5,-10,-41,-16,-34,-5,-52,-31,-31,-9,-30,-7,-4,-18,-8,-18,-5,-8,-27,-15,-13,-25,-9,-60,-52,-1,-160,-107,-206,-37,-96,-127,-97,-75,-152,-49,-42,-24,-58,-176,-13,-45,-44,-2,-14,-17,-26,-31,-69,-109,-58,-23,-41,-14,-4,-13,-15,-23,-13,-12,4,-8,0,5,8,30,76,79,33,13,6,7,1,-4,-9,-17,-32,-23,-62,-32,-32,-80,-108,-92,-25,-18,-37,-90,-23,-8,-4,-6,0,4,46,25,23,67,39,33,17,23,53,47,21,50,0,21,6,13,16,6,49,42,83,20,42,24,21,64,5,11,13,28,10,41,38,44,1,19,28,24,61,111,41,34,22,6,3,0,5,3,3,0,0,3,6,1,2,6,14,20,13,16,18,34,27,24,34,37,10,13,7,17,14,9,21]
    }
  ]
}