{
  "code":11907,
  "name":"JR日豊本線(佐伯～鹿児島中央)",
  "station_list":[
    {"code":1190660,"id":"5065cb","name":"佐伯","name_kana":"さいき","lat":32.972521,"lng":131.901857,"prefecture":44,"lines":[11906,11907],"attr":"cool","postal_code":"876-0803","address":"佐伯市駅前２丁目","next":[1190658,1190709,9981508,1190713,1190659,1190657,1190702,1190707],"voronoi":{"lat":32.710913,"lng":131.983859,"delta_lat":[0,263257,19258,-6015,-76087,-406129,12514,119922],"delta_lng":[0,-106063,32593,84407,310923,-20006,-25224,-183239]}},
    {"code":1190702,"id":"372000","name":"上岡","name_kana":"かみおか","lat":32.956302,"lng":131.8616,"prefecture":44,"lines":[11907],"attr":"cool","postal_code":"876-0045","address":"佐伯市上岡区上岡","next":[1190659,1190707,1190704,1190703,1190655,1190660],"voronoi":{"lat":32.724851,"lng":131.962865,"delta_lat":[0,82649,208265,-342,-41253,-263257],"delta_lng":[0,-58041,-108226,19007,62191,106063]}},
    {"code":1190703,"id":"49fb57","name":"直見","name_kana":"なおみ","lat":32.928396,"lng":131.807899,"prefecture":44,"lines":[11907],"attr":"heat","postal_code":"879-3103","address":"佐伯市直川大字下直見","next":[1190653,1192331,1190702,1190655,1192330,1190704],"voronoi":{"lat":32.985257,"lng":131.718553,"delta_lat":[0,28294,1403,4426,-3614,-208265],"delta_lng":[0,12718,1226,54746,9356,108226]}},
    {"code":1190704,"id":"e753ed","name":"直川","name_kana":"なおかわ","lat":32.898667,"lng":131.779529,"prefecture":44,"lines":[11907],"attr":"eco","postal_code":"879-3102","address":"佐伯市直川大字上直見","next":[1190702,1192330,1190706,1190707,1190703,1190705],"voronoi":{"lat":32.938083,"lng":131.685041,"delta_lat":[0,47173,-177756,-82649,41683,30115],"delta_lng":[0,33511,186272,58041,-102491,-46495]}},
    {"code":1190705,"id":"baf985","name":"重岡","name_kana":"しげおか","lat":32.840339,"lng":131.715499,"prefecture":44,"lines":[11907],"attr":"eco","postal_code":"879-3201","address":"佐伯市宇目大字大平","next":[1190706,1192328,1190704,1192330,1192329],"voronoi":{"lat":32.845427,"lng":131.577218,"delta_lat":[0,-9362,-39416,141434,-9826],"delta_lng":[0,-6469,243131,-128838,-17307]}},
    {"code":1190706,"id":"06be1c","name":"宗太郎","name_kana":"そうたろう","lat":32.78628,"lng":131.706735,"prefecture":44,"lines":[11907],"attr":"eco","postal_code":"879-3204","address":"佐伯市宇目大字重岡","next":[1190707,1190705,1190704,1192327,1190708,1192328],"voronoi":{"lat":32.773897,"lng":131.507386,"delta_lat":[0,-15865,-8348,16851,30115,39416],"delta_lng":[0,-12756,88357,277387,-46495,-243131]}},
    {"code":1190707,"id":"6b17c9","name":"市棚","name_kana":"いちたな","lat":32.728336,"lng":131.710255,"prefecture":45,"lines":[11907],"attr":"heat","postal_code":"882-0097","address":"延岡市北川町川内名","next":[1190706,1190702,1190708,1190704,1190660,1190709],"voronoi":{"lat":32.684862,"lng":131.777896,"delta_lat":[0,64821,16851,-41683,-13938,-73280],"delta_lng":[0,-194908,277387,102491,20994,93391]}},
    {"code":1190708,"id":"226a57","name":"北川","name_kana":"きたがわ","lat":32.690558,"lng":131.697691,"prefecture":45,"lines":[11907],"attr":"heat","postal_code":"882-0097","address":"延岡市北川町川内名","next":[1192324,1190707,1190709,1192327,1190706,1190710,1190711],"voronoi":{"lat":32.701127,"lng":131.442484,"delta_lat":[0,42884,14021,-8348,-64821,-14852,14339],"delta_lng":[0,34337,17809,88357,194908,-158052,-110503]}},
    {"code":1190709,"id":"087e11","name":"日向長井","name_kana":"ひゅうがながい","lat":32.664325,"lng":131.700156,"prefecture":45,"lines":[11907],"attr":"heat","postal_code":"889-0102","address":"延岡市北川町長井","next":[1190660,1190713,1190708,1190710,1190707],"voronoi":{"lat":32.517711,"lng":132.260489,"delta_lat":[0,34599,117700,14852,-47229],"delta_lng":[0,-251068,-389578,158052,299355]}},
    {"code":1190710,"id":"e77abb","name":"北延岡","name_kana":"きたのべおか","lat":32.630276,"lng":131.689869,"prefecture":45,"lines":[11907],"attr":"heat","postal_code":"882-0002","address":"延岡市差木野町","next":[1190712,1190709,1190711,1190708,1190713],"voronoi":{"lat":32.670011,"lng":131.619844,"delta_lat":[0,14339,-100212,-17450,-14377],"delta_lng":[0,-110503,231923,95018,173140]}},
    {"code":1190711,"id":"f6b116","name":"延岡","name_kana":"のべおか","lat":32.589944,"lng":131.672442,"prefecture":45,"lines":[11907],"attr":"heat","postal_code":"882-0053","address":"延岡市幸町３丁目","next":[1190715,9991909,1192324,1190712,1190710,1192323,1190708,1190716],"voronoi":{"lat":32.554666,"lng":131.535207,"delta_lat":[0,29472,100212,16777,-28858,-49132,-33551,-11196],"delta_lng":[0,206057,-231923,-66856,-34886,-44170,-14009,41202]}},
    {"code":1190712,"id":"d8f375","name":"南延岡","name_kana":"みなみのべおか","lat":32.559272,"lng":131.676829,"prefecture":45,"lines":[11907],"attr":"heat","postal_code":"882-0867","address":"延岡市構口町１丁目","next":[1190715,1190710,1190711,1190713,1190714],"voronoi":{"lat":32.566688,"lng":131.836281,"delta_lat":[0,17450,-29472,-18477,-752],"delta_lng":[0,-95018,-206057,66199,21242]}},
    {"code":1190713,"id":"76a535","name":"旭ヶ丘(宮崎)","name_kana":"あさひがおか","lat":32.52812,"lng":131.681386,"prefecture":45,"lines":[11907],"attr":"heat","postal_code":"889-0507","address":"宮崎県延岡市旭ヶ丘6丁目","next":[1190709,1190714,1190660,1190712,9981508,1190710],"voronoi":{"lat":32.517711,"lng":132.260489,"delta_lat":[0,-12514,-203202,233441,31251,-14377],"delta_lng":[0,25224,79610,-742676,213634,173140]}},
    {"code":1190714,"id":"24090f","name":"土々呂","name_kana":"ととろ","lat":32.507832,"lng":131.675009,"prefecture":45,"lines":[11907],"attr":"heat","postal_code":"889-0513","address":"延岡市土々呂町５丁目","next":[1190713,1190715,9981508,1190712,1190718],"voronoi":{"lat":32.377173,"lng":131.83158,"delta_lat":[0,159015,-752,-233441,-125020],"delta_lng":[0,-230174,21242,742676,51121]}},
    {"code":1190715,"id":"26b837","name":"門川","name_kana":"かどがわ","lat":32.477381,"lng":131.653972,"prefecture":45,"lines":[11907],"attr":"eco","postal_code":"889-0621","address":"東臼杵郡門川町大字東栄町２丁目","next":[1190716,1190717,1190712,1190711,1190714,1190718],"voronoi":{"lat":32.536188,"lng":131.601406,"delta_lat":[0,18477,23724,-163678,-26152,-11386],"delta_lng":[0,-66199,-144585,323079,71133,46746]}},
    {"code":1190716,"id":"88d407","name":"日向市","name_kana":"ひゅうがし","lat":32.4258,"lng":131.62784,"prefecture":45,"lines":[11907],"attr":"eco","postal_code":"883-0044","address":"日向市上町１丁目","next":[1190717,1190715,1190720,1190719,9991909,9992014,1190711],"voronoi":{"lat":32.589586,"lng":131.349419,"delta_lat":[0,-97850,-23606,-25475,-24840,-3103,163678],"delta_lng":[0,-76250,5263,75497,97092,262679,-323079]}},
    {"code":1190717,"id":"903071","name":"財光寺","name_kana":"ざいこうじ","lat":32.405654,"lng":131.627602,"prefecture":45,"lines":[11907],"attr":"eco","postal_code":"883-0021","address":"日向市大字財光寺字沖ノ下","next":[1190716,1190715,1190718,1190719],"voronoi":{"lat":32.417814,"lng":131.451021,"delta_lat":[0,-3103,-26152,-1209],"delta_lng":[0,262679,71133,-237856]}},
    {"code":1190718,"id":"0bd8c4","name":"南日向","name_kana":"みなみひゅうが","lat":32.369867,"lng":131.627784,"prefecture":45,"lines":[11907],"attr":"eco","postal_code":"883-0022","address":"日向市大字平岩","next":[9981508,1190717,1190719,1190722,1190723,1190714,1190715],"voronoi":{"lat":32.176976,"lng":132.416445,"delta_lat":[0,-308955,2647,199167,317516,1209,-11386],"delta_lng":[0,160094,-6966,-475144,-547451,237856,46746]}},
    {"code":1190719,"id":"e4eb2c","name":"美々津","name_kana":"みみつ","lat":32.325892,"lng":131.602279,"prefecture":45,"lines":[11907],"attr":"eco","postal_code":"889-1111","address":"日向市美々津町","next":[1190718,1190720,1190717,1190716,1190722,1190721],"voronoi":{"lat":32.194699,"lng":131.792625,"delta_lat":[0,247956,-24840,-30464,-317516,49701],"delta_lng":[0,-438696,97092,95956,547451,-135695]}},
    {"code":1190720,"id":"7c172e","name":"東都農","name_kana":"ひがしつの","lat":32.290109,"lng":131.582054,"prefecture":45,"lines":[11907],"attr":"eco","postal_code":"889-1201","address":"児湯郡都農町大字川北","next":[1190719,9992014,1190716,1190721],"voronoi":{"lat":32.373749,"lng":131.279799,"delta_lat":[0,94381,-25475,-247956],"delta_lng":[0,-1367,75497,438696]}},
    {"code":1190721,"id":"c9b90b","name":"都農","name_kana":"つの","lat":32.251085,"lng":131.568429,"prefecture":45,"lines":[11907],"attr":"eco","postal_code":"889-1201","address":"児湯郡都農町大字川北","next":[1190722,1190719,9992014,1190720],"voronoi":{"lat":32.373749,"lng":131.279799,"delta_lat":[0,-78906,-175307,75163],"delta_lng":[0,-4065,682999,-166108]}},
    {"code":1190722,"id":"2360fd","name":"川南","name_kana":"かわみなみ","lat":32.192224,"lng":131.553321,"prefecture":45,"lines":[11907],"attr":"cool","postal_code":"889-1302","address":"児湯郡川南町大字平田","next":[1190723,1190721,1190718,9992014,1190719,1190724],"voronoi":{"lat":31.870668,"lng":132.569573,"delta_lat":[0,199167,49701,175307,-50429,-27727],"delta_lng":[0,-475144,-135695,-682999,-7844,64229]}},
    {"code":1190723,"id":"f2c973","name":"高鍋","name_kana":"たかなべ","lat":32.122866,"lng":131.533927,"prefecture":45,"lines":[11907],"attr":"cool","postal_code":"884-0004","address":"児湯郡高鍋町大字蚊口浦","next":[1190722,1192810,9981508,1190724,1190718,1192811,1192809],"voronoi":{"lat":31.891143,"lng":131.839957,"delta_lat":[0,325544,-346019,-2647,-141431,45576,46983],"delta_lng":[0,-507837,1237453,6966,97068,-249688,-235809]}},
    {"code":1190724,"id":"3b9998","name":"日向新富","name_kana":"ひゅうがしんとみ","lat":32.072479,"lng":131.501627,"prefecture":45,"lines":[11907],"attr":"cool","postal_code":"889-1402","address":"児湯郡新富町大字三納代","next":[1192809,1190723,9992014,1190722,1190725],"voronoi":{"lat":31.891143,"lng":131.839957,"delta_lat":[0,325544,27727,-75576,-273235],"delta_lng":[0,-507837,-64229,-30273,567096]}},
    {"code":1190725,"id":"19ba9e","name":"佐土原","name_kana":"さどわら","lat":32.022412,"lng":131.477504,"prefecture":45,"lines":[11907],"attr":"cool","postal_code":"880-0211","address":"宮崎市佐土原町下田島","next":[9992014,1192704,1192809,1190726,1190724],"voronoi":{"lat":31.903386,"lng":131.637842,"delta_lat":[0,1997,249957,13498,-273235],"delta_lng":[0,-8101,-399152,7028,567096]}},
    {"code":1190726,"id":"619f76","name":"日向住吉","name_kana":"ひゅうがすみよし","lat":31.991244,"lng":131.457986,"prefecture":45,"lines":[11907],"attr":"cool","postal_code":"880-0121","address":"宮崎市大字島之内","next":[1192704,9992014,1190727,1192910,1190725,1192907],"voronoi":{"lat":31.91278,"lng":131.579351,"delta_lat":[0,-7398,249957,-22526,-19909,-25852],"delta_lng":[0,50390,-399152,-13676,20,5116]}},
    {"code":1190727,"id":"24fa60","name":"蓮ヶ池","name_kana":"はすがいけ","lat":31.960113,"lng":131.442802,"prefecture":45,"lines":[11907],"attr":"cool","postal_code":"880-0837","address":"宮崎県宮崎市村角町","next":[1190735,1190726,1190728,1192704,1192907,1190729],"voronoi":{"lat":31.91278,"lng":131.579351,"delta_lat":[0,174272,-11208,-7836,-138048,-16065],"delta_lng":[0,-357302,1435,4611,241944,65837]}},
    {"code":1190728,"id":"6d3be2","name":"宮崎神宮","name_kana":"みやざきじんぐう","lat":31.938067,"lng":131.430223,"prefecture":45,"lines":[11907],"attr":"cool","postal_code":"880-0053","address":"宮崎市神宮３","next":[1190729,1190727,1190733,1190735,1190730,1190731,1190734],"voronoi":{"lat":31.941039,"lng":131.330436,"delta_lat":[0,-13045,-4444,6411,138048,-11147,-100852],"delta_lng":[0,33723,24189,81691,-241944,5789,79765]}},
    {"code":1190729,"id":"71e13a","name":"宮崎","name_kana":"みやざき","lat":31.915742,"lng":131.431975,"prefecture":45,"lines":[11907,11927,11928],"attr":"cool","postal_code":"880-0811","address":"宮崎市錦町","next":[1192703,1190730,1190728,1192704,1190727],"voronoi":{"lat":31.92996,"lng":131.470039,"delta_lat":[0,-6411,-27088,-49,17483],"delta_lng":[0,-81691,57975,1460,88093]}},
    {"code":1190730,"id":"085e8a","name":"南宮崎","name_kana":"みなみみやざき","lat":31.895097,"lng":131.422329,"prefecture":45,"lines":[11907,11927,11928],"attr":"cool","postal_code":"880-0901","address":"宮崎市東大淀２丁目","next":[1190729,1192703,1190728,1190731],"voronoi":{"lat":31.927993,"lng":131.36416,"delta_lat":[0,-4444,-27088,-14022],"delta_lng":[0,24189,57975,-28311]}},
    {"code":1190731,"id":"85753a","name":"加納(宮崎)","name_kana":"かのう","lat":31.876084,"lng":131.406246,"prefecture":45,"lines":[11907],"attr":"cool","postal_code":"889-1605","address":"宮崎県宮崎市清武町加納乙4-3","next":[1190733,1192804,1190732,1190728,1190730,1192703],"voronoi":{"lat":31.882439,"lng":131.418013,"delta_lat":[0,45554,13045,-11018,-76587,12867],"delta_lng":[0,-53853,-33723,6064,75367,7543]}},
    {"code":1190732,"id":"13eb4b","name":"清武","name_kana":"きよたけ","lat":31.859418,"lng":131.38931,"prefecture":45,"lines":[11907],"attr":"cool","postal_code":"889-1604","address":"宮崎県宮崎市清武町船引484","next":[1192805,1190731,1190733,1192804],"voronoi":{"lat":31.853433,"lng":131.411867,"delta_lat":[0,76587,-129726,43237],"delta_lng":[0,-75367,50022,25383]}},
    {"code":1190733,"id":"3b78a3","name":"日向沓掛","name_kana":"ひゅうがくつかけ","lat":31.842241,"lng":131.344763,"prefecture":45,"lines":[11907],"attr":"cool","postal_code":"889-1602","address":"宮崎県宮崎市清武町今泉3512","next":[1190734,1192806,1190731,1190728,1192805,1190732,1192814],"voronoi":{"lat":31.799387,"lng":131.386417,"delta_lat":[0,908,129726,11018,14971,-200445,8027],"delta_lng":[0,106,-50022,-6064,-16787,18818,45697]}},
    {"code":1190734,"id":"335130","name":"田野(宮崎)","name_kana":"たの","lat":31.838438,"lng":131.304255,"prefecture":45,"lines":[11907],"attr":"cool","postal_code":"889-1701","address":"宮崎市田野町甲","next":[1190733,1192814,1190735,1190728],"voronoi":{"lat":31.755565,"lng":131.332468,"delta_lat":[0,-25393,326690,-100852],"delta_lng":[0,-58683,-39900,79765]}},
    {"code":1190735,"id":"9ebfa5","name":"青井岳","name_kana":"あおいだけ","lat":31.827922,"lng":131.218153,"prefecture":45,"lines":[11907],"attr":"cool","postal_code":"880-2303","address":"都城市山之口町山之口（その他）","next":[1190736,1190727,1192814,1192906,1190728,1190734,1192907],"voronoi":{"lat":31.978729,"lng":131.179407,"delta_lat":[0,-114160,-156320,21922,326690,11147,7836],"delta_lng":[0,-35074,108342,21110,-39900,-5789,-4611]}},
    {"code":1190736,"id":"8b6683","name":"山之口","name_kana":"やまのくち","lat":31.782582,"lng":131.152735,"prefecture":45,"lines":[11907],"attr":"cool","postal_code":"889-1802","address":"都城市山之口町花木","next":[1190735,1192906,1190737,1192814,1192904,1192905],"voronoi":{"lat":31.86457,"lng":131.144332,"delta_lat":[0,-156320,-18728,108183,29069,36878],"delta_lng":[0,108342,-8846,-136322,11345,24531]}},
    {"code":1190737,"id":"30156f","name":"餅原","name_kana":"もちばる","lat":31.757094,"lng":131.132508,"prefecture":45,"lines":[11907],"attr":"cool","postal_code":"889-1913","address":"北諸県郡三股町大字餅原","next":[1190738,1190736,1190739,1192816,1192903,1192904,1192814,1192902],"voronoi":{"lat":31.763727,"lng":131.097324,"delta_lat":[0,-2693,-80171,1642,7017,108183,-9111,-1318],"delta_lng":[0,944,142334,931,2295,-136322,-7994,-541]}},
    {"code":1190738,"id":"47c2b3","name":"三股","name_kana":"みまた","lat":31.733794,"lng":131.119384,"prefecture":45,"lines":[11907],"attr":"cool","postal_code":"889-1901","address":"北諸県郡三股町大字樺山","next":[1190737,1190740,1192816,1192823,1190739,1192829,1192828],"voronoi":{"lat":31.601768,"lng":131.127464,"delta_lat":[0,1512,89895,67858,-80171,-34780,-42760],"delta_lng":[0,-18334,-15011,4149,142334,-15310,-73781]}},
    {"code":1190739,"id":"1f43bd","name":"都城","name_kana":"みやこのじょう","lat":31.73657,"lng":131.073992,"prefecture":45,"lines":[11907,11929],"attr":"cool","postal_code":"885-0023","address":"都城市栄町","next":[1190737,1190738,1190740,1192902],"voronoi":{"lat":31.761033,"lng":131.098269,"delta_lat":[0,-67858,50019,20532],"delta_lng":[0,-4149,-38887,42092]}},
    {"code":1190740,"id":"b2299e","name":"西都城","name_kana":"にしみやこのじょう","lat":31.723381,"lng":131.057027,"prefecture":45,"lines":[11907],"attr":"cool","postal_code":"885-0077","address":"都城市松元町","next":[1192902,1190738,1192829,1190739,1190741],"voronoi":{"lat":31.744942,"lng":131.04032,"delta_lat":[0,-1748,-50019,-89895,-6094],"delta_lng":[0,14913,38887,15011,-37385]}},
    {"code":1190741,"id":"378f6b","name":"五十市","name_kana":"いそいち","lat":31.718448,"lng":131.033833,"prefecture":45,"lines":[11907],"attr":"cool","postal_code":"885-0086","address":"都城市久保原町","next":[1190742,1192829,1190740,1192902],"voronoi":{"lat":31.597186,"lng":131.071745,"delta_lat":[0,-25044,185197,-12397],"delta_lng":[0,-96060,45136,19498]}},
    {"code":1190742,"id":"160b12","name":"財部","name_kana":"たからべ","lat":31.728796,"lng":130.991374,"prefecture":46,"lines":[11907],"attr":"cool","postal_code":"899-4102","address":"曽於市財部町北俣","next":[1190741,1192903,1192829,1192902,1190743],"voronoi":{"lat":31.52697,"lng":130.867114,"delta_lat":[0,45173,185197,7065,18539],"delta_lng":[0,108571,45136,-3348,-17954]}},
    {"code":1190743,"id":"d3c024","name":"北俣","name_kana":"きたまた","lat":31.745007,"lng":130.960034,"prefecture":46,"lines":[11907],"attr":"cool","postal_code":"899-4102","address":"曽於市財部町北俣","next":[1190747,1190745,1190744,1192829,1192903,1190742],"voronoi":{"lat":31.81382,"lng":130.984935,"delta_lat":[0,-133267,-43293,-112249,1959,255974],"delta_lng":[0,-103688,-18771,771,3868,132405]}},
    {"code":1190744,"id":"468007","name":"大隅大川原","name_kana":"おおすみおおかわら","lat":31.772767,"lng":130.924355,"prefecture":46,"lines":[11907],"attr":"cool","postal_code":"899-4103","address":"曽於市財部町下財部","next":[1192905,1192908,1190746,1190745,1192904,1190743,1192903],"voronoi":{"lat":31.680552,"lng":130.881246,"delta_lat":[0,181538,8174,-28128,-9564,-1703,-17050],"delta_lng":[0,34009,4246,58073,4636,542,2182]}},
    {"code":1190745,"id":"6c1ee4","name":"北永野田","name_kana":"きたながのだ","lat":31.782118,"lng":130.87444,"prefecture":46,"lines":[11907],"attr":"cool","postal_code":"899-4202","address":"霧島市霧島永水","next":[1190743,1190746,1190747,1190744],"voronoi":{"lat":31.76219,"lng":130.819185,"delta_lat":[0,-124930,43293,181538],"delta_lng":[0,43290,18771,34009]}},
    {"code":1190746,"id":"226292","name":"霧島神宮","name_kana":"きりしまじんぐう","lat":31.818181,"lng":130.836939,"prefecture":46,"lines":[11907],"attr":"eco","postal_code":"899-4203","address":"霧島市霧島大窪","next":[1192608,1192909,1192912,1190747,1192609,1192607,1192911,1190745,1192913,1192908,1190744,1192602,1192605],"voronoi":{"lat":31.839915,"lng":130.784051,"delta_lat":[0,-3948,-49497,-4001,-20279,99901,8174,29754,8307,15456,3619,220,-5984],"delta_lng":[0,166,11889,2516,20564,96070,4246,-19959,-7837,-34817,-22423,-3624,-6994]}},
    {"code":1190747,"id":"aee38b","name":"国分(鹿児島)","name_kana":"こくぶ","lat":31.743657,"lng":130.763447,"prefecture":46,"lines":[11907],"attr":"eco","postal_code":"899-4345","address":"霧島市国分府中","next":[1192829,1193016,1190746,1190743,1190745,1190754,1192609,1190748],"voronoi":{"lat":31.585643,"lng":130.750268,"delta_lat":[0,-114593,-5,53966,112249,124930,20279,-32174],"delta_lng":[0,69261,16,43701,-771,-43290,-20564,-46673]}},
    {"code":1190748,"id":"0f2107","name":"隼人","name_kana":"はやと","lat":31.743893,"lng":130.740316,"prefecture":46,"lines":[11907,11926],"attr":"eco","postal_code":"899-5117","address":"霧島市隼人町見次","next":[1192608,1190754,1192609,1190749,1190747],"voronoi":{"lat":31.585643,"lng":130.750268,"delta_lat":[0,53504,134665,-44,-23473],"delta_lng":[0,-37928,-8948,452,48104]}},
    {"code":1190749,"id":"247109","name":"加治木","name_kana":"かじき","lat":31.739271,"lng":130.670752,"prefecture":46,"lines":[11907],"attr":"eco","postal_code":"899-5231","address":"鹿児島県姶良市加治木町反土903","next":[1192606,1192607,1190753,1190750,1190754,1192608,1190748,1190752],"voronoi":{"lat":31.682772,"lng":130.66951,"delta_lat":[0,126891,-20847,-10749,-4255,-134665,23284,2806],"delta_lng":[0,-17166,34965,12837,3247,8948,-32150,-1810]}},
    {"code":1190750,"id":"76ad40","name":"錦江","name_kana":"きんこう","lat":31.73691,"lng":130.6533,"prefecture":46,"lines":[11907],"attr":"heat","postal_code":"899-5223","address":"鹿児島県姶良市加治木町新生町83","next":[1190752,1192606,1193216,1190749,1190751],"voronoi":{"lat":31.682772,"lng":130.66951,"delta_lat":[0,126891,22182,-8584,-128911],"delta_lng":[0,-17166,-28644,-24790,62251]}},
    {"code":1190751,"id":"63d574","name":"帖佐","name_kana":"ちょうさ","lat":31.72697,"lng":130.632716,"prefecture":46,"lines":[11907],"attr":"heat","postal_code":"899-5421","address":"鹿児島県姶良市東餅田2575","next":[1193216,1190752,1190750,1193215,1193208],"voronoi":{"lat":31.816422,"lng":130.568494,"delta_lat":[0,6838,-128911,97049,18603],"delta_lng":[0,30415,62251,-120313,13383]}},
    {"code":1190752,"id":"1aa420","name":"姶良","name_kana":"あいら","lat":31.715246,"lng":130.623259,"prefecture":46,"lines":[11907],"attr":"heat","postal_code":"899-5431","address":"鹿児島県姶良市西餅田3546-1","next":[1190750,1193207,1190751,1190753,1193208,1190749],"voronoi":{"lat":31.774269,"lng":130.529554,"delta_lat":[0,10580,6549,-97049,-11578,-17535],"delta_lng":[0,5880,5414,120313,8349,8871]}},
    {"code":1190753,"id":"299e43","name":"重富","name_kana":"しげとみ","lat":31.702717,"lng":130.61408,"prefecture":46,"lines":[11907],"attr":"heat","postal_code":"899-5651","address":"鹿児島県姶良市脇元3001","next":[1193207,1190410,9992501,1190752,1190749,1190409,1190754],"voronoi":{"lat":31.693199,"lng":130.507328,"delta_lat":[0,1738,937,20510,57885,-109033,-2806],"delta_lng":[0,-3412,-660,-11410,37708,148827,1810]}},
    {"code":1190754,"id":"9208f3","name":"竜ヶ水","name_kana":"りゅうがみず","lat":31.64743,"lng":130.604239,"prefecture":46,"lines":[11907],"attr":"heat","postal_code":"892-0871","address":"鹿児島県鹿児島市吉野町10252","next":[9992515,1190748,9992501,9992513,1190747,1193016,1190749,1190412,1190753,9992514],"voronoi":{"lat":31.469643,"lng":130.786061,"delta_lat":[0,1407,114593,53504,23284,30769,-17930,-134257,-1310,-56122],"delta_lng":[0,33468,-69261,-37928,-32150,-172863,19791,151672,1888,83990]}},
    {"code":1190412,"id":"662dbf","name":"鹿児島","name_kana":"かごしま","lat":31.602098,"lng":130.564112,"prefecture":46,"lines":[11904,11907],"attr":"heat","postal_code":"892-0812","address":"鹿児島市浜町","next":[9992502,9992511,9992513,9992512,9992506,9992501,1190754],"voronoi":{"lat":31.675269,"lng":130.527119,"delta_lat":[0,-79814,-3295,-19262,-1591,-10754,-19541],"delta_lng":[0,39202,2230,30729,3545,25814,50152]}},
    {"code":101012,"id":"4f45fc","name":"鹿児島中央","name_kana":"かごしまちゅうおう","lat":31.583727,"lng":130.541789,"prefecture":46,"lines":[1010,11904,11907,11930],"attr":"heat","postal_code":"890-0053","address":"鹿児島市中央町","next":[9992612,9992614,9992613,9992615,9992610,1190413,9992611],"voronoi":{"lat":31.586873,"lng":130.54214,"delta_lat":[0,43635,-50200,-616,25,854,1850],"delta_lng":[0,-28499,9400,5656,4222,5506,4629]}}
  ],
  "north":32.97359,
  "south":31.58682,
  "east":131.90254,
  "west":130.54258,
  "polyline_list":[
    {
      "start":"鹿児島中央",
      "end":"鹿児島",
      "lat":31.58682,
      "lng":130.54258,
      "delta_lat":[0,43,97,39,25,111,24,121,16,80,12,23,13,7,37,28,41,51,42,29,38,30,41,26,9,15,16,44,46,73,61,40,44,44,2,27,13,43,9,3,6,12,2,0,-4,-4,-23,-8,-6,-2,0,2,5,5,3,16,1,22,37,23,19,25],
      "delta_lng":[0,15,21,9,5,24,5,24,3,17,2,5,3,1,7,6,10,16,21,15,29,22,40,32,13,23,31,87,96,152,126,86,87,95,5,58,27,95,20,7,12,49,29,55,32,23,121,59,43,33,2,56,39,32,18,70,2,67,74,38,26,35]
    },
    {
      "start":"鹿児島",
      "end":"佐伯",
      "lat":31.60276,
      "lng":130.56512,
      "delta_lat":[0,39,87,103,9,2,6,19,10,21,34,59,60,1,82,82,15,49,35,18,35,93,41,50,23,21,34,46,49,41,53,7,9,21,15,14,7,20,20,6,22,70,31,9,4,6,20,27,4,9,58,65,36,18,19,62,129,33,9,17,18,43,35,21,15,46,27,35,47,24,21,20,28,5,18,85,81,38,7,19,45,8,9,28,33,37,23,59,26,20,20,15,9,20,30,51,56,19,22,22,47,89,102,59,35,33,27,39,20,94,16,14,29,61,15,60,19,63,73,7,59,26,20,18,27,39,62,16,8,55,133,8,111,36,27,53,17,17,57,65,52,49,14,33,30,13,51,32,22,22,35,17,4,13,22,16,22,14,21,9,7,6,17,20,23,22,26,21,34,38,29,28,24,24,19,10,34,38,39,36,66,61,43,28,62,15,23,29,17,18,20,33,46,30,42,40,48,49,11,52,46,16,11,22,35,27,80,31,22,32,15,26,11,27,27,19,15,42,24,23,30,31,25,29,50,51,49,41,33,78,38,36,34,44,73,85,80,45,62,63,54,58,49,48,51,41,27,32,26,39,159,64,27,24,21,21,19,26,28,34,22,51,30,128,217,28,95,36,15,15,33,27,18,38,28,13,89,50,99,108,9,74,34,27,83,208,49,63,57,226,58,113,24,12,103,114,121,185,221,347,51,162,202,34,25,16,29,40,19,36,43,30,32,150,51,143,36,50,181,4,20,3,4,17,10,10,6,5,4,4,-1,-2,-1,-11,-2,-6,-13,-40,-9,-12,-31,-8,-2,-17,-1,-23,-3,-4,-5,-11,-5,-5,2,8,13,27,8,23,3,24,18,9,11,1,1,-1,-4,-3,-7,-3,-14,-63,-20,-14,-3,-3,-2,2,1,5,1,5,-1,-1,20,1,6,5,4,10,13,3,9,1,3,3,3,4,9,18,12,7,21,55,121,183,147,97,153,26,24,14,7,10,6,2,-1,-3,-15,-8,-12,-10,-15,-13,-19,-47,-61,-21,-19,-26,-52,-65,-38,-18,-19,-30,-16,-16,-9,-5,-7,-4,-3,-3,1,5,6,9,3,9,17,24,42,24,22,27,15,38,28,51,62,51,36,52,91,44,46,43,30,35,35,54,43,27,11,43,46,44,44,26,30,28,62,24,27,101,38,29,58,66,63,45,27,37,20,11,18,28,30,52,39,24,18,21,19,57,52,10,56,118,36,56,130,127,183,32,51,18,21,22,21,26,38,44,48,36,27,27,39,27,35,28,43,59,94,56,59,52,23,16,41,22,14,28,47,87,58,27,31,34,93,40,11,9,4,14,42,43,43,81,69,76,46,49,39,3,35,76,75,99,76,91,85,76,156,48,43,125,50,34,21,19,22,15,12,16,34,26,61,21,19,4,8,4,0,-2,-4,-8,-9,-40,-10,4,4,3,8,32,27,45,9,10,16,23,34,50,78,80,62,134,63,22,23,28,23,21,10,10,12,7,3,1,-3,-4,-1,-16,-34,-39,-10,-5,-4,-2,0,6,9,13,18,12,19,32,19,14,29,47,51,63,36,54,13,36,17,39,68,45,21,19,9,13,16,23,12,11,10,3,-1,-7,-19,-16,-18,-35,-28,-34,-43,-33,-43,-36,-48,-32,-51,-68,-73,-88,-52,-44,-45,-30,-52,-42,-23,-106,-61,-39,-29,-42,-53,-29,-35,-25,-17,-19,-19,-10,-11,-6,-6,-2,-5,-4,-5,-11,-15,-45,-2,-56,-54,-29,-19,-18,-40,-56,-23,-20,-23,-18,-19,-23,-27,-28,-44,-54,-34,-1,-50,-50,-23,-39,-15,-8,-21,-16,-13,-15,-20,-25,-33,-23,-21,-15,-31,-3,-35,-47,-26,-31,-23,-9,-22,-11,-19,-26,-37,-60,-55,-122,-48,-49,-98,-48,-21,-17,-31,-19,-31,-16,-20,-21,-17,-41,-22,-17,-14,-18,-11,-30,-14,-65,-17,-49,-14,-11,-1,-11,-3,0,4,5,1,15,25,85,18,9,7,3,-4,-4,-17,-49,-122,-45,-23,-9,0,11,23,-4,-6,-3,-72,-87,-15,-18,-76,-82,-10,-54,-68,-53,-9,-16,-48,-118,-31,-26,-15,-18,-12,-3,-5,-4,0,2,30,17,23,17,28,13,20,15,6,5,15,6,-2,-16,-29,-10,-2,-6,-1,-3,-3,-1,-3,-3,-4,-3,-3,-7,-21,-57,-14,-13,-16,-17,-35,-54,-6,-14,-14,-39,-109,-135,-116,-48,-19,-32,-11,-20,-112,-110,-31,-18,-23,-46,-71,-71,-46,-28,-29,-15,-9,-27,-32,-32,-18,-21,-29,-42,-32,-78,-83,-109,-30,-40,-26,-21,-17,-19,-28,-51,-33,-67,-69,-24,-29,-28,-19,-7,-29,-24,-34,-36,-45,-55,-42,-22,-21,-10,-48,-28,-14,-24,-9,-12,-18,-26,-23,-47,-29,-25,-32,-41,-39,-43,-46,-41,-37,-41,-28,-42,-40,-37,-17,-33,-31,-37,-25,-29,-37,-57,-17,-23,-32,-7,-16,-8,-15,-36,-45,-23,-20,-26,-31,-35,-5,-7,-15,-71,-89,-37,-21,-7,-14,-10,-4,-1,1,1,2,1,3,8,2,3,2,2,3,-2,-9,-26,-54,-36,-46,-80,-62,-61,-41,-82,-9,-113,-109,-49,-76,-94,-78,-48,-72,-21,-94,-91,-9,-30,-23,-9,-6,-1,10,21,23,40,21,7,14,50,15,69,4,38,6,7,5,48,45,47,78,121,103,186,293,41,33,38,28,19,39,48,97,123,25,73,88,88,97,34,27,22,21,12,7,10,-3,-2,-15,-5,-8,-14,-8,-19,-7,-10,-20,-23,-4,-1,-11,-5,-16,-7,-14,-18,-24,-31,-22,-68,-6,-24,-3,-6,-3,4,2,10,18,16,68,32,42,61,63,11,15,29,7,60,102,108,81,88,8,45,33,35,36,166,51,87,143,128,145,142,121,99,41,42,21,19,31,9,17,17,14,15,26,19,17,36,61,24,78,5,63,51,22,24,36,27,43,49,75,24,20,81,73,56,26,63,33,75,62,95,29,42,46,71,64,71,66,40,135,93,46,31,16,11,16,19,39,46,91,21,67,34,70,194,117,109,97,69,48,41,30,31,34,51,46,54,57,42,40,30,74,26,73,150,185,182,78,28,34,41,52,33,37,58,81,41,66,106,29,156,37,57,44,37,39,33,34,32,19,14,16,10,11,11,10,10,10,7,5,2,0,0,-17,-19,-14,-7,-13,-15,-19,-28,-7,-27,-41,-32,-33,-27,-21,-20,-20,-10,-8,-3,-1,0,1,2,7,9,24,27,22,20,23,26,21,18,157,26,19,24,79,114,17,20,17,50,69,32,37,56,102,134,32,33,28,22,21,19,30,25,18,17,17,17,22,10,14,11,13,8,18,22,24,57,8,82,38,33,53,50,83,59,75,4,38,46,47,16,8,11,8,2,-6,-8,-13,-18,-26,-17,-25,-16,-11,-17,-13,-7,-6,-5,-6,1,3,6,15,14,15,5,6,3,5,8,10,6,17,16,29,33,10,23,24,4,24,39,18,15,13,16,29,15,34,26,20,10,19,32,24,23,21,12,43,84,56,42,37,12,88,40,16,11,22,7,17,9,5,3,2,0,-4,-9,-4,-8,-7,-5,-18,-47,-62,-46,-22,-5,-60,-33,-26,-35,-18,-9,-4,-4,0,0,-1,-2,-1,1,3,2,2,5,13,19,24,25,23,13,20,30,18,31,80,32,26,32,35,106,74,58,20,30,127,48,39,76,43,66,104,86,31,13,126,56,45,104,90,43,46,8,29,15,54,50,8,18,2,6,0,-5,-9,-10,-10,-21,-7,-24,-23,-23,-14,-34,-63,-125,-129,-52,-94,-8,-23,-39,-25,-34,-43,-49,-65,-43,-35,-34,-26,-21,-14,-6,-1,0,7,16,37,26,5,17,28,66,7,6,33,13,2,0,-4,-8,-13,-18,-84,-8,-71,-121,-121,-182,-129,-48,-92,-33,-38,-41,-22,-11,-23,-7,-22,-23,-34,-7,-34,-19,-41,-30,-56,-29,-37,-41,-39,-15,-17,-12,-10,-12,-12,-7,-5,-3,-2,2,6,8,4,17,20,9,14,10,9,34,33,33,40,46,39,48,33,40,32,29,23,22,11,8,16,24,21,105,108,42,20,12,12,7,5,3,-5,-4,-11,-15,-25,-25,-31,-102,-23,-46,-10,-4,-1,7,20,19,32,52,172,2,31,122,82,114,60,37,38,49,38,19,32,25,115,121,40,20,17,15,33,10,9,1,1,4,8,12,23,72,60,42,52,103,8,59,40,73,58,28,43,21,38,15,25,9,5,1,-1,-6,-6,-45,-48,-22,-47,-22,-38,-24,-24,-25,-19,-26,-36,-25,-8,-6,-1,2,7,7,7,17,14,16,15,14,30,20,22,50,26,102,167,25,24,89,112,34,81,74,60,51,85,92,50,97,54,47,55,39,37,20,14,26,9,8,8,13,7,10,9,9,16,13,55,99,148,48,71,34,30,40,34,65,97,50,48,112,111,70,149,18,81,34,85,102,88,29,36,60,86,87,30,110,85,18,156,52,81,122,23,47,14,20,30,86,171,37,161,25,23,88,22,17,94,49,105,35,27,34,29,24,48,30,54,110,105,39,70,16,173,73,113,105,55,266,202,208,219,16,183,206,48,58,39,31,59,53,45,27,124,141,120,67,78,162,152,24,45,114,39,92,143,114,93,54,99,45,67,23,26,47,31,22,54,22,25,53,43,63,56,59,73,59,48,95,52,98,85,119,89,9,19,30,30,28,35,84,111,168,220,26,92,122,136,95,224,264,177,27,27,59,25,48,58,36,63,2,54,83,128,60,136,55,126,155,26,103,104,97,85,135,54,42,10,14,57,51,33,63,87,27,72,105,81,60,41,17,14,15,28,46,106,60,40,142,82,132,166,154,65,57,161,20,89,19,41,14,19,32,85,101,59,47,87,81,67,103,24,12,72,91,110,107,88,13,64,94,62,37,37,64,11,43,33,39,31,33,37,44,65,36,29,32,15,28,21,47,9,56,203,7,99,94,22,25,20,11,50,30,16,9,16,23,31,33,41,72,84,14,73,8,89,89,88,94,33,32,80,76,26,108,39,61,104,70,38,105,22,64,42,17,135,41,49,134,103,98,20,69,39,52,57,29,53,111,106,109,26,83,16,84,51,105,43,59,51,17,50,91,9,117,46,47,4,98,102,7,90,28,25,68,77,95,78,97,53,92,66,106,56,51,106,96,101,16,118,65,7,74,73,74,52,47,58,24,90,83,73,57,71,38,43,12,64,47,33,71,52,37,38,46,61,7,52,40,215,31,78,25,14,80,112,102,83,23,29,99,74,98,44,93,69,54,57,64,83,78,20,33,52,47,72,4,63,75,63,58,66,11,46,54,45,88,54,66,61,45,78,3,42,52,55,31,56,44,67,49,49,52,39,68,65,45,64,47,25,31,2,70,83,49,76,63,64,41,40,33,27,21,36,14,35,15,12,7,53,51,39,49,54,26,19,30,17,18,51,45,36,19,18,16,34,81,143,54,49,85,78,25,15,14,55,130,97,67,44,133,240,21,147,117,70,61,66,112,160,131,59,45,80,43,141,89,54,50,58,70,46,62,144,150,114,67,74,59,133,74,258,212,208,101,105,106,179,110,108,109,96,32,131,99,74,45,61,53,35,24,127,122,61,16,36,49,38,24,37,34,39,61,73,38,74,100,181,96,275,120,119,164,49,34,67,76,68,74,73,56,29,61,35,27,43,56,25,20,13,35,21,43,24,50,37,58,23,20,31,18,18,23,25,56,14,59,35,48,65,55,88,90,69,56,43,17,55,28,71,113,111,111,89,67,54,90,100,9,68,53,65,38,11,14,13,29,94,25,29,46,64,48,44,47,67,46,60,39,46,37,43,44,50,46,57,48,32,97,58,51,73,79,76,88,77,59,31,48,78,67,43,55,12,65,96,51,98,90,75,22,65,96,102,63,49,123,85,115,138,256,67,35,169,175,144,85,64,29,45,102,61,117,103,113,19,41,27,16,3,28,29,21,7,20,13,23,49,47,27,102,176,163,32,32,25,37,24,58,36,36,47,24,28,8,16,24,34,9,0,-1,-1,-29,-26,-3,0,1,8,6,13,17,26,36,13,7,11,25,23,24,3,32,23,36,42,34,29,32,33,45,40,25,36,62,100,147,71,24,12,47,91,72,19,18,29,106,50,41,22,27,31,29,33,29,32,54,15,25,40,62,61,81,5,71,99,17,16,35,16,30,20,81,37,14,76,74,29,65,144,51,17,66,56,48,32,38,21,31,33,27,41,33,36,42,48,26,34,40,36,17,19,19,25,5,26,44,31,24,23,34,171,200,150,43,83,172,53,52,139,49,323,61,292,79,82,54,244,279,38,64,80,211,40,136,237,166,130,105,117,171,118,70,145,11,62,81,190,70,154,217,11,162,35,150,92,74,66,77,27,16,16,64,35,16,12,16,33,106,149,116,14,120,18,27,15,14,12,18,16,11,25,68,66,65,52,24,19,18,19,17,21,14,73,129,121,88,52,54,35,31,22,39,18,44,114,21,82,35,38,58,44,32,40,44,93,27,30,54,41,38,13,15,23,72,97,26,34,80,54,20,20,22,3,17,24,50,59,20,18,29,94,43,133,29,146,84,163,14,55,59,60,26,31,35,39,25,27,57,74,57,43,33,48,31,38,32,23,38,21,6,95,114,138,104,63,18,21,30,40,78,72,42,34,39,5,35,86,48,55,54,51,24,20,22,27,14,17,15,12,18,20,11,11,39,22,9,8,48,14,94,230,110,136,29,59,62,49,50,4,60,25,42,37,13,25,156,121,43,30,24,21,77,60,34,38,23,42,29,20,26,34,95,125,387,65,23,403,280,124,29,160,357,74,240,29,86,71,55,61,72,59,219,606,33,207,122,81,106,31,8,182,34,225,139,204,273,92,171,19,55,41,20,45,52,52,419,79,33,117,8,24,88,87,33,60,59,59,86,22,73,65,118,74,60,77,62,16,141,88,40,104,64,21,30,29,29,56,83,78,151,30,32,208,157,137,19,308,86,51,54,164,47,74,43,24,130,35,46,33,45,37,28,29,24,16,7,23,44,121,123,35,55,51,49,139,107,22,21,45,34,27,28,32,24,27,30,39,58,27,17,12,26,31,60,27,2,50,19,17,42,98,153,105,25,30,43,108,43,67,62,83,65,29,22,19,23,25,22,52,34,52,29,62,98,59,32,17,32,31,33,31,26,20,27,20,31,56,35,23,24,21,47,67,42,66,13,15,35,10,16,43,31,13,71,73,67,113,50,11,7,69,32,92,98,80,199,35,28,23,33,21,17,38,29,6,10,18,29,25,18,9,11,18,13,30,20,31,20,15,19,80,86,78,31,26,30,21,19,7,45,58,82,39,25,20,49,25,17,11,16,81,52,45,41,41,36,91,112,112,66,147,62,30,17,20,18,52,101,88,38,39,30,65,23,8,27,29,18,53,94,26,24,27,17,18,59,135,34,81,39,20,38,83,87,31,29,16,27,29,38,103,150,38,45,58,44,26,29,37,23,27,35,50,40,54,65,32,26,25,22,141,18,15,68,63,54,14,30,7,38,29,37,41,13,93,19,11,30,52,24,54,72,60,45,89,16,22,96,41,24,21,33,58,14,15,29,27,11,16,54,20,15,21,11,34,26,23,27,26,30,29,29,23,19,30,26,21,20,27,77,52,29,31,26,69,25,12,23,14,17,8,8,19,12,21,29,18,29,29,24,31,33,73,25,35,16,34,91,21,38,42,32,14,131,143,47,39,51,45,52,31,48,55,60,45,20,63,11,42,116,44,30,38,30,23,19,18,54,24,32,25,24,32,60,222,57,53,32,32,45,36,35,31,16,39,46,79,61,47,40,64,57,4,26,39,49,49,90,35,24,21,35,67,29,19,67,21,20,18,65,71,47,31,24,15,94,14,83,79,70,90,63,45,53,53,8,38,64,30,31,43,33,69,25,24,12,20,25,8,27,33,56,32,50,24,73,39,50,51,48,36,28,56,28,47,44,50,20,34,32,18,31,29,31,30,24,47,38,63,62,50,46,33,31,28,45,52,49,68,47,64,32,22,7,44,72,35,35,19,46,41,28,46,47,84,48,27,32,36,41,35,42,58,63,51,51,33,65,46,49,44,47,46,23,62,45,33,28,10,37,33,96,56,106,45,42,23,38,116,72,47,29,56,33,52,44,28,23,16,14,20,250,68,18,15,17,96,98,44,99,47,40,28,20,26,19,9,3,1,0,2,0,2,2,3,9,47,18,7,21,14,12,10,12,20,18,27,38,40,30,17,14,13,12,15,22,22,16,7,7,25,0,-3,-2,-22,-25,-19,-14,-15,-8,-4,1,1,2,9,13,20,21,10,21,26,20,77,81,40,45,49,38,41,31,22,25,37,10,13,21,6,40,34,40,44,41,38,45,43,36,57,43,26,21,18,18,8,9,30,23,38,42,41,43,38,43,88,29,81,33,81,78,31,28,53,94,47,22,45,34,31,38,141,18,51,40,37,44,34,29,35,12,12,17,27,17,21,33,45,39,49,43,18,196,27,50,103,44,16,108,197,44,34,33,36,64,37,42,25,33,47,28,26,36,51,57,20,8,0,0,-13,-31,-8,-2,1,13,18,24,32,50,40,96,63,48,50,12,26,35,41,12,15,5,2,-1,-8,-18,-83,-20,0,4,14,8,17,33,121,20,79,55,69,38,44,62,26,39,32,26,30,20,9,13,29,27,37,36,39,38,29,91,47,23,138,108,108,311,55,30,47,102,42,24,40,56,40,74,36,31,46,32,25,23,15,14,18,8,5,12,9,15,23,32,42,59,86,102,73,86,47,34,30,21,15,10,4,8,11,5,9,6,13,10,6,0,0,0,4,5,12,15,19,42,55,16,43,42,34,29,33,25,18,27,29,26,39,40,55,68,147,120,60,156,68,87,167,53,56,48,37,33,34,29,38,49,34,33,31,27,31,10,31,34,29,22,9,6,5,3,-1,-5,-8,-2,0,5,5,7,12,20,40,66,33,61,46,77,78,161,31,22,12,5,2,4,56,50,15,5,22,5,6,9,69,43,54,64,11,5,6,3,6,3,4,3,4,30,53,17,30,12,14,30,36,20,59,69,34,55,54,43,21,56,189],
      "delta_lng":[0,46,90,94,8,1,4,16,7,13,19,35,30,0,39,39,7,20,17,6,12,26,9,12,7,8,23,35,78,56,78,15,28,60,44,38,15,30,25,7,29,81,44,21,11,31,128,174,15,17,105,107,58,22,17,41,82,22,12,25,33,101,75,45,32,101,60,76,138,76,40,32,35,6,18,93,93,46,12,41,107,17,13,34,36,31,20,41,17,16,11,5,0,3,0,-9,-9,-2,2,3,17,27,27,13,6,3,0,-7,-7,-32,-3,0,6,19,3,25,5,6,2,0,6,4,5,6,9,17,35,9,5,34,76,4,62,24,19,40,13,14,43,45,38,38,11,29,28,15,57,37,26,23,39,19,6,26,51,47,61,46,68,29,21,12,30,23,19,14,13,9,11,4,1,-1,-2,-4,-7,-3,-17,-11,-13,-12,-28,-29,-24,-21,-59,-15,-21,-18,-9,-9,-5,-7,-5,-5,-11,-12,-17,-16,-2,-3,-3,-1,0,-2,-9,-9,-13,-9,-9,-20,-8,-13,-3,-10,-8,-6,0,1,3,2,0,-6,-8,-10,-24,-27,-22,-20,-14,-27,-9,-6,-3,5,10,16,14,9,12,13,14,20,22,22,27,23,17,23,20,34,143,58,24,20,17,11,4,0,-5,-9,-8,-19,-12,-36,-64,-8,-27,-9,-1,0,4,6,4,12,12,6,46,26,50,57,5,39,16,18,63,169,39,52,46,180,44,87,18,9,86,93,99,151,180,283,42,134,168,34,32,27,54,81,46,102,122,84,93,422,145,403,104,130,511,10,58,7,12,44,22,27,15,16,31,60,73,118,138,201,52,83,81,227,41,60,189,53,15,157,5,210,23,56,83,191,59,98,35,38,45,71,18,45,9,72,69,38,68,25,28,30,94,21,51,15,50,194,73,56,21,27,35,45,40,103,48,130,67,13,775,33,228,215,213,473,651,115,415,62,52,21,17,18,26,40,22,11,32,70,142,212,166,106,168,43,57,32,19,41,36,33,52,32,47,24,31,24,29,22,27,60,78,28,24,37,71,88,58,36,36,65,46,57,40,29,45,32,42,49,66,53,42,48,15,36,51,69,88,41,33,38,16,41,27,50,56,43,35,49,88,33,33,26,17,13,12,12,4,0,2,-4,-7,-10,-17,-8,-7,-5,-9,-2,-2,-2,6,8,25,32,27,13,3,-1,-4,-3,-9,-12,-20,-33,-24,-13,-8,-6,-1,6,11,2,17,34,11,16,38,33,51,9,16,9,11,14,17,24,43,51,54,42,24,23,31,17,20,13,15,23,37,21,21,22,8,5,10,5,0,-3,-16,-33,-18,-4,-3,3,14,5,3,5,2,8,23,25,23,46,42,42,27,27,23,2,19,45,42,60,42,54,45,44,90,27,26,72,29,18,14,17,23,21,24,42,108,80,184,64,59,22,34,28,28,31,32,43,39,152,81,35,23,21,33,121,98,161,27,26,31,31,40,51,84,85,64,140,66,24,22,34,31,31,17,20,22,17,24,35,27,37,12,71,138,160,45,27,43,50,59,75,77,57,64,35,49,62,32,25,49,82,86,112,59,97,24,58,26,61,88,62,31,34,14,23,34,64,39,45,46,46,49,41,57,32,34,53,39,39,45,27,31,21,19,9,12,12,12,12,11,10,14,13,25,26,14,72,40,28,24,36,45,25,34,24,17,27,36,23,44,30,48,54,68,44,43,44,35,70,3,101,94,46,25,17,28,42,22,17,27,22,27,33,43,50,76,97,57,2,90,90,50,82,42,32,102,89,47,40,36,37,52,40,41,30,69,5,80,105,60,62,42,13,30,11,14,16,14,13,4,-3,-9,-15,-34,-15,-4,-3,-5,-1,-3,2,4,7,7,19,15,17,13,25,21,60,32,148,39,112,31,34,5,51,57,6,48,30,5,47,50,144,37,33,38,48,32,31,62,117,281,96,58,45,64,92,204,56,24,14,188,224,32,25,82,72,9,76,109,100,12,25,47,95,28,29,22,34,34,17,27,54,33,17,186,71,55,36,47,26,35,34,26,37,147,89,28,86,134,55,43,206,95,160,160,74,223,94,68,58,19,62,95,228,53,36,30,28,48,57,5,12,11,32,68,89,79,29,6,3,2,0,11,17,6,9,17,45,69,68,46,37,49,36,22,81,118,146,63,47,50,53,29,65,60,75,21,26,15,11,4,4,1,5,5,12,13,7,12,15,12,6,24,22,35,40,54,67,55,35,38,16,104,92,52,96,33,48,56,67,49,98,60,39,51,53,50,54,52,42,35,32,24,40,42,44,22,41,53,73,46,46,47,62,19,24,35,7,17,9,16,38,49,28,27,42,60,69,11,13,29,136,181,68,45,21,45,44,31,30,63,74,113,65,180,211,125,142,47,68,159,99,88,141,165,113,141,236,200,178,121,243,26,345,331,149,225,288,236,140,218,64,282,273,32,104,102,79,64,80,94,104,60,88,44,14,27,87,22,104,6,47,6,6,5,46,36,25,30,35,27,58,87,17,17,23,17,15,32,48,99,124,24,73,87,89,99,40,39,38,49,43,25,52,37,37,254,116,182,293,164,381,135,187,374,452,134,27,187,85,191,37,91,116,160,188,133,422,40,153,19,50,62,48,27,65,93,56,165,55,57,69,59,8,10,18,4,33,48,53,39,42,5,22,15,16,12,42,13,25,41,37,41,42,35,29,13,15,12,12,19,8,16,16,15,21,42,33,28,67,105,47,149,10,116,96,39,35,42,27,38,39,61,20,16,69,60,46,21,54,27,60,48,79,22,33,38,58,53,56,54,32,111,77,36,22,11,4,6,4,8,11,22,4,16,8,19,45,26,24,19,14,14,13,13,15,22,33,33,41,40,36,30,23,55,22,55,114,142,138,61,21,27,32,39,26,28,43,63,30,52,82,21,119,29,46,35,29,32,30,30,32,26,19,28,21,23,31,31,42,55,64,67,80,64,56,106,118,106,34,41,43,41,48,11,41,56,45,54,45,34,41,45,34,35,26,23,29,17,22,27,29,45,42,31,23,18,14,11,2,24,2,-2,-7,-18,-26,-4,-1,1,7,10,2,0,-18,-31,-38,-6,-4,-1,0,2,6,12,15,12,15,19,22,32,19,27,23,26,30,49,60,56,121,17,164,71,111,163,141,235,157,213,11,116,129,144,48,25,46,54,51,52,37,39,35,45,24,32,23,17,34,30,21,37,70,55,29,45,33,70,68,72,80,77,34,26,36,26,15,33,22,31,29,9,20,15,4,13,17,6,3,2,5,17,21,46,36,29,24,57,78,53,49,36,15,66,111,70,54,48,16,125,51,26,20,43,14,44,28,26,24,33,42,68,61,32,25,17,9,21,59,73,56,25,2,86,52,58,76,41,24,17,24,21,39,48,35,32,20,60,45,29,23,45,51,51,40,32,18,23,30,15,27,93,35,21,18,13,20,0,-3,3,16,67,28,24,50,21,25,31,28,10,4,41,23,22,61,59,34,42,6,33,17,70,92,22,55,3,52,41,35,32,33,21,39,9,31,26,19,10,17,27,54,52,33,101,9,25,47,27,24,25,17,32,31,27,40,41,43,42,36,26,37,45,51,112,80,20,74,113,317,35,28,157,69,35,36,72,33,35,37,131,12,112,190,190,292,202,76,146,54,57,60,33,18,30,9,30,23,32,4,27,16,32,24,44,22,29,33,33,16,24,22,25,20,31,23,24,28,28,30,37,32,14,40,39,14,17,10,9,23,19,18,20,25,20,24,19,27,23,27,26,28,17,13,29,51,50,229,239,93,44,32,42,40,61,69,69,35,53,62,68,60,79,257,60,126,41,35,63,79,85,50,56,54,136,1,23,83,63,89,55,47,55,86,78,37,61,43,139,146,48,23,29,29,108,62,81,25,100,150,98,93,68,143,98,51,41,64,5,34,25,46,38,21,44,24,54,29,71,37,45,51,54,59,23,95,98,48,95,44,76,49,52,54,50,83,108,75,33,37,37,32,56,37,27,49,29,22,22,20,34,19,15,29,13,59,91,13,13,47,60,18,44,43,30,19,26,17,2,6,13,18,34,38,44,35,24,58,27,33,67,129,57,62,37,29,36,23,89,158,234,75,117,58,40,49,34,51,73,37,37,86,83,54,113,15,60,24,63,78,66,23,26,47,73,81,27,107,81,17,145,51,78,119,22,43,12,13,16,47,88,19,83,12,13,42,11,8,45,26,53,16,10,11,9,5,11,4,4,-1,-5,-3,-6,-2,-23,-11,-21,-21,-6,-39,-30,-32,-32,-2,-28,-28,-4,-5,1,5,10,16,18,10,47,53,46,25,29,60,56,9,18,44,15,34,53,42,36,22,47,25,44,19,19,39,31,22,60,21,27,56,49,71,60,63,82,67,53,108,60,110,92,132,97,8,19,19,18,13,12,15,14,22,30,2,13,16,20,13,31,34,24,8,10,23,12,28,36,30,63,2,61,89,140,65,149,60,137,168,28,110,118,103,92,143,50,40,9,12,42,35,25,45,61,20,52,81,57,44,25,8,3,5,4,6,7,4,3,11,5,8,14,17,6,4,16,0,3,0,0,-2,-4,-9,-30,-39,-25,-21,-36,-33,-28,-41,-9,-6,-27,-37,-44,-44,-33,-7,-26,-38,-23,-13,-9,-13,-1,-4,-1,3,2,4,10,13,24,12,10,13,5,12,7,20,3,21,79,2,40,36,8,13,10,5,31,21,10,8,13,19,32,35,52,92,112,20,96,10,122,119,123,130,41,43,105,104,34,142,53,80,139,96,51,139,27,87,55,19,186,56,65,181,139,131,27,92,48,54,47,20,37,67,62,67,15,49,9,51,30,62,25,35,30,13,31,54,5,68,27,29,3,57,62,4,53,15,16,40,46,57,46,55,35,53,37,63,33,29,63,58,59,8,71,39,4,42,42,45,32,28,34,13,53,49,43,34,41,21,27,7,38,27,20,42,32,20,16,16,23,2,21,14,62,8,17,6,3,18,24,23,18,5,6,22,17,21,9,21,15,13,13,14,17,21,6,9,13,14,19,1,18,19,17,16,18,3,11,15,12,25,14,19,16,13,20,0,13,14,14,7,15,13,18,14,13,14,11,18,16,13,18,12,7,10,1,25,28,16,27,22,22,13,14,11,11,9,13,5,9,4,3,1,9,10,9,9,9,5,4,8,5,5,18,17,18,8,11,13,27,56,91,34,31,50,40,10,5,6,20,40,24,15,6,11,13,0,6,6,9,10,13,35,55,44,17,9,15,4,4,8,9,15,27,33,21,30,72,65,46,23,24,23,55,30,111,90,87,42,44,46,86,54,55,51,37,11,43,24,16,14,23,25,20,15,90,87,42,11,20,25,13,5,5,0,-4,-10,-12,-6,-14,-15,-30,-15,-42,-19,-19,-24,-4,0,5,6,9,13,15,14,11,21,15,12,22,30,15,12,9,24,15,29,18,32,24,39,15,10,16,9,5,8,6,12,3,12,7,10,12,11,18,17,15,12,9,4,12,6,13,23,23,22,19,12,10,18,21,1,13,11,13,8,3,4,6,13,47,11,14,23,32,23,21,22,32,24,29,19,22,19,22,23,25,23,27,24,15,48,29,25,35,39,38,43,38,30,14,24,39,34,21,26,6,33,47,27,48,44,37,10,32,50,48,31,23,66,49,56,61,115,38,21,133,136,112,65,51,23,35,80,46,90,84,90,13,32,17,11,3,17,11,8,2,6,4,5,10,8,3,14,20,18,5,8,9,21,15,40,33,39,63,39,59,20,54,105,205,87,33,33,27,143,133,33,32,25,67,33,48,45,56,71,19,9,15,52,38,32,6,35,26,26,25,14,8,5,2,1,-7,-8,-14,-39,-62,-91,-46,-18,-8,-27,-59,-45,-11,-9,-11,-38,-15,-11,-5,-3,-6,-2,-3,-1,2,3,0,3,6,14,13,21,1,17,23,7,6,15,9,21,18,75,36,15,86,87,33,72,162,60,18,70,59,35,21,14,7,5,2,0,-5,-6,-16,-22,-32,-21,-33,-50,-48,-15,-19,-17,-17,-4,-13,-22,-10,-4,-4,-1,5,11,11,2,5,8,2,1,16,4,3,1,2,1,0,2,2,4,0,-1,0,0,1,5,1,1,0,1,0,0,-2,4,5,1,1,2,2,-2,-4,-14,0,-11,-2,-10,-9,-11,-15,-18,-6,-3,0,0,4,3,2,5,19,65,91,71,9,75,10,21,14,14,13,22,23,17,63,149,151,144,119,52,34,28,22,18,24,10,56,97,94,67,39,40,24,19,11,20,8,18,41,5,26,7,5,3,-1,-6,-7,-10,-24,-7,-5,-2,6,6,4,5,11,45,56,14,21,48,36,17,17,21,5,27,30,64,67,18,13,24,73,33,97,22,109,63,124,10,42,42,48,25,29,35,39,29,29,58,76,57,37,24,35,22,24,14,10,9,4,0,5,4,2,0,-1,-2,-6,-9,-13,-26,-18,-6,-2,2,0,6,18,10,14,15,18,13,10,19,24,11,21,18,21,33,49,26,28,127,66,29,15,104,30,149,359,173,209,46,92,83,57,47,4,44,15,14,9,2,1,-2,-3,5,3,7,8,30,25,10,6,3,1,-3,-2,-4,-8,-22,-33,-100,-18,-7,-104,-75,-31,-7,-42,-93,-18,-62,-7,-23,-15,-7,-4,0,2,12,36,3,11,7,5,6,2,0,10,3,13,-1,-24,-36,-12,-23,-3,-9,-10,-5,-16,-20,-18,-164,-29,-13,-44,-3,-7,-22,-16,-6,-9,-2,5,5,5,20,20,53,40,39,55,45,10,98,59,27,71,44,13,15,10,4,5,-1,-8,-12,3,7,64,47,41,6,90,27,21,29,106,29,32,17,7,18,9,18,21,33,35,39,44,36,24,8,14,23,66,68,21,33,27,31,108,84,18,15,26,14,4,2,-2,-2,-9,-14,-22,-38,-23,-16,-15,-38,-34,-55,-30,-1,-68,-24,-16,-33,-35,-20,-14,-1,0,2,23,13,27,39,59,63,22,18,10,10,7,2,-1,-8,-22,-16,-43,-83,-37,-11,-2,-2,4,3,9,13,11,18,21,39,71,44,29,19,24,40,62,48,113,27,32,81,24,39,89,72,23,104,107,106,165,75,13,5,47,14,31,36,26,74,10,6,3,0,-1,-3,-10,-13,-4,-7,-18,-38,-41,-31,-22,-55,-53,-35,-61,-40,-52,-29,-18,-21,-63,-60,-47,-13,-12,-9,-5,-2,0,-1,3,6,3,7,8,23,10,1,-1,-4,-30,-20,-13,-10,-8,-5,-6,-2,-8,-1,-1,6,6,6,9,11,42,84,72,25,22,12,16,7,1,1,-1,-4,-14,-26,-5,-4,2,3,4,29,60,17,53,28,16,33,75,77,15,12,2,-1,-2,-9,-31,-44,-14,-26,-31,-17,-5,-2,0,2,7,15,31,30,71,108,52,36,25,21,86,11,13,88,69,40,8,10,2,15,13,11,9,1,7,-1,0,-3,-5,-6,-9,-7,4,7,24,3,5,32,14,12,13,25,53,11,6,5,3,0,-5,-22,-14,-8,-14,-6,-27,-24,-25,-32,-26,-29,-23,-17,-10,-7,-7,-4,0,0,4,16,9,0,-3,-6,-33,-21,-14,-35,-24,-27,-20,-23,-71,-41,-40,-40,-18,-25,-19,-14,-10,-10,-9,-1,3,6,12,32,10,10,7,1,-3,-36,-42,-18,-19,-36,-25,-18,-11,-27,-35,-33,-19,-10,-31,-6,-28,-89,-32,-12,-12,-15,-14,-18,-18,-90,-37,-39,-22,-11,-10,-11,-40,-9,-6,-11,-18,-34,-31,-38,-38,-13,-18,-11,-11,-4,6,16,38,40,5,20,46,56,39,63,33,30,37,70,145,67,41,144,36,30,18,69,74,41,19,15,3,35,0,-3,0,-1,0,5,8,14,17,3,17,36,21,26,51,52,112,52,56,47,95,96,25,48,54,70,31,35,17,37,13,12,6,3,5,11,26,21,37,27,19,8,-1,-9,-7,-14,-19,-22,-24,-14,-17,-5,-2,0,0,-3,-4,-7,-10,-22,-23,-12,-8,-1,3,-3,-2,-2,-15,-25,-2,0,1,9,14,9,22,26,39,20,5,2,-6,-12,-21,-37,-51,-42,-31,-23,-13,-26,-17,-10,-5,3,11,8,26,19,7,3,0,0,-3,-12,-6,-10,-3,-2,2,7,17,15,11,6,20,11,25,20,17,13,2,0,-5,-95,-19,-5,0,2,26,40,20,62,40,45,42,36,53,49,30,32,46,148,80,75,45,30,29,25,111,47,29,174,129,105,55,42,43,31,28,36,31,22,22,27,36,36,55,80,78,58,25,58,236,46,31,18,65,68,49,42,50,38,34,34,23,30,32,35,38,31,23,23,17,7,15,13,5,2,2,-2,-6,-9,-10,-13,-23,-8,-10,-18,-8,-43,-35,-31,-28,-20,-5,1,9,13,25,23,18,15,17,21,9,11,74,42,44,38,29,19,13,11,16,3,13,7,45,41,9,3,-5,-9,2,3,10,14,21,34,146,18,52,41,41,53,52,44,59,30,41,54,81,38,35,41,43,28,18,12,2,18,1,3,12,13,5,42,88,26,26,36,42,89,44,40,18,16,28,25,36,81,112,130,69,50,44,10,62,103,43,23,62,49,53,52,42,38,23,42,36,32,47,10,34,51,64,27,37,27,32,72,60,80,278,79,27,13,95,34,28,36,96,16,67,51,53,27,27,31,14,34,44,47,74,56,25,38,62,48,51,35,27,23,20,56,26,10,50,25,12,18,2,-2,-16,-39,-14,-3,-1,2,5,6,6,7,13,16,16,21,15,21,31,18,19,54,31,39,41,41,45,55,78,91,67,78,52,39,41,37,30,27,21,72,89,45,89,75,110,106,91,90,97,121,55,47,63,50,33,56,56,13,40,45,37,39,50,48,43,60,51,48,50,51,54,61,133,108,54,141,59,79,147,55,61,56,46,40,43,38,58,71,53,54,60,61,80,25,93,108,101,104,35,34,40,36,36,44,60,45,41,41,42,39,45,60,96,143,80,135,102,177,183,367,69,61,40,30,7,35,478,412,151,32,192,25,24,23,155,93,113,138,32,27,37,72,196,173,48,30,20,78,111,41,72,21,21,36,32,16,29,23,4,0,-5,-6,-7,-21,-65]
    }
  ]
}