{
  "code":11912,
  "id":"d86e65",
  "name":"JR筑豊本線(原田線)(桂川～原田)",
  "name_kana":"じぇいあーるちくほうほんせん(はるだせん)",
  "name_formal":"JR筑豊本線(桂川～原田)",
  "station_size":5,
  "company_code":6,
  "station_list":[
    {"code":1190801,"id":"8835ce","name":"桂川(福岡)","original_name":"桂川","name_kana":"けいせん","lat":33.584705,"lng":130.662752,"prefecture":40,"lines":[11908,11911,11912],"attr":"heat","postal_code":"820-0608","address":"嘉穂郡桂川町大字豆田","next":[1191115,1191503,1191202,1190802,1191203],"voronoi":{"lat":33.54056,"lng":130.689589,"delta_lat":[0,43218,26029,-44998,-48920],"delta_lng":[0,-43697,4238,61425,22500]}},
    {"code":1191202,"id":"d8b4c7","name":"上穂波","name_kana":"かみほなみ","lat":33.566909,"lng":130.645151,"prefecture":40,"lines":[11912],"attr":"heat","postal_code":"820-0704","address":"飯塚市阿恵","next":[1190802,1191203,1190803,1190801],"voronoi":{"lat":33.560813,"lng":130.614024,"delta_lat":[0,4723,18242,-43218],"delta_lng":[0,3694,28174,43697]}},
    {"code":1191203,"id":"c882bf","name":"筑前内野","name_kana":"ちくぜんうちの","lat":33.539967,"lng":130.63793,"prefecture":40,"lines":[11912],"attr":"heat","postal_code":"820-0706","address":"飯塚市内野","next":[1191419,1191420,3600312,1193107,1190803,1191202,1191204,1191503,1190801,3600203],"voronoi":{"lat":33.47776,"lng":130.63641,"delta_lat":[0,15875,2497,1219,18539,24671,20253,-15083,-4364,-10571],"delta_lng":[0,112567,423,23,-15369,-44466,-75565,-31079,-607,2077]}},
    {"code":1191204,"id":"9f3489","name":"筑前山家","name_kana":"ちくぜんやまえ","lat":33.477472,"lng":130.574185,"prefecture":40,"lines":[11912],"attr":"heat","postal_code":"818-0003","address":"筑紫野市大字山家","next":[9990110,3600116,3600203,3600113,3600115,9990109,9990108,1191203,3600312,3600114],"voronoi":{"lat":33.462118,"lng":130.569234,"delta_lat":[0,-9657,6494,6853,7575,4377,53036,-28374,-10568,-13088],"delta_lng":[0,34688,11507,9778,8007,3197,-51996,-27571,-1701,2408]}},
    {"code":1190311,"id":"4362df","name":"原田(福岡)","original_name":"原田","name_kana":"はるだ","lat":33.451769,"lng":130.539376,"prefecture":40,"lines":[11903,11912],"attr":"heat","postal_code":"818-0024","address":"筑紫野市大字原田","next":[1190312,3600117,3600116,1190310,3600114,3600115],"voronoi":{"lat":33.461389,"lng":130.542935,"delta_lat":[0,2670,-8033,-16915,5678,4551],"delta_lng":[0,-17176,-26447,48709,3555,932]}}
  ],
  "north":33.585,
  "south":33.45015,
  "east":130.66354,
  "west":130.53899,
  "polyline_list":[
    {
      "start":"原田",
      "end":"桂川",
      "lat":33.45015,
      "lng":130.53907,
      "delta_lat":[0,68,70,55,60,67,85,104,70,37,13,31,36,16,41,21,21,40,22,18,16,13,19,32,52,99,49,23,20,30,32,14,31,63,54,16,11,62,56,25,42,16,26,10,19,36,68,105,18,226,47,29,9,18,5,28,13,4,33,11,14,80,27,28,48,17,15,42,13,11,23,25,47,42,29,52,40,15,27,41,20,31,57,100,29,83,130,92,60,61,41,94,30,73,21,59,129,148,25,32,39,26,27,20,14,7,0,-7,-4,-5,-18,-13,-14,-15,-12,-1,3,7,21,23,18,20,49,46,40,48,67,63,26,18,20,77,52,24,24,41,45,28,26,39,28,30,25,7,12,11,15,12,11,8,4,5,9,25,134,75,165,105,121,192,162,4,112,29,130,67,7,11,13,23,178,18,27,7,41,37,16,18,86,36,24,23,28,31,44,82,25,57,168,121,23,33,50,47,81,223,63,2,110,33,23,41,42,11,31,80,54,61,118,32,38,65,185,96,73,42,27,34,38,29,45,37,66,42,38,24,95,8,32,27,47,110,26,34,45,100,28,26,65,52,18,104,48,47,40,18,23,65,98,207,138,54,35,27,23,140,131,244,22,63,29,13,26,31,47,35,35,43,29,18,20,45,37,126,24,42,109,58,107,97,58,93,88,41,33,20,22,21,22,13,20,11,1,-11,0,-3,-10,-3,-2,-1,-8,0,-3],
      "delta_lng":[0,18,14,5,3,-6,-18,-24,1,8,5,12,21,13,41,24,27,54,25,17,12,8,10,14,15,24,13,9,12,23,37,23,62,148,113,32,21,113,100,43,72,29,42,16,33,62,119,177,34,393,82,52,16,32,9,58,29,10,86,31,34,218,80,71,141,60,48,154,44,37,68,49,88,63,36,53,37,13,23,30,14,16,25,31,7,11,16,11,11,15,16,39,14,24,5,9,6,20,9,20,36,35,44,44,46,43,38,63,26,24,81,57,74,82,84,33,32,34,52,36,21,18,36,26,12,6,4,4,8,8,12,65,38,12,9,10,7,5,7,17,18,26,28,9,18,22,36,40,51,37,24,19,22,43,249,153,328,209,242,375,315,7,227,59,258,134,9,18,24,50,358,30,51,12,51,39,12,17,95,46,22,14,17,10,13,11,3,7,25,17,7,9,19,23,39,102,30,2,65,26,25,49,42,10,20,27,19,23,39,10,12,22,61,46,44,21,14,11,3,-1,-8,-7,-6,1,2,0,7,1,2,12,28,64,12,8,3,7,-1,-4,-20,-11,-1,-2,3,4,8,6,7,28,54,117,77,26,12,6,6,34,34,69,7,18,14,8,14,24,49,40,49,59,26,15,15,24,18,69,12,24,60,32,58,54,29,51,45,26,28,20,30,31,49,33,66,53,1,127,13,28,98,47,52,45,127,21,32]
    }
  ]
}