{
  "code":11913,
  "name":"JR久大本線(ゆふ高原線)",
  "station_list":[
    {"code":101003,"id":"2e81c7","name":"久留米","name_kana":"くるめ","lat":33.319778,"lng":130.501408,"prefecture":40,"lines":[11903,11913,1010],"attr":"cool","postal_code":"830-0022","address":"久留米市城南町２丁目","next":[3600126,3600125,3600129,1190317,3600127,3600128,1190503,3600124,3600123],"voronoi":{"lat":33.337373,"lng":130.511969,"delta_lat":[0,-7597,-14817,-1928,-4929,3558,4368,4289,13970],"delta_lng":[0,-42637,-6390,5225,31689,7435,3939,1638,114]}},
    {"code":1191337,"id":"e02002","name":"久留米高校前","name_kana":"くるめこうこうまえ","lat":33.298438,"lng":130.516379,"prefecture":40,"lines":[11913],"attr":"heat","postal_code":"830-0038","address":"福岡県久留米市西町","next":[1190319,1191302,3600126,3600127,3600128],"voronoi":{"lat":33.273398,"lng":130.531901,"delta_lat":[0,29513,-460,-11962,-1703],"delta_lng":[0,-8241,-9278,-6572,177]}},
    {"code":1191302,"id":"b5ae81","name":"南久留米","name_kana":"みなみくるめ","lat":33.302857,"lng":130.532204,"prefecture":40,"lines":[11913],"attr":"heat","postal_code":"839-0862","address":"久留米市野中町","next":[1191337,1191304,1190320,3600124,3600126,1191303,1190319,3600125],"voronoi":{"lat":33.304486,"lng":130.524026,"delta_lat":[0,-1574,-29513,-14027,-12924,12926,55765,-2774],"delta_lng":[0,-367,8241,12214,23435,-4268,-26712,-5888]}},
    {"code":1191303,"id":"dec333","name":"久留米大学前","name_kana":"くるめだいがくまえ","lat":33.310843,"lng":130.548876,"prefecture":40,"lines":[11913],"attr":"heat","postal_code":"839-0842","address":"久留米市御井朝妻１丁目１３８７-１","next":[1191304,3600124,1191302,3600302,3600303],"voronoi":{"lat":33.259374,"lng":130.563281,"delta_lat":[0,55765,2285,6319,155],"delta_lng":[0,-26712,814,13733,2739]}},
    {"code":1191304,"id":"81e0b5","name":"御井","name_kana":"みい","lat":33.312813,"lng":130.562361,"prefecture":40,"lines":[11913],"attr":"heat","postal_code":"839-0851","address":"久留米市御井町","next":[3600304,1191302,1190321,1191305,1190320,1191303,3600303,3600305],"voronoi":{"lat":33.216434,"lng":130.601375,"delta_lat":[0,2521,27492,12926,64524,4658,-2038,-5110],"delta_lng":[0,-4010,-29816,-4268,-9426,7329,15511,8133]}},
    {"code":1191305,"id":"38c5bf","name":"善導寺","name_kana":"ぜんどうじ","lat":33.320141,"lng":130.608851,"prefecture":40,"lines":[11913],"attr":"eco","postal_code":"839-0824","address":"久留米市善導寺町大字飯田","next":[3600307,1191304,3600306,1191306,1190321,3600305],"voronoi":{"lat":33.335851,"lng":130.617886,"delta_lat":[0,-2977,-148404,31965,104973,13778],"delta_lng":[0,6955,8234,-31700,-16547,13360]}},
    {"code":1191306,"id":"1e68a3","name":"筑後草野","name_kana":"ちくごくさの","lat":33.321988,"lng":130.642143,"prefecture":40,"lines":[11913],"attr":"eco","postal_code":"839-0834","address":"久留米市草野町紅桃林","next":[1191308,101004,1190335,1190321,101005,1191305,3600307,1191307],"voronoi":{"lat":33.115376,"lng":130.734533,"delta_lat":[0,1503,2415,45155,20020,148404,21111,-207840],"delta_lng":[0,-38822,-3948,-43151,-15536,-8234,34486,69886]}},
    {"code":1191307,"id":"02fc45","name":"田主丸","name_kana":"たぬしまる","lat":33.338871,"lng":130.692353,"prefecture":40,"lines":[11913],"attr":"eco","postal_code":"839-1233","address":"久留米市田主丸町田主丸","next":[3600310,1191308,3600308,3600312,3600307,1191306,3600309],"voronoi":{"lat":33.380249,"lng":130.677157,"delta_lat":[0,20134,-254238,207840,6805,3997,6402],"delta_lng":[0,42952,9105,-69886,1409,1955,4655]}},
    {"code":1191308,"id":"dd4c6d","name":"筑後吉井","name_kana":"ちくごよしい","lat":33.341014,"lng":130.752193,"prefecture":40,"lines":[11913],"attr":"cool","postal_code":"839-1321","address":"うきは市吉井町１９９","next":[1191306,1191420,1191307,3600312,1191421,1190335,1191309,1191310],"voronoi":{"lat":33.446652,"lng":130.774719,"delta_lat":[0,1039,7487,-54796,-254238,-30768,-58,279027],"delta_lng":[0,-719,-10230,-43662,9105,5319,194,45006]}},
    {"code":1191309,"id":"b28185","name":"うきは","name_kana":"うきは","lat":33.33506,"lng":130.789107,"prefecture":40,"lines":[11913],"attr":"cool","postal_code":"839-1401","address":"うきは市浮羽町朝田","next":[1191311,9991713,1191310,1191308,1190335],"voronoi":{"lat":33.108806,"lng":130.783665,"delta_lat":[0,189378,96162,-279027,-2926],"delta_lng":[0,38125,-42057,-45006,7530]}},
    {"code":1191310,"id":"5b732c","name":"筑後大石","name_kana":"ちくごおおいし","lat":33.347215,"lng":130.816899,"prefecture":40,"lines":[11913],"attr":"cool","postal_code":"839-1406","address":"うきは市浮羽町高見","next":[1191311,1191421,1191309,1191425,1191422,1191423,1191308],"voronoi":{"lat":33.298183,"lng":130.821789,"delta_lat":[0,44594,21473,13982,52343,16077,-52307],"delta_lng":[0,25034,712,-7067,-45020,-20729,5013]}},
    {"code":1191311,"id":"aa8ac4","name":"夜明","name_kana":"よあけ","lat":33.319541,"lng":130.866195,"prefecture":44,"lines":[11913,11914],"attr":"heat","postal_code":"877-1112","address":"日田市夜明中町","next":[1191310,1191312,1191309,1191425,9991713,1192312,1191313,1192316,1191314,1191316],"voronoi":{"lat":33.098781,"lng":130.867635,"delta_lat":[0,-254,-2,10281,189378,44594,-19422,-51476,-11353,-134530],"delta_lng":[0,-704,-44773,-38493,38125,25034,46262,7790,-395,-21662]}},
    {"code":1191312,"id":"ed6642","name":"光岡","name_kana":"てるおか","lat":33.327668,"lng":130.919901,"prefecture":44,"lines":[11913,11914],"attr":"heat","postal_code":"877-0078","address":"日田市北友田町１丁目","next":[1191311,1191421,1191424,1191313,1191425],"voronoi":{"lat":33.323356,"lng":130.893086,"delta_lat":[0,-51476,135883,-4002,-56188],"delta_lng":[0,7790,76659,-10728,-63817]}},
    {"code":1191313,"id":"c78a5c","name":"日田","name_kana":"ひた","lat":33.317014,"lng":130.938786,"prefecture":44,"lines":[11913,11914],"attr":"heat","postal_code":"877-0013","address":"日田市元町","next":[1191315,1191312,1191311,1191314,1191421],"voronoi":{"lat":33.407763,"lng":130.977534,"delta_lat":[0,-135883,-11353,133050,45374],"delta_lng":[0,-76659,-395,116871,22015]}},
    {"code":1191314,"id":"bbc0de","name":"豊後三芳","name_kana":"ぶんごみよし","lat":33.305796,"lng":130.951557,"prefecture":44,"lines":[11913],"attr":"heat","postal_code":"877-0035","address":"日田市日高町","next":[1191313,1191311,1191315,1191316],"voronoi":{"lat":33.125997,"lng":130.878818,"delta_lat":[0,134530,133050,-160752],"delta_lng":[0,21662,116871,-63126]}},
    {"code":1191315,"id":"13f8c4","name":"豊後中川","name_kana":"ぶんごなかがわ","lat":33.284482,"lng":131.005834,"prefecture":44,"lines":[11913],"attr":"heat","postal_code":"879-4122","address":"日田市天瀬町合田","next":[1191421,1191318,1190618,1191316,1191313,1191317,1191314],"voronoi":{"lat":33.438951,"lng":131.039367,"delta_lat":[0,13359,-716,-120914,-46420,-51435,160752],"delta_lng":[0,15695,2701,-3151,-15621,-84765,63126]}},
    {"code":1191316,"id":"b4d2b3","name":"天ヶ瀬","name_kana":"あまがせ","lat":33.254747,"lng":131.023877,"prefecture":44,"lines":[11913],"attr":"heat","postal_code":"879-4201","address":"大分県日田市天瀬町桜竹","next":[1191321,1192316,1192317,1191315,1191317,1191311,1191314],"voronoi":{"lat":33.125997,"lng":130.878818,"delta_lat":[0,-27216,-4781,7445,173,182642,-51435],"delta_lng":[0,-11184,95899,117711,28,-42282,-84765]}},
    {"code":1191317,"id":"80430b","name":"杉河内","name_kana":"すぎかわち","lat":33.264391,"lng":131.065535,"prefecture":44,"lines":[11913],"attr":"heat","postal_code":"879-4202","address":"日田市天瀬町赤岩","next":[1191321,1191318,1191315,1191316],"voronoi":{"lat":33.211374,"lng":131.114001,"delta_lat":[0,119305,-46420,-182642],"delta_lng":[0,-59390,-15621,42282]}},
    {"code":1191318,"id":"021be8","name":"北山田(大分)","name_kana":"きたやまだ","lat":33.282004,"lng":131.100917,"prefecture":44,"lines":[11913],"attr":"heat","postal_code":"879-4331","address":"玖珠郡玖珠町大字戸畑","next":[1190618,1191319,1191315,1191321,1191317,1191320,1190621],"voronoi":{"lat":33.243846,"lng":131.128736,"delta_lat":[0,-21839,-10633,119305,120914,645,-6223],"delta_lng":[0,-7941,-6793,-59390,3151,39980,27455]}},
    {"code":1191319,"id":"501a39","name":"豊後森","name_kana":"ぶんごもり","lat":33.282954,"lng":131.155202,"prefecture":44,"lines":[11913],"attr":"heat","postal_code":"879-4403","address":"玖珠郡玖珠町大字帆足","next":[1191318,1191323,1191320,1190621,1190622,1190625,1190624],"voronoi":{"lat":33.440565,"lng":131.177551,"delta_lat":[0,4976,475,-202169,67506,92005,14000],"delta_lng":[0,-44249,-8105,3538,96672,40514,-28631]}},
    {"code":1191320,"id":"5f2a8a","name":"恵良","name_kana":"えら","lat":33.255224,"lng":131.174566,"prefecture":44,"lines":[11913],"attr":"heat","postal_code":"879-4801","address":"玖珠郡九重町大字右田","next":[1191321,1191323,1191322,1191319,1191318],"voronoi":{"lat":33.222008,"lng":131.120795,"delta_lat":[0,26891,21673,40781,-67506],"delta_lng":[0,77593,19194,7826,-96672]}},
    {"code":1191321,"id":"ecab1f","name":"引治","name_kana":"ひきじ","lat":33.229188,"lng":131.183589,"prefecture":44,"lines":[11913],"attr":"heat","postal_code":"879-4723","address":"玖珠郡九重町大字町田","next":[1191320,1192317,1192321,1191322,1191316,1191317,1191318,1192319,1192318,1192320],"voronoi":{"lat":33.094435,"lng":131.101134,"delta_lat":[0,1562,4678,769,173,109757,10633,26891,-165546,-903],"delta_lng":[0,-5140,-13173,-1577,28,32729,6793,77593,-21917,-22418]}},
    {"code":1191322,"id":"40249d","name":"豊後中村","name_kana":"ぶんごなかむら","lat":33.226016,"lng":131.207548,"prefecture":44,"lines":[11913],"attr":"heat","postal_code":"879-4801","address":"玖珠郡九重町大字右田","next":[1191326,1191320,1191321,1191323,1192321,1192322],"voronoi":{"lat":33.126464,"lng":131.264331,"delta_lat":[0,144107,-21673,-165546,-2492,2514],"delta_lng":[0,-46749,-19194,-21917,58475,20970]}},
    {"code":1191323,"id":"f4b6a1","name":"野矢","name_kana":"のや","lat":33.240391,"lng":131.25186,"prefecture":44,"lines":[11913],"attr":"heat","postal_code":"879-4802","address":"玖珠郡九重町大字野上","next":[1191320,1191325,1191319,1191322,1190625,1191326,1191324],"voronoi":{"lat":33.196296,"lng":131.293651,"delta_lat":[0,-69832,144107,40781,92005,-638,-94684],"delta_lng":[0,-29321,-46749,7826,40514,5032,20338]}},
    {"code":1191324,"id":"9c0699","name":"由布院","name_kana":"ゆふいん","lat":33.262551,"lng":131.355024,"prefecture":44,"lines":[11913],"attr":"heat","postal_code":"879-5114","address":"由布市湯布院町川北","next":[1190638,1191328,1190625,1190630,1190639,1191327,1190637,1191325,1191326,1191323,1190640],"voronoi":{"lat":33.247245,"lng":131.417071,"delta_lat":[0,-17622,216,78196,94684,7223,-21684,-11857,-80172,-2131,-33673],"delta_lng":[0,-29005,-22381,-74393,-20338,35164,70459,8052,39586,749,3966]}},
    {"code":1191325,"id":"57b1cd","name":"南由布","name_kana":"みなみゆふ","lat":33.242116,"lng":131.333544,"prefecture":44,"lines":[11913],"attr":"cool","postal_code":"879-5104","address":"由布市湯布院町中川","next":[1191323,1191324,1191326],"voronoi":{"lat":33.308036,"lng":131.291292,"delta_lat":[0,-111739,33543],"delta_lng":[0,2360,72033]}},
    {"code":1191326,"id":"c89a06","name":"湯平","name_kana":"ゆのひら","lat":33.197339,"lng":131.354395,"prefecture":44,"lines":[11913],"attr":"cool","postal_code":"879-5111","address":"由布市湯布院町下湯平","next":[1191322,1192326,1191327,1192322,1192325,1191323,1191324,1191325],"voronoi":{"lat":33.229623,"lng":131.388065,"delta_lat":[0,-146012,-4643,-8319,12725,43090,69832,33543],"delta_lng":[0,-37410,-11499,-53184,-30057,8415,29321,72033]}},
    {"code":1191327,"id":"338847","name":"庄内(大分)","name_kana":"しょうない","lat":33.185126,"lng":131.402063,"prefecture":44,"lines":[11913],"attr":"cool","postal_code":"879-5434","address":"由布市庄内町庄内原","next":[1191326,1191328,1191324,1192326],"voronoi":{"lat":33.083611,"lng":131.350655,"delta_lat":[0,146012,17622,-151129],"delta_lng":[0,37410,29005,8338]}},
    {"code":1191328,"id":"9c50f5","name":"天神山","name_kana":"てんじんやま","lat":33.187154,"lng":131.438821,"prefecture":44,"lines":[11913],"attr":"cool","postal_code":"879-5406","address":"由布市庄内町西長宝","next":[1191329,1192326,1191324,1191330,1191327,1190640],"voronoi":{"lat":33.260426,"lng":131.42893,"delta_lat":[0,-13180,-151129,-277,144760,4206],"delta_lng":[0,-11859,8338,7792,19997,-771]}},
    {"code":1191329,"id":"b53963","name":"小野屋","name_kana":"おのや","lat":33.185258,"lng":131.452546,"prefecture":44,"lines":[11913],"attr":"eco","postal_code":"879-5405","address":"由布市庄内町東長宝","next":[1191328,1191330,1192326],"voronoi":{"lat":33.095839,"lng":131.4332,"delta_lat":[0,144760,-152398],"delta_lng":[0,19997,48261]}},
    {"code":1191330,"id":"6f0877","name":"鬼瀬","name_kana":"おにがせ","lat":33.195721,"lng":131.485586,"prefecture":44,"lines":[11913],"attr":"eco","postal_code":"879-5521","address":"由布市挾間町鬼瀬","next":[1191328,1191329,1191331,1190640,1192326,1190641],"voronoi":{"lat":33.241993,"lng":131.468454,"delta_lat":[0,2813,-4206,-152398,-505,143816],"delta_lng":[0,-16027,771,48261,1814,-4563]}},
    {"code":1191331,"id":"d00835","name":"向之原","name_kana":"むかいのはる","lat":33.196625,"lng":131.514075,"prefecture":44,"lines":[11913],"attr":"eco","postal_code":"879-5502","address":"由布市挾間町向原","next":[1192326,1191332,1192328,1190641,1191330,1191333,1192331],"voronoi":{"lat":33.218561,"lng":131.533601,"delta_lat":[0,14442,-1491,-143816,-3234,591,3459],"delta_lng":[0,-4916,-29976,4563,7604,13920,3343]}},
    {"code":1191332,"id":"a2cd6d","name":"豊後国分","name_kana":"ぶんごこくぶ","lat":33.195065,"lng":131.551219,"prefecture":44,"lines":[11913],"attr":"eco","postal_code":"870-0864","address":"大分市国分","next":[1191334,1191331,1192334,1192335,1192331,1191333],"voronoi":{"lat":33.180474,"lng":131.581964,"delta_lat":[0,-9713,-54202,-28047,130049,-25960],"delta_lng":[0,-1057,-14396,-38372,5462,41647]}},
    {"code":1191333,"id":"2dca47","name":"賀来","name_kana":"かく","lat":33.213091,"lng":131.562455,"prefecture":44,"lines":[11913],"attr":"eco","postal_code":"870-0877","address":"大分市大字賀来","next":[1190642,1191334,1191331,1191332,1190641],"voronoi":{"lat":33.228617,"lng":131.57343,"delta_lat":[0,-36015,25960,14442,14357],"delta_lng":[0,1819,-41647,-4916,15116]}},
    {"code":1191334,"id":"2e4d9d","name":"南大分","name_kana":"みなみおおいた","lat":33.214276,"lng":131.585913,"prefecture":44,"lines":[11913],"attr":"eco","postal_code":"870-0883","address":"大分市永興","next":[1191332,1192335,1190642,1191333,1190643,1191335],"voronoi":{"lat":33.224982,"lng":131.594958,"delta_lat":[0,5343,-1709,-36015,-12127,21792],"delta_lng":[0,-4785,-16744,1819,6716,19517]}},
    {"code":1191335,"id":"79b1ed","name":"古国府","name_kana":"ふるごう","lat":33.220707,"lng":131.608306,"prefecture":44,"lines":[11913],"attr":"eco","postal_code":"870-0844","address":"大分市古国府","next":[1190644,1192336,1192335,1190643,1191334],"voronoi":{"lat":33.224982,"lng":131.594958,"delta_lat":[0,3971,-2433,-23133,-1121],"delta_lng":[0,28055,1343,-17520,-5355]}},
    {"code":1190643,"id":"5edc55","name":"大分","name_kana":"おおいた","lat":33.232794,"lng":131.606595,"prefecture":44,"lines":[11906,11913,11923],"attr":"eco","postal_code":"870-0831","address":"大分市要町","next":[1190642,1191334,1190644,1191335],"voronoi":{"lat":33.224982,"lng":131.594958,"delta_lat":[0,5343,49883,-51255],"delta_lng":[0,-4785,25928,6912]}}
  ],
  "north":33.34746,
  "south":33.18304,
  "east":131.61843,
  "west":130.50119,
  "polyline_list":[
    {
      "start":"久留米",
      "end":"大分",
      "lat":33.32099,
      "lng":130.50119,
      "delta_lat":[0,-216,-56,-15,-54,-10,-55,-84,-72,-83,-7,-29,-62,-16,-105,-96,-62,-80,-79,-129,-269,-29,-22,-20,-125,-72,-20,-65,-37,-19,-22,-36,-29,-17,-12,-23,-11,-10,-14,-12,-25,-22,0,-38,-4,-11,0,6,7,8,30,40,9,103,47,27,11,11,11,11,25,18,18,15,16,83,133,23,138,64,77,64,67,37,36,14,18,9,23,36,12,8,6,6,6,33,14,22,7,25,37,21,18,26,2,-2,-8,-37,-5,-5,-5,1,9,2,1,1,9,5,8,3,4,2,24,20,36,26,15,15,17,41,15,39,52,27,25,60,76,44,104,16,13,20,6,12,2,0,4,2,10,18,11,22,12,13,2,7,12,0,1,18,24,6,1,5,22,11,2,14,5,8,8,4,47,55,74,48,24,87,75,53,19,53,54,43,35,67,7,33,108,123,77,76,89,67,26,50,42,32,9,139,69,142,17,15,11,7,2,-2,-4,0,-6,-5,-1,6,22,11,12,0,-3,-6,-3,-6,-8,-8,-5,-13,-13,-14,-9,-4,-9,-14,-6,-5,-4,-6,-4,-4,-6,-9,-14,-15,-14,-19,-19,-36,-18,-21,-32,-41,-41,-46,-21,-69,-64,-9,-33,-14,-10,-11,-3,-2,2,8,19,23,18,8,21,9,6,3,12,26,41,40,27,48,118,227,182,87,91,175,25,18,16,16,9,8,7,8,6,6,4,2,0,-2,-6,-1,-8,-7,-7,-6,-4,-5,-4,-5,-7,-8,-12,-20,-32,-71,-165,-36,-17,-29,-48,-41,-47,-47,-14,-20,-15,-11,-10,-10,-8,-8,-4,-3,0,3,6,13,23,6,14,36,13,13,12,2,1,1,1,-2,-4,-13,-24,-20,-19,-18,-24,-26,-10,-8,-2,-12,0,-14,-19,-14,-11,-18,-9,-6,-14,-10,-20,-28,-43,-76,-22,-27,-66,-37,-40,-37,-51,-82,-56,-61,-29,-15,-35,-74,-71,-21,-57,-29,-28,-167,-85,-101,-50,-26,-20,-42,-47,-39,-23,-19,-20,-34,-24,-43,-118,-65,-99,-94,-34,-6,-41,-33,-39,-13,-58,-25,-20,-49,-18,-32,-33,-29,-24,-14,-36,-8,-5,-7,2,2,7,6,9,20,4,4,-1,2,14,5,0,7,7,19,29,25,11,12,33,11,22,53,111,92,63,18,93,22,88,63,29,33,55,23,104,15,32,2,90,29,64,23,50,35,33,14,32,22,13,6,0,0,-5,-3,2,7,13,4,5,7,38,9,3,-6,-13,-16,-15,-20,-24,-32,-181,-190,-48,-18,-31,-15,-30,-22,-43,-22,-3,-133,-20,-57,-58,-123,-129,-189,-61,-31,-19,-21,-12,-10,-12,-11,-23,-17,-17,-30,-30,-35,-70,-203,-43,-24,-53,-37,-31,-58,-51,-41,-23,-17,-12,-6,-10,-18,-5,-12,-13,-22,-330,-43,-60,-38,-40,-42,-44,-44,-21,-19,-22,-20,-33,-57,-29,-10,-15,-45,-45,-8,-61,-20,-10,-134,-60,-31,-18,-32,-13,-6,-50,-38,-25,-28,-14,-47,-18,-9,-6,0,1,0,14,4,-4,0,-2,-4,-6,-8,-20,-7,-9,-4,-3,0,0,4,12,6,-1,-5,-9,-15,-20,-16,-31,-97,-50,-60,-74,-104,-16,-119,-53,-27,-29,-130,-61,-30,-39,-37,-62,-27,-34,-60,-11,-180,-46,-18,-15,-24,-35,-56,-134,-71,-15,-19,-13,-16,-18,-5,-51,-116,-159,-70,-18,-54,-49,-115,-85,-71,-23,-59,-27,-16,-27,-11,-10,-22,-16,-15,-36,-76,-50,-107,-5,-24,-22,-1,-19,-23,-10,-6,-2,-2,1,2,4,6,6,15,9,8,1,-1,-6,-12,-38,-9,-2,0,1,2,6,23,31,30,10,9,16,13,17,19,12,11,11,15,12,8,10,29,11,43,37,30,34,6,6,3,2,-2,-32,-3,2,6,20,9,41,30,30,15,19,9,22,9,16,21,19,24,3,34,4,35,34,11,34,27,28,12,15,19,11,5,6,3,1,-2,-2,0,-2,2,3,4,24,5,8,12,16,11,4,15,26,56,24,30,28,25,22,14,11,14,6,7,24,3,4,-4,2,2,4,7,14,18,19,21,21,14,15,40,51,29,65,83,103,47,58,20,15,19,19,80,69,51,59,87,62,115,40,85,54,16,20,16,4,4,7,2,2,-2,-2,-2,-3,-8,-20,-16,-10,-12,-3,0,3,3,2,12,7,11,5,6,1,-1,-43,-42,-58,-32,-64,-92,-60,-32,-11,0,0,7,15,10,15,16,22,45,46,62,73,13,18,41,15,10,17,61,24,4,9,18,16,9,3,2,0,-3,-6,-7,-9,-2,0,4,9,12,77,19,8,3,-3,-1,-14,-2,-20,-13,-36,-26,-12,-50,-14,-66,-17,-39,-45,-206,-40,-17,-22,-15,-16,-22,-46,-5,-23,-110,-62,-56,-39,-42,-50,-62,-79,-45,-38,-61,-130,-53,-252,-78,-25,-29,-51,-56,-34,-59,-8,-57,-58,-66,-52,-47,-27,-36,-80,-34,-54,-23,-93,-70,-46,-86,-56,-71,-379,-154,-65,-88,-145,-232,-112,-48,-31,-32,-93,-83,-31,-16,-20,-10,-20,-11,-7,-35,-123,-48,-26,-29,-59,-27,-19,-85,-28,-102,-56,-50,-60,-36,-35,-79,-127,-52,-55,-41,-45,-42,-27,-7,-5,0,1,4,17,10,22,39,57,17,14,5,-4,-11,-32,-6,-11,-6,-1,-1,5,1,6,5,9,13,22,21,33,33,34,58,41,124,44,35,16,43,28,49,115,25,18,31,56,42,45,68,28,154,25,19,8,6,39,17,35,112,27,23,18,32,11,21,36,0,-5,-11,7,86,7,0,-10,-17,-53,-74,-18,-7,-2,5,4,-2,-10,-38,-46,-27,-13,-3,-2,3,9,42,19,5,3,0,-5,-7,-34,-11,-22,-36,-15,-7,-2,4,9,5,22,7,2,-2,-7,-31,-40,-10,-11,-7,-2,1,4,11,26,23,33,33,53,127,29,28,20,18,15,9,5,-1,-3,-27,-26,-3,-8,-15,-28,-28,-10,-14,-1,2,8,44,16,78,67,95,99,124,157,44,29,19,68,71,48,23,23,17,16,11,14,13,11,9,21,12,27,19,22,4,7,7,2,3,5,6,8,12,6,12,15,9,14,71,47,54,11,6,7,5,8,5,3,4,24,25,22,12,8,19,29,26,158,51,44,63,137,36,17,10,6,7,5,4,9,17,38,25,1,1,-1,-2,-3,-5,-6,-13,-8,-8,-11,-10,-15,-16,-15,-12,-24,-36,-24,-28,-54,-38,-51,-52,-30,-36,-45,-56,-45,-36,-13,-27,-40,-22,-21,-24,-14,-16,-24,-27,-20,-28,-33,-43,-20,-9,-3,-3,-2,-3,-10,-3,-3,-3,-5,-5,-7,-9,-8,-37,-14,-25,-46,-28,-43,-58,-38,-20,-18,-21,-17,-21,-29,-21,-25,-17,-24,-18,-31,-47,-53,-50,-33,-21,-36,-109,-186,-58,-72,-37,-32,-21,-13,-9,-5,-2,3,9,37,23,7,3,3,-1,-8,-6,-24,-14,-15,-19,-27,-33,-38,-47,-79,-42,-36,-31,-41,-53,-76,-34,-38,-67,-43,-67,-13,-18,-20,-45,-35,-12,-67,-32,-22,-21,-28,-29,-29,-208,-52,-112,-17,-24,-38,-29,-35,-27,-31,-31,-30,-24,-14,-20,-42,-157,-114,-92,-29,-23,-47,-67,-25,-22,-16,-20,-40,-65,-32,-33,-74,-83,-52,-26,-25,-20,-26,-73,-35,-27,-26,-29,-41,-20,-22,-27,-26,-57,-45,-68,-29,-12,-25,-66,-29,-35,-25,-41,-86,-29,-28,-29,-113,-74,-48,-38,-15,-47,-31,-11,-23,-7,0,3,-1,-2,-7,-13,-14,-24,-32,-40,-13,-14,-7,-3,3,1,2,-1,-4,-10,-10,-18,-26,-14,-13,-23,-40,-85,-27,-30,-21,-12,-9,-13,-3,-19,-16,-9,-9,-7,-11,-31,-52,-35,-17,-17,-9,-16,-63,-83,-47,-17,-10,-8,-2,1,5,18,1,-3,-9,-11,-15,-23,-38,-34,-13,-14,-7,-4,-2,0,4,12,17,11,12,9,13,2,-1,-6,-10,-52,-41,-47,-9,-2,-1,4,6,9,9,4,3,2,-1,-12,-9,-9,-7,-19,-26,-12,-36,-17,-22,-15,-12,-11,-5,0,1,10,19,27,46,23,15,12,36,22,23,31,63,54,37,9,2,0,-2,-7,-15,-11,-3,-1,1,2,11,17,24,12,4,3,-1,-2,-7,-9,-9,-78,-104,-60,-62,-12,-10,-5,-2,2,2,7,4,10,20,60,17,5,14,11,4,3,2,0,-3,-6,-9,-13,-43,-24,-25,-13,-8,-7,-2,-2,1,4,4,9,20,23,47,44,17,20,12,53,41,56,39,18,29,67,39,35,31,22,16,22,20,18,12,16,11,16,13,13,29,43,23,49,16,60,76,78,27,40,34,33,43,36,36,37,29,27,27,20,21,14,11,4,8,7,7,1,-2,-4,-11,-17,-1,-27,-47,-33,-27,-39,-32,-41,-38,-44,-25,-46,-65,-38,-47,-51,-114,-44,-18,-16,-24,-18,-15,-12,-12,-4,-2,3,6,9,12,17,47,94,86,53,65,49,16,14,6,0,9,11,5,2,-1,-3,-3,-7,-7,-6,-4,-5,-1,0,1,4,10,19,23,29,9,5,3,-1,0,-1,-4,-6,-8,-9,-11,-8,-12,-6,-7,-4,-3,-2,3,0,1,1,6,21,15,16,17,14,18,4,4,7,12,11,9,71,97,47,69,29,10,6,5,4,2,1,0,-5,-5,-5,-15,-22,-16,-16,-15,-9,-9,-14,-9,-11,-13,-16,-18,-23,-47,-2,-26,-28,-30,-27,-12,-30,-32,-16,-23,-13,-8,-7,-11,-7,-4,-9,-10,-9,-7,-8,-9,-13,-10,-13,-14,-9,-8,-13,-12,-17,-27,-15,-29,-26,-15,-14,-9,-9,-5,-4,-2,-2,1,2,3,4,7,14,24,12,8,10,11,24,34,76,56,38,68,28,15,10,14,39,47,53,26,21,17,36,56,47,56,56,35,31,23,25,36,35,23,27,28,56,80,82,59,70,10,138,14,24,64,28,20,28,15,16,14,11,11,28,57,37,38,16,14,13,16,59,56,64,39,26,12,6,8,3,4,1,-2,-3,-8,-14,-16,-18,-20,-29,-23,-16,-26,-11,-9,-9,-10,-15,-25,-16,-6,-9,-7,-4,2,2,2,3,6,8,12,10,33,34,45,56,38,11,18,43,42,88,46,60,38,29,18,6,4,4,2,3,2,3,2,2,5,6,11,4,2,0,0,-6,-2,-2,-7,-5,-2,-5,-12,-14,-9,-16,-11,-2,0,0,2,6,1,2,7,13,9,14,17,14,25,45,46,32,20,20,24,29,20,25,22,23,16,16,19,17,14,10,14,11,13,12,14,46,51,27,24,29,32,29,15,15,13,11,23,17,14,13,14,19,36,25,25,10,19,19,21,18,32,23,16,20,29,57],
      "delta_lng":[0,46,9,4,10,2,8,15,8,14,2,5,12,4,24,25,15,13,9,6,0,0,0,0,-1,1,0,15,14,8,14,29,28,17,18,45,28,31,61,76,286,229,8,426,53,149,35,77,44,30,94,84,23,230,108,62,31,28,36,40,116,78,57,45,39,148,222,38,224,107,129,107,116,72,72,35,46,23,68,121,48,45,39,52,56,284,131,164,49,188,300,177,126,207,22,44,50,134,26,32,42,67,315,157,63,25,330,318,325,86,49,6,141,118,151,89,46,41,44,104,32,84,114,52,48,130,149,90,213,38,35,69,30,187,21,25,100,21,150,310,203,385,207,212,29,33,191,9,21,282,369,103,15,85,341,180,17,218,118,123,79,61,209,244,334,222,103,394,338,235,84,248,236,200,113,157,12,59,154,185,110,112,134,101,36,81,85,78,20,338,165,335,48,50,50,51,51,472,713,27,1108,882,287,132,480,208,248,93,78,95,30,105,134,130,66,165,157,157,86,67,104,142,84,45,67,77,46,39,35,41,53,47,40,56,51,96,46,53,83,106,108,116,50,178,167,23,91,37,42,49,41,49,48,74,182,271,203,86,233,101,59,23,24,44,53,54,31,63,158,298,239,117,118,231,34,29,28,33,21,22,23,33,30,47,41,44,43,45,80,37,111,132,106,74,59,38,32,32,33,27,33,43,70,141,335,72,35,59,85,65,64,61,23,28,28,24,25,26,25,21,21,35,44,41,44,60,80,14,52,119,46,36,42,6,12,5,24,36,21,38,54,51,49,39,51,67,27,15,39,170,32,49,65,47,26,49,31,14,26,18,23,23,40,68,21,23,60,32,33,25,25,40,24,26,12,6,13,31,29,13,45,28,30,198,100,122,60,40,38,76,69,52,31,20,21,25,19,23,47,28,58,56,17,4,32,25,33,11,48,24,20,53,25,47,45,52,47,31,110,30,24,51,61,39,51,37,50,125,28,76,114,33,133,71,59,88,52,117,164,121,43,28,61,15,24,45,97,80,67,18,179,45,161,101,27,25,33,12,62,10,29,3,92,34,76,32,81,80,97,55,112,94,73,77,169,156,413,215,147,157,133,26,28,35,149,58,61,38,58,37,31,36,31,28,163,175,43,17,27,15,27,18,39,21,2,120,17,52,51,111,118,172,65,41,35,69,65,63,54,34,53,33,28,34,26,27,41,116,29,20,47,36,38,74,98,89,63,62,75,66,286,391,56,49,36,36,411,55,78,41,33,26,22,29,19,23,33,39,86,177,71,27,32,130,130,24,159,59,19,361,152,47,19,31,13,5,40,36,40,75,50,211,78,47,31,18,40,8,125,82,36,46,19,24,21,19,53,20,30,21,27,18,32,42,67,76,28,25,32,37,35,18,23,62,31,39,47,67,11,75,32,13,8,18,8,1,0,-5,-15,-7,-9,-16,-3,-46,-6,2,6,11,20,40,98,54,10,12,8,10,8,2,17,39,54,23,6,18,16,38,28,21,8,19,11,6,15,7,5,18,18,15,48,98,71,159,7,37,37,2,40,44,27,21,19,24,28,21,40,45,30,73,70,63,15,13,27,57,172,43,29,22,20,20,21,100,114,109,24,17,25,20,28,35,26,28,30,42,39,33,44,117,43,159,151,132,152,40,37,41,34,33,339,46,28,28,48,27,143,104,104,46,63,30,72,31,35,37,29,31,5,45,6,42,40,13,36,34,36,18,26,37,29,22,26,23,25,29,41,48,52,29,41,24,77,18,15,23,26,17,6,17,26,54,23,30,28,26,27,24,25,36,33,76,219,54,73,70,91,15,27,30,47,54,40,50,39,22,16,29,39,23,59,82,108,48,50,12,6,7,3,17,22,25,46,87,62,114,50,144,93,32,55,65,20,35,71,56,80,30,9,33,19,41,95,58,43,63,22,41,45,26,25,81,56,86,33,47,19,21,264,211,301,135,218,286,196,111,59,20,22,45,53,27,30,25,35,54,59,72,85,17,23,52,21,20,43,184,90,22,54,127,132,81,36,55,89,50,63,51,77,37,23,27,64,65,465,118,66,61,43,8,53,4,60,34,94,68,32,135,36,174,40,104,116,568,118,45,50,25,22,22,37,4,13,66,38,51,42,47,58,72,83,44,30,42,75,31,145,44,10,13,14,9,3,0,0,-3,-6,-15,-11,-16,-11,-20,-43,-18,-31,-11,-52,-32,-16,-20,-13,-17,-38,-13,-9,-16,-27,-35,-11,3,3,16,65,79,37,30,54,39,114,38,17,43,148,57,24,27,49,19,8,16,6,19,23,30,50,38,43,99,159,65,72,56,71,84,71,34,51,28,64,59,120,60,84,106,131,42,72,65,34,67,138,32,72,71,59,35,255,118,162,36,47,42,44,34,36,27,20,19,14,37,14,19,9,36,38,82,194,40,20,21,38,32,41,80,27,104,22,21,13,10,85,26,44,120,37,26,21,47,21,75,151,32,59,160,62,455,57,62,46,49,110,150,43,32,45,93,73,40,52,82,76,55,43,31,116,20,48,200,90,38,53,73,59,66,205,48,75,96,48,38,36,51,68,46,178,51,26,26,34,111,145,48,69,71,65,50,30,46,75,53,57,40,42,86,25,29,29,38,45,43,46,49,46,357,345,37,115,229,348,373,196,214,41,22,32,104,22,94,71,113,110,143,204,60,31,15,37,42,28,22,28,25,34,30,58,64,66,59,134,94,206,169,207,31,93,71,36,27,39,31,26,38,14,20,21,13,11,67,43,57,11,8,10,13,17,15,12,15,125,141,98,39,18,36,54,43,248,78,72,99,212,53,24,17,11,15,14,16,35,84,215,128,12,38,24,16,16,23,22,42,19,18,22,18,20,23,20,13,21,27,17,15,27,18,16,11,7,2,3,0,-1,-2,-2,-8,-13,-10,-14,-18,-13,-20,-31,-44,-31,-56,-65,-89,-51,-29,-20,-15,-22,-49,-125,-27,-18,-12,-16,-17,-18,-20,-13,-72,-20,-27,-40,-23,-27,-33,-21,-11,-13,-23,-24,-41,-69,-64,-70,-33,-36,-22,-30,-37,-32,-31,-28,-22,-43,-168,-286,-81,-104,-57,-46,-34,-28,-37,-35,-49,-39,-45,-114,-70,-35,-25,-31,-26,-45,-30,-69,-23,-26,-20,-23,-19,-14,-14,-18,-9,-2,1,8,16,39,14,11,14,4,5,2,6,10,25,28,13,77,34,16,15,18,11,4,31,9,14,5,7,13,14,23,24,30,34,44,36,18,18,27,79,63,61,14,9,9,9,1,7,7,15,39,62,30,26,53,61,48,25,36,33,50,115,51,39,39,61,84,34,30,24,21,35,24,28,15,11,32,85,30,29,16,18,35,16,23,40,173,127,78,71,37,152,98,45,102,42,29,76,39,35,47,54,47,51,56,63,23,40,33,40,91,29,95,26,31,37,31,38,35,15,16,20,24,66,32,41,32,35,44,82,26,132,126,65,72,35,35,59,80,56,30,41,20,20,79,106,62,30,33,35,28,35,43,171,40,22,36,28,31,35,62,55,27,38,29,29,32,38,29,41,64,37,36,36,43,30,41,38,33,138,112,132,32,21,51,81,60,77,88,148,96,140,38,82,62,92,21,38,46,16,41,21,33,32,39,51,47,36,40,34,44,48,75,38,35,39,146,89,122,160,306,288,178,42,27,46,40,72,107,72,54,47,37,32,36,52,68,41,27,32,38,26,40,32,19,131,174,96,108,29,30,29,39,48,50,81,22,29,48,98,24,9,28,30,20,21,30,42,47,42,41,38,103,70,73,41,38,37,26,38,39,35,28,31,45,60,118,115,44,43,23,81,59,83,59,21,29,51,29,31,27,22,22,39,47,45,39,50,33,33,23,20,30,37,10,16,1,-5,-9,-9,-2,-2,2,5,10,10,13,18,17,24,29,26,35,30,33,20,76,94,105,65,48,36,54,51,6,70,112,66,42,58,43,48,44,43,26,38,48,22,24,26,57,23,13,15,29,37,36,31,55,31,31,42,30,39,26,27,59,123,109,69,84,64,29,29,18,10,31,31,28,21,26,27,25,34,25,27,27,24,23,30,19,38,40,82,107,126,34,25,31,27,22,16,23,26,25,29,29,23,40,27,41,42,36,27,59,24,12,13,25,88,71,81,71,63,63,9,16,25,39,28,26,150,205,102,141,63,25,21,18,25,25,69,33,27,28,21,46,66,48,50,46,24,20,24,16,15,16,19,22,27,52,3,28,34,40,41,20,53,52,28,38,22,18,14,30,24,18,63,68,65,46,39,48,56,45,57,57,32,24,40,23,33,42,22,45,41,32,34,26,32,27,29,20,23,23,22,20,17,17,36,39,17,11,10,12,21,32,64,47,34,54,26,15,14,18,54,64,73,31,22,16,25,38,37,43,45,27,20,16,14,15,16,8,8,7,11,13,16,11,13,2,23,3,3,12,5,5,10,8,12,12,12,13,41,72,47,56,23,28,21,36,134,128,150,89,61,32,27,23,27,27,30,41,42,53,71,77,91,94,136,123,91,150,78,64,50,69,89,146,75,44,65,76,50,46,33,18,11,16,17,20,17,40,45,54,71,50,19,38,86,88,203,104,136,83,69,42,20,19,24,22,50,62,56,43,31,38,38,40,26,26,33,59,72,34,42,76,53,15,17,38,37,30,51,43,16,60,15,51,60,14,14,20,34,17,22,20,16,24,41,41,24,13,11,9,9,6,2,1,-2,-4,-4,-8,-6,-7,-6,-9,-10,-14,-14,-18,-65,-75,-36,-31,-34,-38,-32,-13,-13,-10,-6,-11,-10,-8,-9,-10,-20,-39,-30,-26,-23,-58,-42,-48,-35,-78,-52,-41,-46,-70,-123]
    }
  ]
}