{
  "code":11916,
  "name":"JR香椎線(海の中道線)(西戸崎～香椎)",
  "station_list":[
    {"code":1191601,"id":"6fde6a","name":"西戸崎","name_kana":"さいとざき","lat":33.650139,"lng":130.35777,"prefecture":40,"lines":[11916],"attr":"heat","postal_code":"811-0321","address":"福岡市東区西戸崎１丁目"},
    {"code":1191602,"id":"4d3e80","name":"海ノ中道","name_kana":"うみのなかみち","lat":33.664241,"lng":130.361633,"prefecture":40,"lines":[11916],"attr":"heat","postal_code":"811-0321","address":"福岡市東区西戸崎"},
    {"code":1191603,"id":"77cb8b","name":"雁ノ巣","name_kana":"がんのす","lat":33.683872,"lng":130.403312,"prefecture":40,"lines":[11916],"attr":"heat","postal_code":"811-0204","address":"福岡市東区奈多"},
    {"code":1191604,"id":"d01c93","name":"奈多","name_kana":"なた","lat":33.68646,"lng":130.411983,"prefecture":40,"lines":[11916],"attr":"eco","postal_code":"811-0204","address":"福岡市東区奈多"},
    {"code":1191605,"id":"581d45","name":"和白","name_kana":"わじろ","lat":33.688888,"lng":130.429918,"prefecture":40,"lines":[11916,36004],"attr":"eco","postal_code":"811-0202","address":"福岡市東区和白３丁目"},
    {"code":1190227,"id":"304596","name":"香椎","name_kana":"かしい","lat":33.659228,"lng":130.444063,"prefecture":40,"lines":[11902,11916,11917],"attr":"heat","postal_code":"813-0013","address":"福岡市東区香椎駅前１丁目"}
  ],
  "north":33.69064,
  "south":33.65006,
  "east":130.44455,
  "west":130.35792,
  "polyline_list":[
    {
      "start":"西戸崎",
      "end":"香椎",
      "lat":33.65006,
      "lng":130.35792,
      "delta_lat":[0,115,101,125,152,88,60,30,156,28,24,78,70,93,59,72,30,68,31,54,31,56,22,10,36,30,27,88,65,67,78,13,16,16,7,32,141,37,16,35,149,78,27,60,240,47,47,32,85,59,105,30,9,34,9,94,19,14,29,34,17,28,11,11,102,33,103,59,29,27,23,20,7,11,11,74,16,9,6,3,0,-2,-6,-8,-7,-4,-9,-20,-28,-6,-11,-14,-37,-65,-130,-70,-121,-184,-93,-47,-255,-20,-102,-115,-25,-51,-98,-24,-67,-29,-91,-330,-87,-21,-290,-86,-41,-39,-55,-93,-75,-106,-9,-76,-130,-31],
      "delta_lng":[0,29,34,34,38,21,16,8,35,6,5,9,7,6,11,15,11,29,20,40,28,56,28,13,53,52,60,245,186,186,194,28,37,35,21,71,312,79,31,62,228,118,42,95,374,71,83,54,169,116,213,67,26,159,41,440,81,65,134,152,79,144,57,33,206,66,210,122,66,55,52,42,24,37,44,351,77,49,52,51,57,22,50,39,33,17,27,53,67,12,16,17,40,70,129,68,115,173,89,44,250,20,94,103,18,26,41,9,19,8,24,98,13,3,77,21,3,2,-2,-5,-7,-3,0,-6,-11,0]
    }
  ]
}