{
  "code":11917,
  "name":"JR香椎線(香椎～宇美)",
  "station_list":[
    {"code":1190227,"id":"304596","name":"香椎","name_kana":"かしい","lat":33.659228,"lng":130.444063,"prefecture":40,"lines":[11902,11916,11917],"attr":"heat","postal_code":"813-0013","address":"福岡市東区香椎駅前１丁目"},
    {"code":1191702,"id":"0cad51","name":"香椎神宮","name_kana":"かしいじんぐう","lat":33.649544,"lng":130.45271,"prefecture":40,"lines":[11917],"attr":"cool","postal_code":"813-0011","address":"福岡市東区香椎５丁目"},
    {"code":1191703,"id":"ef31eb","name":"舞松原","name_kana":"まいまつばら","lat":33.645386,"lng":130.455141,"prefecture":40,"lines":[11917],"attr":"eco","postal_code":"813-0042","address":"福岡市東区舞松原６丁目"},
    {"code":1191704,"id":"6344cf","name":"土井","name_kana":"どい","lat":33.634968,"lng":130.466068,"prefecture":40,"lines":[11917],"attr":"eco","postal_code":"813-0032","address":"福岡市東区土井３丁目"},
    {"code":1191705,"id":"81ece0","name":"伊賀","name_kana":"いが","lat":33.6208,"lng":130.473554,"prefecture":40,"lines":[11917],"attr":"eco","postal_code":"811-2312","address":"糟屋郡粕屋町大字戸原"},
    {"code":1190808,"id":"89df86","name":"長者原","name_kana":"ちょうじゃばる","lat":33.613567,"lng":130.477848,"prefecture":40,"lines":[11908,11917],"attr":"heat","postal_code":"811-2304","address":"糟屋郡粕屋町仲原"},
    {"code":1191707,"id":"c47945","name":"酒殿","name_kana":"さかど","lat":33.602652,"lng":130.486348,"prefecture":40,"lines":[11917],"attr":"heat","postal_code":"811-2303","address":"糟屋郡粕屋町大字酒殿"},
    {"code":1191708,"id":"c0b4ea","name":"須恵","name_kana":"すえ","lat":33.596803,"lng":130.498077,"prefecture":40,"lines":[11917],"attr":"heat","postal_code":"811-2112","address":"福岡県糟屋郡須恵町大字植木587-8"},
    {"code":1191709,"id":"225031","name":"須恵中央","name_kana":"すえちゅうおう","lat":33.587296,"lng":130.505146,"prefecture":40,"lines":[11917],"attr":"heat","postal_code":"811-2113","address":"福岡県糟屋郡須恵町大字須恵806"},
    {"code":1191710,"id":"3b5a70","name":"新原","name_kana":"しんばる","lat":33.579061,"lng":130.508835,"prefecture":40,"lines":[11917],"attr":"heat","postal_code":"811-2111","address":"福岡県糟屋郡須恵町大字新原249-1"},
    {"code":1191711,"id":"d9ebe0","name":"宇美","name_kana":"うみ","lat":33.569251,"lng":130.513426,"prefecture":40,"lines":[11917,11931],"attr":"heat","postal_code":"811-2101","address":"糟屋郡宇美町大字宇美"}
  ],
  "north":33.66017,
  "south":33.56757,
  "east":130.51359,
  "west":130.44421,
  "polyline_list":[
    {
      "start":"宇美",
      "end":"西戸崎",
      "lat":33.56757,
      "lng":130.51327,
      "delta_lat":[0,133,66,53,91,51,12,31,86,82,45,17,15,54,43,24,29,27,111,12,23,59,70,54,80,49,36,31,34,61,65,17,14,24,23,25,51,62,82,64,27,50,40,19,30,27,69,36,58,139,103,45,37,164,57,93,52,11,18,37,48,83,216,17,96,52,75,12,34,17,29,27,36,34,42,336,264,112,8,26,120,29,72,21,124,29,245,72,107,166,93,72,240,74,212,72,31,44,43,34,36,40,32,37,31,6,31,29,61,109,41,5,21,33,32,40,43,83,157,178,133,104,5,42,347,101,43,121,197,49,47,65,29,24,47,23,35,18,21,17,23,29,52,31,130],
      "delta_lng":[0,10,9,7,6,0,0,-2,-4,-8,-13,-6,-6,-27,-23,-17,-27,-33,-130,-15,-27,-59,-60,-47,-72,-44,-29,-27,-31,-51,-47,-9,-8,-10,-7,-5,-7,0,2,1,-1,-2,-5,-7,-5,-12,-36,-27,-46,-112,-86,-35,-31,-133,-46,-91,-58,-12,-23,-56,-89,-185,-471,-37,-212,-119,-164,-27,-68,-34,-45,-35,-37,-31,-28,-166,-130,-55,-6,-11,-59,-15,-35,-10,-60,-14,-119,-33,-56,-78,-38,-21,-63,-18,-59,-19,-9,-13,-18,-18,-22,-33,-32,-48,-45,-10,-58,-56,-130,-228,-78,-8,-42,-52,-51,-47,-51,-73,-110,-125,-91,-65,-3,-24,-200,-63,-37,-123,-195,-58,-65,-100,-47,-36,-52,-21,-30,-12,-13,-8,-10,-7,-2,0,11]
    }
  ]
}