{
  "code":11932,
  "name":"宮之城線",
  "closed":true,
  "station_list":[
    {"code":101011,"id":"425db5","name":"川内(鹿児島)","name_kana":"せんだい","lat":31.813726,"lng":130.31213,"prefecture":46,"lines":[11904,99921,1010,11932],"attr":"cool","postal_code":"895-0024","address":"薩摩川内市鳥追町"},
    {"code":1193202,"id":"e4ff2d","name":"薩摩白浜","name_kana":"さつましらはま","closed":true,"lat":31.855948,"lng":130.32264,"prefecture":46,"lines":[11932],"attr":"unknown","postal_code":"895-0001","address":"日本鹿児島県薩摩川内市白浜町２６７"},
    {"code":1193203,"id":"7dc9fc","name":"楠元","name_kana":"くすもと","closed":true,"lat":31.860642,"lng":130.336167,"prefecture":46,"lines":[11932],"attr":"unknown","postal_code":"895-0002","address":"日本鹿児島県薩摩川内市楠元町１７１"},
    {"code":1193204,"id":"3f5e1e","name":"吉野山","name_kana":"よしのやま","closed":true,"lat":31.838059,"lng":130.360001,"prefecture":46,"lines":[11932],"attr":"unknown","postal_code":"895-0003","address":"日本鹿児島県薩摩川内市中村町６９８０−４"},
    {"code":1193205,"id":"bdf645","name":"樋脇","name_kana":"ひわき","closed":true,"lat":31.82003,"lng":130.380863,"prefecture":46,"lines":[11932],"attr":"unknown","postal_code":"895-1202","address":"日本鹿児島県薩摩川内市樋脇町塔之原８１４"},
    {"code":1193206,"id":"c0918b","name":"上樋脇","name_kana":"かみひわき","closed":true,"lat":31.825364,"lng":130.402114,"prefecture":46,"lines":[11932],"attr":"unknown","postal_code":"895-1202","address":"日本鹿児島県薩摩川内市樋脇町塔之原８０５８"},
    {"code":1193207,"id":"01ba9c","name":"入来","name_kana":"いりき","closed":true,"lat":31.822669,"lng":130.429945,"prefecture":46,"lines":[11932],"attr":"unknown","postal_code":"895-1401","address":"日本鹿児島県薩摩川内市入来町副田５８６０−２"},
    {"code":1193208,"id":"6f9b44","name":"薩摩山崎","name_kana":"さつまやまざき","closed":true,"lat":31.85802,"lng":130.450556,"prefecture":46,"lines":[11932],"attr":"unknown","postal_code":"895-1722","address":"日本鹿児島県薩摩郡さつま町久富木８７６−５"},
    {"code":1193209,"id":"b4e30e","name":"船木","name_kana":"ふなき","closed":true,"lat":31.882169,"lng":130.45067,"prefecture":46,"lines":[11932],"attr":"unknown","postal_code":"895-1804","address":"日本鹿児島県薩摩郡さつま町船木３８３７"},
    {"code":1193210,"id":"932a43","name":"宮之城","name_kana":"みやのじょう","closed":true,"lat":31.905365,"lng":130.456916,"prefecture":46,"lines":[11932],"attr":"unknown","postal_code":"895-1803","address":"日本鹿児島県薩摩郡さつま町宮之城屋地２０３６−４"},
    {"code":1193211,"id":"4063fd","name":"佐志","name_kana":"さし","closed":true,"lat":31.918751,"lng":130.483557,"prefecture":46,"lines":[11932],"attr":"unknown","postal_code":"895-1802","address":"日本鹿児島県薩摩郡さつま町田原１８２−１６"},
    {"code":1193212,"id":"15536d","name":"薩摩湯田","name_kana":"さつまゆだ","closed":true,"lat":31.931835,"lng":130.473301,"prefecture":46,"lines":[11932],"attr":"unknown","postal_code":"895-1817","address":"日本鹿児島県薩摩郡さつま町湯田９４−２"},
    {"code":1193213,"id":"038776","name":"薩摩鶴田","name_kana":"さつまつるだ","closed":true,"lat":31.942835,"lng":130.493111,"prefecture":46,"lines":[11932],"attr":"unknown","postal_code":"895-2101","address":"日本鹿児島県薩摩郡さつま町鶴田１７３７"},
    {"code":1193214,"id":"fc6715","name":"薩摩求名","name_kana":"さつまぐみょう","closed":true,"lat":31.935201,"lng":130.526714,"prefecture":46,"lines":[11932],"attr":"unknown","postal_code":"895-2201","address":"日本鹿児島県薩摩郡さつま町求名２１８８−２３"},
    {"code":1193215,"id":"c096eb","name":"広橋","name_kana":"ひろはし","closed":true,"lat":31.923807,"lng":130.54411,"prefecture":46,"lines":[11932],"attr":"unknown","postal_code":"895-2201","address":"日本鹿児島県薩摩郡さつま町求名１２５０３"},
    {"code":1193216,"id":"2ac031","name":"薩摩永野","name_kana":"さつまながの","closed":true,"lat":31.924754,"lng":130.588251,"prefecture":46,"lines":[11932],"attr":"unknown","postal_code":"895-2203","address":"日本鹿児島県薩摩郡さつま町永野８８４"},
    {"code":1193217,"id":"244feb","name":"針持","name_kana":"はりもち","closed":true,"lat":31.97978,"lng":130.580834,"prefecture":46,"lines":[11932],"attr":"unknown","postal_code":"895-2442","address":"日本鹿児島県伊佐市大口針持４２９６−８"},
    {"code":1193218,"id":"9f9e1f","name":"西太良","name_kana":"にしたら","closed":true,"lat":32.008027,"lng":130.603723,"prefecture":46,"lines":[11932],"attr":"unknown","postal_code":"895-2441","address":"日本鹿児島県伊佐市大口曽木１５６９−１"},
    {"code":1193219,"id":"6dd9ff","name":"羽月","name_kana":"はつき","closed":true,"lat":32.032029,"lng":130.596582,"prefecture":46,"lines":[11932],"attr":"unknown","postal_code":"895-2524","address":"日本鹿児島県伊佐市大口堂崎５２５−３羽月鉄道記念公園"},
    {"code":1193220,"id":"6e3bf4","name":"薩摩大口","name_kana":"さつまおおくち","closed":true,"lat":32.060977,"lng":130.609029,"prefecture":46,"lines":[11932],"attr":"unknown","postal_code":"895-2513","address":"日本鹿児島県伊佐市大口上町２-１"}
  ]
}