{
  "code":21005,
  "name":"東武亀戸線",
  "color":"#0F6CC3",
  "symbol":"TS",
  "station_list":[
    {"code":1131323,"id":"f34421","name":"亀戸","name_kana":"かめいど","lat":35.697345,"lng":139.826262,"prefecture":13,"numbering":[{"index":"44"}],"lines":[11313,21005],"attr":"heat","postal_code":"136-0071","address":"江東区亀戸５丁目"},
    {"code":2100504,"id":"46b5c4","name":"亀戸水神","name_kana":"かめいどすいじん","lat":35.699976,"lng":139.833422,"prefecture":13,"numbering":[{"index":"43"}],"lines":[21005],"attr":"heat","postal_code":"136-0071","address":"江東区亀戸８-５-１"},
    {"code":2100503,"id":"f004b8","name":"東あずま","name_kana":"ひがしあずま","lat":35.707067,"lng":139.831883,"prefecture":13,"numbering":[{"index":"42"}],"lines":[21005],"attr":"heat","postal_code":"131-0043","address":"墨田区立花４-２３-８"},
    {"code":2100502,"id":"48a2bb","name":"小村井","name_kana":"おむらい","lat":35.710316,"lng":139.827595,"prefecture":13,"numbering":[{"index":"41"}],"lines":[21005],"attr":"heat","postal_code":"131-0044","address":"墨田区文花２-２０-１"},
    {"code":2100204,"id":"e1efbf","name":"曳舟","name_kana":"ひきふね","lat":35.718418,"lng":139.816634,"prefecture":13,"numbering":[{"index":"04"}],"lines":[21002,21005],"attr":"heat","postal_code":"131-0032","address":"墨田区東向島２丁目"}
  ],
  "north":35.71936,
  "south":35.69773,
  "east":139.83359,
  "west":139.81658,
  "polyline_list":[
    {
      "start":"亀戸",
      "end":"曳舟",
      "lat":35.69773,
      "lng":139.82672,
      "delta_lat":[0,1,10,1,7,15,2,22,11,17,22,8,3,29,38,70,19,3,23,67,9,30,97,4,9,12,2,121,44,181,41,15,63,31,55,8,30,49,38,31,9,24,10,113,3,5,15,33,70,13,21,29,32,4,29,42,59,31,23,13,29,40,67,1,165,45],
      "delta_lng":[0,95,228,14,94,56,8,40,14,21,24,7,3,23,26,28,3,0,2,0,-2,-11,-32,0,-2,-4,0,-38,-12,-59,-15,-6,-35,-17,-44,-6,-35,-67,-75,-78,-26,-67,-28,-316,-12,-9,-43,-93,-199,-36,-59,-78,-53,-5,-35,-38,-37,-17,-6,-2,-2,2,4,-8,9,11]
    }
  ]
}