{
  "code":21002,
  "name":"東武伊勢崎線",
  "station_list":[
    {"code":2100201,"id":"6e2d5c","name":"浅草(その他)","name_kana":"あさくさ","lat":35.711883,"lng":139.798214,"prefecture":13,"numbering":[{"symbol":"TS","color":"#0000FF","index":"01"}],"lines":[21002,28001,99302],"attr":"heat","postal_code":"111-0033","address":"東京都台東区花川戸一丁目4-1","next":[2100202,9930219,2800102,2100204,9930903,2800303,1132004,9930112],"voronoi":{"lat":35.716038,"lng":139.804411,"delta_lat":[0,5558,1043,232,-783,-11355,-4141,-2245],"delta_lng":[0,727,-370,-4334,-2065,-3770,1124,2664]}},
    {"code":2100202,"id":"76c77a","name":"とうきょうスカイツリー","name_kana":"とうきょうすかいつりー","lat":35.71043,"lng":139.809332,"prefecture":13,"numbering":[{"symbol":"TS","color":"#0000FF","index":"02"}],"lines":[21002],"attr":"heat","postal_code":"131-0045","address":"墨田区押上１丁目","open_date":"1902-04-01","next":[2100201,2300201,9930219,1131322,2100204],"voronoi":{"lat":35.70359,"lng":139.81166,"delta_lat":[0,-730,13178,5558,-5070],"delta_lng":[0,-2071,-5179,727,5546]}},
    {"code":2300201,"id":"ed5340","name":"押上（スカイツリー前）","name_kana":"おしあげ","lat":35.710702,"lng":139.812935,"prefecture":13,"numbering":[{"symbol":"TS","color":"#0000FF","index":"03"}],"lines":[21002,23002,28008,99302],"attr":"heat","postal_code":"131-0045","address":"墨田区押上一丁目","next":[1131322,2300202,1131323,2100202,2100204,2100502],"voronoi":{"lat":35.712845,"lng":139.818361,"delta_lat":[0,3680,-12936,710,232,6559],"delta_lng":[0,-7678,977,8215,232,173]}},
    {"code":2100204,"id":"e1efbf","name":"曳舟","name_kana":"ひきふね","lat":35.718418,"lng":139.816634,"prefecture":13,"numbering":[{"symbol":"TS","color":"#0000FF","index":"04"}],"lines":[21002,21005],"attr":"heat","postal_code":"131-0032","address":"墨田区東向島２丁目","next":[2100201,2300202,2300201,2100205,1132004,2100202],"voronoi":{"lat":35.712845,"lng":139.818361,"delta_lat":[0,8374,4757,-3338,-1043,-5070],"delta_lng":[0,-57,-10513,-3024,370,5546]}},
    {"code":2100205,"id":"d98fe7","name":"東向島","name_kana":"ひがしむこうじま","lat":35.724324,"lng":139.819306,"prefecture":13,"numbering":[{"symbol":"TS","color":"#0000FF","index":"05"}],"lines":[21002],"attr":"heat","postal_code":"131-0032","address":"墨田区東向島４丁目","next":[2300203,2100206,1132004,2300202,2100204],"voronoi":{"lat":35.725976,"lng":139.807791,"delta_lat":[0,4148,-1466,-6584,-855],"delta_lng":[0,2023,13262,2347,-7119]}},
    {"code":2100206,"id":"72ef72","name":"鐘ヶ淵","name_kana":"かねがふち","lat":35.733712,"lng":139.820344,"prefecture":13,"numbering":[{"symbol":"TS","color":"#0000FF","index":"06"}],"lines":[21002],"attr":"heat","postal_code":"131-0031","address":"東京都墨田区墨田5丁目","next":[1132004,2300107,2300106,2100205,2300203,2100207,2300204],"voronoi":{"lat":35.73544,"lng":139.827944,"delta_lat":[0,-6781,1466,3594,3094,3254,-1638],"delta_lng":[0,-4867,-13262,55,3741,11522,3170]}},
    {"code":2100207,"id":"65f971","name":"堀切","name_kana":"ほりきり","lat":35.742977,"lng":139.817727,"prefecture":13,"numbering":[{"symbol":"TS","color":"#0000FF","index":"07"}],"lines":[21002],"attr":"heat","postal_code":"120-0023","address":"足立区千住曙町","next":[2300106,2100206,2100208,2300107,2100210],"voronoi":{"lat":35.740067,"lng":139.825133,"delta_lat":[0,-3254,7549,7092,755],"delta_lng":[0,-11522,1320,1893,2531]}},
    {"code":2100208,"id":"1290e7","name":"牛田(東京)","name_kana":"うしだ","lat":35.744555,"lng":139.811816,"prefecture":13,"numbering":[{"symbol":"TS","color":"#0000FF","index":"08"}],"lines":[21002],"attr":"heat","postal_code":"120-0023","address":"足立区千住曙町","next":[2100256,2300106,2100210,1132005,2100207],"voronoi":{"lat":35.744361,"lng":139.81493,"delta_lat":[0,-173,3774,3877,-386],"delta_lng":[0,-6748,786,2859,4996]}},
    {"code":2100256,"id":"985bf0","name":"中千住","name_kana":"なかせんじゅ","closed":true,"lat":35.745976,"lng":139.804997,"prefecture":13,"lines":[21002],"attr":"unknown","postal_code":"120-0025","address":"東京都足立区千住東１丁目２３","next":[2100208,2300105,1132004,1132005,2300106],"voronoi":{"lat":35.747963,"lng":139.808969,"delta_lat":[0,-321,-7999,-1611,6157],"delta_lng":[0,-9515,3518,3437,1774]}},
    {"code":1132005,"id":"6a369b","name":"北千住","name_kana":"きたせんじゅ","lat":35.749677,"lng":139.804872,"prefecture":13,"numbering":[{"symbol":"TS","color":"#0000FF","index":"09"}],"lines":[11320,21002,28003,28005,99309],"attr":"cool","postal_code":"120-0026","address":"足立区千住旭町","next":[2100211,2100212,2300105,2100256,2100208,2100210,2300144],"voronoi":{"lat":35.758701,"lng":139.793684,"delta_lat":[0,1561,-1461,-6961,-3877,-321,1583],"delta_lng":[0,5108,4954,8082,-2859,-9515,-1446]}},
    {"code":2100210,"id":"bb15c2","name":"小菅","name_kana":"こすげ","lat":35.759039,"lng":139.812935,"prefecture":13,"numbering":[{"symbol":"TS","color":"#0000FF","index":"10"}],"lines":[21002],"attr":"cool","postal_code":"120-0015","address":"足立区足立２丁目","next":[2300107,2100208,1132006,9930906,1132005,2100211,2100207],"voronoi":{"lat":35.753973,"lng":139.820731,"delta_lat":[0,10705,529,-6407,-6961,-386,755],"delta_lng":[0,-2820,-905,-13260,8082,4996,2531]}},
    {"code":2100211,"id":"02d03f","name":"五反野","name_kana":"ごたんの","lat":35.765852,"lng":139.809643,"prefecture":13,"numbering":[{"symbol":"TS","color":"#0000FF","index":"11"}],"lines":[21002],"attr":"cool","postal_code":"120-0015","address":"足立区足立３丁目","next":[1132005,9930906,2100210,2100212],"voronoi":{"lat":35.760262,"lng":139.798792,"delta_lat":[0,-1461,6407,13859],"delta_lng":[0,4954,13260,-7655]}},
    {"code":2100212,"id":"02a6aa","name":"梅島","name_kana":"うめじま","lat":35.772437,"lng":139.797916,"prefecture":13,"numbering":[{"symbol":"TS","color":"#0000FF","index":"12"}],"lines":[21002],"attr":"cool","postal_code":"123-0851","address":"足立区梅田７丁目","next":[1132005,9930906,9934206,2100214,2100211,9930907,2100213,2300144],"voronoi":{"lat":35.760262,"lng":139.798792,"delta_lat":[0,18805,584,7376,-1437,-23067,-2691,-1131],"delta_lng":[0,10559,17,-3865,-4422,-14940,847,6696]}},
    {"code":2100213,"id":"e4b840","name":"西新井","name_kana":"にしあらい","lat":35.777323,"lng":139.790372,"prefecture":13,"numbering":[{"symbol":"TS","color":"#0000FF","index":"13"}],"lines":[21002,21006],"attr":"eco","postal_code":"123-0843","address":"足立区西新井栄町２丁目","next":[2100602,2100214,9934206,2100212],"voronoi":{"lat":35.762522,"lng":139.78614,"delta_lat":[0,3552,19846,-331],"delta_lng":[0,-2438,3790,13588]}},
    {"code":2100214,"id":"1078c4","name":"竹ノ塚","name_kana":"たけのつか","lat":35.794368,"lng":139.790788,"prefecture":13,"numbering":[{"symbol":"TS","color":"#0000FF","index":"14"}],"lines":[21002],"attr":"eco","postal_code":"121-0813","address":"足立区竹の塚６丁目","next":[9934212,9934211,9934213,2100602,2100213,9934210,9930907,2100212,2100215],"voronoi":{"lat":35.787026,"lng":139.805502,"delta_lat":[0,-1437,331,3931,2461,8739,8035,749,-11798],"delta_lng":[0,-4422,-13588,-6613,-664,790,4403,753,22678]}},
    {"code":2100215,"id":"337612","name":"谷塚","name_kana":"やつか","lat":35.814926,"lng":139.801483,"prefecture":11,"numbering":[{"symbol":"TS","color":"#0000FF","index":"15"}],"lines":[21002],"attr":"eco","postal_code":"340-0023","address":"草加市谷塚町","next":[9930908,2100214,9930907,2100216,9934213],"voronoi":{"lat":35.798038,"lng":139.80884,"delta_lat":[0,9337,11223,5428,-14190],"delta_lng":[0,13759,1810,-38423,176]}},
    {"code":2100216,"id":"922e33","name":"草加","name_kana":"そうか","lat":35.828476,"lng":139.803397,"prefecture":11,"numbering":[{"symbol":"TS","color":"#0000FF","index":"16"}],"lines":[21002],"attr":"eco","postal_code":"340-0015","address":"草加市高砂２丁目","next":[9930908,9934213,2100215,1130526,2100217],"voronoi":{"lat":35.832254,"lng":139.782477,"delta_lat":[0,-8229,-5428,22939,590],"delta_lng":[0,3508,38423,11338,-424]}},
    {"code":2100217,"id":"e4d18e","name":"獨協大学前〈草加松原〉","name_kana":"どっきょうだいがくまえ〈そうかまつばら〉","lat":35.84333,"lng":139.800622,"prefecture":11,"numbering":[{"symbol":"TS","color":"#0000FF","index":"17"}],"lines":[21002],"attr":"eco","postal_code":"340-0041","address":"草加市松原１丁目","next":[1130515,1130526,2100218,9934213,1130525,2100216],"voronoi":{"lat":35.832254,"lng":139.782477,"delta_lat":[0,6063,18826,-11725,-1781,-1511],"delta_lng":[0,-5837,38712,17931,1394,645]}},
    {"code":2100218,"id":"91017a","name":"新田(埼玉)","name_kana":"しんでん","lat":35.854086,"lng":139.795391,"prefecture":11,"numbering":[{"symbol":"TS","color":"#0000FF","index":"18"}],"lines":[21002],"attr":"eco","postal_code":"340-0052","address":"草加市金明町","next":[9930706,1130525,2100219,9934213,2100217],"voronoi":{"lat":35.838317,"lng":139.776641,"delta_lat":[0,2437,14147,10029,-7787],"delta_lng":[0,-3906,1624,34554,6440]}},
    {"code":2100219,"id":"95d905","name":"蒲生","name_kana":"がもう","lat":35.866851,"lng":139.791686,"prefecture":11,"numbering":[{"symbol":"TS","color":"#0000FF","index":"19"}],"lines":[21002],"attr":"eco","postal_code":"343-0836","address":"越谷市蒲生寿町","next":[9930706,1130514,2100218,1130525,2100220],"voronoi":{"lat":35.866965,"lng":139.771826,"delta_lat":[0,-12064,10029,8499,-1356],"delta_lng":[0,2533,34554,-2606,-10572]}},
    {"code":2100220,"id":"895c3f","name":"新越谷","name_kana":"しんこしがや","lat":35.875186,"lng":139.789905,"prefecture":11,"numbering":[{"symbol":"TS","color":"#0000FF","index":"20"}],"lines":[21002],"attr":"eco","postal_code":"343-0845","address":"越谷市南越谷１丁目","next":[9930706,2100221,2100219,1130514],"voronoi":{"lat":35.879987,"lng":139.783478,"delta_lat":[0,-4618,-8404,5108],"delta_lng":[0,-15438,3785,23909]}},
    {"code":2100221,"id":"ebd9cc","name":"越谷","name_kana":"こしがや","lat":35.887529,"lng":139.786213,"prefecture":11,"numbering":[{"symbol":"TS","color":"#0000FF","index":"21"}],"lines":[21002],"attr":"eco","postal_code":"343-0816","address":"越谷市弥生町","next":[1130525,1130514,1130513,2100222,9930706,2100220],"voronoi":{"lat":35.88854,"lng":139.806272,"delta_lat":[0,18813,-21186,-8870,-1927,4618],"delta_lng":[0,5950,-48466,2586,1698,15438]}},
    {"code":2100222,"id":"54b9fe","name":"北越谷","name_kana":"きたこしがや","lat":35.901724,"lng":139.780008,"prefecture":11,"numbering":[{"symbol":"TS","color":"#0000FF","index":"22"}],"lines":[21002],"attr":"eco","postal_code":"343-0025","address":"越谷市大澤３丁目","next":[2100221,1130525,9930708,2100223,1130513],"voronoi":{"lat":35.907352,"lng":139.812223,"delta_lat":[0,9378,-6236,-10469,-13859],"delta_lng":[0,5692,-65987,1613,10216]}},
    {"code":2100223,"id":"c613c2","name":"大袋","name_kana":"おおぶくろ","lat":35.92437,"lng":139.777868,"prefecture":11,"numbering":[{"symbol":"TS","color":"#0000FF","index":"23"}],"lines":[21002],"attr":"eco","postal_code":"343-0032","address":"越谷市大字袋山","next":[2100416,2100415,1130525,2100413,2100222,2100412,9930708,2100224],"voronoi":{"lat":35.938459,"lng":139.81889,"delta_lat":[0,-2426,-3370,-9067,-6866,-6236,10527,20195],"delta_lng":[0,2374,1442,2689,-7481,-65987,-6452,68281]}},
    {"code":2100224,"id":"cb49d0","name":"せんげん台","name_kana":"せんげんだい","lat":35.935832,"lng":139.774478,"prefecture":11,"numbering":[{"symbol":"TS","color":"#0000FF","index":"24"}],"lines":[21002],"attr":"eco","postal_code":"343-0042","address":"越谷市千間台東町","next":[2100412,9930708,2100225,2100223,2100408],"voronoi":{"lat":35.950664,"lng":139.80118,"delta_lat":[0,-9448,-20195,10051,1268],"delta_lng":[0,12576,-68281,-9076,842]}},
    {"code":2100225,"id":"f66924","name":"武里","name_kana":"たけさと","lat":35.949102,"lng":139.770675,"prefecture":11,"numbering":[{"symbol":"TS","color":"#0000FF","index":"25"}],"lines":[21002],"attr":"eco","postal_code":"344-0021","address":"春日部市大字大場","next":[2100408,2100412,2100224,2100411,2100226],"voronoi":{"lat":35.960244,"lng":139.793135,"delta_lat":[0,-9579,-18324,17168,12372],"delta_lng":[0,8046,-63939,7269,41697]}},
    {"code":2100226,"id":"724293","name":"一ノ割","name_kana":"いちのわり","lat":35.96412,"lng":139.766219,"prefecture":11,"numbering":[{"symbol":"TS","color":"#0000FF","index":"26"}],"lines":[21002],"attr":"eco","postal_code":"344-0031","address":"春日部市一ノ割１丁目","next":[2100227,2100408,2100409,2100411,2100225],"voronoi":{"lat":35.949509,"lng":139.744511,"delta_lat":[0,6561,7625,13562,-15376],"delta_lng":[0,636,4448,15616,20997]}},
    {"code":2100227,"id":"d9fd31","name":"春日部","name_kana":"かすかべ","lat":35.980095,"lng":139.752345,"prefecture":11,"numbering":[{"symbol":"TS","color":"#0000FF","index":"27"}],"lines":[21002,21004],"attr":"heat","postal_code":"344-0061","address":"春日部市粕壁１丁目","next":[2100226,2100411,2100409,2100228],"voronoi":{"lat":35.983897,"lng":139.746306,"delta_lat":[0,-20203,13562,21450],"delta_lng":[0,3288,15616,-138]}},
    {"code":2100228,"id":"c3510c","name":"北春日部","name_kana":"きたかすかべ","lat":35.990655,"lng":139.744012,"prefecture":11,"numbering":[{"symbol":"TS","color":"#0000FF","index":"28"}],"lines":[21002],"attr":"heat","postal_code":"344-0052","address":"春日部市大字梅田字堤際","next":[2100229,2100411,2100409,2100408,2100227],"voronoi":{"lat":35.983897,"lng":139.746306,"delta_lat":[0,4002,1994,17936,-9123],"delta_lng":[0,-22068,-2508,46129,-2787]}},
    {"code":2100229,"id":"3aa3a0","name":"姫宮","name_kana":"ひめみや","lat":36.004384,"lng":139.738674,"prefecture":11,"numbering":[{"symbol":"TS","color":"#0000FF","index":"29"}],"lines":[21002],"attr":"heat","postal_code":"345-0804","address":"南埼玉郡宮代町川端１丁目","next":[2100228,2100407,2100408,2100230,2100412,2100411],"voronoi":{"lat":36.049603,"lng":139.793086,"delta_lat":[0,-51916,-3463,-4330,17936,40374],"delta_lng":[0,-89166,5374,12436,46129,24743]}},
    {"code":2100230,"id":"abcde2","name":"東武動物公園","name_kana":"とうぶどうぶつこうえん","lat":36.024604,"lng":139.726901,"prefecture":11,"numbering":[{"symbol":"TS","color":"#0000FF","index":"30"}],"lines":[21002,21003],"attr":"heat","postal_code":"345-0801","address":"南埼玉郡宮代町大字百間２丁目","next":[1131910,2100231,2100412,2100303,2100407,2100229,2100302],"voronoi":{"lat":36.036055,"lng":139.716336,"delta_lat":[0,-30453,-6837,-1078,51916,19822,-7418],"delta_lng":[0,-17694,781,4497,89166,10795,-30809]}},
    {"code":2100231,"id":"2ba3e8","name":"和戸","name_kana":"わど","lat":36.039562,"lng":139.701156,"prefecture":11,"numbering":[{"symbol":"TI","color":"#FF0000","index":"01"}],"lines":[21002],"attr":"heat","postal_code":"345-0836","address":"南埼玉郡宮代町和戸１丁目","next":[2100230,1131911,1131912,1131910,2100302],"voronoi":{"lat":36.058842,"lng":139.696014,"delta_lat":[0,-8874,-26137,-18229,30453],"delta_lng":[0,-9704,746,11587,17694]}},
    {"code":1131912,"id":"906b3a","name":"久喜","name_kana":"くき","lat":36.065684,"lng":139.67727,"prefecture":11,"numbering":[{"symbol":"TI","color":"#FF0000","index":"02"}],"lines":[11319,21002],"attr":"eco","postal_code":"346-0003","address":"久喜市中央２丁目","next":[1131913,2100233,2100302,2100303,1131911,2100231],"voronoi":{"lat":36.049968,"lng":139.686309,"delta_lat":[0,9831,18895,-2428,-13082,-4342],"delta_lng":[0,-51054,28424,30989,2992,-1647]}},
    {"code":2100233,"id":"62f11a","name":"鷲宮","name_kana":"わしのみや","lat":36.09626,"lng":139.656945,"prefecture":11,"numbering":[{"symbol":"TI","color":"#FF0000","index":"03"}],"lines":[21002],"attr":"cool","postal_code":"340-0216","address":"埼玉県久喜市鷲宮中央一丁目1-17","next":[1131914,1131912,2100234,1131911,9932113,1131913],"voronoi":{"lat":36.078693,"lng":139.66368,"delta_lat":[0,-18895,-2565,3438,69329,-13286],"delta_lng":[0,-28424,-9752,-4947,40346,14486]}},
    {"code":2100234,"id":"85d2b3","name":"花崎","name_kana":"はなさき","lat":36.109891,"lng":139.633522,"prefecture":11,"numbering":[{"symbol":"TI","color":"#FF0000","index":"04"}],"lines":[21002],"attr":"cool","postal_code":"347-0032","address":"加須市花崎","next":[9932113,2100233,2100307,1131914,2100235],"voronoi":{"lat":36.068589,"lng":139.598028,"delta_lat":[0,-7918,69329,27793,4864],"delta_lng":[0,22528,40346,-12353,-18037]}},
    {"code":2100235,"id":"f64ced","name":"加須","name_kana":"かぞ","lat":36.122992,"lng":139.595584,"prefecture":11,"numbering":[{"symbol":"TI","color":"#FF0000","index":"05"}],"lines":[21002],"attr":"cool","postal_code":"347-0055","address":"加須市中央１丁目","next":[9932113,2100307,1132311,2100236,1132312,2100234],"voronoi":{"lat":36.180734,"lng":139.606877,"delta_lat":[0,-84450,-16003,-12448,757,94068],"delta_lng":[0,-58155,11866,18249,19192,32484]}},
    {"code":2100236,"id":"567d15","name":"南羽生","name_kana":"みなみはにゅう","lat":36.14959,"lng":139.55696,"prefecture":11,"numbering":[{"symbol":"TI","color":"#FF0000","index":"06"}],"lines":[21002],"attr":"cool","postal_code":"348-0024","address":"羽生市大字神戸","next":[1132312,2100307,9930604,1132313,9930603,2100235,2100238,2100237,2100308],"voronoi":{"lat":36.203421,"lng":139.588866,"delta_lat":[0,-4047,-66938,-8536,-4823,-9443,-13350,84450,153],"delta_lng":[0,-7869,-60376,-3990,-918,7556,25452,58155,-85]}},
    {"code":2100237,"id":"67871f","name":"羽生","name_kana":"はにゅう","lat":36.170345,"lng":139.533949,"prefecture":11,"numbering":[{"symbol":"TI","color":"#FF0000","index":"07"}],"lines":[21002,99306],"attr":"cool","postal_code":"348-0053","address":"羽生市南１","next":[2100238,2100236,9930602,9930603],"voronoi":{"lat":36.191422,"lng":139.539862,"delta_lat":[0,7951,-66938,29062],"delta_lng":[0,41136,-60376,1204]}},
    {"code":2100238,"id":"a9d378","name":"川俣","name_kana":"かわまた","lat":36.208778,"lng":139.52652,"prefecture":10,"numbering":[{"symbol":"TI","color":"#FF0000","index":"08"}],"lines":[21002],"attr":"eco","postal_code":"370-0713","address":"邑楽郡明和町大字中谷３２８-３","next":[9930603,2100239,2100237,9930602,2100236,9930604,2101202,2100308],"voronoi":{"lat":36.215694,"lng":139.587495,"delta_lat":[0,2811,-8929,-4999,-10805,-2349,7951,4047],"delta_lng":[0,-91691,-17307,6081,25225,30058,41136,7869]}},
    {"code":2100239,"id":"fded2a","name":"茂林寺前","name_kana":"もりんじまえ","lat":36.226331,"lng":139.527058,"prefecture":10,"numbering":[{"symbol":"TI","color":"#FF0000","index":"09"}],"lines":[21002],"attr":"eco","postal_code":"374-0033","address":"館林市堀工町","next":[2100238,2101202,2101002,2100240,2100308],"voronoi":{"lat":36.235167,"lng":139.562488,"delta_lat":[0,1746,-18408,-2811,11988],"delta_lng":[0,-47014,-19670,91691,387]}},
    {"code":2100240,"id":"efc14f","name":"館林","name_kana":"たてばやし","lat":36.246606,"lng":139.527811,"prefecture":10,"numbering":[{"symbol":"TI","color":"#FF0000","index":"10"}],"lines":[21002,21010,21012],"attr":"eco","postal_code":"374-0024","address":"館林市本町２丁目","next":[2101202,2101002,2100239],"voronoi":{"lat":36.236913,"lng":139.515474,"delta_lat":[0,26319,-28065],"delta_lng":[0,3050,43964]}},
    {"code":2100241,"id":"67a177","name":"多々良","name_kana":"たたら","lat":36.273732,"lng":139.500179,"prefecture":10,"numbering":[{"symbol":"TI","color":"#FF0000","index":"11"}],"lines":[21002],"attr":"eco","postal_code":"374-0076","address":"館林市日向町","next":[2100242,1134122,2101202,2101203,2101002],"voronoi":{"lat":36.264806,"lng":139.5179,"delta_lat":[0,-6529,15367,26304,-12499],"delta_lng":[0,-29140,-7675,15950,28097]}},
    {"code":2100242,"id":"7180fe","name":"県","name_kana":"あがた","lat":36.290615,"lng":139.472336,"prefecture":9,"numbering":[{"symbol":"TI","color":"#FF0000","index":"12"}],"lines":[21002],"attr":"eco","postal_code":"326-0328","address":"足利市県町","next":[2100241,2101203,1134122,2100243,2101204],"voronoi":{"lat":36.273643,"lng":139.481085,"delta_lat":[0,26304,18414,-36371,-6220],"delta_lng":[0,15950,-9770,-38737,8012]}},
    {"code":2100243,"id":"435a22","name":"福居","name_kana":"ふくい","lat":36.305208,"lng":139.458634,"prefecture":9,"numbering":[{"symbol":"TI","color":"#FF0000","index":"13"}],"lines":[21002],"attr":"eco","postal_code":"326-0338","address":"足利市福居町","next":[2100244,2100242,2101204,2100246,2101209,1134122,2101205],"voronoi":{"lat":36.287194,"lng":139.436393,"delta_lat":[0,10381,5433,17637,-2284,-36371,1826],"delta_lng":[0,-5503,4306,51690,380,-38737,-7041]}},
    {"code":2100244,"id":"bc6a3b","name":"東武和泉","name_kana":"とうぶいずみ","lat":36.315595,"lng":139.45509,"prefecture":9,"numbering":[{"symbol":"TI","color":"#FF0000","index":"14"}],"lines":[21002],"attr":"eco","postal_code":"326-0338","address":"足利市福居町","next":[2100246,2100243,1134122,1134114,2100245],"voronoi":{"lat":36.321434,"lng":139.486891,"delta_lat":[0,-789,-17637,14721,6121],"delta_lng":[0,-6,-51690,6838,12182]}},
    {"code":2100245,"id":"f605f0","name":"足利市","name_kana":"あしかがし","lat":36.32948,"lng":139.448113,"prefecture":9,"numbering":[{"symbol":"TI","color":"#FF0000","index":"15"}],"lines":[21002],"attr":"eco","postal_code":"326-0821","address":"足利市南町","next":[2100246,1134114,2100244,1134113],"voronoi":{"lat":36.350568,"lng":139.435622,"delta_lat":[0,-32838,6121,40464],"delta_lng":[0,6412,12182,-11909]}},
    {"code":2100246,"id":"c2c4e9","name":"野州山辺","name_kana":"やしゅうやまべ","lat":36.32633,"lng":139.431981,"prefecture":9,"numbering":[{"symbol":"TI","color":"#FF0000","index":"16"}],"lines":[21002],"attr":"eco","postal_code":"326-0824","address":"足利市八幡町","next":[1134113,2101209,2100245,2100244,2100247,2100243],"voronoi":{"lat":36.297575,"lng":139.430889,"delta_lat":[0,1481,27460,24051,-32838,-14721],"delta_lng":[0,-3058,-16704,24494,6412,-6838]}},
    {"code":2100247,"id":"0b335f","name":"韮川","name_kana":"にらがわ","lat":36.307913,"lng":139.401704,"prefecture":10,"numbering":[{"symbol":"TI","color":"#FF0000","index":"17"}],"lines":[21002],"attr":"eco","postal_code":"373-0801","address":"太田市大字台之郷町","next":[2100248,2101102,2101209,2100246,1134113],"voronoi":{"lat":36.333853,"lng":139.381029,"delta_lat":[0,-14514,-28240,7957,27460],"delta_lng":[0,-1694,16858,31638,-16704]}},
    {"code":2100248,"id":"9fa174","name":"太田(群馬)","name_kana":"おおた","lat":36.294228,"lng":139.378779,"prefecture":10,"numbering":[{"symbol":"TI","color":"#FF0000","index":"18"}],"lines":[21002,21011,21012],"attr":"eco","postal_code":"373-0026","address":"太田市東本町","next":[2101209,2100249,2101102,2100247,2101207],"voronoi":{"lat":36.2911,"lng":139.396193,"delta_lat":[0,28240,-23257,-35684,8962],"delta_lng":[0,-16858,-18672,13799,10701]}},
    {"code":2100249,"id":"233c5a","name":"細谷(群馬)","name_kana":"ほそや","lat":36.282523,"lng":139.348509,"prefecture":10,"numbering":[{"symbol":"TI","color":"#FF0000","index":"19"}],"lines":[21002],"attr":"eco","postal_code":"373-0842","address":"太田市細谷町","next":[2100250,1132317,2100248,2101207,2101102],"voronoi":{"lat":36.30409,"lng":139.322247,"delta_lat":[0,-76765,-2388,35462,35684],"delta_lng":[0,24053,14093,14069,-13799]}},
    {"code":2100250,"id":"fff3ed","name":"木崎","name_kana":"きざき","lat":36.271393,"lng":139.312988,"prefecture":10,"numbering":[{"symbol":"TI","color":"#FF0000","index":"20"}],"lines":[21002],"attr":"cool","postal_code":"370-0321","address":"太田市新田木崎町","next":[2100249,1132318,2101102,2100251,1132317,2101103],"voronoi":{"lat":36.30409,"lng":139.322247,"delta_lat":[0,-76765,-4778,9460,82862,-10068],"delta_lng":[0,24053,-26906,-23877,4118,21900]}},
    {"code":2100251,"id":"4ff40b","name":"世良田","name_kana":"せらだ","lat":36.272931,"lng":139.282038,"prefecture":10,"numbering":[{"symbol":"TI","color":"#FF0000","index":"21"}],"lines":[21002],"attr":"cool","postal_code":"370-0426","address":"太田市世良田町","next":[2101104,1132319,2100252,1132318,2101103,2100250,1134109],"voronoi":{"lat":36.315985,"lng":139.298504,"delta_lat":[0,-1116,-82862,236,5030,85465,921],"delta_lng":[0,1131,-4118,-25014,-7621,14079,2003]}},
    {"code":2100252,"id":"a95c36","name":"境町","name_kana":"さかいまち","lat":36.277191,"lng":139.256177,"prefecture":10,"numbering":[{"symbol":"TI","color":"#FF0000","index":"22"}],"lines":[21002],"attr":"cool","postal_code":"370-0117","address":"伊勢崎市境百々","next":[2100253,2100251,1134109,1132320,1132319],"voronoi":{"lat":36.246163,"lng":139.228603,"delta_lat":[0,9622,63905,3047,-85465],"delta_lng":[0,-5807,35987,18179,-14079]}},
    {"code":2100253,"id":"cbed89","name":"剛志","name_kana":"ごうし","lat":36.295428,"lng":139.223792,"prefecture":10,"numbering":[{"symbol":"TI","color":"#FF0000","index":"23"}],"lines":[21002],"attr":"heat","postal_code":"370-0128","address":"伊勢崎市境保泉","next":[1134109,1132320,2100252,2100254],"voronoi":{"lat":36.31969,"lng":139.258782,"delta_lat":[0,-63905,23152,48113],"delta_lng":[0,-35987,-38614,49532]}},
    {"code":2100254,"id":"8f2beb","name":"新伊勢崎","name_kana":"しんいせさき","lat":36.318052,"lng":139.201816,"prefecture":10,"numbering":[{"symbol":"TI","color":"#FF0000","index":"24"}],"lines":[21002],"attr":"heat","postal_code":"372-0042","address":"伊勢崎市中央町","next":[1134109,1132320,1134108,1132321,2100253],"voronoi":{"lat":36.278937,"lng":139.184181,"delta_lat":[0,53,14391,48469,-14800],"delta_lng":[0,-324,-17621,52562,14915]}},
    {"code":1134108,"id":"a4c7f3","name":"伊勢崎","name_kana":"いせさき","lat":36.326849,"lng":139.193704,"prefecture":10,"numbering":[{"symbol":"TI","color":"#FF0000","index":"25"}],"lines":[11341,21002],"attr":"heat","postal_code":"372-0055","address":"伊勢崎市曲輪町３丁目","next":[9932811,1132321,1134109,9932812,2100254,1134107],"voronoi":{"lat":36.370424,"lng":139.19067,"delta_lat":[0,-313,-28260,-48469,10873,65172],"delta_lng":[0,9483,18645,-52562,-17888,32809]}}
  ],
  "north":36.33143,
  "south":35.70668,
  "east":139.82132,
  "west":139.1941,
  "polyline_list":[
    {
      "start":"押上",
      "end":"押上分岐",
      "lat":35.70668,
      "lng":139.81415,
      "delta_lat":[0,85,90,65,104,84,88],
      "delta_lng":[0,-20,-21,-15,-24,43,59]
    },
    {
      "start":"浅草",
      "end":"押上分岐",
      "lat":35.71157,
      "lng":139.79793,
      "delta_lat":[0,82,14,8,6,-1,-7,-53,-3,-53,-121,-12,-2,3,9,38,9,5,17,25,47,16],
      "delta_lng":[0,77,22,17,25,38,32,89,6,97,438,67,60,57,45,153,131,71,61,49,82,27]
    },
    {
      "start":"伊勢崎",
      "end":"押上分岐",
      "lat":36.32656,
      "lng":139.1941,
      "delta_lat":[0,-29,-7,-5,-6,-3,-11,-10,-9,-12,-14,-13,-16,-24,-24,-21,-27,-82,-18,-18,-22,-17,-19,-25,-25,-28,-37,-33,-65,-39,-71,-44,-148,-34,-33,-31,-16,-20,-21,-14,-15,-16,-13,-12,-26,-17,-17,-15,-9,-27,-9,-17,-13,-8,-13,-7,-9,-7,-8,-8,-13,-2,-11,-7,-5,-8,-8,-12,-21,-18,-13,-14,-20,-20,-31,-92,-39,-120,-56,-60,-59,-83,-17,-36,-33,-35,-48,-32,-29,-62,-32,-47,-69,-40,-26,-127,-18,-11,-18,-69,-31,-11,-14,-22,-16,-18,-20,-14,-9,-13,-13,-25,-21,-16,-19,-70,-33,-11,-54,-20,-12,-15,-53,-12,-20,-27,-38,-18,-38,-12,-10,-10,-20,-24,-40,-18,-52,-52,-13,-24,-12,-15,-9,-14,-52,-38,-56,-19,-57,-37,-9,-5,-24,-25,-49,-31,-26,-24,-32,-73,-18,-13,-13,-23,-56,-36,-136,-88,-40,-12,-19,-14,-13,-13,-9,-10,-15,-57,-32,-27,-52,-52,-15,-34,-5,-6,-4,-37,-33,-27,-55,-30,-41,-3,-1,-4,-14,-53,-27,-27,-18,-21,-19,-5,-25,-21,-12,-9,-8,-3,-2,0,2,0,2,6,10,9,11,17,9,10,25,22,28,44,82,25,54,110,112,6,40,81,43,44,34,45,22,38,41,98,34,19,16,16,34,20,19,12,14,37,81,156,88,185,112,28,76,34,26,13,5,11,6,12,15,15,17,82,38,25,23,36,31,23,22,16,4,17,6,4,6,-29,-4,-2,-2,-2,-5,-4,-3,-3,-6,-9,-3,-1,0,0,2,0,2,1,6,9,8,12,15,6,10,13,7,5,6,23,94,21,10,45,27,14,40,74,20,29,13,18,27,25,26,23,23,8,20,43,13,8,46,36,8,37,87,41,8,3,19,41,59,1,23,38,23,4,2,4,5,18,11,9,3,5,23,24,3,12,1,1,4,4,3,27,26,29,18,5,7,27,7,60,52,9,6,13,13,6,6,11,9,12,13,11,6,26,3,8,13,11,20,11,43,14,9,13,9,26,10,11,45,40,8,24,28,51,109,53,11,4,7,11,22,42,8,47,1,86,70,22,42,30,49,38,33,12,55,9,14,34,31,12,4,6,8,6,5,37,90,42,67,9,23,24,6,17,24,3,55,52,63,3,36,26,14,19,10,8,10,12,8,28,7,7,9,5,2,0,-5,-2,-2,-9,-11,-5,-6,-3,-6,-5,-8,-26,-25,-19,-11,-5,-9,-85,-5,-45,-51,-11,-8,-23,-19,-32,-23,-2,-13,-5,-9,-14,-22,-22,-52,-11,-34,-71,-14,-66,-86,-27,-23,-75,-22,-37,-6,-12,-129,-27,-21,-2,-28,-30,-11,-25,-13,-33,-92,-36,-96,-19,-64,-25,-87,-11,-68,-35,-16,-11,-32,-30,-9,-6,-33,-24,-9,-10,-9,-115,-21,-34,-13,-8,-13,-57,-30,-47,-46,-50,-13,-103,-18,-44,-15,-13,-8,-59,-4,-68,-29,-19,-11,-99,-37,-17,-61,-7,-73,-4,-29,-34,-11,-4,-12,-47,-5,-6,-48,-13,-42,-16,-4,-14,-3,-2,-35,-3,-4,-2,-7,-33,-59,-31,-2,-1,-40,-38,-27,-1,-3,-2,-11,-2,-35,-55,-2,-22,-5,-27,-23,-20,-2,-78,-9,-74,-6,-3,-18,-54,-6,-12,-15,-20,-20,-27,-9,-27,-15,-5,-3,-4,-11,-7,-65,-65,-6,-7,-14,-10,-12,-15,-6,-33,-16,-10,-5,-22,-16,-16,-8,-18,-18,-28,-11,-53,-114,-39,-2,-4,-59,-31,-74,-2,-2,-4,-17,-27,-3,-6,-6,-6,-10,-27,-3,-5,-19,-13,-52,-11,-1,-3,-26,-28,-7,-21,-16,-20,-3,-51,-94,-15,-70,-65,-56,-60,-68,-72,-13,-52,-91,-21,-29,-35,-57,-46,-61,-80,-88,-74,-83,-79,-88,-2,-80,-85,-81,-90,-135,-109,-103,-53,-14,-47,-18,-23,-15,-25,-25,-73,-65,-42,-26,-8,-94,-47,-38,-13,-28,-31,-56,-51,-65,-60,-74,-59,-44,-23,-32,-47,-37,-54,-45,-56,-85,-51,-34,-44,-36,-49,-57,-18,-92,-100,-47,-126,-56,-165,-94,-168,-36,-59,-28,-125,-117,-156,-198,-38,-14,-37,-165,-33,-26,-1,-88,-158,-109,-150,-188,-87,-54,-130,-130,-181,-213,-154,-92,-132,-2,-42,-25,-38,-72,-7,-18,-43,-53,-27,-45,-81,-24,-26,-79,-116,-74,-12,-89,-144,-41,-14,-99,-28,-32,-105,-57,-30,-23,-215,-159,-171,-69,-171,-70,-110,-212,-185,-129,-59,-79,-99,-112,-49,-96,-39,-35,-38,-62,-61,-41,-44,-72,-113,-58,-75,-196,-71,-121,-101,-156,-125,-83,-73,-228,-25,-125,-160,-68,-176,-57,-143,-62,-2,-101,-122,-94,-29,-34,-84,-124,-114,-87,-73,-41,-29,-45,-69,-105,-92,-72,-100,-55,-46,-39,-24,-14,-21,-15,-23,-79,-9,-14,-38,-31,-43,-30,-8,-27,-7,-55,-16,-49,-22,-64,-48,-96,-72,-39,-12,-43,-31,-128,-113,-94,-12,-23,-61,-39,-8,-96,-45,-159,-50,-42,-40,-24,-20,-32,-34,-46,-212,-106,-69,-23,-239,-95,-67,-57,-41,-94,-217,-151,-111,-91,-21,-83,-88,-197,-162,-157,-5,-94,-43,-17,-27,-15,-43,-54,-78,-48,-28,-20,-61,-97,-122,-101,-56,-40,-153,-43,-103,-82,-52,-59,-104,-90,-97,-43,-36,-65,-114,-52,-49,-53,-41,-38,-44,-57,-26,-44,-84,-74,-135,-165,-105,-94,-276,-241,-32,-50,-146,-135,-31,-84,-75,-254,-78,-33,-200,-8,-90,-262,-90,-44,-125,-23,-80,-124,-92,-77,-21,-25,-51,-58,-27,-58,-81,-87,-119,-96,-142,-48,-190,-161,-43,-83,-38,-329,-166,-22,-9,-103,-70,-98,-83,-123,-156,-17,-74,-44,-94,-107,-129,-118,-107,-101,-150,-103,-40,-79,-85,-31,-63,-66,-50,-38,-56,-25,-31,-22,-17,-14,-37,-22,-30,-17,-23,-11,-45,-30,-14,-27,-18,-32,-80,-29,-38,-30,-14,-24,-23,-17,-18,-28,-32,-38,-20,-33,-25,-27,-29,-38,-122,-75,-39,-64,-376,-112,-150,-103,-56,-52,-189,-224,-251,-141,-405,-166,-431,-445,-139,-31,-4,-103,-153,-206,-670,-106,-155,-309,-86,-144,-72,-167,-30,-72,-82,-27,-181,-5,-65,-120,-87,-61,-16,-20,-39,-168,-50,-142,-2,-2,-47,-60,-18,-25,-41,-145,-36,-24,-25,-51,-41,-49,-12,-19,-41,-94,-94,-62,-19,-67,-115,-36,-25,-18,-18,-59,-8,-163,-9,-11,-23,-58,-86,-6,-154,-9,-11,-21,-22,-30,-35,-29,-16,-18,-46,-30,-43,-55,-36,-42,-7,-79,-18,-38,-13,-38,-56,-45,-81,-38,-78,-103,-17,-131,-27,-24,-39,-68,-57,-54,-40,-51,-94,-47,-6,-30,-26,-80,-17,-43,-15,-22,-124,-60,-137,-40,-33,-27,-66,-24,-27,-76,-87,-92,-57,-35,-23,-41,-5,-49,-10,-40,-31,-57,-32,-23,-34,-60,-101,-16,-20,-31,-38,-6,-14,-47,-122,-21,-36,-29,-74,-16,-31,-47,-150,-57,-17,-49,-30,-35,-28,-24,-24,-137,-40,-16,-22,-37,-26,-16,-33,-18,-24,-16,-14,-49,-22,-25,-21,-24,-16,-22,-43,-33,-29,-16,-24,-20,-113,-67,-46,-45,-101,-88,-194,-87,-152,-227,-324,-298,-50,-60,-34,-44,-78,-85,-152,-81,-69,-64,-127,-77,-94,-77,-57,-35,-48,-48,-99,-4,-27,-164,-136,-187,-225,-151,-4,-125,-148,-294,-207,-202,-276,-52,-25,-36,-36,-36,-34,-35,-27,-32,-47,-73,-46,-120,-115,-44,-42,-14,-44,-133,-67,-183,-320,-176,-113,-10,-22,-7,-22,-11,-11,-18,-18,-24,-37,-45,-37,-36,-40,-23,-32,-35,-22,-32,-53,-37,-27,-12,-110,-22,-161,-184,-9,-18,-38,-7,-51,-43,-54,-25,-26,-38,-11,-73,-163,-35,-7,-51,-49,-36,-27,-27,-40,-43,-41,-38,-24,-27,-11,-9,-11,-5,3,36,13,2,5,4,4,4,-1,-9,-13,-20,-21,-25,-31,-52,-24,-32,-65,-123,-230,-147,-28,-36,-58,-31,-22,-25,-35,-34,-3,-78,-53,-30,-23,-62,-36,-28,-41,-43,-75,-137,-42,-35,-115,-126,-9,-94,-117,-31,-40,-67,-101,-44,-30,-14,-8,-45,-165,0,-151,-64,-72,-36,-62,-26,-30,-37,-37,-7,-20],
      "delta_lng":[0,171,49,29,24,17,28,26,19,23,24,18,25,25,22,20,19,47,11,8,10,6,6,7,9,9,14,10,20,15,21,15,48,9,12,12,7,12,14,9,12,15,11,12,30,22,26,27,21,68,24,48,33,18,35,24,23,21,19,24,35,7,27,17,13,17,15,22,34,26,13,18,22,17,24,68,29,88,39,44,43,59,11,26,23,27,34,22,21,45,23,34,51,29,19,89,15,8,12,51,26,11,11,25,20,18,25,15,13,15,18,33,33,26,31,116,53,20,85,32,21,24,84,19,33,44,59,29,59,23,13,17,32,38,65,30,84,82,21,39,18,24,17,22,83,63,90,32,90,59,15,9,36,42,79,49,43,37,51,116,31,22,21,37,86,55,218,142,67,23,39,32,43,41,36,46,88,343,199,163,318,315,92,197,40,32,30,230,193,174,328,179,254,17,10,20,82,336,158,161,118,118,113,33,142,128,77,72,80,55,85,52,50,28,30,80,83,59,69,79,38,49,85,78,98,153,283,85,181,376,382,19,134,271,149,147,115,148,76,126,140,331,110,54,45,42,78,40,33,20,22,52,125,237,135,279,167,42,115,64,49,27,12,25,12,30,33,35,48,229,111,67,70,100,87,63,67,46,15,52,22,14,12,433,50,25,25,20,30,41,33,48,77,164,108,70,43,25,25,15,11,10,39,32,24,29,30,9,15,20,9,8,6,25,100,21,10,50,29,15,45,79,22,31,12,21,28,29,29,22,27,7,24,48,13,9,49,40,7,41,96,42,9,3,21,43,64,0,27,48,30,6,2,7,6,29,21,11,4,7,38,40,5,18,3,2,8,4,7,43,40,47,31,8,11,42,12,96,84,14,11,21,21,10,11,16,13,20,21,19,10,42,4,15,21,18,31,19,71,22,16,20,16,40,18,19,74,66,13,39,45,85,183,86,17,6,12,19,35,72,15,74,2,136,114,32,68,49,82,60,54,18,92,13,21,54,51,20,6,10,13,10,8,60,152,69,118,14,41,40,11,30,40,5,97,86,109,4,67,64,32,55,25,23,28,32,26,85,21,24,36,34,39,62,39,6,7,34,34,12,17,7,14,9,20,52,43,32,18,9,13,124,10,64,74,15,12,33,26,44,31,4,14,6,6,11,14,10,17,4,8,17,3,17,21,6,6,17,4,10,2,2,32,8,5,2,6,8,3,7,3,8,18,8,26,4,13,6,20,4,18,12,8,4,12,11,4,1,13,9,5,3,4,44,7,14,3,3,6,23,12,19,17,19,5,44,5,17,6,4,3,22,2,24,11,8,2,38,15,8,38,5,47,3,20,23,9,4,9,39,5,5,45,14,42,20,4,18,1,3,45,3,6,3,8,45,86,46,3,2,63,62,44,1,6,3,15,7,57,88,4,35,9,45,38,34,6,128,18,123,10,6,31,88,10,21,22,35,34,41,15,45,26,4,8,6,19,11,108,107,9,11,25,16,20,24,10,55,27,15,6,41,24,29,11,30,31,45,18,87,189,65,2,7,99,52,123,3,4,6,26,47,6,9,10,9,16,43,6,9,30,22,89,17,1,7,43,48,9,33,25,30,6,80,153,27,118,110,98,99,120,124,21,93,148,31,37,42,55,44,53,67,73,67,70,72,77,3,68,76,73,77,118,93,92,45,12,39,17,19,17,18,23,63,57,37,25,6,84,39,30,8,18,11,13,14,15,14,16,14,8,4,1,1,-5,-10,-12,-18,-26,-14,-13,-11,-7,-3,-2,-1,-3,-2,-2,-5,-1,-5,-4,-5,-2,-1,-1,-5,-3,-4,-6,-2,0,-1,-6,-1,-1,0,-3,-4,-4,-4,-6,-3,-1,-5,-4,-4,-8,-4,-4,-5,0,0,0,4,8,1,3,8,10,7,12,25,6,8,23,33,21,4,24,44,10,4,30,8,9,31,16,8,7,62,46,49,21,49,20,32,61,54,29,19,31,34,44,25,62,27,27,32,66,69,53,62,103,162,88,107,284,101,176,148,218,180,119,105,327,36,182,229,98,252,81,202,92,3,141,170,135,40,49,123,176,166,125,106,57,39,65,97,156,135,102,145,76,75,65,48,30,50,45,66,223,27,39,109,82,125,80,19,71,22,161,53,144,70,193,145,291,211,120,35,127,97,369,344,274,36,71,179,118,24,288,137,476,144,107,99,44,32,45,37,49,204,97,64,21,218,86,64,59,51,124,290,206,150,124,29,115,117,272,217,218,9,125,54,18,27,14,30,33,30,11,6,1,3,-10,-23,-17,-13,-17,-103,-27,-50,-33,-23,-33,-53,-49,-59,-20,-13,-22,-10,1,9,26,29,31,49,70,34,56,114,96,182,217,143,127,367,314,43,67,194,177,41,110,104,334,103,51,372,14,167,496,167,83,232,45,148,227,176,144,40,43,71,71,23,53,48,37,46,36,52,18,73,57,17,31,13,123,58,11,4,45,34,38,32,47,61,6,26,19,35,43,47,45,42,38,54,35,13,29,30,13,23,25,24,26,57,25,31,30,23,22,68,45,61,42,54,25,100,72,36,66,42,84,198,70,97,72,35,47,35,27,25,33,31,29,16,26,15,13,9,10,39,23,12,20,110,31,43,33,16,13,58,66,74,43,118,49,127,133,42,7,2,31,45,61,198,30,45,90,26,40,16,38,5,5,-6,-2,-13,0,-5,-7,-6,-5,-1,-1,-4,-12,-2,-11,0,0,-3,1,4,3,6,30,13,9,9,21,19,21,7,8,19,43,44,28,11,32,53,18,11,8,9,27,4,80,4,5,10,29,40,2,74,5,5,11,10,17,16,14,6,8,20,8,12,16,10,10,3,18,5,8,1,9,15,10,19,8,17,21,5,29,5,5,9,16,14,12,9,12,21,10,2,7,5,18,4,10,3,5,27,13,30,9,7,6,14,6,7,16,20,20,13,9,5,9,0,15,3,12,13,28,17,10,16,29,50,8,9,14,18,4,5,23,62,10,18,14,34,9,15,23,71,27,9,24,14,17,14,13,13,64,21,8,13,20,13,9,18,9,13,9,8,25,11,10,10,11,6,8,14,10,8,4,5,4,20,8,3,-3,-9,-8,-18,-7,-13,-20,-27,-28,-6,-7,-3,-10,-19,-33,-79,-53,-49,-55,-105,-70,-79,-63,-41,-24,-28,-24,-38,-2,-12,-58,-53,-69,-82,-56,-1,-48,-51,-108,-78,-74,-104,-18,-7,-2,0,0,3,12,12,21,40,71,45,118,119,44,48,16,74,241,121,334,576,314,198,15,39,13,39,14,15,24,20,22,22,26,20,11,10,7,2,0,0,-6,-14,-12,-12,-7,-91,-16,-152,-173,-9,-17,-38,-8,-49,-44,-59,-21,-15,-14,-4,-22,-49,-11,-2,-17,-9,-4,0,3,13,18,31,36,30,40,27,27,44,63,62,257,80,19,24,44,22,58,52,54,42,62,42,41,38,46,16,17,33,68,125,84,13,9,5,0,-2,-8,-19,-27,-3,-70,-45,-24,-14,-23,-10,-5,3,9,23,48,10,0,-15,-17,-1,-15,-29,-10,-24,-54,-85,-26,-14,-4,-3,-11,-9,-6,-8,-4,-9,-9,-27,-18,-20,-29,-49,-9,-32]
    }
  ]
}