{
  "code":21004,
  "name":"東武野田線",
  "color":"#33CCCC",
  "symbol":"TD",
  "station_list":[
    {"code":100403,"id":"d73fff","name":"大宮(埼玉)","name_kana":"おおみや","lat":35.906439,"lng":139.62405,"prefecture":11,"numbering":[{"index":"01"}],"lines":[11319,11321,11322,11323,11328,11332,11333,21004,99321,1004,1005],"attr":"heat","postal_code":"330-0853","address":"さいたま市大宮区錦町"},
    {"code":2100402,"id":"ab1df5","name":"北大宮","name_kana":"きたおおみや","lat":35.91716,"lng":139.624726,"prefecture":11,"numbering":[{"index":"02"}],"lines":[21004],"attr":"heat","postal_code":"330-0801","address":"さいたま市大宮区土手町３-２８５"},
    {"code":2100403,"id":"569e2f","name":"大宮公園","name_kana":"おおみやこうえん","lat":35.92374,"lng":139.632903,"prefecture":11,"numbering":[{"index":"03"}],"lines":[21004],"attr":"heat","postal_code":"330-0805","address":"さいたま市大宮区寿能町１-１７２"},
    {"code":2100404,"id":"5a06b5","name":"大和田(埼玉)","name_kana":"おおわだ","lat":35.929359,"lng":139.65051,"prefecture":11,"numbering":[{"index":"04"}],"lines":[21004],"attr":"heat","postal_code":"337-0053","address":"さいたま市見沼区大和田町２-１７７４"},
    {"code":2100405,"id":"d1efb3","name":"七里","name_kana":"ななさと","lat":35.936464,"lng":139.665948,"prefecture":11,"numbering":[{"index":"05"}],"lines":[21004],"attr":"cool","postal_code":"337-0017","address":"さいたま市見沼区風渡野６０３"},
    {"code":2100406,"id":"c33781","name":"岩槻","name_kana":"いわつき","lat":35.950239,"lng":139.693197,"prefecture":11,"numbering":[{"index":"06"}],"lines":[21004],"attr":"cool","postal_code":"339-0057","address":"さいたま市岩槻区本町"},
    {"code":2100407,"id":"68f598","name":"東岩槻","name_kana":"ひがしいわつき","lat":35.963273,"lng":139.712192,"prefecture":11,"numbering":[{"index":"07"}],"lines":[21004],"attr":"cool","postal_code":"339-0005","address":"さいたま市岩槻区東岩槻１-１２-１"},
    {"code":2100408,"id":"159fda","name":"豊春","name_kana":"とよはる","lat":35.968014,"lng":139.72601,"prefecture":11,"numbering":[{"index":"08"}],"lines":[21004],"attr":"eco","postal_code":"344-0046","address":"春日部市大字上蛭田１３６-１"},
    {"code":2100409,"id":"de1b7a","name":"八木崎","name_kana":"やぎさき","lat":35.978376,"lng":139.741785,"prefecture":11,"numbering":[{"index":"09"}],"lines":[21004],"attr":"eco","postal_code":"344-0061","address":"春日部市大字粕壁６９４６"},
    {"code":2100227,"id":"d9fd31","name":"春日部","name_kana":"かすかべ","lat":35.980095,"lng":139.752345,"prefecture":11,"numbering":[{"index":"10"}],"lines":[21002,21004],"attr":"heat","postal_code":"344-0061","address":"春日部市粕壁１丁目"},
    {"code":2100411,"id":"a98a8b","name":"藤の牛島","name_kana":"ふじのうしじま","lat":35.98026,"lng":139.778038,"prefecture":11,"numbering":[{"index":"11"}],"lines":[21004],"attr":"eco","postal_code":"344-0004","address":"春日部市大字牛島１５７６"},
    {"code":2100412,"id":"c0915d","name":"南桜井(埼玉)","name_kana":"みなみさくらい","lat":35.980441,"lng":139.807988,"prefecture":11,"numbering":[{"index":"12"}],"lines":[21004],"attr":"eco","postal_code":"344-0115","address":"春日部市米島１１８５"},
    {"code":2100413,"id":"523c81","name":"川間","name_kana":"かわま","lat":35.979172,"lng":139.83385,"prefecture":12,"numbering":[{"index":"13"}],"lines":[21004],"attr":"heat","postal_code":"270-0235","address":"野田市尾崎８３２"},
    {"code":2100414,"id":"26ce94","name":"七光台","name_kana":"ななこうだい","lat":35.970884,"lng":139.852906,"prefecture":12,"numbering":[{"index":"14"}],"lines":[21004],"attr":"heat","postal_code":"278-0042","address":"野田市吉春９３１-５"},
    {"code":2100415,"id":"855153","name":"清水公園","name_kana":"しみずこうえん","lat":35.959364,"lng":139.85967,"prefecture":12,"numbering":[{"index":"15"}],"lines":[21004],"attr":"heat","postal_code":"278-0043","address":"野田市清水３７５"},
    {"code":2100416,"id":"ec5d87","name":"愛宕(千葉)","name_kana":"あたご","lat":35.950154,"lng":139.864817,"prefecture":12,"numbering":[{"index":"16"}],"lines":[21004],"attr":"heat","postal_code":"278-0035","address":"野田市中野台１２１７"},
    {"code":2100417,"id":"343645","name":"野田市","name_kana":"のだし","lat":35.943652,"lng":139.870728,"prefecture":12,"numbering":[{"index":"17"}],"lines":[21004],"attr":"heat","postal_code":"278-0037","address":"野田市野田１２８"},
    {"code":2100418,"id":"fd18f2","name":"梅郷","name_kana":"うめさと","lat":35.931575,"lng":139.891086,"prefecture":12,"numbering":[{"index":"18"}],"lines":[21004],"attr":"heat","postal_code":"278-0022","address":"野田市山崎１８９２"},
    {"code":2100419,"id":"ed35b9","name":"運河","name_kana":"うんが","lat":35.914392,"lng":139.906063,"prefecture":12,"numbering":[{"index":"19"}],"lines":[21004],"attr":"heat","postal_code":"270-0101","address":"流山市東深井４０５"},
    {"code":2100420,"id":"c227f1","name":"江戸川台","name_kana":"えどがわだい","lat":35.897344,"lng":139.91045,"prefecture":12,"numbering":[{"index":"20"}],"lines":[21004],"attr":"heat","postal_code":"270-0111","address":"流山市江戸川台東１-３"},
    {"code":2100421,"id":"bb1202","name":"初石","name_kana":"はついし","lat":35.883783,"lng":139.917861,"prefecture":12,"numbering":[{"index":"21"}],"lines":[21004],"attr":"heat","postal_code":"270-0121","address":"流山市西初石３-１００"},
    {"code":2100422,"id":"7fc77a","name":"流山おおたかの森","name_kana":"ながれやまおおたかのもり","lat":35.872051,"lng":139.925898,"prefecture":12,"numbering":[{"index":"22"}],"lines":[21004,99309],"attr":"heat","postal_code":"270-0121","address":"流山市西初石六丁目"},
    {"code":2100423,"id":"3ee2f6","name":"豊四季","name_kana":"とよしき","lat":35.86657,"lng":139.93929,"prefecture":12,"numbering":[{"index":"23"}],"lines":[21004],"attr":"heat","postal_code":"277-0863","address":"柏市豊四季１５９"},
    {"code":1132015,"id":"bcbda8","name":"柏","name_kana":"かしわ","lat":35.862316,"lng":139.971148,"prefecture":12,"numbering":[{"index":"24"}],"lines":[11320,21004],"attr":"heat","postal_code":"277-0005","address":"柏市柏１"},
    {"code":2100425,"id":"bcd4b5","name":"新柏","name_kana":"しんかしわ","lat":35.838128,"lng":139.966994,"prefecture":12,"numbering":[{"index":"25"}],"lines":[21004],"attr":"eco","postal_code":"277-0084","address":"柏市新柏１-１５１０"},
    {"code":2100426,"id":"cba7f6","name":"増尾","name_kana":"ますお","lat":35.829704,"lng":139.976604,"prefecture":12,"numbering":[{"index":"26"}],"lines":[21004],"attr":"eco","postal_code":"277-0033","address":"柏市増尾１-１-１"},
    {"code":2100427,"id":"eb4dce","name":"逆井","name_kana":"さかさい","lat":35.823336,"lng":139.983812,"prefecture":12,"numbering":[{"index":"27"}],"lines":[21004],"attr":"eco","postal_code":"277-0042","address":"柏市逆井８４８"},
    {"code":2100428,"id":"60f794","name":"高柳","name_kana":"たかやなぎ","lat":35.808211,"lng":139.998936,"prefecture":12,"numbering":[{"index":"28"}],"lines":[21004],"attr":"eco","postal_code":"277-0941","address":"柏市高柳１４８９"},
    {"code":2100429,"id":"0b4b27","name":"六実","name_kana":"むつみ","lat":35.793715,"lng":139.999195,"prefecture":12,"numbering":[{"index":"29"}],"lines":[21004],"attr":"eco","postal_code":"270-2204","address":"松戸市六実４-６-１"},
    {"code":2100430,"id":"a3a320","name":"新鎌ヶ谷","name_kana":"しんかまがや","lat":35.780221,"lng":139.999455,"prefecture":12,"numbering":[{"index":"30"}],"lines":[21004,23006,99329,99340],"attr":"cool","postal_code":"273-0107","address":"千葉県鎌ケ谷市新鎌ケ谷一丁目13-1"},
    {"code":2100431,"id":"37fef2","name":"鎌ヶ谷","name_kana":"かまがや","lat":35.763765,"lng":139.997266,"prefecture":12,"numbering":[{"index":"31"}],"lines":[21004],"attr":"cool","postal_code":"273-0113","address":"千葉県鎌ケ谷市道野辺中央2-1-10"},
    {"code":2100432,"id":"e94c2e","name":"馬込沢","name_kana":"まごめざわ","lat":35.741586,"lng":139.992199,"prefecture":12,"numbering":[{"index":"32"}],"lines":[21004],"attr":"cool","postal_code":"273-0047","address":"船橋市藤原７-２-１"},
    {"code":2100433,"id":"e29a12","name":"塚田","name_kana":"つかだ","lat":35.722102,"lng":139.982859,"prefecture":12,"numbering":[{"index":"33"}],"lines":[21004],"attr":"cool","postal_code":"273-0042","address":"船橋市前貝塚町５６４"},
    {"code":2100434,"id":"c09dd6","name":"新船橋","name_kana":"しんふなばし","lat":35.710993,"lng":139.979765,"prefecture":12,"numbering":[{"index":"34"}],"lines":[21004],"attr":"cool","postal_code":"273-0045","address":"船橋市山手１-３-１"},
    {"code":1131331,"id":"d88909","name":"船橋","name_kana":"ふなばし","lat":35.701865,"lng":139.984707,"prefecture":12,"numbering":[{"index":"35"}],"lines":[11313,11314,21004],"attr":"cool","postal_code":"273-0005","address":"船橋市本町７丁目"}
  ],
  "north":35.98166,
  "south":35.70206,
  "east":139.99958,
  "west":139.62259,
  "polyline_list":[
    {
      "start":"柏分岐",
      "end":"柏",
      "lat":35.85909,
      "lng":139.96799,
      "delta_lat":[0,46,25,124,42,103,97],
      "delta_lng":[0,61,25,91,30,82,73]
    },
    {
      "start":"大宮",
      "end":"柏分岐",
      "lat":35.9074,
      "lng":139.62447,
      "delta_lat":[0,69,58,107,81,97,48,32,58,41,33,23,17,61,78,90,22,27,29,29,-2,111,1,137,60,57,30,27,2,18,14,2,24,25,20,13,11,9,8,2,13,6,5,1,4,7,3,3,3,6,12,32,9,18,5,10,9,8,14,13,32,10,22,10,13,51,32,23,13,15,10,13,7,18,10,12,9,11,0,12,12,12,9,11,3,20,42,25,10,3,6,3,7,4,4,40,17,13,21,14,7,8,6,14,15,5,2,6,46,127,6,23,29,4,23,24,7,27,74,68,78,35,20,17,26,6,16,16,33,41,27,36,18,58,10,10,15,39,31,9,16,42,6,9,17,18,24,20,22,7,7,27,42,52,36,22,27,27,31,36,43,30,21,18,15,14,2,21,22,8,7,5,5,4,35,73,22,82,40,108,22,1,2,51,2,59,0,2,7,53,1,6,2,31,77,13,31,26,23,15,6,21,14,9,9,17,11,2,9,23,11,13,41,49,48,57,11,56,31,49,25,29,40,24,7,7,20,20,10,44,12,11,14,8,1,6,6,7,7,15,3,4,3,7,12,14,14,17,7,10,13,16,17,19,13,8,20,7,5,4,11,34,44,8,15,16,47,22,23,25,20,15,7,8,8,13,32,15,17,25,14,12,30,55,44,20,16,8,9,12,6,17,11,13,44,34,25,109,14,77,30,23,11,13,25,27,21,52,59,29,42,61,38,43,29,6,5,5,6,10,5,-1,-7,-9,-9,-30,-55,-33,-45,-36,-16,-32,-80,-35,-47,-18,-20,-32,-58,-25,-20,-16,-20,-13,-11,-7,-5,0,-1,3,3,6,10,7,14,10,7,11,9,29,20,27,29,31,34,27,29,32,17,15,16,16,21,10,30,22,20,9,8,8,7,4,2,2,7,5,2,4,3,1,2,10,4,3,0,-2,-9,-16,-27,-5,-24,-7,-12,-3,-5,-3,-2,3,6,13,10,11,13,19,12,9,16,7,9,7,9,8,3,3,0,-4,-11,-11,-10,-25,-9,-36,-18,-14,-13,-8,-3,-9,-9,-6,-3,-2,-6,0,4,4,9,9,0,0,0,-3,-6,-7,-11,-14,-19,-7,-15,-27,-29,-36,-34,-32,-42,-47,-67,-51,-250,-111,-101,-205,-83,-269,-182,-35,-325,-112,-237,-41,-29,-22,-25,-24,-29,-34,-29,-18,-25,-24,-40,-27,-20,-39,-56,-85,-118,-280,-49,-29,-38,-38,-34,-47,-29,-38,-7,-11,0,-16,-23,-122,-11,-95,-62,-10,-243,-77,-6,-22,-45,-49,-65,-61,-17,-129,-46,-89,-111,-15,-186,-41,-73,-11,-179,-99,-51,-124,-94,-142,-28,-228,-20,-25,-4,-22,-46,-68,-7,-45,-115,-109,-179,-66,-218,-208,-323,-80,-82,-134,-214,-86,-205,-41,-145,-150,-125,-12,-31,-13,-184,-68,-95,-99,-73,-110,-43,-129,-124,-161,-118,-119,-131,-134,-18,-13,-40,-28,-26,-20,-4,-25,-7,-134,-113,-12,-34,-92,-13,-54,-59,-49,-58,-65,-62,-90,-17,-14,-92,-20,-10,-55,-47,-40,-7,-42,-48,-54,-21,-9,-1,4,8,20,0],
      "delta_lng":[0,-44,-28,-44,-30,-25,-9,-5,-3,1,5,6,5,25,37,47,12,16,16,17,4,61,-4,71,45,43,29,28,1,21,19,2,32,43,40,29,24,27,25,6,43,21,21,5,13,30,14,13,13,29,45,137,37,75,18,27,27,23,29,27,70,25,47,21,26,111,70,50,27,32,20,36,14,53,35,40,42,56,5,61,65,79,36,56,11,103,208,126,50,20,21,14,38,18,22,196,76,50,66,37,17,15,12,24,28,3,6,8,66,185,6,33,43,4,37,32,9,40,106,99,112,49,30,25,39,8,24,30,56,85,68,99,50,155,29,23,43,102,84,23,44,112,18,23,45,49,63,56,56,21,22,71,108,140,85,46,49,40,43,46,57,37,26,23,21,16,4,27,27,11,8,8,5,5,45,95,29,106,49,139,29,3,1,63,3,75,2,0,11,66,3,7,3,41,102,17,41,38,41,33,25,83,54,42,38,62,33,12,21,42,18,20,43,44,44,50,10,49,27,43,24,31,50,34,12,11,39,42,27,128,51,53,75,54,6,41,26,47,44,92,18,12,14,25,35,36,38,41,18,22,28,34,34,43,23,19,41,17,13,8,22,72,93,16,30,34,105,47,47,50,37,25,11,11,13,20,48,22,24,38,22,16,44,77,65,29,22,14,12,18,9,23,16,19,63,48,40,158,19,113,46,34,13,18,38,41,30,76,86,41,60,89,54,66,47,12,10,11,13,32,49,50,76,54,40,61,89,56,108,114,70,84,198,47,55,20,16,23,57,23,23,22,38,33,34,45,72,10,26,44,41,48,53,25,39,24,13,19,18,51,33,36,44,45,54,42,53,54,36,30,40,42,57,28,101,71,68,28,38,41,47,38,34,22,98,71,64,66,80,28,29,248,112,103,42,57,97,160,285,54,252,77,140,41,51,61,43,54,60,93,81,84,92,136,77,64,163,99,88,80,104,97,75,65,42,65,102,70,63,149,48,225,99,97,96,66,14,84,103,90,23,57,226,113,186,215,277,227,32,35,28,50,45,43,41,40,48,13,33,50,46,48,41,34,38,39,48,32,148,66,62,126,51,162,111,22,198,69,144,24,17,10,9,5,2,-1,-1,3,7,10,19,17,15,31,51,71,93,228,41,30,37,39,39,55,40,52,11,12,1,32,46,261,27,199,127,24,514,169,10,38,66,58,64,63,17,129,45,89,111,15,183,40,73,11,182,98,51,123,93,142,28,216,15,12,1,9,12,13,2,8,23,19,34,10,38,38,57,15,26,59,118,48,112,22,80,81,70,7,17,7,100,38,53,54,39,67,23,70,65,91,66,64,71,74,10,13,44,40,37,42,11,62,16,329,272,28,84,224,32,131,145,119,140,155,149,225,53,57,367,81,40,220,184,167,30,171,191,222,84,51,55,47,46,75,1]
    },
    {
      "start":"船橋",
      "end":"柏分岐",
      "lat":35.70206,
      "lng":139.98472,
      "delta_lat":[0,8,1,18,5,8,2,5,18,11,13,25,20,28,41,38,30,20,26,48,38,21,41,43,45,65,265,9,117,8,164,100,174,48,54,92,18,45,47,36,33,36,80,18,88,159,24,16,35,198,83,112,78,102,53,45,24,43,18,14,74,37,152,184,125,34,104,55,107,67,6,55,32,130,70,141,155,159,68,38,110,160,102,121,248,138,105,105,11,110,82,67,150,124,92,53,179,23,168,40,65,31,146,47,174,13,62,150,89,56,63,262,94,95,200,165,52,59,42,138,76,101,63,195,31,62,33,297,45,109,61,121,161,149,48,67,55,53,45,4,38,54,36,19,249,85,170,18,87,118,32,121,70,81,93,25,24,25,18,117,233,24,31,7,26,8,60,18,20,29,52,201,32,46,5,25,71,132,136,21,44,34,3,104,5,12,55,15,61,29,43,14,53,32,60,29,42,111,136,140,82,134,125,134,45,92,52,50,56,39,85,9,53,14,32,40,27,19,12,13,20,17,60],
      "delta_lng":[0,-71,-8,-192,-20,-25,-5,-9,-27,-13,-17,-24,-15,-24,-30,-24,-17,-8,-9,-10,-4,-2,0,3,6,9,35,1,18,2,23,16,25,7,9,16,4,11,12,18,20,25,60,12,80,134,18,15,30,161,68,93,65,84,43,32,15,21,9,7,14,6,15,18,15,3,11,6,4,6,1,8,5,15,14,35,37,39,16,10,28,39,24,30,59,35,26,26,3,30,21,14,37,31,24,13,44,6,39,10,13,3,0,-1,-3,0,-1,-4,-1,0,-1,-6,-2,-1,-3,-3,-1,-1,0,-3,-3,-1,0,-4,-1,0,-3,-5,-1,-3,2,-3,-4,-2,-2,0,-7,-18,-30,-2,-35,-63,-44,-25,-278,-94,-192,-19,-100,-132,-37,-139,-80,-89,-102,-29,-26,-26,-20,-136,-259,-26,-38,-6,-29,-9,-65,-24,-26,-33,-55,-225,-36,-52,-6,-30,-81,-144,-147,-28,-51,-37,-4,-118,-7,-12,-62,-16,-49,-20,-22,-5,-12,-4,-1,2,8,22,29,27,15,25,24,23,8,19,12,5,0,-3,-13,-1,-4,-1,1,8,10,9,7,7,17,22,85]
    }
  ]
}