{
  "code":22007,
  "name":"西武新宿線",
  "color":"#0099CC",
  "symbol":"SS",
  "station_list":[
    {"code":2200701,"id":"4e0e0e","name":"西武新宿","name_kana":"せいぶしんじゅく","lat":35.696254,"lng":139.7,"prefecture":13,"numbering":[{"index":"01"}],"lines":[22007],"attr":"cool","postal_code":"160-0021","address":"新宿区歌舞伎町１-３０-１","next":[9930102,1131309,2800217,2800219,1130209,2801012],"voronoi":{"lat":35.698373,"lng":139.70352,"delta_lat":[0,263,-1723,-1176,-1877,1589],"delta_lng":[0,-4662,-2913,319,6526,1754]}},
    {"code":1130210,"id":"4cf552","name":"高田馬場","name_kana":"たかだのばば","lat":35.712677,"lng":139.703715,"prefecture":13,"numbering":[{"index":"02"}],"lines":[11302,22007,28004],"attr":"eco","postal_code":"169-0075","address":"東京都新宿区高田馬場一丁目35-1","next":[1131309,9930528,1130211,2200703,2801011,1130209],"voronoi":{"lat":35.713154,"lng":139.708626,"delta_lat":[0,2585,2140,-9438,-666,-1326],"delta_lng":[0,-1054,-6642,-3594,1239,4530]}},
    {"code":2200703,"id":"b0e73b","name":"下落合","name_kana":"しもおちあい","lat":35.715846,"lng":139.695391,"prefecture":13,"numbering":[{"index":"03"}],"lines":[22007],"attr":"cool","postal_code":"161-0033","address":"新宿区下落合１-１６-１","next":[1130211,2200132,2200704,2800402,1130210,2200102,1131309],"voronoi":{"lat":35.708082,"lng":139.694539,"delta_lat":[0,5284,7443,798,-522,-3207,-9438],"delta_lng":[0,-3174,-654,8325,525,1370,-3594]}},
    {"code":2200704,"id":"1cd084","name":"中井","name_kana":"なかい","lat":35.715106,"lng":139.686967,"prefecture":13,"numbering":[{"index":"04"}],"lines":[22007,99301],"attr":"cool","postal_code":"161-0032","address":"新宿区中落合１-１９-１","next":[2200102,9930133,1131308,2200703,2200705,2800402],"voronoi":{"lat":35.712495,"lng":139.680016,"delta_lat":[0,110,4474,4300,-570,-7443],"delta_lng":[0,-374,210,9976,883,654]}},
    {"code":2200705,"id":"420b73","name":"新井薬師前","name_kana":"あらいやくしまえ","lat":35.715778,"lng":139.672582,"prefecture":13,"numbering":[{"index":"05"}],"lines":[22007],"attr":"cool","postal_code":"164-0002","address":"中野区上高田５-４３-２０","next":[2200706,9930133,1131214,9930134,2200704,1131308],"voronoi":{"lat":35.706796,"lng":139.675109,"delta_lat":[0,6012,11272,404,-7404,-4474],"delta_lng":[0,-8922,4745,3512,5408,-210]}},
    {"code":2200706,"id":"408121","name":"沼袋","name_kana":"ぬまぶくろ","lat":35.719458,"lng":139.663841,"prefecture":13,"numbering":[{"index":"06"}],"lines":[22007],"attr":"cool","postal_code":"165-0025","address":"中野区沼袋１-３５-１","next":[2200705,2200707,2200105,9930134,1131214,2200106],"voronoi":{"lat":35.728337,"lng":139.658445,"delta_lat":[0,-16700,1171,11272,4935,-124],"delta_lng":[0,-301,8042,4745,-9476,-1933]}},
    {"code":2200707,"id":"432e55","name":"野方","name_kana":"のがた","lat":35.719658,"lng":139.652733,"prefecture":13,"numbering":[{"index":"07"}],"lines":[22007],"attr":"cool","postal_code":"165-0027","address":"中野区野方６-３-３","next":[1131215,2200706,2200106,2200708,1131214],"voronoi":{"lat":35.728337,"lng":139.658445,"delta_lat":[0,626,-15418,-2423,515],"delta_lng":[0,-6977,-5185,11315,546]}},
    {"code":2200708,"id":"0792ac","name":"都立家政","name_kana":"とりつかせい","lat":35.722313,"lng":139.644839,"prefecture":13,"numbering":[{"index":"08"}],"lines":[22007],"attr":"cool","postal_code":"165-0032","address":"中野区鷺宮１-１６-１","next":[1131215,2200709,2200707,2200106,1131216,2200107],"voronoi":{"lat":35.730107,"lng":139.642257,"delta_lat":[0,-17085,-553,1076,15418,3187],"delta_lng":[0,-843,1080,3790,5185,-5212]}},
    {"code":2200709,"id":"bc652c","name":"鷺ノ宮","name_kana":"さぎのみや","lat":35.722605,"lng":139.63892,"prefecture":13,"numbering":[{"index":"09"}],"lines":[22007],"attr":"cool","postal_code":"165-0032","address":"中野区鷺宮３-１５-１","next":[2200710,2200108,2200708,2200107,1131216],"voronoi":{"lat":35.714797,"lng":139.631065,"delta_lat":[0,12975,1521,813,-17085],"delta_lng":[0,1137,2185,7869,-843]}},
    {"code":2200710,"id":"91c4f5","name":"下井草","name_kana":"しもいぐさ","lat":35.723852,"lng":139.624688,"prefecture":13,"numbering":[{"index":"10"}],"lines":[22007],"attr":"cool","postal_code":"167-0022","address":"杉並区下井草２-４４-１０","next":[2200709,2200711,1131217,2200109,2200108,1131216],"voronoi":{"lat":35.727772,"lng":139.632202,"delta_lat":[0,4633,-174,-17278,-2054,1898],"delta_lng":[0,-11129,-367,-1543,8671,3231]}},
    {"code":2200711,"id":"d5e4b3","name":"井荻","name_kana":"いおぎ","lat":35.72469,"lng":139.615303,"prefecture":13,"numbering":[{"index":"11"}],"lines":[22007],"attr":"cool","postal_code":"167-0022","address":"杉並区下井草５-２３-１５","next":[1131217,2200712,2200710,2200109,1131218],"voronoi":{"lat":35.714954,"lng":139.619164,"delta_lat":[0,17278,1013,-19888,-716],"delta_lng":[0,1543,-11163,-1023,937]}},
    {"code":2200712,"id":"6f7fae","name":"上井草","name_kana":"かみいぐさ","lat":35.725326,"lng":139.602937,"prefecture":13,"numbering":[{"index":"12"}],"lines":[22007],"attr":"heat","postal_code":"167-0023","address":"杉並区上井草３-３２-１","next":[1131218,2200711,2200110,2200713,2200109],"voronoi":{"lat":35.733488,"lng":139.609274,"delta_lat":[0,2407,-20579,-1959,19888],"delta_lng":[0,-10853,-1665,11764,1023]}},
    {"code":2200713,"id":"4670c8","name":"上石神井","name_kana":"かみしゃくじい","lat":35.726189,"lng":139.592266,"prefecture":13,"numbering":[{"index":"13"}],"lines":[22007],"attr":"heat","postal_code":"177-0044","address":"練馬区上石神井１-２-４５","next":[2200110,2200712,1131104,2200111,1131218,2200714],"voronoi":{"lat":35.739039,"lng":139.594708,"delta_lat":[0,-3145,-20579,-2395,3162,20695],"delta_lng":[0,3713,-1665,-7542,-5836,1843]}},
    {"code":2200714,"id":"b727c7","name":"武蔵関","name_kana":"むさしせき","lat":35.7276,"lng":139.576417,"prefecture":13,"numbering":[{"index":"14"}],"lines":[22007],"attr":"heat","postal_code":"177-0051","address":"練馬区関町北２-２９-１","next":[1131104,2200112,2200715,2200713,2200111,1131105],"voronoi":{"lat":35.716083,"lng":139.583379,"delta_lat":[0,20695,3523,-2929,-22491,-656],"delta_lng":[0,1843,-7448,-6973,-2026,1017]}},
    {"code":2200715,"id":"238aed","name":"東伏見","name_kana":"ひがしふしみ","lat":35.728761,"lng":139.563529,"prefecture":13,"numbering":[{"index":"15"}],"lines":[22007],"attr":"heat","postal_code":"202-0021","address":"西東京市東伏見２-５-１","next":[2200716,2200112,2200714,1131105],"voronoi":{"lat":35.737372,"lng":139.570801,"delta_lat":[0,2809,-23996,-1304],"delta_lng":[0,-12943,304,10613]}},
    {"code":2200716,"id":"26f830","name":"西武柳沢","name_kana":"せいぶやぎさわ","lat":35.728621,"lng":139.552477,"prefecture":13,"numbering":[{"index":"16"}],"lines":[22007],"attr":"heat","postal_code":"202-0015","address":"西東京市保谷町３-１１-２４","next":[2200715,1131105,2200113,2200717,2200112,1131221],"voronoi":{"lat":35.715641,"lng":139.547093,"delta_lat":[0,23145,3137,-1743,-23996,-2032],"delta_lng":[0,-2300,10829,2236,304,-6715]}},
    {"code":2200717,"id":"ef646c","name":"田無","name_kana":"たなし","lat":35.727307,"lng":139.539259,"prefecture":13,"numbering":[{"index":"17"}],"lines":[22007],"attr":"heat","postal_code":"188-0011","address":"西東京市田無町４-１-１","next":[1131221,2200114,2200716,1131222,2200113,2200718],"voronoi":{"lat":35.713465,"lng":139.533845,"delta_lat":[0,2176,23145,4017,-751,-24550],"delta_lng":[0,13248,-2300,-14733,-4510,1111]}},
    {"code":2200718,"id":"a6fd0a","name":"花小金井","name_kana":"はなこがねい","lat":35.726129,"lng":139.513228,"prefecture":13,"numbering":[{"index":"18"}],"lines":[22007],"attr":"eco","postal_code":"187-0002","address":"小平市花小金井１-１０-５","next":[2200115,2201102,1131222,1131223,2200114,2200719,2200717],"voronoi":{"lat":35.712202,"lng":139.515481,"delta_lat":[0,4899,5278,27886,-527,-7686,-24550],"delta_lng":[0,-18007,-630,12214,3631,12860,1111]}},
    {"code":2200719,"id":"d66447","name":"小平","name_kana":"こだいら","lat":35.736963,"lng":139.488491,"prefecture":13,"numbering":[{"index":"19"}],"lines":[22007,22008],"attr":"eco","postal_code":"187-0041","address":"小平市美園町１-３４-１","next":[2201102,2200116,2200720,1130505,2200115,2201103,2200718,2200802],"voronoi":{"lat":35.735732,"lng":139.481672,"delta_lat":[0,-6579,-6773,27886,5524,1106,641,-6653],"delta_lng":[0,3319,11854,12214,-6198,-5723,-5204,-5298]}},
    {"code":2200720,"id":"183a69","name":"久米川","name_kana":"くめがわ","lat":35.749575,"lng":139.472653,"prefecture":13,"numbering":[{"index":"20"}],"lines":[22007],"attr":"eco","postal_code":"189-0013","address":"東村山市栄町２-３-１","next":[2200721,2201106,1130505,2200719,2200802],"voronoi":{"lat":35.74428,"lng":139.472939,"delta_lat":[0,8049,11561,-6354,-6653],"delta_lng":[0,-7520,17789,8726,-5298]}},
    {"code":2200721,"id":"391782","name":"東村山","name_kana":"ひがしむらやま","lat":35.76006,"lng":139.465839,"prefecture":13,"numbering":[{"index":"21"}],"lines":[22007,22009,22010],"attr":"cool","postal_code":"189-0014","address":"東村山市本町２-３-３２","next":[2200720,2200117,2201106,1130505,2200902,2201107,2200131],"voronoi":{"lat":35.775286,"lng":139.462688,"delta_lat":[0,-71,-16832,-7184,1131,11561,6892],"delta_lng":[0,-209,-7578,1195,9323,17789,-4537]}},
    {"code":2200131,"id":"7de51b","name":"所沢","name_kana":"ところざわ","lat":35.786627,"lng":139.473324,"prefecture":11,"numbering":[{"index":"22"}],"lines":[22001,22007],"attr":"eco","postal_code":"359-0037","address":"所沢市くすのき台１-１４-５","next":[2200117,1130506,1130505,2200721,2200723],"voronoi":{"lat":35.801855,"lng":139.491389,"delta_lat":[0,-31073,4503,14116,16921],"delta_lng":[0,-12719,-15983,2175,25647]}},
    {"code":2200723,"id":"84fbd6","name":"航空公園","name_kana":"こうくうこうえん","lat":35.798272,"lng":139.465641,"prefecture":11,"numbering":[{"index":"23"}],"lines":[22007],"attr":"eco","postal_code":"359-0042","address":"所沢市並木２-４-１","next":[2200117,1130506,2100118,2200131,2200724],"voronoi":{"lat":35.797523,"lng":139.457339,"delta_lat":[0,-8122,16921,25121,2581],"delta_lng":[0,7523,25647,1907,-2791]}},
    {"code":2200724,"id":"039422","name":"新所沢","name_kana":"しんところざわ","lat":35.805854,"lng":139.457069,"prefecture":11,"numbering":[{"index":"24"}],"lines":[22007],"attr":"heat","postal_code":"359-1111","address":"所沢市緑町１-２１-２５","next":[2200727,2100118,2200725,2200117,2200728,2200118,2200723,2100119],"voronoi":{"lat":35.834024,"lng":139.489625,"delta_lat":[0,-36501,561,21847,27741,556,155,-9432],"delta_lng":[0,-32286,-8370,-6099,24816,1605,4533,11723]}},
    {"code":2200725,"id":"262546","name":"入曽","name_kana":"いりそ","lat":35.832481,"lng":139.427304,"prefecture":11,"numbering":[{"index":"25"}],"lines":[22007],"attr":"heat","postal_code":"350-1316","address":"狭山市南入曽５６７","next":[2200724,2200121,2200119,2200726,2200120,2200118,2200727],"voronoi":{"lat":35.852719,"lng":139.43387,"delta_lat":[0,-11709,-4159,-16907,-3427,3414,27741],"delta_lng":[0,-20039,-1819,13367,7311,10181,24816]}},
    {"code":2200726,"id":"df8bff","name":"狭山市","name_kana":"さやまし","lat":35.856936,"lng":139.413015,"prefecture":11,"numbering":[{"index":"26"}],"lines":[22007],"attr":"cool","postal_code":"350-1305","address":"狭山市入間川１-１-１","next":[2200727,1132209,1132208,2200725,2200121],"voronoi":{"lat":35.874392,"lng":139.386786,"delta_lat":[0,5589,2223,-29484,-11709],"delta_lng":[0,5976,16556,24551,-20039]}},
    {"code":2200727,"id":"da834e","name":"新狭山","name_kana":"しんさやま","lat":35.873993,"lng":139.433499,"prefecture":11,"numbering":[{"index":"27"}],"lines":[22007],"attr":"cool","postal_code":"350-1331","address":"狭山市新狭山３-１２-１","next":[2200724,2200726,1132208,1132207,2200728,2200725],"voronoi":{"lat":35.848228,"lng":139.469292,"delta_lat":[0,47557,297,-13879,-29484,-5047],"delta_lng":[0,-36019,-6880,-17074,24551,33817]}},
    {"code":2200728,"id":"229e57","name":"南大塚","name_kana":"みなみおおつか","lat":35.889663,"lng":139.454189,"prefecture":11,"numbering":[{"index":"28"}],"lines":[22007],"attr":"cool","postal_code":"350-1165","address":"川越市南台３-１４","next":[2100122,1132207,2100120,2100119,1132205,2200724,2200727,1132206],"voronoi":{"lat":35.900131,"lng":139.467493,"delta_lat":[0,-14131,-27360,-10257,-155,47557,10214,-3036],"delta_lng":[0,8354,793,-2816,-4533,-36019,15101,16079]}},
    {"code":2200729,"id":"2772c5","name":"本川越","name_kana":"ほんかわごえ","lat":35.913524,"lng":139.481125,"prefecture":11,"numbering":[{"index":"29"}],"lines":[22007],"attr":"cool","postal_code":"350-0043","address":"川越市新富町１-２２","next":[1132204,1132205,2100122,1132311,1132310],"voronoi":{"lat":35.974328,"lng":139.503945,"delta_lat":[0,6550,-71829,6844,47701],"delta_lng":[0,-14805,-10802,23767,12793]}}
  ],
  "north":35.9153,
  "south":35.6953,
  "east":139.70493,
  "west":139.41297,
  "polyline_list":[
    {
      "start":"西部新宿",
      "end":"本川越",
      "lat":35.6953,
      "lng":139.70004,
      "delta_lat":[0,75,99,73,48,143,340,2,32,38,25,96,235,346,94,82,53,25,36,39,16,27,4,26,36,17,16,11,18,11,7,4,11,9,-1,0,-3,-5,-8,-17,-13,-4,-3,-3,1,5,12,3,0,-3,-3,-26,-6,-31,-6,-12,-11,-13,0,0,0,5,55,4,5,21,9,-1,-4,-5,-5,-6,0,16,20,11,115,59,19,48,30,17,10,6,20,26,10,1,-5,-7,-18,-33,-3,1,4,36,22,16,71,103,52,34,17,5,0,3,0,2,1,7,0,1,1,5,10,62,29,16,27,4,5,6,4,3,0,4,3,4,4,3,5,3,1,2,0,4,3,1,1,4,2,2,0,3,4,3,2,5,1,6,2,3,1,9,4,1,2,4,2,2,3,6,2,17,13,11,2,12,1,17,4,7,1,12,2,1,9,8,4,1,16,8,11,3,8,1,5,1,14,4,5,16,10,7,4,3,11,9,15,10,7,2,0,10,5,2,3,16,0,2,0,8,7,4,5,3,1,-4,-5,-5,-5,-5,-5,-4,-4,-3,-6,-4,-10,-2,-4,-2,-7,-4,-5,-3,-6,-7,-8,-12,-14,-6,-3,-6,-13,-5,-7,-5,-5,0,-19,-2,-2,-12,-13,-13,-13,-8,-4,0,-14,-13,-13,-9,-1,-6,-14,-15,-2,-9,-12,-3,-10,0,-7,-7,-6,-2,0,2,6,7,5,18,18,6,11,14,54,22,27,15,12,52,54,46,48,17,7,24,10,11,11,23,17,18,16,11,16,15,11,25,40,58,46,26,9,38,16,74,75,117,87,5,9,18,18,15,9,16,15,12,14,21,30,38,37,37,207,10,36,99,341,46,40,94,101,110,29,42,56,25,48,9,45,66,30,32,20,12,13,14,20,48,46,19,69,106,41,187,45,54,32,19,9,22,41,34,19,41,33,25,25,72,17,49,88,49,88,45,91,51,64,42,42,77,42,43,21,29,24,20,4,8,21,18,18,33,34,87,27,3,163,44,135,33,50,33,42,64,30,21,26,32,52,71,72,27,31,119,6,29,44,53,85,11,27,32,11,9,15,14,8,7,36,32,33,22,19,19,18,16,41,76,19,16,23,29,44,49,50,72,67,121,57,61,43,44,37,42,53,25,20,19,15,26,19,94,49,164,22,14,51,99,49,104,53,71,44,77,57,48,16,48,71,30,40,43,38,41,25,22,61,39,27,72,44,25,22,26,22,52,69,60,72,38,47,52,50,21,14,46,57,37,43,31,27,27,34,34,43,37,35,49,66,45,36,107,58,45,19,23,16,26,25,43,69,38,86,166,196,200,156,68,232,231,136,118,21,31,59,47,54,58,51,65,23,47,39,43,18,62,43,41,22,36,20,27,9,27,104,113,16,80,102,33,53,83,141,112,11,34,40,85,138,142,85,22,115,98,117,91,79,85,11,123,20,105,139,164,138,69,56,45,69,65,27,41,37,32,32,73,43,27,80,77,80,54,112,123,114,143,74,70,156,65,144,77,56,23,42,13,86,90,63,82,325],
      "delta_lng":[0,0,8,7,4,14,37,1,4,8,6,31,85,127,34,31,27,18,18,18,7,2,1,-1,-11,-16,-13,-15,-35,-32,-36,-50,-206,-173,-58,-30,-23,-31,-33,-64,-53,-26,-36,-44,-32,-57,-123,-85,-34,-33,-26,-130,-36,-160,-55,-142,-126,-117,-59,-62,-37,-29,-233,-15,-21,-95,-115,-96,-46,-70,-41,-80,-9,-69,-66,-30,-204,-105,-33,-87,-62,-38,-54,-34,-153,-148,-95,-43,-36,-80,-130,-231,-45,-26,-42,-117,-69,-57,-207,-320,-157,-122,-89,-38,-45,-189,-58,-158,-26,-157,-131,-102,-31,-67,-92,-522,-239,-129,-231,-41,-45,-47,-51,-46,-39,-44,-59,-60,-51,-37,-117,-76,-23,-30,-12,-77,-82,-9,-49,-64,-69,-45,-23,-93,-48,-52,-76,-48,-50,-89,-55,-57,-45,-148,-45,-14,-55,-79,-52,-29,-46,-93,-15,-138,-115,-104,-19,-104,-14,-141,-62,-66,-19,-139,-8,-10,-97,-85,-54,-17,-165,-91,-143,-18,-113,-15,-47,-15,-169,-34,-70,-169,-113,-96,-50,-25,-123,-97,-155,-129,-77,-21,-9,-95,-60,-25,-43,-154,-17,-13,-14,-83,-81,-51,-53,-28,-65,-61,-61,-51,-49,-55,-57,-37,-46,-46,-66,-52,-108,-35,-32,-60,-68,-53,-60,-30,-53,-67,-72,-115,-124,-39,-35,-53,-104,-47,-60,-43,-47,-2,-178,-2,-42,-96,-120,-126,-119,-71,-24,-31,-121,-124,-124,-83,-17,-39,-125,-125,-43,-77,-116,-16,-87,0,-71,-50,-63,-45,-68,-21,-68,-40,-34,-79,-65,-16,-33,-34,-124,-53,-58,-36,-28,-123,-112,-114,-112,-39,-18,-54,-39,-39,-34,-40,-24,-25,-22,-13,-24,-24,-33,-82,-116,-138,-103,-64,-24,-89,-38,-168,-173,-267,-199,-14,-18,-30,-31,-26,-14,-25,-21,-18,-16,-26,-34,-44,-41,-43,-242,-12,-41,-115,-398,-53,-46,-107,-121,-127,-35,-49,-61,-29,-51,-7,-49,-74,-32,-39,-19,-12,-12,-11,-9,-14,-15,0,5,8,4,10,4,1,3,2,3,9,16,17,9,23,17,13,17,44,10,31,54,31,54,27,55,33,38,28,24,47,25,23,11,14,12,9,1,3,6,4,4,3,2,-3,-1,0,-11,-3,-7,-3,-3,-3,-4,-3,-4,1,3,3,8,11,9,4,5,22,1,3,2,4,4,-1,-2,-5,-2,-2,-5,-3,-3,-3,-16,-20,-22,-17,-16,-18,-19,-16,-46,-88,-20,-19,-28,-34,-48,-58,-55,-82,-78,-136,-64,-67,-50,-49,-45,-48,-59,-30,-21,-22,-17,-29,-21,-106,-55,-183,-26,-14,-58,-114,-54,-116,-60,-79,-48,-86,-63,-53,-17,-54,-80,-33,-48,-49,-44,-47,-30,-23,-71,-46,-30,-80,-47,-28,-24,-28,-26,-58,-77,-65,-83,-42,-52,-57,-57,-25,-15,-53,-65,-42,-51,-34,-31,-32,-38,-38,-49,-41,-42,-55,-77,-50,-42,-120,-68,-50,-17,-19,-12,-18,-16,-26,-44,-27,-50,-106,-121,-125,-98,-43,-143,-143,-84,-76,-10,-17,-23,-13,-8,-4,3,10,3,11,12,21,7,34,28,35,25,41,27,37,13,35,139,146,21,103,137,43,69,111,186,144,16,44,54,111,173,188,110,29,150,127,154,120,102,110,15,161,27,137,187,218,179,89,73,61,91,84,33,57,53,42,40,94,57,37,108,98,108,69,149,158,146,187,96,92,203,86,185,102,67,22,29,7,45,48,30,41,152]
    }
  ]
}