{
  "code":23001,
  "name":"京成本線",
  "color":"#005AAA",
  "symbol":"KS",
  "station_list":[
    {"code":2300101,"id":"447730","name":"京成上野","name_kana":"けいせいうえの","lat":35.711232,"lng":139.773571,"prefecture":13,"numbering":[{"index":"01"}],"lines":[23001,23006],"attr":"heat","postal_code":"110-0007","address":"東京都台東区上野公園1-60"},
    {"code":2300145,"id":"fb774c","name":"博物館動物園","name_kana":"はくぶつかんどうぶつえん","closed":true,"lat":35.718642,"lng":139.773474,"prefecture":13,"lines":[23001],"attr":"unknown","postal_code":"110-0007","address":"東京都台東区上野公園１３−２３"},
    {"code":1130218,"id":"84218b","name":"日暮里","name_kana":"にっぽり","lat":35.727908,"lng":139.771287,"prefecture":13,"numbering":[{"index":"02"}],"lines":[11302,11320,11332,23001,23006,99342],"attr":"heat","postal_code":"116-0013","address":"東京都荒川区西日暮里二丁目19-1"},
    {"code":2300103,"id":"062c62","name":"新三河島","name_kana":"しんみかわしま","lat":35.73714,"lng":139.773834,"prefecture":13,"numbering":[{"index":"03"}],"lines":[23001],"attr":"heat","postal_code":"116-0013","address":"荒川区西日暮里６-２-１"},
    {"code":2300104,"id":"a537fe","name":"町屋","name_kana":"まちや","lat":35.742354,"lng":139.781499,"prefecture":13,"numbering":[{"index":"04"}],"lines":[23001,28005],"attr":"heat","postal_code":"116-0001","address":"荒川区町屋１丁目"},
    {"code":2300144,"id":"024cd8","name":"西千住","name_kana":"にしせんじゅ","closed":true,"lat":35.744336,"lng":139.793168,"prefecture":13,"lines":[23001],"attr":"unknown","postal_code":"120-0044","address":"東京都足立区１２ 千住緑町２丁目１５−３"},
    {"code":2300105,"id":"59da0a","name":"千住大橋","name_kana":"せんじゅおおはし","lat":35.74243,"lng":139.796934,"prefecture":13,"numbering":[{"index":"05"}],"lines":[23001],"attr":"eco","postal_code":"120-0038","address":"足立区千住橋戸町１１-１"},
    {"code":2300106,"id":"2fa681","name":"京成関屋","name_kana":"けいせいせきや","lat":35.744008,"lng":139.81183,"prefecture":13,"numbering":[{"index":"06"}],"lines":[23001],"attr":"eco","postal_code":"120-0023","address":"足立区千住曙町２-２"},
    {"code":2300107,"id":"45ef17","name":"堀切菖蒲園","name_kana":"ほりきりしょうぶえん","lat":35.747649,"lng":139.827545,"prefecture":13,"numbering":[{"index":"07"}],"lines":[23001],"attr":"eco","postal_code":"124-0006","address":"葛飾区堀切５-１-１"},
    {"code":2300108,"id":"2aeb93","name":"お花茶屋","name_kana":"おはなぢゃや","lat":35.747585,"lng":139.83988,"prefecture":13,"numbering":[{"index":"08"}],"lines":[23001],"attr":"cool","postal_code":"124-0005","address":"葛飾区宝町２-３７-１"},
    {"code":2300109,"id":"5f4d37","name":"青砥","name_kana":"あおと","lat":35.745883,"lng":139.856292,"prefecture":13,"numbering":[{"index":"09"}],"lines":[23001,23002,23006],"attr":"cool","postal_code":"125-0062","address":"東京都葛飾区青戸三丁目36番1号"},
    {"code":2300110,"id":"74a83b","name":"京成高砂","name_kana":"けいせいたかさご","lat":35.750932,"lng":139.866875,"prefecture":13,"numbering":[{"index":"10"}],"lines":[23001,23002,23003,23006,99340],"attr":"cool","postal_code":"125-0054","address":"東京都葛飾区高砂五丁目28-1"},
    {"code":2300111,"id":"31292c","name":"京成小岩","name_kana":"けいせいこいわ","lat":35.742158,"lng":139.88371,"prefecture":13,"numbering":[{"index":"11"}],"lines":[23001],"attr":"cool","postal_code":"133-0051","address":"江戸川区北小岩２-１０-９"},
    {"code":2300112,"id":"0e0bda","name":"江戸川","name_kana":"えどがわ","lat":35.737723,"lng":139.896226,"prefecture":13,"numbering":[{"index":"12"}],"lines":[23001],"attr":"cool","postal_code":"133-0051","address":"江戸川区北小岩３-２４-１５"},
    {"code":2300113,"id":"b540aa","name":"国府台","name_kana":"こうのだい","lat":35.736301,"lng":139.90322,"prefecture":12,"numbering":[{"index":"13"}],"lines":[23001],"attr":"heat","postal_code":"272-0034","address":"市川市市川３-３０-１"},
    {"code":2300114,"id":"a8aaf1","name":"市川真間","name_kana":"いちかわまま","lat":35.73121,"lng":139.911717,"prefecture":12,"numbering":[{"index":"14"}],"lines":[23001],"attr":"heat","postal_code":"272-0826","address":"市川市真間１-１１-１"},
    {"code":2300115,"id":"ff3d26","name":"菅野","name_kana":"すがの","lat":35.728272,"lng":139.919413,"prefecture":12,"numbering":[{"index":"15"}],"lines":[23001],"attr":"heat","postal_code":"272-0824","address":"市川市菅野２-７-１"},
    {"code":2300116,"id":"15f601","name":"京成八幡","name_kana":"けいせいやわた","lat":35.723811,"lng":139.92816,"prefecture":12,"numbering":[{"index":"16"}],"lines":[23001],"attr":"heat","postal_code":"272-0021","address":"市川市八幡３-２-１"},
    {"code":2300117,"id":"cd31da","name":"鬼越","name_kana":"おにごえ","lat":35.719776,"lng":139.937932,"prefecture":12,"numbering":[{"index":"17"}],"lines":[23001],"attr":"heat","postal_code":"272-0022","address":"市川市鬼越１-４-５"},
    {"code":2300118,"id":"ee6ab3","name":"京成中山","name_kana":"けいせいなかやま","lat":35.716998,"lng":139.944203,"prefecture":12,"numbering":[{"index":"18"}],"lines":[23001],"attr":"heat","postal_code":"273-0035","address":"船橋市本中山１-９-１"},
    {"code":2300119,"id":"0d99e9","name":"東中山","name_kana":"ひがしなかやま","lat":35.714385,"lng":139.952683,"prefecture":12,"numbering":[{"index":"19"}],"lines":[23001],"attr":"heat","postal_code":"273-0036","address":"船橋市東中山２-２-２２"},
    {"code":2300120,"id":"289900","name":"京成西船","name_kana":"けいせいにしふな","lat":35.711627,"lng":139.958863,"prefecture":12,"numbering":[{"index":"20"}],"lines":[23001],"attr":"heat","postal_code":"273-0031","address":"船橋市西船４-１５-２７"},
    {"code":2300121,"id":"e70822","name":"海神","name_kana":"かいじん","lat":35.705888,"lng":139.971888,"prefecture":12,"numbering":[{"index":"21"}],"lines":[23001],"attr":"heat","postal_code":"273-0021","address":"船橋市海神５-１-２２"},
    {"code":2300122,"id":"34aa3a","name":"京成船橋","name_kana":"けいせいふなばし","lat":35.700161,"lng":139.985451,"prefecture":12,"numbering":[{"index":"22"}],"lines":[23001],"attr":"heat","postal_code":"273-0005","address":"船橋市本町１-５-１"},
    {"code":2300123,"id":"276f3d","name":"大神宮下","name_kana":"だいじんぐうした","lat":35.693945,"lng":139.991431,"prefecture":12,"numbering":[{"index":"23"}],"lines":[23001],"attr":"heat","postal_code":"273-0003","address":"船橋市宮本２-９-９"},
    {"code":2300124,"id":"999f13","name":"船橋競馬場","name_kana":"ふなばしけいばじょう","lat":35.689606,"lng":139.997998,"prefecture":12,"numbering":[{"index":"24"}],"lines":[23001],"attr":"heat","postal_code":"273-0003","address":"船橋市宮本８-４２-１"},
    {"code":2300125,"id":"1729dc","name":"谷津","name_kana":"やつ","lat":35.685257,"lng":140.007658,"prefecture":12,"numbering":[{"index":"25"}],"lines":[23001],"attr":"heat","postal_code":"275-0026","address":"習志野市谷津５-４-５"},
    {"code":2300126,"id":"28818e","name":"京成津田沼","name_kana":"けいせいつだぬま","lat":35.68364,"lng":140.024823,"prefecture":12,"numbering":[{"index":"26"}],"lines":[23001,23004,99329],"attr":"heat","postal_code":"275-0016","address":"習志野市津田沼３-１-１"},
    {"code":2300127,"id":"ea62e9","name":"京成大久保","name_kana":"けいせいおおくぼ","lat":35.686016,"lng":140.048629,"prefecture":12,"numbering":[{"index":"27"}],"lines":[23001],"attr":"heat","postal_code":"275-0012","address":"習志野市本大久保３-１０-１"},
    {"code":2300128,"id":"71d2e2","name":"実籾","name_kana":"みもみ","lat":35.686852,"lng":140.068289,"prefecture":12,"numbering":[{"index":"28"}],"lines":[23001],"attr":"heat","postal_code":"275-0002","address":"習志野市実籾町１-１-１"},
    {"code":2300129,"id":"8ee0a2","name":"八千代台","name_kana":"やちよだい","lat":35.701465,"lng":140.090942,"prefecture":12,"numbering":[{"index":"29"}],"lines":[23001],"attr":"eco","postal_code":"276-0031","address":"八千代市八千代台北１"},
    {"code":2300130,"id":"2e73f3","name":"京成大和田","name_kana":"けいせいおおわだ","lat":35.712309,"lng":140.108578,"prefecture":12,"numbering":[{"index":"30"}],"lines":[23001],"attr":"eco","postal_code":"276-0045","address":"八千代市大和田字小板橋３０８"},
    {"code":2300131,"id":"e9d73a","name":"勝田台","name_kana":"かつただい","lat":35.715445,"lng":140.126053,"prefecture":12,"numbering":[{"index":"31"}],"lines":[23001],"attr":"eco","postal_code":"276-0023","address":"八千代市勝田台１-８-１"},
    {"code":2300132,"id":"6fd8c3","name":"志津","name_kana":"しづ","lat":35.717406,"lng":140.144982,"prefecture":12,"numbering":[{"index":"32"}],"lines":[23001],"attr":"eco","postal_code":"285-0846","address":"佐倉市上志津１６６９"},
    {"code":2300133,"id":"5d976d","name":"ユーカリが丘","name_kana":"ゆーかりがおか","lat":35.721801,"lng":140.156354,"prefecture":12,"numbering":[{"index":"33"}],"lines":[23001,99313],"attr":"eco","postal_code":"285-0858","address":"佐倉市ユーカリが丘４-８-２"},
    {"code":2300134,"id":"1cd2de","name":"京成臼井","name_kana":"けいせいうすい","lat":35.730017,"lng":140.180796,"prefecture":12,"numbering":[{"index":"34"}],"lines":[23001],"attr":"cool","postal_code":"285-0837","address":"佐倉市王子台３-３０-３"},
    {"code":2300135,"id":"98ff24","name":"京成佐倉","name_kana":"けいせいさくら","lat":35.725205,"lng":140.229633,"prefecture":12,"numbering":[{"index":"35"}],"lines":[23001],"attr":"cool","postal_code":"285-0014","address":"佐倉市栄町１００１-５"},
    {"code":2300136,"id":"bad671","name":"大佐倉","name_kana":"おおさくら","lat":35.729908,"lng":140.25079,"prefecture":12,"numbering":[{"index":"36"}],"lines":[23001],"attr":"cool","postal_code":"285-0041","address":"佐倉市大佐倉松山２７７"},
    {"code":2300137,"id":"3aad37","name":"京成酒々井","name_kana":"けいせいしすい","lat":35.736867,"lng":140.270132,"prefecture":12,"numbering":[{"index":"37"}],"lines":[23001],"attr":"cool","postal_code":"285-0921","address":"印旛郡酒々井町中川５６０-１"},
    {"code":2300138,"id":"fc3e36","name":"宗吾参道","name_kana":"そうごさんどう","lat":35.752669,"lng":140.280975,"prefecture":12,"numbering":[{"index":"38"}],"lines":[23001],"attr":"cool","postal_code":"285-0907","address":"印旛郡酒々井町下岩橋字仲田４３２-３"},
    {"code":2300139,"id":"051874","name":"公津の杜","name_kana":"こうづのもり","lat":35.760446,"lng":140.294904,"prefecture":12,"numbering":[{"index":"39"}],"lines":[23001],"attr":"cool","postal_code":"286-0048","address":"成田市公津の杜４-１１-２"},
    {"code":2300140,"id":"056004","name":"京成成田","name_kana":"けいせいなりた","lat":35.776308,"lng":140.315473,"prefecture":12,"numbering":[{"index":"40"}],"lines":[23001],"attr":"cool","postal_code":"286-0033","address":"成田市花崎町８１４"},
    {"code":2300141,"id":"579aa2","name":"東成田","name_kana":"ひがしなりた","lat":35.770091,"lng":140.387225,"prefecture":12,"numbering":[{"index":"44"}],"lines":[23001,99324],"attr":"cool","postal_code":"286-0104","address":"成田市古込字込前１２４"},
    {"code":1132813,"id":"c54383","name":"空港第２ビル（成田第２・第３ターミナル）","name_kana":"くうこうだいにびる（なりただいに・だいさんたーみなる）","lat":35.773327,"lng":140.387871,"prefecture":12,"numbering":[{"index":"41"}],"lines":[11327,11328,23001,23006],"attr":"cool","postal_code":"282-0004","address":"千葉県成田市古込字古込1-1"},
    {"code":1132705,"id":"4b73cf","name":"成田空港（成田第１ターミナル）","name_kana":"なりたくうこう（なりただいいちたーみなる）","lat":35.763983,"lng":140.384644,"prefecture":12,"numbering":[{"index":"42"}],"lines":[11327,11328,23001,23006],"attr":"cool","postal_code":"282-0011","address":"千葉県成田市三里塚御料牧場1-1"}
  ],
  "north":35.77902,
  "south":35.68077,
  "east":140.38896,
  "west":139.7686,
  "polyline_list":[
    {
      "start":"東成田",
      "end":"駒井野信号所",
      "lat":35.76902,
      "lng":140.38774,
      "delta_lat":[0,134,83,78,72,47,34,24,43,36,38,35,39,17],
      "delta_lng":[0,-98,-64,-58,-58,-36,-37,-34,-86,-86,-122,-112,-131,-46]
    },
    {
      "start":"駒井野信号所",
      "end":"成田空港",
      "lat":35.77581,
      "lng":140.37806,
      "delta_lat":[0,2,3,4,4,16,19,17,36,33,29,18,9,7,1,-5,-9,-16,-16,-65,-11,-34,-39,-43,-38,-12,-40,-37,-236,-35,-27,-20,-34,-38,-23,-28,-146,-47,-87,-242],
      "delta_lng":[0,43,29,37,16,39,42,28,47,48,41,35,34,24,39,33,40,34,34,47,8,27,25,29,25,8,32,26,170,19,17,8,2,4,-4,-9,-83,-30,-60,-159]
    },
    {
      "start":"京成上野",
      "end":"駒井野信号所",
      "lat":35.71081,
      "lng":139.77362,
      "delta_lat":[0,100,103,65,21,24,47,141,60,48,55,38,92,48,26,24,39,73,67,33,78,42,34,15,16,16,10,9,20,18,19,20,22,21,22,71,81,49,87,19,19,19,28,43,9,71,16,43,101,40,33,29,29,27,25,24,28,83,169,3,35,27,5,5,63,118,36,46,103,59,7,44,23,13,16,23,13,18,26,3,4,3,33,18,29,7,1,-10,-20,-17,-28,-92,-26,-21,-2,-28,-3,-36,-10,-1,4,9,40,32,15,12,2,9,6,5,24,5,32,11,1,3,6,0,7,7,3,2,4,8,4,12,21,53,88,100,36,7,5,2,4,1,6,0,2,0,1,1,0,1,4,3,3,5,3,-1,-17,-14,-2,-4,-48,-16,-11,-28,-32,-24,-92,-63,-2,1,12,20,32,28,7,110,6,108,34,18,19,21,201,27,5,2,7,2,6,0,1,-9,-12,-12,-9,-12,-56,-45,-38,-88,-136,-33,-130,-33,-130,-16,-21,-58,-80,-25,-126,-19,-20,-11,-10,-33,-18,-63,-6,-43,-6,-2,-15,-6,-6,-3,-81,-40,-4,-27,-3,-6,-18,-11,-10,-4,-10,-12,-18,-11,-9,-68,-22,-46,-16,-36,-97,-58,-22,-30,-15,-28,-39,-6,-48,-19,-28,-34,-23,-17,-51,-6,-119,-75,-55,-14,-65,-29,-29,-49,-11,-43,-40,-20,-9,-6,-16,-11,-5,-27,-14,-13,-26,-5,-14,-33,-56,-9,-5,-43,-32,-47,-59,-90,-7,-3,-44,-11,-10,-5,-18,-18,-16,-7,-24,-53,-53,-4,-24,-48,-15,-52,-72,-51,-46,-27,-19,-6,-2,-20,-8,-2,-15,-9,-34,-33,-126,-157,-57,-16,-47,-4,-58,-19,-14,-11,-8,-5,-16,-6,-10,-6,-22,-7,-9,-15,-17,-31,-34,-40,-29,-46,-26,-24,-13,-13,-32,-54,-4,-2,-5,-3,1,3,2,6,32,7,24,14,13,2,0,-6,-6,-6,-9,-9,-9,-20,-15,-9,-11,-19,-13,-15,-12,-16,-19,-26,-21,-59,-56,-63,-116,-30,-35,-29,-31,-34,-30,-17,-38,-16,-26,-16,-115,-114,-17,-14,-18,-13,-34,-52,-13,-41,-66,-5,-108,-76,-26,-12,-7,-35,-20,-11,-13,-1,-2,0,0,0,0,0,-9,-18,-4,-9,-14,-6,-30,-6,-39,-28,-3,-86,-66,-23,-12,-9,0,2,2,7,10,43,54,52,141,7,6,42,86,25,14,12,9,5,-1,0,-1,1,-1,-1,0,0,0,5,10,9,21,36,25,6,92,38,27,5,1,12,9,9,26,29,232,147,11,11,115,105,13,83,72,63,111,28,147,93,207,188,47,103,44,32,40,65,31,29,63,7,18,33,57,17,25,25,46,101,9,25,8,9,7,5,9,5,12,7,25,16,3,2,8,7,0,9,5,16,3,5,2,2,0,50,8,1,4,11,0,3,7,3,1,0,11,4,3,6,1,2,2,5,7,13,0,9,10,6,4,4,13,8,8,14,2,24,11,21,15,10,11,31,32,48,34,2,25,16,20,7,11,4,5,9,17,9,17,26,9,4,7,10,6,18,9,6,7,2,3,9,34,6,21,31,4,7,9,8,8,8,15,14,19,20,9,8,12,21,9,7,31,21,9,8,6,33,18,31,48,33,51,19,52,48,101,38,42,16,20,13,11,3,9,65,72,11,11,13,2,13,56,36,6,15,14,15,18,7,10,6,1,12,33,2,2,14,4,6,109,11,96,5,31,25,2,0,-3,-8,-7,-9,-31,-38,-222,-31,-18,-6,-46,-7,-59,-21,-42,-30,-25,-23,-109,-47,-51,-23,-22,-26,-27,-18,-24,-30,-35,-32,-85,0,-14,-25,-14,-17,-19,-26,-44,0,-41,-27,-10,-7,-5,-8,-5,-2,0,2,0,0,4,2,7,5,2,1,0,1,5,6,14,3,5,5,4,8,0,0,2,2,4,1,0,2,2,6,0,7,5,13,13,7,26,10,13,33,2,68,63,31,38,47,30,4,86,30,18,77,72,31,4,47,63,29,16,15,21,28,18,32,45,95,37,38,44,45,33,39,68,88,93,27,42,127,47,70,65,44,30,65,145,112,197,79,50,55,40,35,90,6,33,2,7,52,6,33,17,7,14,12,9,23,28,47,15,90,20,31,13,24,21,8,10,10,8,32,54,28,46,44,70,62,18,15,10,2,15,10,2,15,23,23,6,12,15,31,22,43,18,54,11,14,3,21,2,11,4,16,14,148,25,22,6,5,4,16,9,12,15,6,3,7,2,6,0,12,13,16,35,40,45,37,25,10,54,26,10,70,1,26,2,3,1,15,88,28,0,8,1,1,22,23,28,27,26,15,18,2,14,3,4,8,2,1,-2,-3,-6,-9,-7,-1,-17,-31,-53,-1,-43,-35,-16,-12,-15,-4,-17,-7,-27,-10,-2,-17,-1,-16,-1,-5,-5,-7,-9,-3,-15,-11,-2,-10,-17,-11,-5,-6,-5,-9,-4,-5,-2,-2,-5,-2,-2,-5,-2,3,3,5,6,6,3,8,1,7,1,3,5,0,1,1,-1,3,1,3,-1,5,8,2,5,4,1,2,0,12,-1,10,-1,3,9,0,4,4,7,9,0,3,11,13,9,11,4,55,5,12,2,7,5,0,1,45,21,22,7,15,7,3,4,4,1,-5,-2,-2,-10,-82,-8,-11,-2,-20,-15,-2,-68],
      "delta_lng":[0,-22,-35,-9,4,10,13,-63,-26,-9,9,20,96,47,19,14,6,-36,-35,2,26,19,23,11,10,10,6,3,9,5,4,0,-5,-14,-21,-82,-98,-58,-107,-22,-22,-21,-28,-34,-8,-43,-7,-21,-36,-4,-2,2,5,13,13,25,38,125,263,4,58,45,11,5,104,198,56,67,136,72,8,57,32,25,33,62,51,117,98,26,170,27,102,59,102,47,42,54,77,40,45,155,66,59,6,89,10,116,58,58,42,44,109,98,72,100,24,101,31,29,125,27,182,73,5,38,37,16,82,73,22,20,15,30,15,35,59,149,258,286,107,30,30,27,86,25,165,32,15,97,76,46,40,24,190,109,131,240,126,28,132,89,11,33,293,85,56,154,155,86,251,169,36,34,55,47,60,21,6,83,5,88,31,22,33,54,554,76,20,21,174,22,108,43,26,73,43,60,31,23,73,58,48,129,199,50,191,47,191,23,31,89,114,39,189,31,45,35,28,118,69,261,31,199,33,10,79,27,33,13,406,200,18,144,18,28,94,43,44,14,29,25,33,16,12,70,22,47,16,33,95,57,32,48,31,66,105,20,140,57,82,86,58,38,109,14,246,161,115,27,130,46,46,75,21,69,64,30,17,15,44,45,25,153,73,40,59,10,29,65,103,16,11,87,63,98,142,224,17,9,110,25,26,11,46,52,56,21,88,189,196,14,93,176,45,103,122,85,86,48,44,17,16,263,68,25,41,26,58,50,197,248,90,26,69,10,90,34,28,30,27,24,102,38,66,31,72,18,16,20,21,30,24,23,19,31,26,30,27,29,103,174,23,13,32,19,19,17,5,19,87,29,86,45,68,19,42,68,45,30,33,27,15,24,14,7,6,10,4,5,3,2,0,-1,-5,-13,-12,-15,-27,-3,4,9,9,18,18,14,29,18,31,22,201,206,29,29,35,29,87,171,41,114,131,9,203,141,45,24,14,72,54,46,102,42,61,379,49,206,177,58,111,103,21,48,75,30,147,32,97,55,6,138,109,35,50,53,39,26,17,34,46,150,171,126,278,13,12,84,169,63,39,60,82,115,128,18,114,155,161,239,265,230,243,80,93,50,122,186,134,33,474,202,138,24,3,33,21,15,33,29,208,133,8,11,101,98,9,75,67,78,134,35,182,116,257,232,57,127,58,46,67,133,64,58,130,14,45,74,136,39,64,65,124,258,27,73,25,34,39,45,74,35,118,94,273,153,53,21,74,70,14,71,48,160,40,46,16,10,10,460,76,27,22,98,8,26,61,29,13,6,95,33,39,40,9,24,27,38,62,131,2,82,101,56,49,33,80,27,29,41,5,54,22,40,22,15,17,41,42,67,52,5,56,50,87,27,48,14,26,31,73,41,70,106,39,18,34,46,30,76,31,27,26,11,14,36,140,24,99,136,18,25,43,29,39,32,63,61,76,90,37,35,54,85,36,32,124,86,41,30,27,138,62,55,76,42,52,17,51,47,99,37,40,17,19,13,10,4,8,64,70,10,13,10,3,11,52,37,9,21,21,25,43,15,34,18,7,40,124,7,9,56,15,20,411,47,358,18,122,97,30,35,35,29,20,23,57,71,397,55,31,15,79,14,100,31,53,25,19,18,90,36,41,21,20,29,37,39,64,80,89,81,218,2,38,63,33,34,41,58,90,1,88,58,28,23,17,29,24,23,20,39,34,11,52,47,172,100,32,7,7,13,54,26,77,20,30,56,102,248,8,6,63,96,112,46,31,53,26,45,3,39,23,45,43,17,68,20,26,55,3,80,87,44,68,91,60,7,164,66,65,307,287,125,16,189,249,115,63,42,40,38,19,31,45,94,35,30,28,22,15,12,19,25,28,9,18,61,23,36,40,26,23,60,143,113,200,80,50,46,34,26,65,4,32,3,6,54,8,37,25,6,25,22,20,55,87,149,49,293,61,98,38,83,74,29,30,23,16,37,75,32,50,38,55,55,17,15,14,5,20,18,5,32,62,87,20,19,23,31,18,41,16,48,11,14,1,21,2,10,4,14,14,135,25,25,10,11,9,60,25,27,38,7,8,13,5,8,1,20,19,20,36,36,36,35,27,10,62,29,13,87,3,29,6,3,4,17,131,39,2,10,3,0,33,33,38,39,40,31,42,7,39,14,15,47,31,56,34,28,37,34,24,3,44,69,111,1,88,74,35,27,33,10,38,18,70,27,7,48,9,43,11,15,12,26,34,11,51,45,8,46,75,60,25,38,26,64,37,49,3,38,60,14,32,145,80,56,55,86,98,81,40,107,9,94,4,32,52,6,6,2,4,28,19,20,7,49,81,24,48,60,4,29,9,117,11,96,2,30,99,6,50,32,79,60,3,17,48,56,45,42,15,207,22,38,8,23,13,7,1,149,74,79,34,63,41,29,52,75,41,81,40,36,92,268,23,32,1,63,40,9,199]
    }
  ]
}