{
  "code":23002,
  "name":"京成押上線",
  "color":"#005AAA",
  "symbol":"KS",
  "station_list":[
    {"code":2300201,"id":"ed5340","name":"押上（スカイツリー前）","name_kana":"おしあげ","lat":35.710702,"lng":139.812935,"prefecture":13,"numbering":[{"index":"45"}],"lines":[23002,99302,21002,28008],"attr":"heat","postal_code":"131-0045","address":"墨田区押上一丁目"},
    {"code":2300202,"id":"0411d3","name":"京成曳舟","name_kana":"けいせいひきふね","lat":35.718441,"lng":139.820012,"prefecture":13,"numbering":[{"index":"46"}],"lines":[23002],"attr":"heat","postal_code":"131-0046","address":"墨田区京島１-３９-１"},
    {"code":2300203,"id":"7279d1","name":"八広","name_kana":"やひろ","lat":35.727687,"lng":139.828738,"prefecture":13,"numbering":[{"index":"47"}],"lines":[23002],"attr":"heat","postal_code":"131-0041","address":"墨田区八広６-２５-２０"},
    {"code":2300204,"id":"005b38","name":"四ツ木","name_kana":"よつぎ","lat":35.731962,"lng":139.834918,"prefecture":13,"numbering":[{"index":"48"}],"lines":[23002],"attr":"heat","postal_code":"124-0011","address":"葛飾区四つ木１-１-１"},
    {"code":2300205,"id":"8c3f27","name":"京成立石","name_kana":"けいせいたていし","lat":35.738281,"lng":139.848558,"prefecture":13,"numbering":[{"index":"49"}],"lines":[23002],"attr":"cool","postal_code":"124-0012","address":"葛飾区立石４-２４-１"},
    {"code":2300109,"id":"5f4d37","name":"青砥","name_kana":"あおと","lat":35.745883,"lng":139.856292,"prefecture":13,"numbering":[{"index":"09"}],"lines":[23001,23002,23006],"attr":"cool","postal_code":"125-0062","address":"東京都葛飾区青戸三丁目36番1号"},
    {"code":2300110,"id":"74a83b","name":"京成高砂","name_kana":"けいせいたかさご","lat":35.750932,"lng":139.866875,"prefecture":13,"numbering":[{"index":"10"}],"lines":[23001,23002,23003,23006,99340],"attr":"cool","postal_code":"125-0054","address":"東京都葛飾区高砂五丁目28-1"}
  ],
  "north":35.74642,
  "south":35.70972,
  "east":139.85669,
  "west":139.81158,
  "polyline_list":[
    {
      "start":"押上",
      "end":"青砥",
      "lat":35.70972,
      "lng":139.81158,
      "delta_lat":[0,101,67,45,26,59,39,179,23,99,72,28,11,8,13,65,6,104,22,85,13,31,52,114,21,228,145,23,15,55,53,34,8,140,171,91,104,14,47,141,76,0,44,37,29,19,12,7,15,7,24,11,30,20,9,7,20,22,25,9,69,71,356,55,28,7,110],
      "delta_lng":[0,166,97,55,32,53,28,109,13,62,43,25,11,9,14,80,7,131,27,101,12,31,44,98,17,199,125,20,12,48,62,37,11,206,255,135,151,20,71,206,107,1,65,68,64,56,48,28,82,38,134,62,164,81,27,22,37,30,25,7,54,56,278,43,21,6,83]
    }
  ]
}