{
  "code":23006,
  "id":"c8468c",
  "name":"京成成田空港線(成田スカイアクセス)",
  "name_kana":"けいせいなりたくうこうせん(なりたすかいあくせす)",
  "name_formal":"京成成田空港線",
  "station_size":11,
  "company_code":13,
  "color":"#FF8620",
  "symbol":"KS",
  "station_list":[
    {"code":2300101,"id":"447730","name":"京成上野","name_kana":"けいせいうえの","lat":35.711232,"lng":139.773571,"prefecture":13,"numbering":[{"index":"01"}],"lines":[23001,23006],"attr":"heat","postal_code":"110-0007","address":"東京都台東区上野公園1-60","open_date":"1933-12-10","next":[9934601,2800508,100402,9934602,9930110,2800105],"voronoi":{"lat":35.709747,"lng":139.771736,"delta_lat":[0,1550,2975,560,-4581,-822],"delta_lng":[0,-1267,2378,751,3375,-3608]}},
    {"code":1130218,"id":"84218b","name":"日暮里","name_kana":"にっぽり","lat":35.727908,"lng":139.771287,"prefecture":13,"numbering":[{"index":"02"}],"lines":[11302,11320,11332,23001,23006,99342],"attr":"heat","postal_code":"116-0013","address":"東京都荒川区西日暮里二丁目19-1","open_date":"1905-04-01","next":[2300145,2800507,1130217,2300103,1130219,1132003,2800506],"voronoi":{"lat":35.722445,"lng":139.768862,"delta_lat":[0,1109,3855,5157,205,-5115,-4994],"delta_lng":[0,4699,3681,-4831,-745,-4672,1464]}},
    {"code":2300109,"id":"5f4d37","name":"青砥","name_kana":"あおと","lat":35.745883,"lng":139.856292,"prefecture":13,"numbering":[{"index":"09"}],"lines":[23001,23002,23006],"attr":"cool","postal_code":"125-0062","address":"東京都葛飾区青戸三丁目36番1号","open_date":"1928-11-01","next":[2300110,2300108,1131326,1132007,2300205,1131325],"voronoi":{"lat":35.731681,"lng":139.862649,"delta_lat":[0,14839,8420,3350,-22039,-4440],"delta_lng":[0,-14585,873,7932,10515,-2211]}},
    {"code":2300110,"id":"74a83b","name":"京成高砂","name_kana":"けいせいたかさご","lat":35.750932,"lng":139.866875,"prefecture":13,"numbering":[{"index":"10"}],"lines":[23001,23002,23003,23006,99340],"attr":"cool","postal_code":"125-0054","address":"東京都葛飾区高砂五丁目28-1","next":[2300109,1132007,9934002,2300302,2300303,1131326,2300111],"voronoi":{"lat":35.750393,"lng":139.873129,"delta_lat":[0,9663,1477,-3243,-22039,3797,2441],"delta_lng":[0,-6267,-7374,-2620,10515,4522,1273]}},
    {"code":1130521,"id":"9f5c62","name":"東松戸","name_kana":"ひがしまつど","lat":35.770611,"lng":139.943848,"prefecture":12,"numbering":[{"symbol":"HS","index":"05"}],"lines":[11305,23006,99340],"attr":"eco","postal_code":"270-2221","address":"千葉県松戸市紙敷","open_date":"1991-03-31","next":[9932921,1130520,1130522,9934007,9932920,9934005],"voronoi":{"lat":35.777497,"lng":139.933424,"delta_lat":[0,2131,2347,936,-17107,-6135],"delta_lng":[0,2777,7518,3673,5869,-12621]}},
    {"code":2100430,"id":"a3a320","name":"新鎌ヶ谷","name_kana":"しんかまがや","lat":35.780221,"lng":139.999455,"prefecture":12,"numbering":[{"symbol":"HS","index":"08"}],"lines":[21004,23006,99329,99340],"attr":"cool","postal_code":"273-0107","address":"千葉県鎌ケ谷市新鎌ケ谷一丁目13-1","open_date":"1991-03-31","next":[9934010,2100429,9932915,9932913],"voronoi":{"lat":35.775749,"lng":139.997137,"delta_lat":[0,11088,431,-9135],"delta_lng":[0,-4641,22361,1180]}},
    {"code":9934013,"id":"9dab05","name":"千葉ニュータウン中央","name_kana":"ちばにゅーたうんちゅうおう","lat":35.800175,"lng":140.116159,"prefecture":12,"numbering":[{"symbol":"HS","index":"12"}],"lines":[23006,99340],"attr":"eco","postal_code":"270-1340","address":"千葉県印西市中央南一丁目1390-1","open_date":"1984-03-19","next":[9931305,9933807,1132723,1132722,1132725,9934012,1132724,9934014],"voronoi":{"lat":35.812275,"lng":140.140833,"delta_lat":[0,11859,6505,-3076,-670,-62155,-2164,13482],"delta_lng":[0,-14412,-19082,-20989,-1176,20422,12583,25104]}},
    {"code":9934015,"id":"9f7692","name":"印旛日本医大","name_kana":"いんばにほんいだい","lat":35.787512,"lng":140.203112,"prefecture":12,"numbering":[{"symbol":"HS","index":"14"}],"lines":[23006,99340],"attr":"heat","postal_code":"270-1609","address":"千葉県印西市若萩一丁目1","open_date":"2000-07-22","next":[2300135,9931304,2300134,1132728,2300138,9934014,1132726,2300136,1132727],"voronoi":{"lat":35.81413,"lng":140.219449,"delta_lat":[0,-6806,-38544,-4476,-11644,10479,8717,6258,19050],"delta_lng":[0,-29207,-17137,4578,30000,24619,10532,2800,-5197]}},
    {"code":2300609,"id":"406c26","name":"成田湯川","name_kana":"なりたゆかわ","lat":35.799661,"lng":140.291084,"prefecture":12,"numbering":[{"index":"43"}],"lines":[23006],"attr":"heat","postal_code":"286-0846","address":"千葉県成田市松崎1620-1","open_date":"2010-07-17","next":[1132706,1132728,1132703,2300139,2300138],"voronoi":{"lat":35.779645,"lng":140.269854,"delta_lat":[0,54586,-26571,-27483,-1802],"delta_lng":[0,32706,18088,-26392,-18497]}},
    {"code":1132813,"id":"c54383","name":"空港第２ビル（成田第２・第３ターミナル）","name_kana":"くうこうだいにびる（なりただいに・だいさんたーみなる）","lat":35.773327,"lng":140.387871,"prefecture":12,"numbering":[{"index":"41"}],"lines":[11327,11328,23001,23006],"attr":"cool","postal_code":"282-0004","address":"千葉県成田市古込字古込1-1","open_date":"1992-12-03","next":[1132706,1132709,2300141,1132708,1132705,9932402,2300140],"voronoi":{"lat":35.83379,"lng":140.400723,"delta_lat":[0,-5073,-22383,-37512,7682,4015,13162],"delta_lng":[0,27044,37332,-63089,-38478,-11626,542]}},
    {"code":1132705,"id":"4b73cf","name":"成田空港（成田第１ターミナル）","name_kana":"なりたくうこう（なりただいいちたーみなる）","lat":35.763983,"lng":140.384644,"prefecture":12,"numbering":[{"index":"42"}],"lines":[11327,11328,23001,23006],"attr":"cool","postal_code":"282-0011","address":"千葉県成田市三里塚御料牧場1-1","open_date":"1991-03-19","next":[2300139,2300141,1132813,9932402,2300140,1131418],"voronoi":{"lat":35.763317,"lng":140.394737,"delta_lat":[0,13186,4015,-59074,-1466,-11247],"delta_lng":[0,-31204,-11626,-10526,58,16829]}}
  ],
  "north":35.80585,
  "south":35.71081,
  "east":140.38888,
  "west":139.7686,
  "polyline_list":[
    {
      "start":"印旛日本医大",
      "end":"成田空港",
      "lat":35.78744,
      "lng":140.20361,
      "delta_lat":[0,-11,-94,-52,-27,-60,-69,-73,-59,-19,-12,-6,2,6,14,27,26,46,49,68,141,159,101,35,35,58,50,51,80,205,101,30,29,31,26,50,125,59,39,21,7,7,9,3,6,10,5,2,-1,-9,-18,-25,-20,-27,-53,-34,-34,-22,-25,-25,-22,-65,-61,-82,-63,-71,-36,-35,-66,-61,-94,-65,-62,-96,-94,-158,-66,-411,-388,-197,-314,-57,-41,-38,-37,-38,-32,-87,-124,-257],
      "delta_lng":[0,69,317,225,135,356,407,420,347,145,110,125,133,136,139,150,111,152,133,165,337,373,242,87,82,137,120,133,181,489,245,87,89,110,121,225,565,280,174,103,54,69,119,155,184,586,343,464,142,127,105,142,82,94,175,114,146,116,174,253,321,648,697,848,731,732,364,238,266,189,195,137,110,126,116,168,43,311,279,120,217,48,21,2,-1,-8,-16,-59,-81,-177]
    },
    {
      "start":"京成上野",
      "end":"印旛日本医大",
      "lat":35.71081,
      "lng":139.77362,
      "delta_lat":[0,100,103,65,21,24,47,141,60,48,55,38,92,48,26,24,39,73,67,33,78,42,34,15,16,16,10,9,20,18,19,20,22,21,22,71,81,49,87,19,19,19,28,43,9,71,16,43,101,40,33,29,29,27,25,24,28,83,169,3,35,27,5,5,63,118,36,46,103,59,7,44,23,13,16,23,13,18,26,3,4,3,33,18,29,7,1,-10,-20,-17,-28,-92,-26,-21,-2,-28,-3,-36,-10,-1,4,9,40,32,15,12,2,9,6,5,24,5,32,11,1,3,6,0,7,7,3,2,4,8,4,12,21,53,88,100,36,7,5,2,4,1,6,0,2,0,1,1,0,1,4,3,3,5,3,-1,-17,-14,-2,-4,-48,-16,-11,-28,-32,-24,-92,-63,-2,1,12,20,32,28,7,110,6,108,34,18,19,21,201,27,5,2,7,2,6,0,1,-9,-12,-45,-6,-42,-28,-10,-10,-8,-7,-2,-3,-1,0,1,3,5,10,7,9,16,22,89,16,3,76,111,39,11,105,103,42,29,21,20,7,11,9,14,31,49,7,51,121,125,94,48,1,30,17,1,31,2,2,41,11,134,5,4,14,17,16,7,0,19,21,40,37,4,25,29,104,115,4,3,24,59,4,129,23,36,6,18,4,17,39,4,53,81,12,29,13,17,6,1,5,3,1,-5,-13,-13,-9,-3,-2,4,5,0,8,1,2,0,3,1,11,16,13,0,5,16,20,61,69,101,4,16,26,18,19,20,56,34,15,41,32,23,29,130,63,29,18,7,7,5,1,3,0,3,6,6,5,2,6,3,4,4,7,3,1,1,2,12,51,30,19,7,34,21,25,16,7,6,5,11,16,0,7,38,6,43,30,19,11,30,32,56,41,27,58,71,108,211,48,12,43,4,50,44,24,23,27,24,67,101,16,27,9,94,40,15,57,29,38,24,52,27,56,13,57,23,1,5,2,6,-5,-6,-8,-7,-19,-24,-68,-46,-24,-1,-15,-14,0,-22,-33,-52,-88,-112,-116,-9,-74,-116,-248,-150,-5,-106,-115,-30,-18,-60,-84,-28,-34,-81,-4,-2,-18],
      "delta_lng":[0,-22,-35,-9,4,10,13,-63,-26,-9,9,20,96,47,19,14,6,-36,-35,2,26,19,23,11,10,10,6,3,9,5,4,0,-5,-14,-21,-82,-98,-58,-107,-22,-22,-21,-28,-34,-8,-43,-7,-21,-36,-4,-2,2,5,13,13,25,38,125,263,4,58,45,11,5,104,198,56,67,136,72,8,57,32,25,33,62,51,117,98,26,170,27,102,59,102,47,42,54,77,40,45,155,66,59,6,89,10,116,58,58,42,44,109,98,72,100,24,101,31,29,125,27,182,73,5,38,37,16,82,73,22,20,15,30,15,35,59,149,258,286,107,30,30,27,86,25,165,32,15,97,76,46,40,24,190,109,131,240,126,28,132,89,11,33,293,85,56,154,155,86,251,169,36,34,55,47,60,21,6,83,5,88,31,22,33,54,554,76,20,21,174,22,108,43,26,73,43,100,14,61,44,21,24,31,32,25,19,27,36,30,30,20,34,21,26,30,39,158,24,4,142,230,95,27,269,265,108,105,89,98,95,145,146,97,151,164,17,137,251,246,203,124,5,120,79,12,182,10,13,231,77,932,34,36,93,108,116,59,7,104,111,139,113,11,64,61,197,191,8,4,41,103,7,237,46,75,15,52,11,51,108,12,159,244,39,88,50,78,20,52,76,48,42,79,108,126,95,72,92,299,157,9,314,14,28,39,74,38,282,474,233,8,64,103,101,234,231,312,12,46,44,43,56,66,193,140,66,175,157,103,116,432,212,107,90,82,112,130,57,45,26,354,428,326,169,394,387,300,141,546,260,113,35,72,108,161,526,252,169,62,297,180,173,82,62,63,45,146,233,5,78,296,51,295,158,106,44,112,105,146,101,63,110,127,169,326,76,19,75,9,91,86,53,63,75,72,217,343,52,87,26,299,129,43,184,109,162,136,313,166,339,95,427,215,16,70,64,291,274,260,149,121,198,210,337,221,117,3,68,56,4,83,118,148,195,178,202,21,161,206,432,273,8,216,250,67,52,163,271,88,115,254,15,3,64]
    }
  ]
}