{
  "code":23004,
  "name":"京成千葉線",
  "color":"#005AAA",
  "symbol":"KS",
  "station_list":[
    {"code":2300126,"id":"28818e","name":"京成津田沼","name_kana":"けいせいつだぬま","lat":35.68364,"lng":140.024823,"prefecture":12,"numbering":[{"index":"26"}],"lines":[23001,23004,99329],"attr":"heat","postal_code":"275-0016","address":"習志野市津田沼３-１-１"},
    {"code":2300402,"id":"f1eeac","name":"京成幕張本郷","name_kana":"けいせいまくはりほんごう","lat":35.672551,"lng":140.042091,"prefecture":12,"numbering":[{"index":"52"}],"lines":[23004],"attr":"cool","postal_code":"262-0033","address":"千葉市花見川区幕張本郷１-１-３"},
    {"code":2300403,"id":"3e44b0","name":"京成幕張","name_kana":"けいせいまくはり","lat":35.66078,"lng":140.05591,"prefecture":12,"numbering":[{"index":"53"}],"lines":[23004],"attr":"cool","postal_code":"262-0032","address":"千葉市花見川区幕張町４-６０１"},
    {"code":2300404,"id":"f410b0","name":"検見川","name_kana":"けみがわ","lat":35.652512,"lng":140.066656,"prefecture":12,"numbering":[{"index":"54"}],"lines":[23004],"attr":"heat","postal_code":"262-0023","address":"千葉市花見川区検見川町１-７９１"},
    {"code":2300405,"id":"677596","name":"京成稲毛","name_kana":"けいせいいなげ","lat":35.637783,"lng":140.085505,"prefecture":12,"numbering":[{"index":"55"}],"lines":[23004],"attr":"heat","postal_code":"263-0034","address":"千葉市稲毛区稲毛３-１-１７"},
    {"code":2300406,"id":"d233da","name":"みどり台","name_kana":"みどりだい","lat":35.624994,"lng":140.097413,"prefecture":12,"numbering":[{"index":"56"}],"lines":[23004],"attr":"eco","postal_code":"263-0023","address":"千葉市稲毛区緑町１-７-１"},
    {"code":2300407,"id":"355681","name":"西登戸","name_kana":"にしのぶと","lat":35.617615,"lng":140.102801,"prefecture":12,"numbering":[{"index":"57"}],"lines":[23004],"attr":"eco","postal_code":"260-0032","address":"千葉市中央区登戸町４-９-１"},
    {"code":2300408,"id":"a5113c","name":"新千葉","name_kana":"しんちば","lat":35.612455,"lng":140.108557,"prefecture":12,"numbering":[{"index":"58"}],"lines":[23004],"attr":"eco","postal_code":"260-0032","address":"千葉市中央区登戸町２-１０-１５"},
    {"code":2300409,"id":"39ec7a","name":"京成千葉","name_kana":"けいせいちば","lat":35.61162,"lng":140.114265,"prefecture":12,"numbering":[{"index":"59"}],"lines":[23004],"attr":"eco","postal_code":"260-0028","address":"千葉市中央区新町２５０-３"},
    {"code":2300410,"id":"2aab90","name":"千葉中央","name_kana":"ちばちゅうおう","lat":35.607354,"lng":140.117809,"prefecture":12,"numbering":[{"index":"60"}],"lines":[23004,23005],"attr":"eco","postal_code":"260-0014","address":"千葉市中央区本千葉町１５-１"}
  ],
  "north":35.68379,
  "south":35.60674,
  "east":140.11814,
  "west":140.02411,
  "polyline_list":[
    {
      "start":"京成津田沼",
      "end":"千葉中央",
      "lat":35.68379,
      "lng":140.02411,
      "delta_lat":[0,-30,-6,-22,-11,-5,-2,-3,-16,-24,-33,-27,-78,-14,-21,-33,-41,-397,-126,-23,-161,-28,-36,-65,-169,-17,-112,-130,-89,-185,-210,-112,-55,-16,-32,-56,-124,-74,-38,-38,-93,-137,-69,-19,-34,-9,-92,-32,-35,-127,-3,-83,-22,-13,-10,-18,-15,-18,-26,-3,-32,-47,-80,-14,-67,-19,-135,-30,-127,-107,-24,-239,-170,-92,-145,-45,-33,-60,-27,-27,-80,-23,-76,-33,-24,-42,-40,-34,-105,-313,-85,-141,-112,-112,-235,-83,-83,-107,-164,-78,-47,-22,-18,-30,-17,-36,-18,0,-2,-3,-4,-5,-16,-10,-20,-23,-67,-86,-127,-147],
      "delta_lng":[0,147,32,110,55,14,19,12,81,80,88,45,100,16,25,40,48,467,147,28,185,34,43,80,197,19,132,154,108,218,249,133,56,14,22,22,41,36,25,43,140,227,112,31,60,21,263,90,107,379,6,249,70,66,85,312,149,79,56,7,41,37,34,4,15,4,23,5,23,18,4,41,30,13,31,18,22,59,34,45,161,46,163,70,32,56,46,31,78,231,64,102,81,81,170,59,59,79,120,63,54,35,46,111,77,170,90,33,96,50,36,30,59,40,31,35,52,52,64,75]
    }
  ]
}