{
  "code":24003,
  "id":"550f60",
  "name":"京王高尾線",
  "name_kana":"けいおうたかおせん",
  "station_size":7,
  "company_code":14,
  "color":"#DD3377",
  "symbol":"KO",
  "station_list":[
    {"code":2400133,"id":"c5bbde","name":"北野(東京)","original_name":"北野","name_kana":"きたの","lat":35.644479,"lng":139.354489,"prefecture":13,"numbering":[{"index":"33"}],"lines":[24001,24003],"attr":"heat","postal_code":"192-0911","address":"八王子市打越町３３５-１","next":[2400302,2400134,2400132,2400211,1130619,1131702],"voronoi":{"lat":35.657495,"lng":139.357132,"delta_lat":[0,-9373,-167,-26419,509,33717],"delta_lng":[0,-11399,1,9486,1735,5019]},"impl":true},
    {"code":2400302,"id":"536dc6","name":"京王片倉","name_kana":"けいおうかたくら","lat":35.644343,"lng":139.337035,"prefecture":13,"numbering":[{"index":"48"}],"lines":[24003],"attr":"cool","postal_code":"192-0914","address":"八王子市片倉町３４-９","next":[2400133,2400303,1130619,1130618,1130620,2400134],"voronoi":{"lat":35.647955,"lng":139.345734,"delta_lat":[0,-10515,2303,11770,-2674,-717],"delta_lng":[0,-11740,-4956,50,15268,1377]},"impl":true},
    {"code":2400303,"id":"e0ef68","name":"山田(東京)","original_name":"山田","name_kana":"やまだ","lat":35.644411,"lng":139.321082,"prefecture":13,"numbering":[{"index":"49"}],"lines":[24003],"attr":"cool","postal_code":"193-0932","address":"八王子市緑町４３４","next":[2400302,1131111,1130620,1130618,2400304],"voronoi":{"lat":35.639742,"lng":139.329039,"delta_lat":[0,11770,5215,-7876,-18464],"delta_lng":[0,50,-3244,-11391,1183]},"impl":true},
    {"code":2400304,"id":"bf6abe","name":"めじろ台","name_kana":"めじろだい","lat":35.643601,"lng":139.308446,"prefecture":13,"numbering":[{"index":"50"}],"lines":[24003],"attr":"eco","postal_code":"193-0833","address":"八王子市めじろ台１-１００-１","next":[1130617,1130618,1131111,2400305,9934801,2400303],"voronoi":{"lat":35.648851,"lng":139.314453,"delta_lat":[0,1910,-6477,-27740,1283,12560],"delta_lng":[0,-5931,-7834,5617,2022,7309]},"impl":true},
    {"code":2400305,"id":"d73fcc","name":"狭間","name_kana":"はざま","lat":35.640637,"lng":139.293808,"prefecture":13,"numbering":[{"index":"51"}],"lines":[24003],"attr":"eco","postal_code":"193-0834","address":"八王子市東浅川町７７３","next":[2400304,9934801,2400307,1130617,9934802,1131112],"voronoi":{"lat":35.647236,"lng":139.296302,"delta_lat":[0,-2951,-27740,-14249,22106,19527],"delta_lng":[0,4387,5617,-12675,-7624,2355]},"impl":true},
    {"code":1131112,"id":"873563","name":"高尾(東京)","original_name":"高尾","name_kana":"たかお","lat":35.642026,"lng":139.282288,"prefecture":13,"numbering":[{"index":"52"}],"lines":[11311,11312,11328,24003],"attr":"eco","postal_code":"193-0844","address":"八王子市高尾町","next":[2400307,1131606,2400305,9934802],"voronoi":{"lat":35.680619,"lng":139.249176,"delta_lat":[0,-1618,-54600,19527],"delta_lng":[0,-5546,42377,2355]},"impl":true},
    {"code":2400307,"id":"959583","name":"高尾山口","name_kana":"たかおさんぐち","lat":35.632377,"lng":139.269856,"prefecture":13,"numbering":[{"index":"53"}],"lines":[24003],"attr":"heat","postal_code":"193-0844","address":"八王子市高尾町２２４１","next":[1130916,1131113,1131112,1131606,1131607,2400305,1130617],"voronoi":{"lat":35.624401,"lng":139.286007,"delta_lat":[0,54600,-527,-7973,-153647,17863,67578],"delta_lng":[0,-42377,-3847,-19044,28408,16684,27800]},"impl":true}
  ],
  "north":35.64674,
  "south":35.63192,
  "east":139.35528,
  "west":139.2695,
  "polyline_list":[
    {
      "start":"高尾山口",
      "end":"北野",
      "lat":35.63192,
      "lng":139.2695,
      "delta_lat":[0,92,5,40,36,56,23,98,55,48,15,20,34,42,23,27,21,21,20,14,15,16,11,22,30,28,17,11,8,5,8,16,9,10,15,12,14,19,0,34,2,10,1,5,0,-6,-6,-11,-21,-3,0,2,13,4,-1,-1,-5,-20,-30,-41,-30,-8,-3,0,0,3,7,15,22,41,7,40,20,22,11,11,27,17,20,11,17,16,19,4,11,11,9,14,10,37,13,9,5,0,-6,-3,-11,-3,-21,-6,-4,-7,-1,1,7,8,32,26,20,23,13,7,4,0,0,-3,-5,-7,-9,-7,-15,-27,-40,-24,-15,-12,-12,-15,-3,-2,-1,1,5,12,15,15,29,25,20,101,18,20,11,11,5,15,4,3,0,-1,-1,-1,-1,-3,-5,-10,-12,-31,-7,-37,-23,-7,-30,-6,-4,-22,-29,-10,-33],
      "delta_lng":[0,63,3,25,19,28,9,46,28,18,2,1,-3,-1,0,1,5,6,9,7,14,17,14,32,51,55,32,26,24,27,48,115,56,56,93,68,65,80,4,155,10,54,15,33,36,35,26,38,82,27,24,43,126,70,14,16,27,83,125,162,140,51,43,29,37,48,50,72,97,171,23,163,81,84,36,30,86,50,57,30,53,52,56,13,38,32,31,39,29,126,65,75,68,42,91,34,145,31,344,78,48,102,58,38,36,46,137,104,93,98,75,66,48,36,27,50,51,41,54,31,56,102,142,86,49,47,42,69,25,22,33,49,34,51,39,35,58,39,25,131,30,36,28,35,20,71,38,37,22,20,2,10,9,18,20,31,32,72,20,93,57,15,79,14,12,52,69,23,76]
    }
  ],
  "impl":true
}