{
  "code":24001,
  "name":"京王京王線",
  "color":"#DD3377",
  "symbol":"KO",
  "station_list":[
    {"code":1130208,"id":"3ff383","name":"新宿","name_kana":"しんじゅく","lat":35.689729,"lng":139.700464,"prefecture":13,"numbering":[{"index":"01"}],"lines":[11302,11311,11312,11313,11321,11328,11333,24001,25001,28002,99301,99304],"attr":"heat","postal_code":"160-0022","address":"東京都新宿区新宿三丁目38-1"},
    {"code":2400702,"id":"ce46a5","name":"初台","name_kana":"はつだい","lat":35.68123,"lng":139.686354,"prefecture":13,"numbering":[{"index":"02"}],"lines":[24001],"attr":"cool","postal_code":"151-0061","address":"渋谷区初台１-５３-７"},
    {"code":2400703,"id":"551330","name":"幡ヶ谷","name_kana":"はたがや","lat":35.677061,"lng":139.676183,"prefecture":13,"numbering":[{"index":"03"}],"lines":[24001],"attr":"cool","postal_code":"151-0072","address":"東京都渋谷区幡ヶ谷一丁目"},
    {"code":2400104,"id":"59455a","name":"笹塚","name_kana":"ささづか","lat":35.673758,"lng":139.667251,"prefecture":13,"numbering":[{"index":"04"}],"lines":[24001],"attr":"cool","postal_code":"151-0073","address":"渋谷区笹塚１-５６-７"},
    {"code":2400105,"id":"4072cf","name":"代田橋","name_kana":"だいたばし","lat":35.671092,"lng":139.659413,"prefecture":13,"numbering":[{"index":"05"}],"lines":[24001],"attr":"cool","postal_code":"156-0041","address":"世田谷区大原２-１８-９"},
    {"code":2400106,"id":"2dbd70","name":"明大前","name_kana":"めいだいまえ","lat":35.668758,"lng":139.650352,"prefecture":13,"numbering":[{"index":"06"}],"lines":[24001,24006],"attr":"cool","postal_code":"156-0043","address":"世田谷区松原２-４５-１"},
    {"code":2400107,"id":"65dfd5","name":"下高井戸","name_kana":"しもたかいど","lat":35.66615,"lng":139.641372,"prefecture":13,"numbering":[{"index":"07"}],"lines":[24001,26007],"attr":"cool","postal_code":"156-0043","address":"世田谷区松原３-２９-１７"},
    {"code":2400108,"id":"026e4f","name":"桜上水","name_kana":"さくらじょうすい","lat":35.66768,"lng":139.63129,"prefecture":13,"numbering":[{"index":"08"}],"lines":[24001],"attr":"cool","postal_code":"156-0045","address":"世田谷区桜上水５-２９-５２"},
    {"code":2400109,"id":"4daea2","name":"上北沢","name_kana":"かみきたざわ","lat":35.668857,"lng":139.62329,"prefecture":13,"numbering":[{"index":"09"}],"lines":[24001],"attr":"cool","postal_code":"156-0057","address":"世田谷区上北沢４-１４-３"},
    {"code":2400110,"id":"d00fcb","name":"八幡山","name_kana":"はちまんやま","lat":35.669982,"lng":139.614927,"prefecture":13,"numbering":[{"index":"10"}],"lines":[24001],"attr":"cool","postal_code":"168-0074","address":"杉並区上高井戸１-１-１１"},
    {"code":2400111,"id":"0cc6b5","name":"芦花公園","name_kana":"ろかこうえん","lat":35.670479,"lng":139.608247,"prefecture":13,"numbering":[{"index":"11"}],"lines":[24001],"attr":"cool","postal_code":"157-0062","address":"世田谷区南烏山３-１-１６"},
    {"code":2400112,"id":"9de545","name":"千歳烏山","name_kana":"ちとせからすやま","lat":35.667921,"lng":139.60067,"prefecture":13,"numbering":[{"index":"12"}],"lines":[24001],"attr":"cool","postal_code":"157-0062","address":"世田谷区南烏山６-１-１"},
    {"code":2400113,"id":"231c79","name":"仙川","name_kana":"せんがわ","lat":35.662257,"lng":139.584908,"prefecture":13,"numbering":[{"index":"13"}],"lines":[24001],"attr":"cool","postal_code":"182-0002","address":"調布市仙川町１-４３"},
    {"code":2400114,"id":"a435c3","name":"つつじヶ丘","name_kana":"つつじがおか","lat":35.657936,"lng":139.575103,"prefecture":13,"numbering":[{"index":"14"}],"lines":[24001],"attr":"cool","postal_code":"182-0006","address":"東京都調布市西つつじヶ丘三丁目35-1"},
    {"code":2400115,"id":"294567","name":"柴崎","name_kana":"しばさき","lat":35.653997,"lng":139.56658,"prefecture":13,"numbering":[{"index":"15"}],"lines":[24001],"attr":"cool","postal_code":"182-0007","address":"調布市菊野台２-６７-１１"},
    {"code":2400116,"id":"e4b2dc","name":"国領","name_kana":"こくりょう","lat":35.650087,"lng":139.558036,"prefecture":13,"numbering":[{"index":"16"}],"lines":[24001],"attr":"cool","postal_code":"182-0022","address":"調布市国領町３-１８-１"},
    {"code":2400117,"id":"1f18ac","name":"布田","name_kana":"ふだ","lat":35.649904,"lng":139.551557,"prefecture":13,"numbering":[{"index":"17"}],"lines":[24001],"attr":"cool","postal_code":"182-0022","address":"調布市国領町５-６７-１"},
    {"code":2400118,"id":"7bab77","name":"調布","name_kana":"ちょうふ","lat":35.652181,"lng":139.543988,"prefecture":13,"numbering":[{"index":"18"}],"lines":[24001,24002],"attr":"cool","postal_code":"182-0024","address":"調布市布田４-３２-１"},
    {"code":2400119,"id":"521e4d","name":"西調布","name_kana":"にしちょうふ","lat":35.657169,"lng":139.529822,"prefecture":13,"numbering":[{"index":"19"}],"lines":[24001],"attr":"eco","postal_code":"182-0035","address":"調布市上石原１-２５-１７"},
    {"code":2400120,"id":"941fd1","name":"飛田給","name_kana":"とびたきゅう","lat":35.660121,"lng":139.523666,"prefecture":13,"numbering":[{"index":"20"}],"lines":[24001],"attr":"eco","postal_code":"182-0036","address":"調布市飛田給１-４２-１１"},
    {"code":2400121,"id":"aedb2f","name":"武蔵野台","name_kana":"むさしのだい","lat":35.664159,"lng":139.511289,"prefecture":13,"numbering":[{"index":"21"}],"lines":[24001],"attr":"eco","postal_code":"183-0011","address":"府中市白糸台４-１８-４"},
    {"code":2400122,"id":"a65761","name":"多磨霊園","name_kana":"たまれいえん","lat":35.666197,"lng":139.502615,"prefecture":13,"numbering":[{"index":"22"}],"lines":[24001],"attr":"eco","postal_code":"183-0015","address":"府中市清水が丘３-２６-１１"},
    {"code":2400123,"id":"ba759a","name":"東府中","name_kana":"ひがしふちゅう","lat":35.668766,"lng":139.495257,"prefecture":13,"numbering":[{"index":"23"}],"lines":[24001,24004],"attr":"eco","postal_code":"183-0015","address":"府中市清水が丘１-８-３"},
    {"code":2400124,"id":"917fad","name":"府中(東京)","name_kana":"ふちゅう","lat":35.672245,"lng":139.4799,"prefecture":13,"numbering":[{"index":"24"}],"lines":[24001],"attr":"eco","postal_code":"183-0023","address":"府中市宮町１-１-１０"},
    {"code":1130321,"id":"6522f1","name":"分倍河原","name_kana":"ぶばいがわら","lat":35.668493,"lng":139.468798,"prefecture":13,"numbering":[{"index":"25"}],"lines":[11303,24001],"attr":"eco","postal_code":"183-0021","address":"府中市片町２丁目"},
    {"code":2400126,"id":"5f0aef","name":"中河原","name_kana":"なかがわら","lat":35.659549,"lng":139.457602,"prefecture":13,"numbering":[{"index":"26"}],"lines":[24001],"attr":"eco","postal_code":"183-0034","address":"府中市住吉町２-１-１６"},
    {"code":2400127,"id":"d332c8","name":"聖蹟桜ヶ丘","name_kana":"せいせきさくらがおか","lat":35.650814,"lng":139.446979,"prefecture":13,"numbering":[{"index":"27"}],"lines":[24001],"attr":"heat","postal_code":"206-0011","address":"東京都多摩市関戸一丁目10-10"},
    {"code":2400128,"id":"8f707c","name":"百草園","name_kana":"もぐさえん","lat":35.657362,"lng":139.431285,"prefecture":13,"numbering":[{"index":"28"}],"lines":[24001],"attr":"heat","postal_code":"191-0033","address":"日野市百草２０９"},
    {"code":2400129,"id":"3129f8","name":"高幡不動","name_kana":"たかはたふどう","lat":35.662361,"lng":139.412953,"prefecture":13,"numbering":[{"index":"29"}],"lines":[24001,24005,99334],"attr":"heat","postal_code":"191-0031","address":"日野市高幡１３９"},
    {"code":2400130,"id":"8524fe","name":"南平","name_kana":"みなみだいら","lat":35.654559,"lng":139.392008,"prefecture":13,"numbering":[{"index":"30"}],"lines":[24001],"attr":"heat","postal_code":"191-0041","address":"日野市南平６-９-３１"},
    {"code":2400131,"id":"580bb2","name":"平山城址公園","name_kana":"ひらやまじょうしこうえん","lat":35.647371,"lng":139.379926,"prefecture":13,"numbering":[{"index":"31"}],"lines":[24001],"attr":"heat","postal_code":"191-0043","address":"日野市平山５-１８-１０"},
    {"code":2400132,"id":"71fd1b","name":"長沼(東京)","name_kana":"ながぬま","lat":35.642788,"lng":139.365849,"prefecture":13,"numbering":[{"index":"32"}],"lines":[24001],"attr":"heat","postal_code":"192-0907","address":"八王子市長沼町７００"},
    {"code":2400133,"id":"c5bbde","name":"北野(東京)","name_kana":"きたの","lat":35.644479,"lng":139.354489,"prefecture":13,"numbering":[{"index":"33"}],"lines":[24001,24003],"attr":"heat","postal_code":"192-0911","address":"八王子市打越町３３５-１"},
    {"code":2400134,"id":"c62914","name":"京王八王子","name_kana":"けいおうはちおうじ","lat":35.657416,"lng":139.343851,"prefecture":13,"numbering":[{"index":"34"}],"lines":[24001],"attr":"heat","postal_code":"192-0046","address":"八王子市明神町３-２７-１"}
  ],
  "north":35.69047,
  "south":35.64259,
  "east":139.69932,
  "west":139.34246,
  "polyline_list":[
    {
      "start":"幡ヶ谷",
      "end":"新線新宿",
      "lat":35.67578,
      "lng":139.67349,
      "delta_lat":[0,-3,15,23,27,22,28,20,17,43,61,43,12,36,18,45,28,45,56,56,30,27,33,35,37,35,34,44,113,84,28,29,31,47,38,56],
      "delta_lng":[0,36,32,93,115,99,98,71,54,83,125,92,33,99,51,131,68,78,86,69,35,22,25,38,31,29,31,58,160,117,41,61,73,119,90,141]
    },
    {
      "start":"京王八王子",
      "end":"幡ヶ谷",
      "lat":35.65849,
      "lng":139.34246,
      "delta_lat":[0,-26,-30,-38,-89,-38,-18,-13,-14,-16,-25,-57,-101,-32,-16,-156,-218,-87,-60,-45,-31,-40,-34,-44,-9,-25,-22,-23,-7,-30,-6,-4,-22,-29,-10,-33,-3,-60,-20,-6,-7,-5,-3,-8,-9,0,-4,0,-5,-1,-2,-1,-5,-3,1,2,6,5,9,13,20,48,104,25,119,57,126,65,18,17,17,51,115,79,104,30,37,22,16,108,82,146,142,75,92,25,18,25,44,59,4,64,50,38,31,9,3,2,2,-11,-6,-14,-10,-6,-6,-9,-14,-41,-80,-29,-16,-18,-13,-9,-26,-14,-58,-41,-102,-109,-29,-19,-12,-14,-21,-31,-115,-183,-41,-22,-15,-10,-8,-15,-91,-52,-10,0,3,1,8,16,2,3,9,7,11,20,35,23,25,49,289,136,49,31,15,29,24,18,8,7,17,41,1,2,7,16,0,42,24,20,14,16,20,24,35,26,27,31,51,50,40,86,22,146,33,65,8,114,21,109,39,47,35,40,19,17,8,10,25,34,9,5,2,4,6,2,1,2,-2,0,-6,-52,-1,-30,-1,-31,-56,-32,-33,-24,-37,-55,-36,-45,-26,-52,-62,-44,-68,-21,-25,-15,-38,-7,-2,-7,-56,-35,-36,-2,-5,-7,-27,-11,-12,-84,-45,-3,-50,-80,-71,-51,-97,-44,-79,-58,-33,-20,-27,-65,-19,-24,-24,-22,-32,-79,-58,-20,-68,-12,-72,-66,-14,-6,-8,-9,-3,2,7,7,11,12,53,49,36,95,10,18,20,92,68,105,76,27,11,56,54,76,63,121,57,47,66,26,18,21,49,10,10,27,36,11,38,56,47,11,16,107,76,65,25,78,49,22,12,18,17,16,11,1,1,1,2,2,0,-4,-5,-1,-5,-3,-5,-3,-9,-12,-8,-17,-9,-6,-2,-5,-53,-9,-7,-1,-10,-25,-38,-33,-25,-25,-13,-19,-4,-20,-2,-9,-2,-47,-3,-1,-9,-5,-3,-3,-4,-1,0,2,5,22,45,140,12,7,13,7,37,94,36,58,47,27,30,85,71,43,146,45],
      "delta_lng":[0,26,37,57,136,58,25,14,14,12,14,22,40,11,7,55,79,29,21,19,16,30,30,52,10,35,37,57,15,79,14,12,52,69,23,76,9,154,47,26,34,32,53,257,356,11,162,5,260,9,62,52,123,134,42,23,21,14,18,26,32,65,131,30,145,61,135,74,22,27,31,106,241,160,205,54,65,34,19,118,89,162,157,83,106,29,25,40,77,111,7,121,105,75,62,24,17,16,51,174,62,109,90,36,20,25,34,103,174,67,39,47,42,31,104,51,239,170,426,469,111,63,31,24,28,34,116,166,43,28,19,27,31,53,393,237,58,20,39,13,54,105,9,17,32,17,26,28,31,16,12,22,100,46,19,15,11,31,30,33,20,29,107,258,10,15,45,91,10,266,149,93,48,38,36,39,47,30,27,25,27,20,13,25,6,43,10,19,1,34,6,34,15,18,22,34,23,23,17,24,105,158,47,18,12,26,28,24,30,44,34,16,41,281,10,138,9,169,287,180,179,131,173,169,102,123,78,146,177,115,190,55,89,63,187,25,16,31,279,157,188,13,29,39,165,40,30,183,100,8,107,176,157,115,216,91,169,121,74,41,55,139,41,66,70,70,106,270,201,67,235,37,236,244,126,95,113,112,79,21,36,25,29,35,128,104,78,201,21,39,42,197,147,222,164,54,24,122,112,170,128,259,121,107,179,70,51,61,134,29,35,73,93,31,112,151,129,28,41,302,210,179,67,215,146,65,27,47,61,66,67,8,32,15,7,30,27,45,40,9,28,20,37,23,55,80,46,116,40,51,16,49,398,67,51,13,71,158,244,229,169,168,79,140,18,138,12,60,14,317,18,9,63,25,28,25,36,17,18,32,29,79,143,469,45,21,47,24,129,309,132,168,131,81,90,250,220,143,428,131]
    },
    {
      "start":"幡ヶ谷",
      "end":"新宿",
      "lat":35.67578,
      "lng":139.67349,
      "delta_lat":[0,57,29,20,29,28,57,66,27,13,27,25,49,31,12,24,45,31,47,45,24,48,49,29,47,44,49,47,43,37,31,21,35,42,2,25,13,5,7,33,79,97],
      "delta_lng":[0,170,141,91,100,89,112,132,56,39,79,66,152,61,19,42,65,41,50,61,34,92,98,53,64,46,51,55,53,55,52,88,75,96,2,67,19,7,10,-3,-3,-8]
    }
  ]
}