{
  "code":24006,
  "name":"京王井の頭線",
  "color":"#333388",
  "symbol":"IN",
  "station_list":[
    {"code":1130205,"id":"8e9a53","name":"渋谷","name_kana":"しぶや","lat":35.658871,"lng":139.701238,"prefecture":13,"numbering":[{"index":"01"}],"lines":[11302,11321,11328,11333,24006,26001,26003,28001,28008,28010],"attr":"cool","postal_code":"150-0043","address":"東京都渋谷区道玄坂一丁目1-1"},
    {"code":2400602,"id":"54a7f5","name":"神泉","name_kana":"しんせん","lat":35.657244,"lng":139.693579,"prefecture":13,"numbering":[{"index":"02"}],"lines":[24006],"attr":"cool","postal_code":"150-0045","address":"渋谷区神泉町４-６"},
    {"code":2400603,"id":"9195c3","name":"駒場東大前","name_kana":"こまばとうだいまえ","lat":35.65868,"lng":139.684308,"prefecture":13,"numbering":[{"index":"03"}],"lines":[24006],"attr":"cool","postal_code":"153-0041","address":"目黒区駒場３-９-１"},
    {"code":2400604,"id":"e20fe9","name":"池ノ上","name_kana":"いけのうえ","lat":35.660402,"lng":139.67344,"prefecture":13,"numbering":[{"index":"04"}],"lines":[24006],"attr":"cool","postal_code":"155-0032","address":"世田谷区代沢２-４３-８"},
    {"code":2400605,"id":"e46a3f","name":"下北沢","name_kana":"しもきたざわ","lat":35.661539,"lng":139.66691,"prefecture":13,"numbering":[{"index":"05"}],"lines":[24006,25001],"attr":"cool","postal_code":"155-0031","address":"世田谷区北沢２丁目"},
    {"code":2400606,"id":"0494f7","name":"新代田","name_kana":"しんだいた","lat":35.662593,"lng":139.660524,"prefecture":13,"numbering":[{"index":"06"}],"lines":[24006],"attr":"cool","postal_code":"155-0033","address":"世田谷区代田５-３０-１８"},
    {"code":2400607,"id":"982b1d","name":"東松原","name_kana":"ひがしまつばら","lat":35.662634,"lng":139.655535,"prefecture":13,"numbering":[{"index":"07"}],"lines":[24006],"attr":"cool","postal_code":"156-0043","address":"世田谷区松原５-２-６"},
    {"code":2400106,"id":"2dbd70","name":"明大前","name_kana":"めいだいまえ","lat":35.668758,"lng":139.650352,"prefecture":13,"numbering":[{"index":"08"}],"lines":[24001,24006],"attr":"cool","postal_code":"156-0043","address":"世田谷区松原２-４５-１"},
    {"code":2400609,"id":"60aeb9","name":"永福町","name_kana":"えいふくちょう","lat":35.67629,"lng":139.642733,"prefecture":13,"numbering":[{"index":"09"}],"lines":[24006],"attr":"heat","postal_code":"168-0064","address":"杉並区永福２-６０-３１"},
    {"code":2400610,"id":"796947","name":"西永福","name_kana":"にしえいふく","lat":35.678918,"lng":139.634936,"prefecture":13,"numbering":[{"index":"10"}],"lines":[24006],"attr":"heat","postal_code":"168-0064","address":"杉並区永福３-３６-１"},
    {"code":2400611,"id":"a56370","name":"浜田山","name_kana":"はまだやま","lat":35.681603,"lng":139.627528,"prefecture":13,"numbering":[{"index":"11"}],"lines":[24006],"attr":"heat","postal_code":"168-0065","address":"杉並区浜田山３-３１-２"},
    {"code":2400612,"id":"94210e","name":"高井戸","name_kana":"たかいど","lat":35.683253,"lng":139.615115,"prefecture":13,"numbering":[{"index":"12"}],"lines":[24006],"attr":"heat","postal_code":"168-0071","address":"杉並区高井戸西２-１-２６"},
    {"code":2400613,"id":"27b042","name":"富士見ヶ丘","name_kana":"ふじみがおか","lat":35.684805,"lng":139.607072,"prefecture":13,"numbering":[{"index":"13"}],"lines":[24006],"attr":"heat","postal_code":"168-0082","address":"東京都杉並区久我山五丁目1番25号"},
    {"code":2400614,"id":"95617c","name":"久我山","name_kana":"くがやま","lat":35.688138,"lng":139.599211,"prefecture":13,"numbering":[{"index":"14"}],"lines":[24006],"attr":"eco","postal_code":"168-0082","address":"杉並区久我山４-１-１１"},
    {"code":2400615,"id":"5676c3","name":"三鷹台","name_kana":"みたかだい","lat":35.692046,"lng":139.589298,"prefecture":13,"numbering":[{"index":"15"}],"lines":[24006],"attr":"eco","postal_code":"181-0001","address":"三鷹市井の頭１-３２-１"},
    {"code":2400616,"id":"f1433c","name":"井の頭公園","name_kana":"いのかしらこうえん","lat":35.697304,"lng":139.583112,"prefecture":13,"numbering":[{"index":"16"}],"lines":[24006],"attr":"eco","postal_code":"181-0001","address":"三鷹市井の頭３-３５-１２"},
    {"code":1131104,"id":"b93403","name":"吉祥寺","name_kana":"きちじょうじ","lat":35.703119,"lng":139.579765,"prefecture":13,"numbering":[{"index":"17"}],"lines":[11311,11312,11313,11328,24006],"attr":"heat","postal_code":"180-0003","address":"東京都武蔵野市吉祥寺南町"}
  ],
  "north":35.70253,
  "south":35.65707,
  "east":139.70052,
  "west":139.58016,
  "polyline_list":[
    {
      "start":"吉祥寺",
      "end":"渋谷",
      "lat":35.70253,
      "lng":139.58016,
      "delta_lat":[0,-48,-49,-29,-23,-25,-26,-26,-21,-18,-26,-15,-28,-29,-14,-13,-12,-12,-18,-15,-46,-5,-51,-29,-27,-53,-50,-40,-28,-28,-31,-37,-27,-24,-29,-20,-11,-21,-17,-12,-31,-9,-7,-11,0,-7,-9,-13,-9,-15,-9,-11,-16,-7,-15,-9,-14,-13,-14,-11,-9,-11,-10,-13,-13,-12,-35,-19,-14,-14,-52,-11,-7,-26,-17,-26,-20,-24,-16,-25,-22,-17,-5,-14,-9,-11,-13,-21,-18,-16,-9,-13,-17,-10,-6,-7,-9,-5,-11,-6,-14,-6,-14,-2,-5,-2,-2,-3,-6,-2,-5,-1,-5,-7,-7,-7,-3,-8,-12,-1,-8,-22,-29,-8,-20,-41,-80,-61,-42,-47,-39,-31,-79,-44,-66,-51,-28,-37,-95,-85,-23,-116,-23,-39,-46,-67,-48,-8,-28,-91,-52,-10,-16,-29,-19,-111,-87,-25,-7,-76,-32,-26,-30,-35,-13,-17,-3,-10,-4,-2,-1,-1,-2,0,0,2,1,0,-17,-70,-22,0,-7,-19,-5,-7,-4,-61,-18,-4,-18,-22,-8,-3,-5,-5,-5,-15,-41,-17,-38,-18,-15,-44,-15,-11,-18,-7,-9,-2,-2,0,0,2,7,2,0,3,4,43,19,34,24,1,2,25,6,1],
      "delta_lng":[0,29,32,19,15,14,14,11,7,4,7,3,9,11,6,6,7,9,14,12,33,4,59,36,30,50,43,36,22,24,26,31,26,19,31,24,19,48,38,30,111,29,25,32,2,24,23,35,30,47,28,35,37,29,44,30,42,39,38,28,25,32,24,32,30,24,63,33,22,21,89,15,12,47,32,49,44,50,48,67,59,48,14,39,27,31,38,61,44,48,32,37,46,32,17,22,25,21,31,22,42,24,71,31,86,62,49,65,116,34,62,35,47,56,44,53,40,49,105,20,52,173,229,63,58,113,227,167,117,134,113,86,224,124,197,128,60,65,139,120,32,164,29,43,27,16,-8,2,8,19,12,3,3,9,8,63,51,12,6,47,27,23,36,56,38,54,20,43,25,16,24,201,76,29,8,68,47,37,100,407,121,4,41,105,25,35,28,342,96,22,98,115,43,45,61,61,45,87,253,93,182,59,42,101,37,23,55,26,54,20,22,81,14,42,195,65,7,16,42,163,82,143,90,10,9,92,25,39]
    }
  ]
}