{
  "code":24003,
  "name":"京王高尾線",
  "color":"#DD3377",
  "symbol":"KO",
  "station_list":[
    {"code":2400133,"id":"c5bbde","name":"北野(東京)","name_kana":"きたの","lat":35.644479,"lng":139.354489,"prefecture":13,"numbering":[{"index":"33"}],"lines":[24001,24003],"attr":"heat","postal_code":"192-0911","address":"八王子市打越町３３５-１"},
    {"code":2400302,"id":"536dc6","name":"京王片倉","name_kana":"けいおうかたくら","lat":35.644343,"lng":139.337035,"prefecture":13,"numbering":[{"index":"48"}],"lines":[24003],"attr":"cool","postal_code":"192-0914","address":"八王子市片倉町３４-９"},
    {"code":2400303,"id":"e0ef68","name":"山田(東京)","name_kana":"やまだ","lat":35.644411,"lng":139.321082,"prefecture":13,"numbering":[{"index":"49"}],"lines":[24003],"attr":"cool","postal_code":"193-0932","address":"八王子市緑町４３４"},
    {"code":2400304,"id":"bf6abe","name":"めじろ台","name_kana":"めじろだい","lat":35.643601,"lng":139.308446,"prefecture":13,"numbering":[{"index":"50"}],"lines":[24003],"attr":"eco","postal_code":"193-0833","address":"八王子市めじろ台１-１００-１"},
    {"code":2400305,"id":"d73fcc","name":"狭間","name_kana":"はざま","lat":35.640637,"lng":139.293808,"prefecture":13,"numbering":[{"index":"51"}],"lines":[24003],"attr":"eco","postal_code":"193-0834","address":"八王子市東浅川町７７３"},
    {"code":1131112,"id":"873563","name":"高尾(東京)","name_kana":"たかお","lat":35.642026,"lng":139.282288,"prefecture":13,"numbering":[{"index":"52"}],"lines":[11311,11312,11328,24003],"attr":"eco","postal_code":"193-0844","address":"八王子市高尾町"},
    {"code":2400307,"id":"959583","name":"高尾山口","name_kana":"たかおさんぐち","lat":35.632377,"lng":139.269856,"prefecture":13,"numbering":[{"index":"53"}],"lines":[24003],"attr":"heat","postal_code":"193-0844","address":"八王子市高尾町２２４１"}
  ],
  "north":35.64674,
  "south":35.63192,
  "east":139.35528,
  "west":139.2695,
  "polyline_list":[
    {
      "start":"高尾山口",
      "end":"北野",
      "lat":35.63192,
      "lng":139.2695,
      "delta_lat":[0,92,5,40,36,56,23,98,55,48,15,20,34,42,23,27,21,21,20,14,15,16,11,22,30,28,17,11,8,5,8,16,9,10,15,12,14,19,0,34,2,10,1,5,0,-6,-6,-11,-21,-3,0,2,13,4,-1,-1,-5,-20,-30,-41,-30,-8,-3,0,0,3,7,15,22,41,7,40,20,22,11,11,27,17,20,11,17,16,19,4,11,11,9,14,10,37,13,9,5,0,-6,-3,-11,-3,-21,-6,-4,-7,-1,1,7,8,32,26,20,23,13,7,4,0,0,-3,-5,-7,-9,-7,-15,-27,-40,-24,-15,-12,-12,-15,-3,-2,-1,1,5,12,15,15,29,25,20,101,18,20,11,11,5,15,4,3,0,-1,-1,-1,-1,-3,-5,-10,-12,-31,-7,-37,-23,-7,-30,-6,-4,-22,-29,-10,-33],
      "delta_lng":[0,63,3,25,19,28,9,46,28,18,2,1,-3,-1,0,1,5,6,9,7,14,17,14,32,51,55,32,26,24,27,48,115,56,56,93,68,65,80,4,155,10,54,15,33,36,35,26,38,82,27,24,43,126,70,14,16,27,83,125,162,140,51,43,29,37,48,50,72,97,171,23,163,81,84,36,30,86,50,57,30,53,52,56,13,38,32,31,39,29,126,65,75,68,42,91,34,145,31,344,78,48,102,58,38,36,46,137,104,93,98,75,66,48,36,27,50,51,41,54,31,56,102,142,86,49,47,42,69,25,22,33,49,34,51,39,35,58,39,25,131,30,36,28,35,20,71,38,37,22,20,2,10,9,18,20,31,32,72,20,93,57,15,79,14,12,52,69,23,76]
    }
  ]
}