{
  "code":25001,
  "name":"小田急小田原線",
  "color":"#2288CC",
  "symbol":"OH",
  "station_list":[
    {"code":1130208,"id":"3ff383","name":"新宿","name_kana":"しんじゅく","lat":35.689729,"lng":139.700464,"prefecture":13,"numbering":[{"index":"01"}],"lines":[11302,11311,11312,11313,11321,11328,11333,24001,25001,28002,99301,99304],"attr":"heat","postal_code":"160-0022","address":"東京都新宿区新宿三丁目38-1"},
    {"code":2500102,"id":"c6b9f7","name":"南新宿","name_kana":"みなみしんじゅく","lat":35.683483,"lng":139.69867,"prefecture":13,"numbering":[{"index":"02"}],"lines":[25001],"attr":"heat","postal_code":"151-0053","address":"渋谷区代々木２丁目"},
    {"code":2500103,"id":"d1c6bf","name":"参宮橋","name_kana":"さんぐうばし","lat":35.678586,"lng":139.693568,"prefecture":13,"numbering":[{"index":"03"}],"lines":[25001],"attr":"heat","postal_code":"151-0053","address":"渋谷区代々木４丁目"},
    {"code":2500104,"id":"b825ba","name":"代々木八幡","name_kana":"よよぎはちまん","lat":35.669715,"lng":139.688913,"prefecture":13,"numbering":[{"index":"04"}],"lines":[25001],"attr":"heat","postal_code":"151-0053","address":"渋谷区代々木５丁目"},
    {"code":2500105,"id":"0aa16c","name":"代々木上原","name_kana":"よよぎうえはら","lat":35.669159,"lng":139.680153,"prefecture":13,"numbering":[{"index":"05"}],"lines":[25001,28005],"attr":"heat","postal_code":"151-0066","address":"渋谷区西原３丁目"},
    {"code":2500106,"id":"0cb0c2","name":"東北沢","name_kana":"ひがしきたざわ","lat":35.665379,"lng":139.673014,"prefecture":13,"numbering":[{"index":"06"}],"lines":[25001],"attr":"heat","postal_code":"155-0031","address":"世田谷区北沢３丁目"},
    {"code":2400605,"id":"e46a3f","name":"下北沢","name_kana":"しもきたざわ","lat":35.661539,"lng":139.66691,"prefecture":13,"numbering":[{"index":"07"}],"lines":[24006,25001],"attr":"cool","postal_code":"155-0031","address":"世田谷区北沢２丁目"},
    {"code":2500108,"id":"c7cd36","name":"世田谷代田","name_kana":"せたがやだいた","lat":35.65834,"lng":139.661557,"prefecture":13,"numbering":[{"index":"08"}],"lines":[25001],"attr":"eco","postal_code":"155-0033","address":"世田谷区代田２丁目"},
    {"code":2500109,"id":"55b04c","name":"梅ヶ丘","name_kana":"うめがおか","lat":35.656024,"lng":139.653628,"prefecture":13,"numbering":[{"index":"09"}],"lines":[25001],"attr":"eco","postal_code":"154-0022","address":"東京都世田谷区梅丘"},
    {"code":2500110,"id":"79fca0","name":"豪徳寺","name_kana":"ごうとくじ","lat":35.653807,"lng":139.647381,"prefecture":13,"numbering":[{"index":"10"}],"lines":[25001],"attr":"eco","postal_code":"154-0021","address":"世田谷区豪徳寺１丁目"},
    {"code":2500111,"id":"326aae","name":"経堂","name_kana":"きょうどう","lat":35.650991,"lng":139.635993,"prefecture":13,"numbering":[{"index":"11"}],"lines":[25001],"attr":"eco","postal_code":"156-0052","address":"世田谷区経堂１丁目"},
    {"code":2500112,"id":"260ea5","name":"千歳船橋","name_kana":"ちとせふなばし","lat":35.647616,"lng":139.624544,"prefecture":13,"numbering":[{"index":"12"}],"lines":[25001],"attr":"cool","postal_code":"156-0055","address":"世田谷区船橋１丁目"},
    {"code":2500113,"id":"fffe84","name":"祖師ヶ谷大蔵","name_kana":"そしがやおおくら","lat":35.643236,"lng":139.609659,"prefecture":13,"numbering":[{"index":"13"}],"lines":[25001],"attr":"cool","postal_code":"157-0072","address":"東京都世田谷区祖師谷1丁目"},
    {"code":2500114,"id":"9eeb9c","name":"成城学園前","name_kana":"せいじょうがくえんまえ","lat":35.640114,"lng":139.598958,"prefecture":13,"numbering":[{"index":"14"}],"lines":[25001],"attr":"cool","postal_code":"157-0066","address":"世田谷区成城６丁目"},
    {"code":2500115,"id":"e21767","name":"喜多見","name_kana":"きたみ","lat":35.636697,"lng":139.587445,"prefecture":13,"numbering":[{"index":"15"}],"lines":[25001],"attr":"cool","postal_code":"157-0067","address":"世田谷区喜多見９丁目"},
    {"code":2500116,"id":"7967b2","name":"狛江","name_kana":"こまえ","lat":35.632001,"lng":139.577127,"prefecture":13,"numbering":[{"index":"16"}],"lines":[25001],"attr":"cool","postal_code":"201-0014","address":"狛江市東和泉１丁目"},
    {"code":2500117,"id":"507dcd","name":"和泉多摩川","name_kana":"いずみたまがわ","lat":35.627349,"lng":139.573695,"prefecture":13,"numbering":[{"index":"17"}],"lines":[25001],"attr":"cool","postal_code":"201-0014","address":"狛江市東和泉４丁目"},
    {"code":1130314,"id":"f1bdd7","name":"登戸","name_kana":"のぼりと","lat":35.620889,"lng":139.570028,"prefecture":14,"numbering":[{"index":"18"}],"lines":[11303,25001],"attr":"heat","postal_code":"214-0014","address":"川崎市多摩区登戸"},
    {"code":2500119,"id":"6cbf39","name":"向ヶ丘遊園","name_kana":"むこうがおかゆうえん","lat":35.617273,"lng":139.564719,"prefecture":14,"numbering":[{"index":"19"}],"lines":[25001],"attr":"cool","postal_code":"214-0014","address":"神奈川県川崎市多摩区登戸"},
    {"code":2500120,"id":"8f62a8","name":"生田(神奈川)","name_kana":"いくた","lat":35.614954,"lng":139.542024,"prefecture":14,"numbering":[{"index":"20"}],"lines":[25001],"attr":"cool","postal_code":"214-0038","address":"川崎市多摩区生田７丁目"},
    {"code":2500121,"id":"69e1df","name":"読売ランド前","name_kana":"よみうりらんどまえ","lat":35.614723,"lng":139.527903,"prefecture":14,"numbering":[{"index":"21"}],"lines":[25001],"attr":"cool","postal_code":"214-0037","address":"川崎市多摩区西生田"},
    {"code":2500122,"id":"46c3bd","name":"百合ヶ丘","name_kana":"ゆりがおか","lat":35.60903,"lng":139.516121,"prefecture":14,"numbering":[{"index":"22"}],"lines":[25001],"attr":"cool","postal_code":"215-0011","address":"川崎市麻生区百合丘一丁目21番1号"},
    {"code":2500123,"id":"d914d1","name":"新百合ヶ丘","name_kana":"しんゆりがおか","lat":35.603705,"lng":139.507608,"prefecture":14,"numbering":[{"index":"23"}],"lines":[25001,25003],"attr":"cool","postal_code":"215-0004","address":"川崎市麻生区万福寺一丁目18番1号"},
    {"code":2500124,"id":"e72d48","name":"柿生","name_kana":"かきお","lat":35.589597,"lng":139.497614,"prefecture":14,"numbering":[{"index":"24"}],"lines":[25001],"attr":"cool","postal_code":"215-0021","address":"川崎市麻生区上麻生"},
    {"code":2500125,"id":"9beb6b","name":"鶴川","name_kana":"つるかわ","lat":35.583077,"lng":139.481759,"prefecture":13,"numbering":[{"index":"25"}],"lines":[25001],"attr":"cool","postal_code":"195-0053","address":"町田市能ケ谷町"},
    {"code":2500126,"id":"cb15d7","name":"玉川学園前","name_kana":"たまがわがくえんまえ","lat":35.563486,"lng":139.463388,"prefecture":13,"numbering":[{"index":"26"}],"lines":[25001],"attr":"cool","postal_code":"194-0041","address":"町田市玉川学園２丁目"},
    {"code":1130611,"id":"c61325","name":"町田","name_kana":"まちだ","lat":35.542004,"lng":139.445579,"prefecture":13,"numbering":[{"index":"27"}],"lines":[11306,25001],"attr":"heat","postal_code":"194-0013","address":"町田市原町田１丁目"},
    {"code":2500128,"id":"dc69a7","name":"相模大野","name_kana":"さがみおおの","lat":35.532208,"lng":139.437836,"prefecture":14,"numbering":[{"index":"28"}],"lines":[25001,25002],"attr":"cool","postal_code":"252-0303","address":"相模原市南区相模大野三丁目8番1号"},
    {"code":2500129,"id":"58a1b0","name":"小田急相模原","name_kana":"おだきゅうさがみはら","lat":35.515134,"lng":139.422571,"prefecture":14,"numbering":[{"index":"29"}],"lines":[25001],"attr":"cool","postal_code":"252-0314","address":"相模原市南区南台三丁目20番1号"},
    {"code":2500130,"id":"f1f343","name":"相武台前","name_kana":"そうぶだいまえ","lat":35.499294,"lng":139.408509,"prefecture":14,"numbering":[{"index":"30"}],"lines":[25001],"attr":"cool","postal_code":"252-0011","address":"神奈川県座間市相武台一丁目33番1号"},
    {"code":2500131,"id":"9a846f","name":"座間","name_kana":"ざま","lat":35.480913,"lng":139.399899,"prefecture":14,"numbering":[{"index":"31"}],"lines":[25001],"attr":"cool","postal_code":"252-0028","address":"神奈川県座間市入谷東三丁目60番1号"},
    {"code":1130910,"id":"b54559","name":"海老名","name_kana":"えびな","lat":35.454282,"lng":139.389328,"prefecture":14,"numbering":[{"index":"32"}],"lines":[11309,25001,29001],"attr":"cool","postal_code":"243-0434","address":"海老名市上郷"},
    {"code":1130909,"id":"41dc80","name":"厚木","name_kana":"あつぎ","lat":35.44375,"lng":139.378631,"prefecture":14,"numbering":[{"index":"33"}],"lines":[11309,25001],"attr":"cool","postal_code":"243-0433","address":"海老名市河原口"},
    {"code":2500134,"id":"4d4c3b","name":"本厚木","name_kana":"ほんあつぎ","lat":35.439338,"lng":139.364261,"prefecture":14,"numbering":[{"index":"34"}],"lines":[25001],"attr":"cool","postal_code":"243-0013","address":"厚木市泉町１丁目"},
    {"code":2500135,"id":"1db2b6","name":"愛甲石田","name_kana":"あいこういしだ","lat":35.417634,"lng":139.344098,"prefecture":14,"numbering":[{"index":"35"}],"lines":[25001],"attr":"heat","postal_code":"243-0035","address":"厚木市愛甲"},
    {"code":2500136,"id":"b6e24c","name":"伊勢原","name_kana":"いせはら","lat":35.396081,"lng":139.313768,"prefecture":14,"numbering":[{"index":"36"}],"lines":[25001],"attr":"heat","postal_code":"259-1132","address":"伊勢原市桜台１丁目"},
    {"code":2500137,"id":"183895","name":"鶴巻温泉","name_kana":"つるまきおんせん","lat":35.381131,"lng":139.277813,"prefecture":14,"numbering":[{"index":"37"}],"lines":[25001],"attr":"heat","postal_code":"257-0001","address":"秦野市鶴巻北２丁目"},
    {"code":2500138,"id":"7d5c39","name":"東海大学前","name_kana":"とうかいだいがくまえ","lat":35.373151,"lng":139.271236,"prefecture":14,"numbering":[{"index":"38"}],"lines":[25001],"attr":"heat","postal_code":"257-0006","address":"秦野市北矢名"},
    {"code":2500139,"id":"ee0a6a","name":"秦野","name_kana":"はだの","lat":35.370075,"lng":139.226009,"prefecture":14,"numbering":[{"index":"39"}],"lines":[25001,99350],"attr":"heat","postal_code":"257-0034","address":"秦野市大秦町１丁目"},
    {"code":2500140,"id":"8e1f33","name":"渋沢","name_kana":"しぶさわ","lat":35.374032,"lng":139.184405,"prefecture":14,"numbering":[{"index":"40"}],"lines":[25001],"attr":"eco","postal_code":"259-1321","address":"秦野市曲松１丁目"},
    {"code":2500141,"id":"2e0626","name":"新松田","name_kana":"しんまつだ","lat":35.345082,"lng":139.139848,"prefecture":14,"numbering":[{"index":"41"}],"lines":[25001],"attr":"eco","postal_code":"258-0003","address":"足柄上郡松田町松田惣領"},
    {"code":2500142,"id":"f41924","name":"開成","name_kana":"かいせい","lat":35.326532,"lng":139.135785,"prefecture":14,"numbering":[{"index":"42"}],"lines":[25001],"attr":"eco","postal_code":"258-0021","address":"足柄上郡開成町吉田島字中河原"},
    {"code":2500143,"id":"372d67","name":"栢山","name_kana":"かやま","lat":35.310679,"lng":139.14258,"prefecture":14,"numbering":[{"index":"43"}],"lines":[25001],"attr":"eco","postal_code":"250-0852","address":"小田原市栢山"},
    {"code":2500144,"id":"d86c62","name":"富水","name_kana":"とみず","lat":35.296759,"lng":139.145166,"prefecture":14,"numbering":[{"index":"44"}],"lines":[25001],"attr":"eco","postal_code":"250-0853","address":"小田原市堀之内"},
    {"code":2500145,"id":"cfbaca","name":"螢田","name_kana":"ほたるだ","lat":35.285055,"lng":139.152036,"prefecture":14,"numbering":[{"index":"45"}],"lines":[25001],"attr":"eco","postal_code":"250-0865","address":"小田原市蓮正寺"},
    {"code":2500146,"id":"1e744f","name":"足柄(神奈川)","name_kana":"あしがら","lat":35.271763,"lng":139.15447,"prefecture":14,"numbering":[{"index":"46"}],"lines":[25001],"attr":"eco","postal_code":"250-0001","address":"小田原市扇町３丁目"},
    {"code":100204,"id":"eaa3c7","name":"小田原","name_kana":"おだわら","lat":35.256225,"lng":139.155772,"prefecture":14,"numbering":[{"index":"47"}],"lines":[11301,25001,99314,99339,1002],"attr":"heat","postal_code":"250-0011","address":"小田原市栄町１丁目"}
  ],
  "north":35.69189,
  "south":35.25564,
  "east":139.70086,
  "west":139.13061,
  "polyline_list":[
    {
      "start":"開成",
      "end":"新松田",
      "lat":35.33758,
      "lng":139.13063,
      "delta_lat":[0,48,61,40,23,22,27,9,27,17,46,69,15,65,32,45],
      "delta_lng":[0,13,21,16,15,14,24,8,32,21,63,94,21,91,41,60]
    },
    {
      "start":"開成",
      "end":"新松田",
      "lat":35.33758,
      "lng":139.13063,
      "delta_lat":[0,24,27,45,57,29,12,38,23,30,15,97,3,81,7,20,38],
      "delta_lng":[0,-3,2,11,24,18,7,31,26,38,19,134,5,111,9,30,72]
    },
    {
      "start":"小田原",
      "end":"開成",
      "lat":35.25564,
      "lng":139.15491,
      "delta_lat":[0,143,26,24,18,8,11,10,16,31,31,45,29,31,222,21,32,46,69,25,107,311,25,67,230,70,49,25,118,114,38,25,39,33,79,189,97,64,57,40,44,38,64,142,79,43,77,39,34,67,54,100,52,324,52,226,126,47,188,328,305,24,401,63,132,103,89,96,312,123,186,96,208,177,63,371,408,62,137,54,30,15],
      "delta_lng":[0,103,24,24,23,7,8,5,7,5,-6,-14,-6,-11,-82,-5,-8,-8,-13,-2,-13,-35,-3,-8,-29,-7,-4,-2,0,16,5,4,5,5,12,25,12,3,-8,-11,-23,-30,-65,-155,-82,-50,-83,-43,-31,-52,-36,-54,-22,-130,-20,-92,-50,-15,-34,-55,-53,-4,-67,-12,-24,-31,-33,-47,-148,-58,-89,-45,-95,-86,-28,-176,-193,-31,-68,-24,-10,-2]
    },
    {
      "start":"新松田",
      "end":"新宿",
      "lat":35.34304,
      "lng":139.13598,
      "delta_lat":[0,9,39,12,68,58,47,3,27,21,20,14,12,7,0,2,1,0,2,4,5,7,19,18,16,41,38,123,62,35,23,30,74,93,90,23,29,27,47,40,31,32,29,66,41,48,41,36,39,36,33,44,50,27,74,37,36,41,40,43,33,29,23,27,11,11,35,46,26,26,29,35,32,7,28,5,64,29,68,53,18,35,43,30,29,119,58,38,38,77,76,28,2,14,6,5,0,-69,-41,-8,-10,-7,-11,-11,-7,-17,-103,-15,-65,-121,-30,-7,-13,-8,-5,2,7,31,29,7,13,87,14,13,2,5,4,12,0,-2,-11,-23,-23,-109,-101,-14,-28,-47,-121,-85,-25,-29,-9,-4,-12,-31,-17,-21,-7,-15,-8,-10,-2,8,5,0,-9,-11,-7,-41,-55,-40,-22,-8,-6,0,-1,2,5,7,7,5,4,4,3,29,18,20,19,16,14,16,29,9,13,16,10,5,23,37,10,9,37,25,8,11,40,18,11,7,2,6,23,29,24,8,58,39,7,36,25,20,29,21,44,21,41,26,36,51,10,36,41,55,94,24,48,8,17,7,7,49,25,18,219,24,16,11,7,29,36,27,9,14,46,6,14,28,47,15,16,8,5,3,2,12,15,11,8,2,0,12,15,27,31,24,8,60,10,15,9,42,7,5,36,15,23,11,20,14,4,6,16,14,20,23,4,17,14,23,19,21,11,26,10,33,50,17,11,36,18,41,17,59,47,20,36,17,21,13,21,28,45,18,34,58,33,18,17,89,27,13,22,23,9,99,39,57,36,96,87,18,89,60,25,21,27,89,42,8,79,6,4,20,7,67,60,20,16,38,92,8,41,5,20,0,47,31,50,20,28,65,10,55,74,40,50,94,8,80,41,21,11,69,34,32,15,18,58,7,65,34,30,18,22,82,46,19,11,71,142,3,53,114,37,38,14,11,27,34,42,119,65,58,42,10,24,54,15,27,36,16,22,130,85,20,36,0,12,42,7,130,42,11,2,6,18,16,3,6,9,14,6,2,19,8,3,2,4,3,5,2,1,10,0,4,15,36,30,11,17,6,13,6,5,2,1,3,3,3,6,5,3,9,28,26,23,25,9,42,45,47,105,47,61,13,40,21,15,43,64,95,21,52,34,91,6,46,66,64,63,44,17,11,20,11,15,28,24,36,42,92,56,56,22,7,43,63,10,9,7,1,15,17,12,20,24,32,36,29,12,34,30,91,10,7,151,11,37,69,7,18,85,105,82,44,6,9,79,74,44,12,9,13,64,65,98,83,48,19,37,37,56,67,35,18,12,148,99,116,14,17,68,92,87,39,15,9,11,40,21,38,13,24,38,25,23,62,74,78,39,37,43,15,28,78,88,62,17,34,117,27,48,5,14,7,4,38,118,48,38,6,7,41,112,30,21,27,96,40,68,47,62,99,7,145,209,118,237,33,139,155,204,196,88,89,169,273,65,123,87,45,96,114,90,64,22,91,60,15,38,39,37,58,118,102,65,33,21,29,14,48,32,7,57,17,85,63,27,31,31,55,24,32,59,107,43,14,12,12,16,11,7,1,18,15,5,6,9,22,27,31,35,32,33,50,20,47,20,45,32,24,24,23,38,80,121,56,41,51,39,61,102,46,37,31,25,12,153,43,31,25,17,14,18,14,33,25,13,23,18,19,32,54,29,104,17,29,15,36,92,43,42,61,26,79,51,36,78,72,4,146,157,82,27,24,11,8,11,40,27,13,14,20,15,14,14,22,25,42,22,11,23,31,4,3,2,22,39,10,24,24,44,35,13,19,19,20,29,27,36,20,38,44,132,29,137,79,99,57,128,67,58,48,66,50,38,17,20,8,15,28,39,5,18,11,78,92,21,75,128,47,53,20,21,67,76,38,23,26,61,72,38,63,38,45,46,32,48,86,47,22,34,17,19,10,5,1,0,-5,-21,-3,-5,-5,0,7,6,3,16,24,25,2,18,6,-3,2,-1,0,1,4,7,16,6,4,14,30,46,90,10,28,29,31,7,27,32,32,38,84,28,17,12,121,146,1,135,129,123,60,67,68,62,69,33,23,47,31,20,32,59,59,28,34,26,38,54,34,39,52,14,26,5,13,9,51,23,51,8,42,65,45,13,63,69,67,49,22,34,65,38,37,55,47,34,58,3,47,1,292,2,49,14,2,2,18,2,18,25,33,21,12,47,12,3,8,3,3,3,9,14,13,14,3,57,17,14,21,53,4,43,159,17,15,42,47,81,111,99,314,71,2,43,30,24,87,80,4,21,16,68,3,33,9,9,7,5,2,0,-3,-8,-13,-8,-19,-1,-7,-8,-11,-2,-2,4,7,6,13,11,9,17,49,28,32,71,55,71,43,44,43,47,47,47,63,87,43,36,95,106,53,25,105,23,96,56,23,68,37,36,32,32,36,36,27,89,34,37,32,48,51,57,89,53],
      "delta_lng":[0,18,80,27,156,134,110,16,62,57,72,73,75,89,3,27,19,30,77,56,30,29,46,38,28,63,47,141,74,33,17,23,48,58,60,18,35,34,76,63,47,43,32,57,36,42,18,6,-2,-6,-8,-14,-25,-18,-43,-17,-8,1,7,13,16,18,24,33,14,17,55,77,35,28,19,18,8,2,5,0,8,3,10,13,6,9,24,21,26,112,56,42,53,114,114,50,7,40,25,24,69,307,220,277,440,82,78,61,33,62,314,48,202,373,93,26,60,54,75,65,66,196,183,43,87,557,98,100,47,205,135,367,99,39,47,75,50,172,154,14,28,38,86,62,21,33,13,8,19,68,79,121,41,76,51,73,64,129,140,27,52,36,22,94,124,93,62,42,62,31,11,45,24,33,24,17,11,12,11,102,65,65,64,58,49,47,93,30,41,56,28,18,77,114,36,26,117,80,29,34,119,56,37,15,4,17,52,59,47,13,111,73,15,68,46,36,57,40,84,39,73,38,53,62,10,34,36,38,69,18,35,5,13,5,5,36,18,13,161,20,16,9,9,48,66,63,26,30,111,19,33,69,112,37,42,18,11,11,3,35,41,29,24,2,4,36,37,75,88,64,23,166,32,40,24,119,17,18,99,42,69,31,55,40,10,20,44,38,57,51,12,38,33,51,40,45,22,54,21,66,103,38,20,74,39,84,35,122,95,45,73,32,43,28,45,57,95,36,70,119,63,36,36,181,51,21,34,37,12,144,56,84,52,137,131,26,129,88,36,32,39,131,61,12,115,8,6,31,8,103,84,24,18,35,70,6,30,5,14,1,37,27,53,25,38,103,18,85,107,55,67,115,10,99,53,27,13,88,53,39,22,22,72,9,87,40,32,15,14,52,28,13,6,44,93,2,31,71,24,20,10,8,19,26,44,122,55,57,40,10,24,54,14,26,35,14,22,126,80,21,35,1,14,55,8,164,69,20,4,13,44,59,10,27,38,57,22,10,87,29,19,9,20,22,20,12,0,53,5,13,71,179,147,59,81,34,55,23,15,8,4,6,8,9,17,13,6,22,50,44,33,30,12,51,59,57,124,59,72,14,52,24,18,51,77,114,25,63,42,111,7,55,85,82,71,45,15,9,17,8,12,19,16,20,26,60,35,36,13,6,27,39,6,4,4,1,9,7,5,7,6,5,3,2,1,3,3,6,2,1,12,1,2,7,1,1,7,8,8,4,0,2,5,7,3,1,2,1,5,6,10,5,4,0,0,-1,-3,-4,0,-1,0,-6,-2,-3,0,0,-1,-1,1,0,1,1,2,4,4,8,3,7,16,10,15,46,57,62,32,31,35,12,23,65,73,53,14,28,99,21,40,3,11,6,5,33,110,47,31,6,6,36,99,26,20,27,83,34,57,42,55,90,7,131,186,108,214,27,122,134,181,175,80,78,148,242,60,108,72,38,95,105,78,55,19,80,52,12,16,19,14,16,29,25,20,16,15,21,10,35,26,5,43,13,77,47,19,29,32,55,32,42,82,158,71,30,26,37,55,47,68,10,139,102,30,26,23,50,52,45,47,35,27,34,12,31,11,24,15,8,4,5,5,5,3,2,4,8,9,15,31,18,18,20,15,7,98,29,24,20,16,16,22,23,55,36,18,26,19,16,23,35,15,52,9,23,10,24,58,31,34,50,23,68,41,25,52,47,2,89,96,48,19,23,10,8,12,45,33,16,27,39,31,33,36,83,95,209,114,52,107,158,19,11,9,95,191,36,72,63,107,82,26,33,29,32,39,30,32,19,37,31,87,17,73,44,51,22,29,15,15,16,31,32,27,12,14,6,15,29,42,10,20,17,94,117,26,95,161,59,58,24,25,79,94,57,48,70,172,188,89,129,63,59,48,33,39,77,53,29,59,37,61,51,43,47,33,54,196,57,50,145,72,302,272,131,134,229,228,19,265,334,336,152,32,36,200,80,72,63,20,11,39,74,100,212,22,63,58,46,11,29,31,24,27,64,19,14,8,79,96,0,89,84,82,41,45,45,44,53,28,23,52,36,27,41,84,99,53,77,78,125,190,113,135,179,45,87,24,36,34,167,80,175,25,142,224,150,44,213,235,233,168,75,108,223,131,134,179,152,113,187,8,160,5,1011,8,169,46,6,6,66,7,68,104,144,89,60,220,56,9,35,14,10,14,26,42,33,29,5,124,39,38,67,184,9,157,536,54,53,168,136,124,163,135,452,100,1,67,60,52,173,161,8,45,33,146,7,95,26,33,36,35,33,29,23,32,61,30,62,4,50,57,68,13,13,36,24,16,24,20,12,25,36,14,9,18,16,19,15,17,17,23,25,23,35,51,25,21,60,77,44,28,128,29,123,68,28,88,37,26,15,7,-2,-10,-10,-36,-14,-11,-10,-15,-9,-6,2,6]
    }
  ]
}