{
  "code":26005,
  "name":"東急池上線",
  "color":"#EE86A7",
  "symbol":"IK",
  "station_list":[
    {"code":1130202,"id":"11eb04","name":"五反田","name_kana":"ごたんだ","lat":35.625974,"lng":139.723822,"prefecture":13,"numbering":[{"index":"01"}],"lines":[11302,26005,99302],"attr":"eco","postal_code":"141-0022","address":"東京都品川区東五反田一丁目26"},
    {"code":2600502,"id":"f9c117","name":"大崎広小路","name_kana":"おおさきひろこうじ","lat":35.622244,"lng":139.722339,"prefecture":13,"numbering":[{"index":"02"}],"lines":[26005],"attr":"eco","postal_code":"141-0032","address":"品川区大崎４-１-１"},
    {"code":2600503,"id":"c7aa15","name":"戸越銀座","name_kana":"とごしぎんざ","lat":35.615928,"lng":139.714862,"prefecture":13,"numbering":[{"index":"03"}],"lines":[26005],"attr":"eco","postal_code":"142-0051","address":"品川区平塚２-１６-１"},
    {"code":2600504,"id":"2fb19c","name":"荏原中延","name_kana":"えばらなかのぶ","lat":35.610056,"lng":139.712196,"prefecture":13,"numbering":[{"index":"04"}],"lines":[26005],"attr":"eco","postal_code":"142-0053","address":"品川区中延２-８-１"},
    {"code":2600406,"id":"436515","name":"旗の台","name_kana":"はたのだい","lat":35.604923,"lng":139.702286,"prefecture":13,"numbering":[{"index":"05"}],"lines":[26004,26005],"attr":"cool","postal_code":"142-0064","address":"品川区旗の台２-１３-１"},
    {"code":2600506,"id":"575332","name":"長原(東京)","name_kana":"ながはら","lat":35.60219,"lng":139.697881,"prefecture":13,"numbering":[{"index":"06"}],"lines":[26005],"attr":"eco","postal_code":"145-0064","address":"大田区上池台１-１０-１０"},
    {"code":2600507,"id":"8053b8","name":"洗足池","name_kana":"せんぞくいけ","lat":35.599648,"lng":139.690896,"prefecture":13,"numbering":[{"index":"07"}],"lines":[26005],"attr":"eco","postal_code":"145-0065","address":"大田区東雪谷１-１-６"},
    {"code":2600508,"id":"6cf65c","name":"石川台","name_kana":"いしかわだい","lat":35.596888,"lng":139.685063,"prefecture":13,"numbering":[{"index":"08"}],"lines":[26005],"attr":"heat","postal_code":"145-0065","address":"大田区東雪谷２-２３-１"},
    {"code":2600509,"id":"31c87a","name":"雪が谷大塚","name_kana":"ゆきがやおおつか","lat":35.592038,"lng":139.681083,"prefecture":13,"numbering":[{"index":"09"}],"lines":[26005],"attr":"heat","postal_code":"145-0066","address":"大田区南雪谷２-２-１６"},
    {"code":2600510,"id":"ee3c14","name":"御嶽山","name_kana":"おんたけさん","lat":35.585236,"lng":139.682473,"prefecture":13,"numbering":[{"index":"10"}],"lines":[26005],"attr":"heat","postal_code":"145-0073","address":"大田区北嶺町３２-１７"},
    {"code":2600511,"id":"847cc7","name":"久が原","name_kana":"くがはら","lat":35.579499,"lng":139.685678,"prefecture":13,"numbering":[{"index":"11"}],"lines":[26005],"attr":"heat","postal_code":"146-0084","address":"大田区南久が原２-６-１０"},
    {"code":2600512,"id":"f5a94b","name":"千鳥町","name_kana":"ちどりちょう","lat":35.572983,"lng":139.69142,"prefecture":13,"numbering":[{"index":"12"}],"lines":[26005],"attr":"cool","postal_code":"146-0083","address":"大田区千鳥１-２０-１"},
    {"code":2600513,"id":"dea916","name":"池上","name_kana":"いけがみ","lat":35.572025,"lng":139.702822,"prefecture":13,"numbering":[{"index":"13"}],"lines":[26005],"attr":"cool","postal_code":"146-0082","address":"大田区池上６-３-１０"},
    {"code":2600514,"id":"6965e7","name":"蓮沼","name_kana":"はすぬま","lat":35.564173,"lng":139.708544,"prefecture":13,"numbering":[{"index":"14"}],"lines":[26005],"attr":"cool","postal_code":"144-0051","address":"大田区西蒲田７-１７-１"},
    {"code":1133230,"id":"2ed364","name":"蒲田","name_kana":"かまた","lat":35.562517,"lng":139.716032,"prefecture":13,"numbering":[{"index":"15"}],"lines":[11332,26005,26006],"attr":"cool","postal_code":"144-0052","address":"大田区蒲田５丁目"}
  ],
  "north":35.62543,
  "south":35.56175,
  "east":139.72422,
  "west":139.68036,
  "polyline_list":[
    {
      "start":"蒲田",
      "end":"五反田",
      "lat":35.56179,
      "lng":139.71501,
      "delta_lat":[0,-4,0,1,0,0,2,-1,2,4,9,12,15,18,20,38,71,59,7,139,130,96,156,40,32,31,30,28,20,17,15,17,8,3,1,3,-1,-4,-7,-7,-2,-6,-3,2,3,9,9,7,6,15,26,17,13,50,76,255,124,135,61,141,41,46,266,21,9,54,104,272,11,41,42,17,23,34,24,40,69,48,135,102,51,50,17,15,15,44,10,58,76,31,16,15,41,25,1,8,25,21,17,4,5,12,5,4,9,3,9,5,24,13,60,36,8,14,26,1,12,27,9,7,26,7,9,35,15,15,17,26,37,18,37,12,8,42,5,82,15,32,7,60,16,18,24,3,67,23,4,33,98,23,13,67,100,51,9,85,85,64,23,41,38,35,3,69,53,19,22,20,25,89,40,30,14,14,26,8,57,11,36,56,22,16,16,22,19,64,22],
      "delta_lng":[0,-84,-8,-27,-13,-109,-88,-15,-52,-38,-30,-29,-28,-23,-18,-27,-36,-32,-4,-56,-60,-40,-72,-22,-16,-22,-26,-36,-25,-25,-32,-44,-38,-26,-27,-35,-18,-88,-133,-108,-24,-157,-35,-34,-54,-63,-75,-70,-43,-53,-63,-28,-22,-57,-72,-228,-109,-115,-44,-95,-24,-24,-135,-12,-6,-27,-53,-122,-5,-6,0,2,7,9,11,25,45,31,87,67,37,53,22,22,21,68,17,90,120,58,31,41,150,84,5,29,96,72,63,16,19,45,19,14,30,14,18,11,54,23,101,68,15,21,43,2,26,49,21,9,51,15,18,66,29,26,31,46,65,33,70,24,16,83,9,152,30,58,15,112,30,31,47,8,108,25,6,22,42,9,5,30,47,26,3,39,41,30,18,48,72,85,15,117,101,38,27,21,22,30,19,22,11,13,25,7,58,12,32,42,12,7,7,5,4,28,9]
    }
  ]
}