{
  "code":26001,
  "name":"東急東横線",
  "color":"#DA0442",
  "symbol":"TY",
  "station_list":[
    {"code":1130205,"id":"8e9a53","name":"渋谷","name_kana":"しぶや","lat":35.658871,"lng":139.701238,"prefecture":13,"numbering":[{"index":"01"}],"lines":[11302,11321,11328,11333,24006,26001,26003,28001,28008,28010],"attr":"cool","postal_code":"150-0043","address":"東京都渋谷区道玄坂一丁目1-1"},
    {"code":2600102,"id":"7c89ed","name":"代官山","name_kana":"だいかんやま","lat":35.648193,"lng":139.703284,"prefecture":13,"numbering":[{"index":"02"}],"lines":[26001],"attr":"cool","postal_code":"150-0034","address":"渋谷区代官山町１９-４"},
    {"code":2600103,"id":"026a31","name":"中目黒","name_kana":"なかめぐろ","lat":35.643854,"lng":139.698621,"prefecture":13,"numbering":[{"index":"03"}],"lines":[26001,28003],"attr":"cool","postal_code":"153-0051","address":"目黒区上目黒３-４-１"},
    {"code":2600104,"id":"77fc64","name":"祐天寺","name_kana":"ゆうてんじ","lat":35.637163,"lng":139.690758,"prefecture":13,"numbering":[{"index":"04"}],"lines":[26001],"attr":"cool","postal_code":"153-0052","address":"目黒区祐天寺２-１３-３"},
    {"code":2600105,"id":"194a28","name":"学芸大学","name_kana":"がくげいだいがく","lat":35.628786,"lng":139.68522,"prefecture":13,"numbering":[{"index":"05"}],"lines":[26001],"attr":"heat","postal_code":"152-0004","address":"目黒区鷹番３-２-１"},
    {"code":2600106,"id":"4edee7","name":"都立大学","name_kana":"とりつだいがく","lat":35.617835,"lng":139.676393,"prefecture":13,"numbering":[{"index":"06"}],"lines":[26001],"attr":"heat","postal_code":"152-0031","address":"目黒区中根１-５-１"},
    {"code":2600107,"id":"eee970","name":"自由が丘","name_kana":"じゆうがおか","lat":35.607224,"lng":139.668664,"prefecture":13,"numbering":[{"index":"07"}],"lines":[26001,26004],"attr":"heat","postal_code":"152-0035","address":"目黒区自由が丘１-３０-１"},
    {"code":2600108,"id":"bc9888","name":"田園調布","name_kana":"でんえんちょうふ","lat":35.596815,"lng":139.667356,"prefecture":13,"numbering":[{"index":"08"}],"lines":[26001,26002],"attr":"eco","postal_code":"145-0071","address":"大田区田園調布３-２５-１８"},
    {"code":2600109,"id":"b68259","name":"多摩川","name_kana":"たまがわ","lat":35.589591,"lng":139.668723,"prefecture":13,"numbering":[{"index":"09"}],"lines":[26001,26002,26006],"attr":"eco","postal_code":"145-0071","address":"大田区田園調布１-５３-８"},
    {"code":2600110,"id":"ee1c3a","name":"新丸子","name_kana":"しんまるこ","lat":35.58049,"lng":139.661964,"prefecture":14,"numbering":[{"index":"10"}],"lines":[26001,26002],"attr":"heat","postal_code":"211-0005","address":"川崎市中原区新丸子町７６６"},
    {"code":1130307,"id":"7b401a","name":"武蔵小杉","name_kana":"むさしこすぎ","lat":35.576692,"lng":139.659634,"prefecture":14,"numbering":[{"index":"11"}],"lines":[11303,11308,11328,11333,26001,26002],"attr":"cool","postal_code":"211-0063","address":"川崎市中原区小杉町三丁目492"},
    {"code":2600112,"id":"ea8147","name":"元住吉","name_kana":"もとすみよし","lat":35.565698,"lng":139.654668,"prefecture":14,"numbering":[{"index":"12"}],"lines":[26001,26002],"attr":"heat","postal_code":"211-0025","address":"川崎市中原区木月６７９"},
    {"code":2600113,"id":"b16830","name":"日吉(神奈川)","name_kana":"ひよし","lat":35.5539,"lng":139.646944,"prefecture":14,"numbering":[{"index":"13"}],"lines":[26001,26002,99343],"attr":"eco","postal_code":"223-0061","address":"横浜市港北区日吉２-１-１"},
    {"code":2600114,"id":"cbf22b","name":"綱島","name_kana":"つなしま","lat":35.536906,"lng":139.63491,"prefecture":14,"numbering":[{"index":"14"}],"lines":[26001],"attr":"eco","postal_code":"223-0053","address":"横浜市港北区綱島西１-１-８"},
    {"code":2600115,"id":"e02432","name":"大倉山(神奈川)","name_kana":"おおくらやま","lat":35.52243,"lng":139.629808,"prefecture":14,"numbering":[{"index":"15"}],"lines":[26001],"attr":"eco","postal_code":"222-0037","address":"横浜市港北区大倉山一丁目1-1"},
    {"code":1130603,"id":"38f281","name":"菊名","name_kana":"きくな","lat":35.509749,"lng":139.630147,"prefecture":14,"numbering":[{"index":"16"}],"lines":[11306,26001],"attr":"cool","postal_code":"222-0011","address":"横浜市港北区菊名７丁目"},
    {"code":2600117,"id":"602007","name":"妙蓮寺","name_kana":"みょうれんじ","lat":35.498779,"lng":139.633194,"prefecture":14,"numbering":[{"index":"17"}],"lines":[26001],"attr":"cool","postal_code":"222-0011","address":"横浜市港北区菊名１-１-１"},
    {"code":2600118,"id":"0d8935","name":"白楽","name_kana":"はくらく","lat":35.489555,"lng":139.627875,"prefecture":14,"numbering":[{"index":"18"}],"lines":[26001],"attr":"cool","postal_code":"221-0065","address":"横浜市神奈川区白楽１００"},
    {"code":2600119,"id":"6811e5","name":"東白楽","name_kana":"ひがしはくらく","lat":35.483523,"lng":139.629364,"prefecture":14,"numbering":[{"index":"19"}],"lines":[26001],"attr":"cool","postal_code":"221-0065","address":"横浜市神奈川区白楽１２-１"},
    {"code":2600120,"id":"ab780e","name":"反町","name_kana":"たんまち","lat":35.47474,"lng":139.625337,"prefecture":14,"numbering":[{"index":"20"}],"lines":[26001],"attr":"cool","postal_code":"221-0825","address":"横浜市神奈川区反町１-１"},
    {"code":1130105,"id":"b0c711","name":"横浜","name_kana":"よこはま","lat":35.466195,"lng":139.622704,"prefecture":14,"numbering":[{"index":"21"}],"lines":[11301,11307,11308,11328,11332,11333,26001,27001,29001,99310,99316],"attr":"cool","postal_code":"220-0011","address":"横浜市西区高島２丁目"}
  ],
  "north":35.66106,
  "south":35.466,
  "east":139.70705,
  "west":139.62195,
  "polyline_list":[
    {
      "start":"中目黒",
      "end":"渋谷",
      "lat":35.64574,
      "lng":139.70078,
      "delta_lat":[0,38,17,43,6,12,110,5,39,47,35,108,79,45,92,52,16,17,11,18,13,13,11,10,15,13,16,42,28,15,11,16,11,10,9,7,6,5,4,8,7,10,9,7,5,9,8,9,6,9,11,15,11,7,11,9,11,8,8,9,13,7,11,14,14,13,12,15,28,31,16,16,71,39],
      "delta_lng":[0,13,16,51,8,14,130,6,66,52,26,58,47,32,65,29,5,5,3,1,0,-3,-5,-3,-11,-8,-15,-38,-29,-14,-13,-15,-16,-14,-13,-10,-4,-4,-3,-4,-4,-4,-4,-5,-4,-11,-8,-10,-7,-10,-13,-18,-13,-8,-12,-11,-11,-8,-7,-8,-9,-6,-7,-9,-8,-5,-5,-4,-9,-9,-3,-1,-3,-2]
    },
    {
      "start":"横浜",
      "end":"田園調布",
      "lat":35.466,
      "lng":139.62195,
      "delta_lat":[0,87,39,14,48,15,37,106,26,35,14,14,13,11,20,20,16,25,33,20,54,46,3,42,40,50,45,18,14,29,32,21,34,29,170,60,23,37,29,52,25,33,31,43,28,77,48,4,60,0,176,156,33,25,25,20,18,17,16,24,32,11,14,16,10,10,17,9,17,24,24,14,20,27,27,29,71,20,23,43,19,30,43,80,21,20,12,15,11,13,27,27,31,44,32,79,71,36,40,27,26,21,45,60,36,29,33,27,32,252,30,18,16,17,14,14,26,16,18,13,16,33,34,27,16,16,24,11,36,83,72,97,131,104,166,50,78,80,161,161,24,13,29,36,27,11,63,76,180,229,47,45,73,91,44,7,20,21,19,25,38,18,170,26,39,24,35,22,13,26,71,73,210,261,196,76,164,17,132,19,25,23,38,14,213,58,45,235,33,28,24,29,41,65,17,92,12,14,8,13,56,21,23,53,78,96,141,16,77,57,120,12,29,175,308,20,142,9,16,55,5,14,49,192,7,193,136,108,151,90,22,18,31,12,17,12,27,49,129,46,60,15,20,12,25,11,23,22,145,68,19,214,79,29,23,3],
      "delta_lng":[0,80,32,12,41,10,31,76,19,23,9,7,5,6,8,4,4,5,2,-3,-12,-9,-1,-5,-5,-3,4,5,4,9,14,14,29,28,193,63,22,33,16,23,8,5,4,-4,-6,-19,-11,-2,-21,-1,-69,-57,-12,-10,-7,-6,-2,-1,-4,2,4,3,4,4,4,5,14,5,16,22,25,22,26,36,29,38,88,20,25,28,14,21,28,45,12,8,3,4,2,2,2,0,-2,-2,-2,-1,7,10,11,11,10,9,17,23,14,11,8,7,3,-3,-3,-3,-3,-5,-7,-8,-15,-13,-14,-13,-21,-45,-55,-33,-21,-18,-21,-9,-13,-16,-11,-16,-17,-13,-21,-6,-6,-10,-23,-19,-2,-2,-1,0,0,1,16,32,66,86,19,22,42,56,27,5,10,9,7,5,3,0,-1,3,5,4,12,10,10,18,61,64,179,222,168,66,143,13,113,14,15,10,18,6,85,25,18,68,10,9,13,21,41,68,19,100,11,15,8,15,58,18,18,38,49,55,67,8,37,28,57,6,14,86,149,11,72,4,7,28,2,6,24,94,2,98,64,53,72,47,12,11,19,10,15,13,28,65,174,56,75,17,24,13,16,3,0,-2,-41,-16,-4,-56,-19,-4,-1,0]
    },
    {
      "start":"田園調布",
      "end":"中目黒",
      "lat":35.59472,
      "lng":139.66747,
      "delta_lat":[0,190,132,65,4,32,121,412,111,45,65,16,49,37,37,10,80,200,18,26,105,60,26,92,97,8,216,8,102,9,134,29,11,15,48,13,9,40,24,30,33,5,54,23,216,30,250,7,121,8,77,128,113,131,57,34,29,59,87,8,97,4,191,37,29,41,31,50,40,159,5,62,25,29,6,67,20,13],
      "delta_lng":[0,-17,-4,1,0,2,9,41,14,10,28,7,25,19,19,5,46,110,11,15,60,42,21,86,88,7,197,7,96,8,121,26,10,15,47,11,9,35,19,29,30,4,51,19,192,20,145,3,75,4,45,78,67,78,35,20,21,48,72,6,80,2,160,33,34,60,57,93,66,189,6,71,32,34,6,83,23,14]
    }
  ]
}