{
  "code":26007,
  "name":"東急世田谷線",
  "color":"#FCC70D",
  "symbol":"SG",
  "station_list":[
    {"code":2600303,"id":"ad40c9","name":"三軒茶屋","name_kana":"さんげんちゃや","lat":35.643716,"lng":139.670156,"prefecture":13,"numbering":[{"index":"01"}],"lines":[26003,26007],"attr":"cool","postal_code":"154-0004","address":"世田谷区太子堂４-２１-１"},
    {"code":2600702,"id":"90e179","name":"西太子堂","name_kana":"にしたいしどう","lat":35.644545,"lng":139.666382,"prefecture":13,"numbering":[{"index":"02"}],"lines":[26007],"attr":"eco","postal_code":"154-0004","address":"世田谷区太子堂４-１０-３"},
    {"code":2600703,"id":"3ce792","name":"若林(東京)","name_kana":"わかやばし","lat":35.645933,"lng":139.659911,"prefecture":13,"numbering":[{"index":"03"}],"lines":[26007],"attr":"eco","postal_code":"154-0023","address":"世田谷区若林４-３-１５"},
    {"code":2600704,"id":"a6352d","name":"松陰神社前","name_kana":"しょういんじんじゃまえ","lat":35.643947,"lng":139.655211,"prefecture":13,"numbering":[{"index":"04"}],"lines":[26007],"attr":"eco","postal_code":"154-0023","address":"世田谷区若林４-２１-１６"},
    {"code":2600705,"id":"79afb9","name":"世田谷","name_kana":"せたがや","lat":35.643564,"lng":139.650945,"prefecture":13,"numbering":[{"index":"05"}],"lines":[26007],"attr":"eco","postal_code":"154-0017","address":"世田谷区世田谷４-９-６"},
    {"code":2600706,"id":"73a799","name":"上町","name_kana":"かみまち","lat":35.643656,"lng":139.646276,"prefecture":13,"numbering":[{"index":"06"}],"lines":[26007],"attr":"eco","postal_code":"154-0017","address":"世田谷区世田谷３-４-３"},
    {"code":2600707,"id":"1910fc","name":"宮の坂","name_kana":"みやのさか","lat":35.647508,"lng":139.64494,"prefecture":13,"numbering":[{"index":"07"}],"lines":[26007],"attr":"heat","postal_code":"156-0051","address":"世田谷区宮坂１-２４-７"},
    {"code":2600708,"id":"bd2d9e","name":"山下(東京)","name_kana":"やました","lat":35.653844,"lng":139.646509,"prefecture":13,"numbering":[{"index":"08"}],"lines":[26007],"attr":"heat","postal_code":"154-0021","address":"世田谷区豪徳寺１-４４-５"},
    {"code":2600709,"id":"01db2e","name":"松原(東京)","name_kana":"まつばら","lat":35.660048,"lng":139.642,"prefecture":13,"numbering":[{"index":"09"}],"lines":[26007],"attr":"heat","postal_code":"156-0043","address":"世田谷区松原４-１０-８"},
    {"code":2400107,"id":"65dfd5","name":"下高井戸","name_kana":"しもたかいど","lat":35.66615,"lng":139.641372,"prefecture":13,"numbering":[{"index":"10"}],"lines":[24001,26007],"attr":"cool","postal_code":"156-0043","address":"世田谷区松原３-２９-１７"}
  ],
  "north":35.66591,
  "south":35.64318,
  "east":139.66961,
  "west":139.64116,
  "polyline_list":[
    {
      "start":"下高井戸",
      "end":"三軒茶屋",
      "lat":35.66591,
      "lng":139.64116,
      "delta_lat":[0,-11,0,-7,-11,-11,-24,-42,-176,-176,-77,-71,-18,-30,-28,-41,-39,-46,-114,-143,-32,-41,-9,-5,-10,-6,-18,-19,-30,-21,-199,-344,-72,-64,-51,-53,-166,-20,-13,-14,-9,-7,-4,2,12,13,8,29,12,18,14,19,79,40,21,15,12,2,-1,-8,-11,-24,-26,-78,-28,-15,-7,-7,-2,1,4],
      "delta_lng":[0,80,4,11,7,3,1,-4,-12,-11,-7,2,1,4,10,24,30,43,127,159,25,22,6,2,2,0,2,0,3,-1,-54,-92,-22,-3,13,26,98,12,14,26,27,31,33,30,113,141,84,337,72,55,35,35,138,86,67,79,69,34,51,52,47,65,60,189,75,50,26,43,51,34,85]
    }
  ]
}