{
  "code":26004,
  "name":"東急大井町線",
  "color":"#F18C43",
  "symbol":"OM",
  "station_list":[
    {"code":1133228,"id":"6dde5c","name":"大井町","name_kana":"おおいまち","lat":35.606257,"lng":139.73485,"prefecture":13,"numbering":[{"index":"01"}],"lines":[11332,26004,99337],"attr":"cool","postal_code":"140-0014","address":"品川区大井１丁目","next":[2700107,1130201,2700104,2700105,1130804,2700106,2600402],"voronoi":{"lat":35.601972,"lng":139.728984,"delta_lat":[0,-3121,4155,4773,4734,1693,-925],"delta_lng":[0,1104,7997,828,-1806,-2953,-1950]}},
    {"code":2600402,"id":"8a2abe","name":"下神明","name_kana":"しもしんめい","lat":35.608704,"lng":139.726256,"prefecture":13,"numbering":[{"index":"02"}],"lines":[26004],"attr":"cool","postal_code":"141-0033","address":"品川区西品川１-２９-６","next":[9930204,2600403,1130201,1130804,1133228],"voronoi":{"lat":35.601972,"lng":139.728984,"delta_lat":[0,4358,6845,1840,-1734],"delta_lng":[0,-6823,128,1119,8796]}},
    {"code":2600403,"id":"1d0469","name":"戸越公園","name_kana":"とごしこうえん","lat":35.608856,"lng":139.718159,"prefecture":13,"numbering":[{"index":"03"}],"lines":[26004],"attr":"cool","postal_code":"142-0041","address":"品川区戸越５-１０-１５","next":[2600402,1130804,9930204,2600504,2600404],"voronoi":{"lat":35.606329,"lng":139.722161,"delta_lat":[0,6845,-1946,-3153,-4177],"delta_lng":[0,128,-6755,-635,2333]}},
    {"code":2600404,"id":"616a50","name":"中延","name_kana":"なかのぶ","lat":35.60571,"lng":139.712526,"prefecture":13,"numbering":[{"index":"04"}],"lines":[26004,99302],"attr":"cool","postal_code":"142-0053","address":"品川区中延４-５-５","next":[9930202,1130804,2600504,2600403,2600405],"voronoi":{"lat":35.600772,"lng":139.715842,"delta_lat":[0,3126,4177,-451,-6494],"delta_lng":[0,1391,-2333,-5942,2477]}},
    {"code":2600405,"id":"e0e94e","name":"荏原町","name_kana":"えばらまち","lat":35.60382,"lng":139.707571,"prefecture":13,"numbering":[{"index":"05"}],"lines":[26004],"attr":"cool","postal_code":"142-0053","address":"品川区中延５-２-１","next":[2600406,9930202,2600506,2600504,2600404],"voronoi":{"lat":35.596773,"lng":139.703774,"delta_lat":[0,1146,11858,-2152,-6494],"delta_lng":[0,-193,2475,2901,2477]}},
    {"code":2600406,"id":"436515","name":"旗の台","name_kana":"はたのだい","lat":35.604923,"lng":139.702286,"prefecture":13,"numbering":[{"index":"06"}],"lines":[26004,26005],"attr":"cool","postal_code":"142-0064","address":"品川区旗の台２-１３-１","next":[2600405,2600506,2600205,2600204,2600407,2600504],"voronoi":{"lat":35.611741,"lng":139.705039,"delta_lat":[0,-1738,-2721,-360,-9003,11858],"delta_lng":[0,-5095,-1893,-55,5585,2475]}},
    {"code":2600407,"id":"6c6a1c","name":"北千束","name_kana":"きたせんぞく","lat":35.606311,"lng":139.693303,"prefecture":13,"numbering":[{"index":"07"}],"lines":[26004],"attr":"cool","postal_code":"145-0062","address":"大田区北千束２-１６-１","next":[2600507,2600206,2600205,2600506,2600406],"voronoi":{"lat":35.609364,"lng":139.68999,"delta_lat":[0,-5324,-1700,4582,360],"delta_lng":[0,-825,4706,4125,55]}},
    {"code":2600206,"id":"a2ade1","name":"大岡山","name_kana":"おおおかやま","lat":35.607456,"lng":139.685909,"prefecture":13,"numbering":[{"index":"08"}],"lines":[26002,26004],"attr":"heat","postal_code":"145-0062","address":"大田区北千束３-２７-１","next":[2600507,2600205,2600407,2600409,2600508,2600106],"voronoi":{"lat":35.613111,"lng":139.681659,"delta_lat":[0,-10777,-215,1921,5324,8610],"delta_lng":[0,1804,2695,3008,825,-3028]}},
    {"code":2600409,"id":"b906a0","name":"緑が丘(東京)","name_kana":"みどりがおか","lat":35.60638,"lng":139.679482,"prefecture":13,"numbering":[{"index":"09"}],"lines":[26004],"attr":"heat","postal_code":"152-0034","address":"目黒区緑が丘３-１-１２","next":[2600106,2600508,2600207,2600206,2600107],"voronoi":{"lat":35.613111,"lng":139.681659,"delta_lat":[0,-10777,-3221,10756,1289],"delta_lng":[0,1804,-5478,-3672,100]}},
    {"code":2600107,"id":"eee970","name":"自由が丘","name_kana":"じゆうがおか","lat":35.607224,"lng":139.668664,"prefecture":13,"numbering":[{"index":"10"}],"lines":[26001,26004],"attr":"heat","postal_code":"152-0035","address":"目黒区自由が丘１-３０-１","next":[2600411,2600106,2600108,2600207,2600304,2600409],"voronoi":{"lat":35.619689,"lng":139.6627,"delta_lat":[0,-271,-17119,-204,7774,1289],"delta_lng":[0,-1024,4115,1620,6902,100]}},
    {"code":2600411,"id":"217a98","name":"九品仏","name_kana":"くほんぶつ","lat":35.60538,"lng":139.660992,"prefecture":13,"numbering":[{"index":"11"}],"lines":[26004],"attr":"heat","postal_code":"158-0083","address":"世田谷区奥沢７-２０-１","next":[2600107,2600108,2600304,2600412],"voronoi":{"lat":35.619417,"lng":139.661676,"delta_lat":[0,-17119,-8220,25371],"delta_lng":[0,4115,-11063,5662]}},
    {"code":2600412,"id":"da6197","name":"尾山台","name_kana":"おやまだい","lat":35.606971,"lng":139.653862,"prefecture":13,"numbering":[{"index":"12"}],"lines":[26004],"attr":"heat","postal_code":"158-0082","address":"世田谷区等々力５-５-７","next":[2600108,2600304,1130308,2600305,2600411,2600110,2600413],"voronoi":{"lat":35.594007,"lng":139.647676,"delta_lat":[0,-2146,500,1718,25371,1757,-145],"delta_lng":[0,4126,1633,1293,5662,-5937,-392]}},
    {"code":2600413,"id":"9a32d4","name":"等々力","name_kana":"とどろき","lat":35.608369,"lng":139.647938,"prefecture":13,"numbering":[{"index":"13"}],"lines":[26004],"attr":"eco","postal_code":"158-0082","address":"世田谷区等々力３-１-１","next":[1130308,2600414,2600305,1130309,2600412],"voronoi":{"lat":35.620159,"lng":139.647403,"delta_lat":[0,-22199,-2132,-1822,27055],"delta_lng":[0,-8829,2418,6683,6385]}},
    {"code":2600414,"id":"cd84e8","name":"上野毛","name_kana":"かみのげ","lat":35.611957,"lng":139.638917,"prefecture":13,"numbering":[{"index":"14"}],"lines":[26004],"attr":"eco","postal_code":"158-0093","address":"世田谷区上野毛１-２６-６","next":[1130309,2600307,2600413,2600308,2600305,2600306],"voronoi":{"lat":35.61792,"lng":139.632717,"delta_lat":[0,-16172,-1821,-1966,22199,1307],"delta_lng":[0,223,546,5088,8829,-4394]}},
    {"code":2600307,"id":"ece4b8","name":"二子玉川","name_kana":"ふたこたまがわ","lat":35.611788,"lng":139.626685,"prefecture":13,"numbering":[{"index":"15"},{"symbol":"DT","color":"#38B48B","index":"07"}],"lines":[26003,26004],"attr":"cool","postal_code":"158-0094","address":"世田谷区玉川２-２２-１３","next":[2500113,2600414,2500114,2600308,2600306],"voronoi":{"lat":35.601748,"lng":139.632941,"delta_lat":[0,21110,105,3295,-8338],"delta_lng":[0,-23280,107,6088,16862]}},
    {"code":2600308,"id":"1d14c9","name":"二子新地","name_kana":"ふたこしんち","lat":35.606994,"lng":139.622338,"prefecture":14,"numbering":[{"symbol":"DT","color":"#38B48B","index":"08"}],"lines":[26003,26004],"attr":"cool","postal_code":"213-0002","address":"川崎市高津区二子２-２-１","next":[2600309,2600414,2600307,2500114,1130311,1130309],"voronoi":{"lat":35.601748,"lng":139.632941,"delta_lat":[0,21110,-391,-2621,-22877,2958],"delta_lng":[0,-23280,-553,321,15859,8199]}},
    {"code":2600309,"id":"cced91","name":"高津(神奈川)","name_kana":"たかつ","lat":35.603248,"lng":139.616934,"prefecture":14,"numbering":[{"symbol":"DT","color":"#38B48B","index":"09"}],"lines":[26003,26004],"attr":"cool","postal_code":"213-0002","address":"川崎市高津区二子４-１-１","next":[2600308,1130309,2600310,1130310,1130311],"voronoi":{"lat":35.596968,"lng":139.625287,"delta_lat":[0,-3857,8806,8762,9166],"delta_lng":[0,-4905,-6869,-4632,547]}},
    {"code":2600310,"id":"c19154","name":"溝の口","name_kana":"みぞのくち","lat":35.59984,"lng":139.610487,"prefecture":14,"numbering":[{"index":"16"},{"symbol":"DT","color":"#38B48B","index":"10"}],"lines":[26003,26004],"attr":"cool","postal_code":"213-0001","address":"川崎市高津区溝口２-１-１","next":[2600309,1130310,1130311,2600311],"voronoi":{"lat":35.599911,"lng":139.604343,"delta_lat":[0,10769,-8762,-5118],"delta_lng":[0,4538,4632,-5197]}}
  ],
  "north":35.61274,
  "south":35.6038,
  "east":139.73506,
  "west":139.6255,
  "polyline_list":[
    {
      "start":"二子玉川",
      "end":"大井町",
      "lat":35.61036,
      "lng":139.6255,
      "delta_lat":[0,25,36,40,35,8,9,10,14,16,6,13,12,7,4,0,-2,-13,-20,-34,-11,-3,0,0,1,8,4,6,19,5,23,13,5,1,1,-7,-9,-9,-14,-10,-24,-30,-54,-15,-6,-53,-3,-59,-16,-7,-13,-72,-22,-28,-21,-54,-39,-31,-79,-55,-13,-5,-3,5,12,24,42,25,43,38,55,19,18,4,3,3,1,0,-4,-4,-4,-38,-17,-36,-7,-16,-27,-4,-21,-3,-25,-4,9,51,20,27,11,5,26,10,8,4,-11,-22,-72,-8,-8,-6,-6,-3,-25,-46,-15,-4,-4,-3,-9,-1,-5,-13,-2,-1,0,-4,-3,-4,-16,-1,-5,-16,-6,-20,-1,-6,-3,-13,-1,-8,-9,-14,-2,16,11,11,7,3,6,18,22,70,4,48,5,108,41,40,44,30,13,7,17,7,10,4,2,-4,-13,-9,-11,-3,-26,-3,-18,-3,-23,-30,0,-6,-16],
      "delta_lng":[0,21,30,33,29,8,10,10,19,21,12,24,18,47,22,13,10,67,77,144,47,16,10,9,35,41,13,19,64,18,75,45,30,13,45,66,35,30,45,21,47,57,90,27,12,87,6,96,30,15,38,303,94,106,94,224,175,140,340,236,86,39,36,45,48,68,124,72,128,116,153,67,69,24,16,21,20,33,54,22,26,140,74,139,29,62,94,12,80,8,83,54,34,198,76,94,45,15,105,56,58,53,75,78,206,27,21,17,22,8,78,140,44,24,19,17,45,12,77,290,40,20,10,29,18,25,90,6,19,71,25,87,4,26,13,49,11,22,42,72,83,93,54,32,24,7,16,48,37,107,6,69,8,156,59,59,70,66,44,47,81,122,266,85,70,26,78,27,33,8,73,9,59,16,236,334,3,49,133]
    }
  ]
}