{
  "code":26002,
  "name":"東急目黒線",
  "color":"#009CD2",
  "symbol":"MG",
  "station_list":[
    {"code":1130203,"id":"0db398","name":"目黒","name_kana":"めぐろ","lat":35.633923,"lng":139.715775,"prefecture":13,"numbering":[{"index":"01"}],"lines":[11302,26002,28009,99303],"attr":"eco","postal_code":"141-0021","address":"東京都品川区上大崎二丁目16-9"},
    {"code":2600202,"id":"251c1c","name":"不動前","name_kana":"ふどうまえ","lat":35.626526,"lng":139.71469,"prefecture":13,"numbering":[{"index":"02"}],"lines":[26002],"attr":"cool","postal_code":"141-0031","address":"品川区西五反田５-１２-１"},
    {"code":2600203,"id":"052a8b","name":"武蔵小山","name_kana":"むさしこやま","lat":35.620538,"lng":139.704524,"prefecture":13,"numbering":[{"index":"03"}],"lines":[26002],"attr":"cool","postal_code":"142-0062","address":"品川区小山３-４-８"},
    {"code":2600204,"id":"28feb4","name":"西小山","name_kana":"にしこやま","lat":35.615455,"lng":139.698694,"prefecture":13,"numbering":[{"index":"04"}],"lines":[26002],"attr":"cool","postal_code":"142-0062","address":"品川区小山６-３-１０"},
    {"code":2600205,"id":"340eb3","name":"洗足","name_kana":"せんぞく","lat":35.61043,"lng":139.694367,"prefecture":13,"numbering":[{"index":"05"}],"lines":[26002],"attr":"cool","postal_code":"152-0012","address":"目黒区洗足２-２１-１"},
    {"code":2600206,"id":"a2ade1","name":"大岡山","name_kana":"おおおかやま","lat":35.607456,"lng":139.685909,"prefecture":13,"numbering":[{"index":"06"}],"lines":[26002,26004],"attr":"heat","postal_code":"145-0062","address":"大田区北千束３-２７-１"},
    {"code":2600207,"id":"57e7d9","name":"奥沢","name_kana":"おくさわ","lat":35.603947,"lng":139.672355,"prefecture":13,"numbering":[{"index":"07"}],"lines":[26002],"attr":"heat","postal_code":"158-0083","address":"世田谷区奥沢３-４７-１７"},
    {"code":2600108,"id":"bc9888","name":"田園調布","name_kana":"でんえんちょうふ","lat":35.596815,"lng":139.667356,"prefecture":13,"numbering":[{"index":"08"}],"lines":[26001,26002],"attr":"eco","postal_code":"145-0071","address":"大田区田園調布３-２５-１８"},
    {"code":2600109,"id":"b68259","name":"多摩川","name_kana":"たまがわ","lat":35.589591,"lng":139.668723,"prefecture":13,"numbering":[{"index":"09"}],"lines":[26001,26002,26006],"attr":"eco","postal_code":"145-0071","address":"大田区田園調布１-５３-８"},
    {"code":2600110,"id":"ee1c3a","name":"新丸子","name_kana":"しんまるこ","lat":35.58049,"lng":139.661964,"prefecture":14,"numbering":[{"index":"10"}],"lines":[26001,26002],"attr":"heat","postal_code":"211-0005","address":"川崎市中原区新丸子町７６６"},
    {"code":1130307,"id":"7b401a","name":"武蔵小杉","name_kana":"むさしこすぎ","lat":35.576692,"lng":139.659634,"prefecture":14,"numbering":[{"index":"11"}],"lines":[11303,11308,11328,11333,26001,26002],"attr":"cool","postal_code":"211-0063","address":"川崎市中原区小杉町三丁目492"},
    {"code":2600112,"id":"ea8147","name":"元住吉","name_kana":"もとすみよし","lat":35.565698,"lng":139.654668,"prefecture":14,"numbering":[{"index":"12"}],"lines":[26001,26002],"attr":"heat","postal_code":"211-0025","address":"川崎市中原区木月６７９"},
    {"code":2600113,"id":"b16830","name":"日吉(神奈川)","name_kana":"ひよし","lat":35.5539,"lng":139.646944,"prefecture":14,"numbering":[{"index":"13"}],"lines":[26001,26002,99343],"attr":"eco","postal_code":"223-0061","address":"横浜市港北区日吉２-１-１"}
  ],
  "north":35.6332,
  "south":35.59663,
  "east":139.71646,
  "west":139.66726,
  "polyline_list":[
    {
      "start":"田園調布",
      "end":"目黒",
      "lat":35.59663,
      "lng":139.66731,
      "delta_lat":[0,132,65,36,107,110,42,63,34,29,33,22,48,22,25,38,49,52,4,20,6,20,59,16,5,26,11,5,28,36,32,7,16,8,14,9,29,22,7,5,21,68,27,38,64,0,18,49,274,61,4,18,178,74,63,14,94,63,39,216,185,14,33,5,9,16,16,19,43,30,71,31,70,18,21,21,27,49,21,15,17,65,44,143],
      "delta_lng":[0,-4,1,3,8,10,27,41,31,39,65,70,175,89,86,148,182,200,20,79,23,80,224,59,18,97,42,14,112,137,118,32,58,32,58,30,110,87,16,10,20,66,28,38,54,1,14,43,224,52,3,15,143,66,81,20,167,109,71,383,324,25,58,9,16,25,19,18,31,21,54,22,49,8,6,4,2,-1,-3,-4,-4,-28,-16,-48]
    }
  ]
}