{
  "code":27002,
  "name":"京急空港線",
  "color":"#00BFFF",
  "symbol":"KK",
  "station_list":[
    {"code":2700112,"id":"feadab","name":"京急蒲田","name_kana":"けいきゅうかまた","lat":35.560796,"lng":139.723681,"prefecture":13,"numbering":[{"index":"11"}],"lines":[27001,27002],"attr":"cool","postal_code":"144-0052","address":"大田区蒲田４-５０-１０"},
    {"code":2700202,"id":"2c652e","name":"糀谷","name_kana":"こうじや","lat":35.5545,"lng":139.72962,"prefecture":13,"numbering":[{"index":"12"}],"lines":[27002],"attr":"eco","postal_code":"144-0034","address":"大田区西糀谷４-１３-１７"},
    {"code":2700203,"id":"fe3a0f","name":"大鳥居","name_kana":"おおとりい","lat":35.552531,"lng":139.739356,"prefecture":13,"numbering":[{"index":"13"}],"lines":[27002],"attr":"eco","postal_code":"144-0034","address":"大田区西糀谷３-３７-１８"},
    {"code":2700204,"id":"fc3558","name":"穴守稲荷","name_kana":"あなもりいなり","lat":35.550326,"lng":139.746669,"prefecture":13,"numbering":[{"index":"14"}],"lines":[27002],"attr":"heat","postal_code":"144-0043","address":"大田区羽田４-６-１１"},
    {"code":2700205,"id":"846c56","name":"天空橋","name_kana":"てんくうばし","lat":35.548908,"lng":139.75423,"prefecture":13,"numbering":[{"index":"15"}],"lines":[27002,99336],"attr":"heat","postal_code":"144-0041","address":"大田区羽田空港１-１-２"},
    {"code":2700207,"id":"7e6033","name":"羽田空港第３ターミナル(京浜急行電鉄)","name_kana":"はねだくうこうだいさんたーみなる","lat":35.544915,"lng":139.767214,"prefecture":13,"numbering":[{"index":"16"}],"lines":[27002],"attr":"cool","postal_code":"144-0041","address":"東京都大田区羽田空港二丁目6番5号"},
    {"code":2700206,"id":"482730","name":"羽田空港第１・第２ターミナル","name_kana":"はねだくうこうだいいち・だいにたーみなる","lat":35.549809,"lng":139.785962,"prefecture":13,"numbering":[{"index":"17"}],"lines":[27002],"attr":"cool","postal_code":"144-0041","address":"大田区羽田空港３-３-４"}
  ],
  "north":35.56054,
  "south":35.54443,
  "east":139.78724,
  "west":139.72346,
  "polyline_list":[
    {
      "start":"京急蒲田",
      "end":"羽田空港国内線ターミナル",
      "lat":35.56054,
      "lng":139.72346,
      "delta_lat":[0,-23,-134,-210,-220,-45,-51,-14,-7,-6,-10,-26,-11,-4,-7,-1,-10,-21,-45,-40,-49,-31,-43,-15,-9,-10,-22,-3,-15,-9,-12,-8,-2,-25,-53,-61,-22,-30,-67,-31,-18,-11,-27,-23,-24,-6,-16,-16,-6,-18,-23,-15,-6,0,9,12,4,23,17,64,71,73,23,69,17,27,44,8,74,21,40],
      "delta_lng":[0,9,136,217,226,52,55,21,18,33,72,275,112,93,147,16,20,92,166,118,162,106,137,49,32,34,76,10,62,58,133,69,53,62,123,90,38,42,108,61,62,58,163,164,164,46,114,117,48,117,172,158,117,55,108,78,12,93,52,142,142,150,47,142,32,57,94,16,150,41,85]
    }
  ]
}