{
  "code":27001,
  "id":"8f85fa",
  "name":"京急本線",
  "name_kana":"けいきゅうほんせん",
  "station_size":50,
  "company_code":17,
  "color":"#00BFFF",
  "symbol":"KK",
  "station_list":[
    {"code":2700101,"id":"283523","name":"泉岳寺","name_kana":"せんがくじ","lat":35.638692,"lng":139.74002,"prefecture":13,"numbering":[{"symbol":"A","color":"#E85298","index":"07"}],"lines":[27001,99302],"attr":"eco","postal_code":"108-0074","address":"港区高輪２-１６-３４","next":[1130228,9930206,1130230,2800917],"voronoi":{"lat":35.638611,"lng":139.747157,"delta_lat":[0,-2812,847,9051],"delta_lng":[0,-12437,-612,6442]}},
    {"code":100202,"id":"73e262","name":"品川","name_kana":"しながわ","lat":35.62876,"lng":139.738999,"prefecture":13,"numbering":[{"index":"01"}],"lines":[1002,11301,11302,11308,11328,11332,27001],"attr":"heat","postal_code":"108-0074","address":"東京都港区高輪三丁目26-27","open_date":"1872-06-12","next":[1130230,2700103,9933602,9930206],"voronoi":{"lat":35.630243,"lng":139.747047,"delta_lat":[0,-4459,-359,7790],"delta_lng":[0,-2235,-11769,2615]}},
    {"code":2700103,"id":"7455c6","name":"北品川","name_kana":"きたしながわ","lat":35.622458,"lng":139.739191,"prefecture":13,"numbering":[{"index":"02"}],"lines":[27001],"attr":"eco","postal_code":"140-0001","address":"品川区北品川１-１-４","next":[1130201,100202,9933602,9930206,2700104],"voronoi":{"lat":35.625783,"lng":139.744812,"delta_lat":[0,-359,-236,-7653,4606],"delta_lng":[0,-11769,-245,1912,10245]}},
    {"code":2700104,"id":"e4d72b","name":"新馬場","name_kana":"しんばんば","lat":35.61762,"lng":139.741366,"prefecture":13,"numbering":[{"index":"03"}],"lines":[27001],"attr":"eco","postal_code":"140-0001","address":"品川区北品川２-１８-１","next":[1130201,2700105,1133228,9933706,9933602,2700103],"voronoi":{"lat":35.61584,"lng":139.748534,"delta_lat":[0,-1434,-1893,1693,3330,4606],"delta_lng":[0,-1594,-9832,-2953,555,10245]}},
    {"code":2700105,"id":"f67a94","name":"青物横丁","name_kana":"あおものよこちょう","lat":35.609351,"lng":139.742958,"prefecture":13,"numbering":[{"index":"04"}],"lines":[27001],"attr":"eco","postal_code":"140-0004","address":"品川区南品川３-１-２０","next":[9933706,2700106,2700104,1133228],"voronoi":{"lat":35.606601,"lng":139.74596,"delta_lat":[0,7804,-1893,-4734],"delta_lng":[0,979,-9832,1806]}},
    {"code":2700106,"id":"b5b7c9","name":"鮫洲","name_kana":"さめず","lat":35.604977,"lng":139.742227,"prefecture":13,"numbering":[{"index":"05"}],"lines":[27001],"attr":"eco","postal_code":"140-0011","address":"品川区東大井１-２-２０","next":[9933603,2700105,2700107,9933706,1133228],"voronoi":{"lat":35.603006,"lng":139.738085,"delta_lat":[0,-3193,1955,4834,1177],"delta_lng":[0,6200,4017,-2342,-7047]}},
    {"code":2700107,"id":"8ec42c","name":"立会川","name_kana":"たちあいがわ","lat":35.598489,"lng":139.738886,"prefecture":13,"numbering":[{"index":"06"}],"lines":[27001],"attr":"eco","postal_code":"140-0011","address":"品川区東大井２-２３-１","next":[9933603,1133228,1130804,2700106,1133229,2700108],"voronoi":{"lat":35.599813,"lng":139.744286,"delta_lat":[0,3193,-4155,-1102,-3360,-2537],"delta_lng":[0,-6200,-7997,-201,2981,8034]}},
    {"code":2700108,"id":"9a5228","name":"大森海岸","name_kana":"おおもりかいがん","lat":35.587576,"lng":139.73544,"prefecture":13,"numbering":[{"index":"07"}],"lines":[27001],"attr":"heat","postal_code":"140-0013","address":"品川区南大井３-３２-１","next":[9933604,2700109,9933603,2700107,1133229],"voronoi":{"lat":35.583384,"lng":139.730884,"delta_lat":[0,-625,5026,4067,2537],"delta_lng":[0,10489,2125,-2596,-8034]}},
    {"code":2700109,"id":"e5560a","name":"平和島","name_kana":"へいわじま","lat":35.57868,"lng":139.73491,"prefecture":13,"numbering":[{"index":"08"}],"lines":[27001],"attr":"heat","postal_code":"143-0016","address":"大田区大森北６-１３-１１","next":[9933605,2700110,9933604,1133229,2700108],"voronoi":{"lat":35.583384,"lng":139.730884,"delta_lat":[0,-3925,-7389,3637,7052],"delta_lng":[0,-5875,16015,1945,-1596]}},
    {"code":2700110,"id":"a2aa8b","name":"大森町","name_kana":"おおもりまち","lat":35.572431,"lng":139.732027,"prefecture":13,"numbering":[{"index":"09"}],"lines":[27001],"attr":"heat","postal_code":"143-0015","address":"大田区大森西３-２４-７","next":[2700203,1133229,2700111,2700109,9933605],"voronoi":{"lat":35.579458,"lng":139.725009,"delta_lat":[0,-1656,-14117,471,7913],"delta_lng":[0,-6908,20862,1276,785]}},
    {"code":2700111,"id":"5c590e","name":"梅屋敷(東京)","name_kana":"うめやしき","lat":35.566873,"lng":139.728266,"prefecture":13,"numbering":[{"index":"10"}],"lines":[27001],"attr":"heat","postal_code":"144-0052","address":"大田区蒲田２-２８-１","next":[2700202,2700112,2700110,9930201,1133229,1133230,2700203],"voronoi":{"lat":35.577803,"lng":139.718102,"delta_lat":[0,-1,-367,-9971,-6662,668,2216],"delta_lng":[0,-160,-329,3551,8830,6103,2867]}},
    {"code":2700112,"id":"feadab","name":"京急蒲田","name_kana":"けいきゅうかまた","lat":35.560796,"lng":139.723681,"prefecture":13,"numbering":[{"index":"11"}],"lines":[27001,27002],"attr":"cool","postal_code":"144-0052","address":"大田区蒲田４-５０-１０","next":[1133230,2700111,2700113,2700202],"voronoi":{"lat":35.553216,"lng":139.721952,"delta_lat":[0,2662,11586,-6662],"delta_lng":[0,-3395,2607,8830]}},
    {"code":2700113,"id":"ed1221","name":"雑色","name_kana":"ぞうしき","lat":35.549725,"lng":139.715005,"prefecture":13,"numbering":[{"index":"18"}],"lines":[27001],"attr":"cool","postal_code":"144-0055","address":"大田区仲六郷２-４２-１","next":[2600514,2700202,2700302,2700304,1133230,2700303,2700112,2600606,2700114],"voronoi":{"lat":35.551388,"lng":139.703597,"delta_lat":[0,3119,1994,-624,-2662,-7445,-1322,-2499,224],"delta_lng":[0,2718,4460,7782,3395,2433,-1692,-6358,-1353]}},
    {"code":2700114,"id":"1825d3","name":"六郷土手","name_kana":"ろくごうどて","lat":35.540577,"lng":139.7076,"prefecture":13,"numbering":[{"index":"19"}],"lines":[27001],"attr":"cool","postal_code":"144-0055","address":"大田区仲六郷４-２７-１１","next":[2600606,1130303,2700302,2700115,2700113],"voronoi":{"lat":35.534672,"lng":139.706598,"delta_lat":[0,11086,2377,3253,-9215],"delta_lng":[0,-12773,-102,9873,11385]}},
    {"code":2700115,"id":"af8ad4","name":"京急川崎","name_kana":"けいきゅうかわさき","lat":35.53285,"lng":139.700893,"prefecture":14,"numbering":[{"index":"20"}],"lines":[27001,27003],"attr":"cool","postal_code":"210-0006","address":"川崎市川崎区砂子１-３-１","next":[1130104,2700302,2700114,1130330,1130327,1130303],"voronoi":{"lat":35.544707,"lng":139.693487,"delta_lat":[0,-19390,-580,150,9785,11086],"delta_lng":[0,8757,5488,679,-1812,-12773]}},
    {"code":1130326,"id":"96b035","name":"八丁畷","name_kana":"はっちょうなわて","lat":35.523071,"lng":139.691446,"prefecture":14,"numbering":[{"index":"27"}],"lines":[11303,27001],"attr":"cool","postal_code":"210-0022","address":"川崎市川崎区池田１丁目","next":[1130104,2700117,1130327,1130302],"voronoi":{"lat":35.524695,"lng":139.697871,"delta_lat":[0,-8045,7522,5636],"delta_lng":[0,-4925,-8197,6146]}},
    {"code":2700117,"id":"75ea7d","name":"鶴見市場","name_kana":"つるみいちば","lat":35.517594,"lng":139.68642,"prefecture":14,"numbering":[{"index":"28"}],"lines":[27001],"attr":"cool","postal_code":"230-0025","address":"横浜市鶴見区市場大和町７-１","next":[1130405,1130401,1130302,1130326,1130327,2700118,1130404],"voronoi":{"lat":35.508627,"lng":139.693344,"delta_lat":[0,8022,7522,-1926,-9327,-6123,120],"delta_lng":[0,-397,-8197,-11758,8353,7453,866]}},
    {"code":2700118,"id":"c71f07","name":"京急鶴見","name_kana":"けいきゅうつるみ","lat":35.507032,"lng":139.677743,"prefecture":14,"numbering":[{"index":"29"}],"lines":[27001],"attr":"cool","postal_code":"230-0051","address":"横浜市鶴見区鶴見中央１-３０-２２","next":[1130404,1130403,1130401,2700117,1130402],"voronoi":{"lat":35.504478,"lng":139.686566,"delta_lat":[0,2317,6123,-8205,-2224],"delta_lng":[0,2231,-7453,-6936,6432]}},
    {"code":2700119,"id":"822b2a","name":"花月総持寺","name_kana":"かげつそうじじ","lat":35.500358,"lng":139.672813,"prefecture":14,"numbering":[{"index":"30"}],"lines":[27001],"attr":"cool","postal_code":"230-0052","address":"横浜市鶴見区生麦５-１-３","next":[1130402,2700120,1130403,1130401],"voronoi":{"lat":35.494298,"lng":139.675273,"delta_lat":[0,-1617,18102,-6005],"delta_lng":[0,-644,-15623,14492]}},
    {"code":2700120,"id":"79a985","name":"生麦","name_kana":"なまむぎ","lat":35.4956,"lng":139.6673,"prefecture":14,"numbering":[{"index":"31"}],"lines":[27001],"attr":"cool","postal_code":"230-0052","address":"横浜市鶴見区生麦３-１-３５","next":[1130602,1130403,2700119,1130401,2700121],"voronoi":{"lat":35.492682,"lng":139.674628,"delta_lat":[0,18102,3704,-15456,-28569],"delta_lng":[0,-15623,-5358,2372,20850]}},
    {"code":2700121,"id":"4edf6e","name":"京急新子安","name_kana":"けいきゅうしんこやす","lat":35.487242,"lng":139.655848,"prefecture":14,"numbering":[{"index":"32"}],"lines":[27001],"attr":"cool","postal_code":"221-0021","address":"横浜市神奈川区子安通３-２８９","next":[1130407,9931006,1130403,1130602,2700120,1133233],"voronoi":{"lat":35.461891,"lng":139.677579,"delta_lat":[0,6302,2270,28569,-3813,-31105],"delta_lng":[0,165,-874,-20850,-2047,5165]}},
    {"code":2700122,"id":"fe4129","name":"子安","name_kana":"こやす","lat":35.484556,"lng":139.644965,"prefecture":14,"numbering":[{"index":"33"}],"lines":[27001],"attr":"cool","postal_code":"221-0021","address":"横浜市神奈川区子安通１-４６","next":[1130602,1133233,2700123,9931005],"voronoi":{"lat":35.465065,"lng":139.653762,"delta_lat":[0,24617,-1848,-22859],"delta_lng":[0,-15328,10919,5844]}},
    {"code":2700123,"id":"45b387","name":"神奈川新町","name_kana":"かながわしんまち","lat":35.481559,"lng":139.640152,"prefecture":14,"numbering":[{"index":"34"}],"lines":[27001],"attr":"cool","postal_code":"221-0041","address":"横浜市神奈川区亀住町１９-１","next":[9931005,2600118,2700122,2700124,2600119,9931003,1130601,1130602,2600117],"voronoi":{"lat":35.490358,"lng":139.63714,"delta_lat":[0,-2044,-4914,-2017,-15315,-1186,184,24617,700],"delta_lng":[0,-1332,-894,1062,11583,3594,2608,-15328,-1233]}},
    {"code":2700124,"id":"7f707e","name":"京急東神奈川","name_kana":"けいきゅうひがしかながわ","lat":35.477412,"lng":139.634669,"prefecture":14,"numbering":[{"index":"35"}],"lines":[27001],"attr":"cool","postal_code":"221-0044","address":"横浜市神奈川区東神奈川１-１１-５","next":[9931003,2700123,1130601,2700125],"voronoi":{"lat":35.466067,"lng":139.647559,"delta_lat":[0,15315,-7976,-6084],"delta_lng":[0,-11583,-4164,5086]}},
    {"code":2700125,"id":"0c2be2","name":"神奈川","name_kana":"かながわ","lat":35.471304,"lng":139.627364,"prefecture":14,"numbering":[{"index":"36"}],"lines":[27001],"attr":"cool","postal_code":"221-0057","address":"横浜市神奈川区青木町１-１","next":[9931003,9931002,1130105,2700124,2600120,1130601],"voronoi":{"lat":35.475125,"lng":139.629915,"delta_lat":[0,-4252,-4306,-554,1310,6084],"delta_lng":[0,-7209,4721,6007,3464,-5086]}},
    {"code":1130105,"id":"b0c711","name":"横浜","name_kana":"よこはま","lat":35.466195,"lng":139.622704,"prefecture":14,"numbering":[{"index":"37"}],"lines":[11301,11307,11308,11328,11332,11333,26001,27001,29001,99310,99316],"attr":"cool","postal_code":"220-0011","address":"横浜市西区高島２丁目","next":[9931002,2600120,2700125,2900102,9931614,9931612],"voronoi":{"lat":35.468292,"lng":139.614755,"delta_lat":[0,-6210,222,4263,4306,1006],"delta_lng":[0,6246,1624,4802,-4721,-3264]}},
    {"code":2700127,"id":"c1a9d1","name":"戸部","name_kana":"とべ","lat":35.456631,"lng":139.61956,"prefecture":14,"numbering":[{"index":"38"}],"lines":[27001],"attr":"cool","postal_code":"220-0041","address":"横浜市西区戸部本町４８-１１","next":[9931614,1130702,2700129,2900103,2700128,2900102],"voronoi":{"lat":35.451944,"lng":139.624281,"delta_lat":[0,-184,-4163,-222,8108,4626],"delta_lng":[0,-90,-6480,-1297,-2395,6469]}},
    {"code":2700128,"id":"35431c","name":"日ノ出町","name_kana":"ひのでちょう","lat":35.445524,"lng":139.626696,"prefecture":14,"numbering":[{"index":"39"}],"lines":[27001],"attr":"cool","postal_code":"231-0066","address":"横浜市中区日ノ出町１-３１","next":[9931618,2700129,1130702,9931617,2700127],"voronoi":{"lat":35.447598,"lng":139.617712,"delta_lat":[0,-6240,-456,5133,5726],"delta_lng":[0,8589,1989,3548,-7646]}},
    {"code":2700129,"id":"0f0041","name":"黄金町","name_kana":"こがねちょう","lat":35.439694,"lng":139.62246,"prefecture":14,"numbering":[{"index":"40"}],"lines":[27001],"attr":"cool","postal_code":"232-0005","address":"横浜市南区白金町１-１","next":[2900103,9931619,2700128,2700127,2700130,9931618],"voronoi":{"lat":35.436455,"lng":139.621651,"delta_lat":[0,4235,5726,960,222,-6240],"delta_lng":[0,-4446,-1753,962,1297,8589]}},
    {"code":2700130,"id":"088a74","name":"南太田","name_kana":"みなみおおた","lat":35.436923,"lng":139.613408,"prefecture":14,"numbering":[{"index":"41"}],"lines":[27001],"attr":"cool","postal_code":"232-0006","address":"横浜市南区南太田１-２５-１","next":[9931620,2900103,9931619,2700129,2700131,1130807],"voronoi":{"lat":35.44073,"lng":139.60575,"delta_lat":[0,-5033,-3669,8661,5726,-1994],"delta_lng":[0,1191,7804,2461,-1753,-7063]}},
    {"code":2700131,"id":"fab08f","name":"井土ヶ谷","name_kana":"いどがや","lat":35.433895,"lng":139.60061,"prefecture":14,"numbering":[{"index":"42"}],"lines":[27001],"attr":"cool","postal_code":"232-0052","address":"横浜市南区井土ケ谷中町","next":[9931620,9931621,1130807,1130808,2700132,2700130],"voronoi":{"lat":35.44073,"lng":139.60575,"delta_lat":[0,-2015,-1396,-8859,523,6714],"delta_lng":[0,-27580,113,22095,3769,2794]}},
    {"code":2700132,"id":"1056c5","name":"弘明寺(京浜急行電鉄)","name_kana":"ぐみょうじ","lat":35.42437,"lng":139.596791,"prefecture":14,"numbering":[{"index":"43"}],"lines":[27001],"attr":"cool","postal_code":"232-0067","address":"横浜市南区弘明寺町267","next":[9931621,9931624,1130808,2700131,2700133],"voronoi":{"lat":35.42846,"lng":139.600377,"delta_lat":[0,8859,-15267,-4903,-277],"delta_lng":[0,-22095,-2284,4679,17343]}},
    {"code":2700133,"id":"c8e8b2","name":"上大岡","name_kana":"かみおおおか","lat":35.409418,"lng":139.596552,"prefecture":14,"numbering":[{"index":"44"}],"lines":[27001,99316],"attr":"heat","postal_code":"233-0002","address":"横浜市港南区上大岡西１-６-１","next":[2700134,9931623,1130707,9931624,9931621,2700132],"voronoi":{"lat":35.41715,"lng":139.580678,"delta_lat":[0,-4097,-13016,5562,6311,4963],"delta_lng":[0,1380,19473,6127,2818,-12455]}},
    {"code":2700134,"id":"bbaea8","name":"屏風浦","name_kana":"びょうぶがうら","lat":35.394176,"lng":139.610387,"prefecture":14,"numbering":[{"index":"45"}],"lines":[27001],"attr":"heat","postal_code":"235-0023","address":"横浜市磯子区森３-１８-６","next":[1130707,2700135,2700133,1130708,9931623,1130709],"voronoi":{"lat":35.391099,"lng":139.598368,"delta_lat":[0,8938,5562,-12423,-3625,-4557],"delta_lng":[0,3162,6127,9413,-2915,-8845]}},
    {"code":2700135,"id":"20611c","name":"杉田(神奈川)","name_kana":"すぎた","lat":35.383796,"lng":139.615734,"prefecture":14,"numbering":[{"index":"46"}],"lines":[27001],"attr":"heat","postal_code":"235-0033","address":"横浜市磯子区杉田２-１-９","next":[2700137,2700136,2700134,1130709,1130708,9931702],"voronoi":{"lat":35.38955,"lng":139.614156,"delta_lat":[0,-4557,-19753,33,10299,2410],"delta_lng":[0,-8845,5242,58,12510,498]}},
    {"code":2700136,"id":"a2c4be","name":"京急富岡","name_kana":"けいきゅうとみおか","lat":35.366743,"lng":139.629772,"prefecture":14,"numbering":[{"index":"47"}],"lines":[27001],"attr":"heat","postal_code":"236-0052","address":"横浜市金沢区富岡西７-１-１","next":[9931705,2700135,9931702,9931704,2700137],"voronoi":{"lat":35.368566,"lng":139.636588,"delta_lat":[0,4023,2984,-10299,-2208],"delta_lng":[0,-1635,-11832,-12510,25461]}},
    {"code":2700137,"id":"727059","name":"能見台","name_kana":"のうけんだい","lat":35.360528,"lng":139.629233,"prefecture":14,"numbering":[{"index":"48"}],"lines":[27001],"attr":"heat","postal_code":"236-0053","address":"横浜市金沢区能見台通２-１","next":[2700138,9931705,2700135,9931711,1130709,2700136,9931706],"voronoi":{"lat":35.363066,"lng":139.636071,"delta_lat":[0,2208,-33,-5653,-9480,2234,8907],"delta_lng":[0,-25461,-58,-3187,21829,6230,1306]}},
    {"code":2700138,"id":"258467","name":"金沢文庫","name_kana":"かなざわぶんこ","lat":35.342966,"lng":139.621606,"prefecture":14,"numbering":[{"index":"49"}],"lines":[27001],"attr":"heat","postal_code":"236-0016","address":"横浜市金沢区谷津町３８４","next":[2700137,1130709,1130710,9931711,9931712,2700402,2700139],"voronoi":{"lat":35.33917,"lng":139.603805,"delta_lat":[0,6984,2472,10962,-9480,-6459,-7045],"delta_lng":[0,-14057,1755,15862,21829,-399,-3856]}},
    {"code":2700139,"id":"634c7c","name":"金沢八景","name_kana":"かなざわはっけい","lat":35.331223,"lng":139.62018,"prefecture":14,"numbering":[{"index":"50"}],"lines":[27001,27004,99317],"attr":"heat","postal_code":"236-0027","address":"横浜市金沢区瀬戸１５-１","next":[2700402,2700140,9931713,9931712,2700138],"voronoi":{"lat":35.33917,"lng":139.603805,"delta_lat":[0,-16549,1596,10169,2218],"delta_lng":[0,16329,5327,595,-1117]}},
    {"code":2700140,"id":"74a393","name":"追浜","name_kana":"おっぱま","lat":35.315461,"lng":139.624905,"prefecture":14,"numbering":[{"index":"54"}],"lines":[27001],"attr":"heat","postal_code":"237-0064","address":"横須賀市追浜町３-３","next":[1130815,2700141,2700139,9931713,1130814,2700402],"voronoi":{"lat":35.308374,"lng":139.612433,"delta_lat":[0,-490,629,5452,10252,-1596],"delta_lng":[0,353,26384,9676,-23385,-5327]}},
    {"code":2700141,"id":"8fa81d","name":"京急田浦","name_kana":"けいきゅうたうら","lat":35.300892,"lng":139.625252,"prefecture":14,"numbering":[{"index":"55"}],"lines":[27001],"attr":"heat","postal_code":"237-0076","address":"横須賀市船越町５-２","next":[1130814,2700140,1130815],"voronoi":{"lat":35.307884,"lng":139.612787,"delta_lat":[0,-34823,35452],"delta_lng":[0,3130,23254]}},
    {"code":2700142,"id":"8f8d88","name":"安針塚","name_kana":"あんじんづか","lat":35.286641,"lng":139.64292,"prefecture":14,"numbering":[{"index":"56"}],"lines":[27001],"attr":"eco","postal_code":"237-0072","address":"横須賀市長浦町２-３２","next":[1130816,1130817,2700143,1130815,1130814],"voronoi":{"lat":35.244742,"lng":139.608193,"delta_lat":[0,16221,25085,13922,-31903],"delta_lng":[0,26231,15109,2819,-37278]}},
    {"code":2700143,"id":"bed45a","name":"逸見","name_kana":"へみ","lat":35.28048,"lng":139.653149,"prefecture":14,"numbering":[{"index":"57"}],"lines":[27001],"attr":"eco","postal_code":"238-0045","address":"横須賀市東逸見町２-１８","next":[2700144,1130816,2700142,1130817],"voronoi":{"lat":35.279747,"lng":139.65778,"delta_lat":[0,6301,-25085,7937],"delta_lng":[0,-8248,-15109,23078]}},
    {"code":2700144,"id":"4f15f3","name":"汐入","name_kana":"しおいり","lat":35.280241,"lng":139.662443,"prefecture":14,"numbering":[{"index":"58"}],"lines":[27001],"attr":"eco","postal_code":"238-0042","address":"横須賀市汐入町２-４１","next":[2700143,1130816,1130817,2700145],"voronoi":{"lat":35.268548,"lng":139.664009,"delta_lat":[0,352,10847,23932],"delta_lng":[0,-6508,279,13735]}},
    {"code":2700145,"id":"09e7f9","name":"横須賀中央","name_kana":"よこすかちゅうおう","lat":35.27858,"lng":139.670217,"prefecture":14,"numbering":[{"index":"59"}],"lines":[27001],"attr":"eco","postal_code":"238-0007","address":"横須賀市若松町２-２５","next":[1130817,1130816,2700149,9931709,2700144,2700146,2700148],"voronoi":{"lat":35.329492,"lng":139.719568,"delta_lat":[0,-13286,-12527,-35131,-635,26492,9394],"delta_lng":[0,-43307,-4746,-7506,1511,34393,6549]}},
    {"code":2700146,"id":"69aa25","name":"県立大学","name_kana":"けんりつだいがく","lat":35.269731,"lng":139.677033,"prefecture":14,"numbering":[{"index":"60"}],"lines":[27001],"attr":"eco","postal_code":"238-0012","address":"横須賀市安浦町２-２８","next":[1130817,2700147,2700148,2700503,2700145],"voronoi":{"lat":35.267913,"lng":139.665521,"delta_lat":[0,-11557,382,35285,2382],"delta_lng":[0,9223,834,23208,1128]}},
    {"code":2700147,"id":"88cb4c","name":"堀ノ内","name_kana":"ほりのうち","lat":35.26322,"lng":139.686932,"prefecture":14,"numbering":[{"index":"61"}],"lines":[27001,27005],"attr":"eco","postal_code":"238-0014","address":"横須賀市三春町３-４５","next":[2700146,2700502,2700503,2700148],"voronoi":{"lat":35.261357,"lng":139.690931,"delta_lat":[0,-4864,244,35285],"delta_lng":[0,-9352,-6002,23208]}},
    {"code":2700148,"id":"4b95c8","name":"京急大津","name_kana":"けいきゅうおおつ","lat":35.261068,"lng":139.695334,"prefecture":14,"numbering":[{"index":"62"}],"lines":[27001],"attr":"eco","postal_code":"239-0808","address":"横須賀市大津町１-１１-１９","next":[2700502,2700146,2700149,2700145,2700147],"voronoi":{"lat":35.261357,"lng":139.690931,"delta_lat":[0,-11662,54103,-9394,-2382],"delta_lng":[0,9140,6391,-6549,-1128]}},
    {"code":2700149,"id":"db38ff","name":"馬堀海岸","name_kana":"まぼりかいがん","lat":35.259651,"lng":139.707328,"prefecture":14,"numbering":[{"index":"63"}],"lines":[27001],"attr":"eco","postal_code":"239-0802","address":"横須賀市馬堀町３-２０-１","next":[1132513,1130818,2700150,9931709,2700145,2700502,1132514,2700148],"voronoi":{"lat":35.329492,"lng":139.719568,"delta_lat":[0,24202,-36934,-6258,-63539,306,2427,54103],"delta_lng":[0,35691,17298,1351,-72211,-1253,-373,6391]}},
    {"code":2700150,"id":"9fe363","name":"浦賀","name_kana":"うらが","lat":35.250933,"lng":139.714999,"prefecture":14,"numbering":[{"index":"64"}],"lines":[27001],"attr":"eco","postal_code":"239-0822","address":"横須賀市浦賀町１-８６","next":[2700149,1130818,1132517,2700504,1132514],"voronoi":{"lat":35.204992,"lng":139.763654,"delta_lat":[0,34314,7656,63539,-51290],"delta_lng":[0,-52302,-9654,72211,14864]}}
  ],
  "north":35.6388,
  "south":35.25112,
  "east":139.74353,
  "west":139.59591,
  "polyline_list":[
    {
      "start":"浦賀",
      "end":"泉岳寺",
      "lat":35.25112,
      "lng":139.71502,
      "delta_lat":[0,44,34,29,41,26,20,23,99,83,92,59,82,37,16,31,9,43,27,14,13,9,7,4,4,1,1,0,0,-2,-2,-4,-4,-3,-3,-10,-5,-9,-5,-4,4,3,6,20,14,18,29,41,24,65,46,3,3,3,1,3,5,1,2,3,4,2,5,2,7,12,26,10,5,3,71,52,22,5,3,8,9,9,42,45,49,56,15,6,15,18,52,47,49,2,15,30,13,14,21,12,8,7,27,40,17,11,27,13,15,18,26,14,15,18,12,19,16,31,22,23,51,27,24,24,28,47,51,36,36,22,40,32,49,12,6,9,5,40,9,5,3,5,3,9,11,37,35,20,9,12,0,-1,-5,-4,-5,-2,6,3,2,3,4,5,10,14,27,13,12,1,2,1,33,18,38,12,80,30,24,40,65,18,24,16,40,16,34,14,10,9,7,4,7,6,5,0,2,-2,-4,-4,-5,-6,-15,-9,-5,-3,5,7,8,16,20,9,8,14,20,21,33,36,45,16,6,23,94,28,10,8,16,45,43,63,13,45,22,17,25,52,34,40,49,49,45,47,116,61,51,66,28,28,29,14,14,34,53,16,18,30,27,23,33,44,29,49,23,51,49,28,61,39,27,26,67,86,172,25,76,81,78,85,44,20,3,36,35,34,23,33,14,33,22,27,25,33,34,9,12,27,4,9,18,20,27,15,18,36,27,27,63,58,46,32,32,15,43,18,28,23,26,19,20,29,25,22,47,33,32,31,23,29,11,29,21,41,45,32,52,68,132,104,127,215,36,41,29,42,61,60,20,45,15,184,119,53,41,107,69,29,88,35,144,100,30,27,69,61,22,6,67,56,56,63,28,114,142,80,53,41,129,54,34,44,125,262,37,76,104,28,23,104,132,52,66,38,28,42,94,36,13,10,15,16,10,66,52,21,12,7,22,15,35,46,34,38,58,25,76,347,70,73,74,22,94,71,53,67,86,106,76,54,31,32,38,33,32,19,53,90,4,17,18,41,28,16,25,22,16,4,43,14,14,18,25,47,7,30,85,51,20,18,51,56,32,13,14,47,62,119,94,75,45,73,141,183,92,69,38,18,26,75,49,38,56,121,15,164,76,49,46,35,65,29,114,77,93,78,85,117,43,37,120,58,85,67,18,16,30,34,45,29,29,22,19,20,16,13,11,9,29,5,7,29,6,21,6,27,46,9,12,9,11,9,4,4,4,11,31,18,7,2,20,15,11,20,19,19,41,52,35,31,9,39,15,4,10,13,23,20,13,12,29,19,26,29,39,135,12,12,12,11,13,11,18,16,16,13,11,34,27,8,6,29,22,20,17,33,15,17,32,34,61,35,35,35,41,33,6,45,47,148,127,74,116,94,122,42,35,32,24,38,62,55,85,18,54,14,21,7,14,7,11,43,21,17,15,20,24,34,193,27,185,43,58,65,52,113,48,49,83,16,8,37,38,39,108,27,76,29,11,5,45,6,5,65,145,95,20,15,105,7,35,29,23,7,15,11,7,5,13,9,3,6,9,4,1,4,3,2,8,5,10,13,21,14,25,38,36,38,22,21,35,31,29,32,35,66,28,4,26,41,26,65,21,80,91,83,48,71,103,106,198,61,45,19,35,21,33,64,36,9,222,57,48,33,40,77,93,97,80,32,33,32,38,94,105,45,123,143,83,33,67,92,59,36,78,109,57,134,44,216,197,222,80,40,74,82,71,90,62,86,122,174,56,67,106,51,109,151,121,63,144,56,57,143,52,38,45,52,64,96,98,128,45,34,127,52,74,68,41,18,43,100,78,51,104,93,57,146,118,123,127,58,34,46,141,28,61,47,22,45,87,45,27,27,61,58,40,36,30,27,52,23,33,34,29,47,36,69,67,50,47,30,41,6,6,26,74,5,101,27,41,27,102,29,33,12,68,81,65,42,124,85,126,8,9,12,9,67,4,141,226,76,60,74,4,75,6,81,34,29,34,26,103,7,110,4,30,333,235,10,57,29,27,31,14,20,143,65,27,64,55,17,70,17,18,21,24,104,41,8,10,3,14,7,33,19,43,117,5,62,23,28,39,47,340,17,129,109,101,161,135],
      "delta_lng":[0,4,1,-2,-5,-6,-6,-9,-50,-40,-35,-24,-48,-30,-18,-36,-12,-62,-46,-29,-42,-45,-44,-34,-186,-95,-25,-17,-16,-20,-5,-40,-19,-24,-15,-63,-35,-51,-59,-87,-66,-38,-26,-67,-38,-50,-71,-100,-57,-154,-103,-10,-7,-10,-11,-37,-46,-18,-31,-39,-60,-62,-62,-22,-22,-37,-71,-22,-10,-8,-137,-93,-34,-5,-5,-12,-12,-10,-46,-47,-53,-53,-16,-7,-26,-31,-94,-86,-88,-6,-26,-50,-25,-24,-38,-20,-9,-12,-39,-57,-21,-14,-25,-14,-12,-15,-18,-7,-7,-9,-5,-6,-4,-4,-3,0,0,-1,-3,-8,-7,-31,-37,-31,-26,-21,-36,-46,-72,-22,-11,-15,-9,-76,-19,-10,-7,-13,-10,-27,-31,-97,-109,-109,-110,-108,-8,-19,-134,-51,-235,-64,-261,-186,-18,-21,-23,-19,-22,-31,-54,-27,-18,-3,-3,-5,-48,-26,-58,-17,-111,-27,-43,-58,-87,-24,-35,-19,-55,-21,-53,-23,-21,-24,-20,-11,-24,-35,-32,-11,-22,-63,-50,-22,-27,-41,-71,-49,-26,-26,-61,-67,-51,-88,-101,-21,-22,-29,-35,-30,-45,-52,-59,-24,-9,-31,-124,-36,-14,-10,-22,-52,-35,-46,-5,-22,-11,-6,-11,-16,-7,-5,-8,-9,-7,-9,-17,-10,-9,-23,-13,-14,-21,-9,-10,-32,-43,-14,-14,-22,-15,-12,-14,-16,-10,-13,-1,1,7,8,19,11,2,2,-4,-3,-3,2,20,27,22,30,12,4,0,2,-6,-9,-6,-16,-14,-28,-17,-29,-33,-50,-51,-13,-16,-43,-7,-8,-20,-21,-23,-12,-13,-21,-17,-17,-36,-35,-27,-14,-10,-4,-9,-1,-2,3,2,6,3,9,8,6,15,12,11,10,6,5,3,7,5,8,6,3,2,2,-3,0,1,2,0,0,3,10,16,17,5,13,4,48,34,15,10,25,19,18,63,22,90,59,25,30,85,67,15,3,39,21,16,13,1,-3,-3,-1,13,20,64,28,18,11,14,25,5,-8,-14,-5,-4,-17,-24,-10,-19,-15,-16,-45,-113,-56,-34,-41,-65,-70,-35,-138,-83,-36,-21,-12,-37,-23,-47,-57,-35,-25,-36,-13,-40,-180,-36,-40,-39,-11,-49,-35,-19,-22,-19,-25,-26,-21,-17,-18,-25,-27,-27,-18,-53,-93,-6,-18,-19,-45,-37,-22,-39,-62,-60,-14,-191,-69,-42,-36,-36,-46,-4,-21,-61,-41,-24,-19,-65,-74,-38,-9,-10,-33,-34,-64,-45,-24,-12,-9,-4,-7,0,-2,0,-1,1,-1,3,5,10,28,2,42,16,5,6,2,8,-5,-24,-21,-29,-23,-27,-27,-8,-7,-8,-8,-1,-2,3,4,7,13,25,22,27,32,25,35,45,56,58,44,131,13,39,141,24,88,28,90,135,22,40,22,37,26,23,37,34,56,179,101,37,10,127,99,38,42,45,55,115,153,114,91,18,118,34,9,18,24,37,29,16,13,31,14,18,18,24,82,5,4,1,4,1,0,-2,0,-3,-3,-5,-14,-14,-4,-4,-18,-10,-14,-15,-33,-18,-20,-39,-43,-69,-40,-41,-32,-40,-31,-6,-28,-15,-41,-36,-30,-53,-40,-63,-13,0,15,17,37,63,47,76,18,46,7,10,2,2,0,-1,-4,-1,0,2,4,11,25,152,23,164,36,51,57,45,98,44,64,110,22,10,49,50,52,145,36,97,41,14,8,59,8,7,85,192,123,28,25,151,13,51,47,42,17,36,37,27,20,58,39,20,68,98,34,20,39,30,21,55,35,43,49,63,45,68,93,86,98,46,45,69,53,48,46,51,93,35,5,32,48,30,75,23,102,107,94,55,84,121,123,233,68,47,20,28,16,23,43,26,5,140,39,35,31,38,73,106,111,88,33,28,26,27,57,67,28,78,87,57,27,59,88,60,32,74,101,54,128,42,205,184,212,74,39,76,78,64,78,50,72,107,151,49,65,90,44,91,126,100,50,103,36,34,91,33,28,35,45,54,80,81,107,37,30,103,43,58,54,31,13,30,68,50,38,87,77,47,102,82,82,77,36,21,18,60,10,28,21,10,26,51,21,10,9,14,14,9,4,4,3,1,0,-4,-5,-6,-11,-4,-6,-4,0,2,2,6,1,2,4,13,0,15,3,6,4,15,3,7,2,21,37,30,19,59,39,59,3,5,5,4,31,2,65,105,38,34,57,3,61,3,57,12,6,0,-4,-23,-3,-20,-1,-6,-74,-54,-2,-13,-4,-6,-7,-2,-4,-33,-22,-13,-40,-38,-10,-33,-7,-5,-3,-1,-2,-6,-3,-3,-2,-6,-6,-30,-11,-14,-34,-1,-12,4,20,7,-1,-9,0,-3,27,39,59,70]
    }
  ]
}