{
  "code":28001,
  "name":"東京メトロ銀座線",
  "color":"#F39700",
  "symbol":"G",
  "station_list":[
    {"code":1130205,"id":"8e9a53","name":"渋谷","name_kana":"しぶや","lat":35.658871,"lng":139.701238,"prefecture":13,"numbering":[{"index":"01"}],"lines":[11302,11321,11328,11333,24006,26001,26003,28001,28008,28010],"attr":"cool","postal_code":"150-0043","address":"東京都渋谷区道玄坂一丁目1-1","open_date":"1885-03-01","next":[2800518,2600102,1130204,2400602,2800118,2800519,1130206],"voronoi":{"lat":35.662993,"lng":139.706239,"delta_lat":[0,-6908,-1398,-1871,12128,457,-200],"delta_lng":[0,3977,-1928,-9765,-2577,388,1734]}},
    {"code":2800118,"id":"95cf45","name":"表参道","name_kana":"おもてさんどう","lat":35.665247,"lng":139.712314,"prefecture":13,"numbering":[{"index":"02"}],"lines":[28001,28005,28008],"attr":"cool","postal_code":"107-0061","address":"港区北青山３丁目","next":[2800319,2800518,1130204,2800516,1130205,2800117],"voronoi":{"lat":35.672558,"lng":139.710637,"delta_lat":[0,-9565,-6908,-369,4958,2558],"delta_lng":[0,-4398,3977,3046,6502,-244]}},
    {"code":2800117,"id":"085095","name":"外苑前","name_kana":"がいえんまえ","lat":35.670527,"lng":139.717857,"prefecture":13,"numbering":[{"index":"03"}],"lines":[28001],"attr":"cool","postal_code":"107-0061","address":"港区北青山２-７-１６","next":[9930126,1131313,2800518,2801014,2800116,2800118,2800516],"voronoi":{"lat":35.663232,"lng":139.71952,"delta_lat":[0,9326,294,635,2190,-541,-6500],"delta_lng":[0,-8883,-31,406,6966,1791,2308]}},
    {"code":2800116,"id":"de873b","name":"青山一丁目","name_kana":"あおやまいっちょうめ","lat":35.672765,"lng":139.724159,"prefecture":13,"numbering":[{"index":"04"}],"lines":[28001,28008,99301],"attr":"cool","postal_code":"107-0062","address":"港区南青山１-１-１９","next":[1131313,2800515,2800516,2800117,2800115,1131102],"voronoi":{"lat":35.672915,"lng":139.731256,"delta_lat":[0,-1218,-3061,6500,3929,-659],"delta_lng":[0,40,-9220,-2308,8325,1349]}},
    {"code":2800115,"id":"67bee3","name":"赤坂見附","name_kana":"あかさかみつけ","lat":35.677021,"lng":139.737047,"prefecture":13,"numbering":[{"index":"05"}],"lines":[28001,28002],"attr":"cool","postal_code":"107-0052","address":"港区赤坂３-１-６","next":[2800616,1131102,2800615,2800116,2800515,2800114],"voronoi":{"lat":35.675773,"lng":139.739585,"delta_lat":[0,-2859,5491,2466,-350,-4588],"delta_lng":[0,-8328,-1814,3473,4314,2480]}},
    {"code":2800114,"id":"55f6a4","name":"溜池山王","name_kana":"ためいけさんのう","lat":35.673621,"lng":139.741419,"prefecture":13,"numbering":[{"index":"06"}],"lines":[28001,28009],"attr":"cool","postal_code":"100-0014","address":"千代田区永田町２-１１-１","next":[2800915,2800212,2800515,2800616,2800115],"voronoi":{"lat":35.675773,"lng":139.739585,"delta_lat":[0,-6216,-1015,8154,-763],"delta_lng":[0,791,3369,-663,-3372]}},
    {"code":2800113,"id":"258ca8","name":"虎ノ門","name_kana":"とらのもん","lat":35.670236,"lng":139.749832,"prefecture":13,"numbering":[{"index":"07"}],"lines":[28001],"attr":"cool","postal_code":"105-0001","address":"港区虎ノ門１-１-２１","next":[9930307,9930306,2800212,2800211,2800317],"voronoi":{"lat":35.666047,"lng":139.752389,"delta_lat":[0,5259,1419,-4264,-3013],"delta_lng":[0,442,-4791,-3415,4590]}},
    {"code":1130102,"id":"c3891c","name":"新橋","name_kana":"しんばし","lat":35.666195,"lng":139.758587,"prefecture":13,"numbering":[{"index":"08"}],"lines":[11301,11302,11308,11332,28001,99302,99311],"attr":"heat","postal_code":"105-0004","address":"東京都港区新橋二丁目17","open_date":"1909-12-16","next":[9930306,2800111,9930307,2800315,9930120],"voronoi":{"lat":35.670275,"lng":139.760001,"delta_lat":[0,23,-4984,-3196,5505],"delta_lng":[0,-125,-5952,2257,6676]}},
    {"code":2800111,"id":"1e31fc","name":"銀座","name_kana":"ぎんざ","lat":35.671989,"lng":139.763965,"prefecture":13,"numbering":[{"index":"09"}],"lines":[28001,28002,28003],"attr":"cool","postal_code":"104-0061","address":"中央区銀座４-１-２","next":[2800619,9930120,1130102,1130225,2800313,2800315],"voronoi":{"lat":35.673768,"lng":139.765046,"delta_lat":[0,-1889,-4369,113,2652,3367],"delta_lng":[0,1449,-3355,-282,-2856,2308]}},
    {"code":2800110,"id":"6542ff","name":"京橋(東京)","name_kana":"きょうばし","lat":35.676856,"lng":139.770126,"prefecture":13,"numbering":[{"index":"10"}],"lines":[28001],"attr":"cool","postal_code":"104-0031","address":"中央区京橋２-２-１０","next":[2800109,100201,2800619,9930212],"voronoi":{"lat":35.674468,"lng":139.769509,"delta_lat":[0,3423,2821,-2055],"delta_lng":[0,-2785,3180,3165]}},
    {"code":2800109,"id":"4996b7","name":"日本橋(東京)","name_kana":"にほんばし","lat":35.682078,"lng":139.773516,"prefecture":13,"numbering":[{"index":"11"}],"lines":[28001,28004,99302],"attr":"heat","postal_code":"103-0027","address":"中央区日本橋１丁目","next":[9930212,2800110,2800309,2800208,1132602,2800310,100201,2800108],"voronoi":{"lat":35.684644,"lng":139.770053,"delta_lat":[0,-727,-3205,-2055,-556,408,5643,373],"delta_lng":[0,-445,297,3165,2102,727,2022,-180]}},
    {"code":2800108,"id":"6a5dc6","name":"三越前","name_kana":"みつこしまえ","lat":35.687101,"lng":139.773594,"prefecture":13,"numbering":[{"index":"12"}],"lines":[28001,28008],"attr":"heat","postal_code":"103-0022","address":"中央区日本橋室町１-８-１","next":[1131402,2800309,2800208,1130223,2800308,2800109],"voronoi":{"lat":35.684644,"lng":139.770053,"delta_lat":[0,2846,1348,-2078,-366,-1869],"delta_lng":[0,-207,1860,5930,276,-171]}},
    {"code":1130223,"id":"d0d7ec","name":"神田(東京)","name_kana":"かんだ","lat":35.691173,"lng":139.770641,"prefecture":13,"numbering":[{"index":"13"}],"lines":[11302,11312,11332,28001],"attr":"heat","postal_code":"101-0044","address":"東京都千代田区鍛冶町二丁目13-1","open_date":"1919-03-01","next":[1131402,2800208,2800108,9930408,1130222,2800207],"voronoi":{"lat":35.691124,"lng":139.766079,"delta_lat":[0,-3634,1348,3719,2340,153],"delta_lng":[0,3767,1860,2213,-1953,-431]}},
    {"code":2800106,"id":"ecea45","name":"末広町(東京)","name_kana":"すえひろちょう","lat":35.702972,"lng":139.771713,"prefecture":13,"numbering":[{"index":"14"}],"lines":[28001],"attr":"heat","postal_code":"101-0021","address":"千代田区外神田４-７-３","next":[2800306,2800508,9934901,1130222,2800105,1131203,1130221],"voronoi":{"lat":35.702122,"lng":139.77616,"delta_lat":[0,-1938,1926,2148,1399,-575,-693],"delta_lng":[0,-5348,-2887,-1070,4104,2327,991]}},
    {"code":2800105,"id":"e4a138","name":"上野広小路","name_kana":"うえのひろこうじ","lat":35.70768,"lng":139.772877,"prefecture":13,"numbering":[{"index":"15"}],"lines":[28001],"attr":"heat","postal_code":"110-0005","address":"台東区上野３-２９-３","next":[9930110,2800106,1130221,2800508,2300101],"voronoi":{"lat":35.707058,"lng":139.773711,"delta_lat":[0,-1977,575,4090,-318],"delta_lng":[0,-426,-2327,777,1629]}},
    {"code":100402,"id":"93946c","name":"上野","name_kana":"うえの","lat":35.71379,"lng":139.777043,"prefecture":13,"numbering":[{"index":"16"}],"lines":[11302,11319,11320,11323,11332,11343,28001,28003,1004,1005],"attr":"heat","postal_code":"110-0005","address":"東京都台東区上野七丁目1-1","open_date":"1883-07-28","next":[9934601,2800103,2800306,2300101,1130219,9930110,2800304,2300145],"voronoi":{"lat":35.717319,"lng":139.780049,"delta_lat":[0,-1452,-5908,182,110,4581,208,2634],"delta_lng":[0,1282,-2679,-1440,-239,-3375,62,3580]}},
    {"code":2800103,"id":"f7f75b","name":"稲荷町(東京)","name_kana":"いなりちょう","lat":35.711273,"lng":139.782593,"prefecture":13,"numbering":[{"index":"17"}],"lines":[28001],"attr":"eco","postal_code":"110-0015","address":"台東区東上野３-３３-１１","next":[100402,9930903,9930111,2800102,2800304,2800306],"voronoi":{"lat":35.709958,"lng":139.778651,"delta_lat":[0,5908,-856,-1475,-4997,1134],"delta_lng":[0,2679,5520,383,-828,-7550]}},
    {"code":2800102,"id":"d4d8ac","name":"田原町(東京)","name_kana":"たわらまち","lat":35.709897,"lng":139.790897,"prefecture":13,"numbering":[{"index":"18"}],"lines":[28001],"attr":"eco","postal_code":"111-0035","address":"台東区西浅草１-１-１８","next":[9930903,9930112,2100201,9930111,2800103],"voronoi":{"lat":35.710732,"lng":139.794598,"delta_lat":[0,-4141,-45,1992,4997],"delta_lng":[0,1124,-8681,-636,828]}},
    {"code":2100201,"id":"6e2d5c","name":"浅草(その他)","name_kana":"あさくさ","lat":35.711883,"lng":139.798214,"prefecture":13,"numbering":[{"index":"19"}],"lines":[21002,28001,99302],"attr":"heat","postal_code":"111-0033","address":"東京都台東区花川戸一丁目4-1","next":[2100202,9930219,2800102,2100204,9930903,2800303,1132004,9930112],"voronoi":{"lat":35.716038,"lng":139.804411,"delta_lat":[0,5558,1043,232,-783,-11355,-4141,-2245],"delta_lng":[0,727,-370,-4334,-2065,-3770,1124,2664]}}
  ],
  "north":35.71225,
  "south":35.65873,
  "east":139.79803,
  "west":139.70153,
  "polyline_list":[
    {
      "start":"渋谷",
      "end":"浅草",
      "lat":35.65873,
      "lng":139.70153,
      "delta_lat":[0,5,5,1,55,20,7,49,49,90,47,84,3,36,64,43,79,68,325,87,8,12,6,42,18,98,50,22,29,36,46,8,40,40,29,13,19,44,60,150,25,0,-6,-27,-53,-39,-40,-68,-85,-95,-33,-2,-49,-60,-26,-15,-26,-45,-25,-20,-28,-18,2,4,9,9,3,-9,-12,-31,-9,-27,-33,-28,-22,-29,-23,-24,-1,-34,-4,-2,-4,0,-26,-25,-2,-5,14,22,25,91,88,49,38,76,18,72,6,92,91,91,51,13,34,46,50,40,12,55,36,66,52,37,36,35,42,57,18,40,25,31,96,9,22,55,31,20,62,81,44,8,67,18,20,80,40,34,36,18,27,74,65,45,112,13,85,14,58,30,19,47,111,52,24,198,54,62,13,43,48,51,58,24,43,18,67,62,10,52,15,49,23,50,8,10,112,44,33,22,24,16,61,16,67,24,9,9,12,38,10,1,-9,-5,-4,-9,-2,-19,-8,0,-15,-3,-6,-18,-3,-14,-21,-12,-11,-7,-13,-7,-7,-15,-13,-3,-11,-9,-12,-15,-11,-5,-7,-15,-18,12,19,21,27,66,30,35],
      "delta_lng":[0,18,21,4,211,75,30,101,67,146,76,125,4,47,65,37,72,62,277,74,14,19,27,115,43,231,126,78,88,105,133,22,130,128,108,49,52,83,103,253,35,43,28,26,20,21,28,40,36,41,24,3,67,91,40,24,39,72,53,73,168,133,20,53,58,78,19,31,32,88,26,73,103,86,63,94,72,67,5,111,10,8,12,2,76,71,4,50,66,37,29,100,94,55,40,80,19,74,6,98,92,96,43,11,21,30,30,25,8,33,22,40,32,24,22,22,27,37,11,25,16,19,57,3,7,16,5,-6,-26,-34,-18,-3,-28,-7,-9,-31,-17,-13,-15,-8,-12,-29,-29,-22,-41,-6,-36,-5,-23,-11,0,14,49,19,6,20,5,8,3,4,6,5,7,2,6,2,7,5,2,7,6,26,13,27,4,5,24,9,9,7,8,7,22,7,30,17,25,32,43,140,38,35,46,27,23,57,10,105,40,5,87,8,43,96,13,86,116,74,51,48,72,26,47,76,68,13,62,39,58,81,59,28,40,80,90,76,53,27,23,56,23,28]
    }
  ]
}