{
  "code":28009,
  "name":"東京メトロ南北線",
  "color":"#00A968",
  "symbol":"N",
  "station_list":[
    {"code":1130203,"id":"0db398","name":"目黒","name_kana":"めぐろ","lat":35.633923,"lng":139.715775,"prefecture":13,"numbering":[{"index":"01"}],"lines":[11302,26002,28009,99303],"attr":"eco","postal_code":"141-0021","address":"東京都品川区上大崎二丁目16-9"},
    {"code":2800918,"id":"33a57c","name":"白金台","name_kana":"しろかねだい","lat":35.637917,"lng":139.726133,"prefecture":13,"numbering":[{"index":"02"}],"lines":[28009,99303],"attr":"eco","postal_code":"108-0071","address":"港区白金台３-２"},
    {"code":2800917,"id":"3cde0d","name":"白金高輪","name_kana":"しろかねたかなわ","lat":35.642903,"lng":139.734104,"prefecture":13,"numbering":[{"index":"03"}],"lines":[28009,99303],"attr":"eco","postal_code":"108-0074","address":"港区高輪１-３-２０"},
    {"code":2800916,"id":"6a2cb4","name":"麻布十番","name_kana":"あざぶじゅうばん","lat":35.654682,"lng":139.737051,"prefecture":13,"numbering":[{"index":"04"}],"lines":[28009,99301],"attr":"eco","postal_code":"106-0045","address":"港区麻布十番４-４-９"},
    {"code":2800915,"id":"068fd5","name":"六本木一丁目","name_kana":"ろっぽんぎいっちょうめ","lat":35.665595,"lng":139.739,"prefecture":13,"numbering":[{"index":"05"}],"lines":[28009],"attr":"eco","postal_code":"106-0032","address":"港区六本木１-４-１"},
    {"code":2800114,"id":"55f6a4","name":"溜池山王","name_kana":"ためいけさんのう","lat":35.673621,"lng":139.741419,"prefecture":13,"numbering":[{"index":"06"}],"lines":[28001,28009],"attr":"cool","postal_code":"100-0014","address":"千代田区永田町２-１１-１"},
    {"code":2800616,"id":"4aa7d8","name":"永田町","name_kana":"ながたちょう","lat":35.678757,"lng":139.740258,"prefecture":13,"numbering":[{"index":"07"}],"lines":[28006,28008,28009],"attr":"heat","postal_code":"100-0014","address":"東京都千代田区永田町一丁目11-28"},
    {"code":1131102,"id":"90f3a3","name":"四ツ谷(四ッ谷)","name_kana":"よつや","lat":35.686041,"lng":139.730644,"prefecture":13,"numbering":[{"index":"08"}],"lines":[11311,11312,11313,28002,28009],"attr":"heat","postal_code":"160-0004","address":"東京都新宿区四谷一丁目"},
    {"code":1131315,"id":"51ad8c","name":"市ケ谷(市ヶ谷)","name_kana":"いちがや","lat":35.691107,"lng":139.735238,"prefecture":13,"numbering":[{"index":"09"}],"lines":[11313,28006,28009,99304],"attr":"heat","postal_code":"162-0843","address":"東京都新宿区市谷田町一丁目1"},
    {"code":1131316,"id":"e0bb13","name":"飯田橋","name_kana":"いいだばし","lat":35.701835,"lng":139.745143,"prefecture":13,"numbering":[{"index":"10"}],"lines":[11313,28004,28006,28009,99301],"attr":"eco","postal_code":"102-0072","address":"東京都千代田区飯田橋四丁目10-2"},
    {"code":2800204,"id":"626699","name":"後楽園","name_kana":"こうらくえん","lat":35.707898,"lng":139.751864,"prefecture":13,"numbering":[{"index":"11"}],"lines":[28002,28009],"attr":"eco","postal_code":"112-0003","address":"文京区春日１-２-３"},
    {"code":2800908,"id":"668f91","name":"東大前","name_kana":"とうだいまえ","lat":35.717633,"lng":139.758025,"prefecture":13,"numbering":[{"index":"12"}],"lines":[28009],"attr":"cool","postal_code":"113-0023","address":"文京区向丘１-１９-２"},
    {"code":2800907,"id":"076841","name":"本駒込","name_kana":"ほんこまごめ","lat":35.724155,"lng":139.753828,"prefecture":13,"numbering":[{"index":"13"}],"lines":[28009],"attr":"cool","postal_code":"113-0023","address":"文京区向丘２-３７-１"},
    {"code":1130215,"id":"fca8bb","name":"駒込","name_kana":"こまごめ","lat":35.736825,"lng":139.748053,"prefecture":13,"numbering":[{"index":"14"}],"lines":[11302,28009],"attr":"heat","postal_code":"170-0003","address":"東京都豊島区駒込二丁目1-1"},
    {"code":2800905,"id":"f48beb","name":"西ケ原","name_kana":"にしがはら","lat":35.746008,"lng":139.742322,"prefecture":13,"numbering":[{"index":"15"}],"lines":[28009],"attr":"cool","postal_code":"114-0024","address":"東京都北区西ヶ原二丁目3-8"},
    {"code":1133212,"id":"b8c715","name":"王子","name_kana":"おうじ","lat":35.752165,"lng":139.738478,"prefecture":13,"numbering":[{"index":"16"}],"lines":[11332,28009],"attr":"cool","postal_code":"114-0002","address":"北区王子１丁目"},
    {"code":2800903,"id":"89ed88","name":"王子神谷","name_kana":"おうじかみや","lat":35.765172,"lng":139.735933,"prefecture":13,"numbering":[{"index":"17"}],"lines":[28009],"attr":"cool","postal_code":"114-0002","address":"北区王子５-２-１１"},
    {"code":2800902,"id":"e28f9a","name":"志茂","name_kana":"しも","lat":35.777948,"lng":139.732599,"prefecture":13,"numbering":[{"index":"18"}],"lines":[28009],"attr":"cool","postal_code":"115-0042","address":"北区志茂２-１-１８"},
    {"code":2800901,"id":"146fbb","name":"赤羽岩淵","name_kana":"あかばねいわぶち","lat":35.783417,"lng":139.722103,"prefecture":13,"numbering":[{"index":"19"}],"lines":[28009,99307],"attr":"cool","postal_code":"115-0045","address":"北区赤羽１-５２-８"}
  ],
  "north":35.78361,
  "south":35.63177,
  "east":139.75826,
  "west":139.71532,
  "polyline_list":[
    {
      "start":"目黒",
      "end":"赤羽岩淵",
      "lat":35.63177,
      "lng":139.7159,
      "delta_lat":[0,143,31,26,30,11,16,16,11,16,14,8,7,6,4,7,3,2,5,4,0,1,0,3,3,12,14,72,79,19,74,48,40,81,13,11,8,3,7,6,3,2,6,5,14,16,42,125,141,54,44,66,45,48,101,71,59,33,59,56,38,85,79,39,65,81,146,44,30,65,107,26,49,35,38,37,131,37,29,58,68,128,143,41,47,20,24,36,62,50,53,20,19,27,13,184,87,181,141,67,32,31,42,22,54,12,6,28,13,4,-5,-2,11,19,21,37,38,9,36,28,35,15,9,47,23,11,11,40,35,49,53,47,40,76,134,27,60,57,60,50,52,62,23,18,48,118,49,81,116,43,50,25,17,38,108,4,125,36,3,54,38,62,24,17,21,64,15,7,20,20,4,3,2,2,-5,-6,9,16,27,27,35,150,110,36,16,100,78,49,31,48,42,22,12,6,7,20,32,92,72,20,66,14,38,50,38,35,56,25,85,33,29,43,15,36,92,12,56,103,26,65,5,18,17,18,95,66,36,40,47,9,10,26,30,45,29,56,20,76,76,32,17,14,19,12,73,86,40,5,37,12,84,84,90,26,128,40,31,108,18,158,28,125,26,17,15,9,22,47,30,29,22,25,31,74,35,86,56,53,23,55,33,39,63,145,21,62,21,20,11,9,18,29,22,25,29,27,33,81,153,53,96,99,67,40,21,27,73,82,80,35,70,118,13,38,52,70,33,20,103,50,47,39,96,55,27,19,53,67,174,63,20,28,19,150,17,30,17,30,82,124,31,7,16,31,47,52],
      "delta_lng":[0,-48,-8,-2,6,1,7,9,9,22,25,23,17,23,17,49,34,22,45,50,69,49,41,21,17,28,26,134,180,45,170,106,70,129,25,27,23,30,52,63,30,15,15,11,23,15,22,61,81,31,24,36,25,22,30,19,14,5,4,2,0,-8,-10,3,12,16,21,2,-7,-26,-47,1,7,7,17,22,92,18,10,21,17,29,24,7,10,9,10,23,54,49,52,14,10,4,-2,-16,1,6,2,-1,-7,-23,-43,-32,-86,-25,-12,-84,-67,-64,-97,-59,-75,-53,-42,-36,-35,-6,-35,-31,-45,-18,-14,-64,-32,-16,-17,-33,-22,-20,-6,1,6,15,41,10,22,28,46,49,76,110,42,34,76,142,60,73,91,37,51,28,26,40,103,2,110,28,2,18,16,38,16,12,14,56,25,23,75,77,23,35,23,27,101,70,91,50,42,27,17,10,5,0,2,2,1,1,-2,29,40,42,44,51,63,48,45,95,64,9,15,6,8,39,27,12,10,-2,-27,-13,-14,-31,-12,-30,-81,-10,-47,-80,-18,-43,-2,-9,-6,-4,-19,-12,-6,-8,-10,-2,-7,-21,-25,-34,-20,-31,-10,-36,-38,-19,-14,-10,-17,-13,-64,-77,-34,-4,-28,-9,-61,-50,-41,-17,-36,-7,2,49,9,65,2,-22,-11,-34,-29,-21,-48,-76,-81,-72,-36,-23,-28,-74,-33,-101,-75,-62,-25,-49,-22,-20,-24,-34,-3,22,20,0,-5,-4,-12,-17,-12,-9,-5,-4,0,7,6,4,9,4,0,-5,-8,-12,-39,-47,-37,-13,-18,-33,-3,-12,-19,-26,-12,-7,-35,-18,-15,-15,-41,-18,-2,-1,0,3,7,2,0,-10,-8,-107,-13,-29,-16,-36,-96,-139,-41,-13,-63,-159,-246,-269]
    }
  ]
}