{
  "code":28003,
  "name":"東京メトロ日比谷線",
  "color":"#9CAEB7",
  "symbol":"H",
  "station_list":[
    {"code":2600103,"id":"026a31","name":"中目黒","name_kana":"なかめぐろ","lat":35.643854,"lng":139.698621,"prefecture":13,"numbering":[{"index":"01"}],"lines":[26001,28003],"attr":"cool","postal_code":"153-0051","address":"目黒区上目黒３-４-１"},
    {"code":1130204,"id":"43da5d","name":"恵比寿","name_kana":"えびす","lat":35.646685,"lng":139.71007,"prefecture":13,"numbering":[{"index":"02"}],"lines":[11302,11321,11333,28003],"attr":"cool","postal_code":"150-0022","address":"東京都渋谷区恵比寿南一丁目5-5"},
    {"code":2800319,"id":"9fcef9","name":"広尾","name_kana":"ひろお","lat":35.652279,"lng":139.722202,"prefecture":13,"numbering":[{"index":"03"}],"lines":[28003],"attr":"cool","postal_code":"106-0047","address":"港区南麻布５-１０-２８"},
    {"code":2800318,"id":"1cf8c3","name":"六本木","name_kana":"ろっぽんぎ","lat":35.662836,"lng":139.731443,"prefecture":13,"numbering":[{"index":"04"}],"lines":[28003,99301],"attr":"cool","postal_code":"106-0032","address":"港区六本木６-１-２５"},
    {"code":2800317,"id":"052f60","name":"神谷町","name_kana":"かみやちょう","lat":35.662978,"lng":139.745069,"prefecture":13,"numbering":[{"index":"05"}],"lines":[28003],"attr":"cool","postal_code":"105-0001","address":"港区虎ノ門５-１２-１１"},
    {"code":2800211,"id":"53bc5a","name":"霞ケ関","name_kana":"かすみがせき","lat":35.673838,"lng":139.750899,"prefecture":13,"numbering":[{"index":"06"}],"lines":[28002,28003,28005],"attr":"heat","postal_code":"100-0013","address":"千代田区霞が関２丁目"},
    {"code":2800315,"id":"3a7f35","name":"日比谷","name_kana":"ひびや","lat":35.67459,"lng":139.76017,"prefecture":13,"numbering":[{"index":"07"}],"lines":[28003,28005,99303],"attr":"heat","postal_code":"100-0006","address":"千代田区有楽町１丁目"},
    {"code":2800111,"id":"1e31fc","name":"銀座","name_kana":"ぎんざ","lat":35.671989,"lng":139.763965,"prefecture":13,"numbering":[{"index":"08"}],"lines":[28001,28002,28003],"attr":"cool","postal_code":"104-0061","address":"中央区銀座４-１-２"},
    {"code":2800313,"id":"291247","name":"東銀座","name_kana":"ひがしぎんざ","lat":35.669464,"lng":139.767253,"prefecture":13,"numbering":[{"index":"09"}],"lines":[28003,99302],"attr":"heat","postal_code":"104-0061","address":"中央区銀座４-１２-１５"},
    {"code":2800312,"id":"634af8","name":"築地","name_kana":"つきじ","lat":35.668115,"lng":139.772603,"prefecture":13,"numbering":[{"index":"10"}],"lines":[28003],"attr":"heat","postal_code":"104-0045","address":"中央区築地３-１５-１"},
    {"code":1132602,"id":"ea172b","name":"八丁堀(東京)","name_kana":"はっちょうぼり","lat":35.674617,"lng":139.777705,"prefecture":13,"numbering":[{"index":"11"}],"lines":[11326,28003],"attr":"heat","postal_code":"104-0032","address":"中央区八丁堀３丁目"},
    {"code":2800310,"id":"0929eb","name":"茅場町","name_kana":"かやばちょう","lat":35.679752,"lng":139.780005,"prefecture":13,"numbering":[{"index":"12"}],"lines":[28003,28004],"attr":"heat","postal_code":"103-0025","address":"中央区日本橋茅場町１-４-６"},
    {"code":2800309,"id":"ab81cc","name":"人形町","name_kana":"にんぎょうちょう","lat":35.686307,"lng":139.782285,"prefecture":13,"numbering":[{"index":"13"}],"lines":[28003,99302],"attr":"eco","postal_code":"103-0013","address":"中央区日本橋人形町２-６-５"},
    {"code":2800308,"id":"0cc552","name":"小伝馬町","name_kana":"こでんまちょう","lat":35.690737,"lng":139.778433,"prefecture":13,"numbering":[{"index":"14"}],"lines":[28003],"attr":"eco","postal_code":"103-0001","address":"中央区日本橋小伝馬町１１-１"},
    {"code":1130222,"id":"41a869","name":"秋葉原","name_kana":"あきはばら","lat":35.69862,"lng":139.77329,"prefecture":13,"numbering":[{"index":"15"}],"lines":[11302,11313,11332,28003,99309],"attr":"heat","postal_code":"101-0021","address":"東京都千代田区外神田一丁目17"},
    {"code":2800306,"id":"72c1e6","name":"仲御徒町","name_kana":"なかおかちまち","lat":35.706649,"lng":139.776138,"prefecture":13,"numbering":[{"index":"16"}],"lines":[28003],"attr":"eco","postal_code":"110-0005","address":"台東区上野５-２４-１２"},
    {"code":100402,"id":"93946c","name":"上野","name_kana":"うえの","lat":35.71379,"lng":139.777043,"prefecture":13,"numbering":[{"index":"17"}],"lines":[11302,11319,11320,11323,11332,11343,28001,28003,1004,1005],"attr":"heat","postal_code":"110-0005","address":"東京都台東区上野七丁目1-1"},
    {"code":2800304,"id":"a6c4cd","name":"入谷(東京)","name_kana":"いりや","lat":35.719862,"lng":139.783924,"prefecture":13,"numbering":[{"index":"18"}],"lines":[28003],"attr":"eco","postal_code":"110-0013","address":"台東区入谷１-６-４"},
    {"code":2800303,"id":"b0682e","name":"三ノ輪","name_kana":"みのわ","lat":35.729623,"lng":139.791485,"prefecture":13,"numbering":[{"index":"19"}],"lines":[28003],"attr":"eco","postal_code":"110-0011","address":"台東区三ノ輪２-１４-７"},
    {"code":1132004,"id":"a02091","name":"南千住","name_kana":"みなみせんじゅ","lat":35.734033,"lng":139.7994,"prefecture":13,"numbering":[{"index":"20"}],"lines":[11320,28003,99309],"attr":"heat","postal_code":"116-0003","address":"荒川区南千住４丁目"},
    {"code":1132005,"id":"6a369b","name":"北千住","name_kana":"きたせんじゅ","lat":35.749677,"lng":139.804872,"prefecture":13,"numbering":[{"index":"21"}],"lines":[11320,21002,28003,28005,99309],"attr":"cool","postal_code":"120-0026","address":"足立区千住旭町"}
  ],
  "north":35.75126,
  "south":35.64352,
  "east":139.806,
  "west":139.69815,
  "polyline_list":[
    {
      "start":"中目黒",
      "end":"北千住",
      "lat":35.64352,
      "lng":139.69815,
      "delta_lat":[0,62,25,29,6,67,20,7,79,6,12,-13,-11,-12,-11,-1,0,12,16,15,30,80,4,21,38,47,2,-23,-2,-19,0,39,17,9,24,29,41,22,40,176,5,63,72,110,104,67,3,58,101,83,39,42,17,32,65,24,115,90,-6,-15,-52,-15,-21,-100,-55,-67,-17,-1,3,7,17,21,24,37,17,26,57,20,114,76,43,65,36,142,90,14,102,76,28,52,40,30,30,22,113,26,18,130,18,167,39,28,21,6,-45,-10,-9,-58,-25,-38,-27,-17,-13,-13,-57,-9,-32,-33,-44,-23,-24,-12,-1,-15,-21,-26,-24,-32,-39,-39,-23,-20,-11,-14,-9,-9,-11,-55,-44,-35,-43,-34,-24,-13,-1,5,13,14,32,24,22,37,8,36,5,36,6,42,12,11,18,6,61,55,56,10,52,38,33,81,49,6,65,17,52,5,59,11,49,92,22,51,61,25,22,32,42,7,6,52,32,80,7,84,46,53,34,47,42,22,11,95,5,33,67,34,78,49,16,20,36,47,37,39,23,33,51,50,43,105,96,52,34,16,19,46,67,88,64,59,33,68,201,292,149,23,143,145,17,31,22,25,19,34,16,13,20,102,100,65,233,161,74,74,42,32,7,70,25,28,9,66,66,53,9,40,7,69,5,78,56,43,78,27,123,43,2,20,11,6,-15,1,9,17,29,27,31,3,114,9,99,70,102,51,60,64,116,54,23,160,16,21,180,38,9,64,10,22,14,75,18,97,103,34,51,7,35,163,73],
      "delta_lng":[0,71,32,34,6,83,23,24,114,7,52,51,124,95,103,55,43,41,35,20,36,60,5,28,69,77,27,85,8,161,124,259,112,52,140,72,57,16,10,-10,0,7,18,58,63,22,1,3,-16,-14,11,47,36,93,181,65,234,180,26,31,103,33,54,331,150,170,42,12,29,24,35,34,26,24,11,18,43,18,107,75,35,41,13,64,40,5,49,47,17,24,15,14,12,9,53,16,12,77,11,105,46,38,67,49,104,25,21,140,49,96,40,17,18,19,83,13,46,49,66,35,37,17,2,22,32,37,36,45,53,49,27,28,12,13,10,9,13,63,50,39,52,41,35,43,45,32,28,18,40,32,27,47,11,49,5,37,5,41,10,12,23,3,26,21,23,5,22,15,13,33,21,3,37,10,31,4,36,7,31,57,14,30,39,15,16,18,26,5,3,30,19,49,7,73,40,21,6,-1,-27,-19,-10,-81,-5,-30,-59,-28,-65,-43,-14,-18,-30,-40,-31,-38,-16,-24,-29,-20,-14,-43,-32,-21,-14,-7,-11,3,3,2,0,-1,2,6,20,30,14,1,13,13,2,8,9,15,20,57,25,22,22,70,71,50,182,126,56,60,31,25,6,56,19,22,6,52,51,39,5,29,5,49,3,53,39,30,56,27,131,57,3,36,48,66,149,43,59,48,62,39,36,3,93,7,69,36,46,24,20,18,22,9,4,45,5,5,56,11,2,20,3,6,6,25,8,47,63,18,17,2,11,49,22]
    }
  ]
}