{
  "code":28006,
  "name":"東京メトロ有楽町線",
  "color":"#D7C447",
  "symbol":"Y",
  "station_list":[
    {"code":2100111,"id":"3174d1","name":"和光市","name_kana":"わこうし","lat":35.788507,"lng":139.612434,"prefecture":11,"numbering":[{"index":"01"}],"lines":[21001,28006,28010],"attr":"eco","postal_code":"351-0114","address":"埼玉県和光市本町4-6"},
    {"code":2800602,"id":"ff93b4","name":"地下鉄成増","name_kana":"ちかてつなります","lat":35.776557,"lng":139.631497,"prefecture":13,"numbering":[{"index":"02"}],"lines":[28006,28010],"attr":"eco","postal_code":"175-0094","address":"東京都板橋区成増二丁目11-3"},
    {"code":2800603,"id":"53aa8a","name":"地下鉄赤塚","name_kana":"ちかてつあかつか","lat":35.769939,"lng":139.644021,"prefecture":13,"numbering":[{"index":"03"}],"lines":[28006,28010],"attr":"eco","postal_code":"179-0081","address":"東京都練馬区北町八丁目37-16"},
    {"code":2800604,"id":"fd476e","name":"平和台(東京)","name_kana":"へいわだい","lat":35.757863,"lng":139.653762,"prefecture":13,"numbering":[{"index":"04"}],"lines":[28006,28010],"attr":"eco","postal_code":"179-0085","address":"東京都練馬区早宮2-17-48"},
    {"code":2800605,"id":"99d1ef","name":"氷川台","name_kana":"ひかわだい","lat":35.74955,"lng":139.665567,"prefecture":13,"numbering":[{"index":"05"}],"lines":[28006,28010],"attr":"eco","postal_code":"179-0084","address":"東京都練馬区氷川台三丁目38-18"},
    {"code":2200301,"id":"46f29b","name":"小竹向原","name_kana":"こたけむかいはら","lat":35.743803,"lng":139.678572,"prefecture":13,"numbering":[{"index":"06"}],"lines":[22003,28006,28010],"attr":"eco","postal_code":"176-0004","address":"東京都練馬区小竹町二丁目16-15"},
    {"code":2800607,"id":"d0a586","name":"千川","name_kana":"せんかわ","lat":35.738229,"lng":139.689271,"prefecture":13,"numbering":[{"index":"07"}],"lines":[28006,28010],"attr":"eco","postal_code":"171-0043","address":"東京都豊島区要町三丁目10-7"},
    {"code":2800608,"id":"2cdd1b","name":"要町","name_kana":"かなめちょう","lat":35.73323,"lng":139.698715,"prefecture":13,"numbering":[{"index":"08"}],"lines":[28006,28010],"attr":"eco","postal_code":"171-0043","address":"東京都豊島区要町一丁目1-10"},
    {"code":1130212,"id":"a4dfd2","name":"池袋","name_kana":"いけぶくろ","lat":35.730256,"lng":139.711086,"prefecture":13,"numbering":[{"index":"09"}],"lines":[11302,11321,11328,11333,21001,22001,28002,28006,28010],"attr":"heat","postal_code":"171-0022","address":"東京都豊島区南池袋一丁目28-2"},
    {"code":2800610,"id":"971b3f","name":"東池袋","name_kana":"ひがしいけぶくろ","lat":35.725732,"lng":139.719546,"prefecture":13,"numbering":[{"index":"10"}],"lines":[28006],"attr":"eco","postal_code":"170-0013","address":"東京都豊島区東池袋四丁目4-4"},
    {"code":2800611,"id":"2f67a0","name":"護国寺","name_kana":"ごこくじ","lat":35.719044,"lng":139.72754,"prefecture":13,"numbering":[{"index":"11"}],"lines":[28006],"attr":"eco","postal_code":"112-0012","address":"東京都文京区大塚五丁目40-8"},
    {"code":2800612,"id":"fea66e","name":"江戸川橋","name_kana":"えどがわばし","lat":35.709495,"lng":139.733538,"prefecture":13,"numbering":[{"index":"12"}],"lines":[28006],"attr":"eco","postal_code":"112-0014","address":"東京都文京区関口一丁目19-6"},
    {"code":1131316,"id":"e0bb13","name":"飯田橋","name_kana":"いいだばし","lat":35.701835,"lng":139.745143,"prefecture":13,"numbering":[{"index":"13"}],"lines":[11313,28004,28006,28009,99301],"attr":"eco","postal_code":"102-0072","address":"東京都千代田区飯田橋四丁目10-2"},
    {"code":1131315,"id":"51ad8c","name":"市ケ谷(市ヶ谷)","name_kana":"いちがや","lat":35.691107,"lng":139.735238,"prefecture":13,"numbering":[{"index":"14"}],"lines":[11313,28006,28009,99304],"attr":"heat","postal_code":"162-0843","address":"東京都新宿区市谷田町一丁目1"},
    {"code":2800615,"id":"85b57c","name":"麹町","name_kana":"こうじまち","lat":35.684006,"lng":139.737613,"prefecture":13,"numbering":[{"index":"15"}],"lines":[28006],"attr":"heat","postal_code":"102-0083","address":"東京都千代田区麹町三丁目2"},
    {"code":2800616,"id":"4aa7d8","name":"永田町","name_kana":"ながたちょう","lat":35.678757,"lng":139.740258,"prefecture":13,"numbering":[{"index":"16"}],"lines":[28006,28008,28009],"attr":"heat","postal_code":"100-0014","address":"東京都千代田区永田町一丁目11-28"},
    {"code":2800617,"id":"32aeb8","name":"桜田門","name_kana":"さくらだもん","lat":35.677405,"lng":139.75149,"prefecture":13,"numbering":[{"index":"17"}],"lines":[28006],"attr":"heat","postal_code":"100-0013","address":"東京都千代田区霞が関二丁目1-1"},
    {"code":1130225,"id":"7a9dfd","name":"有楽町","name_kana":"ゆうらくちょう","lat":35.675441,"lng":139.763806,"prefecture":13,"numbering":[{"index":"18"}],"lines":[11302,11332,28006],"attr":"heat","postal_code":"100-0006","address":"東京都千代田区有楽町二丁目9"},
    {"code":2800619,"id":"8c253b","name":"銀座一丁目","name_kana":"ぎんざいっちょうめ","lat":35.67435,"lng":139.767045,"prefecture":13,"numbering":[{"index":"19"}],"lines":[28006],"attr":"heat","postal_code":"104-0061","address":"東京都中央区銀座一丁目7-12"},
    {"code":2800620,"id":"a9b001","name":"新富町(東京)","name_kana":"しんとみちょう","lat":35.670462,"lng":139.773711,"prefecture":13,"numbering":[{"index":"20"}],"lines":[28006],"attr":"cool","postal_code":"104-0045","address":"東京都中央区築地一丁目1-1"},
    {"code":2800621,"id":"059a1f","name":"月島","name_kana":"つきしま","lat":35.664871,"lng":139.784233,"prefecture":13,"numbering":[{"index":"21"}],"lines":[28006,99301],"attr":"cool","postal_code":"104-0052","address":"東京都中央区月島一丁目3-9"},
    {"code":2800622,"id":"21bab1","name":"豊洲","name_kana":"とよす","lat":35.654908,"lng":139.79621,"prefecture":13,"numbering":[{"index":"22"}],"lines":[28006,99311],"attr":"cool","postal_code":"135-0061","address":"東京都江東区豊洲四丁目1-1"},
    {"code":2800623,"id":"8b5b5b","name":"辰巳","name_kana":"たつみ","lat":35.645576,"lng":139.81052,"prefecture":13,"numbering":[{"index":"23"}],"lines":[28006],"attr":"cool","postal_code":"135-0053","address":"東京都江東区辰巳一丁目1-44"},
    {"code":1132605,"id":"369de7","name":"新木場","name_kana":"しんきば","lat":35.646172,"lng":139.827402,"prefecture":13,"numbering":[{"index":"24"}],"lines":[11326,28006,99337],"attr":"cool","postal_code":"136-0082","address":"東京都江東区新木場一丁目5"}
  ],
  "north":35.78877,
  "south":35.64399,
  "east":139.82786,
  "west":139.61182,
  "polyline_list":[
    {
      "start":"池袋",
      "end":"新木場",
      "lat":35.73228,
      "lng":139.70509,
      "delta_lat":[0,-17,-18,-49,-69,-52,-35,-34,-71,-27,-76,-46,-15,-5,-6,-6,-14,-29,-128,-24,-54,-103,-27,-1,-91,-105,-65,-58,-170,-78,-5,-418,-202,-69,-41,-23,-33,-69,-9,0,-18,-24,-9,-43,-45,-49,-58,-90,-139,-36,-38,-66,-14,-27,-25,-87,-83,-82,-97,-110,-95,-70,-87,-90,-38,-51,-43,-123,-38,-10,-64,-97,-48,-243,-89,-163,-220,-114,-98,-46,-21,-34,-7,-12,-42,-22,-13,-5,-6,0,10,13,13,4,-17,-35,-17,-15,-8,2,14,11,6,20,14,2,2,4,-4,-10,-55,-35,-40,-14,-9,-25,-2,-15,-5,-32,-11,-15,-24,-23,-25,-22,-20,-10,-33,-22,-40,-40,-30,-22,-25,-29,-9,-15,-7,-22,-59,-15,-14,-11,-57,-39,-16,-36,-128,-33,-58,-37,-15,-46,-4,-84,-18,-121,7,-7,-42,-83,-25,-49,-1,-74,-50,-43,-20,-48,-12,-52,-13,-20,-32,-32,-30,-15,-12,-30,-23,-31,-29,-46,-23,-26,-3,-29,-24,-18,-8,-22,-27,-22,-23,-91,-45,-49,-38,-40,-35,-52,-18,-16,-57,-106,-34,-57,-93,-63,-29,-16,-20,-4,11,65,11,2,35,12,29,27],
      "delta_lng":[0,17,34,98,122,93,61,46,217,62,119,89,38,64,117,20,36,45,199,37,76,178,52,6,122,119,70,59,79,38,2,198,104,42,35,36,76,196,47,5,98,193,67,249,82,54,44,27,44,8,-1,-10,-9,-20,-20,-61,-52,-53,-71,-89,-70,-47,-70,-64,-29,-34,-29,-86,-20,-5,-24,-25,13,108,38,72,90,53,47,31,15,38,7,16,67,39,42,33,46,72,67,82,47,47,67,61,50,91,80,70,52,52,26,78,59,24,28,46,92,40,122,148,240,72,46,119,14,61,25,144,46,28,39,35,38,32,30,14,50,33,58,61,44,34,36,44,18,41,15,55,145,38,34,30,223,149,46,53,132,35,87,66,27,50,3,90,19,113,9,8,50,99,48,89,5,126,81,54,23,47,11,52,13,20,31,33,30,22,13,30,24,27,29,43,26,21,2,28,24,18,8,22,27,23,22,107,61,82,98,119,88,101,30,27,94,165,56,89,139,112,56,43,76,45,49,192,51,47,355,133,273,251]
    },
    {
      "start":"和光市",
      "end":"池袋",
      "lat":35.78877,
      "lng":139.61182,
      "delta_lat":[0,-84,-32,-38,-53,-79,-12,-33,-51,-27,-19,-20,-50,-157,-1,-77,-30,-36,-25,-30,-41,-33,-54,-13,-99,-36,-147,-59,-24,-23,-12,-47,-59,-38,-37,-31,-21,-26,-22,-18,-14,-13,-15,-14,-12,-2,-9,-17,-18,-160,-17,-5,-27,-22,-11,-9,-16,-13,-10,-51,-78,-52,-91,-84,-169,-4,-74,-84,-50,-28,-17,-34,-25,-14,-36,-55,-20,-116,-45,-49,-26,-53,-36,-38,-24,-36,-29,-28,-10,-318,-86,-136,-89,-49,-7,-88,-36,-13,-114,-96,-3,-60,-165,-39,-8,-43,-29,-60,-133,-74,-150,-65,-33,-33,-25,-16,-13,-41,-20,-5,3,0,-16,-35],
      "delta_lng":[0,209,78,92,131,194,26,78,128,60,57,48,86,242,3,110,19,46,33,16,13,9,5,4,40,67,281,118,42,35,14,41,58,40,45,41,33,46,41,44,55,62,63,59,54,7,32,61,31,273,37,28,99,85,45,40,54,20,10,22,25,9,21,18,21,0,11,13,11,7,3,13,17,19,46,77,30,193,73,86,42,72,50,45,34,44,40,35,18,385,194,302,202,118,14,198,80,30,262,204,5,122,364,81,17,74,44,90,178,100,203,82,51,77,63,63,68,224,117,86,149,62,64,71]
    }
  ]
}