{
  "code":28006,
  "name":"東京メトロ有楽町線",
  "color":"#D7C447",
  "symbol":"Y",
  "station_list":[
    {"code":2100111,"id":"3174d1","name":"和光市","name_kana":"わこうし","lat":35.788507,"lng":139.612434,"prefecture":11,"numbering":[{"index":"01"}],"lines":[21001,28006,28010],"attr":"eco","postal_code":"351-0114","address":"埼玉県和光市本町4-6","open_date":"1934-02-01","next":[2100112,2200111,2100110,1130509,9930138,2800602,9930327,2200110],"voronoi":{"lat":35.76688,"lng":139.602742,"delta_lat":[0,6294,42591,-1283,-19776,-9064,-15552,-3752],"delta_lng":[0,-9575,28934,4673,1963,-4821,-9749,-6958]}},
    {"code":2800602,"id":"ff93b4","name":"地下鉄成増","name_kana":"ちかてつなります","lat":35.776557,"lng":139.631497,"prefecture":13,"numbering":[{"index":"02"}],"lines":[28006,28010],"attr":"eco","postal_code":"175-0094","address":"東京都板橋区成増二丁目11-3","open_date":"1983-06-24","next":[2800603,2100111,9930138,2100110],"voronoi":{"lat":35.785643,"lng":139.623916,"delta_lat":[0,-15552,-3243,5120],"delta_lng":[0,-9749,20210,2706]}},
    {"code":2800603,"id":"53aa8a","name":"地下鉄赤塚","name_kana":"ちかてつあかつか","lat":35.769939,"lng":139.644021,"prefecture":13,"numbering":[{"index":"03"}],"lines":[28006,28010],"attr":"eco","postal_code":"179-0081","address":"東京都練馬区北町八丁目37-16","open_date":"1983-06-24","next":[2800602,9930138,2100109,9930137,2100110,2800604],"voronoi":{"lat":35.76024,"lng":139.644353,"delta_lat":[0,1227,5380,5120,2394,-8957],"delta_lng":[0,-5995,-3982,2706,1647,12026]}},
    {"code":2800604,"id":"fd476e","name":"平和台(東京)","name_kana":"へいわだい","lat":35.757863,"lng":139.653762,"prefecture":13,"numbering":[{"index":"04"}],"lines":[28006,28010],"attr":"eco","postal_code":"179-0085","address":"東京都練馬区早宮2-17-48","open_date":"1983-06-24","next":[2200402,9930137,2100108,2800605,2800603,2100109],"voronoi":{"lat":35.765405,"lng":139.650756,"delta_lat":[0,-5164,-9554,-2518,10893,7943],"delta_lng":[0,-6402,4528,6883,7671,-10492]}},
    {"code":2800605,"id":"99d1ef","name":"氷川台","name_kana":"ひかわだい","lat":35.74955,"lng":139.665567,"prefecture":13,"numbering":[{"index":"05"}],"lines":[28006,28010],"attr":"eco","postal_code":"179-0084","address":"東京都練馬区氷川台三丁目38-18","open_date":"1983-06-24","next":[2100107,2200402,2200301,2800604,2200105,2100108,2200106,2200302],"voronoi":{"lat":35.74422,"lng":139.663915,"delta_lat":[0,1727,1528,693,10893,655,-6283,-6662],"delta_lng":[0,-6264,-1591,-295,7671,3481,8139,-2944]}},
    {"code":2200301,"id":"46f29b","name":"小竹向原","name_kana":"こたけむかいはら","lat":35.743803,"lng":139.678572,"prefecture":13,"numbering":[{"index":"06"}],"lines":[22003,28006,28010],"attr":"eco","postal_code":"176-0004","address":"東京都練馬区小竹町二丁目16-15","open_date":"1983-06-24","next":[2100107,2200103,2200104,2200302,2800605,2100105,2100106,2800607],"voronoi":{"lat":35.737272,"lng":139.681971,"delta_lat":[0,-645,6310,3834,6662,535,-5435,-76],"delta_lng":[0,-1882,-6846,-1132,2944,4895,7790,58]}},
    {"code":2800607,"id":"d0a586","name":"千川","name_kana":"せんかわ","lat":35.738229,"lng":139.689271,"prefecture":13,"numbering":[{"index":"07"}],"lines":[28006,28010],"attr":"eco","postal_code":"171-0043","address":"東京都豊島区要町三丁目10-7","open_date":"1983-06-24","next":[2100104,2200103,2100105,2800608,2200102,2200301],"voronoi":{"lat":35.746837,"lng":139.693239,"delta_lat":[0,-5131,-9071,-1099,5736,11185],"delta_lng":[0,3917,-4801,-2516,-7868,5827]}},
    {"code":2800608,"id":"2cdd1b","name":"要町","name_kana":"かなめちょう","lat":35.73323,"lng":139.698715,"prefecture":13,"numbering":[{"index":"08"}],"lines":[28006,28010],"attr":"eco","postal_code":"171-0043","address":"東京都豊島区要町一丁目1-10","open_date":"1983-06-24","next":[2100104,2200132,2800607,2200102,1130212],"voronoi":{"lat":35.731643,"lng":139.704876,"delta_lat":[0,-3872,4865,9071,-2440],"delta_lng":[0,-5077,-7444,4801,9553]}},
    {"code":1130212,"id":"a4dfd2","name":"池袋","name_kana":"いけぶくろ","lat":35.730256,"lng":139.711086,"prefecture":13,"numbering":[{"index":"09"}],"lines":[11302,11321,11328,11333,21001,22001,28002,28006,28010],"attr":"heat","postal_code":"171-0022","address":"東京都豊島区南池袋一丁目28-2","open_date":"1903-04-01","next":[2100104,9930526,9930527,1130211,2800608,2200132,2800610,2100102],"voronoi":{"lat":35.728395,"lng":139.71553,"delta_lat":[0,-3139,-857,12,7232,7624,98,-5834],"delta_lng":[0,-2720,-2205,-25,-5704,1833,208,11359]}},
    {"code":2800610,"id":"971b3f","name":"東池袋","name_kana":"ひがしいけぶくろ","lat":35.725732,"lng":139.719546,"prefecture":13,"numbering":[{"index":"10"}],"lines":[28006],"attr":"eco","postal_code":"170-0013","address":"東京都豊島区東池袋四丁目4-4","open_date":"1974-10-30","next":[9930526,9930525,2100102,9930524,1130212],"voronoi":{"lat":35.728395,"lng":139.71553,"delta_lat":[0,-3662,3027,5808,-37],"delta_lng":[0,3498,2937,-3482,-207]}},
    {"code":2800611,"id":"2f67a0","name":"護国寺","name_kana":"ごこくじ","lat":35.719044,"lng":139.72754,"prefecture":13,"numbering":[{"index":"11"}],"lines":[28006],"attr":"eco","postal_code":"112-0012","address":"東京都文京区大塚五丁目40-8","open_date":"1974-10-30","next":[2800612,2800203,9930526,9930525,2800202,9930527,9930524,9930530],"voronoi":{"lat":35.715013,"lng":139.731722,"delta_lat":[0,5816,2869,-25,-4086,-977,-549,-6395],"delta_lng":[0,1240,-7843,-91,-3385,-534,-59,5344]}},
    {"code":2800612,"id":"fea66e","name":"江戸川橋","name_kana":"えどがわばし","lat":35.709495,"lng":139.733538,"prefecture":13,"numbering":[{"index":"12"}],"lines":[28006],"attr":"eco","postal_code":"112-0014","address":"東京都文京区関口一丁目19-6","open_date":"1974-10-30","next":[1131316,9930530,2800611,2800405,2800404,2800203],"voronoi":{"lat":35.715013,"lng":139.731722,"delta_lat":[0,-3347,-462,-5619,2247,2103],"delta_lng":[0,-5328,-75,1735,12717,1388]}},
    {"code":1131316,"id":"e0bb13","name":"飯田橋","name_kana":"いいだばし","lat":35.701835,"lng":139.745143,"prefecture":13,"numbering":[{"index":"13"}],"lines":[11313,28004,28006,28009,99301],"attr":"eco","postal_code":"102-0072","address":"東京都千代田区飯田橋四丁目10-2","open_date":"1964-12-23","next":[2800612,1131315,2800407,2800204,2800203,2800805,2800405,9930106,1131317],"voronoi":{"lat":35.693656,"lng":139.743905,"delta_lat":[0,189,1812,8788,3386,2103,632,-7017,-3504],"delta_lng":[0,-871,-1962,-926,625,1388,1203,6330,78]}},
    {"code":1131315,"id":"51ad8c","name":"市ケ谷(市ヶ谷)","name_kana":"いちがや","lat":35.691107,"lng":139.735238,"prefecture":13,"numbering":[{"index":"14"}],"lines":[11313,28006,28009,99304],"attr":"heat","postal_code":"162-0843","address":"東京都新宿区市谷田町一丁目1","open_date":"1974-10-30","next":[9930105,1131316,9930106,2800615,1131102,2800805,9930403],"voronoi":{"lat":35.696246,"lng":139.730902,"delta_lat":[0,-589,-1812,-5687,-1179,5085,2274],"delta_lng":[0,10170,1962,-4808,-3526,-5608,239]}},
    {"code":2800615,"id":"85b57c","name":"麹町","name_kana":"こうじまち","lat":35.684006,"lng":139.737613,"prefecture":13,"numbering":[{"index":"15"}],"lines":[28006],"attr":"heat","postal_code":"102-0083","address":"東京都千代田区麹町三丁目2","open_date":"1974-10-30","next":[2800616,1131102,2800115,1131315,2800805],"voronoi":{"lat":35.688159,"lng":139.738226,"delta_lat":[0,-1179,-6108,-350,1755],"delta_lng":[0,-3526,-1784,4314,3481]}},
    {"code":2800616,"id":"4aa7d8","name":"永田町","name_kana":"ながたちょう","lat":35.678757,"lng":139.740258,"prefecture":13,"numbering":[{"index":"16"}],"lines":[28006,28008,28009],"attr":"heat","postal_code":"100-0014","address":"東京都千代田区永田町一丁目11-28","open_date":"1974-10-30","next":[2800115,2800615,2800617,2800805,2800114,2800212],"voronoi":{"lat":35.681182,"lng":139.746247,"delta_lat":[0,1094,-1755,-4588,763,3079],"delta_lng":[0,-5537,-3481,2480,3372,2996]}},
    {"code":2800617,"id":"32aeb8","name":"桜田門","name_kana":"さくらだもん","lat":35.677405,"lng":139.75149,"prefecture":13,"numbering":[{"index":"17"}],"lines":[28006],"attr":"heat","postal_code":"100-0013","address":"東京都千代田区霞が関二丁目1-1","open_date":"1974-10-30","next":[2800315,2800211,2800408,2800616,2800805,2800511,2800212],"voronoi":{"lat":35.674912,"lng":139.755478,"delta_lat":[0,4087,4621,2068,-4505,-1407,-3641],"delta_lng":[0,1326,-1621,-5144,-3791,-170,2018]}},
    {"code":1130225,"id":"7a9dfd","name":"有楽町","name_kana":"ゆうらくちょう","lat":35.675441,"lng":139.763806,"prefecture":13,"numbering":[{"index":"18"}],"lines":[11302,11332,28006],"attr":"heat","postal_code":"100-0006","address":"東京都千代田区有楽町二丁目9","open_date":"1910-06-25","next":[2800619,2800315,2800111,2800511,100201],"voronoi":{"lat":35.678699,"lng":139.76422,"delta_lat":[0,-948,-4109,126,4081],"delta_lng":[0,-2873,962,2736,1375]}},
    {"code":2800619,"id":"8c253b","name":"銀座一丁目","name_kana":"ぎんざいっちょうめ","lat":35.67435,"lng":139.767045,"prefecture":13,"numbering":[{"index":"19"}],"lines":[28006],"attr":"heat","postal_code":"104-0061","address":"東京都中央区銀座一丁目7-12","open_date":"1974-10-30","next":[2800111,100201,1130225,9930212,2800313,2800110],"voronoi":{"lat":35.677891,"lng":139.766725,"delta_lat":[0,-41,-4081,-1889,152,2436],"delta_lng":[0,-304,-1375,1449,3588,-573]}},
    {"code":2800620,"id":"a9b001","name":"新富町(東京)","name_kana":"しんとみちょう","lat":35.670462,"lng":139.773711,"prefecture":13,"numbering":[{"index":"20"}],"lines":[28006],"attr":"cool","postal_code":"104-0045","address":"東京都中央区築地一丁目1-1","open_date":"1980-03-27","next":[9930212,1132602,2800621,2800312,2800313],"voronoi":{"lat":35.671964,"lng":139.770173,"delta_lat":[0,1698,-4846,-2047,3829],"delta_lng":[0,4368,5042,-1088,-8111]}},
    {"code":2800621,"id":"059a1f","name":"月島","name_kana":"つきしま","lat":35.664871,"lng":139.784233,"prefecture":13,"numbering":[{"index":"21"}],"lines":[28006,99301],"attr":"cool","postal_code":"104-0052","address":"東京都中央区月島一丁目3-9","open_date":"1988-06-08","next":[1132602,9930118,9931115,2800622,2800312,1132603,2800620],"voronoi":{"lat":35.673136,"lng":139.786033,"delta_lat":[0,-12732,-3340,-1038,8637,2105,2047],"delta_lng":[0,4617,-2779,-2909,-7055,587,1088]}},
    {"code":2800622,"id":"21bab1","name":"豊洲","name_kana":"とよす","lat":35.654908,"lng":139.79621,"prefecture":13,"numbering":[{"index":"22"}],"lines":[28006,99311],"attr":"cool","postal_code":"135-0061","address":"東京都江東区豊洲四丁目1-1","open_date":"1988-06-08","next":[1132604,2800623,2800621,2800413,9931115,1132603,9933702],"voronoi":{"lat":35.646706,"lng":139.798191,"delta_lat":[0,10359,3340,2623,-4532,-2736,-6318],"delta_lng":[0,-10319,2779,9778,6044,491,-4121]}},
    {"code":2800623,"id":"8b5b5b","name":"辰巳","name_kana":"たつみ","lat":35.645576,"lng":139.81052,"prefecture":13,"numbering":[{"index":"23"}],"lines":[28006],"attr":"cool","postal_code":"135-0053","address":"東京都江東区辰巳一丁目1-44","open_date":"1988-06-08","next":[9933702,1132605,2800622,1132604],"voronoi":{"lat":35.65576,"lng":139.806963,"delta_lat":[0,-6318,-22401,22553],"delta_lng":[0,-4121,16783,-796]}},
    {"code":1132605,"id":"369de7","name":"新木場","name_kana":"しんきば","lat":35.646172,"lng":139.827402,"prefecture":13,"numbering":[{"index":"24"}],"lines":[11326,28006,99337],"attr":"cool","postal_code":"136-0082","address":"東京都江東区新木場一丁目5","open_date":"1988-06-08","next":[9931111,2800623,1132604,9933702,2800416,9934503,2800415,1132606,9933610],"voronoi":{"lat":35.612438,"lng":139.842752,"delta_lat":[0,40331,2665,2095,-7935,-22553,-24783,-13513,-984],"delta_lng":[0,2103,-1543,-14599,-9884,796,5586,5982,2383]}}
  ],
  "north":35.78877,
  "south":35.64399,
  "east":139.82786,
  "west":139.61182,
  "polyline_list":[
    {
      "start":"池袋",
      "end":"新木場",
      "lat":35.73228,
      "lng":139.70509,
      "delta_lat":[0,-17,-18,-49,-69,-52,-35,-34,-71,-27,-76,-46,-15,-5,-6,-6,-14,-29,-128,-24,-54,-103,-27,-1,-91,-105,-65,-58,-170,-78,-5,-418,-202,-69,-41,-23,-33,-69,-9,0,-18,-24,-9,-43,-45,-49,-58,-90,-139,-36,-38,-66,-14,-27,-25,-87,-83,-82,-97,-110,-95,-70,-87,-90,-38,-51,-43,-123,-38,-10,-64,-97,-48,-243,-89,-163,-220,-114,-98,-46,-21,-34,-7,-12,-42,-22,-13,-5,-6,0,10,13,13,4,-17,-35,-17,-15,-8,2,14,11,6,20,14,2,2,4,-4,-10,-55,-35,-40,-14,-9,-25,-2,-15,-5,-32,-11,-15,-24,-23,-25,-22,-20,-10,-33,-22,-40,-40,-30,-22,-25,-29,-9,-15,-7,-22,-59,-15,-14,-11,-57,-39,-16,-36,-128,-33,-58,-37,-15,-46,-4,-84,-18,-121,7,-7,-42,-83,-25,-49,-1,-74,-50,-43,-20,-48,-12,-52,-13,-20,-32,-32,-30,-15,-12,-30,-23,-31,-29,-46,-23,-26,-3,-29,-24,-18,-8,-22,-27,-22,-23,-91,-45,-49,-38,-40,-35,-52,-18,-16,-57,-106,-34,-57,-93,-63,-29,-16,-20,-4,11,65,11,2,35,12,29,27],
      "delta_lng":[0,17,34,98,122,93,61,46,217,62,119,89,38,64,117,20,36,45,199,37,76,178,52,6,122,119,70,59,79,38,2,198,104,42,35,36,76,196,47,5,98,193,67,249,82,54,44,27,44,8,-1,-10,-9,-20,-20,-61,-52,-53,-71,-89,-70,-47,-70,-64,-29,-34,-29,-86,-20,-5,-24,-25,13,108,38,72,90,53,47,31,15,38,7,16,67,39,42,33,46,72,67,82,47,47,67,61,50,91,80,70,52,52,26,78,59,24,28,46,92,40,122,148,240,72,46,119,14,61,25,144,46,28,39,35,38,32,30,14,50,33,58,61,44,34,36,44,18,41,15,55,145,38,34,30,223,149,46,53,132,35,87,66,27,50,3,90,19,113,9,8,50,99,48,89,5,126,81,54,23,47,11,52,13,20,31,33,30,22,13,30,24,27,29,43,26,21,2,28,24,18,8,22,27,23,22,107,61,82,98,119,88,101,30,27,94,165,56,89,139,112,56,43,76,45,49,192,51,47,355,133,273,251]
    },
    {
      "start":"和光市",
      "end":"池袋",
      "lat":35.78877,
      "lng":139.61182,
      "delta_lat":[0,-84,-32,-38,-53,-79,-12,-33,-51,-27,-19,-20,-50,-157,-1,-77,-30,-36,-25,-30,-41,-33,-54,-13,-99,-36,-147,-59,-24,-23,-12,-47,-59,-38,-37,-31,-21,-26,-22,-18,-14,-13,-15,-14,-12,-2,-9,-17,-18,-160,-17,-5,-27,-22,-11,-9,-16,-13,-10,-51,-78,-52,-91,-84,-169,-4,-74,-84,-50,-28,-17,-34,-25,-14,-36,-55,-20,-116,-45,-49,-26,-53,-36,-38,-24,-36,-29,-28,-10,-318,-86,-136,-89,-49,-7,-88,-36,-13,-114,-96,-3,-60,-165,-39,-8,-43,-29,-60,-133,-74,-150,-65,-33,-33,-25,-16,-13,-41,-20,-5,3,0,-16,-35],
      "delta_lng":[0,209,78,92,131,194,26,78,128,60,57,48,86,242,3,110,19,46,33,16,13,9,5,4,40,67,281,118,42,35,14,41,58,40,45,41,33,46,41,44,55,62,63,59,54,7,32,61,31,273,37,28,99,85,45,40,54,20,10,22,25,9,21,18,21,0,11,13,11,7,3,13,17,19,46,77,30,193,73,86,42,72,50,45,34,44,40,35,18,385,194,302,202,118,14,198,80,30,262,204,5,122,364,81,17,74,44,90,178,100,203,82,51,77,63,63,68,224,117,86,149,62,64,71]
    }
  ]
}