{
  "code":28002,
  "name":"東京メトロ丸ノ内線",
  "color":"#E60012",
  "station_list":[
    {"code":1130212,"id":"a4dfd2","name":"池袋","name_kana":"いけぶくろ","lat":35.730256,"lng":139.711086,"prefecture":13,"numbering":[{"symbol":"M","index":"25"}],"lines":[11302,11321,11328,11333,21001,22001,28002,28006,28010],"attr":"heat","postal_code":"171-0022","address":"東京都豊島区南池袋一丁目28-2"},
    {"code":2800202,"id":"8f64d8","name":"新大塚","name_kana":"しんおおつか","lat":35.72569,"lng":139.729971,"prefecture":13,"numbering":[{"symbol":"M","index":"24"}],"lines":[28002],"attr":"eco","postal_code":"112-0012","address":"文京区大塚４-５１-５"},
    {"code":2800203,"id":"607273","name":"茗荷谷","name_kana":"みょうがだに","lat":35.716989,"lng":139.737184,"prefecture":13,"numbering":[{"symbol":"M","index":"23"}],"lines":[28002],"attr":"eco","postal_code":"112-0006","address":"文京区小日向４-６-１５"},
    {"code":2800204,"id":"626699","name":"後楽園","name_kana":"こうらくえん","lat":35.707898,"lng":139.751864,"prefecture":13,"numbering":[{"symbol":"M","index":"22"}],"lines":[28002,28009],"attr":"eco","postal_code":"112-0003","address":"文京区春日１-２-３"},
    {"code":2800205,"id":"a02435","name":"本郷三丁目","name_kana":"ほんごうさんちょうめ","lat":35.706671,"lng":139.759914,"prefecture":13,"numbering":[{"symbol":"M","index":"21"}],"lines":[28002,99301],"attr":"eco","postal_code":"113-0033","address":"文京区本郷２-３９-１"},
    {"code":1131203,"id":"9d1a6e","name":"御茶ノ水","name_kana":"おちゃのみず","lat":35.699605,"lng":139.764955,"prefecture":13,"numbering":[{"symbol":"M","index":"20"}],"lines":[11312,11313,28002],"attr":"heat","postal_code":"101-0062","address":"千代田区神田駿河台２丁目"},
    {"code":2800207,"id":"3f0a0a","name":"淡路町","name_kana":"あわじちょう","lat":35.695434,"lng":139.767575,"prefecture":13,"numbering":[{"symbol":"M","index":"19"}],"lines":[28002],"attr":"eco","postal_code":"101-0063","address":"千代田区神田淡路町１-２"},
    {"code":2800208,"id":"d9a155","name":"大手町(東京)","name_kana":"おおてまち","lat":35.686563,"lng":139.766193,"prefecture":13,"numbering":[{"symbol":"M","index":"18"}],"lines":[28002,28004,28005,28008,99303],"attr":"heat","postal_code":"100-0004","address":"千代田区大手町１丁目"},
    {"code":100201,"id":"8b222f","name":"東京","name_kana":"とうきょう","lat":35.681391,"lng":139.766103,"prefecture":13,"numbering":[{"symbol":"M","index":"17"}],"lines":[11301,11302,11308,11311,11312,11314,11326,11328,11332,11343,28002,1002,1004,1005],"attr":"heat","postal_code":"100-0005","address":"東京都千代田区丸の内一丁目"},
    {"code":2800111,"id":"1e31fc","name":"銀座","name_kana":"ぎんざ","lat":35.671989,"lng":139.763965,"prefecture":13,"numbering":[{"symbol":"M","index":"16"}],"lines":[28001,28002,28003],"attr":"cool","postal_code":"104-0061","address":"中央区銀座４-１-２"},
    {"code":2800211,"id":"53bc5a","name":"霞ケ関","name_kana":"かすみがせき","lat":35.673838,"lng":139.750899,"prefecture":13,"numbering":[{"symbol":"M","index":"15"}],"lines":[28002,28003,28005],"attr":"heat","postal_code":"100-0013","address":"千代田区霞が関２丁目"},
    {"code":2800212,"id":"01f5a3","name":"国会議事堂前","name_kana":"こっかいぎじどうまえ","lat":35.67393,"lng":139.745219,"prefecture":13,"numbering":[{"symbol":"M","index":"14"}],"lines":[28002,28005],"attr":"cool","postal_code":"100-0014","address":"千代田区永田町１丁目"},
    {"code":2800115,"id":"67bee3","name":"赤坂見附","name_kana":"あかさかみつけ","lat":35.677021,"lng":139.737047,"prefecture":13,"numbering":[{"symbol":"M","index":"13"}],"lines":[28001,28002],"attr":"cool","postal_code":"107-0052","address":"港区赤坂３-１-６"},
    {"code":1131102,"id":"90f3a3","name":"四ツ谷(四ッ谷)","name_kana":"よつや","lat":35.686041,"lng":139.730644,"prefecture":13,"numbering":[{"symbol":"M","index":"12"}],"lines":[11311,11312,11313,28002,28009],"attr":"heat","postal_code":"160-0004","address":"東京都新宿区四谷一丁目"},
    {"code":2800215,"id":"f36115","name":"四谷三丁目","name_kana":"よつやさんちょうめ","lat":35.687958,"lng":139.720103,"prefecture":13,"numbering":[{"symbol":"M","index":"11"}],"lines":[28002],"attr":"cool","postal_code":"160-0004","address":"新宿区四谷３-８"},
    {"code":2800216,"id":"a5b0a6","name":"新宿御苑前","name_kana":"しんじゅくぎょえんまえ","lat":35.688588,"lng":139.71069,"prefecture":13,"numbering":[{"symbol":"M","index":"10"}],"lines":[28002],"attr":"cool","postal_code":"160-0022","address":"新宿区新宿１-８-１"},
    {"code":2800217,"id":"a6c08b","name":"新宿三丁目","name_kana":"しんじゅくさんちょうめ","lat":35.690847,"lng":139.704895,"prefecture":13,"numbering":[{"symbol":"M","index":"09"}],"lines":[28002,28010,99304],"attr":"cool","postal_code":"160-0022","address":"新宿区新宿３-１４-１"},
    {"code":1130208,"id":"3ff383","name":"新宿","name_kana":"しんじゅく","lat":35.689729,"lng":139.700464,"prefecture":13,"numbering":[{"symbol":"M","index":"08"}],"lines":[11302,11311,11312,11313,11321,11328,11333,24001,25001,28002,99301,99304],"attr":"heat","postal_code":"160-0022","address":"東京都新宿区新宿三丁目38-1"},
    {"code":2800219,"id":"534c25","name":"西新宿","name_kana":"にししんじゅく","lat":35.694298,"lng":139.692778,"prefecture":13,"numbering":[{"symbol":"M","index":"07"}],"lines":[28002],"attr":"heat","postal_code":"160-0023","address":"新宿区西新宿６-７-５１"},
    {"code":2800220,"id":"cf60ae","name":"中野坂上","name_kana":"なかのさかうえ","lat":35.69792,"lng":139.68291,"prefecture":13,"numbering":[{"symbol":"M","index":"06"}],"lines":[28002,99301],"attr":"heat","postal_code":"164-0011","address":"中野区中央２-１-２"},
    {"code":2800221,"id":"cd5cca","name":"新中野","name_kana":"しんなかの","lat":35.697491,"lng":139.66903,"prefecture":13,"numbering":[{"symbol":"M","index":"05"}],"lines":[28002],"attr":"heat","postal_code":"164-0011","address":"中野区中央４-２-１５"},
    {"code":2800222,"id":"3514f5","name":"東高円寺","name_kana":"ひがしこうえんじ","lat":35.697802,"lng":139.657822,"prefecture":13,"numbering":[{"symbol":"M","index":"04"}],"lines":[28002],"attr":"heat","postal_code":"166-0012","address":"杉並区和田３-５５-４２"},
    {"code":2800223,"id":"90ff60","name":"新高円寺","name_kana":"しんこうえんじ","lat":35.697985,"lng":139.648068,"prefecture":13,"numbering":[{"symbol":"M","index":"03"}],"lines":[28002],"attr":"heat","postal_code":"166-0003","address":"杉並区高円寺南２-２０-１"},
    {"code":2800224,"id":"557e52","name":"南阿佐ケ谷","name_kana":"みなみあさがや","lat":35.699624,"lng":139.63576,"prefecture":13,"numbering":[{"symbol":"M","index":"02"}],"lines":[28002],"attr":"heat","postal_code":"166-0004","address":"杉並区阿佐谷南１-１５-７"},
    {"code":1131217,"id":"edf377","name":"荻窪","name_kana":"おぎくぼ","lat":35.704523,"lng":139.620109,"prefecture":13,"numbering":[{"symbol":"M","index":"01"}],"lines":[11312,11313,28002],"attr":"cool","postal_code":"167-0043","address":"杉並区上荻１丁目"},
    {"code":2800226,"id":"4ac72b","name":"中野新橋","name_kana":"なかのしんばし","lat":35.692123,"lng":139.673997,"prefecture":13,"numbering":[{"index":"05"}],"lines":[28002],"attr":"heat","postal_code":"164-0013","address":"中野区弥生町２-２６-８"},
    {"code":2800227,"id":"56b31e","name":"中野富士見町","name_kana":"なかのふじみちょう","lat":35.690514,"lng":139.666933,"prefecture":13,"numbering":[{"index":"04"}],"lines":[28002],"attr":"heat","postal_code":"164-0013","address":"中野区弥生町５-２４-４"},
    {"code":2800228,"id":"0d7e67","name":"方南町","name_kana":"ほうなんちょう","lat":35.683496,"lng":139.656498,"prefecture":13,"numbering":[{"index":"03"}],"lines":[28002],"attr":"heat","postal_code":"166-0013","address":"杉並区堀ノ内１-１-１"}
  ],
  "north":35.73079,
  "south":35.67224,
  "east":139.76753,
  "west":139.61875,
  "polyline_list":[
    {
      "start":"中野坂上",
      "end":"池袋",
      "lat":35.69701,
      "lng":139.68284,
      "delta_lat":[0,-2,-13,-27,-12,-8,-2,-39,-38,-75,-10,-47,-24,-10,-26,-33,-16,-23,-33,-23,-13,3,4,17,-6,-11,-25,-60,-63,-33,-34,-103,-34,-11,-38,-47,-23,-6,4,7,6,19,11,-1,-17,-38,-43,-57,-32,-31,-5,-8,-13,-17,-30,-24,-38,-9,-17,-25,-38,-36,-20,-71,-7,-48,-34,-26,-4,-54,-47,-33,-30,-42,-25,-14,-20,-10,-14,-13,-9,-1,-11,-24,-16,-53,-39,-40,-68,-58,-42,-24,-37,-24,-13,0,0,1,3,9,14,22,26,9,25,18,42,49,21,7,4,3,-7,-22,-108,-14,-65,-18,-53,-4,10,-16,-6,-55,-21,-4,0,24,29,1,11,17,19,33,63,102,25,52,92,78,163,18,16,109,22,16,159,22,10,89,84,161,17,80,48,175,50,59,71,38,41,61,56,51,53,96,9,39,15,47,55,98,92,15,34,31,3,1,21,14,8,52,9,14,29,42,18,84,16,84,56,9,39,18,49,29,41,7,72,42,9,11,0,-5,-2,2,-4,-2,0,-2,0,-1,-2,-4,-2,2,0,6,19,36,37,67,61,91,58,59,36,76,88,58,37,34,88,49,44,11,76,92,38,38,38,160,93,77,67,50,6,43,64,50,28,50,124,120,126,46,11,-2,-4,-5,-9,-46,-85,20,45,15,53],
      "delta_lng":[0,7,69,148,109,44,4,116,124,256,31,127,77,36,87,119,53,48,57,24,53,49,10,47,89,62,83,140,136,67,69,229,92,52,187,222,117,68,72,90,74,209,152,66,88,112,129,146,90,115,15,12,10,8,9,8,7,2,1,1,0,0,6,15,4,25,16,25,4,63,50,27,19,20,25,18,45,54,108,92,33,2,20,18,7,20,21,28,40,54,39,28,55,50,64,23,8,37,36,59,75,57,57,23,33,35,42,39,50,23,34,47,55,64,255,35,155,48,192,61,72,37,22,159,66,38,35,64,100,42,42,59,31,30,53,67,8,-18,-28,-10,48,5,-2,-99,-7,0,39,8,2,30,27,41,5,21,12,42,12,14,16,8,8,1,1,0,-2,1,0,-5,0,12,-6,-26,-38,-13,-20,-26,-2,-2,-27,-40,-27,-171,-18,-20,-33,-40,-40,-10,-1,-8,-4,-1,-44,-18,-21,-7,-7,-6,-71,-56,-26,-93,-22,-107,-83,-9,-61,-52,-55,-272,-6,-8,-60,-88,-98,-31,-20,-28,-81,-73,-54,-88,-80,-123,-71,-81,-49,-86,-89,-47,-25,-21,-49,-34,-39,-11,-81,-88,-40,-25,-17,-61,-47,-44,-51,-49,-9,-59,-94,-75,-39,-71,-195,-180,-219,-94,-58,-153,-37,-80,-47,-158,-268,-52,-100,-43,-162]
    },
    {
      "start":"荻窪",
      "end":"中野坂上",
      "lat":35.70416,
      "lng":139.61875,
      "delta_lat":[0,2,15,3,0,0,-6,-23,-11,-13,-12,-4,-9,-32,-62,-66,-64,-30,-131,-55,-74,-50,-11,-8,2,3,0,4,4,10,8,1,-1,-19,-18,-16,-2,-2,-3,-1,5,10,4,2,1,-1,-8,-22,-21,-14],
      "delta_lng":[0,202,101,43,62,48,46,86,39,44,53,49,52,63,105,107,129,74,313,132,218,183,90,161,139,288,18,56,150,300,294,186,53,141,131,144,4,109,532,53,156,264,174,105,18,116,99,188,164,127]
    },
    {
      "start":"方南町",
      "end":"中野坂上",
      "lat":35.68336,
      "lng":139.6572,
      "delta_lat":[0,31,34,17,19,41,15,15,69,94,48,37,48,29,22,25,18,27,38,26,50,18,6,12,14,21,19,4,3,23,18,30,36,69,141,109,50,16,28,41,70,-1,-8,-22,-21,-14],
      "delta_lng":[0,148,128,50,63,144,30,19,26,32,14,9,6,3,9,15,13,31,59,48,88,35,10,41,150,184,171,58,45,42,26,31,6,-3,-17,-18,-6,0,24,49,108,116,99,188,164,127]
    }
  ]
}