{
  "code":28008,
  "name":"東京メトロ半蔵門線",
  "color":"#800080",
  "symbol":"Z",
  "station_list":[
    {"code":1130205,"id":"8e9a53","name":"渋谷","name_kana":"しぶや","lat":35.658871,"lng":139.701238,"prefecture":13,"numbering":[{"index":"01"}],"lines":[11302,11321,11328,11333,24006,26001,26003,28001,28008,28010],"attr":"cool","postal_code":"150-0043","address":"東京都渋谷区道玄坂一丁目1-1"},
    {"code":2800118,"id":"95cf45","name":"表参道","name_kana":"おもてさんどう","lat":35.665247,"lng":139.712314,"prefecture":13,"numbering":[{"index":"02"}],"lines":[28001,28005,28008],"attr":"cool","postal_code":"107-0061","address":"港区北青山３丁目"},
    {"code":2800116,"id":"de873b","name":"青山一丁目","name_kana":"あおやまいっちょうめ","lat":35.672765,"lng":139.724159,"prefecture":13,"numbering":[{"index":"03"}],"lines":[28001,28008,99301],"attr":"cool","postal_code":"107-0062","address":"港区南青山１-１-１９"},
    {"code":2800616,"id":"4aa7d8","name":"永田町","name_kana":"ながたちょう","lat":35.678757,"lng":139.740258,"prefecture":13,"numbering":[{"index":"04"}],"lines":[28006,28008,28009],"attr":"heat","postal_code":"100-0014","address":"東京都千代田区永田町一丁目11-28"},
    {"code":2800805,"id":"15f0e5","name":"半蔵門","name_kana":"はんぞうもん","lat":35.685703,"lng":139.74163,"prefecture":13,"numbering":[{"index":"05"}],"lines":[28008],"attr":"eco","postal_code":"102-0083","address":"千代田区麹町１-６"},
    {"code":2800407,"id":"0545be","name":"九段下","name_kana":"くだんした","lat":35.695589,"lng":139.751948,"prefecture":13,"numbering":[{"index":"06"}],"lines":[28004,28008,99304],"attr":"eco","postal_code":"102-0074","address":"千代田区九段南１-６-１"},
    {"code":2800807,"id":"27128f","name":"神保町","name_kana":"じんぼうちょう","lat":35.695966,"lng":139.757606,"prefecture":13,"numbering":[{"index":"07"}],"lines":[28008,99303,99304],"attr":"heat","postal_code":"101-0051","address":"千代田区神田神保町２-２"},
    {"code":2800208,"id":"d9a155","name":"大手町(東京)","name_kana":"おおてまち","lat":35.686563,"lng":139.766193,"prefecture":13,"numbering":[{"index":"08"}],"lines":[28002,28004,28005,28008,99303],"attr":"heat","postal_code":"100-0004","address":"千代田区大手町１丁目"},
    {"code":2800108,"id":"6a5dc6","name":"三越前","name_kana":"みつこしまえ","lat":35.687101,"lng":139.773594,"prefecture":13,"numbering":[{"index":"09"}],"lines":[28001,28008],"attr":"heat","postal_code":"103-0022","address":"中央区日本橋室町１-８-１"},
    {"code":2800810,"id":"1bc8b0","name":"水天宮前","name_kana":"すいてんぐうまえ","lat":35.682683,"lng":139.785377,"prefecture":13,"numbering":[{"index":"10"}],"lines":[28008],"attr":"heat","postal_code":"103-0014","address":"中央区日本橋蛎殻町２-１-１"},
    {"code":2800811,"id":"54a571","name":"清澄白河","name_kana":"きよすみしらかわ","lat":35.682105,"lng":139.798851,"prefecture":13,"numbering":[{"index":"11"}],"lines":[28008,99301],"attr":"cool","postal_code":"135-0021","address":"江東区白河１-７-１４"},
    {"code":2800814,"id":"d1dfd5","name":"住吉(東京)","name_kana":"すみよし","lat":35.689073,"lng":139.815681,"prefecture":13,"numbering":[{"index":"12"}],"lines":[28008,99304],"attr":"cool","postal_code":"135-0002","address":"江東区住吉２-２３-１２"},
    {"code":1131322,"id":"887b30","name":"錦糸町","name_kana":"きんしちょう","lat":35.696802,"lng":139.814136,"prefecture":13,"numbering":[{"index":"13"}],"lines":[11313,11314,28008],"attr":"heat","postal_code":"130-0022","address":"墨田区江東橋３丁目"},
    {"code":2300201,"id":"ed5340","name":"押上（スカイツリー前）","name_kana":"おしあげ","lat":35.710702,"lng":139.812935,"prefecture":13,"numbering":[{"index":"14"}],"lines":[23002,99302,21002,28008],"attr":"heat","postal_code":"131-0045","address":"墨田区押上一丁目"}
  ],
  "north":35.71026,
  "south":35.65945,
  "east":139.81595,
  "west":139.69997,
  "polyline_list":[
    {
      "start":"渋谷",
      "end":"押上",
      "lat":35.65945,
      "lng":139.69997,
      "delta_lat":[0,0,48,33,47,91,47,84,2,37,65,41,80,68,325,88,8,11,13,34,8,18,97,50,24,29,34,47,8,39,40,29,14,19,43,60,151,24,2,4,12,4,7,14,7,6,0,13,30,37,34,32,53,133,127,102,27,186,94,39,186,169,97,83,58,43,22,17,66,20,8,21,15,-8,20,11,8,1,3,-19,-31,-56,-78,-72,-57,-46,-41,-39,-204,-34,-47,-45,-52,-58,-27,-6,-35,-21,-40,-56,0,-9,-5,-4,-27,-31,-1,3,7,7,6,4,3,19,39,13,-2,-14,-28,-7,-77,-53,-15,-29,-58,-50,-47,-112,-58,-47,-32,-24,-56,-20,-2,11,30,68,69,124,28,20,12,2,5,2,3,2,2,7,2,2,2,4,6,4,1,5,5,5,6,4,1,2,2,6,7,1,4,4,4,8,15,27,58,58,65,92,49,50,11,18,44,14,91,56,86,242,51,194,103,196,38,48,47,43,36,83,36,56,65,83,78,83,142,7,85,90,65,104,14],
      "delta_lng":[0,213,277,117,67,146,76,125,4,47,65,37,72,62,277,74,14,19,28,84,32,43,231,126,78,87,106,133,21,131,128,108,49,52,83,103,254,35,58,11,43,10,51,144,81,51,2,55,35,27,14,5,-2,-2,-15,-15,4,22,14,12,71,68,30,45,62,63,79,53,214,117,0,131,76,7,165,305,-1,23,107,19,91,74,67,29,3,-4,-4,-2,-15,-1,1,14,21,48,173,42,227,235,72,121,11,73,15,13,153,164,10,74,56,53,61,60,74,77,112,46,89,79,64,15,70,41,15,27,50,42,40,111,61,73,63,46,127,78,37,42,51,73,53,90,32,44,68,35,93,34,48,51,53,117,45,27,52,58,90,89,9,71,114,111,130,52,28,48,55,59,111,16,67,64,63,75,23,19,11,9,2,-1,-4,-5,-1,-2,-5,-2,-10,-6,-3,-21,-4,-16,-10,-14,-3,-4,-6,-4,-4,-5,-4,-5,-5,-8,-5,-6,-15,-1,-20,-21,-15,-24,0]
    }
  ]
}