{
  "code":28010,
  "name":"東京メトロ副都心線",
  "color":"#BB641D",
  "symbol":"F",
  "station_list":[
    {"code":2100111,"id":"3174d1","name":"和光市","name_kana":"わこうし","lat":35.788507,"lng":139.612434,"prefecture":11,"numbering":[{"index":"01"}],"lines":[21001,28006,28010],"attr":"eco","postal_code":"351-0114","address":"埼玉県和光市本町4-6"},
    {"code":2800602,"id":"ff93b4","name":"地下鉄成増","name_kana":"ちかてつなります","lat":35.776557,"lng":139.631497,"prefecture":13,"numbering":[{"index":"02"}],"lines":[28006,28010],"attr":"eco","postal_code":"175-0094","address":"東京都板橋区成増二丁目11-3"},
    {"code":2800603,"id":"53aa8a","name":"地下鉄赤塚","name_kana":"ちかてつあかつか","lat":35.769939,"lng":139.644021,"prefecture":13,"numbering":[{"index":"03"}],"lines":[28006,28010],"attr":"eco","postal_code":"179-0081","address":"東京都練馬区北町八丁目37-16"},
    {"code":2800604,"id":"fd476e","name":"平和台(東京)","name_kana":"へいわだい","lat":35.757863,"lng":139.653762,"prefecture":13,"numbering":[{"index":"04"}],"lines":[28006,28010],"attr":"eco","postal_code":"179-0085","address":"東京都練馬区早宮2-17-48"},
    {"code":2800605,"id":"99d1ef","name":"氷川台","name_kana":"ひかわだい","lat":35.74955,"lng":139.665567,"prefecture":13,"numbering":[{"index":"05"}],"lines":[28006,28010],"attr":"eco","postal_code":"179-0084","address":"東京都練馬区氷川台三丁目38-18"},
    {"code":2200301,"id":"46f29b","name":"小竹向原","name_kana":"こたけむかいはら","lat":35.743803,"lng":139.678572,"prefecture":13,"numbering":[{"index":"06"}],"lines":[22003,28006,28010],"attr":"eco","postal_code":"176-0004","address":"東京都練馬区小竹町二丁目16-15"},
    {"code":2800607,"id":"d0a586","name":"千川","name_kana":"せんかわ","lat":35.738229,"lng":139.689271,"prefecture":13,"numbering":[{"index":"07"}],"lines":[28006,28010],"attr":"eco","postal_code":"171-0043","address":"東京都豊島区要町三丁目10-7"},
    {"code":2800608,"id":"2cdd1b","name":"要町","name_kana":"かなめちょう","lat":35.73323,"lng":139.698715,"prefecture":13,"numbering":[{"index":"08"}],"lines":[28006,28010],"attr":"eco","postal_code":"171-0043","address":"東京都豊島区要町一丁目1-10"},
    {"code":1130212,"id":"a4dfd2","name":"池袋","name_kana":"いけぶくろ","lat":35.730256,"lng":139.711086,"prefecture":13,"numbering":[{"index":"09"}],"lines":[11302,11321,11328,11333,21001,22001,28002,28006,28010],"attr":"heat","postal_code":"171-0022","address":"東京都豊島区南池袋一丁目28-2"},
    {"code":2801010,"id":"885b19","name":"雑司が谷","name_kana":"ぞうしがや","lat":35.720233,"lng":139.714795,"prefecture":13,"numbering":[{"index":"10"}],"lines":[28010],"attr":"heat","postal_code":"171-0032","address":"豊島区雑司が谷二丁目"},
    {"code":2801011,"id":"e25310","name":"西早稲田","name_kana":"にしわせだ","lat":35.708242,"lng":139.709101,"prefecture":13,"numbering":[{"index":"11"}],"lines":[28010],"attr":"heat","postal_code":"162-0051","address":"新宿区西早稲田二丁目"},
    {"code":2801012,"id":"ab88e5","name":"東新宿","name_kana":"ひがししんじゅく","lat":35.698915,"lng":139.707593,"prefecture":13,"numbering":[{"index":"12"}],"lines":[28010,99301],"attr":"heat","postal_code":"160-0022","address":"新宿区新宿７-２７-３"},
    {"code":2800217,"id":"a6c08b","name":"新宿三丁目","name_kana":"しんじゅくさんちょうめ","lat":35.690847,"lng":139.704895,"prefecture":13,"numbering":[{"index":"13"}],"lines":[28002,28010,99304],"attr":"cool","postal_code":"160-0022","address":"新宿区新宿３-１４-１"},
    {"code":2801014,"id":"206ac3","name":"北参道","name_kana":"きたさんどう","lat":35.678459,"lng":139.705453,"prefecture":13,"numbering":[{"index":"14"}],"lines":[28010],"attr":"heat","postal_code":"151-0051","address":"渋谷区千駄ヶ谷４丁目"},
    {"code":2800518,"id":"20eddf","name":"明治神宮前〈原宿〉","name_kana":"めいじじんぐうまえ","lat":35.669072,"lng":139.703995,"prefecture":13,"numbering":[{"index":"15"}],"lines":[28005,28010],"attr":"cool","postal_code":"150-0001","address":"渋谷区神宮前１丁目"},
    {"code":1130205,"id":"8e9a53","name":"渋谷","name_kana":"しぶや","lat":35.658871,"lng":139.701238,"prefecture":13,"numbering":[{"index":"16"}],"lines":[11302,11321,11328,11333,24006,26001,26003,28001,28008,28010],"attr":"cool","postal_code":"150-0043","address":"東京都渋谷区道玄坂一丁目1-1"}
  ],
  "north":35.73178,
  "south":35.65826,
  "east":139.71735,
  "west":139.70205,
  "polyline_list":[
    {
      "start":"渋谷",
      "end":"池袋",
      "lat":35.65826,
      "lng":139.70293,
      "delta_lat":[0,81,88,91,271,63,74,240,62,54,57,107,185,32,41,83,161,207,27,24,173,54,312,47,56,47,267,61,248,150,201,94,295,287,121,220,261,170,54,374,144,490,239,220,36,161,105,42,23,42,143,82,73,52,60],
      "delta_lng":[0,-40,-22,-3,-22,26,49,180,47,38,43,81,144,8,-9,-38,-99,-51,-10,-8,-133,-15,6,-4,-50,-29,-73,-16,172,92,117,14,58,56,21,42,33,21,15,108,85,259,172,161,17,0,-12,-18,-24,-65,-230,-173,-213,-111,-234]
    }
  ]
}