{
  "code":29002,
  "name":"相鉄いずみ野線",
  "color":"#2288CC",
  "symbol":"SO",
  "station_list":[
    {"code":2900110,"id":"57dba2","name":"二俣川","name_kana":"ふたまたがわ","lat":35.463335,"lng":139.532207,"prefecture":14,"numbering":[{"index":"10"}],"lines":[29001,29002],"attr":"eco","postal_code":"241-0821","address":"横浜市旭区二俣川２-９１-７"},
    {"code":2900202,"id":"4956f3","name":"南万騎が原","name_kana":"みなみまきがはら","lat":35.452522,"lng":139.526344,"prefecture":14,"numbering":[{"index":"31"}],"lines":[29002],"attr":"eco","postal_code":"241-0835","address":"横浜市旭区柏町１２８"},
    {"code":2900203,"id":"377633","name":"緑園都市","name_kana":"りょくえんとし","lat":35.439502,"lng":139.521841,"prefecture":14,"numbering":[{"index":"32"}],"lines":[29002],"attr":"eco","postal_code":"245-0002","address":"横浜市泉区緑園３-１-１"},
    {"code":2900204,"id":"9f26e5","name":"弥生台","name_kana":"やよいだい","lat":35.429933,"lng":139.506615,"prefecture":14,"numbering":[{"index":"33"}],"lines":[29002],"attr":"eco","postal_code":"245-0008","address":"横浜市泉区弥生台５-２"},
    {"code":2900205,"id":"f07fb1","name":"いずみ野","name_kana":"いずみの","lat":35.429434,"lng":139.495135,"prefecture":14,"numbering":[{"index":"34"}],"lines":[29002],"attr":"cool","postal_code":"245-0016","address":"横浜市泉区和泉町５７３６"},
    {"code":2900206,"id":"0d5926","name":"いずみ中央","name_kana":"いずみちゅうおう","lat":35.415385,"lng":139.48727,"prefecture":14,"numbering":[{"index":"35"}],"lines":[29002],"attr":"cool","postal_code":"245-0016","address":"横浜市泉区和泉町３５４０"},
    {"code":2900207,"id":"97f6c5","name":"ゆめが丘","name_kana":"ゆめがおか","lat":35.405436,"lng":139.482192,"prefecture":14,"numbering":[{"index":"36"}],"lines":[29002],"attr":"cool","postal_code":"245-0017","address":"横浜市泉区下飯田町１５５５-９"},
    {"code":2500210,"id":"23d860","name":"湘南台","name_kana":"しょうなんだい","lat":35.396488,"lng":139.466451,"prefecture":14,"numbering":[{"index":"37"}],"lines":[25002,29002,99316],"attr":"cool","postal_code":"252-0804","address":"藤沢市湘南台２-１５"}
  ],
  "north":35.464,
  "south":35.39602,
  "east":139.53318,
  "west":139.4652,
  "polyline_list":[
    {
      "start":"湘南台",
      "end":"二俣川",
      "lat":35.39602,
      "lng":139.4652,
      "delta_lat":[0,43,16,47,12,57,58,9,27,28,17,9,17,32,34,21,21,43,125,38,27,25,27,82,94,5,96,6,5,222,62,60,36,22,15,53,45,27,22,49,68,127,7,143,7,161,56,60,25,27,37,16,23,70,55,40,39,37,44,42,29,34,56,48,58,46,37,50,56,18,37,57,17,20,32,30,26,11,2,6,-1,0,-2,-4,-12,-43,-12,-24,-11,-13,1,9,15,52,30,36,17,40,39,47,3,24,26,51,40,97,82,190,213,27,34,51,13,48,106,650,134,184,25,68,15,31,31,58,96,50,165,72,47,43,15,65,40,39,48,43,24,14,20,16,42,84,122],
      "delta_lng":[0,184,74,212,59,350,221,20,52,41,21,10,19,33,28,15,13,22,66,19,18,18,22,69,80,6,88,5,6,193,55,49,28,15,8,22,16,7,4,5,4,9,0,24,1,22,9,7,2,-3,-4,-5,-8,-22,-15,-10,-8,-4,-2,0,4,2,3,3,6,3,6,14,19,9,22,46,18,20,43,56,73,40,13,54,55,17,27,83,78,215,61,132,85,107,92,75,68,213,134,155,69,165,166,173,10,71,57,96,66,142,104,159,134,12,18,27,5,18,41,265,44,60,2,-5,-3,-4,-5,-14,-38,-26,-78,-3,6,16,9,51,40,41,74,87,43,61,60,36,59,104,161]
    }
  ]
}