{
  "code":30002,
  "name":"名鉄豊川線",
  "color":"#DC143C",
  "symbol":"TK",
  "station_list":[
    {"code":3000104,"id":"59ae7e","name":"国府(愛知)","name_kana":"こう","lat":34.83752,"lng":137.328101,"prefecture":23,"numbering":[{"symbol":"NH","index":"04"}],"lines":[30001,30002],"attr":"cool","postal_code":"442-0856","address":"豊川市久保町葉善寺"},
    {"code":3000202,"id":"22a25b","name":"八幡(愛知)","name_kana":"やわた","lat":34.82916,"lng":137.352113,"prefecture":23,"numbering":[{"index":"01"}],"lines":[30002],"attr":"heat","postal_code":"442-0857","address":"豊川市八幡町野路"},
    {"code":3000203,"id":"6fff0e","name":"諏訪町","name_kana":"すわちょう","lat":34.823464,"lng":137.370479,"prefecture":23,"numbering":[{"index":"02"}],"lines":[30002],"attr":"heat","postal_code":"442-0068","address":"豊川市諏訪３-２５０"},
    {"code":3000204,"id":"0139b2","name":"稲荷口","name_kana":"いなりぐち","lat":34.818435,"lng":137.387703,"prefecture":23,"numbering":[{"index":"03"}],"lines":[30002],"attr":"cool","postal_code":"442-0044","address":"豊川市二見町駅前通"},
    {"code":3000205,"id":"983b66","name":"豊川稲荷","name_kana":"とよかわいなり","lat":34.821755,"lng":137.396058,"prefecture":23,"numbering":[{"index":"04"}],"lines":[30002],"attr":"eco","postal_code":"442-0033","address":"豊川市豊川町仁保通１８"}
  ],
  "north":34.83782,
  "south":34.81769,
  "east":137.39622,
  "west":137.32785,
  "polyline_list":[
    {
      "start":"国府",
      "end":"豊川",
      "lat":34.83782,
      "lng":137.32785,
      "delta_lat":[0,-74,-14,-24,-9,-109,-229,-36,-55,-46,-21,-26,-20,-15,-19,-12,-9,-12,-13,-9,-5,-14,-14,-16,-11,-25,-10,-15,-7,0,-2,-4,-3,-1,-9,-11,-9,-14,-14,-2,-3,-3,-5,-3,-7,-10,-7,-11,-11,-12,-13,-13,-12,-2,-15,-11,-23,-12,-3,-7,-12,-22,-18,-24,-20,-18,-14,-18,-18,-17,-17,-27,-17,-18,-19,-13,-8,-13,-10,-17,-16,-14,-64,-44,-9,-3,-14,-16,-64,-34,-34,-64,-44,-12,-32,-9,-14,-8,-10,-17,-16,-9,-5,1,2,15,12,19,21,15,21,16,19,27,61,40,33,29,39,7,62],
      "delta_lng":[0,58,12,20,7,81,176,31,66,67,37,49,44,42,72,96,92,114,107,98,39,150,142,160,98,196,103,150,66,7,17,32,33,6,91,108,77,122,136,16,21,19,32,26,27,32,25,35,34,35,30,33,29,4,32,22,48,27,8,17,25,45,43,55,45,44,30,41,45,39,37,62,40,40,46,32,19,32,23,40,40,38,138,95,34,11,52,70,247,131,130,256,175,48,125,37,51,35,42,64,66,50,44,31,37,57,32,42,35,22,30,18,13,16,29,22,20,22,37,6,52]
    }
  ]
}