{
  "code":30009,
  "name":"名鉄河和線",
  "color":"#00BFFF",
  "symbol":"KC",
  "station_list":[
    {"code":3000813,"id":"0a0944","name":"太田川","name_kana":"おおたがわ","lat":35.020221,"lng":136.892504,"prefecture":23,"numbering":[{"symbol":"TA","color":"#0000CD","index":"09"}],"lines":[30008,30009],"attr":"heat","postal_code":"477-0031","address":"東海市大田町後田５２"},
    {"code":3000902,"id":"742242","name":"高横須賀","name_kana":"たかよこすか","lat":35.009608,"lng":136.893696,"prefecture":23,"numbering":[{"index":"01"}],"lines":[30009],"attr":"heat","postal_code":"477-0037","address":"東海市高横須賀町松本１-３"},
    {"code":3000903,"id":"484597","name":"南加木屋","name_kana":"みなみかぎや","lat":34.989216,"lng":136.906853,"prefecture":23,"numbering":[{"index":"03"}],"lines":[30009],"attr":"heat","postal_code":"477-0032","address":"東海市加木屋町南平井１５"},
    {"code":3000904,"id":"d46bd5","name":"八幡新田","name_kana":"やわたしんでん","lat":34.973674,"lng":136.912578,"prefecture":23,"numbering":[{"index":"04"}],"lines":[30009],"attr":"heat","postal_code":"477-0032","address":"東海市加木屋町陀々法師４３-１"},
    {"code":3000905,"id":"5ecd9e","name":"巽ヶ丘","name_kana":"たつみがおか","lat":34.962265,"lng":136.915556,"prefecture":23,"numbering":[{"index":"05"}],"lines":[30009],"attr":"heat","postal_code":"478-0012","address":"愛知県知多市巽ヶ丘3丁目134"},
    {"code":3000906,"id":"9258a2","name":"白沢(愛知)","name_kana":"しらさわ","lat":34.955219,"lng":136.91537,"prefecture":23,"numbering":[{"index":"06"}],"lines":[30009],"attr":"heat","postal_code":"470-2201","address":"知多郡阿久比町大字白沢字豊石山１７-４"},
    {"code":3000907,"id":"c19084","name":"坂部","name_kana":"さかべ","lat":34.941579,"lng":136.916562,"prefecture":23,"numbering":[{"index":"07"}],"lines":[30009],"attr":"heat","postal_code":"470-2212","address":"知多郡阿久比町大字卯坂字上向田３５-７"},
    {"code":3000908,"id":"5738b4","name":"阿久比","name_kana":"あぐい","lat":34.931256,"lng":136.918517,"prefecture":23,"numbering":[{"index":"08"}],"lines":[30009],"attr":"heat","postal_code":"470-2213","address":"知多郡阿久比町大字阿久比字千速５４-３"},
    {"code":3000910,"id":"f0ab6d","name":"植大","name_kana":"うえだい","lat":34.917457,"lng":136.923448,"prefecture":23,"numbering":[{"index":"09"}],"lines":[30009],"attr":"heat","postal_code":"470-2216","address":"知多郡阿久比町植大大前田４-３"},
    {"code":3000911,"id":"68b795","name":"半田口","name_kana":"はんだぐち","lat":34.909111,"lng":136.925462,"prefecture":23,"numbering":[{"index":"10"}],"lines":[30009],"attr":"heat","postal_code":"475-0961","address":"半田市岩滑中町２-１５０"},
    {"code":3000912,"id":"a97998","name":"住吉町","name_kana":"すみよしちょう","lat":34.902042,"lng":136.925684,"prefecture":23,"numbering":[{"index":"11"}],"lines":[30009],"attr":"cool","postal_code":"475-0902","address":"半田市宮路町１５６-２"},
    {"code":3000913,"id":"0116a6","name":"知多半田","name_kana":"ちたはんだ","lat":34.893931,"lng":136.925954,"prefecture":23,"numbering":[{"index":"12"}],"lines":[30009],"attr":"cool","postal_code":"475-0857","address":"半田市広小路町１２８-１"},
    {"code":3000914,"id":"53a907","name":"成岩","name_kana":"ならわ","lat":34.886209,"lng":136.921879,"prefecture":23,"numbering":[{"index":"13"}],"lines":[30009],"attr":"cool","postal_code":"475-0846","address":"半田市栄町３-４"},
    {"code":3000915,"id":"e7aef2","name":"青山(愛知)","name_kana":"あおやま","lat":34.878132,"lng":136.917,"prefecture":23,"numbering":[{"index":"14"}],"lines":[30009],"attr":"cool","postal_code":"475-0837","address":"半田市有楽町４-６"},
    {"code":3000916,"id":"470870","name":"上ゲ","name_kana":"あげ","lat":34.858389,"lng":136.916403,"prefecture":23,"numbering":[{"index":"15"}],"lines":[30009],"attr":"cool","postal_code":"470-2339","address":"知多郡武豊町字下門２３-５"},
    {"code":3000917,"id":"77e317","name":"知多武豊","name_kana":"ちたたけとよ","lat":34.850732,"lng":136.916439,"prefecture":23,"numbering":[{"index":"16"}],"lines":[30009],"attr":"eco","postal_code":"470-2347","address":"知多郡武豊町字道崎４３-８"},
    {"code":3000918,"id":"7c82a4","name":"富貴","name_kana":"ふき","lat":34.828823,"lng":136.917043,"prefecture":23,"numbering":[{"index":"17"}],"lines":[30009,30010],"attr":"eco","postal_code":"470-2531","address":"知多郡武豊町大字冨貴外前田５-５"},
    {"code":3000920,"id":"a70370","name":"河和口","name_kana":"こうわぐち","lat":34.797805,"lng":136.918618,"prefecture":23,"numbering":[{"index":"18"}],"lines":[30009],"attr":"eco","postal_code":"470-2401","address":"知多郡美浜町大字布土字中平井３３-１"},
    {"code":3000921,"id":"dcf12e","name":"河和","name_kana":"こうわ","lat":34.777771,"lng":136.912528,"prefecture":23,"numbering":[{"index":"19"}],"lines":[30009],"attr":"eco","postal_code":"470-2406","address":"知多郡美浜町大字河和字北田面５-１"}
  ],
  "north":35.02063,
  "south":34.77772,
  "east":136.92592,
  "west":136.89191,
  "polyline_list":[
    {
      "start":"河和",
      "end":"太田川",
      "lat":34.77772,
      "lng":136.91284,
      "delta_lat":[0,60,18,38,32,29,27,22,17,26,17,30,24,29,60,54,38,32,47,15,23,19,57,13,11,40,46,42,76,49,81,51,31,34,31,18,10,11,9,8,17,2,12,26,33,32,24,24,21,34,36,24,22,27,49,45,21,37,28,26,29,22,22,15,100,18,27,25,71,45,38,37,86,61,57,128,27,25,23,82,88,35,16,31,32,42,65,55,37,80,68,57,139,2,131,122,41,87,57,49,27,24,47,31,43,38,44,28,69,63,95,53,78,105,93,112,86,88,99,68,77,99,33,5,12,43,87,114,139,108,118,209,146,216,25,33,89,92,25,146,110,51,69,79,143,145,121,125,85,78,66,145,101,138,162,103,23,17,97,132,19,214,216,92,61,69,40,55,44,85,20,44,32,30,32,10,63,27,32,74,53,142,144,127,77,112,68,73,58,46,21,20,43,20,38,37,56,28,22,18,18,14,30,17,24,26,73,174,158,156,145,112,43,161,96,132,123,55,30,40,36,63,94,123,38,32,22,11,32,53,27,55,151,26,70,85,130,22,108,51,107,63,284,62,75,108,187,141,56,32,29,24,26,125,284,271,97,263,392,41,91,12,13,11,35,14,54,83,92,24,200,76,210,349,27,42,73,20,185,143,104,101,61,24,61,56,66,76,5,74,46,66,85,178,125,77,57,66,58,18,85,271,513,118,231,304,39,71,71,45,28,43,12,14,17,14,11,13,18,57,37,52,49,148,18,47,13,16,14,24,27,26,11,19,20,23,29,24,5,10,23,20,81,165,46,9,70,6,31,149,144,173,187,52,56,23,40,40,54,42,65],
      "delta_lng":[0,-114,-32,-69,-54,-49,-47,-35,-21,-29,-15,-19,-15,-12,-28,-21,-9,-8,2,0,0,4,20,8,6,33,38,40,71,44,75,48,31,34,36,30,16,22,23,22,62,8,36,97,97,95,60,50,30,44,35,18,12,10,18,9,4,2,-3,-4,-16,-10,-15,-14,-72,-12,-15,-12,-30,-14,-7,-5,-9,-7,-13,-40,-9,-8,-7,-27,-29,-9,-4,-5,-4,-4,0,4,7,20,15,12,36,0,31,28,8,12,10,7,2,0,3,2,1,0,-1,-4,-9,-6,-13,-6,-9,-12,-11,-16,-9,-12,-11,-8,-5,-8,-4,0,-2,-4,-8,-1,-2,2,3,3,0,4,0,0,3,2,1,3,3,0,3,1,0,0,-2,-6,-2,-3,-3,-4,-3,-3,-6,-2,-1,0,-3,-1,0,-4,0,-3,-2,0,5,9,12,35,9,19,19,14,16,6,37,16,20,47,32,85,93,78,46,67,42,46,37,28,14,11,24,13,19,19,25,11,7,6,4,1,6,2,1,2,-2,-4,-4,-3,-4,-3,-1,-7,-3,-6,-4,-1,-2,-4,-5,-13,-22,-32,-10,-9,-6,-3,-8,-13,-7,-14,-42,-6,-19,-23,-35,-6,-26,-14,-33,-23,-118,-26,-32,-46,-79,-58,-20,-9,-8,-4,-6,-16,-38,-38,-12,-38,-55,-6,-14,-1,-1,-1,-4,-3,-6,-9,0,1,9,2,10,16,0,2,0,0,9,5,2,-7,-13,-9,-21,-27,-33,-44,-3,-48,-33,-53,-61,-124,-84,-46,-29,-24,-20,-6,-27,-57,-114,-29,-53,-66,-12,-14,-17,-16,-14,-26,-8,-9,-13,-12,-10,-14,-20,-70,-55,-89,-81,-257,-28,-80,-24,-26,-22,-29,-31,-25,-10,-15,-13,-12,-13,-10,-3,-4,-10,-6,-19,-39,-12,-2,-17,-1,-9,-37,-32,-36,-44,-11,-3,-1,5,8,10,24,38]
    }
  ]
}