{
  "code":30005,
  "name":"名鉄三河線",
  "station_list":[
    {"code":3000501,"id":"c6fb2d","name":"碧南","name_kana":"へきなん","lat":34.874041,"lng":136.985613,"prefecture":23,"numbering":[{"symbol":"MU","color":"#483D8B","index":"11"}],"lines":[30005],"attr":"heat","postal_code":"447-0846","address":"碧南市中町５-４８"},
    {"code":3000502,"id":"c38cb3","name":"碧南中央","name_kana":"へきなんちゅうおう","lat":34.887395,"lng":136.989476,"prefecture":23,"numbering":[{"symbol":"MU","color":"#483D8B","index":"10"}],"lines":[30005],"attr":"heat","postal_code":"447-0877","address":"碧南市栄町３-５９"},
    {"code":3000503,"id":"08a56c","name":"新川町(愛知)","name_kana":"しんかわまち","lat":34.896619,"lng":136.990312,"prefecture":23,"numbering":[{"symbol":"MU","color":"#483D8B","index":"09"}],"lines":[30005],"attr":"heat","postal_code":"447-0863","address":"碧南市新川町３-１１３"},
    {"code":3000504,"id":"7dc59d","name":"北新川","name_kana":"きたしんかわ","lat":34.906018,"lng":136.992475,"prefecture":23,"numbering":[{"symbol":"MU","color":"#483D8B","index":"08"}],"lines":[30005],"attr":"heat","postal_code":"447-0065","address":"碧南市久沓町４-１９"},
    {"code":3000505,"id":"f87b9c","name":"高浜港","name_kana":"たかはまみなと","lat":34.921536,"lng":136.989391,"prefecture":23,"numbering":[{"symbol":"MU","color":"#483D8B","index":"07"}],"lines":[30005],"attr":"heat","postal_code":"444-1325","address":"高浜市青木町６-３-１"},
    {"code":3000506,"id":"2e6077","name":"三河高浜","name_kana":"みかわたかはま","lat":34.930796,"lng":136.989954,"prefecture":23,"numbering":[{"symbol":"MU","color":"#483D8B","index":"06"}],"lines":[30005],"attr":"heat","postal_code":"444-1334","address":"高浜市春日町５-３-１"},
    {"code":3000507,"id":"262cad","name":"吉浜(愛知)","name_kana":"よしはま","lat":34.946327,"lng":136.98919,"prefecture":23,"numbering":[{"symbol":"MU","color":"#483D8B","index":"05"}],"lines":[30005],"attr":"heat","postal_code":"444-1331","address":"高浜市屋敷町１-２-３０"},
    {"code":3000508,"id":"3d2ccb","name":"小垣江","name_kana":"おがきえ","lat":34.9639,"lng":136.995455,"prefecture":23,"numbering":[{"symbol":"MU","color":"#483D8B","index":"04"}],"lines":[30005],"attr":"heat","postal_code":"448-0813","address":"刈谷市小垣江町字下半ノ木２０-３"},
    {"code":3000509,"id":"2d1e0a","name":"刈谷市","name_kana":"かりやし","lat":34.984803,"lng":136.993844,"prefecture":23,"numbering":[{"symbol":"MU","color":"#483D8B","index":"03"}],"lines":[30005],"attr":"heat","postal_code":"448-0844","address":"刈谷市広小路３-５０４-１"},
    {"code":1150224,"id":"b05cea","name":"刈谷","name_kana":"かりや","lat":34.991156,"lng":137.008878,"prefecture":23,"numbering":[{"symbol":"MU","color":"#483D8B","index":"02"}],"lines":[11502,30005],"attr":"cool","postal_code":"448-0028","address":"刈谷市桜町１丁目"},
    {"code":3000511,"id":"74d94f","name":"重原","name_kana":"しげはら","lat":34.994824,"lng":137.023727,"prefecture":23,"numbering":[{"symbol":"MU","color":"#483D8B","index":"01"}],"lines":[30005],"attr":"heat","postal_code":"472-0026","address":"知立市上重原町本郷４-４"},
    {"code":3000119,"id":"b527bc","name":"知立","name_kana":"ちりゅう","lat":35.006198,"lng":137.039628,"prefecture":23,"numbering":[{"symbol":"NH","color":"#DC143C","index":"19"}],"lines":[30001,30005],"attr":"eco","postal_code":"472-0037","address":"知立市栄２丁目"},
    {"code":3000513,"id":"223d1f","name":"三河知立","name_kana":"みかわちりゅう","lat":35.004002,"lng":137.045311,"prefecture":23,"numbering":[{"symbol":"MY","color":"#9ACD32","index":"01"}],"lines":[30005],"attr":"cool","postal_code":"472-0042","address":"知立市内幸町加藤２０"},
    {"code":3000514,"id":"05621a","name":"三河八橋","name_kana":"みかわやつはし","lat":35.010913,"lng":137.077147,"prefecture":23,"numbering":[{"symbol":"MY","color":"#9ACD32","index":"02"}],"lines":[30005],"attr":"cool","postal_code":"473-0924","address":"豊田市花園町五反田３９"},
    {"code":3000515,"id":"81eeef","name":"若林(愛知)","name_kana":"わかばやし","lat":35.026284,"lng":137.095851,"prefecture":23,"numbering":[{"symbol":"MY","color":"#9ACD32","index":"03"}],"lines":[30005],"attr":"cool","postal_code":"473-0914","address":"豊田市若林東町沖田３７"},
    {"code":3000516,"id":"2f0e3c","name":"竹村","name_kana":"たけむら","lat":35.040067,"lng":137.11476,"prefecture":23,"numbering":[{"symbol":"MY","color":"#9ACD32","index":"04"}],"lines":[30005],"attr":"cool","postal_code":"473-0906","address":"豊田市竹町宮下１６"},
    {"code":3000517,"id":"1ff13c","name":"土橋(愛知)","name_kana":"つちはし","lat":35.058179,"lng":137.129572,"prefecture":23,"numbering":[{"symbol":"MY","color":"#9ACD32","index":"05"}],"lines":[30005],"attr":"cool","postal_code":"471-0842","address":"豊田市土橋町８-１４５"},
    {"code":3000518,"id":"46cf35","name":"上挙母","name_kana":"うわごろも","lat":35.071854,"lng":137.154453,"prefecture":23,"numbering":[{"symbol":"MY","color":"#9ACD32","index":"06"}],"lines":[30005],"attr":"cool","postal_code":"471-0876","address":"豊田市金谷町２-９６"},
    {"code":3000519,"id":"c32de8","name":"豊田市","name_kana":"とよたし","lat":35.087305,"lng":137.156227,"prefecture":23,"numbering":[{"symbol":"MY","color":"#9ACD32","index":"07"}],"lines":[30005,30006],"attr":"cool","postal_code":"471-0026","address":"豊田市若宮町１-３５"},
    {"code":3000520,"id":"dcb6ff","name":"梅坪","name_kana":"うめつぼ","lat":35.099654,"lng":137.162206,"prefecture":23,"numbering":[{"symbol":"MY","color":"#9ACD32","index":"08"}],"lines":[30005,30006],"attr":"eco","postal_code":"471-0064","address":"豊田市梅坪町７-１２５"},
    {"code":3000521,"id":"c2efbd","name":"越戸","name_kana":"こしど","lat":35.10769,"lng":137.180178,"prefecture":23,"numbering":[{"symbol":"MY","color":"#9ACD32","index":"09"}],"lines":[30005],"attr":"eco","postal_code":"470-0332","address":"豊田市越戸町梅盛４"},
    {"code":3000522,"id":"3b1e9f","name":"平戸橋","name_kana":"ひらとばし","lat":35.114628,"lng":137.184725,"prefecture":23,"numbering":[{"symbol":"MY","color":"#9ACD32","index":"10"}],"lines":[30005],"attr":"eco","postal_code":"470-0331","address":"豊田市平戸橋町石平４３"},
    {"code":3000523,"id":"258d3a","name":"猿投","name_kana":"さなげ","lat":35.122613,"lng":137.178739,"prefecture":23,"numbering":[{"symbol":"MY","color":"#9ACD32","index":"11"}],"lines":[30005],"attr":"eco","postal_code":"470-0372","address":"豊田市井上町５-６２"}
  ],
  "north":35.12204,
  "south":34.87355,
  "east":137.18586,
  "west":136.98557,
  "polyline_list":[
    {
      "start":"知立分岐",
      "end":"知立",
      "lat":35.00479,
      "lng":137.04072,
      "delta_lat":[0,28,90,52],
      "delta_lng":[0,-13,-50,-85]
    },
    {
      "start":"知立分岐",
      "end":"猿投",
      "lat":35.00479,
      "lng":137.04072,
      "delta_lat":[0,-42,-30,-19,-11,-8,-6,-5,-1,3,7,11,16,13,56,41,7,2,13,5,56,65,2,105,11,7,12,17,15,52,25,27,16,0,11,2,-11,1,0,3,3,6,18,14,4,9,2,16,23,23,59,97,208,167,226,88,301,47,50,135,53,16,99,39,96,142,164,12,178,284,325,69,67,41,42,43,31,35,41,54,82,94,119,233,29,33,20,147,286,81,53,16,20,7,24,16,36,14,10,16,16,16,29,22,18,33,45,67,34,13,47,66,32,38,43,10,3,21,15,16,18,29,32,51,36,20,16,26,19,20,22,18,20,27,24,19,11,49,56,29,7,2,4,14,13,16,50,33,15,11,14,22,27,32,53,58,63,43,29,25,40,20,23,33,20,23,33,38,31,37,80,62,60,24,127,71,88,123,58,100,35,47,38,28,21,20,45,66,15,106,32,33,83,103,79,16,24,23,24,24,46,80,74,31,106,77,121,39,119,107,9,9,18,17,35,15,2,29,25,20,15,12,8,160,107,121,65,20,21,9,15,8,1,11,2,4,8,4,9,20,11,27,14,21,26,18,10,32,34,13,40,80,21,24,15,37,7,22,25,31,36,33,37,42,15,14,26,13,32,12,17,21,20,16,8,6,4,9,9,15,23,40,34,17,21,26,16,24,35,18,33,35,82,26,62],
      "delta_lng":[0,30,36,30,23,30,27,25,21,19,23,56,94,87,320,235,43,18,65,29,326,367,18,589,61,28,33,50,28,88,45,53,43,1,60,93,216,44,19,14,22,18,57,27,11,17,1,28,29,26,58,97,213,168,224,88,299,67,87,248,96,34,176,67,167,195,219,16,238,383,433,93,87,53,63,54,35,33,29,30,36,32,44,80,9,11,7,48,97,37,29,11,17,4,26,20,48,26,25,39,37,46,95,69,50,79,104,151,80,27,109,153,71,90,97,22,6,48,36,32,34,38,42,54,32,15,13,15,14,15,20,17,21,32,26,25,18,83,94,49,10,8,9,31,45,59,162,110,46,34,37,45,53,56,93,92,96,62,42,35,53,21,19,17,10,8,6,3,0,-6,-11,-12,-9,-4,-20,-12,-18,-26,-11,-18,-7,-3,1,2,5,3,10,21,5,43,11,14,31,40,29,6,8,7,12,10,20,38,44,18,61,42,68,26,68,61,5,5,10,9,33,16,3,39,42,44,32,30,16,411,275,308,173,59,66,32,63,36,9,76,12,38,84,40,43,71,29,55,23,27,26,13,7,20,13,4,10,14,3,1,2,0,-2,-2,-7,-11,-24,-22,-33,-53,-19,-21,-47,-23,-63,-24,-38,-56,-42,-37,-15,-9,-7,-16,-13,-24,-36,-43,-31,-13,-12,-16,-7,-8,-7,0,2,9,31,11,25]
    },
    {
      "start":"碧南",
      "end":"知立分岐",
      "lat":34.87355,
      "lng":136.98557,
      "delta_lat":[0,93,35,33,56,63,131,108,56,67,109,66,141,2,148,29,20,13,28,71,73,68,62,36,5,89,140,55,49,79,81,55,93,62,22,22,14,63,66,55,78,105,105,38,23,18,35,35,108,71,24,26,43,33,85,47,94,52,104,86,43,79,10,92,7,89,104,73,47,156,205,65,40,49,36,70,310,122,75,46,57,54,49,55,82,78,169,216,30,38,37,418,36,21,38,14,51,55,23,27,48,70,26,130,70,75,71,50,36,29,40,87,142,150,117,105,22,58,6,21,96,42,37,133,106,125,39,28,34,47,29,60,150,36,10,94,75,31,16,12,45,69,28,39,29,23,46,51,122,28,27,27,142,67,65,114,168,152,145,82,44,37,42,33,36,58,47,117,33,175,51,2,10,44,5,22,22,11,7,5,2,2,0,-9,-7,-7,-6,-68,-41,-47,-23,-18,-1,1,6,5,13,14,14,24,30,17,9,17,10,8,38,12,14,13,18,7,16,9,8,14,21,55,84,29,55,56,71,9,53,10,23,1,7,21,17,6,71,31,8,48,51,50,53,22,41,29,18,15,47,22,7,7,7,11,22,18,7,16,28,14,9,20,83],
      "delta_lng":[0,11,7,11,21,23,46,38,19,25,42,20,50,1,52,9,5,0,4,2,0,2,1,0,0,1,3,4,3,8,9,3,15,8,5,8,6,23,31,25,41,51,55,15,8,6,2,1,6,2,-3,-5,-9,-9,-21,-13,-27,-15,-32,-25,-8,-12,-1,-10,-1,-13,-13,-13,-9,-39,-55,-16,-7,0,3,12,63,25,16,3,2,-4,-6,-9,-24,-28,-75,-95,-13,-18,-16,-185,-12,-6,0,1,6,20,14,20,41,58,23,109,58,63,59,38,23,17,15,30,41,47,36,31,7,18,2,7,29,11,7,11,9,16,11,14,25,35,18,40,103,24,5,62,52,22,12,7,28,33,7,5,1,2,-9,-18,-62,-14,-14,-13,-70,-31,-32,-51,-82,-75,-69,-36,-1,5,13,15,23,44,59,187,64,368,110,5,20,89,11,53,90,54,44,46,25,28,19,36,32,20,19,181,79,97,60,63,61,32,27,31,44,31,30,49,55,28,18,30,18,15,69,24,24,23,35,12,27,18,12,16,25,68,106,34,68,61,84,10,65,21,48,3,15,54,45,14,169,76,21,118,126,120,131,54,105,66,46,40,114,52,17,10,13,10,18,12,5,7,8,0,0,-4,-29]
    }
  ]
}