{
  "code":30001,
  "name":"名鉄名古屋本線",
  "color":"#DC143C",
  "symbol":"NH",
  "station_list":[
    {"code":100211,"id":"ce07ed","name":"豊橋","name_kana":"とよはし","lat":34.762734,"lng":137.382128,"prefecture":23,"numbering":[{"index":"01"}],"lines":[11413,11502,30001,1002],"attr":"heat","postal_code":"440-0075","address":"豊橋市花田町西宿"},
    {"code":3000102,"id":"2cf1fd","name":"伊奈","name_kana":"いな","lat":34.802857,"lng":137.354743,"prefecture":23,"numbering":[{"index":"02"}],"lines":[30001],"attr":"cool","postal_code":"441-0105","address":"愛知県豊川市伊奈町南山新田292-1"},
    {"code":3000103,"id":"f73bf9","name":"小田渕","name_kana":"おだぶち","lat":34.814739,"lng":137.34559,"prefecture":23,"numbering":[{"index":"03"}],"lines":[30001],"attr":"cool","postal_code":"442-0844","address":"豊川市小田渕町大字卯足"},
    {"code":3000104,"id":"59ae7e","name":"国府(愛知)","name_kana":"こう","lat":34.83752,"lng":137.328101,"prefecture":23,"numbering":[{"index":"04"}],"lines":[30001,30002],"attr":"cool","postal_code":"442-0856","address":"豊川市久保町葉善寺"},
    {"code":3000105,"id":"3b7f86","name":"御油","name_kana":"ごゆ","lat":34.846113,"lng":137.321443,"prefecture":23,"numbering":[{"index":"05"}],"lines":[30001],"attr":"cool","postal_code":"441-0211","address":"豊川市御油町西井領"},
    {"code":3000106,"id":"339a34","name":"名電赤坂","name_kana":"めいでんあかさか","lat":34.859331,"lng":137.311152,"prefecture":23,"numbering":[{"index":"06"}],"lines":[30001],"attr":"cool","postal_code":"441-0202","address":"豊川市赤坂町松本"},
    {"code":3000107,"id":"1b2600","name":"名電長沢","name_kana":"めいでんながさわ","lat":34.871623,"lng":137.288298,"prefecture":23,"numbering":[{"index":"07"}],"lines":[30001],"attr":"cool","postal_code":"441-0203","address":"豊川市長沢町音羽"},
    {"code":3000108,"id":"267a9f","name":"本宿(愛知)","name_kana":"もとじゅく","lat":34.893025,"lng":137.260014,"prefecture":23,"numbering":[{"index":"08"}],"lines":[30001],"attr":"cool","postal_code":"444-3505","address":"岡崎市本宿町一里山"},
    {"code":3000109,"id":"15cf91","name":"名電山中","name_kana":"めいでんやまなか","lat":34.899474,"lng":137.242829,"prefecture":23,"numbering":[{"index":"09"}],"lines":[30001],"attr":"cool","postal_code":"444-3511","address":"岡崎市舞木町山中町"},
    {"code":3000110,"id":"97d701","name":"藤川","name_kana":"ふじかわ","lat":34.913304,"lng":137.218428,"prefecture":23,"numbering":[{"index":"10"}],"lines":[30001],"attr":"cool","postal_code":"444-3523","address":"岡崎市藤川町字松本"},
    {"code":3000111,"id":"f0ec09","name":"美合","name_kana":"みあい","lat":34.923763,"lng":137.196317,"prefecture":23,"numbering":[{"index":"11"}],"lines":[30001],"attr":"cool","postal_code":"444-0802","address":"岡崎市美合町一ノ久保"},
    {"code":3000112,"id":"001a97","name":"男川","name_kana":"おとがわ","lat":34.937461,"lng":137.183296,"prefecture":23,"numbering":[{"index":"12"}],"lines":[30001],"attr":"cool","postal_code":"444-0811","address":"岡崎市大西町揚枝"},
    {"code":3000113,"id":"d4f80c","name":"東岡崎","name_kana":"ひがしおかざき","lat":34.951904,"lng":137.167333,"prefecture":23,"numbering":[{"index":"13"}],"lines":[30001],"attr":"cool","postal_code":"444-0860","address":"岡崎市明大寺本町４丁目"},
    {"code":3000114,"id":"a8ac09","name":"岡崎公園前","name_kana":"おかざきこうえんまえ","lat":34.954984,"lng":137.153309,"prefecture":23,"numbering":[{"index":"14"}],"lines":[30001],"attr":"cool","postal_code":"444-0921","address":"岡崎市中岡崎町"},
    {"code":3000115,"id":"16d648","name":"矢作橋","name_kana":"やはぎばし","lat":34.961149,"lng":137.139957,"prefecture":23,"numbering":[{"index":"15"}],"lines":[30001],"attr":"cool","postal_code":"444-0943","address":"岡崎市矢作町字馬乗"},
    {"code":3000116,"id":"f8c850","name":"宇頭","name_kana":"うとう","lat":34.971367,"lng":137.118103,"prefecture":23,"numbering":[{"index":"16"}],"lines":[30001],"attr":"cool","postal_code":"444-0905","address":"岡崎市宇頭町山ノ神"},
    {"code":3000117,"id":"2098cd","name":"新安城","name_kana":"しんあんじょう","lat":34.986885,"lng":137.085443,"prefecture":23,"numbering":[{"index":"17"}],"lines":[30001,30003],"attr":"eco","postal_code":"446-0007","address":"安城市東栄町１丁目"},
    {"code":3000118,"id":"d91387","name":"牛田(愛知)","name_kana":"うしだ","lat":34.999294,"lng":137.060946,"prefecture":23,"numbering":[{"index":"18"}],"lines":[30001],"attr":"eco","postal_code":"472-0003","address":"知立市牛田"},
    {"code":3000119,"id":"b527bc","name":"知立","name_kana":"ちりゅう","lat":35.006198,"lng":137.039628,"prefecture":23,"numbering":[{"index":"19"}],"lines":[30001,30005],"attr":"eco","postal_code":"472-0037","address":"知立市栄２丁目"},
    {"code":3000120,"id":"c380b2","name":"一ツ木","name_kana":"ひとつぎ","lat":35.01367,"lng":137.02551,"prefecture":23,"numbering":[{"index":"20"}],"lines":[30001],"attr":"eco","postal_code":"448-0000","address":"刈谷市一木本郷前"},
    {"code":3000121,"id":"97371d","name":"富士松","name_kana":"ふじまつ","lat":35.029759,"lng":137.016508,"prefecture":23,"numbering":[{"index":"21"}],"lines":[30001],"attr":"eco","postal_code":"448-0005","address":"刈谷市今川町下矢戸"},
    {"code":3000122,"id":"f2d3e1","name":"豊明","name_kana":"とよあけ","lat":35.041127,"lng":137.008161,"prefecture":23,"numbering":[{"index":"22"}],"lines":[30001],"attr":"eco","postal_code":"470-1141","address":"豊明市阿野町字明定"},
    {"code":3000123,"id":"e91642","name":"前後","name_kana":"ぜんご","lat":35.05227,"lng":136.995665,"prefecture":23,"numbering":[{"index":"23"}],"lines":[30001],"attr":"eco","postal_code":"470-1151","address":"豊明市前後町字大代"},
    {"code":3000124,"id":"c9d624","name":"中京競馬場前","name_kana":"ちゅうきょうけいばじょうまえ","lat":35.061302,"lng":136.98158,"prefecture":23,"numbering":[{"index":"24"}],"lines":[30001],"attr":"eco","postal_code":"458-0801","address":"名古屋市緑区鳴海町大字境松"},
    {"code":3000125,"id":"479e21","name":"有松","name_kana":"ありまつ","lat":35.067687,"lng":136.971084,"prefecture":23,"numbering":[{"index":"25"}],"lines":[30001],"attr":"eco","postal_code":"458-0824","address":"名古屋市緑区鳴海町有松裏"},
    {"code":3000126,"id":"c202f4","name":"左京山","name_kana":"さきょうやま","lat":35.070553,"lng":136.960301,"prefecture":23,"numbering":[{"index":"26"}],"lines":[30001],"attr":"eco","postal_code":"458-0801","address":"名古屋市緑区鳴海町左京山"},
    {"code":3000127,"id":"025094","name":"鳴海","name_kana":"なるみ","lat":35.079149,"lng":136.950096,"prefecture":23,"numbering":[{"index":"27"}],"lines":[30001],"attr":"eco","postal_code":"458-0831","address":"名古屋市緑区鳴海町向田"},
    {"code":3000128,"id":"54efaa","name":"本星崎","name_kana":"もとほしざき","lat":35.087392,"lng":136.937378,"prefecture":23,"numbering":[{"index":"28"}],"lines":[30001],"attr":"heat","postal_code":"457-0812","address":"名古屋市南区星崎町東浦下"},
    {"code":3000129,"id":"9e2cad","name":"本笠寺","name_kana":"もとかさでら","lat":35.099199,"lng":136.933409,"prefecture":23,"numbering":[{"index":"29"}],"lines":[30001],"attr":"heat","postal_code":"457-0058","address":"名古屋市南区前浜通７丁目"},
    {"code":3000130,"id":"128df1","name":"桜(愛知)","name_kana":"さくら","lat":35.106062,"lng":136.934586,"prefecture":23,"numbering":[{"index":"30"}],"lines":[30001],"attr":"heat","postal_code":"457-0014","address":"名古屋市南区呼続町６丁目"},
    {"code":3000131,"id":"99bd0a","name":"呼続","name_kana":"よびつぎ","lat":35.114722,"lng":136.930387,"prefecture":23,"numbering":[{"index":"31"}],"lines":[30001],"attr":"heat","postal_code":"457-0014","address":"名古屋市南区呼続町１丁目"},
    {"code":3000132,"id":"650183","name":"堀田(名古屋鉄道)","name_kana":"ほりた","lat":35.120251,"lng":136.919839,"prefecture":23,"numbering":[{"index":"32"}],"lines":[30001],"attr":"heat","postal_code":"467-0856","address":"愛知県名古屋市瑞穂区新開町28-26"},
    {"code":3000133,"id":"f62256","name":"神宮前","name_kana":"じんぐうまえ","lat":35.125857,"lng":136.912485,"prefecture":23,"numbering":[{"index":"33"}],"lines":[30001,30008],"attr":"heat","postal_code":"456-0032","address":"名古屋市熱田区三本松町"},
    {"code":1141102,"id":"27a817","name":"金山(愛知)","name_kana":"かなやま","lat":35.142928,"lng":136.900517,"prefecture":23,"numbering":[{"index":"34"}],"lines":[11411,11502,30001,30008,99514,99515],"attr":"heat","postal_code":"460-0022","address":"名古屋市中区金山１丁目"},
    {"code":3000135,"id":"2e3c4e","name":"山王(愛知)","name_kana":"さんのう","lat":35.15233,"lng":136.888461,"prefecture":23,"numbering":[{"index":"35"}],"lines":[30001,30008],"attr":"heat","postal_code":"454-0000","address":"名古屋市中川区東出町２丁目"},
    {"code":3000136,"id":"0818f6","name":"名鉄名古屋","name_kana":"めいてつなごや","lat":35.169252,"lng":136.884187,"prefecture":23,"numbering":[{"index":"36"}],"lines":[30001,30008,30015],"attr":"heat","postal_code":"450-0002","address":"愛知県名古屋市中村区名駅1-2-1"},
    {"code":3000137,"id":"dfcbba","name":"栄生","name_kana":"さこう","lat":35.183687,"lng":136.873051,"prefecture":23,"numbering":[{"index":"37"}],"lines":[30001,30015],"attr":"heat","postal_code":"451-0000","address":"名古屋市西区藤ノ宮通３丁目"},
    {"code":3000138,"id":"f153f5","name":"東枇杷島","name_kana":"ひがしびわじま","lat":35.189808,"lng":136.870168,"prefecture":23,"numbering":[{"index":"38"}],"lines":[30001,30015],"attr":"heat","postal_code":"451-0053","address":"名古屋市西区枇杷島通３丁目"},
    {"code":3000139,"id":"80fecd","name":"西枇杷島","name_kana":"にしびわじま","lat":35.195015,"lng":136.865685,"prefecture":23,"numbering":[{"index":"39"}],"lines":[30001],"attr":"heat","postal_code":"452-0000","address":"清須市西枇杷島町下小田井川口"},
    {"code":3000140,"id":"81b119","name":"二ツ杁","name_kana":"ふたついり","lat":35.194646,"lng":136.859583,"prefecture":23,"numbering":[{"index":"40"}],"lines":[30001],"attr":"heat","postal_code":"452-0065","address":"清須市西枇杷島町芳野"},
    {"code":3000141,"id":"56d68c","name":"新川橋","name_kana":"しんかわばし","lat":35.195701,"lng":136.851989,"prefecture":23,"numbering":[{"index":"41"}],"lines":[30001],"attr":"heat","postal_code":"452-0913","address":"清須市上河原"},
    {"code":3000142,"id":"8aac8a","name":"須ヶ口","name_kana":"すかぐち","lat":35.198684,"lng":136.846229,"prefecture":23,"numbering":[{"index":"42"}],"lines":[30001,30013],"attr":"heat","postal_code":"452-0912","address":"愛知県清須市須ヶ口駅前一丁目1"},
    {"code":3000143,"id":"e1c2ab","name":"丸ノ内","name_kana":"まるのうち","lat":35.204742,"lng":136.841927,"prefecture":23,"numbering":[{"index":"43"}],"lines":[30001],"attr":"heat","postal_code":"452-0942","address":"清須市清洲"},
    {"code":3000144,"id":"48a157","name":"新清洲","name_kana":"しんきよす","lat":35.211249,"lng":136.835607,"prefecture":23,"numbering":[{"index":"44"}],"lines":[30001],"attr":"heat","postal_code":"452-0943","address":"清須市新清洲１丁目"},
    {"code":3000145,"id":"a57666","name":"大里","name_kana":"おおさと","lat":35.226216,"lng":136.818428,"prefecture":23,"numbering":[{"index":"45"}],"lines":[30001],"attr":"heat","postal_code":"492-8233","address":"稲沢市奥田町三十番神"},
    {"code":3000146,"id":"2f3bb1","name":"奥田","name_kana":"おくだ","lat":35.235412,"lng":136.810917,"prefecture":23,"numbering":[{"index":"46"}],"lines":[30001],"attr":"heat","postal_code":"492-8233","address":"稲沢市奥田町木之内"},
    {"code":3000147,"id":"115c1e","name":"国府宮","name_kana":"こうのみや","lat":35.254218,"lng":136.802963,"prefecture":23,"numbering":[{"index":"47"}],"lines":[30001],"attr":"heat","postal_code":"492-8208","address":"稲沢市松下１丁目"},
    {"code":3000148,"id":"5f625b","name":"島氏永","name_kana":"しまうじなが","lat":35.270777,"lng":136.800987,"prefecture":23,"numbering":[{"index":"48"}],"lines":[30001],"attr":"heat","postal_code":"492-8205","address":"稲沢市島町"},
    {"code":3000149,"id":"1a4b72","name":"妙興寺","name_kana":"みょうこうじ","lat":35.287178,"lng":136.798231,"prefecture":23,"numbering":[{"index":"49"}],"lines":[30001],"attr":"heat","postal_code":"491-0922","address":"一宮市大和町大字妙興寺徳法寺浦"},
    {"code":3000150,"id":"663d6a","name":"名鉄一宮","name_kana":"めいてついちのみや","lat":35.30154,"lng":136.797225,"prefecture":23,"numbering":[{"index":"50"}],"lines":[30001,30014],"attr":"heat","postal_code":"491-0912","address":"一宮市新生１丁目"},
    {"code":3000151,"id":"d3df27","name":"今伊勢","name_kana":"いまいせ","lat":35.31836,"lng":136.789273,"prefecture":23,"numbering":[{"index":"51"}],"lines":[30001],"attr":"heat","postal_code":"491-0057","address":"一宮市今伊勢町大字宮後字一丁野"},
    {"code":3000152,"id":"4b0248","name":"石刀","name_kana":"いわと","lat":35.326204,"lng":136.785407,"prefecture":23,"numbering":[{"index":"52"}],"lines":[30001],"attr":"heat","postal_code":"491-0051","address":"一宮市今伊勢町大字馬寄字西切声"},
    {"code":3000153,"id":"17f7b0","name":"新木曽川","name_kana":"しんきそがわ","lat":35.342047,"lng":136.779421,"prefecture":23,"numbering":[{"index":"53"}],"lines":[30001],"attr":"heat","postal_code":"493-0001","address":"一宮市木曽川町黒田下市場南１２１-４"},
    {"code":3000154,"id":"8c90e3","name":"黒田(愛知)","name_kana":"くろだ","lat":35.350213,"lng":136.777502,"prefecture":23,"numbering":[{"index":"54"}],"lines":[30001],"attr":"heat","postal_code":"493-0001","address":"一宮市木曽川町黒田字西針口北ノ切１２-４"},
    {"code":3000155,"id":"0c0f3e","name":"木曽川堤","name_kana":"きそがわづつみ","lat":35.365067,"lng":136.770486,"prefecture":23,"numbering":[{"index":"55"}],"lines":[30001],"attr":"heat","postal_code":"493-8001","address":"一宮市北方町大字北方字倉骨"},
    {"code":3000156,"id":"81a081","name":"笠松","name_kana":"かさまつ","lat":35.37466,"lng":136.764664,"prefecture":21,"numbering":[{"index":"56"}],"lines":[30001,30020],"attr":"heat","postal_code":"501-6037","address":"羽島郡笠松町西金池町"},
    {"code":3000157,"id":"ad4f60","name":"岐南","name_kana":"ぎなん","lat":35.389716,"lng":136.769165,"prefecture":21,"numbering":[{"index":"57"}],"lines":[30001],"attr":"heat","postal_code":"501-6018","address":"羽島郡岐南町下印食"},
    {"code":3000158,"id":"92c35e","name":"茶所","name_kana":"ちゃじょ","lat":35.402048,"lng":136.768917,"prefecture":21,"numbering":[{"index":"58"}],"lines":[30001],"attr":"cool","postal_code":"500-8431","address":"岐阜市加納八幡町"},
    {"code":3000159,"id":"75147b","name":"加納(岐阜)","name_kana":"かのう","lat":35.405209,"lng":136.765984,"prefecture":21,"numbering":[{"index":"59"}],"lines":[30001],"attr":"eco","postal_code":"500-8402","address":"岐阜市竜田町９丁目"},
    {"code":3000160,"id":"80de5b","name":"名鉄岐阜","name_kana":"めいてつぎふ","lat":35.411136,"lng":136.760066,"prefecture":21,"numbering":[{"index":"60"}],"lines":[30001,30016],"attr":"eco","postal_code":"500-8833","address":"岐阜市神田町９丁目"}
  ],
  "north":35.41138,
  "south":34.76105,
  "east":137.38333,
  "west":136.76011,
  "polyline_list":[
    {
      "start":"豊川放水路南",
      "end":"豊川放水路北",
      "lat":34.78704,
      "lng":137.36673,
      "delta_lat":[0,108,82,74,41,48,76,3,91,59,62,50,6,7,36,25,44,116,70,15],
      "delta_lng":[0,-74,-61,-54,-30,-35,-57,-3,-63,-42,-48,-37,-4,-5,-30,-19,-34,-90,-55,-12]
    },
    {
      "start":"豊川放水路北",
      "end":"豊川放水路南",
      "lat":34.79716,
      "lng":137.35919,
      "delta_lat":[0,-77,-47,-84,-53,-59,-17,-19,-17,-32,-47,-27,-41,-32,-61,-18,-10,-56,-30,-11,-56,-69,-20,-17,-20,-49,-44],
      "delta_lng":[0,49,29,48,34,31,2,1,1,6,14,15,32,33,64,18,12,61,31,10,55,67,20,16,19,44,41]
    },
    {
      "start":"豊川放水路北",
      "end":"名鉄岐阜",
      "lat":34.79716,
      "lng":137.35919,
      "delta_lat":[0,64,65,101,57,77,57,75,51,52,36,88,75,38,75,103,98,41,58,57,47,38,43,31,52,47,37,18,20,7,22,41,56,20,25,21,8,13,18,105,32,53,45,27,64,97,54,70,127,93,133,75,69,81,98,84,108,73,88,76,62,25,36,229,109,9,24,14,74,79,15,24,151,39,32,133,163,62,23,40,15,95,26,155,45,53,7,7,36,49,35,194,4,9,45,31,11,72,84,97,77,4,47,22,69,67,41,27,24,34,31,14,16,65,22,33,92,52,67,13,34,22,44,28,17,12,8,44,9,69,20,20,9,16,19,137,75,26,21,13,43,14,34,18,43,24,25,32,28,14,13,30,49,55,3,9,41,31,13,25,22,166,58,24,68,15,40,5,32,37,66,60,65,45,37,35,24,6,14,25,29,38,24,51,91,73,56,45,25,47,26,27,22,32,29,25,49,25,55,26,74,89,35,126,41,40,1,68,47,18,2,9,12,8,7,11,4,2,6,10,9,11,20,32,27,35,70,38,27,26,19,24,31,29,32,38,11,16,32,29,29,38,47,25,33,11,7,4,15,10,41,42,85,79,31,24,48,43,63,8,29,40,42,36,54,35,30,26,22,28,28,21,27,4,5,0,2,0,0,0,3,4,8,9,21,22,27,61,73,117,114,7,35,5,18,26,56,54,54,18,15,50,78,54,44,66,45,48,55,49,15,20,28,106,55,33,9,11,4,24,33,63,46,13,48,25,12,10,67,74,79,61,37,32,22,22,25,26,43,11,27,76,61,60,45,49,70,85,50,37,52,71,26,47,75,76,64,64,58,48,38,37,43,40,24,16,7,6,7,38,3,6,6,1,2,4,0,-2,0,-3,-5,-1,-3,-10,-3,2,9,14,21,6,20,29,29,29,14,14,17,18,26,19,9,2,27,7,22,36,7,8,11,39,7,44,12,37,47,3,16,11,19,38,39,40,40,28,46,57,13,55,37,40,29,41,13,33,39,40,53,25,38,32,22,28,39,40,38,18,6,7,18,23,35,14,22,31,48,24,34,4,5,13,7,6,53,3,30,18,20,35,34,57,4,76,9,32,22,31,11,56,7,38,0,17,56,3,7,5,38,4,40,18,11,7,7,22,2,27,22,5,41,39,55,5,3,18,23,29,15,25,0,85,22,3,19,0,1,56,44,68,4,56,44,25,13,21,6,76,3,21,11,18,24,11,23,4,9,9,15,2,3,35,3,21,17,18,9,26,19,5,17,20,51,21,52,19,17,33,31,12,8,25,6,5,5,40,25,6,25,23,24,7,24,24,10,13,16,22,27,6,44,21,59,8,6,41,75,52,20,64,13,21,58,58,57,47,11,4,18,5,3,6,1,-4,-5,-6,-15,-9,-12,-5,-2,3,4,2,6,10,4,4,10,20,17,4,15,34,24,41,6,31,5,25,50,52,46,62,58,22,97,122,30,141,70,36,55,36,49,24,39,53,150,329,43,83,9,311,165,265,72,6,32,210,231,150,35,21,195,23,158,73,141,88,22,90,35,36,16,17,28,25,18,143,140,9,3,98,66,60,45,180,147,156,25,19,73,22,20,15,41,18,18,25,67,26,23,8,14,45,25,39,17,13,15,17,14,21,14,25,22,28,99,32,31,24,20,23,9,42,8,34,5,40,35,18,22,18,17,11,11,6,6,4,5,5,3,4,3,5,13,49,15,26,33,38,56,14,9,11,38,51,83,84,101,49,127,24,12,15,11,10,9,11,18,9,13,16,25,39,90,22,27,55,26,14,13,35,18,23,27,16,16,21,32,23,20,30,56,59,63,44,93,44,121,62,50,34,33,25,26,14,11,31,72,92,47,61,41,48,47,37,21,33,68,44,104,73,67,90,70,80,130,85,100,30,49,44,32,36,33,27,28,39,26,24,26,20,23,34,76,79,61,39,54,82,9,17,24,31,49,18,23,22,26,28,20,27,17,25,15,12,9,15,8,28,21,31,9,4,1,33,3,13,16,40,2,6,6,6,11,7,9,8,10,2,13,13,7,10,13,15,40,73,102,16,82,45,26,53,11,63,112,139,58,136,84,102,71,70,9,14,69,56,54,53,25,30,22,40,49,65,27,37,32,15,35,24,16,16,33,23,53,22,23,18,34,20,49,22,14,22,20,36,12,24,29,29,35,20,23,28,26,21,22,25,23,45,29,46,10,20,17,48,95,11,26,67,21,76,139,148,47,114,36,85,40,81,1,57,82,50,81,33,70,30,189,269,29,51,42,40,83,119,19,62,150,168,94,28,97,61,34,62,33,133,9,24,9,11,5,53,74,36,130,33,23,32,22,25,13,19,19,27,22,25,14,6,36,66,16,48,45,27,32,26,32,23,14,2,2,3,56,19,43,51,17,15,11,7,4,1,-7,-11,-17,-10,-5,-4,-1,0,-1,3,5,7,2,14,58,18,42,159,25,51,88,11,28,34,28,49,78,183,144,46,50,45,44,44,24,15,119,33,180,107,304,357,87,5,443,199,92,105,105,18,18,84,59,101,109,146,143,450,388,49,495,19,23,76,68,15,34,49,82,31,150,79,254,33,20,231,56,31,40,36,4,60,14,24,17,84,30,20,22,103,10,22,110,50,79,81,63,27,62,6,65,49,56,35,73,16,11,16,24,14,78,121,49,89,21,53,21,13,24,117,89,36,52,30,55,110,90,95,39,31,45,14,71,168,49,38,33,50,31,88,33,123,191,17,28,19,19,20,24,54,22,21,75,97,270,39,157,246,197,116,29,54,22,202,51,49,27,63,16,35,99,29,25,71,4,91,112,237,9,40,55,41,14,65,12,3,16,19,61,57,22,38,19,44,20,67,51,9,45,87,103,18,31,27,25,29,18,63,13,9,29,33,76,55,17,500,101,429,54,247,69,121,245,314,45,87,70,51,64,51,35,40,39,50,50,164,42,18,7,136,148,25,80,14,28,48,198,51,34,28,72,28,61,101,255,203,72,68,89,126,41,43,115,331,71,187,46,43,46,9,30,29,47,68,71,271,219,97,64,63,24,11,19,15,30,36,24,37,5,27,81,27,16,24,26,23,27,9,26,32,36,36,49,30,2,21,12,29,7,94],
      "delta_lng":[0,-49,-51,-79,-42,-61,-44,-58,-39,-40,-29,-68,-58,-28,-58,-79,-76,-33,-43,-43,-36,-28,-33,-26,-38,-36,-29,-14,-15,-6,-15,-33,-45,-15,-19,-15,-7,-10,-14,-80,-25,-41,-36,-18,-50,-72,-47,-54,-99,-68,-103,-56,-53,-64,-74,-66,-82,-57,-69,-60,-46,-17,-31,-176,-81,-7,-20,-12,-58,-59,-12,-18,-113,-31,-23,-103,-128,-48,-19,-31,-12,-76,-19,-119,-36,-41,-4,-7,-27,-38,-29,-147,-2,-9,-33,-25,-9,-55,-62,-73,-60,-2,-35,-17,-56,-52,-47,-30,-30,-47,-45,-25,-26,-118,-39,-67,-183,-103,-135,-26,-63,-45,-83,-57,-30,-25,-11,-89,-18,-131,-42,-38,-18,-28,-34,-266,-146,-51,-43,-23,-87,-33,-69,-45,-110,-59,-61,-81,-71,-37,-31,-73,-125,-136,-7,-25,-101,-63,-27,-47,-37,-282,-99,-32,-103,-23,-59,-12,-46,-50,-81,-72,-73,-51,-39,-34,-23,-3,-9,-15,-14,-13,-6,-11,-14,-11,-11,-9,-7,-20,-18,-19,-18,-35,-39,-36,-71,-35,-81,-38,-117,-162,-75,-325,-105,-97,-4,-171,-114,-57,-5,-38,-43,-41,-33,-68,-14,-14,-29,-51,-37,-30,-58,-67,-63,-75,-152,-82,-37,-32,-22,-18,-17,-16,-12,-15,-4,-10,-23,-21,-24,-33,-49,-29,-51,-19,-12,-5,-25,-17,-73,-71,-144,-133,-51,-43,-139,-118,-176,-24,-82,-111,-116,-105,-151,-88,-83,-75,-62,-78,-78,-59,-79,-15,-28,-22,-72,-84,-65,-31,-96,-45,-69,-40,-62,-51,-47,-83,-89,-146,-142,-8,-46,-6,-23,-33,-70,-70,-67,-23,-18,-65,-99,-71,-56,-86,-58,-66,-67,-68,-18,-26,-36,-140,-71,-44,-12,-13,-7,-29,-39,-63,-33,-8,-26,-12,-5,-4,-27,-27,-28,-23,-17,-15,-15,-15,-22,-26,-43,-13,-29,-73,-59,-58,-41,-49,-65,-82,-50,-35,-52,-67,-24,-45,-72,-73,-62,-62,-56,-45,-40,-39,-52,-58,-45,-34,-19,-19,-27,-156,-11,-33,-20,-13,-36,-87,-36,-37,-12,-55,-66,-7,-32,-85,-93,-44,-58,-40,-49,-15,-44,-62,-64,-65,-28,-36,-35,-40,-53,-50,-15,-7,-62,-15,-47,-80,-16,-18,-23,-86,-17,-94,-26,-80,-106,-7,-32,-25,-42,-82,-88,-85,-86,-61,-103,-122,-26,-120,-84,-91,-61,-87,-28,-71,-87,-88,-115,-54,-85,-65,-48,-59,-87,-84,-85,-36,-16,-12,-42,-54,-73,-31,-44,-66,-104,-52,-61,-6,-10,-24,-13,-8,-98,-7,-56,-33,-38,-61,-61,-104,-9,-137,-14,-57,-41,-58,-16,-101,-13,-67,-2,-25,-106,-6,-12,-7,-73,-7,-86,-42,-24,-18,-17,-54,-1,-65,-52,-16,-95,-97,-131,-12,-10,-43,-53,-70,-35,-59,-5,-199,-52,-6,-46,-1,-4,-133,-106,-164,-10,-118,-82,-45,-24,-39,-13,-143,-8,-39,-21,-33,-47,-20,-43,-10,-17,-14,-31,0,-9,-63,-9,-36,-33,-35,-14,-51,-34,-8,-33,-39,-95,-44,-106,-41,-34,-69,-65,-24,-17,-54,-9,-9,-11,-84,-49,-10,-52,-47,-51,-10,-50,-50,-20,-28,-31,-46,-55,-10,-90,-44,-119,-15,-12,-84,-154,-113,-40,-131,-26,-43,-115,-120,-113,-95,-30,-11,-60,-16,-25,-60,-50,-72,-46,-38,-57,-43,-43,-47,-36,-50,-40,-8,-36,-46,-24,-11,-28,-46,-38,-8,-32,-67,-50,-59,-8,-43,-7,-36,-68,-85,-83,-123,-115,-44,-192,-247,-62,-278,-143,-57,-69,-39,-39,-18,-25,-31,-76,-167,-22,-42,-6,-162,-85,-136,-38,-4,-24,-153,-169,-108,-26,-15,-146,-17,-113,-51,-100,-62,-16,-65,-28,-31,-15,-21,-38,-34,-27,-211,-203,-13,-6,-144,-81,-81,-61,-220,-179,-189,-29,-24,-95,-33,-35,-27,-92,-44,-42,-56,-158,-64,-55,-20,-40,-144,-94,-167,-58,-44,-40,-36,-23,-30,-14,-22,-15,-17,-57,-20,-22,-21,-20,-25,-14,-61,-15,-51,-8,-65,-52,-31,-43,-41,-49,-36,-49,-38,-62,-59,-73,-73,-42,-57,-28,-25,-40,-153,-49,-78,-89,-97,-138,-25,-12,-13,-35,-41,-64,-62,-75,-36,-94,-20,-13,-17,-13,-14,-13,-22,-30,-18,-34,-41,-73,-114,-268,-69,-80,-166,-80,-36,-39,-80,-30,-35,-33,-14,-15,-14,-17,-10,-7,-5,-6,-6,-8,-15,-60,-26,-73,-36,-29,-18,-18,-12,-11,-7,-5,-12,-22,-20,-12,-16,-8,-10,-10,-6,-4,-3,-4,-1,7,9,12,16,14,16,23,16,19,5,8,3,2,-5,-5,-8,-9,-14,-12,-14,-16,-17,-16,-32,-69,-68,-51,-33,-48,-73,-8,-14,-21,-27,-37,-17,-20,-21,-26,-31,-17,-31,-25,-39,-33,-25,-28,-52,-34,-124,-96,-135,-46,-13,-5,-151,-15,-64,-61,-172,-11,-28,-26,-23,-35,-19,-15,-11,-13,-5,-13,-14,-8,-6,-8,-8,-16,-26,-32,-5,-30,-17,-10,-15,-3,-21,-38,-63,-25,-56,-40,-43,-31,-31,-3,-6,-32,-27,-31,-34,-18,-24,-18,-31,-49,-63,-29,-44,-38,-21,-47,-36,-20,-27,-54,-57,-132,-72,-71,-57,-101,-57,-131,-58,-37,-58,-45,-75,-23,-33,-39,-35,-41,-20,-21,-26,-18,-12,-15,-14,-12,-21,-12,-12,-2,-4,-4,-11,-24,-3,-7,-17,-5,-22,-37,-37,-11,-27,-9,-21,-10,-20,0,-15,-20,-12,-22,-6,-22,-18,-53,-65,-8,-22,-19,-20,-48,-82,-14,-44,-122,-116,-76,-19,-77,-61,-40,-69,-34,-140,-10,-24,-10,-12,-6,-53,-75,-44,-149,-34,-14,-10,-3,-3,1,2,4,9,10,15,8,3,18,27,6,24,17,6,2,-1,-10,-11,-10,-2,-2,-3,-76,-27,-57,-78,-30,-38,-31,-40,-40,-32,-46,-76,-136,-96,-98,-100,-62,-23,-94,-418,-52,-38,-9,-46,-112,-37,-75,-298,-47,-95,-158,-24,-34,-38,-20,-20,-35,-78,-66,-22,-31,-36,-36,-44,-27,-18,-132,-38,-202,-118,-349,-406,-98,-5,-506,-228,-112,-121,-115,-19,-17,-76,-54,-73,-71,-80,-65,-216,-191,-24,-242,-10,-13,-37,-29,-6,-9,-10,0,0,-3,-1,-4,0,0,-4,-2,-3,-5,-6,0,-13,-3,-5,-4,-18,-6,-4,-4,-22,-2,-6,-23,-13,-18,-18,-12,-7,-13,-3,-12,-10,-12,-7,-9,-4,-1,-2,-3,-4,-9,-18,-5,-12,-4,-9,-8,-4,-8,-41,-34,-10,-13,-5,-7,-4,-3,0,3,4,9,3,20,57,15,10,8,8,3,0,-3,-14,-22,-2,-4,-3,-5,-4,-7,-20,-9,-11,-39,-49,-131,-18,-68,-119,-92,-57,-13,-27,-11,-102,-25,-24,-15,-29,-8,-18,-48,-15,-12,-36,-2,-40,-56,-113,-4,-19,-26,-22,-5,-33,-5,-2,-9,-7,-30,-26,-11,-18,-8,-22,-12,-31,-21,-4,-21,-39,-47,-8,-14,-13,-11,-16,-8,-24,-5,-4,-10,-11,-29,-18,-4,-135,-28,-111,-13,-42,-14,-20,-44,-54,-8,-14,-21,-13,-28,-25,-24,-33,-38,-56,-64,-222,-59,-24,-8,-185,-201,-27,-68,-10,-11,-7,-21,-6,-4,-3,0,3,31,54,135,107,37,29,28,27,5,6,4,11,3,2,-3,-6,-9,-2,-6,-4,-8,-7,-2,3,8,0,0,0,-4,-3,-6,-5,-19,-40,-39,-100,-16,-99,-294,-87,-38,-37,-30,-20,-9,-1,-3,1,5,4,7,-3,0,-4,-3,-11,-4,-23]
    },
    {
      "start":"豊橋",
      "end":"豊川放水路南",
      "lat":34.76105,
      "lng":137.38333,
      "delta_lat":[0,62,184,4,50,44,20,85,7,119,101,97,26,62,186,119,125,101,18,118,100,94,58,47,91,12,6,15,5,30,22,18,58,18,28,56,8,15,39,42,24,14,82,119,49,12,9],
      "delta_lng":[0,-39,-119,-3,-32,-6,-12,-54,-3,-77,-66,-62,-17,-40,-121,-79,-81,-65,-13,-75,-68,-62,-39,-30,-60,-8,-2,-10,-4,-18,-14,-12,-37,-12,-18,-35,-6,-8,-26,-28,-14,-9,-52,-76,-31,-9,-9]
    }
  ]
}