{
  "code":30009,
  "id":"7d13fd",
  "name":"名鉄河和線",
  "name_kana":"めいてつこうわせん",
  "station_size":19,
  "company_code":20,
  "color":"#00BFFF",
  "symbol":"KC",
  "station_list":[
    {"code":3000813,"id":"0a0944","name":"太田川","name_kana":"おおたがわ","lat":35.020221,"lng":136.892504,"prefecture":23,"numbering":[{"symbol":"TA","color":"#0000CD","index":"09"}],"lines":[30008,30009],"attr":"heat","postal_code":"477-0031","address":"東海市大田町後田５２","next":[3000902,3000814,3000812,9950911],"voronoi":{"lat":35.029737,"lng":136.867631,"delta_lat":[0,-15173,3087,20670],"delta_lng":[0,22351,27484,-44199]}},
    {"code":3000902,"id":"742242","name":"高横須賀","name_kana":"たかよこすか","lat":35.009608,"lng":136.893696,"prefecture":23,"numbering":[{"index":"01"}],"lines":[30009],"attr":"heat","postal_code":"477-0037","address":"東海市高横須賀町松本１-３","next":[3000813,3000903,3000812,3000815,3000814],"voronoi":{"lat":35.017651,"lng":136.917465,"delta_lat":[0,-1859,-22590,3537,17825],"delta_lng":[0,8197,-35012,-1831,1162]}},
    {"code":3000903,"id":"484597","name":"南加木屋","name_kana":"みなみかぎや","lat":34.989216,"lng":136.906853,"prefecture":23,"numbering":[{"index":"03"}],"lines":[30009],"attr":"heat","postal_code":"477-0032","address":"東海市加木屋町南平井１５","next":[1150226,3000902,1150227,3000815,3000812,3000904],"voronoi":{"lat":34.971642,"lng":136.883104,"delta_lat":[0,21560,22590,226,-1907,-22639],"delta_lng":[0,7547,35012,1412,1839,8023]}},
    {"code":3000904,"id":"d46bd5","name":"八幡新田","name_kana":"やわたしんでん","lat":34.973674,"lng":136.912578,"prefecture":23,"numbering":[{"index":"04"}],"lines":[30009],"attr":"heat","postal_code":"477-0032","address":"東海市加木屋町陀々法師４３-１","next":[3000815,3000906,1150602,3000816,1150603,3000817,1150226,3000903,3000905],"voronoi":{"lat":34.959623,"lng":136.882091,"delta_lat":[0,-441,8050,4139,272,19830,-4948,-2783,-8347],"delta_lng":[0,-2916,2035,1699,195,53833,3523,972,1083]}},
    {"code":3000905,"id":"5ecd9e","name":"巽ヶ丘","name_kana":"たつみがおか","lat":34.962265,"lng":136.915556,"prefecture":23,"numbering":[{"index":"05"}],"lines":[30009],"attr":"heat","postal_code":"478-0012","address":"愛知県知多市巽ヶ丘3丁目134","next":[1150603,1150605,3000906,1150604,3000904],"voronoi":{"lat":34.972392,"lng":136.943533,"delta_lat":[0,-10397,-3997,1624,15772],"delta_lng":[0,1006,-920,-61528,60424]}},
    {"code":3000906,"id":"9258a2","name":"白沢(愛知)","name_kana":"しらさわ","lat":34.955219,"lng":136.91537,"prefecture":23,"numbering":[{"index":"06"}],"lines":[30009],"attr":"heat","postal_code":"470-2201","address":"知多郡阿久比町大字白沢字豊石山１７-４","next":[1150605,3000817,3000904,3000818,3000907,3000905],"voronoi":{"lat":34.959623,"lng":136.882091,"delta_lat":[0,-441,-999,-13451,6019,7248],"delta_lng":[0,-2916,-555,-4622,68882,739]}},
    {"code":3000907,"id":"c19084","name":"坂部","name_kana":"さかべ","lat":34.941579,"lng":136.916562,"prefecture":23,"numbering":[{"index":"07"}],"lines":[30009],"attr":"heat","postal_code":"470-2212","address":"知多郡阿久比町大字卯坂字上向田３５-７","next":[1150605,3000820,3000906,3000908,3000821,3000818],"voronoi":{"lat":34.950751,"lng":136.94288,"delta_lat":[0,-9275,-13525,11448,2030,3303],"delta_lng":[0,1369,-71418,-790,187,1770]}},
    {"code":3000908,"id":"5738b4","name":"阿久比","name_kana":"あぐい","lat":34.931256,"lng":136.918517,"prefecture":23,"numbering":[{"index":"08"}],"lines":[30009],"attr":"heat","postal_code":"470-2213","address":"知多郡阿久比町大字阿久比字千速５４-３","next":[3000821,3000824,3000907,3000910,3000701,1150605,1150606,3000822],"voronoi":{"lat":34.925791,"lng":136.872731,"delta_lat":[0,2160,13525,-400,-9315,-22819,9625,576],"delta_lng":[0,100,71418,141,-2687,-63858,-4620,-168]}},
    {"code":3000910,"id":"f0ab6d","name":"植大","name_kana":"うえだい","lat":34.917457,"lng":136.923448,"prefecture":23,"numbering":[{"index":"09"}],"lines":[30009],"attr":"heat","postal_code":"470-2216","address":"知多郡阿久比町植大大前田４-３","next":[3000915,1150607,3000911,3000912,3000908,3000701,1150606],"voronoi":{"lat":34.931761,"lng":136.941703,"delta_lat":[0,-22819,-4413,-725,580,11953,6284],"delta_lng":[0,-63858,1311,4420,3994,49535,4970]}},
    {"code":3000911,"id":"68b795","name":"半田口","name_kana":"はんだぐち","lat":34.909111,"lng":136.925462,"prefecture":23,"numbering":[{"index":"10"}],"lines":[30009],"attr":"heat","postal_code":"475-0961","address":"半田市岩滑中町２-１５０","next":[3000910,1150607,3000912],"voronoi":{"lat":34.904383,"lng":136.887569,"delta_lat":[0,11953,-10519],"delta_lng":[0,49535,-3844]}},
    {"code":3000912,"id":"a97998","name":"住吉町","name_kana":"すみよしちょう","lat":34.902042,"lng":136.925684,"prefecture":23,"numbering":[{"index":"11"}],"lines":[30009],"attr":"cool","postal_code":"475-0902","address":"半田市宮路町１５６-２","next":[1150608,3000914,3000910,1150607,3000915,3000911,3000913],"voronoi":{"lat":34.901465,"lng":136.933612,"delta_lat":[0,4353,-1434,-580,-47,-6299,602],"delta_lng":[0,-351,-45691,-3994,128,26215,18080]}},
    {"code":3000913,"id":"0116a6","name":"知多半田","name_kana":"ちたはんだ","lat":34.893931,"lng":136.925954,"prefecture":23,"numbering":[{"index":"12"}],"lines":[30009],"attr":"cool","postal_code":"475-0857","address":"半田市広小路町１２８-１","next":[1150608,3000914,3000912],"voronoi":{"lat":34.887628,"lng":136.928544,"delta_lat":[0,9830,602],"delta_lng":[0,-18626,18080]}},
    {"code":3000914,"id":"53a907","name":"成岩","name_kana":"ならわ","lat":34.886209,"lng":136.921879,"prefecture":23,"numbering":[{"index":"13"}],"lines":[30009],"attr":"cool","postal_code":"475-0846","address":"半田市栄町３-４","next":[3000912,3000913,1150609,1150608,3000915],"voronoi":{"lat":34.903757,"lng":136.883704,"delta_lat":[0,-6299,-9830,-5917,-1468],"delta_lng":[0,26215,18626,5486,-11398]}},
    {"code":3000915,"id":"e7aef2","name":"青山(愛知)","name_kana":"あおやま","lat":34.878132,"lng":136.917,"prefecture":23,"numbering":[{"index":"14"}],"lines":[30009],"attr":"cool","postal_code":"475-0837","address":"半田市有楽町４-６","next":[1150609,3000910,3000916,3000701,3000912,3000914],"voronoi":{"lat":34.903757,"lng":136.883704,"delta_lat":[0,47,725,-34965,-1265,11944],"delta_lng":[0,-128,-4420,-5557,41861,7173]}},
    {"code":3000916,"id":"470870","name":"上ゲ","name_kana":"あげ","lat":34.858389,"lng":136.916403,"prefecture":23,"numbering":[{"index":"15"}],"lines":[30009],"attr":"cool","postal_code":"470-2339","address":"知多郡武豊町字下門２３-５","next":[3000915,3001002,1150610,3000702,3000917,1150609,3000701],"voronoi":{"lat":34.868298,"lng":136.915459,"delta_lat":[0,-4832,-8901,-226,558,7322,7344],"delta_lng":[0,10946,-8976,-47979,-575,1766,2957]}},
    {"code":3000917,"id":"77e317","name":"知多武豊","name_kana":"ちたたけとよ","lat":34.850732,"lng":136.916439,"prefecture":23,"numbering":[{"index":"16"}],"lines":[30009],"attr":"eco","postal_code":"470-2347","address":"知多郡武豊町字道崎４３-８","next":[3000918,3001002,3000916,1150610],"voronoi":{"lat":34.854565,"lng":136.917429,"delta_lat":[0,-226,-15492,1180],"delta_lng":[0,-47979,13574,42800]}},
    {"code":3000918,"id":"7c82a4","name":"富貴","name_kana":"ふき","lat":34.828823,"lng":136.917043,"prefecture":23,"numbering":[{"index":"17"}],"lines":[30009,30010],"attr":"eco","postal_code":"470-2531","address":"知多郡武豊町大字冨貴外前田５-５","next":[3000501,3000917,3000920,3001002,1150610],"voronoi":{"lat":34.816195,"lng":136.974565,"delta_lat":[0,-4066,26719,1180,-6330],"delta_lng":[0,-80073,-11467,42800,37199]}},
    {"code":3000920,"id":"a70370","name":"河和口","name_kana":"こうわぐち","lat":34.797805,"lng":136.918618,"prefecture":23,"numbering":[{"index":"18"}],"lines":[30009],"attr":"eco","postal_code":"470-2401","address":"知多郡美浜町大字布土字中平井３３-１","next":[3000315,3000311,3000918,3000921,3000501,3001002],"voronoi":{"lat":34.795142,"lng":136.89138,"delta_lat":[0,-31203,26551,11747,13957,-4066],"delta_lng":[0,102647,656,-4236,-15883,-80073]}},
    {"code":3000921,"id":"dcf12e","name":"河和","name_kana":"こうわ","lat":34.777771,"lng":136.912528,"prefecture":23,"numbering":[{"index":"19"}],"lines":[30009],"attr":"eco","postal_code":"470-2406","address":"知多郡美浜町大字河和字北田面５-１","next":[3001005,3001004,3000315,3001006,3000920,3001002],"voronoi":{"lat":34.794414,"lng":136.89091,"delta_lat":[0,-20451,-5210,-133938,129124,31203],"delta_lng":[0,-4192,550,120016,-13257,-102647]}}
  ],
  "north":35.02063,
  "south":34.77772,
  "east":136.92592,
  "west":136.89191,
  "polyline_list":[
    {
      "start":"河和",
      "end":"太田川",
      "lat":34.77772,
      "lng":136.91284,
      "delta_lat":[0,60,18,38,32,29,27,22,17,26,17,30,24,29,60,54,38,32,47,15,23,19,57,13,11,40,46,42,76,49,81,51,31,34,31,18,10,11,9,8,17,2,12,26,33,32,24,24,21,34,36,24,22,27,49,45,21,37,28,26,29,22,22,15,100,18,27,25,71,45,38,37,86,61,57,128,27,25,23,82,88,35,16,31,32,42,65,55,37,80,68,57,139,2,131,122,41,87,57,49,27,24,47,31,43,38,44,28,69,63,95,53,78,105,93,112,86,88,99,68,77,99,33,5,12,43,87,114,139,108,118,209,146,216,25,33,89,92,25,146,110,51,69,79,143,145,121,125,85,78,66,145,101,138,162,103,23,17,97,132,19,214,216,92,61,69,40,55,44,85,20,44,32,30,32,10,63,27,32,74,53,142,144,127,77,112,68,73,58,46,21,20,43,20,38,37,56,28,22,18,18,14,30,17,24,26,73,174,158,156,145,112,43,161,96,132,123,55,30,40,36,63,94,123,38,32,22,11,32,53,27,55,151,26,70,85,130,22,108,51,107,63,284,62,75,108,187,141,56,32,29,24,26,125,284,271,97,263,392,41,91,12,13,11,35,14,54,83,92,24,200,76,210,349,27,42,73,20,185,143,104,101,61,24,61,56,66,76,5,74,46,66,85,178,125,77,57,66,58,18,85,271,513,118,231,304,39,71,71,45,28,43,12,14,17,14,11,13,18,57,37,52,49,148,18,47,13,16,14,24,27,26,11,19,20,23,29,24,5,10,23,20,81,165,46,9,70,6,31,149,144,173,187,52,56,23,40,40,54,42,65],
      "delta_lng":[0,-114,-32,-69,-54,-49,-47,-35,-21,-29,-15,-19,-15,-12,-28,-21,-9,-8,2,0,0,4,20,8,6,33,38,40,71,44,75,48,31,34,36,30,16,22,23,22,62,8,36,97,97,95,60,50,30,44,35,18,12,10,18,9,4,2,-3,-4,-16,-10,-15,-14,-72,-12,-15,-12,-30,-14,-7,-5,-9,-7,-13,-40,-9,-8,-7,-27,-29,-9,-4,-5,-4,-4,0,4,7,20,15,12,36,0,31,28,8,12,10,7,2,0,3,2,1,0,-1,-4,-9,-6,-13,-6,-9,-12,-11,-16,-9,-12,-11,-8,-5,-8,-4,0,-2,-4,-8,-1,-2,2,3,3,0,4,0,0,3,2,1,3,3,0,3,1,0,0,-2,-6,-2,-3,-3,-4,-3,-3,-6,-2,-1,0,-3,-1,0,-4,0,-3,-2,0,5,9,12,35,9,19,19,14,16,6,37,16,20,47,32,85,93,78,46,67,42,46,37,28,14,11,24,13,19,19,25,11,7,6,4,1,6,2,1,2,-2,-4,-4,-3,-4,-3,-1,-7,-3,-6,-4,-1,-2,-4,-5,-13,-22,-32,-10,-9,-6,-3,-8,-13,-7,-14,-42,-6,-19,-23,-35,-6,-26,-14,-33,-23,-118,-26,-32,-46,-79,-58,-20,-9,-8,-4,-6,-16,-38,-38,-12,-38,-55,-6,-14,-1,-1,-1,-4,-3,-6,-9,0,1,9,2,10,16,0,2,0,0,9,5,2,-7,-13,-9,-21,-27,-33,-44,-3,-48,-33,-53,-61,-124,-84,-46,-29,-24,-20,-6,-27,-57,-114,-29,-53,-66,-12,-14,-17,-16,-14,-26,-8,-9,-13,-12,-10,-14,-20,-70,-55,-89,-81,-257,-28,-80,-24,-26,-22,-29,-31,-25,-10,-15,-13,-12,-13,-10,-3,-4,-10,-6,-19,-39,-12,-2,-17,-1,-9,-37,-32,-36,-44,-11,-3,-1,5,8,10,24,38]
    }
  ]
}