{
  "code":30017,
  "name":"名鉄広見線",
  "color":"#2E8B57",
  "symbol":"HM",
  "station_list":[
    {"code":3001518,"id":"65b458","name":"犬山","name_kana":"いぬやま","lat":35.379871,"lng":136.945536,"prefecture":23,"numbering":[{"symbol":"IY","index":"15"}],"lines":[30015,30017,30018],"attr":"eco","postal_code":"484-0081","address":"犬山市大字犬山字富士見町"},
    {"code":3001702,"id":"f5e920","name":"富岡前","name_kana":"とみおかまえ","lat":35.379508,"lng":136.962112,"prefecture":23,"numbering":[{"index":"01"}],"lines":[30017],"attr":"cool","postal_code":"484-0092","address":"犬山市大字富岡字株池１２７-３"},
    {"code":3001703,"id":"a8b624","name":"善師野","name_kana":"ぜんじの","lat":35.389744,"lng":136.980027,"prefecture":23,"numbering":[{"index":"02"}],"lines":[30017],"attr":"cool","postal_code":"484-0003","address":"犬山市大字善師野字真土５-２"},
    {"code":3001704,"id":"e94e5b","name":"西可児","name_kana":"にしかに","lat":35.404685,"lng":137.010616,"prefecture":21,"numbering":[{"index":"03"}],"lines":[30017],"attr":"cool","postal_code":"509-0256","address":"可児市東帷子３３４-３"},
    {"code":3001705,"id":"0efd2c","name":"可児川","name_kana":"かにがわ","lat":35.41812,"lng":137.01847,"prefecture":21,"numbering":[{"index":"04"}],"lines":[30017],"attr":"cool","postal_code":"509-0206","address":"可児市土田字北割田１３５６-７"},
    {"code":3001706,"id":"f69224","name":"日本ライン今渡","name_kana":"にほんらいんいまわたり","lat":35.432302,"lng":137.036818,"prefecture":21,"numbering":[{"index":"05"}],"lines":[30017],"attr":"heat","postal_code":"509-0207","address":"可児市今渡字野市場４０６-２"},
    {"code":3001707,"id":"9f19da","name":"新可児","name_kana":"しんかに","lat":35.423282,"lng":137.055622,"prefecture":21,"numbering":[{"index":"06"}],"lines":[30017],"attr":"heat","postal_code":"509-0203","address":"可児市下恵土字前田１２２５-１"},
    {"code":3001708,"id":"8007d2","name":"明智(名古屋鉄道)","name_kana":"あけち","lat":35.433208,"lng":137.087295,"prefecture":21,"numbering":[{"index":"07"}],"lines":[30017],"attr":"eco","postal_code":"509-0217","address":"岐阜県可児市平貝戸川田551"},
    {"code":3001709,"id":"9a21d8","name":"顔戸","name_kana":"ごうど","lat":35.434522,"lng":137.105154,"prefecture":21,"numbering":[{"index":"08"}],"lines":[30017],"attr":"eco","postal_code":"505-0122","address":"可児郡御嵩町大字顔戸山之神３１８-３"},
    {"code":3001710,"id":"9107cc","name":"御嵩口","name_kana":"みたけぐち","lat":35.431281,"lng":137.121741,"prefecture":21,"numbering":[{"index":"09"}],"lines":[30017],"attr":"eco","postal_code":"505-0121","address":"可児郡御嵩町中字茶園原４７３"},
    {"code":3001711,"id":"752575","name":"御嵩","name_kana":"みたけ","lat":35.429723,"lng":137.127527,"prefecture":21,"numbering":[{"index":"10"}],"lines":[30017],"attr":"eco","postal_code":"505-0121","address":"可児郡御嵩町中字西之門２３０２-２"}
  ],
  "north":35.43521,
  "south":35.3765,
  "east":137.12789,
  "west":136.94491,
  "polyline_list":[
    {
      "start":"新可児",
      "end":"新可児分岐",
      "lat":35.42292,
      "lng":137.05567,
      "delta_lat":[0,68,61,60],
      "delta_lng":[0,1,0,0]
    },
    {
      "start":"新可児分岐",
      "end":"御嵩",
      "lat":35.42481,
      "lng":137.05568,
      "delta_lat":[0,36,16,46,83,33,36,21,14,6,5,-2,-3,-9,-11,-50,-4,-22,-16,-16,-17,-7,-7,-22,-1,2,10,9,11,47,47,141,70,80,83,140,26,22,15,14,13,8,1,5,7,0,4,5,18,18,2,0,0,2,2,9,38,0,14,13,0,44,7,3,1,-1,-2,-2,-9,-3,-132,-15,-17,-22,-23,-23,-21,-92,-56,-19,-56,-25,-17,-12,-1,0],
      "delta_lng":[0,21,19,60,144,74,85,67,50,40,63,60,59,49,44,136,10,46,31,33,52,27,70,295,27,24,80,32,36,161,103,293,126,126,131,217,47,47,38,47,48,45,2,34,46,4,28,36,160,140,393,349,359,23,31,37,102,4,35,36,2,124,29,24,50,30,47,86,237,11,699,67,29,38,31,24,15,62,36,11,38,28,38,53,360,70]
    },
    {
      "start":"犬山",
      "end":"新可児分岐",
      "lat":35.38052,
      "lng":136.94573,
      "delta_lat":[0,-123,-118,-54,-40,-23,-11,-13,-9,-9,-1,2,19,30,16,29,64,6,27,96,4,19,15,26,244,72,290,159,15,14,122,36,50,4,41,24,14,4,0,-13,-9,-9,-12,-9,-19,-70,-7,2,3,6,5,8,58,18,16,65,23,22,622,11,297,95,61,42,75,71,25,33,36,56,139,69,44,61,52,91,34,92,43,35,33,19,33,60,144,52,49,15,13,48,46,77,22,90,13,19,65,53,35,52,72,260,154,233,232,32,22,13,7,3,10,1,0,0,14,13,5,5,0,3,-3,-4,-15,-15,-23,-9,-7,-3,-10,-13,-38,-30,-42,-28,-31,-290,-229],
      "delta_lng":[0,-40,-42,9,19,15,17,21,24,41,42,39,80,92,50,121,370,41,150,531,19,90,65,73,402,121,482,266,22,23,192,58,78,9,76,61,66,68,64,235,180,160,199,40,50,184,48,52,70,51,46,32,131,39,37,147,31,21,404,6,181,63,51,40,72,75,30,38,54,92,259,125,70,79,51,71,27,72,34,33,19,3,-1,-20,-74,-28,-25,-7,-7,-26,-27,-38,-11,-42,-5,0,4,19,20,43,83,311,189,286,278,43,38,45,49,103,355,33,46,2,405,520,183,171,31,93,65,47,72,55,48,18,14,6,15,18,38,20,17,8,4,-5,-1]
    }
  ]
}