{
  "code":30016,
  "name":"名鉄各務原線",
  "symbol":"KG",
  "station_list":[
    {"code":3000160,"id":"80de5b","name":"名鉄岐阜","name_kana":"めいてつぎふ","lat":35.411136,"lng":136.760066,"prefecture":21,"numbering":[{"symbol":"NH","color":"#DC143C","index":"60"}],"lines":[30001,30016],"attr":"eco","postal_code":"500-8833","address":"岐阜市神田町９丁目"},
    {"code":3001617,"id":"0dfda8","name":"田神","name_kana":"たがみ","lat":35.411261,"lng":136.772189,"prefecture":21,"numbering":[{"color":"#2E8B57","index":"16"}],"lines":[30016],"attr":"eco","postal_code":"500-8152","address":"岐阜市入舟町１丁目"},
    {"code":3001616,"id":"8a07ba","name":"細畑","name_kana":"ほそばた","lat":35.401637,"lng":136.785141,"prefecture":21,"numbering":[{"color":"#2E8B57","index":"15"}],"lines":[30016],"attr":"eco","postal_code":"500-8247","address":"岐阜市長森細畑"},
    {"code":3001615,"id":"8c04c8","name":"切通","name_kana":"きりどおし","lat":35.400257,"lng":136.79564,"prefecture":21,"numbering":[{"color":"#2E8B57","index":"14"}],"lines":[30016],"attr":"eco","postal_code":"500-0000","address":"岐阜市南長森切通"},
    {"code":3001614,"id":"ec4b49","name":"手力","name_kana":"てぢから","lat":35.398269,"lng":136.804472,"prefecture":21,"numbering":[{"color":"#2E8B57","index":"13"}],"lines":[30016],"attr":"eco","postal_code":"500-8233","address":"岐阜市蔵前７丁目"},
    {"code":3001613,"id":"034de1","name":"高田橋","name_kana":"たかだばし","lat":35.398383,"lng":136.811488,"prefecture":21,"numbering":[{"color":"#2E8B57","index":"12"}],"lines":[30016],"attr":"eco","postal_code":"500-8224","address":"岐阜市高田２丁目"},
    {"code":3001612,"id":"4566ca","name":"新加納","name_kana":"しんかのう","lat":35.39938,"lng":136.824414,"prefecture":21,"numbering":[{"color":"#2E8B57","index":"11"}],"lines":[30016],"attr":"eco","postal_code":"504-0034","address":"各務原市那加浜見町１丁目"},
    {"code":3001611,"id":"e1459d","name":"新那加","name_kana":"しんなか","lat":35.400097,"lng":136.83386,"prefecture":21,"numbering":[{"color":"#2E8B57","index":"10"}],"lines":[30016],"attr":"eco","postal_code":"504-0961","address":"各務原市那加新那加町"},
    {"code":3001610,"id":"eb95d3","name":"市民公園前","name_kana":"しみんこうえんまえ","lat":35.400572,"lng":136.841829,"prefecture":21,"numbering":[{"color":"#2E8B57","index":"09"}],"lines":[30016],"attr":"eco","postal_code":"504-0911","address":"各務原市那加門前町４丁目"},
    {"code":3001609,"id":"dbafcd","name":"各務原市役所前","name_kana":"かかみがはらしやくしょまえ","lat":35.400869,"lng":136.847067,"prefecture":21,"numbering":[{"color":"#2E8B57","index":"08"}],"lines":[30016],"attr":"eco","postal_code":"504-0912","address":"各務原市那加桜町２丁目"},
    {"code":3001608,"id":"886725","name":"六軒(岐阜)","name_kana":"ろっけん","lat":35.40105,"lng":136.861554,"prefecture":21,"numbering":[{"color":"#2E8B57","index":"07"}],"lines":[30016],"attr":"heat","postal_code":"504-0905","address":"各務原市蘇原六軒町４丁目"},
    {"code":3001607,"id":"ad720a","name":"三柿野","name_kana":"みかきの","lat":35.400156,"lng":136.876084,"prefecture":21,"numbering":[{"color":"#2E8B57","index":"06"}],"lines":[30016],"attr":"heat","postal_code":"504-0904","address":"各務原市蘇原三柿野町字往来添"},
    {"code":3001606,"id":"224603","name":"二十軒","name_kana":"にじっけん","lat":35.400098,"lng":136.889307,"prefecture":21,"numbering":[{"color":"#2E8B57","index":"05"}],"lines":[30016],"attr":"heat","postal_code":"509-0146","address":"各務原市鵜沼三ツ池町３丁目"},
    {"code":3001605,"id":"1f8551","name":"名電各務原","name_kana":"めいでんかかみがはら","lat":35.402518,"lng":136.900981,"prefecture":21,"numbering":[{"color":"#2E8B57","index":"04"}],"lines":[30016],"attr":"heat","postal_code":"509-0141","address":"各務原市鵜沼各務原町２丁目"},
    {"code":3001604,"id":"4d8488","name":"苧ヶ瀬","name_kana":"おがせ","lat":35.403273,"lng":136.912266,"prefecture":21,"numbering":[{"color":"#2E8B57","index":"03"}],"lines":[30016],"attr":"cool","postal_code":"509-0141","address":"岐阜県各務原市鵜沼各務原町五丁目250"},
    {"code":3001603,"id":"713ee1","name":"羽場(岐阜)","name_kana":"はば","lat":35.40119,"lng":136.921535,"prefecture":21,"numbering":[{"color":"#2E8B57","index":"02"}],"lines":[30016],"attr":"cool","postal_code":"509-0135","address":"各務原市鵜沼羽場町６丁目"},
    {"code":3001602,"id":"9b2fcc","name":"鵜沼宿","name_kana":"うぬまじゅく","lat":35.400015,"lng":136.932567,"prefecture":21,"numbering":[{"color":"#2E8B57","index":"01"}],"lines":[30016],"attr":"cool","postal_code":"509-0132","address":"各務原市鵜沼西町４丁目"},
    {"code":3001520,"id":"944974","name":"新鵜沼","name_kana":"しんうぬま","lat":35.396799,"lng":136.944314,"prefecture":21,"numbering":[{"symbol":"IY","color":"#2E8B57","index":"17"}],"lines":[30015,30016],"attr":"cool","postal_code":"509-0125","address":"各務原市鵜沼南町"}
  ],
  "north":35.41164,
  "south":35.39635,
  "east":136.94445,
  "west":136.76062,
  "polyline_list":[
    {
      "start":"名鉄岐阜",
      "end":"新鵜沼",
      "lat":35.41158,
      "lng":136.76062,
      "delta_lat":[0,-4,-7,2,11,4,-2,-13,-65,-7,1,10,37,4,0,-1,1,-33,-18,-9,-117,-32,-33,-29,-33,-28,-53,-49,-50,-95,-10,-22,-141,-31,-14,-14,-30,-32,-36,-32,-10,-9,-10,-4,-2,-2,-10,-21,-10,-14,-13,-42,-27,-31,-130,-15,-9,-7,-1,5,0,7,7,1,1,0,8,3,17,8,22,36,5,28,37,10,2,3,25,4,2,2,5,6,17,4,2,13,3,2,2,3,1,1,-4,-12,-83,-7,0,-4,2,1,3,7,3,4,-5,-1,0,0,0,1,2,7,17,51,96,50,29,33,29,14,13,6,3,-1,-4,-10,-4,-6,-18,-4,-45,-98,-49,-12,-6,-18,-37,-12,-14,-7,2,1,-9,-20,-18,-15,-61,-6,-2,-71,-22,-16,-27,-27,-97],
      "delta_lng":[0,81,92,28,62,72,62,73,270,29,36,51,140,43,76,80,173,124,54,27,356,66,51,35,34,24,37,16,8,11,0,4,14,9,5,4,18,27,41,48,23,26,36,19,15,15,214,385,115,66,43,124,78,83,388,58,46,53,34,140,89,455,164,84,28,23,184,111,396,95,138,227,84,346,494,130,29,49,366,150,33,65,93,98,349,98,41,865,202,213,111,72,189,84,33,84,469,60,25,33,250,46,116,88,41,84,471,385,101,26,119,93,73,68,108,188,354,178,103,126,106,85,105,105,179,85,96,85,31,25,77,15,197,429,214,46,34,82,165,55,84,64,157,209,84,100,93,78,343,31,14,387,122,60,52,33,37]
    }
  ]
}