{
  "code":30013,
  "name":"名鉄津島線",
  "color":"#FF6347",
  "symbol":"TB",
  "station_list":[
    {"code":3000142,"id":"8aac8a","name":"須ヶ口","name_kana":"すかぐち","lat":35.198684,"lng":136.846229,"prefecture":23,"numbering":[{"symbol":"NH","color":"#DC143C","index":"42"}],"lines":[30001,30013],"attr":"heat","postal_code":"452-0912","address":"愛知県清須市須ヶ口駅前一丁目1"},
    {"code":3001302,"id":"e991bf","name":"甚目寺","name_kana":"じもくじ","lat":35.195953,"lng":136.825492,"prefecture":23,"numbering":[{"index":"01"}],"lines":[30013],"attr":"cool","postal_code":"490-1111","address":"愛知県あま市甚目寺郷浦"},
    {"code":3001303,"id":"b8fd0e","name":"七宝","name_kana":"しっぽう","lat":35.195775,"lng":136.806413,"prefecture":23,"numbering":[{"index":"02"}],"lines":[30013],"attr":"cool","postal_code":"497-0001","address":"愛知県あま市七宝町沖之島返上地82-1"},
    {"code":3001304,"id":"d7d774","name":"木田","name_kana":"きだ","lat":35.195328,"lng":136.787865,"prefecture":23,"numbering":[{"index":"03"}],"lines":[30013],"attr":"cool","postal_code":"490-1222","address":"愛知県あま市木田道下54-2"},
    {"code":3001305,"id":"aa93a2","name":"青塚","name_kana":"あおつか","lat":35.198674,"lng":136.76708,"prefecture":23,"numbering":[{"index":"04"}],"lines":[30013],"attr":"heat","postal_code":"496-0001","address":"津島市青塚町字高畑３０４-４"},
    {"code":3001306,"id":"8a09b0","name":"勝幡","name_kana":"しょばた","lat":35.195143,"lng":136.750082,"prefecture":23,"numbering":[{"index":"05"}],"lines":[30013],"attr":"heat","postal_code":"496-8001","address":"愛西市勝幡町五俵入２２６６-４"},
    {"code":3001307,"id":"c366f2","name":"藤浪","name_kana":"ふじなみ","lat":35.188911,"lng":136.738766,"prefecture":23,"numbering":[{"index":"06"}],"lines":[30013],"attr":"heat","postal_code":"496-8011","address":"愛西市諏訪町中島３６７"},
    {"code":3001308,"id":"a0fec5","name":"津島","name_kana":"つしま","lat":35.177982,"lng":136.730995,"prefecture":23,"numbering":[{"index":"07"}],"lines":[30013,30014],"attr":"cool","postal_code":"496-0802","address":"津島市錦町１-１"}
  ],
  "north":35.19968,
  "south":35.17761,
  "east":136.84654,
  "west":136.73078,
  "polyline_list":[
    {
      "start":"津島",
      "end":"須ヶ口",
      "lat":35.17761,
      "lng":136.73113,
      "delta_lat":[0,84,171,38,77,30,19,30,25,16,27,11,101,4,96,50,73,61,139,38,63,35,34,27,36,53,25,32,24,24,79,91,6,-15,38,82,78,70,46,240,18,10,6,4,-1,-10,-4,-3,-9,-47,-25,-51,-19,-9,-50,-16,-31,-38,-8,-46,-31,-21,-11,-3,3,5,4,2,7,22,1,9,0,1,3,4,1,8,-2,0,0,-5,1,7,1,5,7,2,5,6,12,49,11,15,146,18,62,19,10,3,2,-6,-14,-11,-88],
      "delta_lng":[0,-12,-20,-3,8,5,6,17,18,15,28,14,117,5,113,61,86,70,164,48,76,45,40,32,43,62,30,41,39,53,178,201,13,19,77,151,168,156,104,541,46,32,39,72,69,83,22,13,53,269,147,310,118,55,280,127,261,301,27,134,87,60,44,24,134,143,170,41,300,769,64,326,21,13,129,169,31,392,155,44,53,336,380,245,150,417,287,164,27,31,38,119,23,34,280,30,116,45,33,33,32,46,57,24,158]
    }
  ]
}