{
  "code":30015,
  "name":"名鉄犬山線",
  "color":"#2E8B57",
  "symbol":"IY",
  "station_list":[
    {"code":3000136,"id":"0818f6","name":"名鉄名古屋","name_kana":"めいてつなごや","lat":35.169252,"lng":136.884187,"prefecture":23,"numbering":[{"symbol":"NH","color":"#DC143C","index":"36"}],"lines":[30001,30008,30015],"attr":"heat","postal_code":"450-0002","address":"愛知県名古屋市中村区名駅1-2-1"},
    {"code":3000137,"id":"dfcbba","name":"栄生","name_kana":"さこう","lat":35.183687,"lng":136.873051,"prefecture":23,"numbering":[{"symbol":"NH","color":"#DC143C","index":"37"}],"lines":[30001,30015],"attr":"heat","postal_code":"451-0000","address":"名古屋市西区藤ノ宮通３丁目"},
    {"code":3000138,"id":"f153f5","name":"東枇杷島","name_kana":"ひがしびわじま","lat":35.189808,"lng":136.870168,"prefecture":23,"numbering":[{"symbol":"NH","color":"#DC143C","index":"38"}],"lines":[30001,30015],"attr":"heat","postal_code":"451-0053","address":"名古屋市西区枇杷島通３丁目"},
    {"code":3001504,"id":"b17d33","name":"下小田井","name_kana":"しもおたい","lat":35.201878,"lng":136.870638,"prefecture":23,"numbering":[{"index":"01"}],"lines":[30015],"attr":"cool","postal_code":"452-0022","address":"清須市西枇杷島町上新"},
    {"code":3001505,"id":"bd61ab","name":"中小田井","name_kana":"なかおたい","lat":35.214647,"lng":136.876772,"prefecture":23,"numbering":[{"index":"02"}],"lines":[30015],"attr":"cool","postal_code":"452-0822","address":"名古屋市西区中小田井"},
    {"code":3001506,"id":"a692a3","name":"上小田井","name_kana":"かみおたい","lat":35.223482,"lng":136.876941,"prefecture":23,"numbering":[{"index":"03"}],"lines":[30015,99516],"attr":"cool","postal_code":"452-0816","address":"名古屋市西区貴生町"},
    {"code":3001507,"id":"f72bf5","name":"西春","name_kana":"にしはる","lat":35.244627,"lng":136.871235,"prefecture":23,"numbering":[{"index":"04"}],"lines":[30015],"attr":"cool","postal_code":"481-0041","address":"北名古屋市九之坪南町"},
    {"code":3001508,"id":"0b681e","name":"徳重・名古屋芸大","name_kana":"とくしげ・なごやげいだい","lat":35.256045,"lng":136.873384,"prefecture":23,"numbering":[{"index":"05"}],"lines":[30015],"attr":"cool","postal_code":"481-0038","address":"北名古屋市徳重大畑"},
    {"code":3001509,"id":"5fc92f","name":"大山寺","name_kana":"たいさんじ","lat":35.263508,"lng":136.874748,"prefecture":23,"numbering":[{"index":"06"}],"lines":[30015],"attr":"cool","postal_code":"482-0014","address":"岩倉市大山寺町東出"},
    {"code":3001510,"id":"f9abd0","name":"岩倉(愛知)","name_kana":"いわくら","lat":35.277972,"lng":136.873511,"prefecture":23,"numbering":[{"index":"07"}],"lines":[30015],"attr":"cool","postal_code":"482-0043","address":"岩倉市本町１丁目"},
    {"code":3001511,"id":"6f5fb9","name":"石仏","name_kana":"いしぼとけ","lat":35.295545,"lng":136.871144,"prefecture":23,"numbering":[{"index":"08"}],"lines":[30015],"attr":"heat","postal_code":"482-0034","address":"岩倉市石仏町"},
    {"code":3001512,"id":"201c1c","name":"布袋","name_kana":"ほてい","lat":35.317135,"lng":136.872987,"prefecture":23,"numbering":[{"index":"09"}],"lines":[30015],"attr":"heat","postal_code":"483-8141","address":"江南市布袋町西布"},
    {"code":3001513,"id":"1b4f26","name":"江南(愛知)","name_kana":"こうなん","lat":35.33475,"lng":136.872109,"prefecture":23,"numbering":[{"index":"10"}],"lines":[30015],"attr":"heat","postal_code":"483-8213","address":"江南市古知野町字朝日"},
    {"code":3001514,"id":"604067","name":"柏森","name_kana":"かしわもり","lat":35.344807,"lng":136.900181,"prefecture":23,"numbering":[{"index":"11"}],"lines":[30015],"attr":"heat","postal_code":"480-0103","address":"丹羽郡扶桑町柏森天神"},
    {"code":3001515,"id":"7e7f21","name":"扶桑","name_kana":"ふそう","lat":35.359557,"lng":136.91597,"prefecture":23,"numbering":[{"index":"12"}],"lines":[30015],"attr":"heat","postal_code":"480-0102","address":"丹羽郡扶桑町大字高雄字下山"},
    {"code":3001516,"id":"6b6030","name":"木津用水","name_kana":"こつようすい","lat":35.366914,"lng":136.925977,"prefecture":23,"numbering":[{"index":"13"}],"lines":[30015],"attr":"eco","postal_code":"480-0102","address":"丹羽郡扶桑町大字高雄字米の山"},
    {"code":3001517,"id":"fcf795","name":"犬山口","name_kana":"いぬやまぐち","lat":35.374212,"lng":136.939945,"prefecture":23,"numbering":[{"index":"14"}],"lines":[30015],"attr":"eco","postal_code":"484-0081","address":"犬山市大字犬山字末友"},
    {"code":3001518,"id":"65b458","name":"犬山","name_kana":"いぬやま","lat":35.379871,"lng":136.945536,"prefecture":23,"numbering":[{"index":"15"}],"lines":[30015,30017,30018],"attr":"eco","postal_code":"484-0081","address":"犬山市大字犬山字富士見町"},
    {"code":3001519,"id":"603736","name":"犬山遊園","name_kana":"いぬやまゆうえん","lat":35.390331,"lng":136.946894,"prefecture":23,"numbering":[{"index":"16"}],"lines":[30015],"attr":"eco","postal_code":"484-0081","address":"犬山市大字犬山字端泉寺"},
    {"code":3001520,"id":"944974","name":"新鵜沼","name_kana":"しんうぬま","lat":35.396799,"lng":136.944314,"prefecture":21,"numbering":[{"index":"17"}],"lines":[30015,30016],"attr":"cool","postal_code":"509-0125","address":"各務原市鵜沼南町"}
  ],
  "north":35.39732,
  "south":35.19415,
  "east":136.94694,
  "west":136.86566,
  "polyline_list":[
    {
      "start":"西枇杷島",
      "end":"西枇杷島デルタ",
      "lat":35.19514,
      "lng":136.86566,
      "delta_lat":[0,22,22,34,27,23,29],
      "delta_lng":[0,66,48,57,36,24,25]
    },
    {
      "start":"西枇杷島本線",
      "end":"西枇杷島デルタ",
      "lat":35.19415,
      "lng":136.86901,
      "delta_lat":[0,36,11,16,23,29,23,27,32,59],
      "delta_lng":[0,-43,-9,-11,-14,-10,-6,-2,0,16]
    },
    {
      "start":"西枇杷島デルタ",
      "end":"新鵜沼",
      "lat":35.19671,
      "lng":136.86822,
      "delta_lat":[0,88,131,300,105,212,464,56,96,318,67,231,64,43,68,44,98,19,71,134,20,59,16,171,506,9,117,106,154,99,294,63,41,25,6,58,74,221,7,43,129,68,327,192,12,225,52,65,55,44,73,154,45,23,5,440,105,54,69,664,111,479,74,112,33,21,14,31,19,56,41,36,25,42,38,26,23,20,22,137,63,155,143,74,248,94,36,34,107,138,61,66,2,198,188,242,83,97,39,68,76,62,273,551,157,136,198,87,61,22,65,69,118,327,144,14,53,18,51,56,56,20,35,24,31,47,54,49,134,19,26,34,29,27,31,33,88,159,97,26,12,3,9,21,25,29,24,1,37,42,41,6,18,7,29,32,24,66,97,68,82,66,84,94,258,128,128,120,38,84,41,56,101,98,45,32,44,191,86,73,41,58,49,15,13,169,73,5,53,110,78,34,23,28,21,6,39,27,40,42,37,65,62,59,118,123,25,125,90,31,26,3,105,322,211,103,9,33,49,32,91,103,11,39,70,106,97],
      "delta_lng":[0,40,60,134,49,100,228,27,47,159,35,111,27,12,9,-3,-14,-8,-31,-76,-10,-34,-9,-99,-296,-6,-69,-50,-54,-18,-47,-7,0,4,1,8,13,44,2,9,23,12,60,40,3,41,9,12,11,8,13,28,8,4,1,85,21,7,-1,-72,-11,-51,-9,-27,-18,-18,-13,-38,-34,-79,-46,-37,-23,-32,-16,-8,-5,0,2,16,9,22,20,11,36,15,4,5,15,9,2,3,0,15,13,21,8,7,5,8,7,6,25,44,15,11,19,8,2,0,-13,-16,-23,-56,-29,-4,-12,-3,-10,-12,-8,-2,0,2,7,15,27,31,77,21,32,67,59,66,81,83,224,410,250,73,46,10,53,111,115,166,128,1,199,222,214,32,99,41,120,81,41,102,152,93,81,58,66,73,193,97,100,92,30,63,30,43,74,80,51,45,73,337,148,126,74,101,86,25,23,297,127,9,93,187,135,80,69,90,72,17,117,68,75,54,35,44,29,20,42,40,8,36,18,5,5,1,4,24,17,3,-2,-10,-24,-19,-59,-67,-7,-18,-27,-17,-37]
    }
  ]
}