{
  "code":30017,
  "id":"4790a0",
  "name":"名鉄広見線",
  "name_kana":"めいてつひろみせん",
  "station_size":11,
  "company_code":20,
  "color":"#2E8B57",
  "symbol":"HM",
  "station_list":[
    {"code":3001518,"id":"65b458","name":"犬山","name_kana":"いぬやま","lat":35.379871,"lng":136.945536,"prefecture":23,"numbering":[{"symbol":"IY","index":"15"}],"lines":[30015,30017,30018],"attr":"eco","postal_code":"484-0081","address":"犬山市大字犬山字富士見町","next":[3001519,3001517,3001602,3001813,3001702],"voronoi":{"lat":35.366806,"lng":136.953542,"delta_lat":[0,-86,19571,397,-2587],"delta_lng":[0,-353,-19810,616,19926]}},
    {"code":3001702,"id":"f5e920","name":"富岡前","name_kana":"とみおかまえ","lat":35.379508,"lng":136.962112,"prefecture":23,"numbering":[{"index":"01"}],"lines":[30017],"attr":"cool","postal_code":"484-0092","address":"犬山市大字富岡字株池１２７-３","next":[3001519,3001813,3001703,3001518],"voronoi":{"lat":35.397705,"lng":136.963596,"delta_lat":[0,-42760,11860,17295],"delta_lng":[0,24432,-34487,379]}},
    {"code":3001703,"id":"a8b624","name":"善師野","name_kana":"ぜんじの","lat":35.389744,"lng":136.980027,"prefecture":23,"numbering":[{"index":"02"}],"lines":[30017],"attr":"cool","postal_code":"484-0003","address":"犬山市大字善師野字真土５-２","next":[3001812,3001704,1141607,3001519,1141110,3001813,3001702,1141606,1150704],"voronoi":{"lat":35.40901,"lng":136.98956,"delta_lat":[0,-2064,-8711,-530,-42760,-21480,-1697,163,9941],"delta_lng":[0,-23919,-2035,-9,24432,29812,3356,320,836]}},
    {"code":3001704,"id":"e94e5b","name":"西可児","name_kana":"にしかに","lat":35.404685,"lng":137.010616,"prefecture":21,"numbering":[{"index":"03"}],"lines":[30017],"attr":"cool","postal_code":"509-0256","address":"可児市東帷子３３４-３","next":[3001705,3001703,1150705,1141607,1150704],"voronoi":{"lat":35.341873,"lng":137.022353,"delta_lat":[0,67138,12357,-23082,-37817],"delta_lng":[0,-32793,7937,39484,-7766]}},
    {"code":3001705,"id":"0efd2c","name":"可児川","name_kana":"かにがわ","lat":35.41812,"lng":137.01847,"prefecture":21,"numbering":[{"index":"04"}],"lines":[30017],"attr":"cool","postal_code":"509-0206","address":"可児市土田字北割田１３５６-７","next":[3001706,3001704,1141608,1150706,9952502,1150705,1141607],"voronoi":{"lat":35.432304,"lng":137.006971,"delta_lat":[0,-567,-19946,-9355,-4150,23082,6596],"delta_lng":[0,15629,15418,1195,-2232,-39484,1306]}},
    {"code":3001706,"id":"f69224","name":"日本ライン今渡","name_kana":"にほんらいんいまわたり","lat":35.432302,"lng":137.036818,"prefecture":21,"numbering":[{"index":"05"}],"lines":[30017],"attr":"heat","postal_code":"509-0207","address":"可児市今渡字野市場４０６-２","next":[3001705,1150707,1141608,3001707,1150706],"voronoi":{"lat":35.432798,"lng":137.048621,"delta_lat":[0,11662,-12724,-19946,16748],"delta_lng":[0,-16257,-9765,15418,8561]}},
    {"code":3001707,"id":"9f19da","name":"新可児","name_kana":"しんかに","lat":35.423282,"lng":137.055622,"prefecture":21,"numbering":[{"index":"06"}],"lines":[30017],"attr":"heat","postal_code":"509-0203","address":"可児市下恵土字前田１２２５-１","next":[1150707,1150706,1150705,3001706,3001708],"voronoi":{"lat":35.412218,"lng":137.073093,"delta_lat":[0,16321,4260,9166,-28889],"delta_lng":[0,-26514,2043,18537,9054]}},
    {"code":3001708,"id":"8007d2","name":"明智(名古屋鉄道)","name_kana":"あけち","lat":35.433208,"lng":137.087295,"prefecture":21,"numbering":[{"index":"07"}],"lines":[30017],"attr":"eco","postal_code":"509-0217","address":"岐阜県可児市平貝戸川田551","next":[1141610,1150705,3001709,1150704,1150707,1141609,3001707],"voronoi":{"lat":35.441965,"lng":137.067159,"delta_lat":[0,5080,13262,7102,-65414,2254,8827],"delta_lng":[0,1323,8026,17249,4813,-7584,-14773]}},
    {"code":3001709,"id":"9a21d8","name":"顔戸","name_kana":"ごうど","lat":35.434522,"lng":137.105154,"prefecture":21,"numbering":[{"index":"08"}],"lines":[30017],"attr":"eco","postal_code":"505-0122","address":"可児郡御嵩町大字顔戸山之神３１８-３","next":[1141610,1141611,3001708,1150704,3001710],"voronoi":{"lat":35.397037,"lng":137.10644,"delta_lat":[0,4957,65414,9632,3665],"delta_lng":[0,-7870,-4813,12649,16383]}},
    {"code":3001710,"id":"9107cc","name":"御嵩口","name_kana":"みたけぐち","lat":35.431281,"lng":137.121741,"prefecture":21,"numbering":[{"index":"09"}],"lines":[30017],"attr":"eco","postal_code":"505-0121","address":"可児郡御嵩町中字茶園原４７３","next":[1150703,1141612,1141611,1150704,3001709,3001711],"voronoi":{"lat":35.486776,"lng":137.137479,"delta_lat":[0,-6071,-83668,-1605,-2902,94311],"delta_lng":[0,-14691,-16349,1593,6377,25395]}},
    {"code":3001711,"id":"752575","name":"御嵩","name_kana":"みたけ","lat":35.429723,"lng":137.127527,"prefecture":21,"numbering":[{"index":"10"}],"lines":[30017],"attr":"eco","postal_code":"505-0121","address":"可児郡御嵩町中字西之門２３０２-２","next":[1141116,1141612,1141613,1141115,1141114,3001710,1150702,1150703],"voronoi":{"lat":35.381408,"lng":137.137726,"delta_lat":[0,54356,27195,16203,11810,-4130,-94311,-8443],"delta_lng":[0,69759,13248,1699,-30840,-51787,-25395,15341]}}
  ],
  "north":35.43521,
  "south":35.3765,
  "east":137.12789,
  "west":136.94491,
  "polyline_list":[
    {
      "start":"新可児",
      "end":"新可児分岐",
      "lat":35.42292,
      "lng":137.05567,
      "delta_lat":[0,68,61,60],
      "delta_lng":[0,1,0,0]
    },
    {
      "start":"新可児分岐",
      "end":"御嵩",
      "lat":35.42481,
      "lng":137.05568,
      "delta_lat":[0,36,16,46,83,33,36,21,14,6,5,-2,-3,-9,-11,-50,-4,-22,-16,-16,-17,-7,-7,-22,-1,2,10,9,11,47,47,141,70,80,83,140,26,22,15,14,13,8,1,5,7,0,4,5,18,18,2,0,0,2,2,9,38,0,14,13,0,44,7,3,1,-1,-2,-2,-9,-3,-132,-15,-17,-22,-23,-23,-21,-92,-56,-19,-56,-25,-17,-12,-1,0],
      "delta_lng":[0,21,19,60,144,74,85,67,50,40,63,60,59,49,44,136,10,46,31,33,52,27,70,295,27,24,80,32,36,161,103,293,126,126,131,217,47,47,38,47,48,45,2,34,46,4,28,36,160,140,393,349,359,23,31,37,102,4,35,36,2,124,29,24,50,30,47,86,237,11,699,67,29,38,31,24,15,62,36,11,38,28,38,53,360,70]
    },
    {
      "start":"犬山",
      "end":"新可児分岐",
      "lat":35.38052,
      "lng":136.94573,
      "delta_lat":[0,-123,-118,-54,-40,-23,-11,-13,-9,-9,-1,2,19,30,16,29,64,6,27,96,4,19,15,26,244,72,290,159,15,14,122,36,50,4,41,24,14,4,0,-13,-9,-9,-12,-9,-19,-70,-7,2,3,6,5,8,58,18,16,65,23,22,622,11,297,95,61,42,75,71,25,33,36,56,139,69,44,61,52,91,34,92,43,35,33,19,33,60,144,52,49,15,13,48,46,77,22,90,13,19,65,53,35,52,72,260,154,233,232,32,22,13,7,3,10,1,0,0,14,13,5,5,0,3,-3,-4,-15,-15,-23,-9,-7,-3,-10,-13,-38,-30,-42,-28,-31,-290,-229],
      "delta_lng":[0,-40,-42,9,19,15,17,21,24,41,42,39,80,92,50,121,370,41,150,531,19,90,65,73,402,121,482,266,22,23,192,58,78,9,76,61,66,68,64,235,180,160,199,40,50,184,48,52,70,51,46,32,131,39,37,147,31,21,404,6,181,63,51,40,72,75,30,38,54,92,259,125,70,79,51,71,27,72,34,33,19,3,-1,-20,-74,-28,-25,-7,-7,-26,-27,-38,-11,-42,-5,0,4,19,20,43,83,311,189,286,278,43,38,45,49,103,355,33,46,2,405,520,183,171,31,93,65,47,72,55,48,18,14,6,15,18,38,20,17,8,4,-5,-1]
    }
  ]
}