{
  "code":30012,
  "name":"名鉄瀬戸線",
  "color":"#800080",
  "symbol":"ST",
  "station_list":[
    {"code":3001201,"id":"0e0b4b","name":"栄町(愛知)","name_kana":"さかえまち","lat":35.170567,"lng":136.908962,"prefecture":23,"numbering":[{"index":"01"}],"lines":[30012],"attr":"cool","postal_code":"461-0005","address":"名古屋市東区東桜１-１２"},
    {"code":3001202,"id":"c0cc53","name":"東大手","name_kana":"ひがしおおて","lat":35.183727,"lng":136.908376,"prefecture":23,"numbering":[{"index":"02"}],"lines":[30012],"attr":"cool","postal_code":"460-0001","address":"名古屋市中区三の丸４-１７"},
    {"code":3001203,"id":"3f0e8e","name":"清水(愛知)","name_kana":"しみず","lat":35.187152,"lng":136.913814,"prefecture":23,"numbering":[{"index":"03"}],"lines":[30012],"attr":"cool","postal_code":"462-0844","address":"名古屋市北区清水２-５-１"},
    {"code":3001204,"id":"d739ac","name":"尼ヶ坂","name_kana":"あまがさか","lat":35.187957,"lng":136.91928,"prefecture":23,"numbering":[{"index":"04"}],"lines":[30012],"attr":"cool","postal_code":"462-0837","address":"名古屋市北区大杉1丁目20-1"},
    {"code":3001205,"id":"23d67c","name":"森下(愛知)","name_kana":"もりした","lat":35.188299,"lng":136.929657,"prefecture":23,"numbering":[{"index":"05"}],"lines":[30012],"attr":"cool","postal_code":"461-0025","address":"名古屋市東区徳川２-２５"},
    {"code":1141105,"id":"86e45d","name":"大曽根","name_kana":"おおぞね","lat":35.191508,"lng":136.937161,"prefecture":23,"numbering":[{"index":"06"}],"lines":[11411,30012,99514,99523],"attr":"eco","postal_code":"461-0022","address":"名古屋市東区東大曽根町"},
    {"code":3001207,"id":"ecc8a4","name":"矢田(愛知)","name_kana":"やだ","lat":35.193699,"lng":136.947802,"prefecture":23,"numbering":[{"index":"07"}],"lines":[30012],"attr":"cool","postal_code":"461-0043","address":"名古屋市東区大幸１-１０"},
    {"code":3001208,"id":"427396","name":"守山自衛隊前","name_kana":"もりやまじえいたいまえ","lat":35.196258,"lng":136.957843,"prefecture":23,"numbering":[{"index":"08"}],"lines":[30012],"attr":"cool","postal_code":"463-0065","address":"名古屋市守山区廿軒家５-７"},
    {"code":3001209,"id":"d0aa5a","name":"瓢箪山(愛知)","name_kana":"ひょうたんやま","lat":35.197222,"lng":136.965048,"prefecture":23,"numbering":[{"index":"09"}],"lines":[30012],"attr":"cool","postal_code":"463-0062","address":"名古屋市守山区長栄１５-１７"},
    {"code":3001210,"id":"2e2e85","name":"小幡","name_kana":"おばた","lat":35.200216,"lng":136.975769,"prefecture":23,"numbering":[{"index":"10"}],"lines":[30012],"attr":"cool","postal_code":"463-0048","address":"名古屋市守山区小幡南１-２１-２１"},
    {"code":3001211,"id":"cd7163","name":"喜多山(愛知)","name_kana":"きたやま","lat":35.205099,"lng":136.987735,"prefecture":23,"numbering":[{"index":"11"}],"lines":[30012],"attr":"heat","postal_code":"463-0011","address":"名古屋市守山区小幡字二軒家２６１０-１３"},
    {"code":3001212,"id":"3e9ced","name":"大森・金城学院前","name_kana":"おおもり・きんじょうがくいんまえ","lat":35.206934,"lng":136.996465,"prefecture":23,"numbering":[{"index":"12"}],"lines":[30012],"attr":"heat","postal_code":"463-0021","address":"名古屋市守山区大森３-３０１"},
    {"code":3001213,"id":"f52a5b","name":"印場","name_kana":"いんば","lat":35.211085,"lng":137.011132,"prefecture":23,"numbering":[{"index":"13"}],"lines":[30012],"attr":"heat","postal_code":"488-0841","address":"尾張旭市印場元町北山４４０９-３"},
    {"code":3001214,"id":"7c77b8","name":"旭前","name_kana":"あさひまえ","lat":35.214162,"lng":137.019706,"prefecture":23,"numbering":[{"index":"14"}],"lines":[30012],"attr":"heat","postal_code":"488-0855","address":"愛知県尾張旭市旭前町五丁目4-5"},
    {"code":3001215,"id":"624dd2","name":"尾張旭","name_kana":"おわりあさひ","lat":35.216743,"lng":137.036393,"prefecture":23,"numbering":[{"index":"15"}],"lines":[30012],"attr":"heat","postal_code":"488-0801","address":"尾張旭市東大道町原田２５９１-３"},
    {"code":3001216,"id":"5369ad","name":"三郷(愛知)","name_kana":"さんごう","lat":35.216258,"lng":137.052352,"prefecture":23,"numbering":[{"index":"16"}],"lines":[30012],"attr":"heat","postal_code":"488-0015","address":"尾張旭市三郷町栄９２-１"},
    {"code":3001217,"id":"60c6c6","name":"水野","name_kana":"みずの","lat":35.224296,"lng":137.069659,"prefecture":23,"numbering":[{"index":"17"}],"lines":[30012],"attr":"eco","postal_code":"489-0917","address":"瀬戸市效範町２-７５"},
    {"code":3001218,"id":"8dc7de","name":"新瀬戸","name_kana":"しんせと","lat":35.225485,"lng":137.077639,"prefecture":23,"numbering":[{"index":"18"}],"lines":[30012],"attr":"eco","postal_code":"489-0066","address":"瀬戸市東横山町６２"},
    {"code":3001219,"id":"dedfa0","name":"瀬戸市役所前","name_kana":"せとしやくしょまえ","lat":35.224986,"lng":137.084177,"prefecture":23,"numbering":[{"index":"19"}],"lines":[30012],"attr":"eco","postal_code":"489-0065","address":"瀬戸市西追分町２"},
    {"code":3001220,"id":"c45106","name":"尾張瀬戸","name_kana":"おわりせと","lat":35.225094,"lng":137.09727,"prefecture":23,"numbering":[{"index":"20"}],"lines":[30012],"attr":"eco","postal_code":"489-0811","address":"瀬戸市山脇町７"}
  ],
  "north":35.22557,
  "south":35.17016,
  "east":137.09735,
  "west":136.90817,
  "polyline_list":[
    {
      "start":"栄",
      "end":"尾張瀬戸",
      "lat":35.17016,
      "lng":136.90888,
      "delta_lat":[0,65,295,343,80,7,42,74,63,287,40,66,100,66,29,25,27,41,20,18,6,4,3,-4,-3,-2,-4,1,2,3,9,9,34,36,8,9,7,5,2,-2,-3,0,0,0,2,7,7,9,9,11,20,20,39,57,45,79,60,78,50,28,39,24,47,32,20,35,28,22,18,9,6,1,-2,-3,-3,-8,-9,-76,-110,-15,-7,-16,-22,-5,1,4,8,11,17,50,26,8,25,9,12,6,5,2,1,4,51,22,13,81,16,53,87,71,28,34,23,47,58,26,69,15,22,8,12,38,33,19,116,9,31,134,22,9,12,-3,-4,0,0,2,3,9,20,43,44,53,23,26,9,9,5,0,4,11,7,9,3,2,6,18,23,16,23,26,34,73,41,42,71,55,29,117,55,4,18,29,21,28,7,32,5,1,0,-4,-54,-25,-111,-7,-9,-4,-2,4,8,10,6,5,13,17,1,4,1,0,0,-7,-2,2,7,9,7,15,16,33,28,23,17,9,13,7,11,32,10,14,5,59,44,136,96,36,139,20,9,6,7,4,3,2,19,56,38,9,8,7,5,3,1,-3,-1,0,-16,-7,-7,-4,-9,-9,-1,3,20,21,13,0,-4,-14,-49,-50,-34,-9,-1,1,3,69,41],
      "delta_lng":[0,-8,-29,-34,24,2,19,35,10,-51,-6,-6,0,18,24,25,26,53,41,48,22,26,57,117,45,95,126,69,47,28,46,35,86,79,21,35,37,32,43,176,391,14,173,100,346,77,36,37,20,27,35,21,35,38,17,19,16,21,17,11,16,13,25,19,16,29,31,36,44,46,28,18,28,23,23,32,25,152,249,60,29,63,84,46,28,18,21,23,24,63,34,11,37,14,21,27,32,45,102,24,164,140,83,606,80,249,387,182,78,132,88,192,240,80,176,42,42,11,10,25,28,31,273,22,77,314,66,136,173,81,79,6,9,11,11,24,37,49,50,64,43,50,27,35,23,9,62,124,102,134,61,22,41,73,66,47,82,90,108,230,118,116,177,140,71,298,147,17,111,173,130,172,43,199,27,32,30,27,170,77,346,24,41,27,38,89,74,77,52,49,109,146,2,38,32,35,41,69,24,55,68,52,47,77,71,141,122,110,78,30,37,17,22,50,13,22,5,70,50,159,112,40,157,30,25,25,86,62,56,39,75,178,125,31,37,48,65,45,116,102,85,52,176,38,69,65,73,100,73,77,152,96,64,25,24,41,135,138,92,41,22,22,19,207,123]
    }
  ]
}