{
  "code":30014,
  "name":"名鉄尾西線",
  "color":"#FF6347",
  "station_list":[
    {"code":1150806,"id":"3b1336","name":"弥富","name_kana":"やとみ","lat":35.114026,"lng":136.725664,"prefecture":23,"numbering":[{"symbol":"TB","index":"11"}],"lines":[11508,30014],"attr":"cool","postal_code":"498-0028","address":"弥富市鯏浦町中六"},
    {"code":3001403,"id":"6d3c2f","name":"五ノ三","name_kana":"ごのさん","lat":35.129838,"lng":136.711464,"prefecture":23,"numbering":[{"symbol":"TB","index":"10"}],"lines":[30014],"attr":"cool","postal_code":"498-0012","address":"弥富市五之三町西本田２７"},
    {"code":3001404,"id":"c8a3e1","name":"佐屋","name_kana":"さや","lat":35.147552,"lng":136.716612,"prefecture":23,"numbering":[{"symbol":"TB","index":"09"}],"lines":[30014],"attr":"cool","postal_code":"496-0902","address":"愛西市須依町佐原２２７７"},
    {"code":3001405,"id":"a019e3","name":"日比野(名古屋鉄道)","name_kana":"ひびの","lat":35.163258,"lng":136.728351,"prefecture":23,"numbering":[{"symbol":"TB","index":"08"}],"lines":[30014],"attr":"cool","postal_code":"496-0904","address":"愛知県愛西市柚木町東田面793番地3"},
    {"code":3001308,"id":"a0fec5","name":"津島","name_kana":"つしま","lat":35.177982,"lng":136.730995,"prefecture":23,"numbering":[{"symbol":"TB","index":"07"}],"lines":[30013,30014],"attr":"cool","postal_code":"496-0802","address":"津島市錦町１-１"},
    {"code":3001407,"id":"57c54c","name":"町方","name_kana":"まちかた","lat":35.18898,"lng":136.727551,"prefecture":23,"numbering":[{"symbol":"BS","index":"01"}],"lines":[30014],"attr":"cool","postal_code":"496-8014","address":"愛西市町方町南堤外１"},
    {"code":3001408,"id":"fabeaf","name":"六輪","name_kana":"ろくわ","lat":35.202395,"lng":136.729306,"prefecture":23,"numbering":[{"symbol":"BS","index":"02"}],"lines":[30014],"attr":"cool","postal_code":"490-1323","address":"稲沢市平和町須ケ脇４２６"},
    {"code":3001409,"id":"b3bfa7","name":"渕高","name_kana":"ふちだか","lat":35.213944,"lng":136.727256,"prefecture":23,"numbering":[{"symbol":"BS","index":"03"}],"lines":[30014],"attr":"cool","postal_code":"496-8018","address":"愛西市渕高町五ノ割４０-４"},
    {"code":3001410,"id":"cc4917","name":"丸渕","name_kana":"まるぶち","lat":35.222635,"lng":136.728991,"prefecture":23,"numbering":[{"symbol":"BS","index":"04"}],"lines":[30014],"attr":"cool","postal_code":"495-0021","address":"稲沢市祖父江町三丸渕八嶋２０-３"},
    {"code":3001411,"id":"1b3a73","name":"上丸渕","name_kana":"かみまるぶち","lat":35.233809,"lng":136.732521,"prefecture":23,"numbering":[{"symbol":"BS","index":"05"}],"lines":[30014],"attr":"cool","postal_code":"495-0021","address":"稲沢市祖父江町三丸渕郷前４８-３"},
    {"code":3001412,"id":"964b17","name":"森上","name_kana":"もりかみ","lat":35.247229,"lng":136.736698,"prefecture":23,"numbering":[{"symbol":"BS","index":"06"}],"lines":[30014],"attr":"cool","postal_code":"495-0011","address":"稲沢市祖父江町森上本郷７１８-１"},
    {"code":3001413,"id":"b088a1","name":"山崎(愛知)","name_kana":"やまざき","lat":35.256548,"lng":136.739372,"prefecture":23,"numbering":[{"symbol":"BS","index":"07"}],"lines":[30014],"attr":"heat","postal_code":"495-0002","address":"稲沢市祖父江町山崎中屋敷１０５-１"},
    {"code":3001414,"id":"27cc8a","name":"玉野","name_kana":"たまの","lat":35.266327,"lng":136.747982,"prefecture":23,"numbering":[{"symbol":"BS","index":"08"}],"lines":[30014],"attr":"heat","postal_code":"494-0013","address":"一宮市玉野字河瑞１９"},
    {"code":3001415,"id":"7ec90a","name":"萩原(愛知)","name_kana":"はぎわら","lat":35.277157,"lng":136.757703,"prefecture":23,"numbering":[{"symbol":"BS","index":"09"}],"lines":[30014],"attr":"heat","postal_code":"491-0376","address":"一宮市萩原町串作字荒神田面１４１４"},
    {"code":3001416,"id":"f273f7","name":"二子","name_kana":"ふたご","lat":35.283986,"lng":136.766268,"prefecture":23,"numbering":[{"symbol":"BS","index":"10"}],"lines":[30014],"attr":"heat","postal_code":"491-0353","address":"一宮市萩原町萩原字大日２９０３-３"},
    {"code":3001417,"id":"25c322","name":"苅安賀","name_kana":"かりやすか","lat":35.287194,"lng":136.778275,"prefecture":23,"numbering":[{"symbol":"BS","index":"11"}],"lines":[30014],"attr":"heat","postal_code":"491-0934","address":"一宮市大和町苅安賀字上西之杁１３０"},
    {"code":3001418,"id":"9fcaab","name":"観音寺(愛知)","name_kana":"かんのんじ","lat":35.289716,"lng":136.786191,"prefecture":23,"numbering":[{"symbol":"BS","index":"12"}],"lines":[30014],"attr":"heat","postal_code":"491-0916","address":"一宮市観音寺２-５-２"},
    {"code":3000150,"id":"663d6a","name":"名鉄一宮","name_kana":"めいてついちのみや","lat":35.30154,"lng":136.797225,"prefecture":23,"numbering":[{"symbol":"NH","color":"#DC143C","index":"50"}],"lines":[30001,30014],"attr":"heat","postal_code":"491-0912","address":"一宮市新生１丁目"},
    {"code":3001420,"id":"52425a","name":"西一宮","name_kana":"にしいちのみや","lat":35.307603,"lng":136.791948,"prefecture":23,"numbering":[{"symbol":"BS","index":"21"}],"lines":[30014],"attr":"eco","postal_code":"491-0046","address":"一宮市天王１-３-１"},
    {"code":3001421,"id":"9c5094","name":"開明","name_kana":"かいめい","lat":35.31926,"lng":136.7741,"prefecture":23,"numbering":[{"symbol":"BS","index":"22"}],"lines":[30014],"attr":"eco","postal_code":"494-0001","address":"一宮市開明名古羅４７-１"},
    {"code":3001422,"id":"7498e6","name":"奥町","name_kana":"おくちょう","lat":35.32434,"lng":136.761092,"prefecture":23,"numbering":[{"symbol":"BS","index":"23"}],"lines":[30014],"attr":"eco","postal_code":"491-0201","address":"一宮市奥町字南目草３０-１"},
    {"code":3001423,"id":"88e866","name":"玉ノ井","name_kana":"たまのい","lat":35.334887,"lng":136.757968,"prefecture":23,"numbering":[{"symbol":"BS","index":"24"}],"lines":[30014],"attr":"eco","postal_code":"493-0004","address":"一宮市木曽川町玉ノ井古井田１４０"}
  ],
  "north":35.33505,
  "south":35.11324,
  "east":136.79878,
  "west":136.71103,
  "polyline_list":[
    {
      "start":"弥富",
      "end":"玉ノ井",
      "lat":35.1146,
      "lng":136.7269,
      "delta_lat":[0,-108,-12,-10,-1,-4,-2,2,3,10,14,14,15,16,26,25,83,107,14,71,60,35,33,27,132,4,93,6,197,58,133,68,49,47,25,13,37,11,26,91,30,73,33,35,11,249,57,217,16,120,89,189,134,166,16,138,51,8,30,23,21,34,79,15,106,95,57,166,217,53,83,86,83,123,28,91,147,74,115,73,33,70,78,65,52,38,64,18,19,22,35,63,37,96,187,39,65,18,149,48,31,9,29,102,53,9,10,23,84,171,38,21,56,15,53,12,78,7,15,16,41,27,26,23,31,58,51,3,11,54,58,22,48,4,75,5,12,2,65,71,3,11,16,27,21,46,40,20,69,40,61,65,51,61,5,51,24,40,25,75,20,9,12,52,159,49,14,103,76,5,60,51,23,56,35,19,17,51,26,22,20,45,11,2,163,79,49,60,19,60,78,151,67,29,22,11,25,75,44,36,145,66,102,6,217,16,61,114,36,8,108,64,14,110,223,34,164,167,29,66,197,11,100,128,3,181,168,78,78,102,35,15,34,94,80,74,162,12,73,11,81,166,19,39,145,101,73,71,80,4,62,45,2,97,45,36,25,42,33,32,20,20,22,20,16,18,14,13,14,13,23,55,70,26,43,14,38,30,75,25,21,21,9,55,57,20,50,69,90,30,21,43,20,22,6,23,112,36,35,14,2,7,11,94,52,3,74,50,30,64,22,40,20,54,40,24,29,39,6,11,13,13,12,11,8,21,6,23,6,7,14,8,9,12,11,14,8,63,4,16,11,5,11,16,2,7,5,15,9,11,12,6,14,29,10,7,7,18,4,7,20,23,2,9,2,0,9,14,10,40,21,12,15,38,6,32,5,7,6,67,54,414,36,22,16,18,10,13,19,33,15,18,15,24,18,25,21,15,22,21,75,97,270,39,17,27,21,24,14,9,27,189,12,52,377,50,36,42,93,51,18,26,34,9,11,16,11,15,57,8,23,26,17,42,63,4,11,14,38,20,26,30,8,6,19,5,36,18,19,24,15,23,11,19,17,10,8,19,29,7,18,13,22,23,12,26,14,14,17,7,22,24,6,23,16,21,20,11,5,18,6,13,17,23,7,5,29,6,6,37,8,15,32,116,122,45,14,114,14,48,18,8,19,30,49,18,15,16,21,21,5,41],
      "delta_lng":[0,-211,-24,-53,-15,-22,-30,-44,-44,-46,-39,-34,-26,-23,-31,-34,-104,-139,-20,-87,-63,-33,-27,-21,-80,-1,-54,-5,-111,-32,-80,-31,-15,-8,0,0,0,2,3,21,7,15,8,8,2,54,11,50,4,25,20,42,29,35,4,33,20,3,13,11,12,24,59,10,80,72,43,122,158,39,62,63,60,92,21,68,109,55,84,54,25,50,46,35,26,18,25,5,6,6,8,9,1,0,-9,-1,-5,-3,-4,0,7,3,8,30,12,2,1,2,-12,-20,-3,-4,-14,-4,-14,-3,-19,-1,-4,-4,-12,-9,-10,-9,-13,-27,-25,-2,-5,-26,-29,-10,-24,-3,-37,-2,-6,-1,-33,-36,-1,-6,-9,-13,-10,-21,-14,-7,-20,-8,-8,1,7,8,1,18,7,14,13,38,10,4,6,27,81,25,7,53,41,2,20,10,3,0,-2,-3,-5,-13,-7,-6,-4,-13,-2,-2,-41,-20,-13,-16,-5,-14,-22,-38,-19,-11,-7,-5,-5,1,6,10,46,20,30,3,67,6,24,33,12,2,31,19,5,36,69,11,51,51,9,24,63,3,34,38,3,58,52,26,25,32,12,4,11,30,27,27,50,4,24,4,23,46,6,9,35,25,19,11,15,1,12,11,1,26,13,13,11,23,18,23,19,19,24,23,24,24,23,23,30,28,52,124,161,46,55,17,43,30,77,26,21,23,9,54,62,22,43,60,77,24,17,35,14,17,5,19,90,27,28,11,3,6,9,75,39,2,58,40,23,49,18,30,18,41,35,22,29,49,9,18,21,23,23,22,21,56,16,78,24,28,52,30,27,48,37,47,29,240,9,59,40,25,39,57,9,26,21,52,39,42,40,32,48,108,36,30,24,71,14,23,71,79,7,29,8,6,31,50,36,147,72,34,37,70,11,63,8,11,12,127,99,755,63,36,25,19,9,10,16,18,7,4,5,3,3,0,-4,-3,-9,-11,-39,-49,-131,-18,-10,-18,-15,-19,-14,-12,-27,-237,-16,-64,-473,-65,-54,-71,-163,-93,-29,-47,-58,-15,-17,-27,-21,-22,-100,-13,-39,-44,-30,-72,-110,-6,-18,-24,-63,-33,-38,-53,-12,-10,-41,-11,-98,-47,-50,-66,-41,-61,-27,-53,-45,-27,-21,-47,-76,-18,-45,-35,-60,-59,-31,-69,-37,-35,-44,-19,-58,-63,-17,-60,-38,-52,-51,-29,-10,-41,-11,-21,-22,-25,-8,-3,-21,-3,-4,-20,-4,-4,-4,-3,-2,-1,0,-2,0,0,2,2,4,12,27,15,13,19,25,29,5,43]
    }
  ]
}