{
  "code":31002,
  "name":"近鉄橿原線",
  "color":"#EEC900",
  "symbol":"B",
  "station_list":[
    {"code":3100201,"id":"2b87ba","name":"大和西大寺","name_kana":"やまとさいだいじ","lat":34.69358,"lng":135.783169,"prefecture":29,"numbering":[{"index":"26"}],"lines":[31002,31020,31025],"attr":"eco","postal_code":"631-0823","address":"奈良市西大寺国見町１-１-１"},
    {"code":3100202,"id":"3162d5","name":"尼ヶ辻","name_kana":"あまがつじ","lat":34.681109,"lng":135.783519,"prefecture":29,"numbering":[{"index":"27"}],"lines":[31002],"attr":"eco","postal_code":"630-8024","address":"奈良県奈良市尼辻中町11-1"},
    {"code":3100203,"id":"6e1824","name":"西ノ京","name_kana":"にしのきょう","lat":34.670652,"lng":135.783186,"prefecture":29,"numbering":[{"index":"28"}],"lines":[31002],"attr":"eco","postal_code":"630-8042","address":"奈良市西ノ京町字金岡４０８"},
    {"code":3100204,"id":"50879b","name":"九条(奈良)","name_kana":"くじょう","lat":34.659523,"lng":135.782894,"prefecture":29,"numbering":[{"index":"29"}],"lines":[31002],"attr":"eco","postal_code":"639-1001","address":"大和郡山市九条町字出口３７５"},
    {"code":3100205,"id":"08a562","name":"近鉄郡山","name_kana":"きんてつこおりやま","lat":34.646041,"lng":135.780756,"prefecture":29,"numbering":[{"index":"30"}],"lines":[31002],"attr":"eco","postal_code":"639-1007","address":"大和郡山市南郡山町２３２"},
    {"code":3100206,"id":"57d827","name":"筒井(奈良)","name_kana":"つつい","lat":34.620152,"lng":135.78067,"prefecture":29,"numbering":[{"index":"31"}],"lines":[31002],"attr":"cool","postal_code":"639-1123","address":"大和郡山市筒井町八王寺６４０"},
    {"code":3100207,"id":"0c9863","name":"平端","name_kana":"ひらはた","lat":34.606712,"lng":135.782804,"prefecture":29,"numbering":[{"index":"32"}],"lines":[31002,31011],"attr":"cool","postal_code":"639-1033","address":"大和郡山市昭和町５１"},
    {"code":3100208,"id":"e730d6","name":"ファミリー公園前","name_kana":"ふぁみりーこうえんまえ","lat":34.597968,"lng":135.784987,"prefecture":29,"numbering":[{"index":"33"}],"lines":[31002],"attr":"cool","postal_code":"639-1100","address":"大和郡山市宮堂毘沙門３３９-２"},
    {"code":3100209,"id":"1d066d","name":"結崎","name_kana":"ゆうざき","lat":34.584586,"lng":135.784782,"prefecture":29,"numbering":[{"index":"34"}],"lines":[31002],"attr":"cool","postal_code":"636-0202","address":"磯城郡川西町結崎出屋敷５８４"},
    {"code":3100210,"id":"ad1c86","name":"石見","name_kana":"いわみ","lat":34.571499,"lng":135.785765,"prefecture":29,"numbering":[{"index":"35"}],"lines":[31002],"attr":"heat","postal_code":"636-0212","address":"磯城郡三宅町石見４８５"},
    {"code":3100211,"id":"58a392","name":"田原本","name_kana":"たわらもと","lat":34.553068,"lng":135.790837,"prefecture":29,"numbering":[{"index":"36"}],"lines":[31002],"attr":"heat","postal_code":"636-0300","address":"磯城郡田原本町１７１"},
    {"code":3100212,"id":"28d38a","name":"笠縫","name_kana":"かさぬい","lat":34.541422,"lng":135.794076,"prefecture":29,"numbering":[{"index":"37"}],"lines":[31002],"attr":"heat","postal_code":"636-0343","address":"磯城郡田原本町秦庄３３０"},
    {"code":3100213,"id":"7d746b","name":"新ノ口","name_kana":"にのくち","lat":34.525332,"lng":135.794631,"prefecture":29,"numbering":[{"index":"38"}],"lines":[31002],"attr":"heat","postal_code":"634-0802","address":"橿原市新口町１２７"},
    {"code":3100214,"id":"7e0813","name":"大和八木","name_kana":"やまとやぎ","lat":34.513208,"lng":135.791484,"prefecture":29,"numbering":[{"index":"39"}],"lines":[31002,31005],"attr":"heat","postal_code":"634-0804","address":"橿原市内膳町５-１-２"},
    {"code":3100215,"id":"c171ee","name":"八木西口","name_kana":"やぎにしぐち","lat":34.509309,"lng":135.790707,"prefecture":29,"numbering":[{"index":"40"}],"lines":[31002],"attr":"heat","postal_code":"634-0078","address":"橿原市八木町１-８-３２"},
    {"code":3100216,"id":"8e7da3","name":"畝傍御陵前","name_kana":"うねびごりょうまえ","lat":34.492758,"lng":135.794254,"prefecture":29,"numbering":[{"index":"41"}],"lines":[31002],"attr":"heat","postal_code":"634-0061","address":"橿原市大久保町４５５"},
    {"code":3100217,"id":"31c525","name":"橿原神宮前","name_kana":"かしはらじんぐうまえ","lat":34.483987,"lng":135.79434,"prefecture":29,"numbering":[{"index":"42"}],"lines":[31002,31003,31007],"attr":"heat","postal_code":"634-0063","address":"橿原市久米町６１８"}
  ],
  "north":34.69415,
  "south":34.48339,
  "east":135.79468,
  "west":135.77984,
  "polyline_list":[
    {
      "start":"八木西口",
      "end":"新口",
      "lat":34.5109,
      "lng":135.79086,
      "delta_lat":[0,57,44,11,5,35,23,27,18,24,58,17,4,24,25,9,7,5,19,21,28,29,46,42,82,195,40,76,42,26,34,29,20,20,6,16,14,5,3,3,2,1,1,3,4,5,20,8,14,15,44],
      "delta_lng":[0,-5,-7,-4,0,-5,-7,-15,-10,-17,-46,-13,-7,-35,-40,-12,-11,-8,-17,-10,-11,-8,-11,-5,-8,-2,1,3,3,6,18,28,23,31,11,39,42,18,11,18,15,60,77,133,22,18,39,10,16,13,27]
    },
    {
      "start":"八木西口",
      "end":"新口",
      "lat":34.5109,
      "lng":135.79086,
      "delta_lat":[0,47,51,19,11,41,95,40,195,88,121,76,65,31,74,81,9,80,16,26,38,14,10,30,23,25],
      "delta_lng":[0,10,17,5,4,12,25,13,56,26,36,21,21,10,22,23,4,24,4,8,10,3,2,6,6,0]
    },
    {
      "start":"新口",
      "end":"大和西大寺",
      "lat":34.52396,
      "lng":135.79455,
      "delta_lat":[0,31,37,101,12,81,111,89,104,9,27,16,62,8,21,71,94,39,53,143,5,51,24,70,86,37,84,100,8,46,83,85,18,105,110,33,7,10,11,24,56,60,116,46,51,24,77,19,16,46,18,19,65,23,42,25,18,24,20,83,79,29,24,74,60,14,21,18,14,36,61,43,6,56,10,19,13,41,22,65,14,69,3,45,77,32,58,5,28,26,11,87,20,2,30,40,5,6,42,47,13,9,10,13,21,20,6,7,11,31,12,8,36,4,10,82,48,49,85,54,255,16,38,63,129,101,35,12,54,7,47,13,105,83,56,29,50,33,57,77,76,78,14,295,104,22,87,31,61,87,21,103,67,13,18,122,48,20,9,78,37,39,43,67,47,54,63,105,36,81,143,41,140,18,67,43,73,40,50,67,94,143,25,94,166,124,226,8,90,9,80,55,70,50,98,79,108,130,63,137,83,105,72,24,101,202,107,26,86,82,164,77,68,99,76,112,115,116,116,170,86,57,47,64,71,45,67,169,1,177,167,82,147,25,89,73,75,28,48,46,115,148,150,67,29,85,56,49,175,141,116,58,41,131,66,25,22,76,94,176,66,69,12,1,146,108,105,94,23,29,33,27,26,25,27,21,17,22,21,19,44,21,26,100],
      "delta_lng":[0,7,2,5,0,-8,-8,-7,-9,-1,-1,-3,-5,-1,-2,-5,-8,-2,-4,-9,-3,-2,-1,-4,-2,3,6,7,1,4,5,3,-3,-13,-31,-7,-3,-3,-2,-8,-17,-18,-37,-14,-17,-6,-25,-6,-5,-14,-7,-6,-20,-9,-12,-9,-6,-8,-5,-27,-24,-9,-8,-22,-19,-5,-7,-4,-5,-11,-18,-16,-2,-17,-3,-6,-4,-13,-9,-19,-7,-21,-1,-15,-23,-12,-18,-1,-10,-8,-3,-28,-7,0,-10,-13,-1,-2,-13,-15,-5,-1,-3,-2,-6,-6,-1,-1,-2,-6,-1,-2,-3,-2,0,-7,-4,-3,-8,-3,-21,-1,-2,-6,-9,-8,-2,-2,-4,-1,-3,-1,-9,-6,-4,-3,-3,-3,-4,-8,-2,-12,-2,-22,4,2,5,4,4,7,2,9,5,1,1,10,4,1,2,4,0,0,-3,-7,-8,-13,-21,-38,-12,-30,-53,-14,-56,-7,-29,-16,-19,-7,-8,-6,-10,-13,-6,-10,-14,-13,-23,-1,-6,0,1,3,6,5,11,5,11,10,3,2,-4,-11,-12,-3,-15,-28,-16,-3,-11,-13,-20,1,5,16,14,19,22,23,22,31,14,5,5,4,3,6,13,32,0,35,35,14,32,6,20,12,7,0,-2,-3,-11,-15,-17,-7,-3,-10,1,1,3,3,6,6,5,14,6,0,1,-5,-2,4,0,12,3,1,78,56,58,47,8,7,4,1,-3,-7,-12,-13,-11,-21,-22,-19,-56,-24,-41,-188]
    },
    {
      "start":"橿原神宮前",
      "end":"八木西口",
      "lat":34.48339,
      "lng":135.79434,
      "delta_lat":[0,132,48,26,182,199,255,191,79,16,88,60,48,31,51,22,23,24,13,17,29,96,155,44,74,50,35,40,25,64,56,57,15,9,36,28,165,71,146,51],
      "delta_lng":[0,-7,1,2,-3,-2,0,-3,0,1,2,0,-2,-6,-11,-3,-7,-7,-6,-7,-13,-45,-73,-23,-36,-22,-23,-16,-11,-21,-14,-4,0,0,0,0,0,0,0,11]
    }
  ]
}