{
  "code":31009,
  "id":"bc46f2",
  "name":"近鉄山田線",
  "name_kana":"きんてつやまだせん",
  "station_size":14,
  "company_code":21,
  "color":"#40E0D0",
  "symbol":"M",
  "station_list":[
    {"code":3100548,"id":"e9fec5","name":"伊勢中川","name_kana":"いせなかがわ","lat":34.635028,"lng":136.477894,"prefecture":24,"numbering":[{"index":"61"}],"lines":[31005,31009,31027],"attr":"heat","postal_code":"515-2321","address":"松阪市嬉野中川町７５４","next":[3100902,3102743,1151304,1151007,1151006,1151303],"voronoi":{"lat":34.634533,"lng":136.497621,"delta_lat":[0,8591,6349,-446,-29201,9591],"delta_lng":[0,5075,-5905,-31259,-11778,38597]}},
    {"code":3100902,"id":"9c0340","name":"伊勢中原","name_kana":"いせなかはら","lat":34.6148,"lng":136.497531,"prefecture":24,"numbering":[{"index":"62"}],"lines":[31009],"attr":"heat","postal_code":"515-2332","address":"松阪市嬉野津屋城町水池１４５５","next":[3100548,1151303,1151007,1151302],"voronoi":{"lat":34.605299,"lng":136.487802,"delta_lat":[0,24117,5116,-27452],"delta_lng":[0,4548,5270,7364]}},
    {"code":3100903,"id":"9ac96b","name":"松ヶ崎(三重)","original_name":"松ヶ崎","name_kana":"まつがさき","lat":34.596469,"lng":136.518937,"prefecture":24,"numbering":[{"index":"63"}],"lines":[31009],"attr":"heat","postal_code":"515-2122","address":"三重県松阪市久米町1274-2","next":[1151006,1151008,1151007,1151302],"voronoi":{"lat":34.636581,"lng":136.568023,"delta_lat":[0,1679,-69267,36075],"delta_lng":[0,18637,-79748,2801]}},
    {"code":1151008,"id":"eb5420","name":"松阪","name_kana":"まつさか","lat":34.577053,"lng":136.535801,"prefecture":24,"numbering":[{"index":"64"}],"lines":[11510,11513,31009],"attr":"cool","postal_code":"515-0017","address":"松阪市京町","next":[3100906,1151302,3100905,3100903,1151011,1151006],"voronoi":{"lat":34.638259,"lng":136.586661,"delta_lat":[0,-69267,-36248,1816,81887,27184],"delta_lng":[0,-79748,-20783,13862,91321,16203]}},
    {"code":3100905,"id":"6daefc","name":"東松阪","name_kana":"ひがしまつさか","lat":34.565543,"lng":136.546122,"prefecture":24,"numbering":[{"index":"65"}],"lines":[31009],"attr":"heat","postal_code":"515-0031","address":"松阪市大津町字久地３５３-１","next":[1151009,1151011,1151008,3100906],"voronoi":{"lat":34.53456,"lng":136.499991,"delta_lat":[0,-97,39705,42279],"delta_lng":[0,10378,61874,19069]}},
    {"code":3100906,"id":"f8f7c8","name":"櫛田","name_kana":"くしだ","lat":34.548879,"lng":136.583069,"prefecture":24,"numbering":[{"index":"66"}],"lines":[31009],"attr":"heat","postal_code":"515-0205","address":"松阪市豊原町１１３１-５","next":[3100908,1151006,1151008,1151010,1151009,3100907,3100905],"voronoi":{"lat":34.574169,"lng":136.572244,"delta_lat":[0,-37703,-6281,93417,39332,-19302,-27184],"delta_lng":[0,-6554,19870,40978,13389,-32411,-16203]}},
    {"code":3100907,"id":"cd17b3","name":"漕代","name_kana":"こいしろ","lat":34.541013,"lng":136.601001,"prefecture":24,"numbering":[{"index":"67"}],"lines":[31009],"attr":"heat","postal_code":"515-0212","address":"松阪市稲木町１１０８-５","next":[3100906,3100908,1151202,1151010],"voronoi":{"lat":34.530185,"lng":136.58556,"delta_lat":[0,93417,-104710,831],"delta_lng":[0,40978,-22822,-9002]}},
    {"code":3100908,"id":"7a9ef9","name":"斎宮","name_kana":"さいくう","lat":34.537877,"lng":136.615389,"prefecture":24,"numbering":[{"index":"68"}],"lines":[31009],"attr":"eco","postal_code":"515-0321","address":"多気郡明和町大字斎宮３０４３-３","next":[3100906,1151202,3100909,1151203,3100907,1151006],"voronoi":{"lat":34.512792,"lng":136.623597,"delta_lat":[0,-1352,7452,104710,39332,20798],"delta_lng":[0,-3579,-16302,22822,13389,26173]}},
    {"code":3100909,"id":"9a337d","name":"明星","name_kana":"みょうじょう","lat":34.531112,"lng":136.642597,"prefecture":24,"numbering":[{"index":"69"}],"lines":[31009],"attr":"eco","postal_code":"515-0313","address":"多気郡明和町大字明星２５６４","next":[3102734,3001005,1151204,3100910,3100908,1151006,3102733,1151203],"voronoi":{"lat":34.512792,"lng":136.623597,"delta_lat":[0,170940,3954,5628,3648,-11341,-177630,-265],"delta_lng":[0,42503,4140,17422,13929,12542,-65143,-247]}},
    {"code":3100910,"id":"b3ccb1","name":"明野","name_kana":"あけの","lat":34.521497,"lng":136.668815,"prefecture":24,"numbering":[{"index":"70"}],"lines":[31009],"attr":"eco","postal_code":"519-0501","address":"伊勢市小俣町明野５２８５-１","next":[1151208,3100909,3001006,3100911,1151204,3001005],"voronoi":{"lat":34.685621,"lng":136.714133,"delta_lat":[0,-177630,5243,129657,13884,23054],"delta_lng":[0,-65143,25918,69405,2274,-24883]}},
    {"code":3100911,"id":"8f24cb","name":"小俣(三重)","original_name":"小俣","name_kana":"おばた","lat":34.512746,"lng":136.685163,"prefecture":24,"numbering":[{"index":"71"}],"lines":[31009],"attr":"eco","postal_code":"519-0503","address":"伊勢市小俣町元町８２５４-５","next":[1151207,1151205,1151204,3100910,1151208,3100912],"voronoi":{"lat":34.59102,"lng":136.73924,"delta_lat":[0,51871,-129657,-12045,4443,25578],"delta_lng":[0,5072,-69405,9036,8285,28552]}},
    {"code":3100912,"id":"545e89","name":"宮町","name_kana":"みやまち","lat":34.497829,"lng":136.698526,"prefecture":24,"numbering":[{"index":"72"}],"lines":[31009],"attr":"cool","postal_code":"516-0805","address":"伊勢市御薗町高向６８６","next":[1151207,1151206,1151205,3100911],"voronoi":{"lat":34.505632,"lng":136.692229,"delta_lat":[0,-17336,33807,9107],"delta_lng":[0,8178,19945,429]}},
    {"code":1151206,"id":"e21f5b","name":"伊勢市","name_kana":"いせし","lat":34.49126,"lng":136.709661,"prefecture":24,"numbering":[{"index":"73"}],"lines":[11512,31009],"attr":"eco","postal_code":"516-0073","address":"伊勢市吹上１丁目","next":[1151207,1151205,3100914,3100912],"voronoi":{"lat":34.505705,"lng":136.722867,"delta_lat":[0,-43648,26238,33807],"delta_lng":[0,-30205,7744,19945]}},
    {"code":3100914,"id":"cfb2c2","name":"宇治山田","name_kana":"うじやまだ","lat":34.488256,"lng":136.714002,"prefecture":24,"numbering":[{"index":"74"}],"lines":[31009,31010],"attr":"heat","postal_code":"516-0037","address":"伊勢市岩渕２-１-４３","next":[3101002,1151205,1151207,1151206],"voronoi":{"lat":34.462057,"lng":136.692662,"delta_lat":[0,-19559,47547,15660],"delta_lng":[0,-7479,42315,-4631]}}
  ],
  "north":34.63597,
  "south":34.48779,
  "east":136.71404,
  "west":136.47753,
  "polyline_list":[
    {
      "start":"宇治山田",
      "end":"伊勢中川",
      "lat":34.48779,
      "lng":136.71399,
      "delta_lat":[0,17,70,20,32,20,9,27,11,67,24,8,31,15,7,18,21,39,30,11,11,21,14,46,67,25,38,28,41,11,22,9,23,26,3,7,17,22,1,16,4,18,8,8,18,51,24,25,49,28,36,32,27,70,36,76,94,18,5,124,41,29,76,59,11,18,20,37,12,9,107,130,62,43,40,61,44,8,45,19,95,26,99,93,62,44,96,9,5,5,51,63,20,83,56,3,28,58,65,42,29,9,112,12,45,109,114,70,53,70,15,160,26,76,92,29,73,23,76,17,42,7,10,12,7,50,12,15,5,18,9,6,19,8,10,11,8,5,13,7,20,21,5,22,16,42,49,54,11,21,6,4,30,136,170,9,73,10,14,55,99,11,76,7,75,25,32,197,96,25,165,98,39,78,101,143,90,5,4,13,114,7,130,8,34,64,21,12,58,24,55,37,7,50,47,189,61,24,59,193,93,150,90,29,59,20,53,36,23,46,22,21,45,49,47,52,55,16,41,24,27,7,19,5,25,38,19,141,174,83,35,162,205,206,26,124,31,169,14,39,67,191,89,59,35,26,75,22,118,126,83,27,10,8,17,29,12,27,91,92,110,14,37,30,96,15,9,3,14,102,54,90,45,38,4,98,48,164,144,35,47,232,282,237,103,141,174,103,119,132],
      "delta_lng":[0,3,2,0,-2,-4,-3,-8,-4,-37,-20,-9,-41,-27,-14,-45,-75,-133,-93,-24,-15,-18,-10,-20,-28,-16,-25,-20,-45,-12,-28,-20,-47,-73,-20,-23,-115,-152,-15,-88,-23,-71,-15,-19,-42,-97,-33,-24,-49,-20,-24,-20,-15,-28,-15,-29,-36,-8,-7,-54,-20,-18,-56,-52,-12,-18,-25,-48,-20,-14,-141,-172,-83,-58,-54,-82,-58,-5,-58,-29,-123,-34,-130,-125,-91,-67,-178,-19,-12,-10,-116,-164,-52,-222,-149,-13,-73,-155,-170,-113,-76,-25,-298,-33,-120,-290,-303,-184,-142,-185,-41,-422,-70,-201,-250,-81,-190,-63,-201,-43,-113,-22,-31,-40,-31,-182,-74,-88,-52,-170,-80,-98,-208,-89,-137,-135,-69,-81,-146,-84,-232,-171,-62,-127,-63,-128,-113,-120,-26,-50,-13,-11,-75,-309,-389,-23,-164,-24,-31,-127,-226,-22,-173,-19,-163,-58,-72,-457,-216,-63,-382,-217,-97,-179,-225,-327,-206,-8,-14,-28,-260,-22,-293,-22,-74,-146,-52,-31,-121,-51,-83,-45,-12,-54,-44,-165,-55,-23,-50,-168,-78,-138,-74,-18,-32,-13,-35,-29,-16,-43,-23,-22,-53,-63,-49,-51,-56,-19,-58,-32,-44,-12,-30,-7,-45,-54,-22,-119,-135,-66,-24,-124,-156,-158,-20,-96,-23,-130,-10,-30,-53,-151,-70,-47,-33,-27,-95,-30,-146,-167,-101,-35,-13,-12,-19,-38,-15,-36,-117,-116,-143,-14,-49,-36,-120,-18,-13,-2,-18,-130,-68,-116,-58,-48,-8,-126,-63,-212,-184,-39,-42,-195,-240,-198,-87,-121,-147,-85,-103,-114]
    }
  ]
}