{
  "code":31005,
  "id":"a2b225",
  "name":"近鉄大阪線",
  "name_kana":"きんてつおおさかせん",
  "station_size":48,
  "company_code":21,
  "color":"#77BBFF",
  "symbol":"D",
  "station_list":[
    {"code":3100103,"id":"b0e96b","name":"大阪上本町","name_kana":"おおさかうえほんまち","lat":34.665513,"lng":135.522189,"prefecture":27,"numbering":[{"index":"03"}],"lines":[31001,31005],"attr":"heat","postal_code":"543-0001","address":"大阪市天王寺区上本町六丁目1-55","next":[9961914,1162316,9961916,1162317,1162318,9961915],"voronoi":{"lat":34.67317,"lng":135.524815,"delta_lat":[0,-2032,-8320,-4097,3541,8243],"delta_lng":[0,1526,-261,-5058,-3067,2107]}},
    {"code":1162317,"id":"14945a","name":"鶴橋","name_kana":"つるはし","lat":34.665264,"lng":135.530133,"prefecture":27,"numbering":[{"index":"04"}],"lines":[11623,31005,99622],"attr":"cool","postal_code":"543-0025","address":"大阪市天王寺区下味原町","next":[1162318,1162316,3100103,9962210],"voronoi":{"lat":34.667563,"lng":135.537056,"delta_lat":[0,3575,-8320,-4284],"delta_lng":[0,-10714,-261,13116]}},
    {"code":3100503,"id":"678b9f","name":"今里(近畿日本鉄道)","original_name":"今里","name_kana":"いまざと","lat":34.664788,"lng":135.549917,"prefecture":27,"numbering":[{"index":"05"}],"lines":[31005],"attr":"heat","postal_code":"544-0001","address":"大阪市生野区新今里四丁目1-17","next":[9962213,9962210,9962211,9962212,1162318],"voronoi":{"lat":34.65803,"lng":135.550441,"delta_lat":[0,6326,5325,-12960,-2686],"delta_lng":[0,3256,-4579,-8795,773]}},
    {"code":3100504,"id":"988952","name":"布施","name_kana":"ふせ","lat":34.664092,"lng":135.563516,"prefecture":27,"numbering":[{"index":"06"}],"lines":[31005,31020],"attr":"heat","postal_code":"577-0056","address":"東大阪市長堂１-１-１８","next":[9962112,3100505,1164103,9962213,1164102,9962212,9962211],"voronoi":{"lat":34.673408,"lng":135.564655,"delta_lat":[0,-1629,-10018,-6481,991,9903,5736],"delta_lng":[0,2703,716,-4603,-1287,-3488,2409]}},
    {"code":3100505,"id":"fa0b70","name":"俊徳道","name_kana":"しゅんとくみち","lat":34.658224,"lng":135.571777,"prefecture":27,"numbering":[{"index":"07"}],"lines":[31005],"attr":"heat","postal_code":"577-0843","address":"東大阪市荒川２-７０","next":[1164104,1164105,3100504,1164103,3102002,9962213],"voronoi":{"lat":34.65528,"lng":135.563471,"delta_lat":[0,6481,-237,-15,-8052,1798],"delta_lng":[0,4603,3224,63,1850,-9732]}},
    {"code":3100506,"id":"50e8f6","name":"長瀬","name_kana":"ながせ","lat":34.64988,"lng":135.577612,"prefecture":27,"numbering":[{"index":"08"}],"lines":[31005],"attr":"heat","postal_code":"577-0807","address":"東大阪市菱屋西１-２４-２６","next":[1164104,3102004,1164108,3100507,3102003,1164105],"voronoi":{"lat":34.653329,"lng":135.573712,"delta_lat":[0,3579,-1573,-3631,-9929,563],"delta_lng":[0,5854,5688,4235,-14625,-615]}},
    {"code":3100507,"id":"327ac7","name":"弥刀","name_kana":"みと","lat":34.641337,"lng":135.583412,"prefecture":27,"numbering":[{"index":"09"}],"lines":[31005],"attr":"heat","postal_code":"577-0816","address":"東大阪市友井３-１-２２","next":[3100508,1160715,1164108,1164106,3100506,3102004],"voronoi":{"lat":34.651704,"lng":135.58949,"delta_lat":[0,-9929,-8018,-1976,91,17573],"delta_lng":[0,-14625,1470,1929,2958,16608]}},
    {"code":3100508,"id":"4e0b0c","name":"久宝寺口","name_kana":"きゅうほうじぐち","lat":34.634593,"lng":135.590548,"prefecture":27,"numbering":[{"index":"10"}],"lines":[31005],"attr":"heat","postal_code":"581-0816","address":"八尾市佐堂町３-１１-７","next":[3100507,1160714,3100509,3102004,3102005,1160715],"voronoi":{"lat":34.631871,"lng":135.581221,"delta_lat":[0,17573,23,-2535,-20597,-791],"delta_lng":[0,16608,613,4069,-7601,-2081]}},
    {"code":3100509,"id":"016868","name":"近鉄八尾","name_kana":"きんてつやお","lat":34.62978,"lng":135.603591,"prefecture":27,"numbering":[{"index":"11"}],"lines":[31005],"attr":"heat","postal_code":"581-0802","address":"八尾市北本町２-１５３-２","next":[1160714,3100508,3102005,3102006,3100510],"voronoi":{"lat":34.645497,"lng":135.612642,"delta_lat":[0,1436,-20597,-7890,26706],"delta_lng":[0,-10130,-7601,15296,3206]}},
    {"code":3100510,"id":"78e81b","name":"河内山本","name_kana":"かわちやまもと","lat":34.627892,"lng":135.619317,"prefecture":27,"numbering":[{"index":"12"}],"lines":[31005,31021],"attr":"heat","postal_code":"581-0867","address":"八尾市山本町１-１-１７","next":[3102007,3102102,1160714,3100511,3102006,3100509],"voronoi":{"lat":34.645388,"lng":135.621918,"delta_lat":[0,-2028,-14682,-11610,1377,26706],"delta_lng":[0,9339,-951,-19440,-660,3206]}},
    {"code":3100511,"id":"dfc002","name":"高安","name_kana":"たかやす","lat":34.619376,"lng":135.624403,"prefecture":27,"numbering":[{"index":"13"}],"lines":[31005],"attr":"eco","postal_code":"581-0021","address":"八尾市山本高安町１-１-４６","next":[3102103,1160714,1160713,3100510,3102102,3100512],"voronoi":{"lat":34.612384,"lng":135.614348,"delta_lat":[0,1419,3266,11610,-6768,-5762],"delta_lng":[0,-3228,-253,19440,2879,193]}},
    {"code":3100512,"id":"f33ef5","name":"恩智","name_kana":"おんぢ","lat":34.609747,"lng":135.626308,"prefecture":27,"numbering":[{"index":"14"}],"lines":[31005],"attr":"eco","postal_code":"581-0883","address":"八尾市恩智中町１-１０３","next":[3102103,3100513,1160713,3102402,3100511],"voronoi":{"lat":34.604153,"lng":135.641133,"delta_lat":[0,-1667,-28,9926,3765],"delta_lng":[0,239,-17878,-9146,19031]}},
    {"code":3100513,"id":"49b6f2","name":"法善寺","name_kana":"ほうぜんじ","lat":34.595176,"lng":135.626331,"prefecture":27,"numbering":[{"index":"15"}],"lines":[31005],"attr":"eco","postal_code":"582-0005","address":"柏原市法善寺町４-１-２２","next":[1160712,3100514,3102402,3100512,1160713],"voronoi":{"lat":34.592998,"lng":135.618851,"delta_lat":[0,-1718,3297,7908,-28],"delta_lng":[0,4997,22851,-5327,-17878]}},
    {"code":3100514,"id":"e94ff1","name":"堅下","name_kana":"かたしも","lat":34.588246,"lng":135.627331,"prefecture":27,"numbering":[{"index":"16"}],"lines":[31005],"attr":"eco","postal_code":"582-0018","address":"柏原市大県２-５-１","next":[3102402,1160711,3101202,3100513,1160710,3100515,1160712],"voronoi":{"lat":34.59128,"lng":135.623847,"delta_lat":[0,3297,-2809,-1155,-2808,-3602,580],"delta_lng":[0,22851,2700,-462,-4165,-16693,-1638]}},
    {"code":3100515,"id":"98f0a7","name":"安堂","name_kana":"あんどう","lat":34.580213,"lng":135.629064,"prefecture":27,"numbering":[{"index":"17"}],"lines":[31005],"attr":"cool","postal_code":"582-0016","address":"柏原市安堂町２-１","next":[3100315,3101202,1160711,3100514,3100516],"voronoi":{"lat":34.587805,"lng":135.644772,"delta_lat":[0,-3602,-10024,-2622,1327],"delta_lng":[0,-16693,-3214,3593,2699]}},
    {"code":3100516,"id":"d7cf63","name":"河内国分","name_kana":"かわちこくぶ","lat":34.566754,"lng":135.635684,"prefecture":27,"numbering":[{"index":"18"}],"lines":[31005],"attr":"cool","postal_code":"582-0021","address":"柏原市国分本町１-２-４","next":[3100517,3100317,3100515,3100315,1160711],"voronoi":{"lat":34.572884,"lng":135.631156,"delta_lat":[0,-1327,-14102,-3313,10342],"delta_lng":[0,-2699,-1463,5085,12456]}},
    {"code":3100517,"id":"9f94c5","name":"大阪教育大前","name_kana":"おおさかきょういくだいまえ","lat":34.555366,"lng":135.645139,"prefecture":27,"numbering":[{"index":"19"}],"lines":[31005],"attr":"cool","postal_code":"582-0026","address":"柏原市旭ケ丘４-４５５５-１","next":[3100516,3100317,3100518,1160710,3100318,1160711],"voronoi":{"lat":34.561861,"lng":135.657002,"delta_lat":[0,-22370,6689,7962,10342,2757],"delta_lng":[0,-1658,-19956,-3309,12456,6838]}},
    {"code":3100518,"id":"d12110","name":"関屋(奈良)","original_name":"関屋","name_kana":"せきや","lat":34.553688,"lng":135.667778,"prefecture":29,"numbering":[{"index":"20"}],"lines":[31005],"attr":"eco","postal_code":"639-0255","address":"香芝市関屋１５７８-３","next":[1163603,3100318,3100519,3100517,3100319,1160710],"voronoi":{"lat":34.564985,"lng":135.683199,"delta_lat":[0,-19151,-17076,10733,22370,6058],"delta_lng":[0,-6760,-13718,-7376,1658,25525]}},
    {"code":3100519,"id":"c7c0e7","name":"二上","name_kana":"にじょう","lat":34.546511,"lng":135.68811,"prefecture":29,"numbering":[{"index":"21"}],"lines":[31005],"attr":"eco","postal_code":"639-0252","address":"香芝市穴虫２０２３","next":[3100520,1163603,1163604,3100518,3100320,3100319],"voronoi":{"lat":34.540979,"lng":135.695118,"delta_lat":[0,8684,1487,13836,-19151,-5156],"delta_lng":[0,2745,284,-14949,-6760,17962]}},
    {"code":3100520,"id":"7d5cde","name":"近鉄下田","name_kana":"きんてつしもだ","lat":34.541478,"lng":135.704033,"prefecture":29,"numbering":[{"index":"22"}],"lines":[31005],"attr":"eco","postal_code":"639-0231","address":"香芝市下田西１-７-１４","next":[1163605,3100519,1163604,3100521,3100320],"voronoi":{"lat":34.53045,"lng":135.70728,"delta_lat":[0,6227,12986,-8684,-11675],"delta_lng":[0,3007,-12424,-2745,11063]}},
    {"code":3100521,"id":"a7fa8b","name":"五位堂","name_kana":"ごいどう","lat":34.534763,"lng":135.717937,"prefecture":29,"numbering":[{"index":"23"}],"lines":[31005],"attr":"eco","postal_code":"639-0225","address":"香芝市瓦口２６８","next":[1163604,1163603,3100522,3100520,3101705,3101704,1163605],"voronoi":{"lat":34.53045,"lng":135.70728,"delta_lat":[0,6227,19751,1118,-2853,-4320,-18591],"delta_lng":[0,3007,13591,1875,6526,4608,-10636]}},
    {"code":3100522,"id":"96261b","name":"築山","name_kana":"つきやま","lat":34.526125,"lng":135.733036,"prefecture":29,"numbering":[{"index":"24"}],"lines":[31005],"attr":"eco","postal_code":"635-0071","address":"大和高田市築山４６７-３","next":[3100524,3100323,1163605,3100521,3100523,3101704],"voronoi":{"lat":34.550372,"lng":135.736887,"delta_lat":[0,-18591,-12886,-4534,27811,2234],"delta_lng":[0,-10636,-1361,6839,19191,434]}},
    {"code":3100523,"id":"f5ac56","name":"大和高田","name_kana":"やまとたかだ","lat":34.519757,"lng":135.742264,"prefecture":29,"numbering":[{"index":"25"}],"lines":[31005],"attr":"eco","postal_code":"635-0097","address":"大和高田市北本町１４-４","next":[3100324,1163606,3100524,3100522,3100323],"voronoi":{"lat":34.513503,"lng":135.737638,"delta_lat":[0,10161,18508,-27811,-795],"delta_lng":[0,14095,-812,-19191,426]}},
    {"code":3100524,"id":"c4aecb","name":"松塚","name_kana":"まつづか","lat":34.520601,"lng":135.761507,"prefecture":29,"numbering":[{"index":"26"}],"lines":[31005],"attr":"eco","postal_code":"635-0001","address":"大和高田市松塚２４-２","next":[1163606,3100522,3100523,3101704,3101703,3101701,1163713,3100525],"voronoi":{"lat":34.544804,"lng":135.766531,"delta_lat":[0,1098,-1496,-2234,-18508,-11542,4192,26264],"delta_lng":[0,-7935,-7241,-434,812,3283,11801,2362]}},
    {"code":3100525,"id":"4bf4d5","name":"真菅","name_kana":"ますが","lat":34.519585,"lng":135.772806,"prefecture":29,"numbering":[{"index":"27"}],"lines":[31005],"attr":"eco","postal_code":"634-0831","address":"橿原市曽我町１０７０","next":[3101701,3100215,3100212,3100214,1163713,3100213,3100524],"voronoi":{"lat":34.540763,"lng":135.772908,"delta_lat":[0,-7847,-11277,-8383,-5293,8352,26264],"delta_lng":[0,8057,2969,-2862,-3038,-11218,2362]}},
    {"code":3100214,"id":"7e0813","name":"大和八木","name_kana":"やまとやぎ","lat":34.513208,"lng":135.791484,"prefecture":29,"numbering":[{"index":"39"}],"lines":[31002,31005],"attr":"heat","postal_code":"634-0804","address":"橿原市内膳町５-１-２","next":[3100527,1163712,3100213,3100525,3100215],"voronoi":{"lat":34.516359,"lng":135.803398,"delta_lat":[0,226,5054,-8383,-2397],"delta_lng":[0,8,-19471,-2862,12028]}},
    {"code":3100527,"id":"847807","name":"耳成","name_kana":"みみなし","lat":34.512409,"lng":135.815071,"prefecture":29,"numbering":[{"index":"40"}],"lines":[31005],"attr":"heat","postal_code":"634-0014","address":"橿原市石原田町２０８-２","next":[1163708,3100528,3100213,3100216,3100214,1163711,1163712,3100212],"voronoi":{"lat":34.5337,"lng":135.821779,"delta_lat":[0,-10336,-33249,10449,15795,226,17486,2587],"delta_lng":[0,311,-5657,-9864,-3172,8,11056,3575]}},
    {"code":3100528,"id":"4a58b1","name":"大福","name_kana":"だいふく","lat":34.512851,"lng":135.829756,"prefecture":29,"numbering":[{"index":"41"}],"lines":[31005],"attr":"heat","postal_code":"633-0067","address":"桜井市大福北方２４１-２","next":[3100527,1163711,1163709,1163710,1163708],"voronoi":{"lat":34.5337,"lng":135.821779,"delta_lat":[0,-10336,-35831,33901,9046],"delta_lng":[0,311,16494,-590,-6919]}},
    {"code":1163710,"id":"b17e7a","name":"桜井(奈良)","original_name":"桜井","name_kana":"さくらい","lat":34.513143,"lng":135.846527,"prefecture":29,"numbering":[{"index":"42"}],"lines":[11637,31005],"attr":"heat","postal_code":"633-0091","address":"桜井市桜井","next":[3100530,3100703,1163709,1163711,3100528,3100714],"voronoi":{"lat":34.454355,"lng":135.856915,"delta_lat":[0,16483,16695,33901,-2616,-64524],"delta_lng":[0,-16431,-1900,-590,19192,8285]}},
    {"code":3100530,"id":"e07d67","name":"大和朝倉","name_kana":"やまとあさくら","lat":34.51602,"lng":135.868933,"prefecture":29,"numbering":[{"index":"43"}],"lines":[31005],"attr":"heat","postal_code":"633-0017","address":"桜井市大字慈恩寺１０２９","next":[1163710,3100714,1163708,3100531,1163709],"voronoi":{"lat":34.518817,"lng":135.857186,"delta_lat":[0,-64524,-8529,107453,-5313],"delta_lng":[0,8285,44148,-31128,-5528]}},
    {"code":3100531,"id":"0e57fa","name":"長谷寺","name_kana":"はせでら","lat":34.526889,"lng":135.906453,"prefecture":29,"numbering":[{"index":"44"}],"lines":[31005],"attr":"heat","postal_code":"633-0112","address":"桜井市大字初瀬２４９９","next":[1163705,1163708,3100715,1163707,3100532,3100714,3100530,1163706],"voronoi":{"lat":34.621902,"lng":135.924795,"delta_lat":[0,-188572,212,12222,107453,5324,21350,20315],"delta_lng":[0,11707,-500,-26382,-31128,1484,10203,13469]}},
    {"code":3100532,"id":"6910cc","name":"榛原","name_kana":"はいばら","lat":34.529887,"lng":135.954747,"prefecture":29,"numbering":[{"index":"45"}],"lines":[31005],"attr":"cool","postal_code":"633-0253","address":"宇陀市榛原区萩原２４２６","next":[3100716,1151315,3100531,3100715,1151023,3100533,1163703,1163705,1163704],"voronoi":{"lat":34.631307,"lng":135.930178,"delta_lat":[0,-9404,-188572,-10504,-90307,7136,19599,275554,-2137],"delta_lng":[0,-5383,11707,13773,136484,10096,1139,-164964,-1883]}},
    {"code":3100533,"id":"869609","name":"室生口大野","name_kana":"むろうぐちおおの","lat":34.566109,"lng":136.015252,"prefecture":29,"numbering":[{"index":"46"}],"lines":[31005],"attr":"cool","postal_code":"633-0315","address":"宇陀市室生区大野１７５６","next":[1163703,1151315,1150911,3100532,3100534],"voronoi":{"lat":34.359254,"lng":136.097993,"delta_lat":[0,275554,12396,14114,-233647],"delta_lng":[0,-164964,5053,33639,141352]}},
    {"code":3100534,"id":"5dfdf1","name":"三本松(奈良)","original_name":"三本松","name_kana":"さんぼんまつ","lat":34.578571,"lng":136.035851,"prefecture":29,"numbering":[{"index":"47"}],"lines":[31005],"attr":"cool","postal_code":"633-0317","address":"宇陀市室生区三本松２９３７","next":[3100535,1150911,1150909,1151315,3100533],"voronoi":{"lat":34.661318,"lng":135.971721,"delta_lat":[0,6282,1834,-205787,-35976],"delta_lng":[0,11166,27820,113024,-10658]}},
    {"code":3100535,"id":"3f925b","name":"赤目口","name_kana":"あかめぐち","lat":34.599467,"lng":136.073897,"prefecture":24,"numbering":[{"index":"48"}],"lines":[31005],"attr":"heat","postal_code":"518-0465","address":"名張市赤目町丈六２５７-１","next":[3100534,1151315,3100536,1150909],"voronoi":{"lat":34.669435,"lng":136.010707,"delta_lat":[0,-205787,74160,135012],"delta_lng":[0,113024,34787,-136797]}},
    {"code":3100536,"id":"d337e1","name":"名張","name_kana":"なばり","lat":34.621612,"lng":136.095753,"prefecture":24,"numbering":[{"index":"49"}],"lines":[31005],"attr":"heat","postal_code":"518-0713","address":"名張市平尾２９６１","next":[1150909,1151315,3100535,3100537,1151313],"voronoi":{"lat":34.542842,"lng":136.161873,"delta_lat":[0,-5035,135012,10959,-111685],"delta_lng":[0,-3355,-136797,21478,130197]}},
    {"code":3100537,"id":"cd4343","name":"桔梗が丘","name_kana":"ききょうがおか","lat":34.641297,"lng":136.112639,"prefecture":24,"numbering":[{"index":"50"}],"lines":[31005],"attr":"heat","postal_code":"518-0621","address":"名張市桔梗が丘１番町１-１","next":[3100538,3100540,1151313,3100536,1150909,1150908],"voronoi":{"lat":34.609437,"lng":136.168279,"delta_lat":[0,-25014,-12329,111685,5746,9918],"delta_lng":[0,12119,-7002,-130197,7850,21444]}},
    {"code":3100538,"id":"389f20","name":"美旗","name_kana":"みはた","lat":34.662989,"lng":136.133022,"prefecture":24,"numbering":[{"index":"51"}],"lines":[31005],"attr":"heat","postal_code":"518-0611","address":"名張市新田１８９１","next":[1150908,3100537,9953110,9953111,9953108,3100540,3100539],"voronoi":{"lat":34.609437,"lng":136.168279,"delta_lat":[0,90006,5518,-3042,-4992,-4114,-63555],"delta_lng":[0,-95786,7329,30062,12930,6967,34130]}},
    {"code":3100539,"id":"ff94c3","name":"伊賀神戸","name_kana":"いがかんべ","lat":34.673639,"lng":136.152854,"prefecture":24,"numbering":[{"index":"52"}],"lines":[31005,99531],"attr":"heat","postal_code":"518-0115","address":"伊賀市比土２６２８-３","next":[9953111,9953113,9953112,3100538,3100540],"voronoi":{"lat":34.629258,"lng":136.163912,"delta_lat":[0,63555,-1351,-5762,-38204],"delta_lng":[0,-34130,9015,14714,10980]}},
    {"code":3100540,"id":"6ae63c","name":"青山町","name_kana":"あおやまちょう","lat":34.672848,"lng":136.177763,"prefecture":24,"numbering":[{"index":"53"}],"lines":[31005],"attr":"heat","postal_code":"518-0226","address":"伊賀市阿保４０５","next":[3100542,9953112,3100537,3100538,3100541,9953113,1151313,3100539],"voronoi":{"lat":34.685018,"lng":136.170957,"delta_lat":[0,10509,-72065,-15883,-23156,25014,19821,18238],"delta_lng":[0,14071,25969,968,-31566,-12119,-4368,579]}},
    {"code":3100541,"id":"6a81c9","name":"伊賀上津","name_kana":"いがこうづ","lat":34.682695,"lng":136.205088,"prefecture":24,"numbering":[{"index":"54"}],"lines":[31005],"attr":"heat","postal_code":"518-0205","address":"伊賀市伊勢路１９２","next":[9953109,9953110,1150905,9953111,3100540,3100542,9953112],"voronoi":{"lat":34.72589,"lng":136.196005,"delta_lat":[0,17849,8114,-222,-128170,72065,16279],"delta_lng":[0,11177,6262,21616,-24064,-25969,4565]}},
    {"code":3100542,"id":"f972ea","name":"西青山","name_kana":"にしあおやま","lat":34.676518,"lng":136.237988,"prefecture":24,"numbering":[{"index":"55"}],"lines":[31005],"attr":"cool","postal_code":"518-0205","address":"伊賀市伊勢路青山１３５３-４","next":[1151313,3100540,3100543,1151312,1151310,1151311,1150905,3100541,1150904],"voronoi":{"lat":34.759313,"lng":136.270353,"delta_lat":[0,-7681,-128170,-15883,599,18095,5210,21167,105587],"delta_lng":[0,-35293,-24064,968,2797,45952,5623,13214,1160]}},
    {"code":3100543,"id":"d743cf","name":"東青山","name_kana":"ひがしあおやま","lat":34.675599,"lng":136.321627,"prefecture":24,"numbering":[{"index":"56"}],"lines":[31005],"attr":"cool","postal_code":"515-2623","address":"津市白山町上ノ村字北谷１０７４","next":[1151309,1150904,3100542,3100544,1150903,1151310],"voronoi":{"lat":34.658488,"lng":136.334534,"delta_lat":[0,99851,4934,-5037,-105587,-1858],"delta_lng":[0,3405,-44131,-13097,-1160,38859]}},
    {"code":3100544,"id":"018456","name":"榊原温泉口","name_kana":"さかきばらおんせんぐち","lat":34.67468,"lng":136.348576,"prefecture":24,"numbering":[{"index":"57"}],"lines":[31005],"attr":"cool","postal_code":"515-2621","address":"津市白山町佐田字寒谷１５２６-２","next":[3100545,1150902,1150903,1151308,3100543,1151309],"voronoi":{"lat":34.66181,"lng":136.354784,"delta_lat":[0,91821,6664,-1955,-99851,-1264],"delta_lng":[0,47998,-25150,-39694,-3405,5280]}},
    {"code":3100545,"id":"e6cbb8","name":"大三","name_kana":"おおみつ","lat":34.664058,"lng":136.368896,"prefecture":24,"numbering":[{"index":"58"}],"lines":[31005],"attr":"eco","postal_code":"515-2602","address":"津市白山町二本木字横町８１５-１","next":[3100544,3100546,1150902,1151307,1151308,1151003],"voronoi":{"lat":34.672993,"lng":136.390802,"delta_lat":[0,-23047,11863,91821,-145,-2058],"delta_lng":[0,-19880,-16138,47998,1042,1557]}},
    {"code":3100546,"id":"a23dce","name":"伊勢石橋","name_kana":"いせいしばし","lat":34.656783,"lng":136.408034,"prefecture":24,"numbering":[{"index":"59"}],"lines":[31005],"attr":"eco","postal_code":"515-2524","address":"津市一志町大仰字久保垣内５２２-１","next":[1151003,3100545,1151306,1151307,3102740,1151305,3100547],"voronoi":{"lat":34.661357,"lng":136.422422,"delta_lat":[0,-7989,-7454,27079,78434,-13359,-3831],"delta_lng":[0,-538,-23061,-8021,14579,15501,2450]}},
    {"code":3100547,"id":"920cec","name":"川合高岡","name_kana":"かわいたかおか","lat":34.656425,"lng":136.436692,"prefecture":24,"numbering":[{"index":"60"}],"lines":[31005],"attr":"eco","postal_code":"515-2516","address":"津市一志町田尻字垣内田９８-３","next":[3102743,3102742,1151305,1151304,3102740,3100546],"voronoi":{"lat":34.729596,"lng":136.42767,"delta_lat":[0,-59559,-2081,-14896,8298,72880],"delta_lng":[0,27695,355,-12971,-20326,910]}},
    {"code":3100548,"id":"e9fec5","name":"伊勢中川","name_kana":"いせなかがわ","lat":34.635028,"lng":136.477894,"prefecture":24,"numbering":[{"index":"61"}],"lines":[31005,31009,31027],"attr":"heat","postal_code":"515-2321","address":"松阪市嬉野中川町７５４","next":[3100902,3102743,1151304,1151007,1151006,1151303],"voronoi":{"lat":34.634533,"lng":136.497621,"delta_lat":[0,8591,6349,-446,-29201,9591],"delta_lng":[0,5075,-5905,-31259,-11778,38597]}}
  ],
  "north":34.68434,
  "south":34.51172,
  "east":136.47867,
  "west":135.51932,
  "polyline_list":[
    {
      "start":"大三",
      "end":"伊勢石橋",
      "lat":34.6569,
      "lng":136.3902,
      "delta_lat":[0,-41,-23,-30,-58,-86,-37,-20],
      "delta_lng":[0,137,76,97,180,280,120,81]
    },
    {
      "start":"宮古分岐",
      "end":"名古屋線",
      "lat":34.63961,
      "lng":136.47371,
      "delta_lat":[0,-16,-5,-6,-3,-1,4,6,27,25,45],
      "delta_lng":[0,48,22,35,35,22,38,21,48,29,34]
    },
    {
      "start":"伊勢石橋",
      "end":"宮古分岐",
      "lat":34.65395,
      "lng":136.39991,
      "delta_lat":[0,-3,2,3,11,16,27,37,14,7,7,74,60,20,38,36,70,152,6,61,22,22,42,30,26,25,9,1,1,-6,-13,-28,-11,-25,-17,-40,-48,-24,-71,-18,-48,-48,-118,-37,-38,-9,-69,-53,-13,-91,-32,-62,-88,-34,-53,-118,-59,-16,-28,-48,-31,-47,-34,-38,-54,-28,-41,-128,-70,-74,-177,-56,-43,-67],
      "delta_lng":[0,62,122,22,79,61,74,73,26,12,14,133,112,36,69,62,120,262,11,107,41,47,101,93,103,129,82,44,126,114,118,126,35,76,46,107,101,42,131,38,89,93,236,70,82,22,226,173,39,286,89,166,224,85,138,299,151,41,69,126,68,96,70,72,91,47,66,213,120,126,291,89,73,97]
    },
    {
      "start":"大三",
      "end":"伊勢石橋",
      "lat":34.6569,
      "lng":136.3902,
      "delta_lat":[0,-49,-24,0,-52,-112,-14,-13,-14,-10,-7],
      "delta_lng":[0,130,71,1,136,324,48,49,72,71,69]
    },
    {
      "start":"伊勢中川",
      "end":"宮古分岐",
      "lat":34.63466,
      "lng":136.47867,
      "delta_lat":[0,132,20,38,25,76,52,22,46,28,25,31],
      "delta_lng":[0,-114,-15,-35,-20,-66,-48,-23,-58,-40,-32,-45]
    },
    {
      "start":"大阪上本町",
      "end":"大三",
      "lat":34.66561,
      "lng":135.51932,
      "delta_lat":[0,-27,-2,-3,-6,-1,-1,-5,1,0,0,11,3,1,7,1,1,2,0,0,3,0,1,-1,-1,0,-16,-1,-5,-2,-19,-10,-7,-4,-5,-9,-3,-11,-4,-20,-2,-7,0,-1,-1,-5,-2,-2,-2,0,-1,5,-6,-7,-5,-6,-21,-24,-21,-22,-24,-34,-29,-31,-41,-50,-160,-144,-65,-4,-179,-183,-25,-159,-150,-72,-150,-187,-175,-175,-76,-94,-19,-39,-28,-46,-39,-35,-36,-23,-17,-23,-22,-26,-27,-33,-8,-2,-24,-42,-26,-15,-5,-18,-38,-20,-45,-13,-19,-22,-6,-21,-15,-21,-33,-27,-17,-8,-28,-16,-16,-30,-10,-10,-24,-72,-16,-58,-59,-17,-15,-6,-6,-4,-4,-2,-1,-6,0,-5,-6,-1,-6,-7,-5,-24,-9,-11,-9,-14,-7,-8,-15,-36,-16,-19,-32,-32,-49,-45,-62,-121,-193,-60,-153,-101,-4,-456,-301,-6,-67,-10,-125,-38,-81,-300,-304,-116,-104,-89,-56,-168,-89,-309,-262,-121,-123,-40,-78,-238,-94,-40,-31,-44,-40,-4,-60,-112,-209,-24,-11,-19,-73,-41,-73,-25,-32,-57,-14,-13,-52,-20,-91,-119,-144,-40,-94,-112,-61,-103,-55,-61,-25,-36,-32,-33,-127,-93,-29,-36,-56,-70,-76,-24,-84,-8,-14,-14,-53,-20,-9,-3,-4,-38,-11,-21,-29,-4,-6,-10,-2,-4,-1,-1,-5,-4,-13,-63,-11,-3,-2,7,10,15,23,39,40,3,12,3,-2,-4,-7,-7,-22,-20,-28,-18,-20,-44,-48,-42,-15,-14,-23,-2,-14,-1,-9,-3,-15,-27,-43,-22,-17,-6,-22,-22,-105,-22,-6,-9,-35,-29,-6,-55,-15,-20,-29,-28,-41,-16,-12,-6,-81,-148,-40,-24,-8,-44,-6,-24,-13,-43,-6,-8,-43,-29,-27,-12,-75,-23,-49,-33,-46,-36,-26,-56,-32,-123,-64,-193,-41,-33,-112,-35,-30,-148,-51,-29,-77,-12,-47,-33,-26,-20,-29,-19,-11,-60,-163,-60,-17,-31,-19,-24,-12,-7,-9,-9,-9,-7,-11,-1,1,2,5,2,11,6,1,9,6,1,12,4,11,1,3,11,7,16,2,2,11,6,1,2,0,-2,-9,-5,-8,-3,-7,-15,-40,-23,-14,-12,-10,-4,-3,-6,-2,-1,-3,-5,-4,-6,-8,-1,-1,0,-17,-5,-3,-2,-7,-3,-2,-8,-5,-2,0,-3,-1,-6,-3,-15,-22,-4,-26,-5,-16,-92,-15,-12,-24,-1,-8,-11,-18,-32,-22,-6,-3,-17,-5,-7,-9,-25,-24,-4,-12,-35,-19,-9,-13,-6,-12,0,-2,-12,-2,-6,-4,-8,-2,-7,-1,-1,-4,-3,-2,-2,0,-2,-1,-4,-1,-7,-3,-6,-5,-2,-3,-1,-19,-2,-4,-5,-5,-3,-3,0,3,0,2,1,2,4,0,4,4,3,1,1,2,5,6,12,8,4,1,9,4,4,3,2,3,4,2,0,5,2,2,2,2,1,9,3,0,1,2,4,3,7,7,1,2,6,4,4,2,-1,-3,0,-3,0,-1,-7,-1,1,2,-2,24,1,1,2,3,0,0,-2,-2,-3,-1,6,11,6,5,6,8,2,2,5,1,1,2,9,6,0,-1,-2,0,3,17,12,8,20,9,8,11,10,8,48,2,5,37,28,26,22,16,121,25,11,8,12,20,12,13,6,5,5,29,29,35,14,29,12,18,12,1,9,6,1,4,2,7,2,3,2,4,4,0,5,5,9,11,19,5,6,15,20,21,10,43,15,24,87,61,57,39,55,36,32,36,52,14,29,15,9,4,0,-1,-6,-10,-1,-2,0,0,2,7,9,9,27,10,21,5,16,5,2,24,5,6,2,-2,-2,-4,-7,-19,-21,-25,-18,-13,-12,-35,-28,-26,-18,0,8,12,9,17,32,33,23,38,34,20,6,25,5,7,11,11,11,14,4,7,13,23,29,31,21,23,17,35,21,37,40,30,42,77,103,31,31,47,41,45,44,17,30,20,23,31,27,6,16,44,53,54,35,31,34,56,38,31,100,9,10,8,144,182,24,23,118,53,57,44,23,24,20,19,18,19,14,40,37,33,31,61,29,24,13,14,29,20,54,43,87,97,62,85,54,43,49,87,66,99,32,10,26,16,15,13,7,9,0,9,13,14,29,38,18,7,11,23,21,21,57,41,130,186,89,34,46,43,85,141,47,58,36,32,16,38,20,20,83,71,59,48,45,8,107,137,44,35,17,20,14,8,45,41,174,72,21,23,83,126,60,235,26,124,33,111,26,9,126,64,18,147,72,164,81,37,138,122,34,166,24,121,27,148,47,64,52,29,83,69,45,135,22,103,35,48,141,71,36,173,80,9,70,96,72,65,62,65,84,5,43,11,25,51,38,71,162,68,252,36,183,117,150,203,105,122,96,114,236,23,114,51,62,33,101,23,91,39,31,20,123,45,225,81,69,70,137,75,279,24,74,47,90,85,122,28,22,22,16,24,10,22,13,1,-3,-20,-16,-25,-64,-76,-20,-14,-17,-25,-7,-7,-5,-1,-7,-7,0,0,0,-2,0,5,8,10,11,12,41,80,23,119,38,66,92,104,17,144,125,92,21,46,45,60,51,14,18,10,3,-1,-10,-22,-20,-29,-16,-11,-62,-3,-16,-13,-9,-14,-111,-242,-28,-12,-11,-50,-47,-53,-14,-9,5,1,11,1,2,5,2,2,5,4,0,0,0,0,5,2,2,3,2,3,1,7,4,0,0,2,2,2,3,3,4,0,2,0,0,0,-5,-8,-9,-27,-10,-31,-54,-17,-16,-24,-7,-5,-4,2,7,37,14,32,26,29,30,20,17,12,3,-5,-10,-23,-34,-70,-49,-34,-40,-109,-66,-37,-90,-50,-48,-70,-49,-207,-259,-13,-9,-40,-23,-21,-13,-26,-17,-10,-87,-41,-15,-81,-47,-13,-19,-58,-125,-38,-92],
      "delta_lng":[0,398,47,93,246,71,29,178,32,18,4,167,53,30,225,45,45,125,18,45,75,17,49,15,14,9,233,17,51,41,251,131,112,53,53,138,57,157,57,254,39,70,13,13,32,108,44,70,83,139,55,212,51,52,16,30,68,51,39,31,35,38,30,28,29,37,113,101,45,2,123,125,17,109,102,51,104,126,118,121,53,62,15,29,23,38,33,29,36,23,17,22,25,27,29,40,8,4,29,50,31,22,5,26,55,31,79,23,36,48,13,45,37,60,93,81,55,24,82,48,45,90,31,30,71,215,46,171,174,49,40,34,30,44,46,101,20,138,41,150,201,24,121,115,67,164,43,32,23,30,13,13,22,42,19,20,22,16,18,13,13,26,41,14,35,20,0,84,62,1,13,2,16,2,-2,-11,-14,-7,-5,-3,2,7,14,48,40,17,22,7,13,40,14,8,10,18,22,1,33,62,114,20,7,15,65,36,58,17,18,27,5,5,16,6,30,37,46,12,28,42,20,36,23,33,16,23,19,20,75,59,23,32,54,84,94,33,106,13,26,37,114,43,27,25,22,248,75,202,226,36,56,62,11,44,35,18,77,41,94,429,61,42,34,47,51,50,60,86,111,13,74,38,75,35,31,23,50,39,43,26,22,44,54,54,29,29,63,6,61,3,75,70,114,129,168,60,46,16,44,38,145,35,9,14,57,56,15,124,32,56,87,97,132,53,41,15,261,485,131,78,24,143,21,87,43,149,21,24,130,68,51,21,106,29,69,57,79,59,43,93,54,213,108,337,71,57,195,62,53,258,88,49,137,20,77,50,32,27,32,19,10,56,148,64,18,50,31,51,34,25,32,27,88,88,367,30,78,261,166,44,141,97,17,97,60,10,96,35,80,18,26,82,33,123,16,31,143,83,16,42,77,25,91,39,42,18,27,53,165,101,78,103,63,31,19,34,24,9,25,34,33,50,58,16,5,10,131,49,8,28,43,26,20,60,39,6,11,15,12,23,18,55,60,9,52,12,27,138,23,19,34,5,9,22,27,47,36,9,3,26,8,11,12,40,35,7,17,63,37,23,49,42,147,47,44,150,34,72,50,89,40,85,4,18,32,36,22,2,9,16,39,38,18,54,23,26,33,7,23,2,109,9,25,31,47,35,18,46,13,21,3,29,18,53,10,39,59,24,21,18,37,52,87,137,99,59,11,92,58,65,136,85,58,169,36,120,215,77,196,6,113,25,156,47,4,40,31,45,62,91,110,6,51,106,64,64,45,100,28,40,87,20,10,222,32,54,63,17,182,10,5,18,25,29,1,21,25,37,53,45,123,50,56,53,95,19,25,42,11,18,30,76,88,94,139,164,215,28,95,45,26,67,30,26,35,35,18,154,8,8,83,40,39,28,21,177,28,13,13,19,36,31,39,17,18,14,101,124,139,66,107,42,55,44,5,37,30,12,29,40,52,49,93,38,45,53,12,76,98,88,100,108,29,33,51,68,79,32,144,54,83,306,210,194,104,136,76,69,79,107,32,75,54,43,42,72,67,107,163,103,118,10,70,55,60,85,81,203,84,176,60,172,43,23,219,46,66,72,49,43,56,49,124,109,115,85,49,73,156,160,123,99,63,47,38,40,57,113,134,86,174,154,115,35,137,42,41,72,63,35,40,12,17,31,37,46,43,25,29,16,25,14,24,25,18,23,40,56,18,21,35,35,39,42,23,38,27,37,57,52,13,37,110,146,143,79,58,55,80,48,43,114,10,10,9,157,199,28,26,126,64,71,63,36,42,41,41,43,54,41,122,120,96,91,134,55,39,22,26,45,38,113,92,201,228,128,149,96,73,75,128,86,123,42,15,59,51,74,64,65,72,57,183,110,85,101,95,38,11,21,37,27,28,61,39,104,143,68,27,44,45,104,166,57,83,72,93,71,188,77,72,225,190,152,126,117,22,291,366,103,65,30,34,16,8,73,56,214,86,26,28,103,153,74,288,31,155,43,134,32,10,160,79,23,183,90,201,96,46,169,151,40,204,29,153,31,187,59,68,43,20,48,33,21,54,8,36,10,17,50,25,13,64,36,4,45,77,77,93,116,167,208,10,92,23,42,67,40,54,101,36,139,20,96,64,79,109,56,92,99,157,314,31,134,53,67,31,97,20,87,37,28,19,115,46,213,76,66,65,130,74,261,25,71,46,87,83,119,36,36,42,37,59,32,101,96,80,69,124,70,59,142,160,51,36,62,127,74,130,79,435,209,213,77,83,14,174,80,34,51,47,41,52,146,239,69,330,105,179,251,293,47,403,355,258,57,125,133,160,147,52,90,58,68,112,93,118,87,136,65,53,271,15,69,36,18,38,225,482,75,29,38,181,171,205,80,84,121,91,386,133,229,216,149,159,301,333,274,41,142,272,291,258,145,177,116,164,221,314,252,156,101,226,292,270,220,143,205,87,162,3,267,215,217,146,87,169,66,193,345,111,109,165,71,41,52,91,79,128,36,90,67,84,111,95,79,110,54,147,97,125,138,301,222,115,108,253,135,78,194,107,101,121,67,285,392,29,23,128,78,74,45,87,50,30,269,126,46,253,142,40,62,175,330,106,260]
    }
  ]
}