{
  "code":31013,
  "name":"四日市あすなろう鉄道内部線",
  "station_list":[
    {"code":3100801,"id":"a33b9c","name":"近鉄四日市（あすなろう四日市）","name_kana":"きんてつよっかいち（あすなろうよっかいち）","lat":34.966495,"lng":136.618352,"prefecture":24,"lines":[31008,31027,31013,31028,31029],"attr":"eco","postal_code":"510-0075","address":"四日市市安島１-１-５６"},
    {"code":3101302,"id":"2865ee","name":"赤堀","name_kana":"あかほり","lat":34.95919,"lng":136.6104,"prefecture":24,"lines":[31013,31028,31029],"attr":"eco","postal_code":"510-0826","address":"四日市市赤堀２-１３-２０"},
    {"code":3101303,"id":"1cf5ec","name":"日永","name_kana":"ひなが","lat":34.95594,"lng":136.604409,"prefecture":24,"lines":[31013,31014,31028,31029],"attr":"eco","postal_code":"510-0885","address":"四日市市日永１-１４-６"},
    {"code":3101304,"id":"523e39","name":"南日永","name_kana":"みなみひなが","lat":34.949949,"lng":136.601015,"prefecture":24,"lines":[31013,31028],"attr":"eco","postal_code":"510-0885","address":"四日市市日永４-５-４８"},
    {"code":3101305,"id":"8b8c75","name":"泊(三重)","name_kana":"とまり","lat":34.940375,"lng":136.598491,"prefecture":24,"lines":[31013,31028],"attr":"eco","postal_code":"510-0884","address":"四日市市泊町３-２０"},
    {"code":3101306,"id":"3de7e6","name":"追分(三重)","name_kana":"おいわけ","lat":34.933931,"lng":136.596174,"prefecture":24,"lines":[31013,31028],"attr":"cool","postal_code":"510-0882","address":"四日市市追分３-３-１９"},
    {"code":3101307,"id":"7e42c6","name":"小古曽","name_kana":"おごそ","lat":34.928701,"lng":136.592322,"prefecture":24,"lines":[31013,31028],"attr":"heat","postal_code":"510-0958","address":"四日市市小古曽２-６-１２"},
    {"code":3101308,"id":"76ab5c","name":"内部","name_kana":"うつべ","lat":34.925515,"lng":136.58697,"prefecture":24,"lines":[31013,31028],"attr":"heat","postal_code":"510-0958","address":"四日市市小古曽３-５-２９"}
  ],
  "north":34.96795,
  "south":34.92529,
  "east":136.61872,
  "west":136.5867,
  "polyline_list":[
    {
      "start":"内部",
      "end":"あすなろう四日市",
      "lat":34.92529,
      "lng":136.5867,
      "delta_lat":[0,24,27,8,53,53,41,18,34,17,14,24,52,9,114,164,96,28,50,11,53,10,11,4,99,63,94,94,105,96,13,67,24,91,9,99,77,21,141,40,83,110,17,126,27,22,59,13,44,57,22,83,17,16,25,53,21,33,17,66,13,5,18,43,2,55,18,8,60,42,12,6,10,6,6,6,0,4,11,44,8,40,37,6,19,90,27,73,1,33,34,9,60,47,22,85,47,104,49,102,46],
      "delta_lng":[0,23,29,8,101,117,93,38,67,24,13,20,42,7,91,135,80,17,23,4,23,4,4,1,37,21,36,35,36,34,3,22,8,29,2,27,19,7,36,10,21,29,4,32,7,6,15,3,10,16,6,21,6,10,26,66,27,32,7,22,5,2,12,30,2,45,13,8,49,40,15,7,13,16,14,44,108,30,28,83,15,70,65,11,34,181,55,161,1,54,42,11,64,42,20,68,7,15,8,15,7]
    }
  ]
}