{
  "code":31018,
  "name":"近鉄御所線",
  "color":"#006400",
  "symbol":"P",
  "station_list":[
    {"code":3100323,"id":"380e2f","name":"尺土","name_kana":"しゃくど","lat":34.508577,"lng":135.721404,"prefecture":29,"numbering":[{"index":"23"}],"lines":[31003,31018],"attr":"heat","postal_code":"639-2162","address":"葛城市尺土２２８"},
    {"code":3101802,"id":"10fb95","name":"近鉄新庄","name_kana":"きんてつしんじょう","lat":34.489105,"lng":135.727338,"prefecture":29,"numbering":[{"index":"24"}],"lines":[31018],"attr":"cool","postal_code":"639-2111","address":"葛城市柿本１５７-４"},
    {"code":3101803,"id":"e2b4cf","name":"忍海","name_kana":"おしみ","lat":34.476062,"lng":135.731988,"prefecture":29,"numbering":[{"index":"25"}],"lines":[31018],"attr":"cool","postal_code":"639-2123","address":"葛城市忍海３４２-２"},
    {"code":3101804,"id":"36d145","name":"近鉄御所","name_kana":"きんてつごせ","lat":34.46468,"lng":135.732496,"prefecture":29,"numbering":[{"index":"26"}],"lines":[31018],"attr":"cool","postal_code":"639-2200","address":"御所市１８０-１"}
  ],
  "north":34.5086,
  "south":34.46416,
  "east":135.73239,
  "west":135.71959,
  "polyline_list":[
    {
      "start":"尺土",
      "end":"御所",
      "lat":34.50854,
      "lng":135.71959,
      "delta_lat":[0,1,5,-7,-15,-14,-15,-16,-21,-20,-17,-9,-26,-32,-35,-28,-36,-31,-211,-618,-281,-211,-110,-96,-33,-97,-110,-23,-4,-54,-26,-36,-24,-34,-36,-11,-7,-4,-40,-164,-2,-5,-11,-9,-20,-11,-32,-62,-7,-7,-16,-1,-5,-13,-110,-12,-9,-4,-50,-4,-16,-8,-7,-38,-32,-7,-33,-64,-40,-4,-6,-32,-67,-162,-130,-325,-421,-110],
      "delta_lng":[0,243,124,28,48,36,31,26,29,21,14,6,18,17,13,7,2,0,16,44,19,14,6,6,2,-2,1,0,0,0,2,8,7,11,17,4,5,1,19,82,2,2,5,6,9,6,15,32,1,6,7,1,2,6,55,4,7,1,25,2,8,4,3,19,16,4,15,29,14,3,0,6,5,5,4,10,14,2]
    }
  ]
}