{
  "code":31017,
  "name":"近鉄田原本線",
  "color":"#EEC900",
  "symbol":"I",
  "station_list":[
    {"code":3101701,"id":"4ec96d","name":"西田原本","name_kana":"にしたわらもと","lat":34.553909,"lng":135.789512,"prefecture":29,"numbering":[{"index":"36"}],"lines":[31017],"attr":"cool","postal_code":"636-0317","address":"磯城郡田原本町大字殿町２０２-２"},
    {"code":3101702,"id":"6d99b4","name":"黒田(奈良)","name_kana":"くろだ","lat":34.56841,"lng":135.777794,"prefecture":29,"numbering":[{"index":"37"}],"lines":[31017],"attr":"cool","postal_code":"636-0301","address":"磯城郡田原本町大字黒田２７７-２３４５"},
    {"code":3101703,"id":"998adb","name":"但馬","name_kana":"たじま","lat":34.569462,"lng":135.768269,"prefecture":29,"numbering":[{"index":"38"}],"lines":[31017],"attr":"cool","postal_code":"636-0214","address":"磯城郡三宅町大字但馬２６３"},
    {"code":3101704,"id":"d9cb75","name":"箸尾","name_kana":"はしお","lat":34.570287,"lng":135.751245,"prefecture":29,"numbering":[{"index":"39"}],"lines":[31017],"attr":"cool","postal_code":"635-0805","address":"北葛城郡広陵町大字萱野３１２-２"},
    {"code":3101705,"id":"7dc258","name":"池部","name_kana":"いけべ","lat":34.578755,"lng":135.737166,"prefecture":29,"numbering":[{"index":"40"}],"lines":[31017],"attr":"eco","postal_code":"636-0053","address":"北葛城郡河合町大字池部２５５-２"},
    {"code":3101706,"id":"6a4ed1","name":"佐味田川","name_kana":"さみたがわ","lat":34.585213,"lng":135.731047,"prefecture":29,"numbering":[{"index":"41"}],"lines":[31017],"attr":"eco","postal_code":"636-0092","address":"北葛城郡河合町大字城内１２８-１"},
    {"code":3101707,"id":"8be333","name":"大輪田","name_kana":"おおわだ","lat":34.589173,"lng":135.720328,"prefecture":29,"numbering":[{"index":"42"}],"lines":[31017],"attr":"heat","postal_code":"636-0093","address":"北葛城郡河合町大字大輪田１８０９-２"},
    {"code":3101708,"id":"9fa077","name":"新王寺","name_kana":"しんおうじ","lat":34.597722,"lng":135.704337,"prefecture":29,"numbering":[{"index":"43"}],"lines":[31017],"attr":"heat","postal_code":"636-0003","address":"北葛城郡王寺町久度２-１-１"}
  ],
  "north":34.59769,
  "south":34.55337,
  "east":135.78955,
  "west":135.70433,
  "polyline_list":[
    {
      "start":"新王寺",
      "end":"西田原本",
      "lat":34.59769,
      "lng":135.70433,
      "delta_lat":[0,-2,-2,-3,-6,-18,-71,-16,-16,-14,-15,-28,-28,-13,-14,-3,-44,-13,-19,-33,-18,-71,-138,-34,-26,-21,-16,-19,-33,-4,-12,-9,-4,-2,0,0,-3,-6,-9,-43,-9,-7,-20,-11,-93,-12,-9,-11,-21,-91,-61,-44,-16,-36,-4,-34,-9,-26,-15,-11,-27,-15,-42,-240,-54,-35,-17,-12,-10,-21,-39,-29,-2,-13,-20,-24,-129,-92,-20,-45,-35,-55,-49,-24,-60,-44,-52,-35,-21,-14,-12,-9,-1,-7,-21,-9,-11,-2,-5,-15,-18,-6,-3,-2,-16,-4,-5,-2,0,0,-2,-1,-2,-2,-2,-4,-2,-1,-2,-2,0,-2,-2,0,-1,-2,-3,-1,0,-1,-1,-2,-1,-3,-3,-2,-3,-4,-3,-2,0,-2,-2,-5,-7,-13,-13,-3,-18,-26,-16,-29,-27,-74,-14,-18,-9,-26,-41,-31,-22,-3,-33,-43,-93,-23,0,-22,-22,-27,-59,-80,-92,-33,-7,-49,-5,-3,-27,-12,-50,-6,-5,-7,-3,-22,-26,-8,-11,-40,-19,-12,-42,-18,-38,-143,-108],
      "delta_lng":[0,75,45,27,26,58,203,43,31,19,15,14,9,1,1,0,0,1,1,5,3,36,88,27,27,26,27,38,74,7,36,32,21,21,28,76,64,60,54,181,40,27,76,48,367,42,26,27,46,191,134,93,29,58,7,42,9,27,16,10,18,9,19,102,32,31,22,19,23,55,101,78,3,32,37,33,172,124,25,42,32,46,43,18,52,35,51,45,46,35,44,45,13,37,111,43,52,12,30,68,86,43,14,8,77,19,41,51,30,26,72,50,108,51,81,157,63,55,113,10,54,38,34,27,66,36,99,10,22,27,27,63,45,94,111,52,105,98,119,23,43,44,36,38,43,54,35,9,48,56,19,36,30,88,14,22,8,27,46,34,20,9,36,45,104,24,3,21,26,27,63,87,98,36,7,52,5,4,27,12,38,4,5,4,3,12,13,3,5,14,5,2,11,5,2,5,0]
    }
  ]
}