{
  "code":31016,
  "name":"近鉄生駒線",
  "color":"#FF0000",
  "symbol":"G",
  "station_list":[
    {"code":3101601,"id":"8289b8","name":"生駒","name_kana":"いこま","lat":34.693082,"lng":135.698006,"prefecture":29,"numbering":[{"index":"17"}],"lines":[31016,31020,31023],"attr":"heat","postal_code":"630-0257","address":"生駒市元町１-１-１"},
    {"code":3101602,"id":"56e6a6","name":"菜畑","name_kana":"なばた","lat":34.685535,"lng":135.706769,"prefecture":29,"numbering":[{"index":"18"}],"lines":[31016],"attr":"heat","postal_code":"630-0263","address":"生駒市中菜畑１-５４-２"},
    {"code":3101603,"id":"1b5953","name":"一分","name_kana":"いちぶ","lat":34.675408,"lng":135.707992,"prefecture":29,"numbering":[{"index":"19"}],"lines":[31016],"attr":"heat","postal_code":"630-0222","address":"生駒市壱分町９０２-３"},
    {"code":3101604,"id":"e1fc6f","name":"南生駒","name_kana":"みなみいこま","lat":34.665484,"lng":135.708769,"prefecture":29,"numbering":[{"index":"20"}],"lines":[31016],"attr":"heat","postal_code":"630-0223","address":"生駒市小瀬町６９２-２"},
    {"code":3101605,"id":"56468d","name":"萩の台","name_kana":"はぎのだい","lat":34.656974,"lng":135.708967,"prefecture":29,"numbering":[{"index":"21"}],"lines":[31016],"attr":"heat","postal_code":"630-0224","address":"生駒市萩の台１-３-１"},
    {"code":3101606,"id":"718eba","name":"東山(奈良)","name_kana":"ひがしやま","lat":34.648633,"lng":135.7085,"prefecture":29,"numbering":[{"index":"22"}],"lines":[31016],"attr":"heat","postal_code":"630-0225","address":"生駒市東山町１１４４-１２"},
    {"code":3101607,"id":"77e9f4","name":"元山上口","name_kana":"もとさんじょうぐち","lat":34.640562,"lng":135.700887,"prefecture":29,"numbering":[{"index":"23"}],"lines":[31016],"attr":"heat","postal_code":"636-0901","address":"生駒郡平群町椣原８０２"},
    {"code":3101608,"id":"e4b10c","name":"平群","name_kana":"へぐり","lat":34.629291,"lng":135.704345,"prefecture":29,"numbering":[{"index":"24"}],"lines":[31016],"attr":"eco","postal_code":"636-0932","address":"生駒郡平群町吉新４-３-３２"},
    {"code":3101609,"id":"b3e347","name":"竜田川","name_kana":"たつたがわ","lat":34.617272,"lng":135.704559,"prefecture":29,"numbering":[{"index":"25"}],"lines":[31016],"attr":"eco","postal_code":"636-0914","address":"生駒郡平群町西宮２-７-１２"},
    {"code":3101610,"id":"3e38ab","name":"勢野北口","name_kana":"せやきたぐち","lat":34.606098,"lng":135.700979,"prefecture":29,"numbering":[{"index":"26"}],"lines":[31016],"attr":"eco","postal_code":"636-0811","address":"生駒郡三郷町勢野東４-３-５０"},
    {"code":3101611,"id":"ad184a","name":"信貴山下","name_kana":"しぎさんした","lat":34.600935,"lng":135.695172,"prefecture":29,"numbering":[{"index":"27"}],"lines":[31016],"attr":"cool","postal_code":"636-0812","address":"生駒郡三郷町勢野西１-４-１"},
    {"code":1160708,"id":"5b8137","name":"王寺","name_kana":"おうじ","lat":34.597448,"lng":135.704005,"prefecture":29,"numbering":[{"index":"28"}],"lines":[11607,11636,31016],"attr":"cool","postal_code":"636-0003","address":"北葛城郡王寺町久度２丁目"}
  ],
  "north":34.69308,
  "south":34.59769,
  "east":135.7108,
  "west":135.6951,
  "polyline_list":[
    {
      "start":"新王寺",
      "end":"生駒",
      "lat":34.59774,
      "lng":135.70317,
      "delta_lat":[0,-5,7,4,4,4,10,12,22,27,2,47,33,3,26,27,23,18,18,69,30,51,67,36,36,21,6,30,23,6,17,4,49,81,11,33,14,31,52,49,73,128,67,50,18,20,156,133,270,64,224,52,21,52,40,32,41,41,24,18,14,25,53,34,24,25,48,39,45,51,75,80,86,64,92,47,114,68,21,29,48,270,164,124,34,25,20,18,55,33,46,21,30,4,13,11,11,12,19,19,15,16,21,50,56,27,19,29,57,86,70,39,18,121,47,43,58,44,27,21,47,94,56,54,26,30,42,81,67,60,162,290,36,16,45,20,20,27,126,55,51,49,50,45,29,36,46,162,4,27,2,52,45,91,19,13,105,7,20,61,30,21,18,67,17,45,32,99,12,79,16,27,22,119,52,64,4,12,47,62,3,31,45,41,20,107,2,53,39,22,63,4,32,20,32,51,23,14,52,1,42,76,18,2,16,13,21,20,11,9,4,36,20,2,24,5,13,1,5,4,6,12,4,1,2,2,-1,-12],
      "delta_lng":[0,-87,-321,-39,-27,-20,-28,-32,-44,-43,-3,-65,-43,-3,-29,-14,-7,-2,2,11,9,19,29,21,22,21,5,33,38,9,34,8,100,173,25,64,29,39,48,39,47,67,29,15,1,3,5,1,8,4,1,1,0,0,3,9,15,25,20,15,12,20,37,17,9,3,-3,-6,-15,-28,-41,-48,-58,-40,-60,-29,-68,-37,-10,-10,-15,-67,-36,-28,-4,1,5,6,31,24,39,26,48,8,30,21,32,34,53,45,30,28,26,56,55,27,15,22,37,39,26,15,8,42,18,9,6,0,-2,-5,-19,-42,-16,-8,-1,4,10,29,24,20,58,101,11,2,0,-6,-6,-18,-98,-42,-46,-34,-21,-13,-1,1,6,32,1,6,0,5,-1,-9,-4,-1,-11,-1,-2,-7,-5,-1,-2,-9,-1,-5,-3,-11,-1,-9,-3,-3,-3,-15,-6,-7,0,-2,-5,-6,0,-3,-7,-6,-3,-20,0,-16,-19,-11,-50,-2,-28,-17,-28,-44,-18,-13,-44,-2,-37,-66,-14,-3,-14,-11,-19,-20,-11,-9,-4,-46,-27,-4,-39,-9,-25,-4,-9,-13,-13,-40,-17,-11,-14,-11,-10,-194]
    }
  ]
}