{
  "code":31023,
  "name":"近鉄けいはんな線",
  "color":"#228B22",
  "symbol":"C",
  "station_list":[
    {"code":3102301,"id":"72cb52","name":"長田(大阪)","name_kana":"ながた","lat":34.678747,"lng":135.591919,"prefecture":27,"numbering":[{"index":"23"}],"lines":[31023,99621],"attr":"heat","postal_code":"577-0013","address":"東大阪市長田中２-２１-２"},
    {"code":3102302,"id":"cae847","name":"荒本","name_kana":"あらもと","lat":34.678627,"lng":135.604912,"prefecture":27,"numbering":[{"index":"24"}],"lines":[31023],"attr":"heat","postal_code":"577-0011","address":"東大阪市荒本北５００-１"},
    {"code":3102303,"id":"9603b6","name":"吉田(大阪)","name_kana":"よした","lat":34.680294,"lng":135.624135,"prefecture":27,"numbering":[{"index":"25"}],"lines":[31023],"attr":"eco","postal_code":"578-0903","address":"東大阪市今米１-１-６"},
    {"code":3102304,"id":"83ed43","name":"新石切","name_kana":"しんいしきり","lat":34.680133,"lng":135.640859,"prefecture":27,"numbering":[{"index":"26"}],"lines":[31023],"attr":"eco","postal_code":"579-8013","address":"東大阪市西石切町３-３"},
    {"code":3101601,"id":"8289b8","name":"生駒","name_kana":"いこま","lat":34.693082,"lng":135.698006,"prefecture":29,"numbering":[{"index":"27"}],"lines":[31016,31020,31023],"attr":"heat","postal_code":"630-0257","address":"生駒市元町１-１-１"},
    {"code":3102306,"id":"b56a0a","name":"白庭台","name_kana":"しらにわだい","lat":34.720345,"lng":135.716686,"prefecture":29,"numbering":[{"index":"28"}],"lines":[31023],"attr":"eco","postal_code":"630-0136","address":"生駒市白庭台６丁目２１９２-２"},
    {"code":3102307,"id":"4d688d","name":"学研北生駒","name_kana":"がっけんきたいこま","lat":34.724789,"lng":135.723038,"prefecture":29,"numbering":[{"index":"29"}],"lines":[31023],"attr":"cool","postal_code":"630-0131","address":"生駒市上町３５３５-６"},
    {"code":3102308,"id":"3c38d7","name":"学研奈良登美ヶ丘","name_kana":"がっけんならとみがおか","lat":34.726518,"lng":135.752424,"prefecture":29,"numbering":[{"index":"30"}],"lines":[31023],"attr":"cool","postal_code":"631-0003","address":"奈良県奈良市中登美ヶ丘六丁目1-1"}
  ],
  "north":34.72645,
  "south":34.67858,
  "east":135.75,
  "west":135.59111,
  "polyline_list":[
    {
      "start":"長田",
      "end":"学研奈良登美ヶ丘",
      "lat":34.67876,
      "lng":135.59111,
      "delta_lat":[0,0,-1,-6,-7,-4,6,-1,-2,1,-1,2,1,1,6,11,10,49,35,27,12,15,5,2,-5,-9,1,-4,-1,1,-3,-4,-1,-2,0,-2,-2,0,0,0,-3,1,1,3,5,1,6,3,3,18,18,14,14,56,6,10,1,18,4,42,23,66,37,7,26,28,6,117,8,50,17,10,31,33,37,13,39,21,29,9,25,48,14,20,14,6,7,3,10,10,11,18,9,8,0,7,8,3,5,2,2,5,6,3,6,0,8,2,7,3,8,8,5,7,2,7,6,14,2,12,2,8,7,6,1,6,5,16,6,5,4,4,0,14,2,2,15,-1,4,8,6,1,30,8,4,0,-3,-6,-4,0,-6,-2,-4,0,-2,-12,-1,-10,-8,-7,-5,-8,-5,0,-6,2,-3,-45,-4,-4,10,18,36,49,52,54,65,76,76,72,36,46,56,90,106,108,333,578,121,124,97,149,99,96,134,106,95,54,328,53,23,13,9,8,5,7,7,49,13],
      "delta_lng":[0,171,62,269,445,316,79,94,164,107,167,114,34,80,74,83,59,262,163,126,94,108,36,126,217,333,23,323,82,-14,113,432,141,172,5,43,158,45,32,147,109,66,53,57,68,18,40,15,12,59,59,53,54,188,20,29,3,44,15,83,41,94,46,10,26,28,6,109,8,46,16,9,27,32,37,15,39,34,41,17,52,101,35,55,48,23,37,17,56,62,58,116,80,54,7,59,60,21,45,20,12,53,37,27,38,6,63,21,40,24,67,54,51,52,28,43,50,111,23,101,23,63,58,60,3,48,42,192,84,61,65,50,13,193,37,25,239,55,26,71,43,9,235,60,58,69,28,38,41,3,29,17,16,4,14,82,8,56,51,30,34,45,20,14,30,57,31,261,35,193,83,93,96,91,69,64,53,38,26,16,2,1,-11,-26,-53,-62,-190,-321,-35,-14,4,25,35,52,99,112,142,94,551,122,76,54,122,267,343,390,245,932,168]
    }
  ]
}