{
  "code":31029,
  "name":"近鉄八王子線",
  "station_list":[
    {"code":3100801,"id":"a33b9c","name":"近鉄四日市（あすなろう四日市）","name_kana":"きんてつよっかいち（あすなろうよっかいち）","lat":34.966495,"lng":136.618352,"prefecture":24,"lines":[31008,31027,31013,31028,31029],"attr":"eco","postal_code":"510-0075","address":"四日市市安島１-１-５６","next":[3102722,3101302,3102720,3100802,1150812],"voronoi":{"lat":34.975862,"lng":136.611938,"delta_lat":[0,-8701,-6095,255,8285],"delta_lng":[0,-1528,5599,7202,2646]}},
    {"code":3101302,"id":"2865ee","name":"赤堀","name_kana":"あかほり","lat":34.95919,"lng":136.6104,"prefecture":24,"lines":[31013,31028,31029],"attr":"eco","postal_code":"510-0826","address":"四日市市赤堀２-１３-２０","next":[3102722,3100801,1150813,3101303,3100802],"voronoi":{"lat":34.962724,"lng":136.604606,"delta_lat":[0,-12426,-13,10781,6095],"delta_lng":[0,6742,294,4367,-5599]}},
    {"code":3101303,"id":"1cf5ec","name":"日永","name_kana":"ひなが","lat":34.95594,"lng":136.604409,"prefecture":24,"lines":[31013,31014,31028,31029],"attr":"eco","postal_code":"510-0885","address":"四日市市日永１-１４-６","next":[3100803,3101304,3101302,3100802,3101404,1150813],"voronoi":{"lat":34.949419,"lng":136.608935,"delta_lat":[0,6514,5533,211,1047,-12426],"delta_lng":[0,-11497,-1272,213,8226,6742]}},
    {"code":3101404,"id":"85febb","name":"西日野","name_kana":"にしひの","lat":34.952896,"lng":136.591163,"prefecture":24,"lines":[31014,31029],"attr":"heat","postal_code":"510-0943","address":"四日市市西日野町字東浦３０","next":[3101304,3100804,3101303,3101305,3101306,3101307,3101308,3100803],"voronoi":{"lat":34.96092,"lng":136.574575,"delta_lat":[0,-16854,-3744,11,987,5195,9418,5533],"delta_lng":[0,-17246,24452,226,3738,8877,2817,-1272]}}
  ],
  "north":34.95623,
  "south":34.95283,
  "east":136.60458,
  "west":136.59085,
  "polyline_list":[
    {
      "start":"西日野",
      "end":"日永",
      "lat":34.95283,
      "lng":136.59085,
      "delta_lat":[0,23,173,77,12,6,-1,-8,-3,-3,2,3,4,55],
      "delta_lng":[0,69,435,197,40,53,97,213,94,91,12,15,13,45]
    }
  ]
}