{
  "code":31020,
  "name":"近鉄奈良線",
  "color":"#FF0000",
  "symbol":"A",
  "station_list":[
    {"code":3100106,"id":"988952","name":"布施","name_kana":"ふせ","closed":true,"lat":34.664092,"lng":135.563516,"prefecture":27,"numbering":[{"index":"06"}],"lines":[31005,31020],"attr":"heat","postal_code":"577-0056","address":"東大阪市長堂１-１-１８"},
    {"code":3102002,"id":"2980b1","name":"河内永和","name_kana":"かわちえいわ","lat":34.664276,"lng":135.573179,"prefecture":27,"numbering":[{"index":"07"}],"lines":[31020],"attr":"heat","postal_code":"577-0054","address":"東大阪市高井田元町１-１-５"},
    {"code":3102003,"id":"5eeb34","name":"河内小阪","name_kana":"かわちこさか","lat":34.66394,"lng":135.5815,"prefecture":27,"numbering":[{"index":"08"}],"lines":[31020],"attr":"heat","postal_code":"577-0801","address":"東大阪市小阪１-８-８"},
    {"code":3102004,"id":"8c6f53","name":"八戸ノ里","name_kana":"やえのさと","lat":34.663721,"lng":135.589475,"prefecture":27,"numbering":[{"index":"09"}],"lines":[31020],"attr":"heat","postal_code":"577-0801","address":"東大阪市小阪３-１-１"},
    {"code":3102005,"id":"55a577","name":"若江岩田","name_kana":"わかえいわた","lat":34.66311,"lng":135.608315,"prefecture":27,"numbering":[{"index":"10"}],"lines":[31020],"attr":"heat","postal_code":"578-0941","address":"東大阪市岩田町４-４-２１"},
    {"code":3102006,"id":"373a62","name":"河内花園","name_kana":"かわちはなぞの","lat":34.662713,"lng":135.618347,"prefecture":27,"numbering":[{"index":"11"}],"lines":[31020],"attr":"heat","postal_code":"578-0924","address":"東大阪市吉田１-１-３０"},
    {"code":3102007,"id":"2fb315","name":"東花園","name_kana":"ひがしはなぞの","lat":34.662388,"lng":135.626808,"prefecture":27,"numbering":[{"index":"12"}],"lines":[31020],"attr":"eco","postal_code":"578-0924","address":"東大阪市吉田７-１-１"},
    {"code":3102008,"id":"e2e823","name":"瓢箪山(大阪)","name_kana":"ひょうたんやま","lat":34.66196,"lng":135.639143,"prefecture":27,"numbering":[{"index":"13"}],"lines":[31020],"attr":"eco","postal_code":"579-8046","address":"東大阪市昭和町４-１"},
    {"code":3102009,"id":"26f3d9","name":"枚岡","name_kana":"ひらおか","lat":34.669579,"lng":135.648067,"prefecture":27,"numbering":[{"index":"14"}],"lines":[31020],"attr":"eco","postal_code":"579-8033","address":"東大阪市出雲井町２-６"},
    {"code":3102010,"id":"64bae0","name":"額田(大阪)","name_kana":"ぬかた","lat":34.675181,"lng":135.651086,"prefecture":27,"numbering":[{"index":"15"}],"lines":[31020],"attr":"cool","postal_code":"579-8022","address":"東大阪市山手町２-１０"},
    {"code":3102011,"id":"ea0afa","name":"石切","name_kana":"いしきり","lat":34.684739,"lng":135.654996,"prefecture":27,"numbering":[{"index":"16"}],"lines":[31020],"attr":"cool","postal_code":"579-8012","address":"東大阪市上石切町２-１６２７-６"},
    {"code":3101601,"id":"8289b8","name":"生駒","name_kana":"いこま","lat":34.693082,"lng":135.698006,"prefecture":29,"numbering":[{"index":"17"}],"lines":[31016,31020,31023],"attr":"heat","postal_code":"630-0257","address":"生駒市元町１-１-１"},
    {"code":3102013,"id":"c2a30a","name":"東生駒","name_kana":"ひがしいこま","lat":34.691729,"lng":135.710488,"prefecture":29,"numbering":[{"index":"18"}],"lines":[31020],"attr":"cool","postal_code":"630-0213","address":"生駒市東生駒１-６"},
    {"code":3102014,"id":"fb16df","name":"富雄","name_kana":"とみお","lat":34.694229,"lng":135.734825,"prefecture":29,"numbering":[{"index":"19"}],"lines":[31020],"attr":"cool","postal_code":"631-0078","address":"奈良市富雄元町２-３-３５"},
    {"code":3102015,"id":"141e49","name":"学園前(奈良)","name_kana":"がくえんまえ","lat":34.697018,"lng":135.749713,"prefecture":29,"numbering":[{"index":"20"}],"lines":[31020],"attr":"cool","postal_code":"631-0034","address":"奈良市学園南３-１-１"},
    {"code":3102016,"id":"e16ad3","name":"菖蒲池","name_kana":"あやめいけ","lat":34.69796,"lng":135.761331,"prefecture":29,"numbering":[{"index":"21"}],"lines":[31020],"attr":"heat","postal_code":"631-0033","address":"奈良市あやめ池南２-２-１"},
    {"code":3100201,"id":"2b87ba","name":"大和西大寺","name_kana":"やまとさいだいじ","lat":34.69358,"lng":135.783169,"prefecture":29,"numbering":[{"index":"26"}],"lines":[31002,31020,31025],"attr":"eco","postal_code":"631-0823","address":"奈良市西大寺国見町１-１-１"},
    {"code":3102018,"id":"9a4f3c","name":"新大宮","name_kana":"しんおおみや","lat":34.685434,"lng":135.810744,"prefecture":29,"numbering":[{"index":"27"}],"lines":[31020,31025],"attr":"eco","postal_code":"630-8114","address":"奈良市芝辻町４-１５-５"},
    {"code":3102019,"id":"0cc8f8","name":"近鉄奈良","name_kana":"きんてつなら","lat":34.684323,"lng":135.827472,"prefecture":29,"numbering":[{"index":"28"}],"lines":[31020,31025],"attr":"eco","postal_code":"630-8215","address":"奈良市東向中町２９"}
  ],
  "north":34.69793,
  "south":34.66189,
  "east":135.82857,
  "west":135.56251,
  "polyline_list":[
    {
      "start":"布施",
      "end":"近鉄奈良",
      "lat":34.66406,
      "lng":135.56251,
      "delta_lat":[0,5,2,4,5,2,0,1,0,0,-1,-10,-4,-4,-6,-4,-8,-10,-1,-4,-2,-3,-9,-1,-10,-2,-3,-9,-2,-10,-9,-5,-11,-13,-8,-6,-6,-3,-3,0,-20,-3,-3,-4,-5,-2,-2,-5,0,-2,-3,-4,-2,-1,-1,-5,-6,-1,4,3,14,20,16,22,29,33,54,68,51,34,79,9,25,148,77,46,66,6,35,16,25,49,41,25,40,17,7,10,11,58,30,32,21,31,40,5,67,2,45,72,12,18,41,44,3,20,6,43,9,10,24,35,20,21,76,47,24,23,5,24,34,20,26,5,6,13,17,17,25,61,7,31,23,13,18,20,9,9,8,9,52,7,88,67,24,18,24,1,4,2,5,2,6,7,3,2,9,2,6,1,0,7,6,0,7,6,7,0,7,0,7,7,20,1,1,13,2,0,7,18,3,1,5,6,1,8,7,7,5,2,13,2,1,6,7,0,7,7,2,7,10,2,5,3,7,6,6,3,3,4,7,6,7,7,7,0,6,7,6,13,1,8,7,7,0,5,2,13,5,22,4,8,6,1,30,8,4,0,-3,-6,-4,0,-6,-2,-4,0,-2,-12,-1,-10,-8,-7,-5,-8,-5,0,-6,-18,-3,-15,-5,-1,-48,-3,-13,-2,-7,0,-3,-2,-8,-21,-6,-12,-13,0,-2,-4,0,-5,2,-2,2,1,3,3,6,2,18,1,5,6,2,3,3,0,1,5,6,11,3,8,7,2,23,31,2,5,4,31,3,5,4,2,11,3,4,26,3,18,11,24,5,14,2,11,47,1,20,3,8,8,5,4,14,6,3,22,5,15,1,0,6,12,3,1,11,4,2,19,8,10,12,6,6,9,18,29,3,3,12,12,3,3,23,4,10,1,3,1,-11,-4,-5,-6,-1,-4,-5,-8,-7,-10,-11,-23,-39,-58,-80,-37,-15,-54,-100,-26,-27,-33,-47,-8,-3,-103,-74,-67,-38,-38,-32,-26,-25,-4,-36,-38,-31,-9,-23,-20,-11,-4,-15,-26,-18,-12,-3,-6,-10,-10,-8,0,0,-7,-8,-12,-9,-16,-6,-2,0,-20,-5,-4],
      "delta_lng":[0,212,55,154,196,117,37,178,7,41,131,341,130,78,138,131,221,323,24,107,139,102,347,14,293,36,116,230,60,290,277,119,304,347,227,140,182,53,55,14,413,97,112,155,154,105,53,152,42,14,127,126,77,13,47,80,95,46,57,38,62,64,44,48,54,44,54,50,31,16,24,3,7,39,23,12,20,4,26,10,18,34,32,21,29,12,4,6,8,28,12,10,5,9,12,2,29,1,21,31,5,10,19,22,3,11,3,23,4,5,10,9,4,0,-1,1,5,6,1,6,14,9,12,3,3,8,9,10,15,39,3,21,15,12,15,17,10,11,10,10,62,10,103,116,40,36,61,14,43,25,45,8,46,49,27,32,56,17,47,12,5,45,52,2,46,59,52,10,46,10,44,56,161,6,17,105,6,9,60,140,23,2,43,41,22,53,55,52,46,18,85,18,3,49,51,13,48,47,17,51,82,13,43,20,58,54,43,16,27,35,65,49,57,66,47,8,54,53,46,89,25,50,51,52,9,36,15,88,51,149,26,71,43,9,235,60,58,69,28,38,41,3,29,17,16,4,14,82,8,56,51,30,34,45,20,14,30,102,18,75,23,2,208,16,45,18,26,2,12,12,32,95,29,54,54,9,3,51,9,58,30,25,42,15,62,51,63,43,138,25,40,50,10,33,13,10,5,38,38,48,19,26,30,9,86,110,6,21,12,119,9,19,20,5,39,13,14,98,15,68,37,90,24,51,11,34,172,6,74,13,27,31,27,19,70,26,15,108,26,86,0,4,41,62,17,4,70,17,6,120,51,51,65,30,43,49,150,227,14,29,102,119,26,34,224,55,140,23,182,171,567,143,190,208,17,75,47,51,40,38,35,53,83,109,149,67,34,94,188,41,57,60,89,15,3,196,142,126,74,94,100,113,136,22,201,215,193,54,146,126,63,30,99,172,200,131,50,70,94,126,77,7,6,57,68,77,119,112,68,308,30,136,10,143]
    }
  ]
}