{
  "code":31025,
  "name":"近鉄京都線",
  "color":"#EEC900",
  "symbol":"B",
  "station_list":[
    {"code":100216,"id":"deedbe","name":"京都","name_kana":"きょうと","lat":34.985465,"lng":135.757748,"prefecture":26,"numbering":[{"index":"01"}],"lines":[11601,11602,11605,11614,11618,31025,99610,1002],"attr":"heat","postal_code":"600-8216","address":"京都市下京区烏丸通塩小路下ル東塩小路町"},
    {"code":3102502,"id":"0eda7c","name":"東寺","name_kana":"とうじ","lat":34.979967,"lng":135.752553,"prefecture":26,"numbering":[{"index":"02"}],"lines":[31025],"attr":"heat","postal_code":"601-8414","address":"京都市南区西九条蔵王町３９"},
    {"code":3102503,"id":"77d6ff","name":"十条(近畿日本鉄道)","name_kana":"じゅうじょう","lat":34.97398,"lng":135.752413,"prefecture":26,"numbering":[{"index":"03"}],"lines":[31025],"attr":"heat","postal_code":"601-8435","address":"京都市南区西九条柳の内町1"},
    {"code":3102504,"id":"df065a","name":"上鳥羽口","name_kana":"かみとばぐち","lat":34.965135,"lng":135.752625,"prefecture":26,"numbering":[{"index":"04"}],"lines":[31025],"attr":"heat","postal_code":"612-8417","address":"京都市伏見区竹田向代町川町１１０"},
    {"code":3102505,"id":"1e4e3d","name":"竹田(京都)","name_kana":"たけだ","lat":34.956825,"lng":135.756091,"prefecture":26,"numbering":[{"index":"05"}],"lines":[31025,99610],"attr":"heat","postal_code":"612-8421","address":"京都市伏見区竹田桶ノ井町"},
    {"code":3102506,"id":"cf2a9e","name":"伏見(京都)","name_kana":"ふしみ","lat":34.946054,"lng":135.761479,"prefecture":26,"numbering":[{"index":"06"}],"lines":[31025],"attr":"heat","postal_code":"612-8432","address":"京都市伏見区深草柴田屋敷町７９"},
    {"code":3102507,"id":"8ec5e5","name":"近鉄丹波橋","name_kana":"きんてつたんばばし","lat":34.938299,"lng":135.766262,"prefecture":26,"numbering":[{"index":"07"}],"lines":[31025],"attr":"heat","postal_code":"612-0072","address":"京都市伏見区桃山筒井伊賀東町４５"},
    {"code":3102508,"id":"09f097","name":"桃山御陵前","name_kana":"ももやまごりょうまえ","lat":34.933349,"lng":135.765537,"prefecture":26,"numbering":[{"index":"08"}],"lines":[31025],"attr":"heat","postal_code":"612-8101","address":"京都市伏見区観音寺町２９"},
    {"code":3102509,"id":"95bf8d","name":"向島","name_kana":"むかいじま","lat":34.914924,"lng":135.769681,"prefecture":26,"numbering":[{"index":"09"}],"lines":[31025],"attr":"heat","postal_code":"612-8155","address":"京都市伏見区向島東定請１１"},
    {"code":3102510,"id":"01b1dc","name":"小倉(京都)","name_kana":"おぐら","lat":34.89304,"lng":135.781914,"prefecture":26,"numbering":[{"index":"10"}],"lines":[31025],"attr":"heat","postal_code":"611-0042","address":"宇治市小倉町神楽町３５-４"},
    {"code":3102511,"id":"b51f0b","name":"伊勢田","name_kana":"いせだ","lat":34.882208,"lng":135.77899,"prefecture":26,"numbering":[{"index":"11"}],"lines":[31025],"attr":"heat","postal_code":"611-0043","address":"宇治市伊勢田町中山２５"},
    {"code":3102512,"id":"66f23d","name":"大久保(京都)","name_kana":"おおくぼ","lat":34.874351,"lng":135.777024,"prefecture":26,"numbering":[{"index":"12"}],"lines":[31025],"attr":"heat","postal_code":"611-0031","address":"宇治市広野町西裏８１-２"},
    {"code":3102513,"id":"4d537d","name":"久津川","name_kana":"くつがわ","lat":34.864943,"lng":135.774847,"prefecture":26,"numbering":[{"index":"13"}],"lines":[31025],"attr":"cool","postal_code":"610-0101","address":"城陽市平川東垣外１-４"},
    {"code":3102514,"id":"c66aa3","name":"寺田(京都)","name_kana":"てらだ","lat":34.853275,"lng":135.772011,"prefecture":26,"numbering":[{"index":"14"}],"lines":[31025],"attr":"cool","postal_code":"610-0121","address":"城陽市寺田樋尻４１-３"},
    {"code":3102515,"id":"1a75b6","name":"富野荘","name_kana":"とのしょう","lat":34.840201,"lng":135.772922,"prefecture":26,"numbering":[{"index":"15"}],"lines":[31025],"attr":"cool","postal_code":"610-0117","address":"城陽市枇杷庄鹿背田５８"},
    {"code":3102516,"id":"294bd2","name":"新田辺","name_kana":"しんたなべ","lat":34.820492,"lng":135.772805,"prefecture":26,"numbering":[{"index":"16"}],"lines":[31025],"attr":"cool","postal_code":"610-0361","address":"京田辺市河原食田２-３"},
    {"code":3102517,"id":"bac23e","name":"興戸","name_kana":"こうど","lat":34.808293,"lng":135.778638,"prefecture":26,"numbering":[{"index":"17"}],"lines":[31025],"attr":"cool","postal_code":"610-0332","address":"京田辺市興戸北落延６-１"},
    {"code":3102518,"id":"4f3b30","name":"三山木","name_kana":"みやまき","lat":34.798435,"lng":135.785905,"prefecture":26,"numbering":[{"index":"18"}],"lines":[31025],"attr":"cool","postal_code":"610-0313","address":"京田辺市三山木高飛２-６"},
    {"code":3102519,"id":"e8e4d4","name":"近鉄宮津","name_kana":"きんてつみやづ","lat":34.791453,"lng":135.787391,"prefecture":26,"numbering":[{"index":"19"}],"lines":[31025],"attr":"eco","postal_code":"610-0314","address":"京田辺市宮津灰崎３-１"},
    {"code":3102520,"id":"dc9454","name":"狛田","name_kana":"こまだ","lat":34.78047,"lng":135.789568,"prefecture":26,"numbering":[{"index":"20"}],"lines":[31025],"attr":"eco","postal_code":"619-0245","address":"相楽郡精華町大字下狛小字下新庄６２-１"},
    {"code":3102521,"id":"ff7533","name":"新祝園","name_kana":"しんほうその","lat":34.759953,"lng":135.792657,"prefecture":26,"numbering":[{"index":"21"}],"lines":[31025],"attr":"eco","postal_code":"619-0241","address":"相楽郡精華町大字祝園小字長塚１３-１"},
    {"code":3102522,"id":"5ee1ce","name":"木津川台","name_kana":"きづがわだい","lat":34.746641,"lng":135.795996,"prefecture":26,"numbering":[{"index":"22"}],"lines":[31025],"attr":"eco","postal_code":"619-0221","address":"木津川市吐師"},
    {"code":3102523,"id":"e20877","name":"山田川","name_kana":"やまだがわ","lat":34.737678,"lng":135.793794,"prefecture":26,"numbering":[{"index":"23"}],"lines":[31025],"attr":"eco","postal_code":"619-0231","address":"相楽郡精華町大字山田小字下河原３-１"},
    {"code":3102524,"id":"528cf3","name":"高の原","name_kana":"たかのはら","lat":34.723494,"lng":135.791839,"prefecture":29,"numbering":[{"index":"24"}],"lines":[31025],"attr":"eco","postal_code":"631-0806","address":"奈良市朱雀３-１２-３"},
    {"code":3102525,"id":"72d224","name":"平城","name_kana":"へいじょう","lat":34.701496,"lng":135.784524,"prefecture":29,"numbering":[{"index":"25"}],"lines":[31025],"attr":"eco","postal_code":"631-0803","address":"奈良市山陵町宮の前２６９-１２"},
    {"code":3100201,"id":"2b87ba","name":"大和西大寺","name_kana":"やまとさいだいじ","lat":34.69358,"lng":135.783169,"prefecture":29,"numbering":[{"index":"26"},{"symbol":"A","color":"#FF0000","index":"26"}],"lines":[31002,31020,31025],"attr":"eco","postal_code":"631-0823","address":"奈良市西大寺国見町１-１-１"},
    {"code":3102018,"id":"9a4f3c","name":"新大宮","name_kana":"しんおおみや","lat":34.685434,"lng":135.810744,"prefecture":29,"numbering":[{"symbol":"A","color":"#FF0000","index":"27"}],"lines":[31020,31025],"attr":"eco","postal_code":"630-8114","address":"奈良市芝辻町４-１５-５"},
    {"code":3102019,"id":"0cc8f8","name":"近鉄奈良","name_kana":"きんてつなら","lat":34.684323,"lng":135.827472,"prefecture":29,"numbering":[{"symbol":"A","color":"#FF0000","index":"28"}],"lines":[31020,31025],"attr":"eco","postal_code":"630-8215","address":"奈良市東向中町２９"}
  ],
  "north":34.985,
  "south":34.69315,
  "east":135.79608,
  "west":135.75234,
  "polyline_list":[
    {
      "start":"大和西大寺",
      "end":"京都",
      "lat":34.69315,
      "lng":135.78401,
      "delta_lat":[0,100,54,20,26,21,24,23,17,17,13,49,15,45,29,44,30,41,20,27,26,21,24,19,22,18,14,15,9,18,60,9,13,19,15,15,17,33,45,37,8,6,59,62,69,12,13,20,81,20,3,18,35,12,95,55,30,31,57,33,25,70,66,81,68,28,188,61,114,215,146,149,124,44,19,32,72,108,49,164,99,41,57,112,51,51,69,79,119,45,29,58,50,42,161,123,16,122,28,22,35,55,20,74,71,25,17,17,40,22,27,23,67,26,30,39,66,27,89,9,110,87,54,76,42,34,117,162,38,14,90,52,84,79,18,109,34,16,9,46,40,168,26,174,16,13,42,10,54,18,56,46,381,25,80,79,159,9,88,79,82,17,74,31,178,43,93,60,72,84,51,73,50,36,39,2,45,56,61,57,99,29,224,56,6,29,102,75,16,22,20,39,70,24,29,13,36,14,58,56,20,54,31,103,69,47,56,36,24,26,94,27,87,58,104,57,74,85,9,49,53,76,43,39,46,18,31,21,27,11,13,25,26,7,34,35,19,20,53,53,11,48,35,31,18,48,26,21,16,105,139,13,39,81,26,30,129,36,56,69,7,40,23,20,61,55,39,18,27,111,65,29,224,29,18,26,117,22,175,88,11,22,283,133,276,224,42,52,43,44,83,20,68,14,99,292,248,65,62,145,158,17,69,118,169,25,193,362,4,124,7,381,234,29,80,89,275,58,198,159,220,90,96,114,56,40,70,55,8,45,49,60,156,186,470,8,18,22,45,201,264,13,81,18,8,89,82,7,55,79,139,111,108,38,78,52,49,7,26,10,29,6,21,9,53,153,53,45,21,71,47,222,38,78,36,56,8,58,7,82,42,25,20,89,31,57,42,15,77,10,107,28,79,31,11,61,40,23,28,34,26,41,34,167,5,56,4,126,62,41,45,29,33,23,39,21,23,21,66,71,219,44,203,125,137,51,31,39,56,6,92,125,78,23,77,30,18,10,25,51,254,407,21,87,162,188,168,7,60,11,208,39,26,40,30,40,40,4,10,17,5,2,-27,-15,0,8],
      "delta_lng":[0,-188,-94,-22,-21,-16,-14,-11,-6,-2,1,5,4,12,8,17,16,21,16,18,22,20,23,24,29,30,24,27,18,34,138,18,24,27,14,13,14,22,26,19,1,2,30,30,40,10,10,19,77,19,2,17,34,11,90,49,18,15,19,8,4,4,1,-2,0,0,-8,-2,-5,-9,-4,-5,-1,-2,-1,-2,1,5,2,13,10,5,8,22,11,14,19,23,31,12,7,16,9,9,45,30,5,31,8,6,8,14,5,21,16,7,3,4,5,1,1,-1,-3,-6,-8,-9,-24,-12,-42,-4,-53,-42,-27,-38,-13,-10,-9,-10,-4,0,-7,-3,-7,-1,0,-11,-5,0,-1,-6,-6,-32,-2,-30,-4,-1,-8,-1,-12,-2,-10,-9,-65,-5,-13,-15,-27,-3,-17,-12,-15,-3,-15,-5,-33,-7,-18,-10,-13,-14,-9,-12,-10,-6,-7,0,-8,-10,-11,-11,-17,-5,-39,-10,0,-5,-18,-17,-3,-6,-5,-14,-26,-12,-17,-7,-24,-11,-49,-45,-17,-45,-26,-85,-56,-36,-45,-27,-18,-19,-75,-20,-70,-46,-80,-45,-58,-68,-6,-39,-43,-58,-33,-32,-36,-15,-23,-17,-18,-6,-4,-8,-4,-1,-3,0,2,1,5,4,1,7,4,2,2,7,4,4,3,19,25,1,8,12,6,5,22,6,9,5,1,0,3,-1,-5,-6,-4,-3,-4,-14,-7,-4,-28,-3,-2,-2,-14,-4,-19,-9,-2,-3,-32,-16,-30,-25,-3,-2,1,3,18,5,15,3,23,67,57,15,14,35,36,5,14,29,39,6,45,85,1,32,2,98,60,6,22,22,74,15,53,43,59,24,27,31,9,1,-5,-11,-2,-17,-23,-42,-130,-157,-397,-8,-13,-16,-34,-146,-179,-9,-55,-12,-5,-60,-54,-3,-27,-35,-38,-28,-27,-11,-16,-17,-19,-3,-10,-5,-12,-3,-10,-4,-24,-75,-18,3,1,8,5,-1,3,20,5,1,0,3,0,2,8,7,10,40,8,8,3,1,-1,0,-4,-1,-3,0,-1,-8,-11,-7,-9,-23,-21,-43,-51,-258,-7,-92,-7,-199,-97,-56,-42,-20,-17,-11,-14,-4,-3,-3,-4,-1,-5,-1,-6,-4,-5,-3,-10,-23,-39,-6,-68,-98,-50,-16,-37,-9,-3,-2,-4,-2,3,7,1,1,3,4,6,0,1,0,4,5,7,15,16,33,45,7,21,37,22,42,117,53,8,435]
    }
  ]
}