{
  "code":31026,
  "name":"近鉄生駒ケーブル",
  "color":"#F0E68C",
  "symbol":"Y",
  "station_list":[
    {"code":3102601,"id":"abb492","name":"鳥居前","name_kana":"とりいまえ","lat":34.692439,"lng":135.696151,"prefecture":29,"numbering":[{"index":"17"}],"lines":[31026],"attr":"cool","postal_code":"630-0257","address":"生駒市元町１丁目１０-１"},
    {"code":3102602,"id":"d19baa","name":"宝山寺","name_kana":"ほうざんじ","lat":34.686069,"lng":135.68907,"prefecture":29,"numbering":[{"index":"18"}],"lines":[31026],"attr":"cool","postal_code":"630-0266","address":"生駒市門前町１０-１"},
    {"code":3102603,"id":"086fad","name":"梅屋敷(奈良)","name_kana":"うめやしき","lat":34.683299,"lng":135.686967,"prefecture":29,"numbering":[{"index":"19"}],"lines":[31026],"attr":"cool","postal_code":"630-0266","address":"生駒市門前町１８-１"},
    {"code":3102604,"id":"0d9d40","name":"霞ヶ丘(奈良)","name_kana":"かすみがおか","lat":34.681341,"lng":135.683577,"prefecture":29,"numbering":[{"index":"20"}],"lines":[31026],"attr":"eco","postal_code":"630-0231","address":"奈良県生駒市菜畑町2312-45"},
    {"code":3102605,"id":"b2fc7c","name":"生駒山上","name_kana":"いこまさんじょう","lat":34.679594,"lng":135.68053,"prefecture":29,"numbering":[{"index":"21"}],"lines":[31026],"attr":"eco","postal_code":"630-0231","address":"生駒市菜畑町２３１２-５１"}
  ],
  "north":34.69231,
  "south":34.67933,
  "east":135.69618,
  "west":135.68027,
  "polyline_list":[
    {
      "start":"生駒山上",
      "end":"鳥居前",
      "lat":34.67933,
      "lng":135.68027,
      "delta_lat":[0,12,22,14,11,11,4,30,53,9,2,27,18,72,9,13,27,26,39,2,34,31,53,52,29,20,13,14,9,3,38,2,18,86,45,11,1,14,53,33,28,13,16,12,33,2,4,0,35,100,6,16,24,49],
      "delta_lng":[0,20,40,23,18,18,9,55,92,14,4,47,29,122,16,17,46,44,68,4,38,30,45,31,16,10,4,4,7,3,51,0,21,94,51,12,0,16,58,37,30,16,18,13,36,5,3,1,39,111,7,18,27,53]
    }
  ]
}