{
  "code":32005,
  "name":"南海加太線",
  "color":"#0065AF",
  "symbol":"NK",
  "station_list":[
    {"code":1164003,"id":"71b015","name":"和歌山市","name_kana":"わかやまし","lat":34.236717,"lng":135.166731,"prefecture":30,"numbering":[{"index":"45"}],"lines":[11640,32001,32003,32005],"attr":"eco","postal_code":"640-8203","address":"和歌山市東蔵前丁"},
    {"code":3200139,"id":"b80516","name":"紀ノ川","name_kana":"きのかわ","lat":34.254937,"lng":135.165908,"prefecture":30,"numbering":[{"index":"44"}],"lines":[32001,32005],"attr":"eco","postal_code":"640-8464","address":"和歌山市市小路１６２-３"},
    {"code":3200503,"id":"b59c98","name":"東松江(和歌山)","name_kana":"ひがしまつえ","lat":34.247837,"lng":135.141082,"prefecture":30,"numbering":[{"index":"44-1"}],"lines":[32005],"attr":"eco","postal_code":"640-8422","address":"和歌山市松江東４-１４-１"},
    {"code":3200504,"id":"b2d1e4","name":"中松江","name_kana":"なかまつえ","lat":34.248781,"lng":135.13291,"prefecture":30,"numbering":[{"index":"44-2"}],"lines":[32005],"attr":"eco","postal_code":"640-8423","address":"和歌山市松江中３-３-１"},
    {"code":3200505,"id":"149b37","name":"八幡前(和歌山)","name_kana":"はちまんまえ","lat":34.252592,"lng":135.121744,"prefecture":30,"numbering":[{"index":"44-3"}],"lines":[32005],"attr":"cool","postal_code":"640-8435","address":"和歌山市古屋２２２-２"},
    {"code":3200506,"id":"0b7e4a","name":"西ノ庄","name_kana":"にしのしょう","lat":34.255461,"lng":135.110786,"prefecture":30,"numbering":[{"index":"44-4"}],"lines":[32005],"attr":"cool","postal_code":"640-0112","address":"和歌山市西庄１０１６-３"},
    {"code":3200507,"id":"4adff8","name":"二里ヶ浜","name_kana":"にりがはま","lat":34.257627,"lng":135.104025,"prefecture":30,"numbering":[{"index":"44-5"}],"lines":[32005],"attr":"cool","postal_code":"640-0113","address":"和歌山県和歌山市本脇"},
    {"code":3200508,"id":"322cbe","name":"磯ノ浦","name_kana":"いそのうら","lat":34.260549,"lng":135.094495,"prefecture":30,"numbering":[{"index":"44-6"}],"lines":[32005],"attr":"heat","postal_code":"640-0114","address":"和歌山市磯の浦３７７-２"},
    {"code":3200509,"id":"8befe9","name":"加太(和歌山)","name_kana":"かだ","lat":34.275283,"lng":135.080773,"prefecture":30,"numbering":[{"index":"44-7"}],"lines":[32005],"attr":"heat","postal_code":"640-0103","address":"和歌山市加太１０３８-１"}
  ],
  "north":34.27548,
  "south":34.24744,
  "east":135.16637,
  "west":135.08043,
  "polyline_list":[
    {
      "start":"加太",
      "end":"紀ノ川",
      "lat":34.27527,
      "lng":135.08043,
      "delta_lat":[0,9,9,3,-2,-11,-23,-38,-36,-73,-50,-47,-56,-83,-44,-37,-27,-21,-17,-62,-4,-23,-21,-20,-28,-39,-63,-76,-75,-92,-106,-78,-43,-27,-20,-18,-22,-8,-13,-34,-52,-20,-5,-87,-15,-35,-48,-28,-23,-19,-15,-23,-4,-27,-32,-27,-53,-13,-30,-4,-10,-24,-17,-38,-7,-16,-20,-89,-14,-27,-18,-34,-2,-105,-78,-128,-35,-5,-23,-27,-15,-29,-9,-9,-11,-10,-8,9,27,26,34,53,171,70,74,1,72,50,4,6,36,22,9,10,9,6,16,27,22,6,26,4,24,9,3,2,2,1,0,-3,-2,-3,-11,-6,-37,-39],
      "delta_lng":[0,67,41,29,38,41,42,38,28,35,14,5,2,9,2,14,15,19,25,185,12,66,44,33,29,28,32,18,7,-6,-15,0,9,14,20,19,37,20,32,127,200,87,17,366,41,77,94,58,53,59,103,85,10,69,74,61,111,51,184,22,79,203,143,275,61,58,40,142,24,44,34,74,6,231,203,462,124,13,77,133,111,328,160,95,114,102,72,62,71,52,47,71,233,121,190,2,186,128,8,15,90,58,21,27,21,17,41,68,59,14,63,12,65,32,5,25,15,9,30,30,18,14,49,27,98,95]
    }
  ]
}