{
  "code":32006,
  "name":"南海多奈川線",
  "color":"#0065AF",
  "symbol":"NK",
  "station_list":[
    {"code":3200137,"id":"db468a","name":"みさき公園","name_kana":"みさきこうえん","lat":34.323986,"lng":135.160977,"prefecture":27,"numbering":[{"index":"41"}],"lines":[32001,32006],"attr":"heat","postal_code":"599-0301","address":"泉南郡岬町淡輪３７１４"},
    {"code":3200602,"id":"02f7d6","name":"深日町","name_kana":"ふけちょう","lat":34.31823,"lng":135.148002,"prefecture":27,"numbering":[{"index":"41-1"}],"lines":[32006],"attr":"eco","postal_code":"599-0303","address":"泉南郡岬町深日１４３３"},
    {"code":3200603,"id":"18f240","name":"深日港","name_kana":"ふけこう","lat":34.317386,"lng":135.141297,"prefecture":27,"numbering":[{"index":"41-2"}],"lines":[32006],"attr":"eco","postal_code":"599-0303","address":"泉南郡岬町深日２５３５-１"},
    {"code":3200604,"id":"1ce5c3","name":"多奈川","name_kana":"たながわ","lat":34.316705,"lng":135.137181,"prefecture":27,"numbering":[{"index":"41-3"}],"lines":[32006],"attr":"eco","postal_code":"599-0300","address":"泉南郡岬町多奈川２２９０"}
  ],
  "north":34.32462,
  "south":34.31668,
  "east":135.16195,
  "west":135.13677,
  "polyline_list":[
    {
      "start":"多奈川",
      "end":"みさき公園",
      "lat":34.31668,
      "lng":135.13677,
      "delta_lat":[0,12,21,35,14,4,9,31,14,2,11,11,1,6,7,2,3,2,4,2,2,1,8,9,5,9,10,15,11,19,43,13,7,43,42,23,26,41,3,6,47,4,4,36,18,17,17,45,15,16,48],
      "delta_lng":[0,88,121,200,82,26,63,232,97,38,124,116,13,84,69,17,31,29,48,17,17,9,97,101,42,24,27,35,19,26,52,9,8,33,29,19,23,47,5,9,65,6,6,52,25,25,24,71,23,21,73]
    }
  ]
}