{
  "code":32007,
  "id":"3735e5",
  "name":"南海高野線(りんかんサンライン)",
  "name_kana":"なんかいこうやせん",
  "name_formal":"南海高野線",
  "station_size":42,
  "company_code":22,
  "color":"#009A41",
  "symbol":"NK",
  "station_list":[
    {"code":3200101,"id":"12e313","name":"難波","name_kana":"なんば","lat":34.66357,"lng":135.501949,"prefecture":27,"numbering":[{"index":"01"}],"lines":[32001,32007],"attr":"cool","postal_code":"542-0076","address":"大阪市中央区難波５-１-６０","next":[1160722,9962308,3200702,3100102,9961810,9961811],"voronoi":{"lat":34.661384,"lng":135.497054,"delta_lat":[0,1472,3299,-5179,-1715,149],"delta_lng":[0,632,5417,4523,-4014,-2990]}},
    {"code":3200702,"id":"ba10d6","name":"今宮戎","name_kana":"いまみやえびす","lat":34.655137,"lng":135.50153,"prefecture":27,"numbering":[{"index":"02"}],"lines":[32007],"attr":"heat","postal_code":"556-0012","address":"大阪市浪速区敷津東３-２-１１","next":[9962308,9962902,1160720,3200101,9961811],"voronoi":{"lat":34.652855,"lng":135.498973,"delta_lat":[0,-361,188,6578,149],"delta_lng":[0,3960,585,93,-2990]}},
    {"code":1160720,"id":"13b494","name":"新今宮","name_kana":"しんいまみや","lat":34.650149,"lng":135.501076,"prefecture":27,"numbering":[{"index":"03"}],"lines":[11607,11623,32001,32007],"attr":"heat","postal_code":"556-0003","address":"大阪市浪速区恵美須西３丁目","next":[1160721,3200704,9962903,3200702,9962902,9961811],"voronoi":{"lat":34.652495,"lng":135.502934,"delta_lat":[0,-4577,-304,2186,1838,1218],"delta_lng":[0,-1257,-1069,-4746,909,2203]}},
    {"code":3200704,"id":"4534d7","name":"萩ノ茶屋","name_kana":"はぎのちゃや","lat":34.64561,"lng":135.498986,"prefecture":27,"numbering":[{"index":"04"}],"lines":[32007],"attr":"heat","postal_code":"557-0004","address":"大阪市西成区萩之茶屋３-５-３８","next":[1160721,9962903,9962904,9962007,1160720],"voronoi":{"lat":34.644514,"lng":135.500695,"delta_lat":[0,-1610,6595,301,-2186],"delta_lng":[0,-1783,-3477,427,4746]}},
    {"code":3200103,"id":"0d8697","name":"天下茶屋","name_kana":"てんがちゃや","lat":34.636847,"lng":135.496673,"prefecture":27,"numbering":[{"index":"05"}],"lines":[32001,32007,99623],"attr":"cool","postal_code":"557-0041","address":"大阪市西成区岸里１-１-１０","next":[9962008,9962007,9962906,9962905,9962907,3200905],"voronoi":{"lat":34.638209,"lng":135.49298,"delta_lat":[0,-4256,1102,3281,2277,-19],"delta_lng":[0,3744,1577,309,-1267,-3769]}},
    {"code":3200104,"id":"857d8a","name":"岸里玉出","name_kana":"きしのさとたまで","lat":34.628291,"lng":135.494388,"prefecture":27,"numbering":[{"index":"06"}],"lines":[32001,32007,32009],"attr":"cool","postal_code":"557-0043","address":"大阪市西成区玉出東１-１-１７","next":[9962910,9962909,9962009,9962908,9962008],"voronoi":{"lat":34.630755,"lng":135.487501,"delta_lat":[0,-4939,35,2836,2745],"delta_lng":[0,5367,638,2778,-1000]}},
    {"code":3200707,"id":"4d6f43","name":"帝塚山","name_kana":"てづかやま","lat":34.622332,"lng":135.498406,"prefecture":27,"numbering":[{"index":"51"}],"lines":[32007],"attr":"heat","postal_code":"558-0052","address":"大阪市住吉区帝塚山西１-５-８","next":[9962808,9962911,9962909,9962807,9962806,9962910],"voronoi":{"lat":34.620063,"lng":135.495619,"delta_lat":[0,-456,339,3188,2865,-1523],"delta_lng":[0,329,2457,2442,-1093,-2734]}},
    {"code":3200708,"id":"cfc88f","name":"住吉東","name_kana":"すみよしひがし","lat":34.6133,"lng":135.497587,"prefecture":27,"numbering":[{"index":"52"}],"lines":[32007],"attr":"heat","postal_code":"558-0045","address":"大阪市住吉区住吉１-８-４９","next":[9962809,9962810,9962913,3200709,1162605,9962808,9962914,1162606],"voronoi":{"lat":34.609176,"lng":135.504129,"delta_lat":[0,795,1291,1103,1576,1162,-1992,-3401],"delta_lng":[0,-8854,-674,-197,324,4692,5918,-537]}},
    {"code":3200709,"id":"7bacd5","name":"沢ノ町","name_kana":"さわのちょう","lat":34.606284,"lng":135.496957,"prefecture":27,"numbering":[{"index":"53"}],"lines":[32007],"attr":"heat","postal_code":"558-0042","address":"大阪市住吉区殿辻２-４-３","next":[3200710,9962915,1162606,3200708,9962914],"voronoi":{"lat":34.607173,"lng":135.493472,"delta_lat":[0,-3901,-86,5991,795],"delta_lng":[0,334,7602,2721,-8854]}},
    {"code":3200710,"id":"721903","name":"我孫子前","name_kana":"あびこまえ","lat":34.600188,"lng":135.496888,"prefecture":27,"numbering":[{"index":"54"}],"lines":[32007],"attr":"heat","postal_code":"558-0032","address":"大阪市住吉区遠里小野１-１１-１７","next":[9962916,9962915,9962917,3200709,1162607,1162606,3200711],"voronoi":{"lat":34.595265,"lng":135.493008,"delta_lat":[0,474,6440,1093,-86,-4591,-5112],"delta_lng":[0,-256,153,900,7602,791,-5885]}},
    {"code":3200711,"id":"29c766","name":"浅香山","name_kana":"あさかやま","lat":34.589319,"lng":135.491025,"prefecture":27,"numbering":[{"index":"55"}],"lines":[32007],"attr":"heat","postal_code":"590-0003","address":"堺市堺区高須町３丁３-１","next":[1162607,9962918,1162608,9962919,3200712,9962917,3200710,1162609],"voronoi":{"lat":34.581177,"lng":135.491248,"delta_lat":[0,1374,4048,5078,3588,-1782,-3868,-5590],"delta_lng":[0,-3096,-708,1016,4549,3305,1222,-1970]}},
    {"code":3200712,"id":"921381","name":"堺東","name_kana":"さかいひがし","lat":34.575878,"lng":135.485062,"prefecture":27,"numbering":[{"index":"56"}],"lines":[32007],"attr":"heat","postal_code":"590-0028","address":"堺市堺区三国ケ丘御幸通６１","next":[9962925,1162609,9962921,3200711,9962920,9962919,3200713,9962922,9962924,1162611,9962923],"voronoi":{"lat":34.573064,"lng":135.478378,"delta_lat":[0,-5065,-2761,930,7638,7371,1374,-410,-1303,-1692,-2484],"delta_lng":[0,-217,393,4215,9503,-1025,-3096,-2588,-2478,-1929,-1666]}},
    {"code":3200713,"id":"00ae5b","name":"三国ヶ丘","name_kana":"みくにがおか","lat":34.566318,"lng":135.492746,"prefecture":27,"numbering":[{"index":"57"}],"lines":[11626,32007],"attr":"eco","postal_code":"590-0024","address":"堺市堺区向陵中町二丁7-1","next":[1162609,1162611,3200712,3200714],"voronoi":{"lat":34.561066,"lng":135.493471,"delta_lat":[0,5102,7638,-4619],"delta_lng":[0,-10702,9503,8963]}},
    {"code":3200714,"id":"2fc826","name":"百舌鳥八幡","name_kana":"もずはちまん","lat":34.560577,"lng":135.498751,"prefecture":27,"numbering":[{"index":"58"}],"lines":[32007],"attr":"heat","postal_code":"590-0025","address":"堺市堺区向陵東町２丁１２-１７","next":[9961820,3200715,9961819,1162611,1162609,3200713],"voronoi":{"lat":34.561066,"lng":135.493471,"delta_lat":[0,-10245,13504,526,4357,-21],"delta_lng":[0,2353,10289,336,-1857,-3357]}},
    {"code":3200715,"id":"23603e","name":"中百舌鳥","name_kana":"なかもず","lat":34.556232,"lng":135.504454,"prefecture":27,"numbering":[{"index":"59"}],"lines":[32007,99616],"attr":"heat","postal_code":"591-8023","address":"堺市北区中百舌鳥町２丁１９６","next":[3200716,9961820,1162611,9961602,3200714],"voronoi":{"lat":34.550821,"lng":135.495825,"delta_lat":[0,-5901,-1833,3054,18184],"delta_lng":[0,-795,6772,2107,2205]}},
    {"code":3200716,"id":"0de6b0","name":"白鷺","name_kana":"しらさぎ","lat":34.550235,"lng":135.513148,"prefecture":27,"numbering":[{"index":"60"}],"lines":[32007],"attr":"eco","postal_code":"591-8022","address":"堺市北区金岡町１１５０-１","next":[9961602,3200715,3200717,9961819,9961820],"voronoi":{"lat":34.54614,"lng":135.503908,"delta_lat":[0,-3054,-8680,23186,1251],"delta_lng":[0,-2107,10977,13751,-12548]}},
    {"code":3200717,"id":"0f15ef","name":"初芝","name_kana":"はつしば","lat":34.542322,"lng":135.526491,"prefecture":27,"numbering":[{"index":"61"}],"lines":[32007],"attr":"eco","postal_code":"599-8114","address":"堺市東区日置荘西町９３８-１","next":[3100309,9961819,3200718,3100308,3200716,9961602],"voronoi":{"lat":34.534406,"lng":135.512779,"delta_lat":[0,23186,2697,-1352,-2782,-36335],"delta_lng":[0,13751,5828,3714,4648,-21950]}},
    {"code":3200718,"id":"b4111c","name":"萩原天神","name_kana":"はぎはらてんじん","lat":34.537125,"lng":135.535094,"prefecture":27,"numbering":[{"index":"62"}],"lines":[32007],"attr":"eco","postal_code":"599-8112","address":"堺市東区日置荘原寺町９４-３","next":[9961602,3100311,3100310,3100309,3200717,3200719,9961603],"voronoi":{"lat":34.544477,"lng":135.56446,"delta_lat":[0,3041,5258,3380,-36335,-29,-692],"delta_lng":[0,-2944,-9186,-11610,-21950,5,1178]}},
    {"code":3200719,"id":"974a61","name":"北野田","name_kana":"きたのだ","lat":34.522949,"lng":135.543177,"prefecture":27,"numbering":[{"index":"63"}],"lines":[32007],"attr":"eco","postal_code":"599-8123","address":"堺市東区北野田５１-３","next":[3200720,3200718,3100311,9961603],"voronoi":{"lat":34.540393,"lng":135.571452,"delta_lat":[0,4083,-25377,-11954],"delta_lng":[0,-6992,-44507,9778]}},
    {"code":3200720,"id":"60c87a","name":"狭山","name_kana":"さやま","lat":34.516725,"lng":135.548137,"prefecture":27,"numbering":[{"index":"64"}],"lines":[32007],"attr":"eco","postal_code":"589-0007","address":"大阪狭山市池尻中１-１-１","next":[3102202,3200719,3200721,3100312,3100311,9961603],"voronoi":{"lat":34.507145,"lng":135.529731,"delta_lat":[0,33248,-696,-1824,-9090,-31427],"delta_lng":[0,41721,1607,2753,912,-41738]}},
    {"code":3200721,"id":"2a9216","name":"大阪狭山市","name_kana":"おおさかさやまし","lat":34.504643,"lng":135.557234,"prefecture":27,"numbering":[{"index":"65"}],"lines":[32007],"attr":"eco","postal_code":"589-0005","address":"大阪狭山市狭山４-２３４０-１","next":[3102202,3200722,3200720,9961603,3102205,3102204],"voronoi":{"lat":34.507162,"lng":135.577311,"delta_lat":[0,-3216,-9050,2460,31427,-6331],"delta_lng":[0,-1216,-40704,-406,41738,2284]}},
    {"code":3200722,"id":"2f954d","name":"金剛","name_kana":"こんごう","lat":34.495324,"lng":135.559306,"prefecture":27,"numbering":[{"index":"66"}],"lines":[32007],"attr":"eco","postal_code":"589-0006","address":"大阪狭山市金剛１-１-１","next":[3102206,3200721,3200723,9961603,3102205],"voronoi":{"lat":34.494897,"lng":135.535392,"delta_lat":[0,-12189,7135,2091,12013],"delta_lng":[0,-453,38815,1067,1275]}},
    {"code":3200723,"id":"7d2a1f","name":"滝谷(大阪)","name_kana":"たきだに","lat":34.479582,"lng":135.5622,"prefecture":27,"numbering":[{"index":"67"}],"lines":[32007],"attr":"eco","postal_code":"584-0062","address":"富田林市須賀５７３-３","next":[3102206,3200724,9961603,3200722,3102207],"voronoi":{"lat":34.478092,"lng":135.574274,"delta_lat":[0,-18161,22777,7135,-11346],"delta_lng":[0,-47217,7881,38815,822]}},
    {"code":3200724,"id":"3e2738","name":"千代田","name_kana":"ちよだ","lat":34.468894,"lng":135.566311,"prefecture":27,"numbering":[{"index":"68"}],"lines":[32007],"attr":"eco","postal_code":"586-0001","address":"河内長野市木戸１-１-１３","next":[3102207,3200723,3200726,9961603,9961604,3102208],"voronoi":{"lat":34.478092,"lng":135.574274,"delta_lat":[0,-18161,-7914,-6595,2680,12401],"delta_lng":[0,-47217,-4078,-1405,17147,32914]}},
    {"code":3102208,"id":"c5c4bd","name":"河内長野","name_kana":"かわちながの","lat":34.450684,"lng":135.573172,"prefecture":27,"numbering":[{"index":"69"}],"lines":[31022,32007],"attr":"cool","postal_code":"586-0015","address":"河内長野市本町２９-９","next":[3200728,3200726,3102207,3200724,3200727],"voronoi":{"lat":34.444975,"lng":135.613649,"delta_lat":[0,15527,-12401,-7372,2136],"delta_lng":[0,-42013,-32914,56193,13878]}},
    {"code":3200726,"id":"11e072","name":"三日市町","name_kana":"みっかいちちょう","lat":34.43672,"lng":135.57134,"prefecture":27,"numbering":[{"index":"70"}],"lines":[32007],"attr":"cool","postal_code":"586-0048","address":"河内長野市三日市町１１２５","next":[9961605,9961604,3200727,3102208,3200724,9961606],"voronoi":{"lat":34.43441,"lng":135.515004,"delta_lat":[0,11011,2680,-7372,-44867,14697],"delta_lng":[0,6571,17147,56193,-92495,3122]}},
    {"code":3200727,"id":"5a89c9","name":"美加の台","name_kana":"みかのだい","lat":34.424697,"lng":135.577172,"prefecture":27,"numbering":[{"index":"71"}],"lines":[32007],"attr":"cool","postal_code":"586-0069","address":"河内長野市石仏１９１-１","next":[1163620,1163622,3200729,3200726,9961606,3200728,3102208],"voronoi":{"lat":34.440729,"lng":135.594915,"delta_lat":[0,-44867,-10332,-823,-11251,16861,52548],"delta_lng":[0,-92495,-3115,1244,30021,24961,53262]}},
    {"code":3200728,"id":"2766bf","name":"千早口","name_kana":"ちはやぐち","lat":34.411493,"lng":135.590199,"prefecture":27,"numbering":[{"index":"72"}],"lines":[32007],"attr":"cool","postal_code":"586-0061","address":"河内長野市岩瀬１３４３","next":[3102207,3200729,1163612,3102206,3102208,3101804,3200727],"voronoi":{"lat":34.444975,"lng":135.613649,"delta_lat":[0,3656,1258,-13811,-5720,-40041,52548],"delta_lng":[0,18417,24870,5163,-1389,-105179,53262]}},
    {"code":3200729,"id":"c7992f","name":"天見","name_kana":"あまみ","lat":34.397558,"lng":135.595504,"prefecture":27,"numbering":[{"index":"73"}],"lines":[32007],"attr":"cool","postal_code":"586-0062","address":"河内長野市天見１９５-１","next":[3200727,3200728,1163612,1163620,3200730,1163614],"voronoi":{"lat":34.389295,"lng":135.650095,"delta_lat":[0,-16650,812,16861,40041,-29725],"delta_lng":[0,-118331,-1194,24961,105179,-4063]}},
    {"code":3200730,"id":"1cb0e9","name":"紀見峠","name_kana":"きみとうげ","lat":34.366288,"lng":135.599904,"prefecture":30,"numbering":[{"index":"74"}],"lines":[32007],"attr":"eco","postal_code":"648-0098","address":"橋本市矢倉脇２２６-２","next":[1163619,1163620,1163615,3200731,3200729,3200732,1163614],"voronoi":{"lat":34.372645,"lng":135.531764,"delta_lat":[0,-4678,-18839,98,25000,491,14578],"delta_lng":[0,4278,25743,1271,83229,337,3473]}},
    {"code":3200731,"id":"48fb05","name":"林間田園都市","name_kana":"りんかんでんえんとし","lat":34.355292,"lng":135.603207,"prefecture":30,"numbering":[{"index":"75"}],"lines":[32007],"attr":"eco","postal_code":"648-0094","address":"橋本市三石台１-１-１","next":[1163615,3200730,1163616,3200732],"voronoi":{"lat":34.356377,"lng":135.637032,"delta_lat":[0,17848,-25000,-4051],"delta_lng":[0,9253,-83229,62367]}},
    {"code":3200732,"id":"c1e7ff","name":"御幸辻","name_kana":"みゆきつじ","lat":34.338016,"lng":135.602085,"prefecture":30,"numbering":[{"index":"76"}],"lines":[32007],"attr":"eco","postal_code":"648-0096","address":"橋本市御幸辻５６７-１","next":[3200734,3200730,1163617,1163618,1163616,1163619,3200731],"voronoi":{"lat":34.349225,"lng":135.563055,"delta_lat":[0,-98,-1809,-25074,167,13843,8920],"delta_lng":[0,-1271,1219,34642,1894,21675,4208]}},
    {"code":1163617,"id":"bd4eee","name":"橋本(和歌山)","name_kana":"はしもと","lat":34.318158,"lng":135.614767,"prefecture":30,"numbering":[{"index":"77"}],"lines":[11636,32007],"attr":"eco","postal_code":"648-0065","address":"橋本市古佐田１丁目","next":[1163616,3200734,3200732],"voronoi":{"lat":34.293095,"lng":135.630841,"delta_lat":[0,29317,13843],"delta_lng":[0,-31301,21675]}},
    {"code":3200734,"id":"7ea3be","name":"紀伊清水","name_kana":"きいしみず","lat":34.307495,"lng":135.60478,"prefecture":30,"numbering":[{"index":"78"}],"lines":[32007],"attr":"eco","postal_code":"648-0041","address":"橋本市清水５５８-４","next":[3200742,1163618,1163617,3200732,1163616,3200735],"voronoi":{"lat":34.253038,"lng":135.651053,"delta_lat":[0,40057,29317,-167,-19996,-35831],"delta_lng":[0,-20213,-31301,-1894,-5406,15704]}},
    {"code":3200735,"id":"b97294","name":"学文路","name_kana":"かむろ","lat":34.296582,"lng":135.579882,"prefecture":30,"numbering":[{"index":"79"}],"lines":[32007],"attr":"eco","postal_code":"648-0043","address":"橋本市学文路３６１-１","next":[1163619,3200736,3200742,3200734,3200737,1163618],"voronoi":{"lat":34.266417,"lng":135.607944,"delta_lat":[0,-72,14871,19065,7311,-5344],"delta_lng":[0,-2053,-27435,-10907,3515,21176]}},
    {"code":3200736,"id":"fd489f","name":"九度山","name_kana":"くどやま","lat":34.287775,"lng":135.564487,"prefecture":30,"numbering":[{"index":"80"}],"lines":[32007],"attr":"eco","postal_code":"648-0101","address":"伊都郡九度山町大字九度山１２３-２","next":[3200738,3200735,3200737,1163620,1163619],"voronoi":{"lat":34.292231,"lng":135.546349,"delta_lat":[0,-6677,-6935,2598,19065],"delta_lng":[0,-3380,13082,22404,-10907]}},
    {"code":3200737,"id":"5200f1","name":"高野下","name_kana":"こうやした","lat":34.271635,"lng":135.566359,"prefecture":30,"numbering":[{"index":"81"}],"lines":[32007],"attr":"cool","postal_code":"648-0141","address":"伊都郡九度山町大字椎出８-１","next":[3200741,3200738,3200736,3200742,3200735],"voronoi":{"lat":34.281217,"lng":135.578455,"delta_lat":[0,-2598,-22031,4779,4979],"delta_lng":[0,-22404,8606,29424,11809]}},
    {"code":3200738,"id":"57fb11","name":"下古沢","name_kana":"しもこさわ","lat":34.266497,"lng":135.553207,"prefecture":30,"numbering":[{"index":"82"}],"lines":[32007],"attr":"cool","postal_code":"648-0145","address":"伊都郡九度山町大字下古沢","next":[3200739,3200737,3200736,1163621,3200741,1163620],"voronoi":{"lat":34.279912,"lng":135.532928,"delta_lat":[0,-5269,-19552,1497,22031,6935],"delta_lng":[0,-4722,34467,1985,-8606,-13082]}},
    {"code":3200739,"id":"a91b7e","name":"上古沢","name_kana":"かみこさわ","lat":34.257362,"lng":135.548025,"prefecture":30,"numbering":[{"index":"83"}],"lines":[32007],"attr":"cool","postal_code":"648-0143","address":"伊都郡九度山町大字上古沢","next":[1163621,3200740,3200738,1163623,1163622,3200741],"voronoi":{"lat":34.248561,"lng":135.558554,"delta_lat":[0,-17548,25895,971,16764,-19552],"delta_lng":[0,-66852,13203,736,22564,34467]}},
    {"code":3200740,"id":"1fd591","name":"紀伊細川","name_kana":"きいほそかわ","lat":34.235723,"lng":135.553705,"prefecture":30,"numbering":[{"index":"84"}],"lines":[32007],"attr":"cool","postal_code":"648-0262","address":"伊都郡高野町大字細川７３２","next":[3200739,3200802,3200741,1163624,1163623,9965114,1163931,1163625],"voronoi":{"lat":34.229805,"lng":135.49078,"delta_lat":[0,1207,17548,-17066,-251068,12036,107942,92833],"delta_lng":[0,923,66852,7021,-83298,-24551,-11700,28698]}},
    {"code":3200741,"id":"86805f","name":"紀伊神谷","name_kana":"きいかみや","lat":34.242852,"lng":135.571034,"prefecture":30,"numbering":[{"index":"85"}],"lines":[32007],"attr":"heat","postal_code":"648-0200","address":"伊都郡高野町大字神谷","next":[3200737,3200740,3200738,3200802,3200739,3200742],"voronoi":{"lat":34.235126,"lng":135.57388,"delta_lat":[0,-3631,17066,6530,1497,4779],"delta_lng":[0,-8305,-7021,4118,1985,29424]}},
    {"code":3200742,"id":"9926e5","name":"極楽橋","name_kana":"ごくらくばし","lat":34.23435,"lng":135.582078,"prefecture":30,"numbering":[{"index":"86"}],"lines":[32007,32008],"attr":"heat","postal_code":"648-0211","address":"伊都郡高野町大字高野山国有林第８林班","next":[1163615,1163614,3200734,3200735,1151035,3200737,3100716,3200802,3200741,1163616],"voronoi":{"lat":34.148942,"lng":135.787471,"delta_lat":[0,-22187,-59037,-10295,177703,26241,4979,72,-13380,-9314],"delta_lng":[0,24210,30996,-7323,-261474,20201,11809,2053,43110,15611]}}
  ],
  "north":34.66383,
  "south":34.23341,
  "east":135.62299,
  "west":135.48423,
  "polyline_list":[
    {
      "start":"極楽橋",
      "end":"紀見トンネル南",
      "lat":34.23413,
      "lng":135.58233,
      "delta_lat":[0,51,9,25,16,15,28,17,18,44,7,8,24,51,9,10,15,29,50,22,20,12,6,4,-2,-2,-7,-8,-10,-2,3,1,4,6,60,26,27,21,20,20,62,88,11,7,15,10,11,4,7,3,1,-1,-3,-1,-19,-15,-5,-1,2,7,5,5,16,14,5,2,-2,-4,-7,-24,-17,-17,-31,-14,-15,-56,-19,-8,-14,-13,-24,-41,-20,-9,-9,-13,-7,-42,-16,-16,-11,-11,-9,-39,-42,-20,-13,-8,-10,-12,-22,-38,-36,-22,-16,-18,-24,-28,-47,-31,-22,-15,-12,-5,3,20,15,7,18,33,35,10,8,6,5,9,18,9,8,14,8,14,-2,27,0,-1,-6,0,6,10,10,14,18,33,35,32,48,36,16,22,20,23,15,23,12,18,23,42,25,20,18,15,16,55,46,5,8,105,5,14,11,16,40,45,20,20,24,32,18,15,18,17,26,45,15,32,8,12,16,20,18,15,19,27,14,16,12,22,35,21,13,21,24,43,16,22,27,22,29,16,20,24,17,11,21,44,51,27,25,32,60,32,29,50,41,15,62,26,12,5,2,2,3,7,6,8,6,6,34,23,17,21,25,35,45,81,49,36,18,27,15,16,49,29,20,16,19,14,20,23,20,36,20,16,22,15,16,23,18,65,63,71,43,38,21,9,10,4,7,9,54,22,35,17,4,-2,-9,-2,-7,-5,-13,-33,-39,-29,-14,-10,-7,-1,1,9,13,50,17,14,11,68,86,128,224,79,28,21,33,30,71,79,60,77,91,64,61,20,29,29,45,32,28,14,105,94,9,53,10,11,9,17,8,4,-1,-6,6,12,25,18,28,207,44,126,24,57,127,38,43,28,3,6,0,3,7,7,9,46,27,36,29,42,18,8,-3,-2,6,11,17,24,27,154,80,38,23,7,21,39,22,19,25,19,28,124,26,71,70,36,31,19,36,21,20,40,29,54,38,26,75,43,20,33,22,33,19,13,12,12,30,31,21,26,18,32,31,34,20,89,109,10,13,22,34,49,29,32,7,7,-1,-9,-18,-67,-33,0,-13,-7,-8,-5,-12,-4,-19,-1,-3,2,7,13,21,25,21,32,32,51,184,42,85,83,42,40,25,116,199,137,43,16,85,29,69,81,20,74,58,103,36,89,29,14,8,71,64,33,11,13,38,95,41,210,54,16,63,15,38,27,49,5,24,71,10,13,50,69,20,47,15,27,23,24,10,58,62,30,103,37,29,31,37,36,46,41,9,71,38,14,8,41,25,58,45,25,31,18,20,36,17,26,2,53,7,14,47,14,24,55,22,88,45,26,70,38,16,31,11,43,94,56,54,60,3,46,14],
      "delta_lng":[0,-54,-18,-36,-17,-12,-16,-6,-7,-15,-8,-8,-62,-136,-15,-11,-10,-17,-21,-12,-20,-13,-24,-24,-25,-25,-33,-26,-38,-12,-19,-10,-7,-5,-21,-7,-10,-14,-9,-15,-72,-108,-15,-7,-14,-12,-15,-9,-18,-11,-9,-14,-10,-10,-46,-41,-22,-14,-16,-45,-20,-8,-41,-45,-19,-16,-20,-28,-21,-21,-18,-18,-49,-28,-21,-83,-24,-9,-12,-8,-10,-15,-9,-4,-9,-18,-14,-72,-19,-16,-2,-1,1,8,10,0,1,-4,-6,-12,-27,-74,-67,-35,-17,-14,-13,-8,-12,-12,-16,-18,-23,-18,-27,-67,-22,-6,-9,-8,-13,-3,-10,-14,-17,-32,-94,-30,-19,-27,-26,-81,-52,-112,-8,-19,-47,-38,-31,-30,-14,-14,-10,-6,3,5,10,5,-3,-9,-5,-3,-3,4,3,11,20,21,0,-6,-8,0,3,17,7,0,2,-57,-3,-5,-2,-3,-4,-4,-6,-15,-26,-39,-14,-7,-3,3,8,10,0,-15,-4,-7,-4,-2,2,1,3,3,2,-2,-2,-13,-13,-2,0,6,13,17,3,0,-7,-13,-23,-20,-33,-33,-10,-7,-4,-3,-6,-12,-11,-3,9,11,21,72,66,18,45,25,23,38,52,44,55,45,37,43,35,19,50,31,17,18,9,5,3,5,1,-3,-4,-17,-22,-33,-121,-65,-25,-15,-13,-6,2,14,18,48,37,38,80,46,37,30,13,29,23,29,23,35,24,23,49,9,26,21,78,53,67,48,30,17,75,105,34,14,12,14,13,14,14,32,67,76,8,21,18,32,6,5,0,3,4,-41,-63,-20,-10,-19,-35,-25,-42,-48,-40,-40,-53,-36,-27,-7,0,5,14,15,22,15,115,90,11,54,12,15,12,40,32,16,18,159,60,66,72,35,40,212,45,98,22,65,163,55,85,67,16,41,23,87,53,40,29,99,55,89,49,69,66,36,53,73,47,60,50,48,40,200,107,61,47,18,62,152,100,85,58,41,44,180,39,121,134,70,119,80,174,73,57,83,64,137,90,53,139,102,66,129,83,126,67,31,19,18,34,22,11,10,3,0,-2,-4,-5,-22,-30,-1,-4,-12,-27,-48,-43,-50,-12,-31,-42,-47,-45,-113,-74,-2,-44,-37,-43,-44,-79,-48,-131,-17,-71,-31,-32,-41,-41,-34,-25,-32,-26,-36,-106,-30,-53,-55,-20,-17,-8,-36,-64,-45,-17,-6,-35,-14,-29,-44,-9,-36,-22,-27,-5,-5,1,2,2,11,15,6,1,1,0,-7,-3,-24,-6,0,-8,0,0,1,4,2,2,10,2,1,9,22,11,21,6,12,9,9,0,0,-9,-8,-32,-9,-4,0,5,8,14,22,7,41,20,11,4,23,15,27,23,8,11,5,2,-1,-4,-2,-2,-15,-4,-8,-29,-8,-21,-41,-19,-71,-35,-20,-57,-31,-14,-26,-8,-31,-56,-26,-17,-5,0,0,0]
    },
    {
      "start":"岸里玉出",
      "end":"なんば",
      "lat":34.6314,
      "lng":135.49515,
      "delta_lat":[0,173,35,1,11,27,22,31,101,63,8,200,38,43,147,110,77,106,79,90,114,167,176,11,109,65,8,185,73,152,37,115,185,17,32,105,36,20,22,22,61,132,36],
      "delta_lng":[0,44,9,1,2,8,4,9,27,17,1,58,13,10,44,32,22,27,23,24,30,45,46,2,30,17,2,49,21,39,11,31,50,4,9,27,8,0,-2,-3,-21,-79,-23]
    },
    {
      "start":"紀見トンネル北",
      "end":"岸里玉出",
      "lat":34.38859,
      "lng":135.60173,
      "delta_lat":[0,36,63,101,64,12,10,43,16,26,12,15,11,6,32,12,9,9,11,9,9,9,9,11,7,11,9,20,12,21,16,24,14,25,6,16,56,41,6,169,35,35,23,21,27,23,30,47,18,27,17,6,28,16,29,20,29,20,32,18,29,44,64,24,18,27,7,12,12,14,18,29,163,127,16,51,83,3,7,149,45,18,59,66,14,65,22,40,28,75,9,16,70,22,10,19,20,3,17,25,15,25,18,27,22,60,25,34,35,32,30,26,26,8,16,24,29,27,25,39,93,1,15,102,43,103,34,3,30,26,12,32,26,47,44,104,29,23,89,67,21,26,31,25,14,29,12,37,6,22,30,11,95,29,56,26,25,23,39,5,11,45,32,23,12,42,18,79,31,6,9,61,104,206,37,27,32,15,24,41,24,45,22,21,20,14,15,21,32,10,29,14,145,9,5,40,20,7,19,9,30,11,20,30,46,3,55,61,25,87,101,54,39,27,16,14,39,32,76,72,23,64,54,85,101,26,7,51,39,47,60,106,58,98,44,53,18,42,31,5,60,20,20,30,27,42,42,225,3,242,49,111,13,47,29,9,52,31,11,25,17,5,38,32,30,23,30,60,49,47,37,68,45,24,93,55,31,137,31,25,41,6,45,76,7,152,14,153,57,73,43,31,29,12,56,22,233,89,81,34,29,168,78,52,39,41,47,54,65,26,200,242,199,127,88,69,126,13,9,9,18,33,29,37,58,152,232,240,47,193,106,60,67,74,58,60,98,62,83,48,212,157,112,148,4,72,141,174,146,94,83,126,46,80,82,80,138,214,131,83,39,87,49,74,43,48,19,116,23,29,29,18,45,2,1,1,7,51,20,34,2,13,25,5,9,13,13,7,25,21,19,28,41,25,36,31,21,15,15,22,8,26,37,98,15,52,217,85,43,4,80,61,23,44,161,16,79,53,21,54,14,133,13,81,13,224,5,132,34,2,13,103,34,42,3,46,22,28,2,58,29,16,75,14,9,25,69,61,0,22,70,29,10,10,11,65,5,124,303,23,6,124,46,133,113,95,28,36,25,36,33,45,61,21,33,38,147,38,62,41,27,27,27,22,22,137,181,118,30,105,66,56,32,17,46,5,38,25,24,45,34,15,9,21,2,21,12,9,70,143,36,31,33,46,57],
      "delta_lng":[0,-11,-19,-39,-32,-8,-5,-24,-15,-27,-12,-20,-14,-7,-43,-18,-10,-15,-18,-10,-13,-19,-12,-17,-12,-13,-13,-28,-12,-22,-14,-21,-10,-15,-4,-8,-22,-4,-1,-21,-6,-12,-9,-8,-11,-9,-13,-20,-9,-11,-7,-2,-14,-6,-13,-8,-13,-8,-15,-8,-13,-18,-28,-12,-9,-10,-3,-5,-7,-5,-7,-13,-69,-45,-6,-18,-29,-2,-3,-57,-19,-11,-44,-59,-12,-59,-19,-23,-13,-27,-4,-4,-25,-14,-6,-11,-14,0,-11,-18,-11,-21,-14,-23,-21,-65,-30,-47,-52,-56,-57,-59,-56,-19,-36,-59,-57,-57,-43,-51,-111,-1,-21,-122,-51,-122,-36,-3,-33,-26,-12,-31,-24,-38,-30,-63,-13,-11,-4,1,3,6,13,14,8,17,6,20,0,9,12,5,30,7,0,-3,-8,-8,-14,0,-3,-13,-6,-5,-2,-9,-3,-16,-6,-1,-1,-11,-23,-30,3,4,11,8,17,37,22,45,24,20,22,10,12,19,20,7,9,5,53,3,1,14,5,3,5,3,6,4,4,2,-1,-1,-9,-14,-11,-38,-45,-25,-17,-12,-8,-7,-21,-17,-43,-42,-15,-35,-34,-50,-58,-14,-5,-30,-23,-27,-35,-62,-32,-58,-28,-34,-11,-26,-17,-3,-35,-10,-9,-12,-9,-15,-15,-68,-1,-71,-12,-32,-4,-17,-7,-3,-14,-8,-4,-3,-4,-2,-5,-8,-5,-3,-4,-5,-2,0,0,-4,-6,-4,-11,-8,-4,-21,-5,-4,-9,-1,-9,-17,-1,-31,-3,-34,-14,-18,-11,-7,-6,-3,-14,-3,-54,-21,-19,-4,-5,-38,-15,-14,-12,-22,-30,-48,-60,-24,-187,-228,-190,-120,-83,-68,-116,-11,-8,-9,-15,-30,-20,-21,-28,-57,-90,-92,-18,-72,-43,-30,-41,-56,-51,-57,-103,-74,-124,-79,-356,-262,-189,-250,-6,-117,-238,-288,-241,-162,-131,-211,-72,-115,-106,-104,-172,-284,-170,-111,-59,-108,-59,-93,-50,-62,-22,-149,-32,-38,-39,-23,-60,0,-3,-1,-9,-78,-41,-66,-5,-30,-58,-14,-22,-31,-24,-13,-35,-22,-19,-21,-24,-12,-17,-7,-5,-3,0,0,1,3,8,26,3,13,52,20,16,2,32,26,12,28,94,9,49,31,10,24,6,56,4,35,5,91,0,64,20,3,8,71,21,29,2,31,13,19,3,37,21,10,49,9,5,17,46,42,1,13,48,12,5,4,5,2,2,-1,-1,0,-1,1,-2,1,0,1,5,6,8,10,9,13,14,4,4,1,-11,-3,-7,-4,-2,0,2,2,3,24,31,23,6,16,8,1,-1,-2,-7,-1,-8,-5,-5,-18,-20,-11,-6,-16,-3,-20,-11,-6,-53,-91,-17,-13,-9,-9,-5]
    },
    {
      "start":"紀見トンネル南",
      "end":"紀見トンネル北",
      "lat":34.36885,
      "lng":135.59934,
      "delta_lat":[0,114,49,68,807,20,29,20,12,4,18,16,24,18,45,29,23,26,21,27,22,92,49,25,19,21,32,24,27,19,36,46,53,139],
      "delta_lng":[0,19,9,13,146,4,6,3,3,0,3,3,5,1,9,6,2,5,4,7,3,16,10,4,4,2,7,-1,-2,-1,-3,-6,-7,-35]
    },
    {
      "start":"紀見トンネル南",
      "end":"紀見トンネル北",
      "lat":34.36885,
      "lng":135.59934,
      "delta_lat":[0,73,70,58,462,431,33,90,209,181,14,6,45,18,36,26,21,95,106],
      "delta_lng":[0,-5,-4,9,83,75,6,15,37,34,3,1,6,3,1,-4,0,-10,-11]
    }
  ]
}