{
  "code":32001,
  "name":"南海本線",
  "color":"#0065AF",
  "symbol":"NK",
  "station_list":[
    {"code":3200101,"id":"12e313","name":"難波","name_kana":"なんば","lat":34.66357,"lng":135.501949,"prefecture":27,"numbering":[{"index":"01"}],"lines":[32001,32007],"attr":"cool","postal_code":"542-0076","address":"大阪市中央区難波５-１-６０"},
    {"code":1160720,"id":"13b494","name":"新今宮","name_kana":"しんいまみや","lat":34.650149,"lng":135.501076,"prefecture":27,"numbering":[{"index":"03"}],"lines":[11607,11623,32001,32007],"attr":"heat","postal_code":"556-0003","address":"大阪市浪速区恵美須西３丁目"},
    {"code":3200103,"id":"0d8697","name":"天下茶屋","name_kana":"てんがちゃや","lat":34.636847,"lng":135.496673,"prefecture":27,"numbering":[{"index":"05"}],"lines":[32001,32007,99623],"attr":"cool","postal_code":"557-0041","address":"大阪市西成区岸里１-１-１０"},
    {"code":3200104,"id":"857d8a","name":"岸里玉出","name_kana":"きしのさとたまで","lat":34.628291,"lng":135.494388,"prefecture":27,"numbering":[{"index":"06"}],"lines":[32001,32007,32009],"attr":"cool","postal_code":"557-0043","address":"大阪市西成区玉出東１-１-１７"},
    {"code":3200105,"id":"a9dcf5","name":"粉浜","name_kana":"こはま","lat":34.61833,"lng":135.491763,"prefecture":27,"numbering":[{"index":"07"}],"lines":[32001],"attr":"cool","postal_code":"558-0051","address":"大阪市住吉区東粉浜３-２３-２５"},
    {"code":3200106,"id":"271097","name":"住吉大社","name_kana":"すみよしたいしゃ","lat":34.612431,"lng":135.490124,"prefecture":27,"numbering":[{"index":"08"}],"lines":[32001],"attr":"cool","postal_code":"558-0044","address":"大阪市住吉区長峡町３-１４"},
    {"code":3200107,"id":"f1f7c4","name":"住ノ江","name_kana":"すみのえ","lat":34.605348,"lng":135.487011,"prefecture":27,"numbering":[{"index":"09"}],"lines":[32001],"attr":"cool","postal_code":"559-0005","address":"大阪市住之江区西住之江１-１-４１"},
    {"code":3200108,"id":"3e726f","name":"七道","name_kana":"しちどう","lat":34.592313,"lng":135.480556,"prefecture":27,"numbering":[{"index":"10"}],"lines":[32001],"attr":"cool","postal_code":"590-0905","address":"堺市堺区鉄砲町１-２２"},
    {"code":3200109,"id":"16a28f","name":"堺","name_kana":"さかい","lat":34.581958,"lng":135.468754,"prefecture":27,"numbering":[{"index":"11"}],"lines":[32001],"attr":"cool","postal_code":"590-0985","address":"堺市堺区戎島町３丁２２"},
    {"code":3200110,"id":"abc5b6","name":"湊","name_kana":"みなと","lat":34.570489,"lng":135.459975,"prefecture":27,"numbering":[{"index":"12"}],"lines":[32001],"attr":"cool","postal_code":"590-0834","address":"堺市堺区出島町２丁４-９"},
    {"code":3200111,"id":"903dc0","name":"石津川","name_kana":"いしづがわ","lat":34.559377,"lng":135.453178,"prefecture":27,"numbering":[{"index":"13"}],"lines":[32001],"attr":"cool","postal_code":"592-8334","address":"堺市西区浜寺石津町中３丁１５-１９"},
    {"code":3200112,"id":"574474","name":"諏訪ノ森","name_kana":"すわのもり","lat":34.551764,"lng":135.449129,"prefecture":27,"numbering":[{"index":"14"}],"lines":[32001],"attr":"cool","postal_code":"592-8347","address":"堺市西区浜寺諏訪森町西２丁７８"},
    {"code":3200113,"id":"4787f6","name":"浜寺公園","name_kana":"はまでらこうえん","lat":34.541243,"lng":135.444629,"prefecture":27,"numbering":[{"index":"15"}],"lines":[32001],"attr":"cool","postal_code":"592-8346","address":"堺市西区浜寺公園町２丁１８８"},
    {"code":3200114,"id":"dea15d","name":"羽衣","name_kana":"はごろも","lat":34.534546,"lng":135.44178,"prefecture":27,"numbering":[{"index":"16"}],"lines":[32001,32004],"attr":"eco","postal_code":"592-0002","address":"高石市羽衣１-１５-１６"},
    {"code":3200115,"id":"920e48","name":"高石","name_kana":"たかいし","lat":34.521439,"lng":135.432723,"prefecture":27,"numbering":[{"index":"17"}],"lines":[32001],"attr":"cool","postal_code":"592-0005","address":"高石市千代田１-１０-１８"},
    {"code":3200116,"id":"94cb6c","name":"北助松","name_kana":"きたすけまつ","lat":34.514523,"lng":135.422779,"prefecture":27,"numbering":[{"index":"18"}],"lines":[32001],"attr":"cool","postal_code":"595-0006","address":"泉大津市東助松町１-１１-１"},
    {"code":3200117,"id":"95f380","name":"松ノ浜","name_kana":"まつのはま","lat":34.508932,"lng":135.414702,"prefecture":27,"numbering":[{"index":"19"}],"lines":[32001],"attr":"cool","postal_code":"595-0015","address":"泉大津市二田町１-１-１５"},
    {"code":3200118,"id":"2fffeb","name":"泉大津","name_kana":"いづみおおつ","lat":34.503235,"lng":135.406642,"prefecture":27,"numbering":[{"index":"20"}],"lines":[32001],"attr":"eco","postal_code":"595-0025","address":"泉大津市旭町１９-１"},
    {"code":3200119,"id":"1d535f","name":"忠岡","name_kana":"ただおか","lat":34.488645,"lng":135.397668,"prefecture":27,"numbering":[{"index":"21"}],"lines":[32001],"attr":"eco","postal_code":"595-0813","address":"泉北郡忠岡町忠岡南１-５-１"},
    {"code":3200120,"id":"56392a","name":"春木","name_kana":"はるき","lat":34.477688,"lng":135.392077,"prefecture":27,"numbering":[{"index":"22"}],"lines":[32001],"attr":"eco","postal_code":"596-0006","address":"岸和田市春木若松町１４-６"},
    {"code":3200121,"id":"a088fd","name":"和泉大宮","name_kana":"いずみおおみや","lat":34.467917,"lng":135.384908,"prefecture":27,"numbering":[{"index":"23"}],"lines":[32001],"attr":"eco","postal_code":"596-0047","address":"岸和田市上野町東１３-１"},
    {"code":3200122,"id":"f37575","name":"岸和田","name_kana":"きしわだ","lat":34.460304,"lng":135.37819,"prefecture":27,"numbering":[{"index":"24"}],"lines":[32001],"attr":"eco","postal_code":"596-0054","address":"岸和田市宮本町１-１０"},
    {"code":3200123,"id":"188f14","name":"蛸地蔵","name_kana":"たこじぞう","lat":34.456437,"lng":135.37031,"prefecture":27,"numbering":[{"index":"25"}],"lines":[32001],"attr":"eco","postal_code":"596-0073","address":"岸和田市岸城町１６-１"},
    {"code":3200124,"id":"5ab0dd","name":"貝塚(大阪)","name_kana":"かいづか","lat":34.445499,"lng":135.357485,"prefecture":27,"numbering":[{"index":"26"}],"lines":[32001,99617],"attr":"eco","postal_code":"597-0083","address":"貝塚市海塚２５０-２"},
    {"code":3200125,"id":"ef3686","name":"二色浜","name_kana":"にしきのはま","lat":34.432717,"lng":135.345275,"prefecture":27,"numbering":[{"index":"27"}],"lines":[32001],"attr":"eco","postal_code":"597-0062","address":"貝塚市澤６４７-２"},
    {"code":3200126,"id":"29ad14","name":"鶴原","name_kana":"つるはら","lat":34.426479,"lng":135.338366,"prefecture":27,"numbering":[{"index":"28"}],"lines":[32001],"attr":"heat","postal_code":"598-0071","address":"泉佐野市鶴原１-１-２６"},
    {"code":3200127,"id":"a722cb","name":"井原里","name_kana":"いはらのさと","lat":34.41983,"lng":135.330742,"prefecture":27,"numbering":[{"index":"29"}],"lines":[32001],"attr":"heat","postal_code":"598-0062","address":"泉佐野市下瓦屋１-１-５７"},
    {"code":3200128,"id":"92983c","name":"泉佐野","name_kana":"いずみさの","lat":34.411153,"lng":135.316724,"prefecture":27,"numbering":[{"index":"30"}],"lines":[32001,32002],"attr":"heat","postal_code":"598-0007","address":"泉佐野市上町３-１１-４１"},
    {"code":3200129,"id":"05fc8c","name":"羽倉崎","name_kana":"はぐらざき","lat":34.399346,"lng":135.299484,"prefecture":27,"numbering":[{"index":"33"}],"lines":[32001],"attr":"heat","postal_code":"598-0046","address":"泉佐野市羽倉崎１-１-２４"},
    {"code":3200130,"id":"fa783b","name":"吉見ノ里","name_kana":"よしみのさと","lat":34.391397,"lng":135.28976,"prefecture":27,"numbering":[{"index":"34"}],"lines":[32001],"attr":"heat","postal_code":"598-0092","address":"泉南郡田尻町大字吉見６０３"},
    {"code":3200131,"id":"a2283d","name":"岡田浦","name_kana":"おかだうら","lat":34.384569,"lng":135.276939,"prefecture":27,"numbering":[{"index":"35"}],"lines":[32001],"attr":"heat","postal_code":"590-0531","address":"泉南市岡田５-２４-３"},
    {"code":3200132,"id":"3987f3","name":"樽井","name_kana":"たるい","lat":34.374184,"lng":135.261362,"prefecture":27,"numbering":[{"index":"36"}],"lines":[32001],"attr":"heat","postal_code":"590-0521","address":"泉南市樽井５-４１-１"},
    {"code":3200133,"id":"2ceccd","name":"尾崎","name_kana":"おざき","lat":34.36103,"lng":135.240172,"prefecture":27,"numbering":[{"index":"37"}],"lines":[32001],"attr":"heat","postal_code":"599-0201","address":"阪南市尾崎町９５-１"},
    {"code":3200134,"id":"50f3dd","name":"鳥取ノ荘","name_kana":"とっとりのしょう","lat":34.351323,"lng":135.231857,"prefecture":27,"numbering":[{"index":"38"}],"lines":[32001],"attr":"heat","postal_code":"599-0204","address":"阪南市鳥取６６５"},
    {"code":3200135,"id":"aa9a8b","name":"箱作","name_kana":"はこつくり","lat":34.341323,"lng":135.212634,"prefecture":27,"numbering":[{"index":"39"}],"lines":[32001],"attr":"heat","postal_code":"599-0232","address":"阪南市箱作３２０"},
    {"code":3200136,"id":"7dd582","name":"淡輪","name_kana":"たんのわ","lat":34.331229,"lng":135.178159,"prefecture":27,"numbering":[{"index":"40"}],"lines":[32001],"attr":"heat","postal_code":"599-0301","address":"泉南郡岬町淡輪１１９７"},
    {"code":3200137,"id":"db468a","name":"みさき公園","name_kana":"みさきこうえん","lat":34.323986,"lng":135.160977,"prefecture":27,"numbering":[{"index":"41"}],"lines":[32001,32006],"attr":"heat","postal_code":"599-0301","address":"泉南郡岬町淡輪３７１４"},
    {"code":3200138,"id":"38f2e0","name":"孝子","name_kana":"きょうし","lat":34.290619,"lng":135.151019,"prefecture":27,"numbering":[{"index":"42"}],"lines":[32001],"attr":"heat","postal_code":"599-0302","address":"泉南郡岬町孝子６０２"},
    {"code":3200141,"id":"989393","name":"和歌山大学前","name_kana":"わかやまだいがくまえ","lat":34.2753,"lng":135.147036,"prefecture":30,"numbering":[{"index":"43"}],"lines":[32001],"attr":"cool","postal_code":"640-8451","address":"和歌山県和歌山市中575番地3"},
    {"code":3200139,"id":"b80516","name":"紀ノ川","name_kana":"きのかわ","lat":34.254937,"lng":135.165908,"prefecture":30,"numbering":[{"index":"44"}],"lines":[32001,32005],"attr":"eco","postal_code":"640-8464","address":"和歌山市市小路１６２-３"},
    {"code":1164003,"id":"71b015","name":"和歌山市","name_kana":"わかやまし","lat":34.236717,"lng":135.166731,"prefecture":30,"numbering":[{"index":"45"}],"lines":[11640,32001,32003,32005],"attr":"eco","postal_code":"640-8203","address":"和歌山市東蔵前丁"}
  ],
  "north":34.66383,
  "south":34.23587,
  "east":135.50311,
  "west":135.14546,
  "polyline_list":[
    {
      "start":"岸里玉出",
      "end":"なんば",
      "lat":34.6314,
      "lng":135.49515,
      "delta_lat":[0,173,35,1,11,27,22,31,101,63,8,200,38,43,147,110,77,106,79,90,114,167,176,11,109,65,8,185,73,152,37,115,185,17,32,105,36,20,22,22,61,132,36],
      "delta_lng":[0,44,9,1,2,8,4,9,27,17,1,58,13,10,44,32,22,27,23,24,30,45,46,2,30,17,2,49,21,39,11,31,50,4,9,27,8,0,-2,-3,-21,-79,-23]
    },
    {
      "start":"和歌山市",
      "end":"岸里玉出",
      "lat":34.23587,
      "lng":135.16511,
      "delta_lat":[0,34,117,20,29,9,73,10,132,40,47,42,49,59,36,262,161,167,77,82,104,78,53,62,12,45,3,35,48,39,54,19,71,36,6,8,4,17,15,5,3,25,85,18,4,34,19,1,4,12,18,33,11,1,37,3,18,9,2,1,1,3,1,2,0,2,7,3,9,6,3,13,2,3,13,22,13,30,43,30,23,25,18,38,25,17,28,33,18,33,10,26,11,54,2,21,6,4,23,4,29,7,25,47,18,69,5,20,26,32,76,11,34,18,18,34,20,40,31,4,16,25,24,9,9,5,0,5,103,29,46,27,59,8,51,10,20,2,7,8,1,12,38,59,9,78,19,33,79,40,32,15,26,24,38,57,384,58,20,11,54,19,6,19,23,7,12,35,29,33,16,88,17,3,15,29,27,14,18,24,16,30,16,37,37,41,6,1,68,10,5,65,13,15,187,96,21,38,48,89,36,36,31,0,69,6,70,36,46,59,18,18,26,40,28,39,14,32,33,6,17,12,12,19,21,11,51,16,17,30,11,4,18,3,19,12,24,36,19,79,5,61,34,35,16,29,13,5,35,26,15,11,65,16,63,42,42,22,28,33,12,4,9,9,20,16,31,36,27,13,7,8,32,13,7,43,42,23,26,41,3,6,47,4,4,36,18,17,17,45,15,16,48,27,61,8,4,30,5,5,14,11,13,29,14,25,13,24,21,2,9,9,5,13,13,14,6,4,6,8,2,5,8,4,3,5,1,8,4,12,7,12,5,14,8,10,15,7,7,13,24,3,16,2,24,3,13,24,46,18,13,16,13,7,4,3,2,-2,-19,-9,-1,-1,-17,-7,-2,-5,0,1,5,1,2,0,5,15,20,5,56,9,55,10,20,15,5,18,13,38,4,10,49,35,12,7,37,42,30,107,162,13,12,10,8,1,-3,-12,-2,-3,2,4,9,14,16,13,30,35,46,13,64,108,161,142,11,24,99,158,36,19,20,24,63,5,12,30,24,25,9,21,20,7,41,43,45,30,24,360,27,61,49,38,13,36,43,80,112,67,119,8,14,11,38,5,2,47,15,1,16,4,12,14,37,55,53,53,49,76,72,83,20,29,23,47,78,37,52,58,68,89,33,43,45,53,24,136,186,13,94,24,19,83,71,4,41,13,58,155,22,30,13,11,59,51,26,46,68,73,17,72,164,20,76,152,56,215,16,21,6,80,90,75,40,2,21,251,38,158,57,20,29,58,81,46,19,63,42,47,18,42,65,19,12,78,276,76,22,166,68,4,20,16,150,91,79,109,126,30,91,14,172,4,24,197,71,97,32,106,30,49,61,79,40,74,33,28,37,59,26,253,94,144,37,40,83,88,18,29,76,173,71,88,147,43,47,27,31,31,9,34,123,5,56,39,12,33,75,31,38,73,115,25,26,39,32,28,33,42,50,119,63,97,90,17,104,193,192,116,156,26,144,29,118,126,121,71,56,31,20,20,39,24,104,218,58,101,14,65,29,197,235,164,33,44,148,103,74,32,38,38,56,141,64,41,67,13,20,7,1,13,15,57,31,5,33,17,5,50,0,8,28,22,9,28,102,4,2,69,26,8,97,55,21,60,52,22,35,0,57,40,2,88,4,7,6,3,25,15,136,39,26,14,17,15,84,7,50,28,5,27,22,44,30,12,71,87,9,41,53,27,45,28,37,25,14,9,34,51,27,12,31,45,147,5,22,6,6,54,13,49,237,55,158,338,20,65,99,205,99,45,188,24,21,18,132,27,31,230,11,25,32,122,97,43,37,9,59,18,27,119,70,135,4,146,3,68,50,7,277,81,56,150,53,64,38,13,96,23,154,244,235,58,39,35,6,27,50,50,44,5,172,47,107,179,105,52,18,47,194,43,18,18,5,98,119,130,8,3,46,32,35,5,25,38,27,45,53,60,48,2,7,23,26,203,44,17,5,31,2,39,44,106,97,1,56,5,15,190,3,50,10,6,88,67,49,38,2,41,45,4,83,44,211,12,91,4,69,154,32,168,10,72,41,132,34,5,83,73,36,19,11,83,18,199,9,190,57,15,42,19,75,24],
      "delta_lng":[0,55,177,28,43,15,107,16,204,47,34,19,14,5,-5,-71,-47,-45,-20,-25,-47,-47,-43,-57,-14,-61,-5,-57,-94,-95,-122,-43,-166,-83,-16,-17,-9,-40,-36,-11,-6,-60,-194,-40,-8,-79,-42,-4,-9,-27,-44,-74,-24,-2,-84,-5,-46,-31,-12,0,-36,-27,-24,-44,-8,-19,-62,-23,-32,-18,-7,-43,-3,-8,-32,-38,-24,-55,-65,-27,-17,-17,-10,-12,-9,-2,6,6,5,9,5,10,7,27,2,9,3,1,8,1,8,1,2,-6,-5,-18,-1,-5,-8,-9,-20,-3,-10,-5,-3,1,6,11,12,1,5,8,8,3,3,2,2,0,34,10,14,6,9,0,6,2,1,2,0,1,2,0,6,7,0,12,4,5,15,13,13,9,16,16,26,37,248,21,8,4,13,3,2,0,-2,-1,-2,-10,-13,-17,-9,-65,-15,-1,-10,-15,-6,-4,-2,-1,-1,5,6,19,24,26,3,2,44,8,2,44,8,9,121,64,17,31,46,96,42,41,35,1,76,5,75,39,51,59,17,15,19,16,4,4,-2,-7,-13,-3,-6,-7,-7,-13,-18,-9,-40,-14,-9,-13,-5,-1,-7,-1,-8,-4,-5,-1,1,0,0,0,-5,-6,-4,-7,-5,-1,-15,-13,-9,-7,-45,-9,-44,-27,-27,-13,-17,-18,-6,-1,-4,-4,-6,-4,-2,0,2,2,4,2,12,9,8,33,29,19,23,47,5,9,65,6,6,52,25,25,24,71,23,21,73,39,88,12,7,41,8,8,20,15,18,41,21,36,19,34,34,5,15,17,9,29,33,48,20,20,29,44,14,36,40,21,20,29,4,35,18,57,26,43,16,44,21,30,44,25,15,38,66,13,49,3,68,9,33,75,134,58,49,53,52,33,31,34,144,21,101,48,3,8,68,37,8,46,16,41,31,4,12,6,16,43,41,7,64,8,36,7,11,9,3,11,9,30,2,9,60,69,32,26,125,108,67,220,335,31,41,44,48,53,75,268,50,90,39,36,38,39,36,25,58,64,87,29,122,209,312,273,20,38,127,212,59,39,47,80,208,22,36,90,63,56,15,35,27,10,40,36,31,19,10,172,14,30,31,38,10,39,53,108,151,88,164,12,27,32,151,31,2,166,49,4,51,16,41,43,99,100,69,51,40,42,40,57,19,30,22,66,163,77,109,119,140,178,66,73,70,67,24,131,178,14,96,35,35,179,154,10,91,29,132,346,45,65,30,22,130,100,46,72,88,85,20,84,209,26,99,194,72,274,21,25,6,106,111,95,53,2,27,312,46,203,72,24,33,71,98,75,33,202,140,157,62,140,218,46,23,107,299,87,25,185,79,6,21,18,166,100,86,122,141,32,103,13,195,3,27,222,80,108,35,115,25,23,16,15,6,21,14,23,37,71,31,325,118,179,47,50,107,113,23,29,56,125,49,59,105,32,39,29,48,63,22,82,296,12,139,88,24,81,174,62,72,117,171,36,34,53,36,23,24,34,37,90,48,72,65,12,79,144,141,84,115,19,107,19,88,98,90,46,35,13,9,8,14,9,37,84,22,37,6,21,12,68,82,53,12,15,52,37,37,26,33,39,72,191,89,63,91,17,27,10,2,19,19,83,42,9,49,22,6,71,1,9,40,34,10,42,148,7,4,100,37,11,141,81,28,85,74,33,49,2,80,60,2,126,6,12,8,4,38,20,197,58,38,20,25,22,121,13,69,41,7,38,32,62,43,18,102,125,14,63,74,36,50,23,33,19,11,4,23,26,12,5,11,22,63,2,9,2,3,24,6,20,100,25,68,143,8,26,43,85,43,21,80,9,11,7,57,12,12,98,6,10,14,54,38,19,19,4,34,10,16,71,42,82,2,89,2,41,30,5,167,49,33,92,31,38,24,8,59,13,92,149,143,36,25,24,7,19,42,44,44,4,189,51,119,197,114,58,20,55,228,53,20,22,3,116,138,152,11,4,49,31,31,3,19,22,14,19,17,23,18,2,0,9,10,73,18,6,2,10,3,14,15,39,36,0,24,2,6,90,2,28,7,3,53,40,27,17,2,16,13,1,21,13,59,3,23,2,19,40,9,44,3,18,12,34,10,1,21,20,10,5,3,22,5,49,1,53,14,4,11,5,19,6]
    }
  ]
}