{
  "code":33008,
  "id":"3d7afc",
  "name":"京阪中之島線",
  "name_kana":"けいはんなかのしません",
  "station_size":5,
  "company_code":23,
  "color":"#66CC33",
  "symbol":"KH",
  "station_list":[
    {"code":3300138,"id":"cf3a3e","name":"天満橋","name_kana":"てんまばし","lat":34.6902,"lng":135.516633,"prefecture":27,"numbering":[{"index":"03"}],"lines":[33001,33008,99619],"attr":"eco","postal_code":"540-0012","address":"大阪市中央区谷町１-２-５","next":[1162502,3300139,9962108,1162503,9961913],"voronoi":{"lat":34.685692,"lng":135.512065,"delta_lat":[0,1175,5574,3324,-9204],"delta_lng":[0,-1008,909,7503,4220]}},
    {"code":3300802,"id":"0ac0d9","name":"なにわ橋","name_kana":"なにわばし","lat":34.692829,"lng":135.506594,"prefecture":27,"numbering":[{"index":"51"}],"lines":[33008],"attr":"eco","postal_code":"530-0005","address":"大阪市北区中之島一丁目","next":[3300139,3300803,3300140,9961911,9961910],"voronoi":{"lat":34.69815,"lng":135.504592,"delta_lat":[0,-2834,-3581,1556,5347],"delta_lng":[0,-672,270,6789,-5807]}},
    {"code":3300803,"id":"8bcd70","name":"大江橋","name_kana":"おおえばし","lat":34.694296,"lng":135.500412,"prefecture":27,"numbering":[{"index":"52"}],"lines":[33008],"attr":"eco","postal_code":"530-0005","address":"大阪市北区中之島二丁目","next":[3300804,3300140,9962002,3300802,9961910,1162504],"voronoi":{"lat":34.69554,"lng":135.497807,"delta_lat":[0,-2125,-1406,3307,2834,-451],"delta_lng":[0,162,1028,4923,672,-4208]}},
    {"code":3300804,"id":"e62d42","name":"渡辺橋","name_kana":"わたなべばし","lat":34.693916,"lng":135.49542,"prefecture":27,"numbering":[{"index":"53"}],"lines":[33008],"attr":"heat","postal_code":"530-0005","address":"大阪市北区中之島三丁目","next":[3300803,1162309,9962002,9962001,1162504,3300805],"voronoi":{"lat":34.694876,"lng":135.490747,"delta_lat":[0,2174,-175,-1335,-2125,-2303],"delta_lng":[0,798,2626,3635,162,-6093]}},
    {"code":3300805,"id":"db40cd","name":"中之島","name_kana":"なかのしま","lat":34.691504,"lng":135.487373,"prefecture":27,"numbering":[{"index":"54"}],"lines":[33008],"attr":"heat","postal_code":"530-0005","address":"大阪市北区中之島五丁目","next":[9962202,1162505,9962106,1162309,3300804,9962002],"voronoi":{"lat":34.694876,"lng":135.490747,"delta_lat":[0,-39,-3547,-4319,-1010,5151],"delta_lng":[0,-268,-8824,732,9403,85]}}
  ],
  "north":34.69436,
  "south":34.6904,
  "east":135.51552,
  "west":135.48739,
  "polyline_list":[
    {
      "start":"中之島",
      "end":"天満橋",
      "lat":34.69136,
      "lng":135.48739,
      "delta_lat":[0,67,33,78,58,25,15,16,8,0,0,0,-18,-32,-110,-28,-39,-78,-51,-41],
      "delta_lng":[0,101,51,181,274,186,117,116,234,0,196,0,123,121,226,78,112,222,180,295]
    }
  ]
}