{
  "code":33002,
  "name":"京阪宇治線",
  "color":"#66CC33",
  "symbol":"KH",
  "station_list":[
    {"code":3300113,"id":"b49d84","name":"中書島","name_kana":"ちゅうしょじま","lat":34.926875,"lng":135.760174,"prefecture":26,"numbering":[{"index":"28"}],"lines":[33001,33002],"attr":"heat","postal_code":"612-8224","address":"京都市伏見区葭島矢倉町５９"},
    {"code":3300202,"id":"fdf99d","name":"観月橋","name_kana":"かんげつきょう","lat":34.928103,"lng":135.768642,"prefecture":26,"numbering":[{"index":"71"}],"lines":[33002],"attr":"heat","postal_code":"612-8106","address":"京都市伏見区豊後橋町７６１"},
    {"code":3300203,"id":"474570","name":"桃山南口","name_kana":"ももやまみなみぐち","lat":34.931056,"lng":135.783683,"prefecture":26,"numbering":[{"index":"72"}],"lines":[33002],"attr":"heat","postal_code":"612-8018","address":"京都市伏見区桃山町丹後１１"},
    {"code":3300204,"id":"20cee5","name":"六地蔵(京阪電気鉄道)","name_kana":"ろくじぞう","lat":34.932017,"lng":135.793322,"prefecture":26,"numbering":[{"index":"73"}],"lines":[33002],"attr":"heat","postal_code":"612-8007","address":"京都市伏見区桃山町因幡2"},
    {"code":3300205,"id":"e1a335","name":"木幡(京阪電気鉄道)","name_kana":"こわた","lat":34.925859,"lng":135.796047,"prefecture":26,"numbering":[{"index":"74"}],"lines":[33002],"attr":"cool","postal_code":"611-0002","address":"京都府宇治市木幡"},
    {"code":1161808,"id":"56efb4","name":"黄檗","name_kana":"おうばく","lat":34.912831,"lng":135.803665,"prefecture":26,"numbering":[{"index":"75"}],"lines":[11618,33002],"attr":"heat","postal_code":"611-0011","address":"宇治市五ケ庄新開"},
    {"code":3300207,"id":"4f6431","name":"三室戸","name_kana":"みむろど","lat":34.898976,"lng":135.806339,"prefecture":26,"numbering":[{"index":"76"}],"lines":[33002],"attr":"eco","postal_code":"611-0013","address":"宇治市菟道田中１５"},
    {"code":3300208,"id":"27c551","name":"宇治(京阪電気鉄道)","name_kana":"うじ","lat":34.894678,"lng":135.806229,"prefecture":26,"numbering":[{"index":"77"}],"lines":[33002],"attr":"eco","postal_code":"611-0021","address":"宇治市宇治字文治"}
  ],
  "north":34.93219,
  "south":34.89473,
  "east":135.80667,
  "west":135.75956,
  "polyline_list":[
    {
      "start":"中書島",
      "end":"宇治",
      "lat":34.92661,
      "lng":135.75956,
      "delta_lat":[0,7,7,9,4,9,0,5,55,43,31,39,13,6,0,-19,2,11,17,67,43,20,12,10,12,9,24,12,5,71,29,5,1,-8,-10,-18,-10,-27,-1,-22,-36,-44,-32,-56,-54,-235,-88,-17,-214,-70,-28,-16,-34,-83,-126,-44,-271,-96,-18,-3,-10,-11,-12,-9,-20,-21,-17,-7,-2,-11,-20,-18,-47,-199,-433,-175,-40,-40,-32,-42,-62,-66,-53,-44,-50,-172,-98,-15,-2,-26,-48,-39,-9,-123,-26,-86],
      "delta_lng":[0,99,50,54,143,308,39,11,78,114,86,134,67,63,67,184,47,42,35,116,95,60,62,69,93,62,172,90,26,471,193,55,74,58,47,54,24,47,3,32,43,43,20,25,3,-4,-1,0,-3,4,5,4,13,43,78,28,170,58,18,4,11,15,22,22,58,59,28,11,3,12,15,12,15,70,151,61,9,2,-4,-14,-19,-20,-3,5,13,54,35,5,0,5,3,-3,-1,-27,-2,-1]
    }
  ]
}