{
  "code":33003,
  "id":"171ce6",
  "name":"京阪交野線",
  "name_kana":"けいはんかたのせん",
  "station_size":8,
  "company_code":23,
  "color":"#66CC33",
  "symbol":"KH",
  "station_list":[
    {"code":3300120,"id":"793419","name":"枚方市","name_kana":"ひらかたし","lat":34.816171,"lng":135.648814,"prefecture":27,"numbering":[{"index":"21"}],"lines":[33001,33003],"attr":"heat","postal_code":"573-0032","address":"枚方市岡東町１９-１４","next":[3300303,3300121,3300302,3300119],"voronoi":{"lat":34.828417,"lng":135.636901,"delta_lat":[0,-23715,1649,14975],"delta_lng":[0,11783,1277,4832]}},
    {"code":3300302,"id":"59809b","name":"宮之阪","name_kana":"みやのさか","lat":34.813649,"lng":135.65663,"prefecture":27,"numbering":[{"index":"61"}],"lines":[33003],"attr":"heat","postal_code":"573-0022","address":"枚方市宮之阪１-７５５-２","next":[3300118,3300119,1161711,3300120,3300303],"voronoi":{"lat":34.806351,"lng":135.64996,"delta_lat":[0,14975,3409,-1434,-1417],"delta_lng":[0,4832,19892,4841,25]}},
    {"code":3300303,"id":"a78503","name":"星ヶ丘(大阪)","original_name":"星ヶ丘","name_kana":"ほしがおか","lat":34.807696,"lng":135.659755,"prefecture":27,"numbering":[{"index":"62"}],"lines":[33003],"attr":"heat","postal_code":"573-0013","address":"大阪府枚方市星丘二丁目","next":[1161711,3300121,3300120,3300122,3300304,3300302],"voronoi":{"lat":34.81853,"lng":135.680078,"delta_lat":[0,-24518,2284,8406,1649,15533],"delta_lng":[0,-32215,-767,1587,1277,29590]}},
    {"code":3300304,"id":"ae334a","name":"村野","name_kana":"むらの","lat":34.801828,"lng":135.664221,"prefecture":27,"numbering":[{"index":"63"}],"lines":[33003],"attr":"heat","postal_code":"573-0016","address":"枚方市村野本町１-２５","next":[3300305,3300123,3300122,1161712,3300303,1161711],"voronoi":{"lat":34.81853,"lng":135.680078,"delta_lat":[0,-24518,-1760,-6126,22688,6104],"delta_lng":[0,-32215,211,3167,29939,83]}},
    {"code":3300305,"id":"08b065","name":"郡津","name_kana":"こうづ","lat":34.794376,"lng":135.669868,"prefecture":27,"numbering":[{"index":"64"}],"lines":[33003],"attr":"eco","postal_code":"576-0053","address":"交野市郡津５-１１-１","next":[3300123,1161714,3300304,1161712,3300306],"voronoi":{"lat":34.808814,"lng":135.681181,"delta_lat":[0,-22688,-1709,-2348,16950],"delta_lng":[0,-29939,429,9896,22055]}},
    {"code":3300306,"id":"362361","name":"交野市","name_kana":"かたのし","lat":34.786924,"lng":135.675595,"prefecture":27,"numbering":[{"index":"65"}],"lines":[33003],"attr":"eco","postal_code":"576-0052","address":"交野市私部３-１８-１５","next":[1161712,1161713,3300305,1161714],"voronoi":{"lat":34.78207,"lng":135.661567,"delta_lat":[0,16950,-9154,-14631],"delta_lng":[0,22055,5918,-16950]}},
    {"code":3300307,"id":"b4c8a4","name":"河内森","name_kana":"かわちもり","lat":34.77386,"lng":135.685617,"prefecture":27,"numbering":[{"index":"66"}],"lines":[33003],"attr":"cool","postal_code":"576-0033","address":"交野市私市１-２-１","next":[3300308,1161713,1161714,1161712],"voronoi":{"lat":34.782341,"lng":135.703554,"delta_lat":[0,-11310,-1973,6666],"delta_lng":[0,-29144,580,43332]}},
    {"code":3300308,"id":"08dd8a","name":"私市","name_kana":"きさいち","lat":34.767671,"lng":135.686569,"prefecture":27,"numbering":[{"index":"67"}],"lines":[33003],"attr":"cool","postal_code":"576-0032","address":"交野市私市山手３-６-３２","next":[3300307,3102306,1161715,3102307,1161712,1161714],"voronoi":{"lat":34.769058,"lng":135.67499,"delta_lat":[0,6666,-5114,-25178,-14471,15916],"delta_lng":[0,43332,15148,-29605,-22741,-5822]}}
  ],
  "north":34.81695,
  "south":34.76731,
  "east":135.68694,
  "west":135.64823,
  "polyline_list":[
    {
      "start":"枚方市",
      "end":"私市",
      "lat":34.81561,
      "lng":135.64823,
      "delta_lat":[0,113,6,5,4,4,2,-2,-4,-5,-10,-23,-21,-13,-13,-11,-16,-17,-9,-14,-22,-19,-24,-19,-35,-9,-83,-5,-20,-206,-50,-56,-55,-42,-87,-92,-89,-402,-73,-239,-35,-82,-15,-305,-57,-506,-179,-79,-35,-142,-217,-218,-188,-24,-196,-26,-195,-56,-51,-40,-34,-56,-78,-57,-44,-59,-35,-23,-26,-56,-65],
      "delta_lng":[0,126,17,18,21,25,33,27,26,28,25,47,42,28,32,32,65,67,22,26,34,23,24,16,22,4,32,2,7,77,19,27,32,30,67,73,67,304,58,184,27,62,14,232,44,386,137,60,28,111,166,166,143,18,151,19,148,43,32,19,14,15,15,9,3,0,-4,-4,-7,-15,-17]
    }
  ]
}