{
  "code":33006,
  "name":"京阪石山坂本線",
  "color":"#009933",
  "symbol":"OT",
  "station_list":[
    {"code":3300601,"id":"0bebe9","name":"石山寺","name_kana":"いしやまでら","lat":34.967122,"lng":135.90347,"prefecture":25,"numbering":[{"index":"01"}],"lines":[33006],"attr":"heat","postal_code":"520-0853","address":"大津市螢谷５-１３"},
    {"code":3300602,"id":"bf4dc0","name":"唐橋前","name_kana":"からはしまえ","lat":34.973304,"lng":135.90297,"prefecture":25,"numbering":[{"index":"02"}],"lines":[33006],"attr":"heat","postal_code":"520-0854","address":"大津市鳥居川町７-１０"},
    {"code":3300603,"id":"d39cb3","name":"京阪石山","name_kana":"けいはんいしやま","lat":34.979639,"lng":135.899651,"prefecture":25,"numbering":[{"index":"03"}],"lines":[33006],"attr":"heat","postal_code":"520-0832","address":"大津市粟津町２番２８号"},
    {"code":3300604,"id":"f54860","name":"粟津(滋賀)","name_kana":"あわづ","lat":34.984789,"lng":135.895607,"prefecture":25,"numbering":[{"index":"04"}],"lines":[33006],"attr":"heat","postal_code":"520-0835","address":"大津市別保１-７-６"},
    {"code":3300605,"id":"a53770","name":"瓦ヶ浜","name_kana":"かわらがはま","lat":34.988266,"lng":135.894696,"prefecture":25,"numbering":[{"index":"05"}],"lines":[33006],"attr":"heat","postal_code":"520-0837","address":"滋賀県大津市中庄一丁目"},
    {"code":3300606,"id":"3cba68","name":"中ノ庄","name_kana":"なかのしょう","lat":34.990857,"lng":135.891516,"prefecture":25,"numbering":[{"index":"06"}],"lines":[33006],"attr":"heat","postal_code":"520-0837","address":"大津市中庄２-１６-２"},
    {"code":3300607,"id":"15c0ac","name":"膳所本町","name_kana":"ぜぜほんまち","lat":34.995335,"lng":135.889249,"prefecture":25,"numbering":[{"index":"07"}],"lines":[33006],"attr":"heat","postal_code":"520-0815","address":"大津市膳所２-８-５"},
    {"code":3300608,"id":"d6ce06","name":"錦","name_kana":"にしき","lat":34.997587,"lng":135.885649,"prefecture":25,"numbering":[{"index":"08"}],"lines":[33006],"attr":"heat","postal_code":"520-0817","address":"大津市昭和町２-８"},
    {"code":3300609,"id":"c028e4","name":"京阪膳所","name_kana":"けいはんぜぜ","lat":34.999823,"lng":135.880833,"prefecture":25,"numbering":[{"index":"09"}],"lines":[33006],"attr":"heat","postal_code":"520-0802","address":"大津市馬場２-１１-６"},
    {"code":3300610,"id":"1770a5","name":"石場","name_kana":"いしば","lat":35.004722,"lng":135.875606,"prefecture":25,"numbering":[{"index":"10"}],"lines":[33006],"attr":"heat","postal_code":"520-0807","address":"大津市松本２-１５-６"},
    {"code":3300611,"id":"ccddba","name":"島ノ関","name_kana":"しまのせき","lat":35.007703,"lng":135.870937,"prefecture":25,"numbering":[{"index":"11"}],"lines":[33006],"attr":"eco","postal_code":"520-0042","address":"大津市島の関１０-７"},
    {"code":3300612,"id":"43628f","name":"びわ湖浜大津","name_kana":"びわこはまおおつ","lat":35.011283,"lng":135.863982,"prefecture":25,"numbering":[{"index":"12"}],"lines":[33006,33007],"attr":"eco","postal_code":"520-0047","address":"大津市浜大津１-３-８"},
    {"code":3300613,"id":"06bd5c","name":"三井寺","name_kana":"みいでら","lat":35.012891,"lng":135.859793,"prefecture":25,"numbering":[{"index":"13"}],"lines":[33006],"attr":"eco","postal_code":"520-0047","address":"大津市浜大津３-６-１２"},
    {"code":3300614,"id":"5afe95","name":"大津市役所前","name_kana":"おおつしやくしょまえ","lat":35.018335,"lng":135.855463,"prefecture":25,"numbering":[{"index":"14"}],"lines":[33006],"attr":"eco","postal_code":"520-0037","address":"大津市御陵町５-１"},
    {"code":3300615,"id":"d53790","name":"京阪大津京","name_kana":"けいはんおおつきょう","lat":35.02274,"lng":135.855521,"prefecture":25,"numbering":[{"index":"15"}],"lines":[33006],"attr":"cool","postal_code":"520-0025","address":"大津市皇子が丘２-５-１"},
    {"code":3300616,"id":"599967","name":"近江神宮前","name_kana":"おうみじんぐうまえ","lat":35.028194,"lng":135.855807,"prefecture":25,"numbering":[{"index":"16"}],"lines":[33006],"attr":"cool","postal_code":"520-0027","address":"大津市錦織２-７-１６"},
    {"code":3300617,"id":"52c76e","name":"南滋賀","name_kana":"みなみしが","lat":35.036691,"lng":135.85747,"prefecture":25,"numbering":[{"index":"17"}],"lines":[33006],"attr":"cool","postal_code":"520-0011","address":"大津市南志賀３-９-８"},
    {"code":3300618,"id":"58b4e7","name":"滋賀里","name_kana":"しがさと","lat":35.043402,"lng":135.858994,"prefecture":25,"numbering":[{"index":"18"}],"lines":[33006],"attr":"cool","postal_code":"520-0004","address":"大津市見世２-１４-７"},
    {"code":3300619,"id":"10f7b5","name":"穴太(滋賀)","name_kana":"あのお","lat":35.055675,"lng":135.864755,"prefecture":25,"numbering":[{"index":"19"}],"lines":[33006],"attr":"cool","postal_code":"520-0114","address":"大津市穴太２-８-１"},
    {"code":3300620,"id":"f952e7","name":"松ノ馬場","name_kana":"まつのばんば","lat":35.065348,"lng":135.870241,"prefecture":25,"numbering":[{"index":"20"}],"lines":[33006],"attr":"cool","postal_code":"520-0113","address":"大津市坂本２-１０-６６"},
    {"code":3300621,"id":"07e0d2","name":"坂本比叡山口","name_kana":"さかもとひえいざんぐち","lat":35.070592,"lng":135.871268,"prefecture":25,"numbering":[{"index":"21"}],"lines":[33006],"attr":"cool","postal_code":"520-0113","address":"大津市坂本４-１２-３５"}
  ],
  "north":35.07083,
  "south":34.96697,
  "east":135.90347,
  "west":135.85565,
  "polyline_list":[
    {
      "start":"石山寺",
      "end":"坂本比叡山口",
      "lat":34.96697,
      "lng":135.90347,
      "delta_lat":[0,66,127,413,67,20,81,49,185,67,28,18,7,9,4,9,13,58,9,10,10,9,7,4,28,17,14,20,24,12,28,97,236,68,14,107,111,26,41,10,25,2,2,3,11,15,27,36,7,2,34,22,34,11,62,12,87,40,8,15,23,6,9,62,70,50,40,4,79,24,16,18,60,11,31,5,103,81,9,1,0,1,84,30,47,184,10,88,24,57,10,25,64,35,25,15,30,46,36,4,94,49,50,45,83,32,6,16,22,41,17,18,41,10,2,21,20,9,7,6,4,6,8,7,9,32,33,29,18,22,40,50,147,20,63,322,21,62,148,28,41,225,13,54,11,18,33,28,253,150,106,115,102,16,70,15,70,244,121,169,19,64,90,195,289,64,79,47,49,32,85,217,51,14,13,7,63,76,16,40,27,49,36,262,55,276,51,14,14,53,90,69,123,101,49],
      "delta_lng":[0,-7,-11,-25,-7,-1,-7,-3,-15,-4,-2,-9,-12,-22,-18,-36,-23,-54,-12,-11,-27,-45,-41,-18,-169,-75,-31,-24,-15,-2,-4,-15,-34,-10,-4,-17,-18,-3,-10,-9,-67,-21,-13,-41,-42,-21,-42,-40,-8,-5,-28,-11,-4,-2,3,0,2,-5,-1,-4,-15,-7,-9,-58,-69,-47,-38,-6,-75,-30,-19,-36,-114,-19,-57,-10,-190,-147,-25,-43,-18,-58,-150,-42,-39,-146,-9,-69,-20,-56,-13,-29,-87,-58,-38,-24,-62,-84,-69,-9,-185,-98,-93,-88,-153,-70,-26,-48,-115,-115,-33,-24,-38,-10,-2,-23,-24,-18,-17,-23,-29,-41,-34,-19,-20,-47,-39,-24,-9,-7,-8,-3,-3,-1,-1,3,0,0,2,-1,1,2,0,4,1,2,6,6,62,33,26,24,19,5,16,5,15,51,26,37,4,19,24,52,79,19,27,25,29,25,72,180,45,12,11,6,50,58,11,23,17,27,18,125,26,126,25,7,5,17,24,9,16,5,0]
    }
  ]
}