{
  "code":33001,
  "id":"3a1efc",
  "name":"京阪本線",
  "name_kana":"けいはんほんせん",
  "station_size":42,
  "company_code":23,
  "color":"#66CC33",
  "symbol":"KH",
  "station_list":[
    {"code":3300401,"id":"11fb58","name":"出町柳","name_kana":"でまちやなぎ","lat":35.029613,"lng":135.77244,"prefecture":26,"numbering":[{"index":"42"}],"lines":[33001,33004,99606],"attr":"eco","postal_code":"606-0821","address":"京都市左京区賀茂大橋東詰","open_date":"1989-10-05","next":[9960602,9961005,3300402,9961003,9961006],"voronoi":{"lat":35.04067,"lng":135.770183,"delta_lat":[0,420,-17681,387,9983],"delta_lng":[0,1490,10554,-16573,424]}},
    {"code":3300402,"id":"cb3f5d","name":"神宮丸太町","name_kana":"じんぐうまるたまち","lat":35.017669,"lng":135.772161,"prefecture":26,"numbering":[{"index":"41"}],"lines":[33001,33004],"attr":"eco","postal_code":"606-8395","address":"京都市左京区東丸太町","open_date":"1989-10-05","next":[3300401,9961006,3300101,9960602,9961110,9961007,9961112,9961111],"voronoi":{"lat":35.013396,"lng":135.772564,"delta_lat":[0,-3,3244,6789,370,-387,-1358,-7803],"delta_lng":[0,-183,-6490,-599,362,16573,2539,-7763]}},
    {"code":3300101,"id":"e81894","name":"三条(京都)","name_kana":"さんじょう","lat":35.009114,"lng":135.772274,"prefecture":26,"numbering":[{"index":"40"}],"lines":[33001,33004],"attr":"eco","postal_code":"605-0000","address":"京都市東山区三条大橋東詰","next":[3400301,9961111,3300402,9961112,3300102],"voronoi":{"lat":35.013396,"lng":135.772564,"delta_lat":[0,-3,-6015,-901,-146],"delta_lng":[0,-183,-3299,1714,2541]}},
    {"code":3300102,"id":"883c86","name":"祇園四条","name_kana":"ぎおんしじょう","lat":35.003689,"lng":135.771961,"prefecture":26,"numbering":[{"index":"39"}],"lines":[33001],"attr":"eco","postal_code":"605-0801","address":"京都市東山区宮川筋一丁目","next":[9961110,3300103,3400301,9961109,3300101,9961111],"voronoi":{"lat":34.995766,"lng":135.783497,"delta_lat":[0,-2292,6030,6973,-146,-1254],"delta_lng":[0,545,-13459,212,2541,3868]}},
    {"code":3300103,"id":"ae79b8","name":"清水五条","name_kana":"きよみずごじょう","lat":34.995691,"lng":135.768378,"prefecture":26,"numbering":[{"index":"38"}],"lines":[33001],"attr":"eco","postal_code":"605-0846","address":"京都市東山区五条大橋東詰","next":[3300104,9961010,9961009,3400301,3300102,9961109,3300701],"voronoi":{"lat":34.991662,"lng":135.785067,"delta_lat":[0,1813,6030,758,-1422,-6004,-1747],"delta_lng":[0,-1025,-13459,-5639,-1082,303,20910]}},
    {"code":3300104,"id":"a9ec1b","name":"七条","name_kana":"しちじょう","lat":34.989322,"lng":135.767846,"prefecture":26,"numbering":[{"index":"37"}],"lines":[33001],"attr":"eco","postal_code":"605-0000","address":"京都市東山区七条大橋東詰","next":[3300103,1161802,100216,9961010,3300701],"voronoi":{"lat":34.984183,"lng":135.764023,"delta_lat":[0,5544,3110,-1747,-1707],"delta_lng":[0,-2118,2260,20910,345]}},
    {"code":1161802,"id":"7f99ee","name":"東福寺","name_kana":"とうふくじ","lat":34.981371,"lng":135.769778,"prefecture":26,"numbering":[{"index":"36"}],"lines":[11618,33001],"attr":"heat","postal_code":"605-0981","address":"京都市東山区本町１２","next":[9961012,3300104,3300106,3300701,100216],"voronoi":{"lat":34.983817,"lng":135.763899,"delta_lat":[0,-6448,738,11275,-5200],"delta_lng":[0,1472,25283,-5233,-21397]}},
    {"code":3300106,"id":"9181af","name":"鳥羽街道","name_kana":"とばかいどう","lat":34.973632,"lng":135.770004,"prefecture":26,"numbering":[{"index":"35"}],"lines":[33001],"attr":"cool","postal_code":"605-0982","address":"京都市東山区福稲下高松町４","next":[9961012,9961013,1161802,3300701,9961105,1161803,3300107],"voronoi":{"lat":34.97203,"lng":135.764936,"delta_lat":[0,3556,1783,738,-2431,-3236,-1851],"delta_lng":[0,-502,936,25283,1732,-70,-18106]}},
    {"code":3300107,"id":"83646c","name":"伏見稲荷","name_kana":"ふしみいなり","lat":34.968966,"lng":135.769279,"prefecture":26,"numbering":[{"index":"34"}],"lines":[33001],"attr":"cool","postal_code":"612-0012","address":"京都市伏見区深草一ノ坪町３３","next":[9961013,3300108,9961014,1161803,3300106],"voronoi":{"lat":34.966174,"lng":135.767383,"delta_lat":[0,-710,916,5651,-1441],"delta_lng":[0,-3833,-487,1874,9273]}},
    {"code":3300108,"id":"cc3a93","name":"龍谷大前深草","name_kana":"りゅうこくだいまえふかくさ","lat":34.964247,"lng":135.770154,"prefecture":26,"numbering":[{"index":"33"}],"lines":[33001],"attr":"cool","postal_code":"612-0015","address":"京都市伏見区深草ススハキ町３８","next":[3300107,1161803,3300109,9961014,1161804],"voronoi":{"lat":34.96059,"lng":135.785396,"delta_lat":[0,-105,4979,710,-4595],"delta_lng":[0,-21231,-616,3833,20864]}},
    {"code":3300109,"id":"e21bea","name":"藤森","name_kana":"ふじのもり","lat":34.956782,"lng":135.770191,"prefecture":26,"numbering":[{"index":"32"}],"lines":[33001],"attr":"heat","postal_code":"612-0027","address":"京都市伏見区深草極楽町７６４","next":[3300110,3102505,9961014,3102506,3300108,1161804],"voronoi":{"lat":34.960485,"lng":135.764166,"delta_lat":[0,-2207,-4664,-365,-1091,8432],"delta_lng":[0,-1020,-14,449,8787,13029]}},
    {"code":3300110,"id":"4456b9","name":"墨染","name_kana":"すみぞめ","lat":34.948206,"lng":135.769126,"prefecture":26,"numbering":[{"index":"31"}],"lines":[33001],"attr":"heat","postal_code":"612-0051","address":"京都市伏見区墨染町６９１","next":[1161804,3300109,3300111,3102506,3102507],"voronoi":{"lat":34.942888,"lng":135.768957,"delta_lat":[0,1088,9273,-1091,-10289],"delta_lng":[0,-2766,-2610,8787,113]}},
    {"code":3300111,"id":"2e4ce2","name":"丹波橋","name_kana":"たんばばし","lat":34.938879,"lng":135.765457,"prefecture":26,"numbering":[{"index":"30"}],"lines":[33001],"attr":"heat","postal_code":"612-0073","address":"京都市伏見区桃山筒井伊賀西町","next":[3300110,3102507,3102508,3300112,3102506],"voronoi":{"lat":34.942888,"lng":135.768957,"delta_lat":[0,-6794,-16,1455,6443],"delta_lng":[0,-4895,-1100,-8393,11622]}},
    {"code":3300112,"id":"e1ad86","name":"伏見桃山","name_kana":"ふしみももやま","lat":34.932599,"lng":135.764368,"prefecture":26,"numbering":[{"index":"29"}],"lines":[33001],"attr":"heat","postal_code":"612-8083","address":"京都市伏見区京町３-１７３","next":[3300202,3102506,3300111,3102508,3300113],"voronoi":{"lat":34.930428,"lng":135.766586,"delta_lat":[0,5650,1455,-488,-8792],"delta_lng":[0,-3624,-8393,-2271,12000]}},
    {"code":3300113,"id":"b49d84","name":"中書島","name_kana":"ちゅうしょじま","lat":34.926875,"lng":135.760174,"prefecture":26,"numbering":[{"index":"28"}],"lines":[33001,33002],"attr":"heat","postal_code":"612-8224","address":"京都市伏見区葭島矢倉町５９","next":[3400309,3300114,3102509,3300202,3102506,1160203,3300112],"voronoi":{"lat":34.921211,"lng":135.765318,"delta_lat":[0,-16159,26166,3915,3186,-1274,-8792],"delta_lng":[0,-20313,-14080,886,1768,18718,12000]}},
    {"code":3300114,"id":"e4790b","name":"淀","name_kana":"よど","lat":34.904416,"lng":135.718435,"prefecture":26,"numbering":[{"index":"27"}],"lines":[33001],"attr":"heat","postal_code":"613-0904","address":"京都市伏見区淀池上町１７４","next":[1160204,3300113,3102511,3400328,3102512,3102513,3300115,3102509,3300502,3400309],"voronoi":{"lat":34.905051,"lng":135.745005,"delta_lat":[0,-14014,-4780,-8682,-6942,7872,23109,6535,20909,2159],"delta_lng":[0,2873,-1753,-4455,-4858,-9863,-25400,1809,22712,4855]}},
    {"code":3300115,"id":"ad2464","name":"石清水八幡宮","name_kana":"いわしみずはちまんぐう","lat":34.88454,"lng":135.700352,"prefecture":26,"numbering":[{"index":"26"}],"lines":[33001],"attr":"heat","postal_code":"614-8001","address":"八幡市八幡科手１","next":[3300502,3300114,3300501,3400328],"voronoi":{"lat":34.90074,"lng":135.69947,"delta_lat":[0,-17921,-4313,23109],"delta_lng":[0,490,26990,-25400]}},
    {"code":3300116,"id":"9ee420","name":"橋本(京都)","name_kana":"はしもと","lat":34.882042,"lng":135.684251,"prefecture":26,"numbering":[{"index":"25"}],"lines":[33001],"attr":"heat","postal_code":"614-8341","address":"八幡市橋本中ノ町３７","next":[3400311,1160205,3400312,3300502,3300501,3300117],"voronoi":{"lat":34.872854,"lng":135.677897,"delta_lat":[0,10952,1707,3462,-6895,-15084],"delta_lng":[0,-2870,3401,12509,1120,-952]}},
    {"code":3300117,"id":"902002","name":"樟葉","name_kana":"くずは","lat":34.861977,"lng":135.675352,"prefecture":27,"numbering":[{"index":"24"}],"lines":[33001],"attr":"heat","postal_code":"573-1121","address":"枚方市楠葉花園町１４-１","next":[3400312,3300502,1161710,3400313,3300116,3300118],"voronoi":{"lat":34.85767,"lng":135.661666,"delta_lat":[0,11449,3735,-5858,-14472,-11107],"delta_lng":[0,8378,7853,13208,11299,-10607]}},
    {"code":3300118,"id":"62cc85","name":"牧野","name_kana":"まきの","lat":34.843868,"lng":135.665584,"prefecture":27,"numbering":[{"index":"23"}],"lines":[33001],"attr":"heat","postal_code":"573-1146","address":"枚方市牧野阪２-４-２","next":[3300302,1161711,3400314,3400313,3300119,1161710,3300117],"voronoi":{"lat":34.85767,"lng":135.661666,"delta_lat":[0,-2252,-6937,-23746,-1434,13133,4983],"delta_lng":[0,-16024,-989,30032,4841,10390,1881]}},
    {"code":3300119,"id":"a7e47f","name":"御殿山","name_kana":"ごてんやま","lat":34.829178,"lng":135.653969,"prefecture":27,"numbering":[{"index":"22"}],"lines":[33001],"attr":"heat","postal_code":"573-1182","address":"枚方市御殿山町２-２","next":[3400314,3300302,3300121,3300120,3300118],"voronoi":{"lat":34.821327,"lng":135.654792,"delta_lat":[0,7091,3062,17002,-23746],"delta_lng":[0,-17892,-3726,11478,30032]}},
    {"code":3300120,"id":"793419","name":"枚方市","name_kana":"ひらかたし","lat":34.816171,"lng":135.648814,"prefecture":27,"numbering":[{"index":"21"}],"lines":[33001,33003],"attr":"heat","postal_code":"573-0032","address":"枚方市岡東町１９-１４","next":[3300303,3300121,3300302,3300119],"voronoi":{"lat":34.828417,"lng":135.636901,"delta_lat":[0,-23715,1649,14975],"delta_lng":[0,11783,1277,4832]}},
    {"code":3300121,"id":"08abd6","name":"枚方公園","name_kana":"ひらかたこうえん","lat":34.811526,"lng":135.639465,"prefecture":27,"numbering":[{"index":"20"}],"lines":[33001],"attr":"heat","postal_code":"573-0058","address":"枚方市伊加賀東町３-８","next":[3400315,3300303,3400314,3300119,3300122,3300120],"voronoi":{"lat":34.796297,"lng":135.647097,"delta_lat":[0,22563,5655,6965,-3062,-23715],"delta_lng":[0,-33287,2865,16500,3726,11783]}},
    {"code":3300122,"id":"1b5825","name":"光善寺","name_kana":"こうぜんじ","lat":34.797745,"lng":135.630124,"prefecture":27,"numbering":[{"index":"19"}],"lines":[33001],"attr":"heat","postal_code":"573-0064","address":"枚方市北中振１-１７-１５","next":[3400316,3400315,3300304,3300123,9962610,3300121,3300303,3400317],"voronoi":{"lat":34.812733,"lng":135.607673,"delta_lat":[0,6127,-22563,-2284,-1760,-3029,4295,10240],"delta_lng":[0,6136,33287,767,211,-49533,-258,3531]}},
    {"code":3300123,"id":"2388b4","name":"香里園","name_kana":"こうりえん","lat":34.784613,"lng":135.630927,"prefecture":27,"numbering":[{"index":"18"}],"lines":[33001],"attr":"heat","postal_code":"572-0084","address":"寝屋川市香里南之町１９-１","next":[3300305,9962610,1161715,3300304,3300122,1161714,3300124],"voronoi":{"lat":34.787911,"lng":135.598353,"delta_lat":[0,1312,3029,-6126,-1709,-11849,-4905],"delta_lng":[0,188,49533,3167,429,-6290,-6391]}},
    {"code":3300124,"id":"6f023b","name":"寝屋川市","name_kana":"ねやがわし","lat":34.763893,"lng":135.620603,"prefecture":27,"numbering":[{"index":"17"}],"lines":[33001],"attr":"heat","postal_code":"572-0837","address":"寝屋川市早子町１６-１１","next":[9961901,9962612,1161715,9962610,1161716,3300125,3300123],"voronoi":{"lat":34.787911,"lng":135.598353,"delta_lat":[0,-5924,-11586,-3246,-18596,12053,7051],"delta_lng":[0,-3266,-334,1105,32444,8874,1813]}},
    {"code":3300125,"id":"046eca","name":"萱島","name_kana":"かやしま","lat":34.747453,"lng":135.61118,"prefecture":27,"numbering":[{"index":"16"}],"lines":[33001],"attr":"heat","postal_code":"572-0827","address":"寝屋川市萱島本町１９８-１","next":[1161719,9961901,3300126,1161716,3300124,1161717,1161718],"voronoi":{"lat":34.743343,"lng":135.628044,"delta_lat":[0,5216,18596,-872,-39378,250,961],"delta_lng":[0,259,-32444,-54,20774,996,1087]}},
    {"code":3300126,"id":"f24d69","name":"大和田(大阪)","name_kana":"おおわだ","lat":34.742962,"lng":135.602667,"prefecture":27,"numbering":[{"index":"15"}],"lines":[33001],"attr":"heat","postal_code":"571-0063","address":"門真市常称寺町２０１","next":[9961901,1161719,9962417,3300127,3300125],"voronoi":{"lat":34.724393,"lng":135.611678,"delta_lat":[0,4370,27388,10132,-39378],"delta_lng":[0,-11173,-7402,2702,20774]}},
    {"code":3300127,"id":"781278","name":"古川橋","name_kana":"ふるかわばし","lat":34.73994,"lng":135.591484,"prefecture":27,"numbering":[{"index":"14"}],"lines":[33001],"attr":"heat","postal_code":"571-0030","address":"門真市末広町４８２","next":[9962417,3300128,9961901,3300126],"voronoi":{"lat":34.756152,"lng":135.593103,"delta_lat":[0,-10155,-17688,455],"delta_lng":[0,-7312,3961,10753]}},
    {"code":3300128,"id":"a34b5a","name":"門真市","name_kana":"かどまし","lat":34.73809,"lng":135.583224,"prefecture":27,"numbering":[{"index":"13"}],"lines":[33001,99626],"attr":"heat","postal_code":"571-0048","address":"門真市新橋町３６-７","next":[3300129,9961901,3300127,9962416,9962417],"voronoi":{"lat":34.745997,"lng":135.58579,"delta_lat":[0,-2974,-18517,-4,3807],"delta_lng":[0,-6796,1974,35,8748]}},
    {"code":3300129,"id":"c05d25","name":"西三荘","name_kana":"にしさんそう","lat":34.737309,"lng":135.5759,"prefecture":27,"numbering":[{"index":"12"}],"lines":[33001],"attr":"heat","postal_code":"571-0057","address":"門真市元町２６-２２","next":[9961901,9962416,3300128,9961902,9965205,3300130],"voronoi":{"lat":34.739556,"lng":135.569981,"delta_lat":[0,5146,-1679,-18517,-1046,1859],"delta_lng":[0,283,8730,1974,-6401,-1926]}},
    {"code":3300130,"id":"a59a60","name":"守口市","name_kana":"もりぐちし","lat":34.735323,"lng":135.565273,"prefecture":27,"numbering":[{"index":"11"}],"lines":[33001],"attr":"eco","postal_code":"570-0038","address":"守口市河原町１-１","next":[9965205,3300129,3300131,9961902],"voronoi":{"lat":34.734729,"lng":135.560986,"delta_lat":[0,-7779,-1631,14237],"delta_lng":[0,6701,4955,-2660]}},
    {"code":3300131,"id":"f60a04","name":"土居","name_kana":"どい","lat":34.730577,"lng":135.559763,"prefecture":27,"numbering":[{"index":"10"}],"lines":[33001],"attr":"eco","postal_code":"570-0074","address":"守口市文園町４-５","next":[9961902,3300132,9965205,3300130,9961903],"voronoi":{"lat":34.734729,"lng":135.560986,"delta_lat":[0,-7779,-638,4070,5876],"delta_lng":[0,6701,-5645,-4793,971]}},
    {"code":3300132,"id":"ff2426","name":"滝井","name_kana":"たきい","lat":34.727868,"lng":135.557463,"prefecture":27,"numbering":[{"index":"09"}],"lines":[33001],"attr":"eco","postal_code":"570-0075","address":"守口市紅屋町８-８","next":[9965205,9961903,3300131,3300133],"voronoi":{"lat":34.726312,"lng":135.562041,"delta_lat":[0,4070,-2677,-3356],"delta_lng":[0,-4793,-3708,4809]}},
    {"code":3300133,"id":"136af6","name":"千林","name_kana":"せんばやし","lat":34.723966,"lng":135.554741,"prefecture":27,"numbering":[{"index":"08"}],"lines":[33001],"attr":"eco","postal_code":"535-0012","address":"大阪市旭区千林１-１１-１５","next":[3300134,3300132,9961904,9965206,9961903,9965205],"voronoi":{"lat":34.727704,"lng":135.55354,"delta_lat":[0,43,-5222,-2985,40,4768],"delta_lng":[0,-1714,147,4443,99,1834]}},
    {"code":3300134,"id":"ffe364","name":"森小路","name_kana":"もりしょうじ","lat":34.719419,"lng":135.551686,"prefecture":27,"numbering":[{"index":"07"}],"lines":[33001],"attr":"eco","postal_code":"535-0013","address":"大阪市旭区森小路１-４-１５","next":[9961904,9965206,3300133,9961905,3300135],"voronoi":{"lat":34.715454,"lng":135.55007,"delta_lat":[0,4206,2865,-2985,-5869],"delta_lng":[0,-3016,4919,4443,-3748]}},
    {"code":3300135,"id":"30b23d","name":"関目","name_kana":"せきめ","lat":34.71252,"lng":135.546953,"prefecture":27,"numbering":[{"index":"06"}],"lines":[33001],"attr":"eco","postal_code":"536-0008","address":"大阪市城東区関目５-１-６","next":[9962414,3300134,9965207,9965206,3300136,9962413,9961905],"voronoi":{"lat":34.714578,"lng":135.548041,"delta_lat":[0,-4400,-3570,200,1072,5792,1783],"delta_lng":[0,-3337,5256,3206,869,-1367,-2598]}},
    {"code":3300136,"id":"4a55f6","name":"野江","name_kana":"のえ","lat":34.707223,"lng":135.543356,"prefecture":27,"numbering":[{"index":"05"}],"lines":[33001],"attr":"eco","postal_code":"536-0007","address":"大阪市城東区成育３-１５-７","next":[9965207,1164113,9961906,3300135,9962413],"voronoi":{"lat":34.702226,"lng":135.543061,"delta_lat":[0,8998,404,-1451,-3570],"delta_lng":[0,-1276,134,2785,5256]}},
    {"code":1161724,"id":"d1f089","name":"京橋(大阪)","name_kana":"きょうばし","lat":34.696047,"lng":135.534253,"prefecture":27,"numbering":[{"index":"04"}],"lines":[11617,11623,11625,33001,99624],"attr":"cool","postal_code":"536-0015","address":"大阪市城東区新喜多一丁目2-31","next":[1162314,1162502,9961906,9962413,1164113,9961907,1161723,9962411],"voronoi":{"lat":34.692456,"lng":135.539028,"delta_lat":[0,6066,1228,2696,1342,-2155,-4690,-4656],"delta_lng":[0,1851,-394,-4117,-4458,-3324,949,3981]}},
    {"code":3300138,"id":"cf3a3e","name":"天満橋","name_kana":"てんまばし","lat":34.6902,"lng":135.516633,"prefecture":27,"numbering":[{"index":"03"}],"lines":[33001,33008,99619],"attr":"eco","postal_code":"540-0012","address":"大阪市中央区谷町１-２-５","next":[1162502,3300139,9962108,1162503,9961913],"voronoi":{"lat":34.685692,"lng":135.512065,"delta_lat":[0,1175,5574,3324,-9204],"delta_lng":[0,-1008,909,7503,4220]}},
    {"code":3300139,"id":"41d964","name":"北浜(大阪)","name_kana":"きたはま","lat":34.691799,"lng":135.50683,"prefecture":27,"numbering":[{"index":"02"}],"lines":[33001,99623],"attr":"cool","postal_code":"541-0041","address":"大阪市中央区北浜１-８-１６","next":[9961911,3300140,1162503,3300138,3300802,9962108],"voronoi":{"lat":34.686806,"lng":135.503564,"delta_lat":[0,4930,1556,-496,-354,-5574],"delta_lng":[0,625,6789,688,300,-909]}},
    {"code":3300140,"id":"20ea02","name":"淀屋橋","name_kana":"よどやばし","lat":34.692456,"lng":135.501648,"prefecture":27,"numbering":[{"index":"01"}],"lines":[33001,99618],"attr":"cool","postal_code":"541-0041","address":"大阪市中央区北浜三丁目6-14","open_date":"1933-05-20","next":[3300139,3300803,9962108,9961808,9962002,3300802],"voronoi":{"lat":34.695317,"lng":135.503919,"delta_lat":[0,-3307,-4730,-761,287,4930],"delta_lng":[0,-4923,990,3001,577,625]}}
  ],
  "north":35.00937,
  "south":34.69039,
  "east":135.77234,
  "west":135.50122,
  "polyline_list":[
    {
      "start":"中書島",
      "end":"三条",
      "lat":34.92675,
      "lng":135.75888,
      "delta_lat":[0,3,4,16,23,28,16,34,20,23,21,25,37,11,31,20,31,58,38,52,53,63,14,123,20,52,39,12,25,58,49,35,50,65,135,22,33,42,30,34,28,47,23,45,53,70,34,136,116,99,12,68,86,31,24,14,40,40,82,53,82,21,235,40,15,148,300,48,95,124,144,42,38,52,103,22,15,23,64,12,138,21,71,32,91,45,51,12,12,31,98,100,57,34,22,33,49,36,39,31,38,23,53,121,13,96,12,89,38,24,129,40,27,18,24,74,54,93,36,106,110,80,63,221,79,89,119,192,74,121,172,16,32,51,24,146,98,119,60,81,34],
      "delta_lng":[0,45,52,119,55,54,23,51,22,24,23,18,25,8,12,4,5,5,3,0,0,0,1,4,1,9,13,5,12,30,16,6,2,4,5,6,8,11,20,30,28,39,13,28,22,23,11,43,38,32,4,20,27,5,4,3,3,0,0,7,9,4,32,4,1,5,-6,-1,0,-1,-4,-4,-12,-22,-42,-6,0,0,1,0,7,1,4,8,22,13,12,3,3,1,-1,-4,-10,-12,-4,-5,7,11,21,21,18,6,-5,-29,-3,-22,-3,-24,-4,-2,-1,-4,-2,-3,-10,-32,-40,-82,-6,-10,-8,0,8,25,21,32,49,89,43,73,76,5,16,7,4,22,4,1,-1,1,0]
    },
    {
      "start":"京橋",
      "end":"中書島",
      "lat":34.69782,
      "lng":135.53412,
      "delta_lat":[0,15,6,26,16,23,15,23,13,24,70,114,72,98,3,51,62,18,25,4,43,24,10,18,11,8,3,3,50,9,10,21,8,104,6,24,8,121,9,17,8,50,6,19,10,67,25,3,22,4,21,21,79,7,9,9,9,5,38,13,16,6,7,29,2,5,62,5,6,38,8,6,32,78,7,19,5,8,63,32,55,9,111,6,45,44,52,9,12,8,8,30,57,27,24,18,2,124,12,11,113,92,2,44,97,9,20,27,9,11,8,15,10,38,3,35,81,170,3,156,18,70,78,40,34,11,29,14,8,3,11,13,10,3,0,0,-6,-11,0,0,-2,-2,-41,0,4,3,8,9,12,46,30,0,18,5,6,32,11,7,11,8,30,22,58,36,29,24,63,34,16,13,6,6,6,7,9,8,12,18,24,34,74,113,53,30,68,4,63,32,27,32,46,123,121,161,14,11,45,28,10,18,30,41,49,39,8,56,27,34,74,15,49,94,163,55,62,20,27,27,9,20,59,42,9,58,4,113,88,33,26,33,28,39,23,76,226,43,9,16,11,20,12,32,41,29,38,175,325,174,38,24,81,59,36,24,123,121,112,69,42,49,46,2,45,40,209,60,31,31,38,31,34,103,72,58,32,68,68,24,28,104,203,44,111,50,33,81,36,200,51,52,85,15,109,117,45,51,40,16,14,13,18,9,6,5,2,1,-1,2,6,6,14,22,24,21,21,5,126,170,83,38,34,41,41,41,22,8,77,36,20,7,17,5,20,41,39,50,36,22,61,151,140,58,19,151,50,40,45,33,24,59,81,176,34,20,19,100,33,51,84,26,54,24,25,38,41,51,45,26,38,34,68,15,109,118,76,77,30,37,46,27,24,35,65,30,11,14,48,37,42,30,14,34,45,43,42,37,79,37,77,195,94,96,34,25,108,4,24,59,11,60,41,11,36,37,38,38,36,10,101,74,20,36,42,52,60,80,85,31,193,71,8,31,74,82,85,16,32,63,36,13,51,7,58,25,51,53,51,26,23,22,18,28,26,22,18,22,18,22,21,26,58,27,14,7,0,2,0,-1,-4,-10,-10,-23,-18,-46,-23,-24,-2,-16,-11,-7,-2,0,4,4,1,6,7,18,22,2,21,3,24,28,75,177,18,51,31,30,44,18,7,13,60,46,45,33,9,188,38,9,14,24,20,29,9,34,16,38,24,26,25,25,23,24,22,170,16,13,66,72,4,17,25,16,121,18,18,95,63,77,47,31,36,40,25,14,24,16,13,17,12,15,18,12,7,15,4,7,9,32,22,60,34,27,38,24,36,31,57,6,41,150,190,61,24,13,11,14,21,19,16,18,20,33,50,33,7,12,145,73,139,26,103,26,29,23,10,9],
      "delta_lng":[0,49,23,108,45,54,28,34,16,23,53,79,49,65,4,35,41,10,18,3,30,16,7,13,6,6,2,1,36,6,7,14,5,71,5,16,5,83,6,12,4,35,4,13,7,46,17,2,15,3,15,13,56,5,7,5,7,3,26,7,12,5,4,19,3,2,44,4,3,26,6,5,21,52,6,12,4,5,44,24,38,6,74,4,33,27,38,6,8,6,5,20,39,19,17,12,0,85,8,8,78,62,3,30,63,4,14,20,8,9,6,14,9,34,4,34,92,197,5,179,22,83,96,59,60,21,67,32,26,8,33,59,83,69,42,94,105,88,2,11,9,19,192,94,45,28,47,38,57,211,189,10,141,26,51,224,55,28,39,23,69,49,109,90,83,72,203,113,62,71,53,122,53,39,39,30,44,45,43,64,119,180,90,54,162,5,141,53,29,32,39,107,98,127,15,11,37,18,8,9,10,8,3,-2,0,-4,-2,-3,0,4,14,35,61,22,25,11,16,23,7,18,60,50,11,68,4,120,90,28,19,19,12,13,4,7,6,1,1,0,1,2,0,4,10,12,19,104,191,101,19,13,33,22,9,6,21,23,18,10,1,-5,-9,0,-15,-16,-102,-26,-10,-9,-6,-1,-1,7,11,13,10,39,50,18,27,103,198,37,91,33,18,34,15,80,23,27,48,9,63,78,32,39,39,22,22,24,52,29,26,40,43,10,63,75,60,35,44,63,51,33,28,5,98,76,32,10,8,4,0,-6,-7,-1,-31,-13,-5,-1,-4,0,-1,2,7,18,20,18,52,145,134,43,8,56,19,24,32,31,28,85,122,271,54,23,15,76,24,26,34,8,16,8,10,15,16,27,24,15,27,26,54,13,86,95,71,71,28,34,41,18,13,12,16,4,1,3,8,5,6,4,4,10,17,17,21,21,45,18,33,87,44,46,18,13,61,2,13,32,5,31,21,5,13,8,3,2,0,0,-7,-1,3,3,8,12,22,33,47,16,113,36,3,15,25,13,13,5,16,41,24,15,52,9,74,26,47,46,42,18,16,19,15,31,32,31,35,63,59,136,82,88,163,72,58,34,2,47,45,38,34,39,30,51,34,71,44,48,4,46,54,51,23,17,60,22,18,14,22,40,46,4,35,6,30,26,68,160,15,41,16,10,11,3,0,0,-3,-7,-15,-11,-4,-71,-12,-3,-2,-6,0,3,2,6,4,11,10,16,18,22,22,27,28,278,28,25,124,150,8,36,46,30,221,34,35,114,72,93,57,37,48,52,38,27,49,37,34,49,46,66,114,94,60,119,30,33,35,105,60,145,74,60,65,38,47,33,55,6,29,89,109,35,15,7,10,17,32,35,34,46,62,106,172,96,16,22,240,132,243,47,181,47,61,52,67,102]
    },
    {
      "start":"淀屋橋",
      "end":"京橋",
      "lat":34.69251,
      "lng":135.50122,
      "delta_lat":[0,-36,-4,-4,0,-12,-8,-11,-52,-14,-6,-13,-12,-13,-11,-3,-6,-7,0,0,6,21,16,16,48,7,29,3,26,22,12,26,30,8,1,4,22,35,24,38,50,6,51,36,32,17,14,27,116],
      "delta_lng":[0,223,41,38,51,112,69,34,139,49,21,29,44,57,170,101,104,149,154,44,59,106,52,48,89,12,53,4,48,42,24,57,71,21,4,9,57,89,50,77,88,12,91,63,58,35,27,58,258]
    }
  ]
}