{
  "code":34004,
  "name":"阪急今津線",
  "color":"#0000FF",
  "symbol":"HK",
  "station_list":[
    {"code":3400401,"id":"5a137c","name":"今津(兵庫)","name_kana":"いまづ","lat":34.732015,"lng":135.351573,"prefecture":28,"numbering":[{"index":"21"}],"lines":[34004,35001],"attr":"heat","postal_code":"663-8245","address":"西宮市津門呉羽町１-３７"},
    {"code":3400402,"id":"55d63b","name":"阪神国道","name_kana":"はんしんこくどう","lat":34.73715,"lng":135.354702,"prefecture":28,"numbering":[{"index":"22"}],"lines":[34004],"attr":"heat","postal_code":"663-8241","address":"西宮市津門大塚町８-１８"},
    {"code":3400108,"id":"806b71","name":"西宮北口","name_kana":"にしのみやきたぐち","lat":34.745951,"lng":135.356702,"prefecture":28,"numbering":[{"index":"08"}],"lines":[34001,34004],"attr":"eco","postal_code":"663-8204","address":"西宮市高松町６-２０"},
    {"code":3400404,"id":"c98c3a","name":"門戸厄神","name_kana":"もんどやくじん","lat":34.757086,"lng":135.358221,"prefecture":28,"numbering":[{"index":"23"}],"lines":[34004],"attr":"heat","postal_code":"663-8004","address":"西宮市下大市東町１-２２"},
    {"code":3400405,"id":"7ec668","name":"甲東園","name_kana":"こうとうえん","lat":34.76676,"lng":135.359757,"prefecture":28,"numbering":[{"index":"24"}],"lines":[34004],"attr":"cool","postal_code":"662-0812","address":"西宮市甲東園１-２０４"},
    {"code":3400406,"id":"e574d4","name":"仁川","name_kana":"にがわ","lat":34.775117,"lng":135.356854,"prefecture":28,"numbering":[{"index":"25"}],"lines":[34004],"attr":"cool","postal_code":"662-0000","address":"西宮市仁川北３-３-５"},
    {"code":3400407,"id":"63b9cc","name":"小林(兵庫)","name_kana":"おばやし","lat":34.789396,"lng":135.352282,"prefecture":28,"numbering":[{"index":"26"}],"lines":[34004],"attr":"cool","postal_code":"665-0072","address":"宝塚市千種２-１-１"},
    {"code":3400408,"id":"d71be7","name":"逆瀬川","name_kana":"さかせがわ","lat":34.797181,"lng":135.350707,"prefecture":28,"numbering":[{"index":"27"}],"lines":[34004],"attr":"eco","postal_code":"665-0035","address":"宝塚市逆瀬川２-１-１７"},
    {"code":3400409,"id":"7bcf8f","name":"宝塚南口","name_kana":"たからづかみなみぐち","lat":34.804256,"lng":135.345918,"prefecture":28,"numbering":[{"index":"28"}],"lines":[34004],"attr":"eco","postal_code":"665-0004","address":"宝塚市梅野町１-４８"},
    {"code":1162910,"id":"644f00","name":"宝塚","name_kana":"たからづか","lat":34.811562,"lng":135.340399,"prefecture":28,"numbering":[{"index":"56"}],"lines":[11629,34002,34004],"attr":"eco","postal_code":"665-0845","address":"宝塚市栄町２丁目"}
  ],
  "north":34.81094,
  "south":34.73165,
  "east":135.35997,
  "west":135.33963,
  "polyline_list":[
    {
      "start":"今津",
      "end":"西宮北口",
      "lat":34.73165,
      "lng":135.35144,
      "delta_lat":[0,58,234,251,61,312,30,63,53,37,31,29,68,124,48,33],
      "delta_lng":[0,36,138,149,37,188,17,32,16,6,1,-2,-13,-21,-8,-36]
    },
    {
      "start":"西宮北口",
      "end":"宝塚",
      "lat":34.74597,
      "lng":135.35684,
      "delta_lat":[0,33,83,52,34,49,100,112,205,59,99,107,71,29,149,179,178,176,168,100,16,12,18,101,100,29,31,21,22,26,50,64,24,84,21,149,65,10,12,16,114,95,26,23,71,59,29,22,18,18,38,33,70,177,178,178,29,150,105,108,136,21,51,107,177,50,33,34,39,16,9,22,24,23,18,21,18,51,11,21,65,76,33,30,26,45,46,43,16,27,16,10,30,17,23,16,17,17,24,11,4,18,23,36,64,38,24,17,20,16,23,17,16,17,14,12,10,18,43,40,58,12,92],
      "delta_lng":[0,-6,-10,9,4,5,15,18,33,10,18,16,11,5,24,28,27,29,29,14,3,2,5,16,8,0,0,-3,-5,-8,-21,-31,-12,-45,-11,-87,-34,-5,-6,-9,-66,-53,-14,-13,-42,-34,-14,-10,-9,-8,-12,-5,-15,-37,-42,-39,-7,-29,-27,-21,-20,-3,-8,-12,-22,-8,-4,-9,-14,-6,-4,-11,-15,-16,-14,-19,-15,-47,-11,-21,-61,-68,-29,-26,-23,-38,-39,-30,-10,-17,-6,-5,-7,-4,-2,0,2,3,10,6,2,8,11,17,30,18,7,6,2,-2,-6,-7,-13,-13,-15,-19,-17,-37,-98,-94,-135,-29,-253]
    }
  ]
}