{
  "code":34003,
  "name":"阪急京都本線",
  "color":"#32CD32",
  "symbol":"HK",
  "station_list":[
    {"code":3400301,"id":"47df64","name":"京都河原町","name_kana":"きょうとかわらまち","lat":35.003765,"lng":135.769463,"prefecture":26,"numbering":[{"index":"86"}],"lines":[34003],"attr":"eco","postal_code":"600-8001","address":"京都市下京区四条通河原町西入ル真町５２"},
    {"code":3400302,"id":"20dcb6","name":"烏丸","name_kana":"からすま","lat":35.003665,"lng":135.759108,"prefecture":26,"numbering":[{"index":"85"}],"lines":[34003],"attr":"eco","postal_code":"600-8008","address":"京都市下京区四条通烏丸東入ル長刀鉾町１７"},
    {"code":3400303,"id":"affa95","name":"大宮(京都)","name_kana":"おおみや","lat":35.003587,"lng":135.748756,"prefecture":26,"numbering":[{"index":"84"}],"lines":[34003],"attr":"eco","postal_code":"604-8365","address":"京都市中京区四条通大宮西入ル錦大宮町１２７"},
    {"code":3400304,"id":"625797","name":"西院","name_kana":"さいいん(さい)","lat":35.003619,"lng":135.732447,"prefecture":26,"numbering":[{"index":"83"}],"lines":[34003,99612],"attr":"eco","postal_code":"604-8854","address":"京都市中京区壬生仙念町１６"},
    {"code":3400305,"id":"2a053a","name":"西京極","name_kana":"にしきょうごく","lat":34.992459,"lng":135.718462,"prefecture":26,"numbering":[{"index":"82"}],"lines":[34003],"attr":"cool","postal_code":"615-0851","address":"京都市右京区西京極西池田町２"},
    {"code":3400306,"id":"6adbf0","name":"桂","name_kana":"かつら","lat":34.979522,"lng":135.703302,"prefecture":26,"numbering":[{"index":"81"}],"lines":[34003,34009],"attr":"cool","postal_code":"615-8107","address":"京都市西京区川島北裏町９７-２"},
    {"code":3400307,"id":"3d18b6","name":"洛西口","name_kana":"らくさいぐち","lat":34.964081,"lng":135.703096,"prefecture":26,"numbering":[{"index":"80"}],"lines":[34003],"attr":"cool","postal_code":"615-8103","address":"京都市西京区川島六ノ坪町"},
    {"code":3400308,"id":"d74402","name":"東向日","name_kana":"ひがしむこう","lat":34.953885,"lng":135.704646,"prefecture":26,"numbering":[{"index":"79"}],"lines":[34003],"attr":"heat","postal_code":"617-0002","address":"向日市寺戸町小佃５-２"},
    {"code":3400309,"id":"bd692b","name":"西向日","name_kana":"にしむこう","lat":34.939892,"lng":135.702657,"prefecture":26,"numbering":[{"index":"78"}],"lines":[34003],"attr":"heat","postal_code":"617-0006","address":"向日市上植野町南開２３-１"},
    {"code":3400310,"id":"7f6003","name":"長岡天神","name_kana":"ながおかてんじん","lat":34.924791,"lng":135.69233,"prefecture":26,"numbering":[{"index":"77"}],"lines":[34003],"attr":"heat","postal_code":"617-0824","address":"長岡京市天神１-３０-１"},
    {"code":3400328,"id":"12055a","name":"西山天王山","name_kana":"にしやまてんのうざん","lat":34.9127,"lng":135.688508,"prefecture":26,"numbering":[{"index":"76"}],"lines":[34003],"attr":"cool","postal_code":"617-0843","address":"京都府長岡京市友岡四丁目22-1"},
    {"code":3400311,"id":"176429","name":"大山崎","name_kana":"おおやまざき","lat":34.891485,"lng":135.681637,"prefecture":26,"numbering":[{"index":"75"}],"lines":[34003],"attr":"cool","postal_code":"618-0071","address":"乙訓郡大山崎町字大山崎小字明島１３-２"},
    {"code":3400312,"id":"44929f","name":"水無瀬","name_kana":"みなせ","lat":34.877745,"lng":135.667853,"prefecture":27,"numbering":[{"index":"74"}],"lines":[34003],"attr":"heat","postal_code":"618-0014","address":"三島郡島本町水無瀬１-１７-１２"},
    {"code":3400313,"id":"3d7331","name":"上牧(大阪)","name_kana":"かんまき","lat":34.872018,"lng":135.661629,"prefecture":27,"numbering":[{"index":"73"}],"lines":[34003],"attr":"heat","postal_code":"569-0007","address":"高槻市神内２-１-５"},
    {"code":3400314,"id":"7a72f6","name":"高槻市","name_kana":"たかつきし","lat":34.849905,"lng":135.623265,"prefecture":27,"numbering":[{"index":"72"}],"lines":[34003],"attr":"heat","postal_code":"569-0071","address":"高槻市城北町２-１-１８"},
    {"code":3400315,"id":"005e2f","name":"富田(大阪)","name_kana":"とんだ","lat":34.835207,"lng":135.592721,"prefecture":27,"numbering":[{"index":"71"}],"lines":[34003],"attr":"heat","postal_code":"569-0814","address":"高槻市富田町３-４-１０"},
    {"code":3400316,"id":"ec713b","name":"総持寺","name_kana":"そうじじ","lat":34.827257,"lng":135.58492,"prefecture":27,"numbering":[{"index":"70"}],"lines":[34003],"attr":"heat","postal_code":"567-0802","address":"茨木市総持寺駅前町７-３"},
    {"code":3400317,"id":"7d86aa","name":"茨木市","name_kana":"いばらきし","lat":34.816472,"lng":135.575815,"prefecture":27,"numbering":[{"index":"69"}],"lines":[34003],"attr":"cool","postal_code":"567-0816","address":"茨木市永代町１-５"},
    {"code":3400318,"id":"d8f660","name":"南茨木","name_kana":"みなみいばらき","lat":34.802351,"lng":135.565152,"prefecture":27,"numbering":[{"index":"68"}],"lines":[34003,99626],"attr":"cool","postal_code":"567-0876","address":"茨木市天王２-１-１３"},
    {"code":3400327,"id":"169734","name":"摂津市","name_kana":"せっつし","lat":34.786409,"lng":135.553715,"prefecture":27,"numbering":[{"index":"67"}],"lines":[34003],"attr":"cool","postal_code":"566-0011","address":"大阪府摂津市千里丘東4丁目1-1"},
    {"code":3400319,"id":"081c43","name":"正雀","name_kana":"しょうじゃく","lat":34.775454,"lng":135.545657,"prefecture":27,"numbering":[{"index":"66"}],"lines":[34003],"attr":"eco","postal_code":"566-0013","address":"摂津市阪急正雀１-１"},
    {"code":3400320,"id":"23e8ad","name":"相川","name_kana":"あいかわ","lat":34.757942,"lng":135.533853,"prefecture":27,"numbering":[{"index":"65"}],"lines":[34003],"attr":"eco","postal_code":"533-0007","address":"大阪市東淀川区相川１-７-２４"},
    {"code":3400321,"id":"5acd30","name":"上新庄","name_kana":"かみしんじょう","lat":34.750873,"lng":135.533114,"prefecture":27,"numbering":[{"index":"64"}],"lines":[34003],"attr":"eco","postal_code":"533-0006","address":"大阪市東淀川区上新庄２-２４-５"},
    {"code":3400322,"id":"c7a239","name":"淡路","name_kana":"あわじ","lat":34.738827,"lng":135.516527,"prefecture":27,"numbering":[{"index":"63"}],"lines":[34003,34008],"attr":"eco","postal_code":"533-0023","address":"大阪市東淀川区東淡路４-１７-８"},
    {"code":3400323,"id":"f8e57f","name":"崇禅寺","name_kana":"そうぜんじ","lat":34.731048,"lng":135.510186,"prefecture":27,"numbering":[{"index":"62"}],"lines":[34003],"attr":"eco","postal_code":"533-0024","address":"大阪市東淀川区柴島１-７-２８"},
    {"code":3400324,"id":"876539","name":"南方(大阪)","name_kana":"みなみかた","lat":34.725656,"lng":135.499507,"prefecture":27,"numbering":[{"index":"61"}],"lines":[34003],"attr":"eco","postal_code":"532-0011","address":"大阪市淀川区西中島３-１７-３"},
    {"code":3400103,"id":"42dc6f","name":"十三","name_kana":"じゅうそう","lat":34.720226,"lng":135.48248,"prefecture":27,"numbering":[{"index":"03"}],"lines":[34001,34002,34003],"attr":"eco","postal_code":"532-0023","address":"大阪市淀川区十三東２-１２-１"},
    {"code":3400101,"id":"94d17b","name":"大阪梅田(阪急電鉄)","name_kana":"おおさかうめだ","lat":34.705515,"lng":135.498313,"prefecture":27,"numbering":[{"index":"01"}],"lines":[34001,34002,34003],"attr":"eco","postal_code":"530-0012","address":"大阪市北区芝田一丁目1-2"}
  ],
  "north":35.00378,
  "south":34.7044,
  "east":135.76905,
  "west":135.48231,
  "polyline_list":[
    {
      "start":"十三",
      "end":"梅田",
      "lat":34.71977,
      "lng":135.48263,
      "delta_lat":[0,-28,-19,-25,-34,-30,-29,-39,-48,-54,-59,-177,-125,-137,-45,-19,-10,-11,-13,-9,-10,-9,-9,-4,-6,-6,-6,-12,-20,-16,-15,-9,-7,-9,-6,-7,-9,-11,-8,-10,-11,-15,-14,-14,-11,-16,-16,-19,-17,-16,-19,-30,-26,-90,-74,-49],
      "delta_lng":[0,16,10,16,22,21,26,32,40,46,49,150,105,112,39,17,12,14,18,15,21,22,21,16,22,29,24,53,93,82,70,40,32,27,17,18,19,19,13,13,13,17,18,17,12,15,15,11,9,8,6,10,7,25,21,13]
    },
    {
      "start":"十三",
      "end":"河原町",
      "lat":34.71977,
      "lng":135.48263,
      "delta_lat":[0,36,58,43,25,17,18,69,40,25,25,96,99,20,15,7,1,-3,-1,-2,3,3,2,0,3,3,15,1,5,4,18,11,11,11,27,21,141,30,40,68,63,114,45,78,69,27,34,31,5,2,4,380,37,136,49,9,19,26,19,10,27,13,20,9,1,8,12,9,7,1,3,5,0,11,0,2,3,4,2,5,12,8,9,40,2,4,25,2,2,1,11,11,3,3,1,25,1,8,3,3,2,5,2,8,1,2,1,3,6,24,6,9,23,2,3,9,5,1,4,1,1,9,16,27,25,5,53,27,29,35,8,57,46,195,109,112,11,82,23,13,10,22,35,14,3,49,9,42,53,99,23,11,9,32,22,2,5,33,8,10,46,34,4,19,2,59,8,45,2,7,36,17,18,61,16,31,3,53,50,21,36,16,16,13,96,112,56,22,195,14,88,13,49,11,7,47,16,58,38,19,37,53,69,44,13,71,41,19,65,37,9,45,29,29,8,7,58,18,41,20,83,64,2,1,23,108,16,115,91,20,11,8,40,24,32,9,0,42,123,61,9,9,63,22,45,4,3,10,83,1,9,65,33,42,5,40,9,23,149,51,82,31,26,10,19,50,36,29,32,20,65,3,3,36,20,49,96,63,74,47,38,4,72,0,5,29,2,9,23,33,47,4,13,6,13,28,38,8,29,72,17,66,26,3,40,13,107,29,44,6,32,24,61,24,14,24,80,39,4,145,5,47,3,10,94,41,134,33,32,20,34,27,57,50,60,27,16,23,18,154,33,16,3,115,32,33,23,16,33,43,52,14,7,135,36,67,27,15,40,14,51,58,17,58,27,85,13,33,131,12,24,17,18,14,60,13,180,15,54,17,66,14,46,29,86,15,100,64,159,98,0,2,90,146,39,162,111,49,119,41,138,16,3,6,5,74,13,69,16,15,66,17,47,161,56,11,53,49,24,56,77,62,193,187,7,14,19,111,48,19,172,194,62,26,27,78,119,73,195,195,20,14,161,38,29,121,100,12,82,64,11,5,3,57,10,46,36,8,41,38,25,39,31,48,114,195,56,58,68,15,11,183,191,167,20,6,194,44,28,32,20,71,194,5,13,12,165,67,31,97,130,26,39,232,129,75,61,38,85,33,153,159,132,267,4,20,58,15,169,57,23,25,2,54,34,21,16,19,77,28,44,23,31,91,122,80,34,90,86,86,20,22,60,68,52,22,20,64,59,90,51,130,63,75,76,177,265,84,17,163,62,59,19,18,103,37,110,114,265,263,127,59,15,65,265,100,60,81,197,202,51,41,29,31,29,22,74,50,31,2,27,9,54,91,16,74,105,18,44,21,79,10,41,13,9,2,16,45,14,3,27,17,17,18,31,43,15,14,121,18,20,105,14,17,235,253,77,4,20,7,2,1,-1,1,0,0,0,0,0,0,-1,1,1,-1,1,1,0,-1,1,2,2,2,0,0,0,1,0,0,0,1,0,0,1,0,0,1,0,1,0,0,1,1,0,0,2,0,2,0,1,1,0,0],
      "delta_lng":[0,-14,-14,-4,0,5,4,40,31,24,39,184,199,52,54,44,43,215,213,303,37,133,157,216,18,15,66,3,14,13,42,27,19,16,48,42,235,42,40,59,46,95,35,63,57,20,30,24,5,0,4,309,29,115,45,9,21,31,23,10,40,23,44,21,6,21,44,39,32,3,17,23,5,47,1,12,9,15,12,12,42,27,31,145,3,18,86,9,1,8,39,41,6,10,9,82,1,32,10,3,10,17,5,25,9,2,7,6,23,53,13,16,38,0,7,11,4,4,3,0,3,11,15,22,15,2,23,8,5,4,1,5,3,16,9,8,1,8,0,2,1,2,4,2,0,3,1,3,2,14,2,3,1,8,6,2,1,12,3,5,24,19,2,11,2,40,4,34,0,7,27,12,14,46,12,23,2,40,36,15,27,9,15,9,70,82,40,17,143,10,66,9,38,7,4,35,11,43,28,14,28,37,47,32,9,53,30,15,48,27,9,32,22,22,5,7,44,12,31,14,62,47,2,0,17,78,13,84,66,15,8,5,31,17,25,5,2,28,89,44,7,8,45,18,32,2,2,9,60,2,6,46,24,30,4,29,5,16,107,37,59,21,17,7,13,36,26,21,22,14,46,1,3,26,12,34,66,42,52,34,27,1,51,2,2,19,5,4,17,23,32,3,9,6,9,21,27,4,23,50,13,46,19,2,28,9,75,22,34,5,25,21,50,21,13,21,70,35,2,119,3,41,1,9,80,37,115,29,28,16,29,23,49,45,50,23,13,20,15,133,30,13,3,94,27,27,20,14,28,37,43,12,7,116,32,63,29,13,45,16,64,81,25,91,49,165,26,65,289,24,53,36,40,28,129,26,381,31,118,31,143,26,95,61,175,32,206,134,332,206,1,4,184,304,84,334,234,101,249,87,284,35,5,11,13,155,29,143,36,29,140,36,99,339,105,20,81,68,29,57,83,66,207,199,8,15,21,116,50,20,182,204,64,28,29,82,126,76,202,204,22,14,169,38,29,123,92,11,76,57,9,5,2,41,6,28,20,4,17,15,7,11,6,19,44,77,19,19,19,5,3,54,55,48,5,3,55,12,8,9,4,20,51,3,3,3,44,18,8,26,35,7,10,62,31,21,20,18,44,19,96,94,79,156,4,13,34,8,100,37,17,19,3,41,28,18,14,15,66,24,37,20,27,74,99,56,22,45,38,33,5,5,15,13,6,3,1,3,-3,-5,-6,-21,-13,-18,-15,-39,-55,-16,-3,-33,-7,-7,-1,-1,-6,-1,-4,-4,-6,-4,-1,2,0,3,5,1,1,3,36,27,4,5,9,13,13,17,59,49,36,1,38,12,84,170,33,149,212,39,86,43,155,23,81,25,19,4,31,85,30,5,48,24,25,25,39,46,16,14,129,20,20,111,15,18,251,269,82,7,35,19,24,17,73,53,11,194,117,4,160,131,137,83,68,40,116,91,83,80,66,50,78,103,16,5,57,25,45,62,14,80,79,15,73,143,84,74,145,154,28,82,35,147,67,73,93,72,76,51,27,112,50,24]
    }
  ]
}