{
  "code":34009,
  "name":"阪急嵐山線",
  "color":"#32CD32",
  "symbol":"HK",
  "station_list":[
    {"code":3400306,"id":"6adbf0","name":"桂","name_kana":"かつら","lat":34.979522,"lng":135.703302,"prefecture":26,"numbering":[{"index":"81"}],"lines":[34003,34009],"attr":"cool","postal_code":"615-8107","address":"京都市西京区川島北裏町９７-２"},
    {"code":3400902,"id":"228abd","name":"上桂","name_kana":"かみかつら","lat":34.990201,"lng":135.696069,"prefecture":26,"numbering":[{"index":"96"}],"lines":[34009],"attr":"cool","postal_code":"615-8227","address":"京都市西京区上桂宮ノ後町３３-２"},
    {"code":3400903,"id":"fc0936","name":"松尾大社","name_kana":"まつおたいしゃ","lat":35.000331,"lng":135.688214,"prefecture":26,"numbering":[{"index":"97"}],"lines":[34009],"attr":"cool","postal_code":"616-0023","address":"京都市西京区嵐山宮ノ前町４９"},
    {"code":3400904,"id":"942c6f","name":"嵐山(阪急電鉄)","name_kana":"あらしやま","lat":35.010315,"lng":135.681603,"prefecture":26,"numbering":[{"index":"98"}],"lines":[34009],"attr":"eco","postal_code":"616-8384","address":"京都市右京区嵯峨天龍寺造路町"}
  ],
  "north":35.01026,
  "south":34.9775,
  "east":135.70356,
  "west":135.68174,
  "polyline_list":[
    {
      "start":"桂",
      "end":"嵐山",
      "lat":34.9775,
      "lng":135.70309,
      "delta_lat":[0,97,181,159,2,43,45,9,4,24,11,34,34,34,11,14,11,6,53,174,15,18,49,23,100,15,33,20,67,85,7,8,67,77,11,123,51,58,3,19,23,18,34,28,14,3,40,40,62,12,14,136,97,257,36,49,101,109,45,58,27,27,29,35,26,24,59,78],
      "delta_lng":[0,-3,19,25,1,4,1,0,0,-4,-4,-13,-24,-26,-10,-14,-12,-6,-63,-199,-18,-22,-55,-28,-119,-15,-39,-24,-80,-102,-10,-8,-82,-83,-13,-135,-42,-45,-3,-11,-15,-11,-22,-16,-8,-2,-22,-18,-27,-4,-5,-51,-35,-95,-13,-18,-35,-41,-18,-36,-17,-23,-30,-44,-29,-36,-84,-118]
    }
  ]
}