{
  "code":34002,
  "name":"阪急宝塚本線",
  "color":"#FFA500",
  "symbol":"HK",
  "station_list":[
    {"code":3400101,"id":"94d17b","name":"大阪梅田(阪急電鉄)","name_kana":"おおさかうめだ","lat":34.705515,"lng":135.498313,"prefecture":27,"numbering":[{"index":"01"}],"lines":[34001,34002,34003],"attr":"eco","postal_code":"530-0012","address":"大阪市北区芝田一丁目1-2"},
    {"code":3400102,"id":"9bb920","name":"中津(阪急電鉄)","name_kana":"なかつ","lat":34.709745,"lng":135.493011,"prefecture":27,"numbering":[{"index":"02"}],"lines":[34001,34002],"attr":"heat","postal_code":"531-0071","address":"大阪市北区中津三丁目"},
    {"code":3400103,"id":"42dc6f","name":"十三","name_kana":"じゅうそう","lat":34.720226,"lng":135.48248,"prefecture":27,"numbering":[{"index":"03"}],"lines":[34001,34002,34003],"attr":"eco","postal_code":"532-0023","address":"大阪市淀川区十三東２-１２-１"},
    {"code":3400204,"id":"345072","name":"三国(大阪)","name_kana":"みくに","lat":34.737254,"lng":135.483128,"prefecture":27,"numbering":[{"index":"41"}],"lines":[34002],"attr":"eco","postal_code":"532-0033","address":"大阪市淀川区新高３-６-３３"},
    {"code":3400205,"id":"7d7d6f","name":"庄内(大阪)","name_kana":"しょうない","lat":34.750333,"lng":135.475095,"prefecture":27,"numbering":[{"index":"42"}],"lines":[34002],"attr":"eco","postal_code":"561-0831","address":"豊中市庄内東町１-１０-１"},
    {"code":3400206,"id":"2488b0","name":"服部天神","name_kana":"はっとりてんじん","lat":34.763024,"lng":135.475111,"prefecture":27,"numbering":[{"index":"43"}],"lines":[34002],"attr":"eco","postal_code":"561-0851","address":"豊中市服部元町１-１-１"},
    {"code":3400207,"id":"5a28df","name":"曽根(大阪)","name_kana":"そね","lat":34.771078,"lng":135.46777,"prefecture":27,"numbering":[{"index":"44"}],"lines":[34002],"attr":"cool","postal_code":"561-0802","address":"豊中市曽根東町３-１-１"},
    {"code":3400208,"id":"95381e","name":"岡町","name_kana":"おかまち","lat":34.778949,"lng":135.465103,"prefecture":27,"numbering":[{"index":"45"}],"lines":[34002],"attr":"cool","postal_code":"561-0881","address":"豊中市中桜塚１-１-１"},
    {"code":3400209,"id":"0c3a81","name":"豊中","name_kana":"とよなか","lat":34.787248,"lng":135.462073,"prefecture":27,"numbering":[{"index":"46"}],"lines":[34002],"attr":"heat","postal_code":"560-0021","address":"豊中市本町１-１-１"},
    {"code":3400210,"id":"4054bf","name":"蛍池","name_kana":"ほたるがいけ","lat":34.794365,"lng":135.449238,"prefecture":27,"numbering":[{"index":"47"}],"lines":[34002,99626],"attr":"heat","postal_code":"560-0033","address":"豊中市蛍池中町３-１"},
    {"code":3400211,"id":"08cf33","name":"石橋阪大前","name_kana":"いしばしはんだいまえ","lat":34.808254,"lng":135.445487,"prefecture":27,"numbering":[{"index":"48"}],"lines":[34002,34007],"attr":"heat","postal_code":"563-0032","address":"池田市石橋２-１８-１"},
    {"code":3400212,"id":"830096","name":"池田(大阪)","name_kana":"いけだ","lat":34.821544,"lng":135.425797,"prefecture":27,"numbering":[{"index":"49"}],"lines":[34002],"attr":"heat","postal_code":"563-0056","address":"池田市栄町１-１"},
    {"code":3400213,"id":"20a762","name":"川西能勢口","name_kana":"かわにしのせぐち","lat":34.827654,"lng":135.413393,"prefecture":28,"numbering":[{"index":"50"}],"lines":[34002,99615],"attr":"heat","postal_code":"666-0015","address":"川西市小花１-１-１０"},
    {"code":3400214,"id":"41dcfe","name":"雲雀丘花屋敷","name_kana":"ひばりがおかはなやしき","lat":34.827357,"lng":135.402946,"prefecture":28,"numbering":[{"index":"51"}],"lines":[34002],"attr":"heat","postal_code":"665-0805","address":"宝塚市雲雀丘１-１-１０"},
    {"code":3400215,"id":"b721f7","name":"山本(兵庫)","name_kana":"やまもと","lat":34.821918,"lng":135.388503,"prefecture":28,"numbering":[{"index":"52"}],"lines":[34002],"attr":"cool","postal_code":"665-0816","address":"宝塚市平井１-１-１"},
    {"code":3400216,"id":"017c82","name":"中山観音","name_kana":"なかやまかんのん","lat":34.819518,"lng":135.369235,"prefecture":28,"numbering":[{"index":"53"}],"lines":[34002],"attr":"cool","postal_code":"665-0861","address":"宝塚市中山寺２-７-１"},
    {"code":3400217,"id":"fb2952","name":"売布神社","name_kana":"めふじんじゃ","lat":34.815863,"lng":135.361339,"prefecture":28,"numbering":[{"index":"54"}],"lines":[34002],"attr":"eco","postal_code":"665-0852","address":"宝塚市売布２-１４-３０"},
    {"code":3400218,"id":"d991e4","name":"清荒神","name_kana":"きよしこうじん","lat":34.811271,"lng":135.35352,"prefecture":28,"numbering":[{"index":"55"}],"lines":[34002],"attr":"eco","postal_code":"665-0836","address":"宝塚市清荒神１-９-３"},
    {"code":1162910,"id":"644f00","name":"宝塚","name_kana":"たからづか","lat":34.811562,"lng":135.340399,"prefecture":28,"numbering":[{"index":"56"}],"lines":[11629,34002,34004],"attr":"eco","postal_code":"665-0845","address":"宝塚市栄町２丁目"}
  ],
  "north":34.82812,
  "south":34.70476,
  "east":135.49881,
  "west":135.33963,
  "polyline_list":[
    {
      "start":"梅田",
      "end":"石橋",
      "lat":34.70476,
      "lng":135.49881,
      "delta_lat":[0,171,41,64,33,35,19,9,35,22,21,18,18,20,36,27,20,27,28,30,291,34,216,37,107,53,28,60,36,58,43,25,17,18,291,244,102,30,110,55,39,47,24,347,36,72,27,122,48,27,87,27,14,55,42,10,37,27,38,20,15,27,61,24,48,20,265,44,34,32,31,29,29,29,132,127,227,44,11,218,56,51,98,19,79,42,4,39,21,81,98,30,152,6,14,49,16,22,14,29,27,4,3,13,15,19,7,9,21,10,2,2,33,102,41,14,21,19,32,36,20,65,122,680,114,294,80,6,214,54,26,30,21,25,24,22,18,10,4,121,18,0,167,1,1,12,22,1,1,31,2,0,10,2,3,22,13,3,7,0,2,7,1,32,130,16,125,19,61,80,37,24,47,25,69,88,13,61,88,23,18,72,18,28,24,20,39,2,17,51,73,145,59],
      "delta_lng":[0,-45,-16,-28,-21,-23,-17,-13,-54,-39,-50,-55,-80,-99,-167,-96,-50,-42,-33,-32,-243,-29,-185,-31,-83,-35,-18,-34,-14,-14,-4,0,5,4,71,58,23,8,28,10,3,-3,-1,-72,-5,-12,-1,3,2,-2,-11,-15,-10,-79,-61,-15,-49,-32,-35,-19,-12,-23,-48,-20,-41,-16,-220,-40,-29,-22,-17,-12,-9,-1,0,0,-6,-2,3,0,0,1,1,0,0,2,1,-1,1,1,2,0,2,1,-1,-5,-4,-4,-6,-13,-17,-3,-1,-11,-21,-39,-11,-19,-41,-20,-6,-1,-66,-201,-79,-24,-30,-22,-27,-23,-9,-24,-38,-229,-36,-96,-26,-1,-70,-21,-14,-14,-13,-15,-21,-23,-26,-18,-6,-321,-42,-4,-433,-1,-3,-29,-57,0,-6,-79,-2,-3,-20,-3,-4,-29,-13,-2,-5,-2,0,-5,-1,-19,-74,-9,-72,-11,-34,-49,-18,-10,-17,-6,-12,-14,-1,-9,-12,-4,-2,-12,-1,-7,-5,-5,-9,0,-3,-12,-16,-33,-13]
    },
    {
      "start":"宝塚",
      "end":"石橋",
      "lat":34.81094,
      "lng":135.33963,
      "delta_lat":[0,-92,-12,-2,-2,3,0,6,13,5,8,7,19,16,15,13,15,8,7,4,2,3,1,-1,0,-3,-2,-5,-1,0,0,0,2,4,9,17,28,71,33,25,16,33,30,29,33,40,44,24,51,16,14,15,14,4,7,9,7,18,44,76,36,12,8,31,70,23,12,8,7,5,8,2,0,0,-1,0,-1,-1,1,1,0,0,0,5,1,1,10,6,1,2,2,0,0,-4,-7,-2,-1,0,-6,-1,-1,-1,0,-2,-2,0,-2,-2,0,-1,1,3,3,4,5,3,6,24,8,2,25,26,7,56,0,9,10,3,25,5,13,2,7,4,2,1,8,7,3,1,20,1,6,2,10,4,3,0,3,6,10,8,21,23,16,2,0,33,31,106,26,21,14,32,56,9,6,13,2,2,1,0,1,0,1,1,0,-3,-6,-6,-16,-22,-3,-8,-12,-6,-6,0,1,10,2,1,0,1,2,0,3,4,2,0,-5,-7,-14,-7,-49,-9,-1,-8,-7,-3,-6,-10,-24,-16,-47,-42,-32,-42,-18,-24,-72,-21,-59,-135,-99,-85,-28,-41,-4,-10,-2,-66,-23,-11,-94,-9,-36,-18,-27,-3,-26,0,-62,-23,-12,-44,-29,-3,-4,-33,-30,-57,-41,-5,-29,-33,-22,-3,-20,-3,-66,-10,-13,-26,-18,-6,-15,-13,-14,-8,-5,-87,-34,-14],
      "delta_lng":[0,253,29,56,19,29,3,26,32,11,17,12,31,27,29,28,29,22,18,14,18,26,43,68,33,143,96,222,94,70,26,17,27,30,29,40,56,126,58,40,26,36,28,24,23,25,27,20,39,12,15,18,23,6,13,18,21,52,137,215,100,26,18,45,104,33,28,19,31,53,75,57,54,60,86,50,81,20,19,112,16,24,14,55,3,12,60,31,7,24,41,10,7,56,86,32,2,13,30,1,17,4,5,1,18,4,23,9,9,17,27,22,22,19,18,8,22,59,24,3,64,70,19,163,4,29,39,10,104,17,59,10,28,16,4,9,31,32,11,9,79,7,28,6,41,25,3,2,11,24,25,21,46,47,34,1,5,66,64,212,47,43,28,61,107,21,18,45,9,9,2,4,2,4,3,21,47,34,24,20,43,55,6,21,41,27,40,40,14,113,19,19,5,14,15,6,36,35,59,52,56,46,91,34,209,39,6,26,23,6,15,22,44,22,69,60,49,63,25,37,105,31,89,195,142,122,41,60,7,13,5,95,36,15,137,13,50,29,37,6,36,2,92,37,20,72,52,4,7,56,51,101,68,10,50,60,38,3,35,9,113,17,24,42,27,6,18,9,6,3,1,23,9,3]
    }
  ]
}