{
  "code":34001,
  "name":"阪急神戸本線",
  "color":"#0000FF",
  "symbol":"HK",
  "station_list":[
    {"code":3400101,"id":"94d17b","name":"大阪梅田(阪急電鉄)","name_kana":"おおさかうめだ","lat":34.705515,"lng":135.498313,"prefecture":27,"numbering":[{"index":"01"}],"lines":[34001,34002,34003],"attr":"eco","postal_code":"530-0012","address":"大阪市北区芝田一丁目1-2"},
    {"code":3400102,"id":"9bb920","name":"中津(阪急電鉄)","name_kana":"なかつ","lat":34.709745,"lng":135.493011,"prefecture":27,"numbering":[{"index":"02"}],"lines":[34001,34002],"attr":"heat","postal_code":"531-0071","address":"大阪市北区中津三丁目"},
    {"code":3400103,"id":"42dc6f","name":"十三","name_kana":"じゅうそう","lat":34.720226,"lng":135.48248,"prefecture":27,"numbering":[{"index":"03"}],"lines":[34001,34002,34003],"attr":"eco","postal_code":"532-0023","address":"大阪市淀川区十三東２-１２-１"},
    {"code":3400104,"id":"752826","name":"神崎川","name_kana":"かんざきがわ","lat":34.732249,"lng":135.472967,"prefecture":27,"numbering":[{"index":"04"}],"lines":[34001],"attr":"eco","postal_code":"532-0033","address":"大阪市淀川区新高６-１４-１６"},
    {"code":3400105,"id":"6fd522","name":"園田","name_kana":"そのだ","lat":34.751905,"lng":135.448186,"prefecture":28,"numbering":[{"index":"05"}],"lines":[34001],"attr":"eco","postal_code":"661-0953","address":"尼崎市東園田町９-４８-１"},
    {"code":3400106,"id":"b09c72","name":"塚口(阪急電鉄)","name_kana":"つかぐち","lat":34.752826,"lng":135.41585,"prefecture":28,"numbering":[{"index":"06"}],"lines":[34001,34006],"attr":"eco","postal_code":"661-0001","address":"兵庫県尼崎市塚口本町一丁目"},
    {"code":3400107,"id":"338ed5","name":"武庫之荘","name_kana":"むこのそう","lat":34.751587,"lng":135.393821,"prefecture":28,"numbering":[{"index":"07"}],"lines":[34001],"attr":"eco","postal_code":"661-0035","address":"尼崎市武庫之荘１-１-１"},
    {"code":3400108,"id":"806b71","name":"西宮北口","name_kana":"にしのみやきたぐち","lat":34.745951,"lng":135.356702,"prefecture":28,"numbering":[{"index":"08"}],"lines":[34001,34004],"attr":"eco","postal_code":"663-8204","address":"西宮市高松町６-２０"},
    {"code":3400109,"id":"85f99d","name":"夙川","name_kana":"しゅくがわ","lat":34.742246,"lng":135.328207,"prefecture":28,"numbering":[{"index":"09"}],"lines":[34001,34005],"attr":"eco","postal_code":"662-0063","address":"西宮市相生町２-１"},
    {"code":3400110,"id":"06de01","name":"芦屋川","name_kana":"あしやがわ","lat":34.736338,"lng":135.300651,"prefecture":28,"numbering":[{"index":"10"}],"lines":[34001],"attr":"eco","postal_code":"659-0083","address":"芦屋市西山町１-１０"},
    {"code":3400111,"id":"7c221d","name":"岡本(兵庫)","name_kana":"おかもと","lat":34.729171,"lng":135.275937,"prefecture":28,"numbering":[{"index":"11"}],"lines":[34001],"attr":"heat","postal_code":"658-0072","address":"神戸市東灘区岡本５-１-１"},
    {"code":3400112,"id":"39d77b","name":"御影(阪急電鉄)","name_kana":"みかげ","lat":34.724508,"lng":135.251803,"prefecture":28,"numbering":[{"index":"12"}],"lines":[34001],"attr":"heat","postal_code":"658-0065","address":"神戸市東灘区御影山手一丁目"},
    {"code":3400113,"id":"e490aa","name":"六甲","name_kana":"ろっこう","lat":34.719891,"lng":135.234371,"prefecture":28,"numbering":[{"index":"13"}],"lines":[34001],"attr":"heat","postal_code":"657-0065","address":"神戸市灘区宮山町３-１"},
    {"code":3400114,"id":"4ea1c9","name":"王子公園","name_kana":"おうじこうえん","lat":34.710354,"lng":135.218553,"prefecture":28,"numbering":[{"index":"14"}],"lines":[34001],"attr":"heat","postal_code":"657-0838","address":"神戸市灘区王子町１-４-２０"},
    {"code":3400115,"id":"b99bc9","name":"春日野道(阪急電鉄)","name_kana":"かすがのみち","lat":34.70299,"lng":135.205396,"prefecture":28,"numbering":[{"index":"15"}],"lines":[34001],"attr":"cool","postal_code":"651-0076","address":"神戸市中央区吾妻通一丁目"},
    {"code":9963001,"id":"3b382f","name":"三宮(神戸三宮)","name_kana":"さんのみや(こうべさんのみや)","lat":34.693507,"lng":135.195106,"prefecture":28,"numbering":[{"index":"16"}],"lines":[99630,99646,99648,34001,35001],"attr":"heat","postal_code":"650-0001","address":"神戸市中央区加納町４-２-１"}
  ],
  "north":34.75378,
  "south":34.6927,
  "east":135.49855,
  "west":135.19229,
  "polyline_list":[
    {
      "start":"神戸三宮",
      "end":"梅田",
      "lat":34.6927,
      "lng":135.19229,
      "delta_lat":[0,89,36,168,87,59,57,72,72,94,65,172,3,55,36,14,11,24,11,25,81,24,12,11,27,31,2,34,45,51,156,88,103,27,212,61,49,45,40,27,33,74,2,19,138,68,15,14,76,25,76,28,30,20,8,13,17,6,7,5,15,11,30,15,2,12,47,24,63,36,13,3,2,9,6,1,2,0,-3,-2,-10,-3,-3,-4,-1,3,3,4,5,6,17,6,3,15,2,14,3,19,42,3,6,4,32,2,10,1,10,2,9,0,22,3,9,1,20,1,11,0,22,4,9,3,20,4,7,5,18,2,8,14,3,4,5,7,5,1,7,27,12,8,26,32,29,3,4,13,6,20,21,27,29,106,6,114,97,12,68,11,11,41,26,5,9,4,25,6,7,5,9,4,8,6,20,7,9,34,6,47,20,22,25,9,54,11,54,14,12,10,6,4,17,12,29,9,1,6,14,12,4,2,7,9,4,9,13,31,32,29,3,31,33,23,9,10,4,31,59,1,2,7,11,11,4,1,5,11,8,11,8,15,36,36,33,33,16,23,5,4,22,16,0,20,70,6,52,11,51,54,35,12,6,3,9,9,9,20,15,1,15,7,0,16,15,4,1,0,5,6,3,1,5,3,3,0,3,4,7,0,-2,4,2,3,0,2,4,-2,0,-2,-3,-6,-9,-17,-14,-9,-16,-25,-42,-4,-90,-5,-45,-196,-3,-44,-87,-119,-92,-35,-30,-16,-15,-12,-20,-6,-57,-39,-209,-60,-77,-327,-51,-4,-58,-54,-3,-64,-4,-67,-83,-6,-43,-23,-39,-9,-17,-145,-23,-69,-21,-78,-22,-84,-37,-18,-52,-15,-34,-15,-9,-30,-33,-45,-82,-229,-109,-61,-28,-5,-52,-47,-42,-15,-191,-99,-245,-50,-43,-25,-20,-13,-28,-37,-30,-16,-17,-34,-47,-13,-18,-27,-5,-24,-92,-176],
      "delta_lng":[0,113,37,181,94,66,70,91,102,131,91,244,5,81,60,26,22,52,36,107,360,81,33,30,62,54,1,48,50,52,131,76,96,25,211,65,56,62,61,51,66,173,3,48,319,160,37,34,174,58,182,71,87,66,30,53,67,22,27,21,66,47,131,68,5,57,206,125,269,145,64,20,6,42,41,17,38,53,57,26,90,23,42,65,43,39,25,19,28,27,70,28,8,60,7,53,7,71,142,10,19,14,106,7,31,6,32,6,29,6,69,11,28,4,63,5,33,5,69,13,26,12,68,8,26,15,60,14,21,55,15,29,22,49,50,26,121,345,124,60,155,214,176,22,19,79,29,87,69,75,60,206,13,219,191,24,133,22,21,93,59,12,21,11,66,13,17,14,23,11,21,14,55,13,24,91,15,122,57,66,84,31,196,37,194,52,54,48,48,29,128,89,217,79,33,87,283,210,96,87,123,237,56,72,90,221,221,199,21,222,220,155,56,60,28,207,382,4,22,42,77,72,29,7,35,55,55,67,50,99,221,221,220,222,106,149,39,38,153,125,7,149,460,47,334,55,313,337,217,93,58,52,121,234,232,467,407,60,313,158,6,414,252,91,11,22,181,168,76,35,146,104,60,18,113,122,187,4,1,59,57,142,29,63,125,134,14,26,37,33,38,54,31,24,38,51,80,7,138,8,73,322,6,73,147,189,155,58,46,23,21,16,24,9,62,44,229,70,83,355,56,2,60,51,4,58,2,62,76,5,35,20,34,10,15,125,19,59,18,68,19,75,38,16,47,14,30,13,9,26,22,26,46,125,62,39,18,4,36,34,34,13,161,82,206,45,44,37,38,36,102,167,148,57,43,65,69,17,13,20,2,10,33,42]
    }
  ]
}