{
  "code":34003,
  "id":"c50e84",
  "name":"阪急京都本線",
  "name_kana":"はんきゅうきょうとほんせん",
  "station_size":28,
  "company_code":24,
  "color":"#32CD32",
  "symbol":"HK",
  "station_list":[
    {"code":3400301,"id":"47df64","name":"京都河原町","name_kana":"きょうとかわらまち","lat":35.003765,"lng":135.769463,"prefecture":26,"numbering":[{"index":"86"}],"lines":[34003],"attr":"eco","postal_code":"600-8001","address":"京都市下京区四条通河原町西入ル真町５２","next":[3300101,3300103,3300102,9961112,9961008,9961009,3400302],"voronoi":{"lat":35.006713,"lng":135.764257,"delta_lat":[0,258,407,-901,-6973,758,4673],"delta_lng":[0,177,4648,1714,-212,-5639,-671]}},
    {"code":3400302,"id":"20dcb6","name":"烏丸","name_kana":"からすま","lat":35.003665,"lng":135.759108,"prefecture":26,"numbering":[{"index":"85"}],"lines":[34003],"attr":"eco","postal_code":"600-8008","address":"京都市下京区四条通烏丸東入ル長刀鉾町１７","next":[9961009,3400303,9961008,3400301,9961114],"voronoi":{"lat":35.006852,"lng":135.753908,"delta_lat":[0,-5967,4051,1778,755],"delta_lng":[0,45,10321,-17,-9762]}},
    {"code":3400303,"id":"affa95","name":"大宮(京都)","name_kana":"おおみや","lat":35.003587,"lng":135.748756,"prefecture":26,"numbering":[{"index":"84"}],"lines":[34003],"attr":"eco","postal_code":"604-8365","address":"京都市中京区四条通大宮西入ル錦大宮町１２７","next":[9961009,9961201,9961114,9961010,1161403,3400302],"voronoi":{"lat":35.006852,"lng":135.753908,"delta_lat":[0,1552,-1557,-8115,17,2136],"delta_lng":[0,-7505,-1630,8924,14,242]}},
    {"code":3400304,"id":"625797","name":"西院","name_kana":"さいいん(さい)","lat":35.003619,"lng":135.732447,"prefecture":26,"numbering":[{"index":"83"}],"lines":[34003,99612],"attr":"eco","postal_code":"604-8854","address":"京都市中京区壬生仙念町１６","next":[1161403,9961204,1160202,9961201,9961203,1161402,3400305],"voronoi":{"lat":34.999327,"lng":135.724427,"delta_lat":[0,6400,23,-2650,-339,-10391,49],"delta_lng":[0,3255,10624,2107,-9,-8991,-1473]}},
    {"code":3400305,"id":"2a053a","name":"西京極","name_kana":"にしきょうごく","lat":34.992459,"lng":135.718462,"prefecture":26,"numbering":[{"index":"82"}],"lines":[34003],"attr":"cool","postal_code":"615-0851","address":"京都市右京区西京極西池田町２","next":[3400902,9961213,9961204,1160202,3400306,3400304],"voronoi":{"lat":34.999327,"lng":135.724427,"delta_lat":[0,2094,-1991,-9349,-11989,14327],"delta_lng":[0,-7061,-10917,943,10231,12317]}},
    {"code":3400306,"id":"6adbf0","name":"桂","name_kana":"かつら","lat":34.979522,"lng":135.703302,"prefecture":26,"numbering":[{"index":"81"}],"lines":[34003,34009],"attr":"cool","postal_code":"615-8107","address":"京都市西京区川島北裏町９７-２","next":[1160216,3400307,3400902,1160202,3400305],"voronoi":{"lat":34.990081,"lng":135.707391,"delta_lat":[0,-17981,-335,5616,711],"delta_lng":[0,-26548,25165,11653,-39]}},
    {"code":3400307,"id":"3d18b6","name":"洛西口","name_kana":"らくさいぐち","lat":34.964081,"lng":135.703096,"prefecture":26,"numbering":[{"index":"80"}],"lines":[34003],"attr":"cool","postal_code":"615-8103","address":"京都市西京区川島六ノ坪町","next":[3400308,1160203,3400306,3400310,3400902,3400903,1160216],"voronoi":{"lat":34.971764,"lng":135.706008,"delta_lat":[0,335,-7653,-4554,-6702,6162,645],"delta_lng":[0,-25165,-28448,-11092,24462,40537,888]}},
    {"code":3400308,"id":"d74402","name":"東向日","name_kana":"ひがしむこう","lat":34.953885,"lng":135.704646,"prefecture":26,"numbering":[{"index":"79"}],"lines":[34003],"attr":"heat","postal_code":"617-0002","address":"向日市寺戸町小佃５-２","next":[3400307,3400309,3400310,1160203],"voronoi":{"lat":34.95181,"lng":135.669024,"delta_lat":[0,1380,6162,-13187],"delta_lng":[0,-3259,40537,2437]}},
    {"code":3400309,"id":"bd692b","name":"西向日","name_kana":"にしむこう","lat":34.939892,"lng":135.702657,"prefecture":26,"numbering":[{"index":"78"}],"lines":[34003],"attr":"heat","postal_code":"617-0006","address":"向日市上植野町南開２３-１","next":[3300113,1160203,1160204,3400308,3300114,3400310],"voronoi":{"lat":34.929059,"lng":135.726071,"delta_lat":[0,2159,3915,11033,5645,-19696],"delta_lng":[0,4855,886,-23072,-39715,28802]}},
    {"code":3400310,"id":"7f6003","name":"長岡天神","name_kana":"ながおかてんじん","lat":34.924791,"lng":135.69233,"prefecture":26,"numbering":[{"index":"77"}],"lines":[34003],"attr":"heat","postal_code":"617-0824","address":"長岡京市天神１-３０-１","next":[1161409,9960504,3400903,3400307,1160215,3400308,3400328,3400309,1160204],"voronoi":{"lat":34.917129,"lng":135.695534,"delta_lat":[0,23336,157,15325,3881,65,-6702,-1380,-19696],"delta_lng":[0,-73826,-235,14627,4006,1197,24462,3259,28802]}},
    {"code":3400328,"id":"12055a","name":"西山天王山","name_kana":"にしやまてんのうざん","lat":34.9127,"lng":135.688508,"prefecture":26,"numbering":[{"index":"76"}],"lines":[34003],"attr":"cool","postal_code":"617-0843","address":"京都府長岡京市友岡四丁目22-1","open_date":"2013-12-21","next":[1160204,1160215,1160205,3300114,3400311,3300501,3300115,3400310],"voronoi":{"lat":34.90815,"lng":135.703358,"delta_lat":[0,-6535,-875,-1806,3616,15718,22197,-23336],"delta_lng":[0,-1809,-2080,-4643,-11165,-34242,-27711,73826]}},
    {"code":3400311,"id":"176429","name":"大山崎","name_kana":"おおやまざき","lat":34.891485,"lng":135.681637,"prefecture":26,"numbering":[{"index":"75"}],"lines":[34003],"attr":"cool","postal_code":"618-0071","address":"乙訓郡大山崎町字大山崎小字明島１３-２","next":[3300116,1160205,3400328,3300501],"voronoi":{"lat":34.90255,"lng":135.683661,"delta_lat":[0,-17036,3462,9958],"delta_lng":[0,-5234,12509,3890]}},
    {"code":3400312,"id":"44929f","name":"水無瀬","name_kana":"みなせ","lat":34.877745,"lng":135.667853,"prefecture":27,"numbering":[{"index":"74"}],"lines":[34003],"attr":"heat","postal_code":"618-0014","address":"三島郡島本町水無瀬１-１７-１２","next":[3300117,1160205,3300116,3400313,1160215],"voronoi":{"lat":34.876545,"lng":135.66321,"delta_lat":[0,-7425,3735,10952,2858],"delta_lng":[0,6833,7853,-2870,-3680]}},
    {"code":3400313,"id":"3d7331","name":"上牧(大阪)","name_kana":"かんまき","lat":34.872018,"lng":135.661629,"prefecture":27,"numbering":[{"index":"73"}],"lines":[34003],"attr":"heat","postal_code":"569-0007","address":"高槻市神内２-１-５","next":[3300117,3400312,3300118,1160215,3400314],"voronoi":{"lat":34.85767,"lng":135.661666,"delta_lat":[0,11449,7425,6288,-27414],"delta_lng":[0,8378,-6833,-33370,15801]}},
    {"code":3400314,"id":"7a72f6","name":"高槻市","name_kana":"たかつきし","lat":34.849905,"lng":135.623265,"prefecture":27,"numbering":[{"index":"72"}],"lines":[34003],"attr":"heat","postal_code":"569-0071","address":"高槻市城北町２-１-１８","next":[1160206,3300119,3300121,3400315,1160215,3300118,3400313],"voronoi":{"lat":34.848482,"lng":135.644652,"delta_lat":[0,-17002,-6965,2804,58553,-3039,-27414],"delta_lng":[0,-11478,-16500,-1349,12134,2381,15801]}},
    {"code":3400315,"id":"005e2f","name":"富田(大阪)","name_kana":"とんだ","lat":34.835207,"lng":135.592721,"prefecture":27,"numbering":[{"index":"71"}],"lines":[34003],"attr":"heat","postal_code":"569-0814","address":"高槻市富田町３-４-１０","next":[3300121,1160217,1160207,3300122,1160206,3400314,3400316],"voronoi":{"lat":34.818859,"lng":135.61381,"delta_lat":[0,5655,2804,4204,7742,-2368,-24164],"delta_lng":[0,2865,-1349,-2768,-30555,1046,24625]}},
    {"code":3400316,"id":"ec713b","name":"総持寺","name_kana":"そうじじ","lat":34.827257,"lng":135.58492,"prefecture":27,"numbering":[{"index":"70"}],"lines":[34003],"attr":"heat","postal_code":"567-0802","address":"茨木市総持寺駅前町７-３","next":[3300122,3400315,1160217,3400317],"voronoi":{"lat":34.812733,"lng":135.607673,"delta_lat":[0,24164,-14909,-18229],"delta_lng":[0,-24625,-2827,21593]}},
    {"code":3400317,"id":"7d86aa","name":"茨木市","name_kana":"いばらきし","lat":34.816472,"lng":135.575815,"prefecture":27,"numbering":[{"index":"69"}],"lines":[34003],"attr":"cool","postal_code":"567-0816","address":"茨木市永代町１-５","next":[1160217,1160208,3400318,9962610,3400316,3300122],"voronoi":{"lat":34.793519,"lng":135.598283,"delta_lat":[0,6655,9970,13800,-1956,-18229],"delta_lng":[0,-15566,-13203,-1388,12095,21593]}},
    {"code":3400318,"id":"d8f660","name":"南茨木","name_kana":"みなみいばらき","lat":34.802351,"lng":135.565152,"prefecture":27,"numbering":[{"index":"68"}],"lines":[34003,99626],"attr":"cool","postal_code":"567-0876","address":"茨木市天王２-１-１３","next":[9962608,3400317,1160209,9962610,1160208],"voronoi":{"lat":34.800174,"lng":135.582717,"delta_lat":[0,-2954,1894,9063,1967],"delta_lng":[0,-24618,-1507,4764,8158]}},
    {"code":3400327,"id":"169734","name":"摂津市","name_kana":"せっつし","lat":34.786409,"lng":135.553715,"prefecture":27,"numbering":[{"index":"67"}],"lines":[34003],"attr":"cool","postal_code":"566-0011","address":"大阪府摂津市千里丘東4丁目1-1","open_date":"2010-03-14","next":[1160209,1160210,9962611,9962610,3400319],"voronoi":{"lat":34.78355,"lng":135.546126,"delta_lat":[0,1935,6233,-4052,-9483],"delta_lng":[0,-1534,14409,2438,-8017]}},
    {"code":3400319,"id":"081c43","name":"正雀","name_kana":"しょうじゃく","lat":34.775454,"lng":135.545657,"prefecture":27,"numbering":[{"index":"66"}],"lines":[34003],"attr":"eco","postal_code":"566-0013","address":"摂津市阪急正雀１-１","next":[9962611,3400327,1160210,9965201],"voronoi":{"lat":34.767157,"lng":135.540621,"delta_lat":[0,16393,-5367,-9320],"delta_lng":[0,5505,7296,2584]}},
    {"code":3400320,"id":"23e8ad","name":"相川","name_kana":"あいかわ","lat":34.757942,"lng":135.533853,"prefecture":27,"numbering":[{"index":"65"}],"lines":[34003],"attr":"eco","postal_code":"533-0007","address":"大阪市東淀川区相川１-７-２４","next":[1160210,9965202,3400321,9965201,1160211],"voronoi":{"lat":34.766716,"lng":135.539341,"delta_lat":[0,-8652,-4188,1317,14043],"delta_lng":[0,1426,-2190,-12605,7243]}},
    {"code":3400321,"id":"5acd30","name":"上新庄","name_kana":"かみしんじょう","lat":34.750873,"lng":135.533114,"prefecture":27,"numbering":[{"index":"64"}],"lines":[34003],"attr":"eco","postal_code":"533-0006","address":"大阪市東淀川区上新庄２-２４-５","next":[9965202,9965203,1164111,3400320,3400808,1160211],"voronoi":{"lat":34.753875,"lng":135.538577,"delta_lat":[0,-5689,-10510,5861,10654,1001],"delta_lng":[0,715,-6577,-4502,-3545,1304]}},
    {"code":3400322,"id":"c7a239","name":"淡路","name_kana":"あわじ","lat":34.738827,"lng":135.516527,"prefecture":27,"numbering":[{"index":"63"}],"lines":[34003,34008],"attr":"eco","postal_code":"533-0023","address":"大阪市東淀川区東淡路４-１７-８","next":[1164110,3400810,3400808,1160212,1164112,1164111,3400323],"voronoi":{"lat":34.737549,"lng":135.510153,"delta_lat":[0,4836,1972,-751,-12818,-1070,2765],"delta_lng":[0,212,3969,1707,7178,-1160,-5690]}},
    {"code":3400323,"id":"f8e57f","name":"崇禅寺","name_kana":"そうぜんじ","lat":34.731048,"lng":135.510186,"prefecture":27,"numbering":[{"index":"62"}],"lines":[34003],"attr":"eco","postal_code":"533-0024","address":"大阪市東淀川区柴島１-７-２８","next":[100217,1160212,3400324,3400810,3400322],"voronoi":{"lat":34.727095,"lng":135.505481,"delta_lat":[0,1713,6344,2397,-5066],"delta_lng":[0,-865,2351,3185,6216]}},
    {"code":3400324,"id":"876539","name":"南方(大阪)","name_kana":"みなみかた","lat":34.725656,"lng":135.499507,"prefecture":27,"numbering":[{"index":"61"}],"lines":[34003],"attr":"eco","postal_code":"532-0011","address":"大阪市淀川区西中島３-１７-３","next":[3400810,100217,9961804,3400811,9961805,3400323],"voronoi":{"lat":34.719505,"lng":135.507245,"delta_lat":[0,-2159,2115,9972,-625,-1713],"delta_lng":[0,-2954,-11907,9972,2261,865]}},
    {"code":3400103,"id":"42dc6f","name":"十三","name_kana":"じゅうそう","lat":34.720226,"lng":135.48248,"prefecture":27,"numbering":[{"index":"03"}],"lines":[34001,34002,34003],"attr":"eco","postal_code":"532-0023","address":"大阪市淀川区十三東２-１２-１","next":[3400104,3400102,1160302,3400204,1162309,9961804,9961805],"voronoi":{"lat":34.719067,"lng":135.491808,"delta_lat":[0,-11023,-86,14176,6675,-287,-9029],"delta_lng":[0,-10971,-486,-7813,8436,7534,3566]}},
    {"code":3400101,"id":"94d17b","name":"大阪梅田(阪急電鉄)","name_kana":"おおさかうめだ","lat":34.705515,"lng":135.498313,"prefecture":27,"numbering":[{"index":"01"}],"lines":[34001,34002,34003],"attr":"eco","postal_code":"530-0012","address":"大阪市北区芝田一丁目1-2","next":[9961910,9961806,1160214,9961805,3400102,9961909],"voronoi":{"lat":34.709216,"lng":135.50119,"delta_lat":[0,-1280,-1741,-1263,-1215,525],"delta_lng":[0,-5283,-1389,1260,4671,1709]}}
  ],
  "north":35.00378,
  "south":34.7044,
  "east":135.76905,
  "west":135.48231,
  "polyline_list":[
    {
      "start":"十三",
      "end":"梅田",
      "lat":34.71977,
      "lng":135.48263,
      "delta_lat":[0,-28,-19,-25,-34,-30,-29,-39,-48,-54,-59,-177,-125,-137,-45,-19,-10,-11,-13,-9,-10,-9,-9,-4,-6,-6,-6,-12,-20,-16,-15,-9,-7,-9,-6,-7,-9,-11,-8,-10,-11,-15,-14,-14,-11,-16,-16,-19,-17,-16,-19,-30,-26,-90,-74,-49],
      "delta_lng":[0,16,10,16,22,21,26,32,40,46,49,150,105,112,39,17,12,14,18,15,21,22,21,16,22,29,24,53,93,82,70,40,32,27,17,18,19,19,13,13,13,17,18,17,12,15,15,11,9,8,6,10,7,25,21,13]
    },
    {
      "start":"十三",
      "end":"河原町",
      "lat":34.71977,
      "lng":135.48263,
      "delta_lat":[0,36,58,43,25,17,18,69,40,25,25,96,99,20,15,7,1,-3,-1,-2,3,3,2,0,3,3,15,1,5,4,18,11,11,11,27,21,141,30,40,68,63,114,45,78,69,27,34,31,5,2,4,380,37,136,49,9,19,26,19,10,27,13,20,9,1,8,12,9,7,1,3,5,0,11,0,2,3,4,2,5,12,8,9,40,2,4,25,2,2,1,11,11,3,3,1,25,1,8,3,3,2,5,2,8,1,2,1,3,6,24,6,9,23,2,3,9,5,1,4,1,1,9,16,27,25,5,53,27,29,35,8,57,46,195,109,112,11,82,23,13,10,22,35,14,3,49,9,42,53,99,23,11,9,32,22,2,5,33,8,10,46,34,4,19,2,59,8,45,2,7,36,17,18,61,16,31,3,53,50,21,36,16,16,13,96,112,56,22,195,14,88,13,49,11,7,47,16,58,38,19,37,53,69,44,13,71,41,19,65,37,9,45,29,29,8,7,58,18,41,20,83,64,2,1,23,108,16,115,91,20,11,8,40,24,32,9,0,42,123,61,9,9,63,22,45,4,3,10,83,1,9,65,33,42,5,40,9,23,149,51,82,31,26,10,19,50,36,29,32,20,65,3,3,36,20,49,96,63,74,47,38,4,72,0,5,29,2,9,23,33,47,4,13,6,13,28,38,8,29,72,17,66,26,3,40,13,107,29,44,6,32,24,61,24,14,24,80,39,4,145,5,47,3,10,94,41,134,33,32,20,34,27,57,50,60,27,16,23,18,154,33,16,3,115,32,33,23,16,33,43,52,14,7,135,36,67,27,15,40,14,51,58,17,58,27,85,13,33,131,12,24,17,18,14,60,13,180,15,54,17,66,14,46,29,86,15,100,64,159,98,0,2,90,146,39,162,111,49,119,41,138,16,3,6,5,74,13,69,16,15,66,17,47,161,56,11,53,49,24,56,77,62,193,187,7,14,19,111,48,19,172,194,62,26,27,78,119,73,195,195,20,14,161,38,29,121,100,12,82,64,11,5,3,57,10,46,36,8,41,38,25,39,31,48,114,195,56,58,68,15,11,183,191,167,20,6,194,44,28,32,20,71,194,5,13,12,165,67,31,97,130,26,39,232,129,75,61,38,85,33,153,159,132,267,4,20,58,15,169,57,23,25,2,54,34,21,16,19,77,28,44,23,31,91,122,80,34,90,86,86,20,22,60,68,52,22,20,64,59,90,51,130,63,75,76,177,265,84,17,163,62,59,19,18,103,37,110,114,265,263,127,59,15,65,265,100,60,81,197,202,51,41,29,31,29,22,74,50,31,2,27,9,54,91,16,74,105,18,44,21,79,10,41,13,9,2,16,45,14,3,27,17,17,18,31,43,15,14,121,18,20,105,14,17,235,253,77,4,20,7,2,1,-1,1,0,0,0,0,0,0,-1,1,1,-1,1,1,0,-1,1,2,2,2,0,0,0,1,0,0,0,1,0,0,1,0,0,1,0,1,0,0,1,1,0,0,2,0,2,0,1,1,0,0],
      "delta_lng":[0,-14,-14,-4,0,5,4,40,31,24,39,184,199,52,54,44,43,215,213,303,37,133,157,216,18,15,66,3,14,13,42,27,19,16,48,42,235,42,40,59,46,95,35,63,57,20,30,24,5,0,4,309,29,115,45,9,21,31,23,10,40,23,44,21,6,21,44,39,32,3,17,23,5,47,1,12,9,15,12,12,42,27,31,145,3,18,86,9,1,8,39,41,6,10,9,82,1,32,10,3,10,17,5,25,9,2,7,6,23,53,13,16,38,0,7,11,4,4,3,0,3,11,15,22,15,2,23,8,5,4,1,5,3,16,9,8,1,8,0,2,1,2,4,2,0,3,1,3,2,14,2,3,1,8,6,2,1,12,3,5,24,19,2,11,2,40,4,34,0,7,27,12,14,46,12,23,2,40,36,15,27,9,15,9,70,82,40,17,143,10,66,9,38,7,4,35,11,43,28,14,28,37,47,32,9,53,30,15,48,27,9,32,22,22,5,7,44,12,31,14,62,47,2,0,17,78,13,84,66,15,8,5,31,17,25,5,2,28,89,44,7,8,45,18,32,2,2,9,60,2,6,46,24,30,4,29,5,16,107,37,59,21,17,7,13,36,26,21,22,14,46,1,3,26,12,34,66,42,52,34,27,1,51,2,2,19,5,4,17,23,32,3,9,6,9,21,27,4,23,50,13,46,19,2,28,9,75,22,34,5,25,21,50,21,13,21,70,35,2,119,3,41,1,9,80,37,115,29,28,16,29,23,49,45,50,23,13,20,15,133,30,13,3,94,27,27,20,14,28,37,43,12,7,116,32,63,29,13,45,16,64,81,25,91,49,165,26,65,289,24,53,36,40,28,129,26,381,31,118,31,143,26,95,61,175,32,206,134,332,206,1,4,184,304,84,334,234,101,249,87,284,35,5,11,13,155,29,143,36,29,140,36,99,339,105,20,81,68,29,57,83,66,207,199,8,15,21,116,50,20,182,204,64,28,29,82,126,76,202,204,22,14,169,38,29,123,92,11,76,57,9,5,2,41,6,28,20,4,17,15,7,11,6,19,44,77,19,19,19,5,3,54,55,48,5,3,55,12,8,9,4,20,51,3,3,3,44,18,8,26,35,7,10,62,31,21,20,18,44,19,96,94,79,156,4,13,34,8,100,37,17,19,3,41,28,18,14,15,66,24,37,20,27,74,99,56,22,45,38,33,5,5,15,13,6,3,1,3,-3,-5,-6,-21,-13,-18,-15,-39,-55,-16,-3,-33,-7,-7,-1,-1,-6,-1,-4,-4,-6,-4,-1,2,0,3,5,1,1,3,36,27,4,5,9,13,13,17,59,49,36,1,38,12,84,170,33,149,212,39,86,43,155,23,81,25,19,4,31,85,30,5,48,24,25,25,39,46,16,14,129,20,20,111,15,18,251,269,82,7,35,19,24,17,73,53,11,194,117,4,160,131,137,83,68,40,116,91,83,80,66,50,78,103,16,5,57,25,45,62,14,80,79,15,73,143,84,74,145,154,28,82,35,147,67,73,93,72,76,51,27,112,50,24]
    }
  ]
}