{
  "code":35003,
  "name":"阪神武庫川線",
  "symbol":"HS",
  "station_list":[
    {"code":3500112,"id":"4a61c0","name":"武庫川","name_kana":"むこがわ","lat":34.718154,"lng":135.383654,"prefecture":28,"numbering":[{"index":"12"}],"lines":[35001,35003],"attr":"cool","postal_code":"663-8131","address":"西宮市武庫川町２-１５"},
    {"code":3500302,"id":"20d6b4","name":"東鳴尾","name_kana":"ひがしなるお","lat":34.712646,"lng":135.379065,"prefecture":28,"numbering":[{"index":"53"}],"lines":[35003],"attr":"eco","postal_code":"663-8132","address":"西宮市東鳴尾町１-７-１２"},
    {"code":3500303,"id":"8f4cdd","name":"洲先","name_kana":"すざき","lat":34.709046,"lng":135.378049,"prefecture":28,"numbering":[{"index":"52"}],"lines":[35003],"attr":"cool","postal_code":"663-8132","address":"西宮市東鳴尾町２-１７-１０"},
    {"code":3500304,"id":"78a98f","name":"武庫川団地前","name_kana":"むこがわだんちまえ","lat":34.704894,"lng":135.374757,"prefecture":28,"numbering":[{"index":"51"}],"lines":[35003],"attr":"cool","postal_code":"663-8133","address":"西宮市上田東町４-８３"}
  ],
  "north":34.71865,
  "south":34.70464,
  "east":135.38141,
  "west":135.37471,
  "polyline_list":[
    {
      "start":"武庫川団地前",
      "end":"武庫川",
      "lat":34.70464,
      "lng":135.37471,
      "delta_lat":[0,59,69,28,18,20,58,19,19,47,67,63,101,29,57,72,49,66,78,43,58,55,70,96,100,59],
      "delta_lng":[0,29,37,20,19,30,95,17,13,22,29,27,45,13,16,19,8,10,9,8,17,18,27,45,60,36]
    }
  ]
}