{
  "code":35001,
  "name":"阪神本線",
  "symbol":"HS",
  "station_list":[
    {"code":3500101,"id":"54505a","name":"大阪梅田(阪神電気鉄道)","name_kana":"おおさかうめだ","lat":34.700972,"lng":135.496446,"prefecture":27,"numbering":[{"index":"01"}],"lines":[35001],"attr":"eco","postal_code":"530-0012","address":"大阪市北区芝田一丁目1-2"},
    {"code":1162309,"id":"c12dc0","name":"福島(大阪)","name_kana":"ふくしま","lat":34.697167,"lng":135.486563,"prefecture":27,"numbering":[{"index":"02"}],"lines":[11623,35001],"attr":"eco","postal_code":"553-0003","address":"大阪市福島区福島７丁目"},
    {"code":3500103,"id":"9e1e7a","name":"野田(阪神電気鉄道)","name_kana":"のだ","lat":34.694432,"lng":135.47606,"prefecture":27,"numbering":[{"index":"03"}],"lines":[35001],"attr":"eco","postal_code":"553-0001","address":"大阪市福島区海老江一丁目"},
    {"code":3500104,"id":"62045a","name":"淀川","name_kana":"よどがわ","lat":34.696159,"lng":135.465249,"prefecture":27,"numbering":[{"index":"04"}],"lines":[35001],"attr":"heat","postal_code":"553-0001","address":"大阪市福島区海老江８-１７-１３"},
    {"code":3500105,"id":"139c18","name":"姫島","name_kana":"ひめじま","lat":34.704466,"lng":135.45823,"prefecture":27,"numbering":[{"index":"05"}],"lines":[35001],"attr":"heat","postal_code":"555-0025","address":"大阪市西淀川区姫里１-２６-１４"},
    {"code":3500106,"id":"7d74d1","name":"千船","name_kana":"ちぶね","lat":34.712245,"lng":135.445361,"prefecture":27,"numbering":[{"index":"06"}],"lines":[35001],"attr":"cool","postal_code":"555-0001","address":"大阪市西淀川区佃２-２-３３"},
    {"code":3500107,"id":"b9455b","name":"杭瀬","name_kana":"くいせ","lat":34.718272,"lng":135.43884,"prefecture":28,"numbering":[{"index":"07"}],"lines":[35001],"attr":"cool","postal_code":"660-0814","address":"尼崎市杭瀬本町１-１-１"},
    {"code":3500108,"id":"8f7afc","name":"大物","name_kana":"だいもつ","lat":34.716583,"lng":135.425549,"prefecture":28,"numbering":[{"index":"08"}],"lines":[35001,35002],"attr":"cool","postal_code":"660-0823","address":"尼崎市大物町２-１-１"},
    {"code":3500109,"id":"d9a1a6","name":"尼崎(阪神電気鉄道)","name_kana":"あまがさき","lat":34.718634,"lng":135.417309,"prefecture":28,"numbering":[{"index":"09"}],"lines":[35001,35002],"attr":"cool","postal_code":"661-0953","address":"兵庫県尼崎市東御園町93"},
    {"code":3500110,"id":"61c6ad","name":"出屋敷","name_kana":"でやしき","lat":34.718232,"lng":135.404604,"prefecture":28,"numbering":[{"index":"10"}],"lines":[35001],"attr":"cool","postal_code":"660-0876","address":"尼崎市竹谷町２-３５"},
    {"code":3500111,"id":"5f7467","name":"尼崎センタープール前","name_kana":"あまがさきせんたーぷーるまえ","lat":34.71776,"lng":135.395044,"prefecture":28,"numbering":[{"index":"11"}],"lines":[35001],"attr":"cool","postal_code":"660-0082","address":"尼崎市水明町３７３-６"},
    {"code":3500112,"id":"4a61c0","name":"武庫川","name_kana":"むこがわ","lat":34.718154,"lng":135.383654,"prefecture":28,"numbering":[{"index":"12"}],"lines":[35001,35003],"attr":"cool","postal_code":"663-8131","address":"西宮市武庫川町２-１５"},
    {"code":3500113,"id":"515168","name":"鳴尾・武庫川女子大前","name_kana":"なるお・むこがわじょしだいまえ","lat":34.719684,"lng":135.37036,"prefecture":28,"numbering":[{"index":"13"}],"lines":[35001],"attr":"cool","postal_code":"663-8183","address":"西宮市里中町３-１３-１８"},
    {"code":3500114,"id":"694540","name":"甲子園","name_kana":"こうしえん","lat":34.723987,"lng":135.363157,"prefecture":28,"numbering":[{"index":"14"}],"lines":[35001],"attr":"cool","postal_code":"663-8177","address":"西宮市甲子園七番町１-１"},
    {"code":3500115,"id":"be66be","name":"久寿川","name_kana":"くすがわ","lat":34.726975,"lng":135.356811,"prefecture":28,"numbering":[{"index":"15"}],"lines":[35001],"attr":"cool","postal_code":"663-8214","address":"西宮市今津曙町１３-２５"},
    {"code":3400401,"id":"5a137c","name":"今津(兵庫)","name_kana":"いまづ","lat":34.732015,"lng":135.351573,"prefecture":28,"numbering":[{"index":"16"}],"lines":[34004,35001],"attr":"heat","postal_code":"663-8245","address":"西宮市津門呉羽町１-３７"},
    {"code":3500117,"id":"5560a6","name":"西宮(阪神電気鉄道)","name_kana":"にしのみや","lat":34.736858,"lng":135.337759,"prefecture":28,"numbering":[{"index":"17"}],"lines":[35001],"attr":"cool","postal_code":"662-0973","address":"兵庫県西宮市田中町"},
    {"code":3500118,"id":"9fb29c","name":"香櫨園","name_kana":"こうろえん","lat":34.734344,"lng":135.328929,"prefecture":28,"numbering":[{"index":"18"}],"lines":[35001],"attr":"cool","postal_code":"662-0962","address":"西宮市松下町１-１"},
    {"code":3500119,"id":"258df8","name":"打出","name_kana":"うちで","lat":34.731616,"lng":135.315481,"prefecture":28,"numbering":[{"index":"19"}],"lines":[35001],"attr":"cool","postal_code":"659-0028","address":"芦屋市打出小槌町２０-２"},
    {"code":3500120,"id":"fe335a","name":"芦屋(阪神電気鉄道)","name_kana":"あしや","lat":34.728052,"lng":135.303969,"prefecture":28,"numbering":[{"index":"20"}],"lines":[35001],"attr":"eco","postal_code":"659-0065","address":"兵庫県芦屋市公光町"},
    {"code":3500121,"id":"c3ad12","name":"深江","name_kana":"ふかえ","lat":34.722583,"lng":135.291347,"prefecture":28,"numbering":[{"index":"21"}],"lines":[35001],"attr":"eco","postal_code":"658-0013","address":"神戸市東灘区深江北町４-１-８"},
    {"code":3500122,"id":"d9ea46","name":"青木","name_kana":"おおぎ","lat":34.71695,"lng":135.28062,"prefecture":28,"numbering":[{"index":"22"}],"lines":[35001],"attr":"eco","postal_code":"658-0014","address":"神戸市東灘区北青木３-２-１"},
    {"code":3500123,"id":"47308c","name":"魚崎","name_kana":"うおざき","lat":34.71262,"lng":135.26924,"prefecture":28,"numbering":[{"index":"23"}],"lines":[35001,99649],"attr":"eco","postal_code":"658-0026","address":"神戸市東灘区魚崎西町４"},
    {"code":3500124,"id":"fce6b6","name":"住吉(阪神電気鉄道)","name_kana":"すみよし","lat":34.713025,"lng":135.261655,"prefecture":28,"numbering":[{"index":"24"}],"lines":[35001],"attr":"eco","postal_code":"658-0053","address":"神戸市東灘区住吉宮町五丁目"},
    {"code":3500125,"id":"3dcbf7","name":"御影(阪神電気鉄道)","name_kana":"みかげ","lat":34.714895,"lng":135.25569,"prefecture":28,"numbering":[{"index":"25"}],"lines":[35001],"attr":"eco","postal_code":"658-0046","address":"神戸市東灘区御影本町一丁目"},
    {"code":3500126,"id":"0b89e1","name":"石屋川","name_kana":"いしやがわ","lat":34.71327,"lng":135.249329,"prefecture":28,"numbering":[{"index":"26"}],"lines":[35001],"attr":"eco","postal_code":"658-0045","address":"神戸市東灘区御影石町２-２３-１２"},
    {"code":3500127,"id":"a8d7c5","name":"新在家","name_kana":"しんざいけ","lat":34.710573,"lng":135.240565,"prefecture":28,"numbering":[{"index":"27"}],"lines":[35001],"attr":"eco","postal_code":"657-0861","address":"神戸市灘区新在家北町１-４-１"},
    {"code":3500128,"id":"1b03c7","name":"大石","name_kana":"おおいし","lat":34.707671,"lng":135.231055,"prefecture":28,"numbering":[{"index":"28"}],"lines":[35001],"attr":"eco","postal_code":"657-0842","address":"神戸市灘区船寺通１-４-２"},
    {"code":3500129,"id":"06475f","name":"西灘","name_kana":"にしなだ","lat":34.705782,"lng":135.224639,"prefecture":28,"numbering":[{"index":"29"}],"lines":[35001],"attr":"heat","postal_code":"657-0844","address":"神戸市灘区都通５-５-１"},
    {"code":3500130,"id":"972720","name":"岩屋(兵庫)","name_kana":"いわや","lat":34.704065,"lng":135.217962,"prefecture":28,"numbering":[{"index":"30"}],"lines":[35001],"attr":"heat","postal_code":"657-0846","address":"神戸市灘区岩屋北町４-１-１"},
    {"code":3500131,"id":"fa028b","name":"春日野道(阪神電気鉄道)","name_kana":"かすがのみち","lat":34.699513,"lng":135.207968,"prefecture":28,"numbering":[{"index":"31"}],"lines":[35001],"attr":"heat","postal_code":"651-0091","address":"神戸市中央区若菜通一丁目1"},
    {"code":9963001,"id":"3b382f","name":"三宮(神戸三宮)","name_kana":"さんのみや(こうべさんのみや)","lat":34.693507,"lng":135.195106,"prefecture":28,"numbering":[{"index":"32"}],"lines":[99630,99646,99648,34001,35001],"attr":"heat","postal_code":"650-0001","address":"神戸市中央区加納町４-２-１"},
    {"code":1160314,"id":"ffc8f3","name":"元町(兵庫)","name_kana":"もとまち","lat":34.689602,"lng":135.187401,"prefecture":28,"numbering":[{"index":"33"}],"lines":[11603,35001,99630],"attr":"eco","postal_code":"650-0014","address":"神戸市中央区元町高架通り"}
  ],
  "north":34.73705,
  "south":34.68875,
  "east":135.49811,
  "west":135.1866,
  "polyline_list":[
    {
      "start":"元町",
      "end":"梅田",
      "lat":34.68875,
      "lng":135.1866,
      "delta_lat":[0,29,12,43,54,64,63,121,69,21,21,2,26,35,27,106,68,82,96,22,23,40,48,30,17,50,38,65,34,16,23,93,29,6,21,22,5,4,38,7,99,11,35,18,10,4,35,74,20,39,16,95,117,25,4,27,5,67,2,6,60,28,24,49,34,14,113,6,5,3,3,1,0,-3,-5,-166,-31,-3,-60,-2,-20,-10,-10,0,0,0,2,5,21,7,18,13,5,2,22,1,8,1,43,3,7,30,4,5,20,20,25,31,22,39,24,20,62,23,62,41,85,35,34,41,32,37,87,88,4,22,44,24,178,99,20,12,44,0,10,15,12,12,48,47,11,4,41,4,7,4,57,4,9,58,13,52,16,36,20,13,23,18,18,15,46,10,22,2,31,12,44,32,18,16,17,30,37,39,65,31,14,6,7,3,-3,-6,-14,-28,-12,-32,-3,-4,-4,-24,-38,-36,-147,-146,-90,-58,-182,-85,-70,-42,-59,-11,-9,-17,-2,-40,-45,-48,-30,-48,-4,-25,-33,-27,-51,-101,-46,-65,-20,-13,-20,-18,-8,-7,-5,-9,-2,-7,-6,-1,-13,-38,-9,-2,-31,-3,-23,-71,-13,-11,-10,-1,4,10,8,13,43,2,34,17,2,19,22,11,9,4,1,0,-1,-4,-7,-34,-1,-10,0,-1,-1,1,3,7,61,23,10,4,-1,-2,-7,-7,-20,-9,-2,-16,-27,-27,-63,-62,-9,-7,-8,0,-3,0,2,5,29,105,40,18,12,7,4,2,-2,-7,-13,-3,-52,-5,-5,-69,-97,-94,-30,-26,-39,-169,-3,-85,-7,-21,-126,-38,-39,-28,-11,-16,-27,-246,-70,-24,-30,-31,-4,-60,-8,-46,-284,-90,-197,-85,-42,-5,-58,-4,-12,-18,-20,-18,-20,-9,-5,-25,-17,0,-4,-1,-15,-1,-3,-1,-2,-2,0,2,11,7,14,17,114,58,37,18,19,90,74,97,24,71,47,34,44,3],
      "delta_lng":[0,67,27,95,102,113,95,173,91,30,45,6,63,81,65,232,151,178,217,45,42,92,111,71,42,103,58,95,45,30,54,228,70,13,62,74,27,19,152,23,379,43,128,71,35,16,125,236,63,128,51,313,390,76,10,91,15,213,5,18,193,100,75,164,113,44,409,23,23,17,22,24,26,23,21,453,86,11,164,3,61,46,69,8,18,26,27,38,92,30,78,52,22,9,91,9,26,9,188,14,28,134,16,25,82,74,69,64,40,60,35,25,81,31,82,55,119,55,56,81,64,89,203,209,11,48,98,54,410,233,45,27,100,3,23,36,27,28,121,108,26,8,121,15,25,8,185,10,30,193,40,170,53,114,69,43,75,61,74,69,236,49,114,11,165,58,231,183,88,74,59,63,68,68,109,65,33,25,44,67,59,70,105,215,97,233,18,19,14,60,67,55,198,196,122,75,237,111,99,62,95,18,18,30,7,90,103,115,73,116,9,57,67,40,64,124,57,102,39,29,62,73,53,59,200,344,134,116,61,10,70,120,30,5,80,8,62,189,39,45,74,55,142,165,66,64,140,7,93,51,9,76,103,63,63,27,23,27,37,38,75,274,8,96,10,29,52,29,32,47,346,130,72,53,44,50,48,31,87,35,10,61,113,134,260,261,47,43,136,16,66,69,32,38,103,295,120,64,58,45,50,52,41,43,45,9,106,9,7,85,118,119,35,31,37,135,4,68,5,18,97,32,41,38,20,27,62,570,162,47,53,41,5,62,9,39,236,74,161,73,44,5,61,6,13,31,41,51,70,44,60,433,253,6,94,9,276,19,50,18,36,18,67,64,84,31,56,52,316,157,102,47,41,132,82,107,32,121,85,63,84,9]
    }
  ]
}