{
  "code":35002,
  "name":"阪神なんば線",
  "symbol":"HS",
  "station_list":[
    {"code":3100101,"id":"6a42ec","name":"大阪難波","name_kana":"おおさかなんば","lat":34.667113,"lng":135.499144,"prefecture":27,"numbering":[{"index":"41"}],"lines":[31001,35002],"attr":"heat","postal_code":"542-0076","address":"大阪市中央区難波四丁目1-17"},
    {"code":3500210,"id":"5fff2f","name":"桜川(大阪)","name_kana":"さくらがわ","lat":34.668559,"lng":135.486612,"prefecture":27,"numbering":[{"index":"42"}],"lines":[35002,99622],"attr":"cool","postal_code":"556-0021","address":"大阪市浪速区幸町２-３-７"},
    {"code":3500209,"id":"392f34","name":"ドーム前","name_kana":"どーむまえ","lat":34.670266,"lng":135.478313,"prefecture":27,"numbering":[{"index":"43"}],"lines":[35002],"attr":"eco","postal_code":"550-0023","address":"大阪府大阪市西区千代崎三丁目"},
    {"code":3500208,"id":"489ddb","name":"九条(大阪)","name_kana":"くじょう","lat":34.673412,"lng":135.474483,"prefecture":27,"numbering":[{"index":"44"}],"lines":[35002,99621],"attr":"eco","postal_code":"550-0027","address":"大阪市西区九条２-３-２"},
    {"code":1162307,"id":"78c266","name":"西九条","name_kana":"にしくじょう","lat":34.68269,"lng":135.466779,"prefecture":27,"numbering":[{"index":"45"}],"lines":[11623,11624,35002],"attr":"heat","postal_code":"554-0012","address":"大阪市此花区西九条１丁目"},
    {"code":3500202,"id":"8981c9","name":"千鳥橋","name_kana":"ちどりばし","lat":34.68546,"lng":135.457817,"prefecture":27,"numbering":[{"index":"46"}],"lines":[35002],"attr":"heat","postal_code":"554-0014","address":"大阪市此花区四貫島１-１-４３"},
    {"code":3500203,"id":"125895","name":"伝法","name_kana":"でんぽう","lat":34.689256,"lng":135.451559,"prefecture":27,"numbering":[{"index":"47"}],"lines":[35002],"attr":"heat","postal_code":"554-0002","address":"大阪市此花区伝法３-１４-５０"},
    {"code":3500204,"id":"fd3ce0","name":"福","name_kana":"ふく","lat":34.699791,"lng":135.442692,"prefecture":27,"numbering":[{"index":"48"}],"lines":[35002],"attr":"cool","postal_code":"555-0034","address":"大阪市西淀川区福町２-３-２８"},
    {"code":3500205,"id":"21080d","name":"出来島","name_kana":"できじま","lat":34.707173,"lng":135.436921,"prefecture":27,"numbering":[{"index":"49"}],"lines":[35002],"attr":"cool","postal_code":"555-0031","address":"大阪市西淀川区出来島１-１３-６"},
    {"code":3500108,"id":"8f7afc","name":"大物","name_kana":"だいもつ","lat":34.716583,"lng":135.425549,"prefecture":28,"numbering":[{"index":"08"}],"lines":[35001,35002],"attr":"cool","postal_code":"660-0823","address":"尼崎市大物町２-１-１"},
    {"code":3500109,"id":"d9a1a6","name":"尼崎(阪神電気鉄道)","name_kana":"あまがさき","lat":34.718634,"lng":135.417309,"prefecture":28,"numbering":[{"index":"09"}],"lines":[35001,35002],"attr":"cool","postal_code":"661-0953","address":"兵庫県尼崎市東御園町93"}
  ],
  "north":34.71868,
  "south":34.66711,
  "east":135.49835,
  "west":135.41648,
  "polyline_list":[
    {
      "start":"西九条",
      "end":"大阪難波",
      "lat":34.68241,
      "lng":135.46582,
      "delta_lat":[0,-70,-121,-48,-130,-63,-160,-220,-41,-33,-44,-60,-39,-41,-56,-40,-130,-83,-53,-24,0,47,7,3,2,-2,-3,-36,-38,-30,-23],
      "delta_lng":[0,50,77,30,26,39,199,297,67,57,104,143,80,45,35,25,57,76,89,73,62,301,78,29,54,38,36,401,383,166,135]
    },
    {
      "start":"西九条",
      "end":"尼崎",
      "lat":34.68241,
      "lng":135.46582,
      "delta_lat":[0,87,49,39,28,14,25,32,21,9,1,18,19,22,28,78,125,217,409,476,85,600,141,113,220,304,54,52,28,23,37,81,152,40],
      "delta_lng":[0,-48,-71,-82,-114,-94,-75,-84,-83,-76,-178,-131,-60,-43,-34,-66,-103,-181,-349,-399,-73,-477,-109,-86,-180,-226,-47,-62,-60,-73,-135,-316,-613,-206]
    }
  ]
}