{
  "code":35003,
  "id":"58f677",
  "name":"阪神武庫川線",
  "name_kana":"はんしんむこがわせん",
  "station_size":4,
  "company_code":25,
  "symbol":"HS",
  "station_list":[
    {"code":3500112,"id":"4a61c0","name":"武庫川","name_kana":"むこがわ","lat":34.718154,"lng":135.383654,"prefecture":28,"numbering":[{"index":"12"}],"lines":[35001,35003],"attr":"cool","postal_code":"663-8131","address":"西宮市武庫川町２-１５","next":[1160304,3500113,1160305,3500302,3500111],"voronoi":{"lat":34.709002,"lng":135.389039,"delta_lat":[0,10015,9159,3808,-2465],"delta_lng":[0,-12021,1054,8623,3053]}},
    {"code":3500302,"id":"20d6b4","name":"東鳴尾","name_kana":"ひがしなるお","lat":34.712646,"lng":135.379065,"prefecture":28,"numbering":[{"index":"53"}],"lines":[35003],"attr":"eco","postal_code":"663-8132","address":"西宮市東鳴尾町１-７-１２","next":[3500111,3500303,3500112,3500113],"voronoi":{"lat":34.709002,"lng":135.389039,"delta_lat":[0,-1224,4940,6299],"delta_lng":[0,392,-17506,5093]}},
    {"code":3500303,"id":"8f4cdd","name":"洲先","name_kana":"すざき","lat":34.709046,"lng":135.378049,"prefecture":28,"numbering":[{"index":"52"}],"lines":[35003],"attr":"cool","postal_code":"663-8132","address":"西宮市東鳴尾町２-１７-１０","next":[3500111,3500113,3500304,3500302],"voronoi":{"lat":34.689011,"lng":135.399053,"delta_lat":[0,22658,1048,-4940],"delta_lng":[0,-28577,1450,17506]}},
    {"code":3500304,"id":"78a98f","name":"武庫川団地前","name_kana":"むこがわだんちまえ","lat":34.704894,"lng":135.374757,"prefecture":28,"numbering":[{"index":"51"}],"lines":[35003],"attr":"cool","postal_code":"663-8133","address":"西宮市上田東町４-８３","next":[3500119,1162404,3500113,9962502,3500120,9964906,3500115,3500303,9962101,3500114,3500118,3500111,3500110],"voronoi":{"lat":34.676871,"lng":135.398514,"delta_lat":[0,-33869,-5209,38137,493,11347,419,14192,5750,3539,-22658,-3765,-2786],"delta_lng":[0,-55683,-9183,-7548,161,5116,269,17462,9464,11904,28577,2388,1245]}}
  ],
  "north":34.71865,
  "south":34.70464,
  "east":135.38141,
  "west":135.37471,
  "polyline_list":[
    {
      "start":"武庫川団地前",
      "end":"武庫川",
      "lat":34.70464,
      "lng":135.37471,
      "delta_lat":[0,59,69,28,18,20,58,19,19,47,67,63,101,29,57,72,49,66,78,43,58,55,70,96,100,59],
      "delta_lng":[0,29,37,20,19,30,95,17,13,22,29,27,45,13,16,19,8,10,9,8,17,18,27,45,60,36]
    }
  ]
}