{
  "code":36003,
  "name":"西鉄甘木線",
  "symbol":"A",
  "station_list":[
    {"code":3600123,"id":"a51401","name":"宮の陣","name_kana":"みやのじん","lat":33.329456,"lng":130.530902,"prefecture":40,"numbering":[{"symbol":"T","index":"25"}],"lines":[36001,36003],"attr":"eco","postal_code":"839-0801","address":"久留米市宮ノ陣町大字宮瀬２４７-２"},
    {"code":3600302,"id":"ff2e88","name":"五郎丸","name_kana":"ごろうまる","lat":33.330433,"lng":130.539863,"prefecture":40,"numbering":[{"index":"01"}],"lines":[36003],"attr":"eco","postal_code":"839-0802","address":"久留米市宮ノ陣町大字五郎丸１７８２"},
    {"code":3600303,"id":"eb3c44","name":"学校前","name_kana":"がっこうまえ","lat":33.336305,"lng":130.547431,"prefecture":40,"numbering":[{"index":"02"}],"lines":[36003],"attr":"eco","postal_code":"839-0803","address":"久留米市宮ノ陣町大杜３９１-１"},
    {"code":3600304,"id":"472ea6","name":"古賀茶屋","name_kana":"こがんちゃや","lat":33.34346,"lng":130.566388,"prefecture":40,"numbering":[{"index":"03"}],"lines":[36003],"attr":"eco","postal_code":"839-0805","address":"久留米市宮ノ陣町大字八丁島１８８６-１"},
    {"code":3600305,"id":"6b87b6","name":"北野(福岡)","name_kana":"きたの","lat":33.345379,"lng":130.582822,"prefecture":40,"numbering":[{"index":"04"}],"lines":[36003],"attr":"heat","postal_code":"830-1122","address":"久留米市北野町今山字大六６２７-１"},
    {"code":3600306,"id":"e2a654","name":"大城","name_kana":"おおき","lat":33.350915,"lng":130.607812,"prefecture":40,"numbering":[{"index":"05"}],"lines":[36003],"attr":"heat","postal_code":"830-1125","address":"久留米市北野町乙丸字前田８０-４"},
    {"code":3600307,"id":"c97882","name":"金島(福岡)","name_kana":"かねしま","lat":33.353232,"lng":130.623016,"prefecture":40,"numbering":[{"index":"06"}],"lines":[36003],"attr":"cool","postal_code":"830-1102","address":"久留米市北野町八重亀字通道１８４-８"},
    {"code":3600308,"id":"d14b42","name":"大堰","name_kana":"おおぜき","lat":33.372278,"lng":130.624022,"prefecture":40,"numbering":[{"index":"07"}],"lines":[36003],"attr":"cool","postal_code":"830-1201","address":"三井郡大刀洗町大字冨多字大藤８４１"},
    {"code":3600309,"id":"cbe76f","name":"本郷(福岡)","name_kana":"ほんごう","lat":33.385013,"lng":130.628893,"prefecture":40,"numbering":[{"index":"08"}],"lines":[36003],"attr":"cool","postal_code":"830-1211","address":"三井郡大刀洗町大字本郷字桑木２７４０-２"},
    {"code":3600310,"id":"a1b298","name":"上浦","name_kana":"かみうら","lat":33.398681,"lng":130.637115,"prefecture":40,"numbering":[{"index":"09"}],"lines":[36003],"attr":"cool","postal_code":"838-0057","address":"朝倉市上浦字正法寺１０-２"},
    {"code":3600311,"id":"e432e6","name":"馬田","name_kana":"まだ","lat":33.407541,"lng":130.640656,"prefecture":40,"numbering":[{"index":"10"}],"lines":[36003],"attr":"cool","postal_code":"838-0058","address":"朝倉市馬田字落合６-２"},
    {"code":3600312,"id":"d230f3","name":"甘木","name_kana":"あまぎ","lat":33.418399,"lng":130.655074,"prefecture":40,"numbering":[{"index":"11"}],"lines":[36003,99901],"attr":"cool","postal_code":"838-0068","address":"朝倉市甘木字竹原１６７８-２"}
  ],
  "north":33.41837,
  "south":33.32883,
  "east":130.65513,
  "west":130.53052,
  "polyline_list":[
    {
      "start":"宮の陣",
      "end":"甘木",
      "lat":33.32883,
      "lng":130.53052,
      "delta_lat":[0,17,7,4,3,20,20,7,3,5,14,20,21,46,139,221,176,48,11,179,328,12,8,6,5,2,35,65,1,2,0,0,-4,-28,-2,3,8,3,42,23,2,7,4,4,0,11,6,4,4,27,2,0,-4,-9,0,3,42,11,18,32,6,8,8,5,10,16,255,7,6,5,16,61,41,43,12,10,76,3,4,3,2,2,2,1,4,0,-4,-14,-4,-5,-38,-3,1,2,4,4,6,8,7,11,5,5,12,12,15,151,9,33,18,14,40,43,30,30,125,157,295,58,68,128,482,117,44,95,109,58,30,443,108,25,42,76,141,116,227,51,18,409,40,552,31,38,36,96,4,101,71,77,44,43,35,254,159,210,52,156,139,303,199,24,42,38,25,17,24,5,-1,-11,-3,0,1,7,9,31,29,23],
      "delta_lng":[0,27,21,18,23,302,308,65,18,20,36,39,33,62,180,289,226,60,13,203,360,13,13,11,11,14,188,354,18,22,103,18,17,126,18,18,41,20,181,105,14,78,45,45,12,149,100,31,32,207,23,19,18,80,20,21,208,61,124,214,37,55,45,23,18,20,347,12,13,17,62,272,190,205,58,46,370,16,17,18,18,18,17,18,147,83,107,264,83,77,753,101,29,30,28,30,29,28,28,28,14,13,27,27,26,255,15,56,23,15,24,15,1,-2,-21,-27,-47,0,1,3,12,3,6,25,29,17,1,24,7,4,21,54,99,82,159,36,12,299,30,405,19,16,9,12,0,9,6,7,6,11,12,114,74,109,33,100,89,197,133,15,36,44,43,60,97,46,46,75,17,35,34,39,42,118,94,69]
    }
  ]
}