{
  "code":36001,
  "id":"88f993",
  "name":"西鉄天神大牟田線",
  "name_kana":"にしてつてんじんおおむたせん",
  "station_size":49,
  "company_code":26,
  "symbol":"T",
  "station_list":[
    {"code":3600101,"id":"1adb59","name":"西鉄福岡（天神）","name_kana":"ふくおか(てんじん)","lat":33.588937,"lng":130.399733,"prefecture":40,"numbering":[{"index":"01"}],"lines":[36001],"attr":"cool","postal_code":"810-0001","address":"福岡市中央区天神二丁目11番2号","next":[9990506,3600102,9990507,9990716,9990713],"voronoi":{"lat":33.58578,"lng":130.395299,"delta_lat":[0,3236,1723,-5647,-419],"delta_lng":[0,69,6168,-2096,-1500]}},
    {"code":3600102,"id":"90d629","name":"薬院","name_kana":"やくいん","lat":33.581957,"lng":130.401683,"prefecture":40,"numbering":[{"index":"02"}],"lines":[36001,99907],"attr":"cool","postal_code":"810-0004","address":"福岡市中央区渡辺通２-６-１","next":[3600101,9990713,9990715,9990716,3600103],"voronoi":{"lat":33.575845,"lng":130.400419,"delta_lat":[0,8828,419,-17,-6230],"delta_lng":[0,-2478,1500,2477,3967]}},
    {"code":3600103,"id":"c04e29","name":"西鉄平尾","name_kana":"にしてつひらお","lat":33.573631,"lng":130.406254,"prefecture":40,"numbering":[{"index":"03"}],"lines":[36001],"attr":"cool","postal_code":"810-0014","address":"福岡市中央区平尾２-２３５-６","next":[9990715,9990712,9990706,3600104,9990713,100319,3600102],"voronoi":{"lat":33.580138,"lng":130.415351,"delta_lat":[0,-1369,-32004,1664,19524,7893,3000],"delta_lng":[0,1561,-24479,-988,3677,5297,5466]}},
    {"code":3600104,"id":"4f8193","name":"高宮(福岡)","original_name":"高宮","name_kana":"たかみや","lat":33.567138,"lng":130.414743,"prefecture":40,"numbering":[{"index":"04"}],"lines":[36001],"attr":"cool","postal_code":"815-0082","address":"福岡市南区大楠３-２０-１８","next":[9990706,1190302,3600103,100319,3600105],"voronoi":{"lat":33.577379,"lng":130.422315,"delta_lat":[0,1390,-32004,-16269,36499],"delta_lng":[0,-5403,-24479,6093,24743]}},
    {"code":3600105,"id":"07e23a","name":"大橋(福岡)","original_name":"大橋","name_kana":"おおはし","lat":33.559128,"lng":130.426559,"prefecture":40,"numbering":[{"index":"05"}],"lines":[36001],"attr":"cool","postal_code":"815-0033","address":"福岡市南区大橋１-５-１","next":[3600106,1190302,3600104,1190102,9990706],"voronoi":{"lat":33.537401,"lng":130.427279,"delta_lat":[0,22396,7198,-36499,-367],"delta_lng":[0,9572,-13582,-24743,67]}},
    {"code":3600106,"id":"b6372c","name":"井尻","name_kana":"いじり","lat":33.551896,"lng":130.44348,"prefecture":40,"numbering":[{"index":"06"}],"lines":[36001],"attr":"cool","postal_code":"811-1302","address":"福岡市南区井尻５-１-１","next":[1190304,1190303,1190102,3600105,1190302],"voronoi":{"lat":33.559797,"lng":130.436851,"delta_lat":[0,-22396,-3292,8554,20889],"delta_lng":[0,-9572,17239,4943,-7291]}},
    {"code":3600107,"id":"d0076b","name":"雑餉隈","name_kana":"ざっしょのくま","lat":33.547216,"lng":130.46262,"prefecture":40,"numbering":[{"index":"07"}],"lines":[36001],"attr":"cool","postal_code":"812-0879","address":"福岡市博多区銀天町１-１-１","next":[3600108,1190303,1190304,1090104,1090105],"voronoi":{"lat":33.564841,"lng":130.48157,"delta_lat":[0,7870,-24988,-5607,18524],"delta_lng":[0,-16037,-11236,13222,16538]}},
    {"code":3600108,"id":"fa56fa","name":"春日原","name_kana":"かすがばる","lat":33.537823,"lng":130.473141,"prefecture":40,"numbering":[{"index":"09"}],"lines":[36001],"attr":"cool","postal_code":"816-0802","address":"春日市春日原北町３-９０","next":[3600107,1190306,1190305,3600109,1190304,1090105],"voronoi":{"lat":33.530931,"lng":130.47576,"delta_lat":[0,-73,10333,924,18524,-10058],"delta_lng":[0,-135,-8416,310,16538,10714]}},
    {"code":3600109,"id":"65360f","name":"白木原","name_kana":"しらきばる","lat":33.528541,"lng":130.482735,"prefecture":40,"numbering":[{"index":"10"}],"lines":[36001],"attr":"cool","postal_code":"816-0943","address":"大野城市白木原１-６-１６","next":[1190306,3600108,1090105,3600110,1191711],"voronoi":{"lat":33.548705,"lng":130.498334,"delta_lat":[0,1877,-19650,-6715,20320],"delta_lng":[0,-3563,-19011,9040,19063]}},
    {"code":3600110,"id":"6b4ced","name":"下大利","name_kana":"しもおおり","lat":33.522431,"lng":130.489248,"prefecture":40,"numbering":[{"index":"11"}],"lines":[36001],"attr":"cool","postal_code":"816-0952","address":"大野城市下大利１-１０-９","next":[1191711,1090107,1190307,1190306,3600109,3600111],"voronoi":{"lat":33.522645,"lng":130.501834,"delta_lat":[0,-3880,5452,20320,-199,-7113],"delta_lng":[0,-18525,1492,19063,384,5942]}},
    {"code":3600111,"id":"bd275d","name":"都府楼前","name_kana":"とふろうまえ","lat":33.511677,"lng":130.508011,"prefecture":40,"numbering":[{"index":"12"}],"lines":[36001],"attr":"cool","postal_code":"818-0104","address":"太宰府市通古賀３-１４-１","next":[3600202,1190308,3600203,1190307,3600112,1090107,3600110],"voronoi":{"lat":33.522645,"lng":130.501834,"delta_lat":[0,-13579,-2506,4649,11449,13111,1456],"delta_lng":[0,-4666,15413,4472,359,-4127,-3095]}},
    {"code":3600112,"id":"270f60","name":"西鉄二日市","name_kana":"にしてつふつかいち","lat":33.502192,"lng":130.517871,"prefecture":40,"numbering":[{"index":"13"}],"lines":[36001,36002],"attr":"cool","postal_code":"818-0072","address":"福岡県筑紫野市二日市中央六丁目","next":[3600202,1190308,3600111,1190309,3600149],"voronoi":{"lat":33.49848,"lng":130.519359,"delta_lat":[0,-956,9035,4649,-7981],"delta_lng":[0,-7551,772,4472,8643]}},
    {"code":3600149,"id":"662a39","name":"紫","name_kana":"むらさき","lat":33.496009,"lng":130.522503,"prefecture":40,"numbering":[{"index":"14"}],"lines":[36001],"attr":"cool","postal_code":"818-0061","address":"福岡県筑紫野市紫二丁目449番11号","open_date":"2010-03-27","next":[1190309,3600202,3600113,1190310,3600112],"voronoi":{"lat":33.49848,"lng":130.519359,"delta_lat":[0,-10943,1058,11409,3223],"delta_lng":[0,4467,1936,13442,-13509]}},
    {"code":3600113,"id":"2a94a5","name":"朝倉街道","name_kana":"あさくらがいどう","lat":33.484174,"lng":130.532548,"prefecture":40,"numbering":[{"index":"15"}],"lines":[36001],"attr":"eco","postal_code":"818-0083","address":"福岡県筑紫野市針摺中央二丁目4-1","next":[3600202,1191204,1190310,3600149,3600114,3600203],"voronoi":{"lat":33.491854,"lng":130.555142,"delta_lat":[0,-14373,11115,11409,2131,286],"delta_lng":[0,-18173,-11207,13442,8912,8727]}},
    {"code":3600114,"id":"46d42a","name":"桜台(福岡)","original_name":"桜台","name_kana":"さくらだい","lat":33.471636,"lng":130.542465,"prefecture":40,"numbering":[{"index":"16"}],"lines":[36001],"attr":"eco","postal_code":"818-0063","address":"筑紫野市桜台２-１-１","next":[3600115,1190311,3600113,1190310,1191204],"voronoi":{"lat":33.491854,"lng":130.555142,"delta_lat":[0,-14373,-13421,-2670,17376],"delta_lng":[0,-18173,-11210,17176,14615]}},
    {"code":3600115,"id":"053254","name":"筑紫","name_kana":"ちくし","lat":33.462682,"lng":130.553111,"prefecture":40,"numbering":[{"index":"17"}],"lines":[36001],"attr":"eco","postal_code":"818-0025","address":"筑紫野市筑紫２-２","next":[3600114,3600116,1191204,1190311],"voronoi":{"lat":33.461389,"lng":130.542935,"delta_lat":[0,17376,-16648,-12777],"delta_lng":[0,14615,11683,-16725]}},
    {"code":3600116,"id":"76c83f","name":"津古","name_kana":"つこ","lat":33.446414,"lng":130.565538,"prefecture":40,"numbering":[{"index":"18"}],"lines":[36001],"attr":"eco","postal_code":"838-0102","address":"小郡市津古１４２３-４","next":[3600115,1191204,1190311,9990108,3600117],"voronoi":{"lat":33.44479,"lng":130.551577,"delta_lat":[0,4551,12777,-9657,-17445],"delta_lng":[0,932,16725,34688,-12698]}},
    {"code":3600117,"id":"83e9a2","name":"三国が丘","name_kana":"みくにがおか","lat":33.436862,"lng":130.563183,"prefecture":40,"numbering":[{"index":"19"}],"lines":[36001],"attr":"eco","postal_code":"838-0106","address":"小郡市三沢字光田５０３２-２","next":[1190311,3600118,9990107,3600116,9990108,1190312],"voronoi":{"lat":33.439112,"lng":130.548021,"delta_lat":[0,5678,-9774,-739,-8745,7235],"delta_lng":[0,3555,39647,-360,-7080,-35267]}},
    {"code":3600118,"id":"9cb468","name":"三沢(福岡)","original_name":"三沢","name_kana":"みつさわ","lat":33.423227,"lng":130.560386,"prefecture":40,"numbering":[{"index":"20"}],"lines":[36001],"attr":"eco","postal_code":"838-0106","address":"小郡市三沢３９５９","next":[1190313,3600117,9990105,1190312,9990106,9990107,3600119,9990102],"voronoi":{"lat":33.41433,"lng":130.574361,"delta_lat":[0,6370,3537,1295,7235,-6017,-1498,-5864],"delta_lng":[0,6933,1973,517,-35267,-2521,122,3047]}},
    {"code":3600119,"id":"7245ac","name":"大保","name_kana":"おおほ","lat":33.411515,"lng":130.558035,"prefecture":40,"numbering":[{"index":"21"}],"lines":[36001],"attr":"eco","postal_code":"838-0115","address":"小郡市大保１２２０","next":[9990102,9990105,9990103,9990104,3600118],"voronoi":{"lat":33.407361,"lng":130.570919,"delta_lat":[0,-3048,2731,12343,-5058],"delta_lng":[0,-14790,-7563,599,25196]}},
    {"code":3600120,"id":"c57b43","name":"西鉄小郡","name_kana":"にしてつおごおり","lat":33.39633,"lng":130.5536,"prefecture":40,"numbering":[{"index":"22"}],"lines":[36001],"attr":"eco","postal_code":"838-0144","address":"小郡市祇園１-９-４","next":[9990104,1190315,9990103,3600121],"voronoi":{"lat":33.38969,"lng":130.53925,"delta_lat":[0,251,8726,-12370],"delta_lng":[0,-106,17639,3683]}},
    {"code":3600121,"id":"c7b5ee","name":"端間","name_kana":"はたま","lat":33.378907,"lng":130.550814,"prefecture":40,"numbering":[{"index":"23"}],"lines":[36001],"attr":"eco","postal_code":"838-0137","address":"小郡市福童字前畑３４１０-４","next":[9990105,1190315,9990104,3600122,3600305,3600304,3600120,1190316],"voronoi":{"lat":33.37193,"lng":130.535809,"delta_lat":[0,17761,-3393,-6077,-7773,-5394,-6006,8764],"delta_lng":[0,3442,21216,11982,5163,-5650,-13671,-22142]}},
    {"code":3600122,"id":"6ae0a7","name":"味坂","name_kana":"あじさか","lat":33.353143,"lng":130.540616,"prefecture":40,"numbering":[{"index":"24"}],"lines":[36001],"attr":"eco","postal_code":"838-0135","address":"小郡市赤川２３","next":[3600303,1190316,3600302,3600123,1190317,3600121,3600304],"voronoi":{"lat":33.369812,"lng":130.536148,"delta_lat":[0,-18288,-3152,-6379,-98,6712,12441],"delta_lng":[0,-17839,205,15554,2964,16584,4674]}},
    {"code":3600123,"id":"a51401","name":"宮の陣","name_kana":"みやのじん","lat":33.329456,"lng":130.530902,"prefecture":40,"numbering":[{"index":"25"}],"lines":[36001,36003],"attr":"eco","postal_code":"839-0801","address":"久留米市宮ノ陣町大字宮瀬２４７-２","next":[1190317,3600122,3600302,3600124,101003],"voronoi":{"lat":33.337373,"lng":130.511969,"delta_lat":[0,10999,-6379,-23488,15782],"delta_lng":[0,6545,15554,2561,-23647]}},
    {"code":3600124,"id":"1e2f4d","name":"櫛原","name_kana":"くしわら","lat":33.319592,"lng":130.524319,"prefecture":40,"numbering":[{"index":"26"}],"lines":[36001],"attr":"eco","postal_code":"830-0013","address":"久留米市櫛原町原口１５１６-４","next":[3600125,3600302,1191303,1191302,101003,3600123],"voronoi":{"lat":33.334287,"lng":130.512982,"delta_lat":[0,-13970,-7952,2774,2285,1081],"delta_lng":[0,-114,17813,5888,814,-754]}},
    {"code":3600125,"id":"a10789","name":"西鉄久留米","name_kana":"にしてつくるめ","lat":33.312276,"lng":130.521053,"prefecture":40,"numbering":[{"index":"27"}],"lines":[36001],"attr":"eco","postal_code":"830-0032","address":"久留米市東町３０９-２","next":[101003,3600124,3600126,1191302],"voronoi":{"lat":33.304486,"lng":130.524026,"delta_lat":[0,11542,4289,-7952],"delta_lng":[0,-12796,1638,17813]}},
    {"code":3600126,"id":"5210f4","name":"花畑","name_kana":"はなばたけ","lat":33.306643,"lng":130.515972,"prefecture":40,"numbering":[{"index":"28"}],"lines":[36001],"attr":"eco","postal_code":"830-0038","address":"久留米市西町９６８","next":[101003,1191337,3600125,1191302,3600127],"voronoi":{"lat":33.311659,"lng":130.507291,"delta_lat":[0,4368,-11542,-1574,-460],"delta_lng":[0,3939,12796,-367,-9278]}},
    {"code":3600127,"id":"762849","name":"試験場前","name_kana":"しけんじょうまえ","lat":33.301985,"lng":130.509923,"prefecture":40,"numbering":[{"index":"29"}],"lines":[36001],"attr":"eco","postal_code":"830-0047","address":"久留米市津福本町２３５","next":[1191337,3600128,101003,3600126],"voronoi":{"lat":33.311659,"lng":130.507291,"delta_lat":[0,-3558,-17612,11962],"delta_lng":[0,-7435,7953,6572]}},
    {"code":3600128,"id":"c2ebf3","name":"津福","name_kana":"つぶく","lat":33.296505,"lng":130.497788,"prefecture":40,"numbering":[{"index":"30"}],"lines":[36001],"attr":"eco","postal_code":"830-0047","address":"久留米市津福本町１５８７","next":[1190319,3600127,1191337,101003,3600129],"voronoi":{"lat":33.288786,"lng":130.507987,"delta_lat":[0,1703,17612,4929,-26488],"delta_lng":[0,-177,-7953,-31689,30940]}},
    {"code":3600129,"id":"32a87e","name":"安武","name_kana":"やすたけ","lat":33.286311,"lng":130.489061,"prefecture":40,"numbering":[{"index":"31"}],"lines":[36001],"attr":"eco","postal_code":"830-0072","address":"久留米市安武町安武本３３２７","next":[101003,1190503,1190319,3600130,3600128],"voronoi":{"lat":33.271317,"lng":130.488866,"delta_lat":[0,34929,8712,-1928,-26488],"delta_lng":[0,-36575,10652,5225,30940]}},
    {"code":3600130,"id":"2cf709","name":"大善寺","name_kana":"だいぜんじ","lat":33.270432,"lng":130.473897,"prefecture":40,"numbering":[{"index":"32"}],"lines":[36001],"attr":"eco","postal_code":"830-0073","address":"久留米市大善寺町宮本１１７３","next":[1190504,1190320,1190503,3600129,3600132,1190319,3600131],"voronoi":{"lat":33.274305,"lng":130.436007,"delta_lat":[0,5781,19999,6162,-34929,-9025,-4006],"delta_lng":[0,-12172,14657,13799,36575,2106,-3578]}},
    {"code":3600131,"id":"081684","name":"三潴","name_kana":"みずま","lat":33.255961,"lng":130.469386,"prefecture":40,"numbering":[{"index":"33"}],"lines":[36001],"attr":"eco","postal_code":"830-0102","address":"久留米市三潴町田川６００２","next":[3600132,1190320,3600130],"voronoi":{"lat":33.274305,"lng":130.436007,"delta_lat":[0,-34329,18311],"delta_lng":[0,45755,5632]}},
    {"code":3600132,"id":"3ec790","name":"犬塚","name_kana":"いぬづか","lat":33.247387,"lng":130.462953,"prefecture":40,"numbering":[{"index":"34"}],"lines":[36001],"attr":"eco","postal_code":"830-0112","address":"久留米市三潴町玉満８００４-１","next":[3600131,3600133,1190504,1190320,1190321,3600130],"voronoi":{"lat":33.239976,"lng":130.481761,"delta_lat":[0,-10291,-5120,43318,12203,-5781],"delta_lng":[0,-310,-5549,-66991,14923,12172]}},
    {"code":3600133,"id":"41f8e1","name":"大溝","name_kana":"おおみぞ","lat":33.227009,"lng":130.449776,"prefecture":40,"numbering":[{"index":"35"}],"lines":[36001],"attr":"eco","postal_code":"830-0403","address":"三潴郡大木町大字大角１３４３","next":[1190321,3600132,1190504,1190505,3600134],"voronoi":{"lat":33.224564,"lng":130.475902,"delta_lat":[0,43318,-1279,-13180,-51478],"delta_lng":[0,-66991,-2492,-15544,76900]}},
    {"code":3600134,"id":"d17e0c","name":"八丁牟田","name_kana":"はっちょうむた","lat":33.209035,"lng":130.437744,"prefecture":40,"numbering":[{"index":"36"}],"lines":[36001],"attr":"eco","postal_code":"830-0416","address":"三潴郡大木町大字八町牟田７４-２","next":[3600135,1190505,101004,1190506,1190321,3600133],"voronoi":{"lat":33.253424,"lng":130.390875,"delta_lat":[0,-640,-13473,-60282,20034,2883],"delta_lng":[0,-1080,-10828,77308,11538,-38]}},
    {"code":3600135,"id":"a0b096","name":"蒲池(福岡)","original_name":"蒲池","name_kana":"かまち","lat":33.189687,"lng":130.422657,"prefecture":40,"numbering":[{"index":"37"}],"lines":[36001],"attr":"eco","postal_code":"832-0001","address":"柳川市大字蒲生９６２-３","next":[3600134,1190323,101004,1190506,3600138,3600136,1190507,3600137],"voronoi":{"lat":33.17574,"lng":130.432946,"delta_lat":[0,36642,6951,19978,-60282,-1740,-1138,-1611],"delta_lng":[0,-81496,4143,23374,77308,-294,-595,-13739]}},
    {"code":3600136,"id":"3aa066","name":"矢加部","name_kana":"やかべ","lat":33.17418,"lng":130.415685,"prefecture":40,"numbering":[{"index":"38"}],"lines":[36001],"attr":"eco","postal_code":"832-0806","address":"柳川市三橋町柳河３９４-３","next":[3600137,1190518,3600135,1190508,1190507],"voronoi":{"lat":33.145442,"lng":130.30041,"delta_lat":[0,-26538,-1135,57970,36642],"delta_lng":[0,-15019,523,147032,-81496]}},
    {"code":3600137,"id":"accc7f","name":"西鉄柳川","name_kana":"にしてつやながわ","lat":33.1651,"lng":130.419265,"prefecture":40,"numbering":[{"index":"39"}],"lines":[36001],"attr":"eco","postal_code":"832-0822","address":"柳川市三橋町下百町４６-２","next":[1190519,3600136,1190518,3600138,3600139,3600135],"voronoi":{"lat":33.17574,"lng":130.432946,"delta_lat":[0,-57970,-8083,-23738,47745,40846],"delta_lng":[0,-147032,3395,13651,85280,53407]}},
    {"code":3600138,"id":"e79e7b","name":"徳益","name_kana":"とくます","lat":33.15541,"lng":130.426676,"prefecture":40,"numbering":[{"index":"40"}],"lines":[36001],"attr":"heat","postal_code":"839-0241","address":"柳川市大和町徳益","next":[1190323,3600139,3600137,3600135],"voronoi":{"lat":33.160044,"lng":130.455824,"delta_lat":[0,-26351,40846,1611],"delta_lng":[0,-67584,53407,13739]}},
    {"code":3600139,"id":"de9118","name":"塩塚","name_kana":"しおつか","lat":33.143725,"lng":130.431232,"prefecture":40,"numbering":[{"index":"41"}],"lines":[36001],"attr":"heat","postal_code":"839-0243","address":"柳川市大和町塩塚２０６４-２","next":[1190324,1190519,3600138,1190323,3600140,3600137],"voronoi":{"lat":33.085948,"lng":130.30296,"delta_lat":[0,-6993,60723,18879,1487,-26351],"delta_lng":[0,3246,145246,4737,-365,-67584]}},
    {"code":3600140,"id":"f8a3da","name":"西鉄中島","name_kana":"にしてつなかしま","lat":33.122444,"lng":130.440129,"prefecture":40,"numbering":[{"index":"42"}],"lines":[36001],"attr":"heat","postal_code":"839-0254","address":"柳川市大和町中島４４６１","next":[1190520,1190328,3600141,3600139,1190519,1190324],"voronoi":{"lat":33.139678,"lng":130.451452,"delta_lat":[0,-60723,-6341,-1733,1695,49904],"delta_lng":[0,-145246,2334,1097,42997,105050]}},
    {"code":3600141,"id":"e208b5","name":"江の浦","name_kana":"えのうら","lat":33.108896,"lng":130.446565,"prefecture":40,"numbering":[{"index":"43"}],"lines":[36001],"attr":"heat","postal_code":"839-0212","address":"みやま市高田町江浦町６１８-４","next":[1190324,1190325,3600140,1190328,3600142],"voronoi":{"lat":33.07116,"lng":130.392941,"delta_lat":[0,1416,49904,-4806,-12127],"delta_lng":[0,-40307,105050,4841,-8313]}},
    {"code":3600142,"id":"f78cad","name":"開","name_kana":"ひらき","lat":33.097275,"lng":130.453087,"prefecture":40,"numbering":[{"index":"44"}],"lines":[36001],"attr":"heat","postal_code":"839-0204","address":"みやま市高田町北新開３６０-２","next":[1190325,3600147,3600143,1190328,3600141],"voronoi":{"lat":33.093354,"lng":130.458297,"delta_lat":[0,-23560,1008,358,34387],"delta_lng":[0,-43541,-19213,-2601,61271]}},
    {"code":3600143,"id":"b5d18c","name":"西鉄渡瀬","name_kana":"にしてつわたぜ","lat":33.086848,"lng":130.458729,"prefecture":40,"numbering":[{"index":"45"}],"lines":[36001],"attr":"heat","postal_code":"837-0906","address":"大牟田市大字倉永字火渡３３６６-１","next":[1190326,3600147,1190325,3600144,3600142,3600146],"voronoi":{"lat":33.078715,"lng":130.458944,"delta_lat":[0,12610,2030,-23560,-204,-256],"delta_lng":[0,18349,-18996,-43541,1128,15595]}},
    {"code":3600144,"id":"68299c","name":"倉永","name_kana":"くらなが","lat":33.07215,"lng":130.463749,"prefecture":40,"numbering":[{"index":"46"}],"lines":[36001],"attr":"heat","postal_code":"837-0906","address":"大牟田市大字倉永字笹尾８３-１２","next":[1190327,3600146,3600145,3600143,1190326],"voronoi":{"lat":33.078715,"lng":130.458944,"delta_lat":[0,-9380,-1992,-1261,2029],"delta_lng":[0,-27465,7530,7745,25687]}},
    {"code":3600145,"id":"7c5223","name":"東甘木","name_kana":"ひがしあまぎ","lat":33.062756,"lng":130.464491,"prefecture":40,"numbering":[{"index":"47"}],"lines":[36001],"attr":"heat","postal_code":"837-0905","address":"大牟田市大字甘木４６９-３","next":[1190327,3600144,101005,1190326],"voronoi":{"lat":33.06811,"lng":130.47244,"delta_lat":[0,-2029,-16239,17659],"delta_lng":[0,-25687,35820,-6159]}},
    {"code":3600146,"id":"34748e","name":"西鉄銀水","name_kana":"にしてつぎんすい","lat":33.050935,"lng":130.458139,"prefecture":40,"numbering":[{"index":"48"}],"lines":[36001],"attr":"heat","postal_code":"837-0917","address":"大牟田市大字草木字横木１２７-１","next":[3600144,1190327,101005,3600147,3600143],"voronoi":{"lat":33.067343,"lng":130.439009,"delta_lat":[0,-39706,-17636,59590,-256],"delta_lng":[0,56580,11694,-91399,15595]}},
    {"code":3600147,"id":"d6b587","name":"新栄町(福岡)","original_name":"新栄町","name_kana":"しんさかえまち","lat":33.038453,"lng":130.450001,"prefecture":40,"numbering":[{"index":"49"}],"lines":[36001],"attr":"heat","postal_code":"836-0041","address":"大牟田市新栄町１０-１","next":[1190332,3600146,3600143,3600142,101005,1190328,1190329],"voronoi":{"lat":32.998407,"lng":130.517093,"delta_lat":[0,11593,59590,204,1008,-74083,-2762],"delta_lng":[0,-9810,-91399,-1128,-19213,103659,7910]}},
    {"code":1190328,"id":"7785f9","name":"大牟田","name_kana":"おおむた","lat":33.029754,"lng":130.443784,"prefecture":40,"numbering":[{"index":"50"}],"lines":[11903,36001],"attr":"heat","postal_code":"836-0843","address":"大牟田市不知火町１丁目","next":[3600147,3600140,1190329,1190520,3600142,3600141],"voronoi":{"lat":33.070802,"lng":130.395543,"delta_lat":[0,-74083,47408,26754,1695,-1416],"delta_lng":[0,103659,-183378,-6186,42997,40307]}}
  ],
  "north":33.59111,
  "south":33.02959,
  "east":130.56588,
  "west":130.39846,
  "polyline_list":[
    {
      "start":"大牟田",
      "end":"天神",
      "lat":33.02959,
      "lng":130.44329,
      "delta_lat":[0,112,34,23,44,106,213,323,58,34,227,262,304,24,74,269,59,113,338,314,62,234,73,29,144,66,49,72,67,82,65,89,163,69,67,92,167,221,89,7,54,103,206,163,176,137,32,43,143,22,238,548,25,83,68,5,165,347,32,463,97,25,151,187,499,349,51,6,71,6,89,90,282,168,403,858,24,141,97,617,25,413,90,23,31,24,21,40,29,34,108,23,6,82,11,11,11,12,12,12,25,13,12,14,13,102,25,175,106,104,16,316,65,73,18,52,54,63,20,13,56,9,61,31,64,25,34,26,23,29,33,31,36,5,12,15,23,42,38,65,64,62,15,78,67,52,67,53,66,65,64,59,62,65,19,15,56,98,60,73,67,63,62,61,63,85,62,16,4,26,81,55,67,64,61,36,20,76,60,23,76,67,53,41,27,55,68,25,42,71,45,32,112,81,57,66,18,55,45,14,49,38,60,77,97,66,94,87,101,85,40,5,80,94,90,87,92,85,36,105,49,70,89,92,89,90,91,92,37,22,109,99,36,33,38,81,97,117,164,117,29,103,49,36,8,34,69,91,62,65,73,93,78,92,93,124,109,73,44,212,312,136,29,345,43,206,156,230,72,16,74,12,93,34,51,31,35,36,24,36,40,49,39,82,22,16,30,32,157,216,60,90,109,139,204,190,96,109,59,38,56,56,74,60,38,28,28,30,67,51,9,49,22,19,10,10,11,15,18,27,32,45,142,92,225,9,73,233,108,125,31,25,55,41,70,70,84,134,70,44,48,39,49,37,69,15,32,107,39,60,282,52,21,4,104,12,18,35,41,24,86,65,94,66,128,109,247,34,330,106,101,226,540,94,24,110,175,35,308,77,17,66,793,24,783,52,69,92,716,253,206,16,27,384,133,262,241,386,56,84,353,30,63,573,107,140,228,110,351,273,267,374,13,107,155,161,98,347,25,88,97,79,38,44,59,103,68,39,39,49,22,42,55,40,131,77,202,123,59,38,111,118,106,82,197,7,12,223,73,15,71,92,11,11,6,55,190,46,61,16,47,103,470,133,56,26,9,112,147,84,13,65,61,124,91,145,72,75,76,13,18,115,73,127,56,38,60,136,113,109,37,24,20,11,64,25,39,65,171,30,27,4,42,16,14,57,12,63,13,31,34,62,68,58,9,18,83,118,143,196,11,15,90,20,83,56,25,31,22,38,71,458,75,77,290,155,127,128,125,32,85,25,363,31,240,61,35,36,22,25,35,20,11,14,6,50,23,3,15,2,3,32,1,6,14,22,19,71,174,51,4,17,27,42,103,18,35,21,18,24,12,11,13,253,3,121,108,59,53,102,181,62,113,80,307,127,31,10,86,16,30,20,2,47,12,33,49,47,39,44,44,37,42,20,43,49,50,98,31,85,6,118,4,123,71,63,36,27,11,29,48,19,14,33,12,6,29,14,165,157],
      "delta_lng":[0,80,47,25,39,81,148,222,40,23,153,173,200,16,48,173,40,71,200,154,31,113,36,15,69,26,8,3,-7,-20,-25,-37,-66,-23,-11,-11,-12,-22,-17,-3,-16,-49,-98,-81,-89,-75,-19,-22,-76,-12,-129,-299,-13,-46,-37,-2,-92,-191,-18,-255,-57,-13,-83,-93,-232,-161,-22,-3,-35,-3,-40,-42,-131,-73,-157,-339,-9,-57,-42,-241,-10,-168,-43,-10,-18,-17,-17,-36,-29,-43,-138,-30,-7,-94,-10,-11,-10,-10,-10,-11,-18,-7,-8,-8,-8,-50,-11,-79,-42,-45,-7,-139,-24,-27,-8,-21,-15,-17,-5,-2,-11,-3,-6,-3,-2,0,1,0,4,4,7,8,8,2,3,7,8,25,23,34,37,36,9,43,38,29,38,30,37,39,39,34,36,41,14,10,40,69,45,54,51,47,46,47,48,63,47,12,4,19,59,41,51,49,46,24,17,57,42,18,56,50,38,34,23,47,60,21,36,62,38,31,97,69,48,56,13,49,38,11,41,31,39,48,61,40,59,53,61,54,23,4,50,58,56,54,56,53,22,62,31,44,54,57,54,54,57,58,22,14,67,61,22,20,24,49,62,71,103,72,19,64,32,29,8,32,62,69,50,51,57,72,62,72,73,103,67,38,19,68,95,42,9,106,13,65,47,65,15,2,10,1,19,13,26,21,29,42,38,63,81,98,89,201,42,33,50,42,179,233,65,94,112,130,169,150,73,82,44,26,43,51,92,86,71,64,75,90,232,184,33,168,71,64,32,23,26,23,27,32,31,41,133,89,211,8,69,218,100,119,26,16,30,17,20,10,12,22,14,13,14,16,22,22,45,10,24,84,31,47,224,39,17,4,83,8,10,25,26,14,45,28,44,31,54,45,91,12,124,40,38,82,190,34,9,38,63,14,159,36,5,27,309,10,308,16,12,12,68,25,18,5,6,125,47,88,80,131,18,23,69,8,14,118,25,21,43,22,66,57,54,77,3,24,33,42,25,91,6,21,20,16,2,3,-5,-20,-24,-17,-21,-32,-17,-33,-52,-43,-151,-89,-224,-136,-69,-43,-125,-133,-116,-91,-216,-8,-14,-257,-82,-17,-96,-138,-14,-15,-10,-77,-269,-62,-58,-14,-41,-66,-272,-79,-30,-14,-5,-66,-82,-51,-7,-41,-49,-121,-89,-136,-73,-69,-70,-13,-16,-110,-69,-126,-51,-30,-44,-87,-71,-68,-23,-17,-9,-11,-40,-18,-25,-44,-117,-22,-27,-4,-55,-22,-19,-88,-21,-102,-22,-48,-58,-102,-118,-97,-19,-29,-137,-190,-223,-281,-15,-26,-206,-45,-191,-136,-47,-59,-36,-49,-75,-483,-75,-84,-309,-159,-128,-129,-127,-34,-84,-25,-356,-30,-229,-63,-42,-45,-35,-45,-93,-73,-64,-78,-54,-458,-179,-23,-120,-12,-29,-247,-6,-27,-59,-71,-40,-127,-292,-92,-9,-32,-74,-123,-311,-61,-100,-66,-59,-72,-35,-27,-26,-464,-4,-223,-200,-98,-73,-146,-258,-86,-159,-96,-385,-161,-38,-14,-109,-19,-38,-26,-3,-58,-13,-40,-56,-52,-45,-40,-36,-25,-27,-10,-22,-19,-15,-14,-2,-2,0,-6,0,-3,-3,-2,-7,-4,-4,-7,-17,-9,-10,-26,-12,-2,-12,-6,-141,-67]
    }
  ]
}