{
  "code":36004,
  "name":"西鉄貝塚線",
  "symbol":"NK",
  "station_list":[
    {"code":3600401,"id":"2c722a","name":"貝塚(福岡)","name_kana":"かいづか","lat":33.632906,"lng":130.425612,"prefecture":40,"numbering":[{"index":"01"}],"lines":[36004,99906],"attr":"cool","postal_code":"812-0053","address":"福岡市東区箱崎７-１-２"},
    {"code":3600402,"id":"4081e2","name":"名島","name_kana":"なじま","lat":33.642733,"lng":130.431687,"prefecture":40,"numbering":[{"index":"02"}],"lines":[36004],"attr":"cool","postal_code":"813-0043","address":"福岡市東区名島４丁目７０番６号"},
    {"code":3600403,"id":"a8b1f2","name":"西鉄千早","name_kana":"にしてつちはや","lat":33.649199,"lng":130.440105,"prefecture":40,"numbering":[{"index":"03"}],"lines":[36004],"attr":"cool","postal_code":"813-0041","address":"福岡市東区水谷２丁目８３番２号"},
    {"code":3600404,"id":"c02014","name":"香椎宮前","name_kana":"かしいみやまえ","lat":33.65529,"lng":130.442674,"prefecture":40,"numbering":[{"index":"04"}],"lines":[36004],"attr":"cool","postal_code":"813-0013","address":"福岡市東区香椎駅前１-１-１"},
    {"code":3600405,"id":"aab36b","name":"西鉄香椎","name_kana":"にしてつかしい","lat":33.659809,"lng":130.441429,"prefecture":40,"numbering":[{"index":"05"}],"lines":[36004],"attr":"cool","postal_code":"813-0013","address":"福岡市東区香椎駅前２-１７-１"},
    {"code":3600406,"id":"b33619","name":"香椎花園前","name_kana":"かしいかえんまえ","lat":33.669924,"lng":130.434396,"prefecture":40,"numbering":[{"index":"06"}],"lines":[36004],"attr":"eco","postal_code":"813-0003","address":"福岡市東区香住ケ丘６-１-１"},
    {"code":3600407,"id":"e7991a","name":"唐の原","name_kana":"とうのはる","lat":33.680059,"lng":130.43449,"prefecture":40,"numbering":[{"index":"07"}],"lines":[36004],"attr":"eco","postal_code":"813-0001","address":"福岡市東区唐原２-２２-１０"},
    {"code":1191605,"id":"581d45","name":"和白","name_kana":"わじろ","lat":33.688888,"lng":130.429918,"prefecture":40,"numbering":[{"index":"08"}],"lines":[11916,36004],"attr":"eco","postal_code":"811-0202","address":"福岡市東区和白３丁目"},
    {"code":3600409,"id":"04c949","name":"三苫","name_kana":"みとま","lat":33.702081,"lng":130.422521,"prefecture":40,"numbering":[{"index":"09"}],"lines":[36004],"attr":"heat","postal_code":"811-0212","address":"福岡市東区美和台３-６-１"},
    {"code":3600410,"id":"08d700","name":"西鉄新宮","name_kana":"にしてつしんぐう","lat":33.714067,"lng":130.436856,"prefecture":40,"numbering":[{"index":"10"}],"lines":[36004],"attr":"heat","postal_code":"811-0112","address":"糟屋郡新宮町大字下府字浜山９２１-１"}
  ],
  "north":33.71414,
  "south":33.63072,
  "east":130.44276,
  "west":130.42253,
  "polyline_list":[
    {
      "start":"貝塚",
      "end":"西鉄新宮",
      "lat":33.63072,
      "lng":130.42536,
      "delta_lat":[0,130,36,8,57,75,152,99,36,28,30,41,43,21,151,52,69,45,26,21,13,29,36,46,103,32,55,93,284,137,69,59,147,185,67,26,28,143,14,83,82,62,62,88,17,125,79,92,40,63,101,40,22,18,45,54,57,30,27,51,69,188,332,38,68,50,44,22,105,91,70,376,24,41,22,63,222,49,67,14,12,16,26,12,12,16,18,6,13,9,14,8,15,27,100,181,51,36,48,31,17,12,14,17,24,86,80,78,167,78,26,34,68,192,141,36,18,20,42,34,25,20,34,22,9,14,9,26,3,57,54,30,42,20,36,34,51,70,38,35],
      "delta_lng":[0,26,6,1,3,-1,-17,-11,0,3,13,29,40,23,166,58,73,39,29,29,24,63,75,100,204,61,77,104,232,110,53,27,45,30,23,3,-3,-35,-4,-26,-28,-25,-29,-51,-10,-73,-53,-73,-42,-76,-134,-53,-22,-15,-27,-20,-18,-4,-1,3,9,19,34,3,0,-2,-9,-5,-26,-22,-21,-99,-10,-31,-19,-63,-226,-45,-68,-13,-13,-15,-26,-14,-19,-34,-39,-15,-26,-18,-23,-13,-18,-24,-72,-123,-34,-18,-21,-13,-4,-4,-1,-3,-3,-8,-1,-2,-1,-2,-1,-1,-1,1,5,5,3,6,19,24,20,21,40,37,27,30,32,97,6,211,169,74,87,38,71,66,90,136,74,66]
    }
  ]
}