{
  "code":36002,
  "id":"d19406",
  "name":"西鉄太宰府線",
  "name_kana":"にしてつだざいふせん",
  "station_size":3,
  "company_code":26,
  "symbol":"D",
  "station_list":[
    {"code":3600112,"id":"270f60","name":"西鉄二日市","name_kana":"にしてつふつかいち","lat":33.502192,"lng":130.517871,"prefecture":40,"numbering":[{"symbol":"T","index":"13"}],"lines":[36001,36002],"attr":"cool","postal_code":"818-0072","address":"福岡県筑紫野市二日市中央六丁目","next":[3600202,1190308,3600111,1190309,3600149],"voronoi":{"lat":33.49848,"lng":130.519359,"delta_lat":[0,-956,9035,4649,-7981],"delta_lng":[0,-7551,772,4472,8643]},"impl":true},
    {"code":3600202,"id":"5fbe8c","name":"西鉄五条","name_kana":"にしてつごじょう","lat":33.51111,"lng":130.526106,"prefecture":40,"numbering":[{"index":"01"}],"lines":[36002],"attr":"cool","postal_code":"818-0125","address":"太宰府市五条２-７-１","next":[3600113,3600111,3600112,3600149,3600203],"voronoi":{"lat":33.522657,"lng":130.517411,"delta_lat":[0,-11449,-7981,-3223,2131],"delta_lng":[0,-359,8643,13509,8912]},"impl":true},
    {"code":3600203,"id":"4c67c3","name":"太宰府","name_kana":"だざいふ","lat":33.51904,"lng":130.531406,"prefecture":40,"numbering":[{"index":"02"}],"lines":[36002],"attr":"cool","postal_code":"818-0117","address":"太宰府市宰府２-５-１","next":[1191204,3600111,1090107,3600202,3600113,1191203],"voronoi":{"lat":33.541366,"lng":130.582338,"delta_lat":[0,-5598,-13111,-20522,286,28374],"delta_lng":[0,-69053,4127,30705,8727,27571]},"impl":true}
  ],
  "north":33.51885,
  "south":33.5016,
  "east":130.53134,
  "west":130.51693,
  "polyline_list":[
    {
      "start":"西鉄二日市",
      "end":"太宰府",
      "lat":33.5016,
      "lng":130.51823,
      "delta_lat":[0,109,37,24,20,18,24,17,26,16,22,37,52,25,75,18,39,11,18,26,24,23,48,56,17,25,15,8,8,12,7,2,29,18,11,7,18,7,18,10,10,6,23,26,42,53,22,44,37,67,66,144,80,25,103],
      "delta_lng":[0,-68,-23,-17,-9,0,-9,-3,0,3,9,25,38,17,55,15,32,10,14,24,25,29,65,89,33,46,32,16,20,31,17,12,94,58,40,14,44,18,36,16,14,9,24,30,40,45,14,27,21,37,36,82,44,13,28]
    }
  ],
  "impl":true
}