{
  "code":99101,
  "name":"札幌市営地下鉄東西線",
  "color":"#FFA500",
  "symbol":"T",
  "station_list":[
    {"code":9910101,"id":"79d376","name":"宮の沢","name_kana":"みやのさわ","lat":43.089962,"lng":141.27717,"prefecture":1,"numbering":[{"index":"01"}],"lines":[99101],"attr":"cool","postal_code":"063-0051","address":"札幌市西区宮の沢１条１"},
    {"code":9910102,"id":"cb3dd3","name":"発寒南","name_kana":"はっさむみなみ","lat":43.081732,"lng":141.289312,"prefecture":1,"numbering":[{"index":"02"}],"lines":[99101],"attr":"cool","postal_code":"063-0061","address":"札幌市西区西町北７"},
    {"code":9910103,"id":"6f8603","name":"琴似(札幌市交通局)","name_kana":"ことに","lat":43.075941,"lng":141.303931,"prefecture":1,"numbering":[{"index":"03"}],"lines":[99101],"attr":"cool","postal_code":"063-0811","address":"札幌市西区琴似1条4丁目"},
    {"code":9910104,"id":"1a561a","name":"二十四軒","name_kana":"にじゅうよんけん","lat":43.070221,"lng":141.314093,"prefecture":1,"numbering":[{"index":"04"}],"lines":[99101],"attr":"cool","postal_code":"063-0801","address":"札幌市西区二十四軒１条５"},
    {"code":9910105,"id":"aee31e","name":"西２８丁目","name_kana":"にしにじゅうはっちょうめ","lat":43.060345,"lng":141.314522,"prefecture":1,"numbering":[{"index":"05"}],"lines":[99101],"attr":"cool","postal_code":"064-0824","address":"札幌市中央区北４条西２８"},
    {"code":9910106,"id":"b4b3a5","name":"円山公園","name_kana":"まるやまこうえん","lat":43.055582,"lng":141.318863,"prefecture":1,"numbering":[{"index":"06"}],"lines":[99101],"attr":"cool","postal_code":"064-0801","address":"札幌市中央区南１条西２５"},
    {"code":9910107,"id":"09d0ad","name":"西１８丁目","name_kana":"にしじゅうはっちょうめ","lat":43.057168,"lng":141.330204,"prefecture":1,"numbering":[{"index":"07"}],"lines":[99101],"attr":"cool","postal_code":"060-0042","address":"札幌市中央区大通西１８"},
    {"code":9910108,"id":"bdd430","name":"西１１丁目","name_kana":"にしじゅういっちょうめ","lat":43.058557,"lng":141.341036,"prefecture":1,"numbering":[{"index":"08"}],"lines":[99101],"attr":"cool","postal_code":"060-0042","address":"札幌市中央区大通西１１"},
    {"code":9910109,"id":"8933d6","name":"大通","name_kana":"おおどおり","lat":43.060307,"lng":141.352508,"prefecture":1,"numbering":[{"index":"09"}],"lines":[99101,99102,99103],"attr":"cool","postal_code":"060-0042","address":"札幌市中央区大通西２"},
    {"code":9910110,"id":"9ec4de","name":"バスセンター前","name_kana":"ばすせんたーまえ","lat":43.061268,"lng":141.360473,"prefecture":1,"numbering":[{"index":"10"}],"lines":[99101],"attr":"cool","postal_code":"060-0051","address":"札幌市中央区南１条東４"},
    {"code":9910111,"id":"48e341","name":"菊水","name_kana":"きくすい","lat":43.057169,"lng":141.3727,"prefecture":1,"numbering":[{"index":"11"}],"lines":[99101],"attr":"cool","postal_code":"003-0802","address":"札幌市白石区菊水２条２"},
    {"code":9910112,"id":"66cd4e","name":"東札幌","name_kana":"ひがしさっぽろ","lat":43.051614,"lng":141.384922,"prefecture":1,"numbering":[{"index":"12"}],"lines":[99101],"attr":"cool","postal_code":"003-0002","address":"札幌市白石区東札幌２条２"},
    {"code":9910113,"id":"595823","name":"白石(札幌市交通局)","name_kana":"しろいし","lat":43.046076,"lng":141.396242,"prefecture":1,"numbering":[{"index":"13"}],"lines":[99101],"attr":"cool","postal_code":"003-0002","address":"札幌市白石区東札幌2条6丁目"},
    {"code":9910114,"id":"0d316b","name":"南郷７丁目","name_kana":"なんごうななちょうめ","lat":43.040091,"lng":141.411759,"prefecture":1,"numbering":[{"index":"14"}],"lines":[99101],"attr":"cool","postal_code":"003-0022","address":"札幌市白石区南郷通７"},
    {"code":9910115,"id":"43c5b3","name":"南郷１３丁目","name_kana":"なんごうじゅうさんちょうめ","lat":43.035783,"lng":141.422697,"prefecture":1,"numbering":[{"index":"15"}],"lines":[99101],"attr":"cool","postal_code":"003-0022","address":"札幌市白石区南郷通１３"},
    {"code":9910116,"id":"12b8b8","name":"南郷１８丁目","name_kana":"なんごうじゅうはっちょうめ","lat":43.030229,"lng":141.435196,"prefecture":1,"numbering":[{"index":"16"}],"lines":[99101],"attr":"cool","postal_code":"003-0022","address":"札幌市白石区南郷通１８"},
    {"code":9910117,"id":"7327cf","name":"大谷地","name_kana":"おおやち","lat":43.028008,"lng":141.452972,"prefecture":1,"numbering":[{"index":"17"}],"lines":[99101],"attr":"cool","postal_code":"004-0041","address":"札幌市厚別区大谷地東３"},
    {"code":9910118,"id":"01812f","name":"ひばりが丘","name_kana":"ひばりがおか","lat":43.032175,"lng":141.464638,"prefecture":1,"numbering":[{"index":"18"}],"lines":[99101],"attr":"cool","postal_code":"004-0022","address":"札幌市厚別区厚別南１"},
    {"code":9910119,"id":"d08f05","name":"新さっぽろ","name_kana":"しんさっぽろ","lat":43.039141,"lng":141.473106,"prefecture":1,"numbering":[{"index":"19"}],"lines":[99101],"attr":"cool","postal_code":"004-0052","address":"札幌市厚別区厚別中央２条５"}
  ],
  "north":43.09016,
  "south":43.02697,
  "east":141.47417,
  "west":141.27679,
  "polyline_list":[
    {
      "start":"宮の沢",
      "end":"新さっぽろ",
      "lat":43.09016,
      "lng":141.27679,
      "delta_lat":[0,-127,-84,-57,-73,-98,-83,-114,-189,-76,-9,-60,-58,-16,-10,-5,-4,-7,-5,-9,-14,-9,-4,-6,-6,-20,-18,-15,-8,-13,-39,-108,-88,-79,-27,-46,-46,-53,-60,-43,-44,-24,-27,-47,-86,-17,-7,-28,-21,-25,-21,-48,-13,-12,-30,-11,-45,-53,-51,-46,-48,-49,-12,-19,-14,-15,-10,-28,-49,-41,-37,-83,-145,-52,-119,-171,-40,-12,-20,-26,-10,-11,-10,-6,-4,17,27,13,11,20,21,25,18,17,24,119,27,70,42,13,17,32,49,35,25,28,4,3,-1,-3,-9,-15,-12,-19,-21,-17,-21,-18,-50,-55,-46,-66,-46,-22,-106,-106,-19,-12,-5,-1,1,0,2,0,0,0,-15,-86,-56,-46,-19,-38,-51,-41,-46,-58,-25,-63,-26,-34,-111,-19,-2,-64,-36,-17,-11,-68,-13,-80,-96,-96,-21,-13,-45,-19,-151,-8,-65,-34,-113,-30,-31,-106,-66,-4,-75,-44,-16,-15,-60,-59,-27,-100,-93,-22,-14,-4,-30,-36,-65,-64,-96,-47,-28,-14,-4,3,14,43,72,202,57,87,71,226,9,18,25,87,34,35,73,70,140],
      "delta_lng":[0,194,122,80,103,148,126,192,313,130,15,102,105,35,28,18,16,21,23,53,84,63,29,38,28,81,59,40,16,26,69,189,155,129,43,76,79,87,99,66,78,50,57,111,210,36,12,23,16,19,5,12,3,1,-10,-6,-27,-30,-32,-27,-28,-28,-7,-8,-3,0,1,6,11,10,8,18,33,12,27,41,8,3,15,23,15,16,24,21,31,145,195,91,81,138,154,174,125,130,197,889,223,546,323,92,131,191,321,243,188,194,39,45,38,25,45,38,27,32,24,26,26,23,54,65,51,93,58,26,121,123,26,19,18,38,73,58,105,66,62,36,23,118,75,68,26,55,74,68,82,105,39,122,48,65,218,35,3,133,75,43,35,201,35,236,284,282,58,31,86,36,277,17,168,90,299,83,75,283,175,10,200,118,40,27,98,94,50,213,204,54,45,11,103,127,255,265,395,193,112,82,57,60,106,112,194,531,162,242,202,653,22,23,19,64,20,5,16,16,30]
    }
  ]
}