{
  "code":99104,
  "name":"札幌市電山鼻線",
  "symbol":"SC",
  "station_list":[
    {"code":9910401,"id":"7d8767","name":"西４丁目","name_kana":"にしよんちょうめ","lat":43.0589036,"lng":141.3521482,"prefecture":1,"numbering":[{"index":"01"}],"lines":[99104],"attr":"cool","postal_code":"060-0061","address":"札幌市中央区南１条西４"},
    {"code":9910402,"id":"e8a943","name":"西８丁目","name_kana":"にしはっちょうめ","lat":43.05812,"lng":141.346121,"prefecture":1,"numbering":[{"index":"02"}],"lines":[99104],"attr":"cool","postal_code":"060-0061","address":"札幌市中央区南１条西８"},
    {"code":9910403,"id":"63c662","name":"中央区役所前","name_kana":"ちゅうおうくやくしょまえ","lat":43.05737,"lng":141.340843,"prefecture":1,"numbering":[{"index":"03"}],"lines":[99104],"attr":"cool","postal_code":"060-0061","address":"札幌市中央区南１条西１１"},
    {"code":9910404,"id":"d75e26","name":"西１５丁目","name_kana":"にしじゅうごちょうめ","lat":43.056313,"lng":141.335151,"prefecture":1,"numbering":[{"index":"04"}],"lines":[99104],"attr":"cool","postal_code":"060-0061","address":"札幌市中央区南１条西１５"},
    {"code":9910405,"id":"2c21a0","name":"西線６条","name_kana":"にしせんろくじょう","lat":43.051352,"lng":141.335088,"prefecture":1,"numbering":[{"index":"05"}],"lines":[99104],"attr":"cool","postal_code":"064-0806","address":"札幌市中央区南６条西１５"},
    {"code":9910406,"id":"77697c","name":"西線９条旭山公園通","name_kana":"にしせんくじょうあさひやまこうえんどおり","lat":43.047897,"lng":141.33537,"prefecture":1,"numbering":[{"index":"06"}],"lines":[99104],"attr":"cool","postal_code":"064-0809","address":"札幌市中央区南９条西１５"},
    {"code":9910407,"id":"a23ce6","name":"西線１１条","name_kana":"にしせんじゅういちじょう","lat":43.044664,"lng":141.335957,"prefecture":1,"numbering":[{"index":"07"}],"lines":[99104],"attr":"cool","postal_code":"064-0811","address":"札幌市中央区南１１条西１５"},
    {"code":9910408,"id":"b94876","name":"西線１４条","name_kana":"にしせんじゅうよじょう","lat":43.040288,"lng":141.336403,"prefecture":1,"numbering":[{"index":"08"}],"lines":[99104],"attr":"cool","postal_code":"064-0914","address":"札幌市中央区南１４条西１５"},
    {"code":9910409,"id":"7e539c","name":"西線１６条","name_kana":"にしせんじゅうろくじょう","lat":43.03696,"lng":141.336857,"prefecture":1,"numbering":[{"index":"09"}],"lines":[99104],"attr":"cool","postal_code":"064-0917","address":"札幌市中央区南１７条西１５"},
    {"code":9910410,"id":"ad5a53","name":"ロープウェイ入口","name_kana":"ろーぷうぇいいりぐち","lat":43.03367,"lng":141.337287,"prefecture":1,"numbering":[{"index":"10"}],"lines":[99104],"attr":"cool","postal_code":"064-0919","address":"札幌市中央区南１９条西１５"},
    {"code":9910411,"id":"d823fa","name":"電車事業所前","name_kana":"でんしゃじぎょうしょまえ","lat":43.030512,"lng":141.337647,"prefecture":1,"numbering":[{"index":"11"}],"lines":[99104],"attr":"cool","postal_code":"064-0921","address":"札幌市中央区南２１条西１５"},
    {"code":9910412,"id":"6c78ae","name":"中央図書館前","name_kana":"ちゅうおうとしょかんまえ","lat":43.030455,"lng":141.340227,"prefecture":1,"numbering":[{"index":"12"}],"lines":[99104],"attr":"cool","postal_code":"064-0922","address":"札幌市中央区南２２条西１３"},
    {"code":9910413,"id":"586cbb","name":"石山通","name_kana":"いしやまどおり","lat":43.030706,"lng":141.344175,"prefecture":1,"numbering":[{"index":"13"}],"lines":[99104],"attr":"cool","postal_code":"064-0922","address":"札幌市中央区南２２条西１０"},
    {"code":9910414,"id":"06b531","name":"東屯田通","name_kana":"ひがしとんでんどおり","lat":43.030954,"lng":141.348261,"prefecture":1,"numbering":[{"index":"14"}],"lines":[99104],"attr":"heat","postal_code":"064-0922","address":"札幌市中央区南２２条西８"},
    {"code":9910415,"id":"5553c9","name":"幌南小学校前","name_kana":"こうなんしょうがっこうまえ","lat":43.032196,"lng":141.351814,"prefecture":1,"numbering":[{"index":"15"}],"lines":[99104],"attr":"heat","postal_code":"064-0921","address":"札幌市中央区南２１条西６"},
    {"code":9910416,"id":"9d8ded","name":"山鼻１９条","name_kana":"やまはなじゅうくじょう","lat":43.034706,"lng":141.351514,"prefecture":1,"numbering":[{"index":"16"}],"lines":[99104],"attr":"heat","postal_code":"064-0918","address":"札幌市中央区南１８条西６"},
    {"code":9910417,"id":"722998","name":"静修学園前","name_kana":"せいしゅうがくえんまえ","lat":43.038329,"lng":141.351063,"prefecture":1,"numbering":[{"index":"17"}],"lines":[99104],"attr":"heat","postal_code":"064-0916","address":"札幌市中央区南１６条西６"},
    {"code":9910418,"id":"7d4d02","name":"行啓通","name_kana":"ぎょうけいどおり","lat":43.041544,"lng":141.35072,"prefecture":1,"numbering":[{"index":"18"}],"lines":[99104],"attr":"heat","postal_code":"064-0914","address":"札幌市中央区南１４条西６"},
    {"code":9910419,"id":"cca2d5","name":"中島公園通","name_kana":"なかじまこうえんどおり","lat":43.045652,"lng":141.350269,"prefecture":1,"numbering":[{"index":"19"}],"lines":[99104],"attr":"heat","postal_code":"064-0811","address":"札幌市中央区南１１条西６"},
    {"code":9910420,"id":"87518c","name":"山鼻９条","name_kana":"やまはなくじょう","lat":43.04862,"lng":141.34973,"prefecture":1,"numbering":[{"index":"20"}],"lines":[99104],"attr":"eco","postal_code":"064-0809","address":"札幌市中央区南９条西６"},
    {"code":9910421,"id":"5137c9","name":"東本願寺前","name_kana":"ひがしほんがんじまえ","lat":43.051398,"lng":141.349454,"prefecture":1,"numbering":[{"index":"21"}],"lines":[99104],"attr":"eco","postal_code":"064-0807","address":"札幌市中央区南７条西６"},
    {"code":9910422,"id":"1532c6","name":"資生館小学校前","name_kana":"しせいかんしょうがっこうまえ","lat":43.055063,"lng":141.348984,"prefecture":1,"numbering":[{"index":"22"}],"lines":[99104],"attr":"eco","postal_code":"064-0804","address":"札幌市中央区南４条西６"},
    {"code":9910208,"id":"189aa3","name":"すすきの","name_kana":"すすきの","lat":43.05578,"lng":141.353257,"prefecture":1,"numbering":[{"index":"23"}],"lines":[99102,99104],"attr":"eco","postal_code":"064-0804","address":"札幌市中央区南４条西４"},
    {"code":9910424,"id":"a71c59","name":"狸小路","name_kana":"たぬきこうじ","lat":43.05727894,"lng":141.3529274,"prefecture":1,"numbering":[{"index":"24"}],"lines":[99104],"attr":"eco","postal_code":"060-0062","address":"北海道札幌市中央区"}
  ],
  "north":43.05896,
  "south":43.03027,
  "east":141.35326,
  "west":141.33474,
  "polyline_list":[
    {
      "start":"すすきの",
      "end":"すすきの",
      "lat":43.05564,
      "lng":141.35307,
      "delta_lat":[0,2,4,3,5,3,6,76,78,109,27,8,5,4,3,-3,-245,-48,-153,-34,-234,-44,-289,-39,-288,-47,-387,-42,-288,-48,-289,-43,-286,-46,-16,13,4,-4,0,4,25,4,29,5,17,1,4,7,76,35,236,46,280,44,292,44,379,45,265,47,223,46,293,4,7,4,1,4,9,36,8,3],
      "delta_lng":[0,5,7,3,3,1,-2,-20,-21,-27,-6,-4,-2,-8,-18,-29,-1661,-12,-42,1,26,5,37,6,34,7,51,4,36,6,38,6,36,6,2,201,63,-63,0,63,352,62,398,65,276,8,2,0,-8,-6,-29,-6,-40,-4,-41,-3,-48,-5,-33,-5,-33,-11,-73,0,2,4,5,29,58,287,62,3]
    }
  ]
}