{
  "code":99105,
  "name":"函館市電２系統",
  "color":"#FF0000",
  "station_list":[
    {"code":9910501,"id":"c96dff","name":"湯の川","name_kana":"ゆのかわ","lat":41.781073,"lng":140.789902,"prefecture":1,"numbering":[{"symbol":"DY","index":"1"}],"lines":[99105,99106],"attr":"cool","postal_code":"042-0932","address":"函館市湯川町２-１８"},
    {"code":9910502,"id":"ddae88","name":"湯の川温泉","name_kana":"ゆのかわおんせん","lat":41.780129,"lng":140.784881,"prefecture":1,"numbering":[{"symbol":"DY","index":"2"}],"lines":[99105,99106],"attr":"cool","postal_code":"042-0932","address":"函館市湯川町１-２８"},
    {"code":9910503,"id":"4b183e","name":"函館アリーナ前","name_kana":"はこだてありーなまえ","lat":41.782065,"lng":140.782006,"prefecture":1,"numbering":[{"symbol":"DY","index":"3"}],"lines":[99105,99106],"attr":"cool","postal_code":"042-0932","address":"函館市湯川町１-３２"},
    {"code":9910504,"id":"b48d30","name":"駒場車庫前","name_kana":"こまばしゃこまえ","lat":41.783265,"lng":140.779216,"prefecture":1,"numbering":[{"symbol":"DY","index":"4"}],"lines":[99105,99106],"attr":"cool","postal_code":"042-0941","address":"函館市深堀町２４番"},
    {"code":9910505,"id":"50bc3e","name":"競馬場前(北海道)","name_kana":"けいばじょうまえ","lat":41.784657,"lng":140.775268,"prefecture":1,"numbering":[{"symbol":"DY","index":"5"}],"lines":[99105,99106],"attr":"cool","postal_code":"042-0941","address":"函館市深堀町２２番"},
    {"code":9910506,"id":"3ae7b3","name":"深堀町","name_kana":"ふかぼりちょう","lat":41.787153,"lng":140.769947,"prefecture":1,"numbering":[{"symbol":"DY","index":"6"}],"lines":[99105,99106],"attr":"cool","postal_code":"042-0942","address":"函館市柏木町３５番"},
    {"code":9910507,"id":"46653a","name":"柏木町","name_kana":"かしわぎちょう","lat":41.787937,"lng":140.765226,"prefecture":1,"numbering":[{"symbol":"DY","index":"7"}],"lines":[99105,99106],"attr":"cool","postal_code":"042-0942","address":"函館市柏木町３番"},
    {"code":9910508,"id":"6141cd","name":"杉並町","name_kana":"すぎなみちょう","lat":41.788689,"lng":140.759304,"prefecture":1,"numbering":[{"symbol":"DY","index":"8"}],"lines":[99105,99106],"attr":"cool","postal_code":"040-0004","address":"函館市杉並町２１番"},
    {"code":9910509,"id":"e2391f","name":"五稜郭公園前","name_kana":"ごりょうかくこうえん","lat":41.789313,"lng":140.75175,"prefecture":1,"numbering":[{"symbol":"DY","index":"9"}],"lines":[99105,99106],"attr":"cool","postal_code":"040-0011","address":"函館市本町２５番"},
    {"code":9910510,"id":"5efc17","name":"中央病院前","name_kana":"ちゅうおうびょういんまえ","lat":41.787121,"lng":140.751021,"prefecture":1,"numbering":[{"symbol":"DY","index":"10"}],"lines":[99105,99106],"attr":"cool","postal_code":"040-0011","address":"函館市本町２番"},
    {"code":9910511,"id":"0e86e0","name":"千代台","name_kana":"ちよがだい","lat":41.784257,"lng":140.748532,"prefecture":1,"numbering":[{"symbol":"DY","index":"11"}],"lines":[99105,99106],"attr":"cool","postal_code":"040-0013","address":"函館市千代台町１６番"},
    {"code":9910512,"id":"2a9692","name":"堀川町","name_kana":"ほりかわちょう","lat":41.780433,"lng":140.74394,"prefecture":1,"numbering":[{"symbol":"DY","index":"12"}],"lines":[99105,99106],"attr":"cool","postal_code":"040-0014","address":"函館市中島町２１番"},
    {"code":9910513,"id":"f13cee","name":"昭和橋","name_kana":"しょうわばし","lat":41.778017,"lng":140.740893,"prefecture":1,"numbering":[{"symbol":"DY","index":"13"}],"lines":[99105,99106],"attr":"cool","postal_code":"040-0025","address":"函館市堀川町６番"},
    {"code":9910514,"id":"afab18","name":"千歳町(北海道)","name_kana":"ちとせちょう","lat":41.776161,"lng":140.738575,"prefecture":1,"numbering":[{"symbol":"DY","index":"14"}],"lines":[99105,99106],"attr":"heat","postal_code":"040-0032","address":"函館市新川町２３番"},
    {"code":9910515,"id":"9ab459","name":"新川町(北海道)","name_kana":"しんかわちょう","lat":41.77464,"lng":140.736601,"prefecture":1,"numbering":[{"symbol":"DY","index":"15"}],"lines":[99105,99106],"attr":"heat","postal_code":"040-0032","address":"函館市新川町１番"},
    {"code":9910516,"id":"bea3b4","name":"松風町","name_kana":"まつかぜちょう","lat":41.771296,"lng":140.733039,"prefecture":1,"numbering":[{"symbol":"DY","index":"16"}],"lines":[99105,99106],"attr":"heat","postal_code":"040-0035","address":"函館市松風町１１番"},
    {"code":9910517,"id":"e16e64","name":"函館駅前","name_kana":"はこだてえきまえ","lat":41.77264,"lng":140.727997,"prefecture":1,"numbering":[{"symbol":"DY","index":"17"}],"lines":[99105,99106],"attr":"heat","postal_code":"040-0063","address":"函館市若松町１５番"},
    {"code":9910518,"id":"348c47","name":"市役所前(北海道)","name_kana":"しやくしょまえ","lat":41.768943,"lng":140.72495,"prefecture":1,"numbering":[{"symbol":"DY","index":"18"}],"lines":[99105,99106],"attr":"heat","postal_code":"040-0064","address":"函館市大手町１１番"},
    {"code":9910519,"id":"ec60fc","name":"魚市場通","name_kana":"うおいちばどおり","lat":41.765838,"lng":140.721731,"prefecture":1,"numbering":[{"symbol":"DY","index":"19"}],"lines":[99105,99106],"attr":"eco","postal_code":"040-0065","address":"函館市豊川町２２番"},
    {"code":9910520,"id":"bb807b","name":"十字街","name_kana":"じゅうじがい","lat":41.763998,"lng":140.718513,"prefecture":1,"numbering":[{"symbol":"DY","index":"20"}],"lines":[99105,99106],"attr":"eco","postal_code":"040-0053","address":"函館市末広町９番"},
    {"code":9910521,"id":"dcc331","name":"宝来町","name_kana":"ほうらいちょう","lat":41.761085,"lng":140.7198,"prefecture":1,"numbering":[{"symbol":"Y","index":"24"}],"lines":[99105],"attr":"eco","postal_code":"040-0043","address":"函館市宝来町１０番"},
    {"code":9910522,"id":"2bf7b6","name":"青柳町","name_kana":"あおやぎちょう","lat":41.756235,"lng":140.718255,"prefecture":1,"numbering":[{"symbol":"Y","index":"25"}],"lines":[99105],"attr":"eco","postal_code":"040-0044","address":"函館市青柳町２１番"},
    {"code":9910523,"id":"4656eb","name":"谷地頭","name_kana":"やちがしら","lat":41.753273,"lng":140.71641,"prefecture":1,"numbering":[{"symbol":"Y","index":"26"}],"lines":[99105],"attr":"eco","postal_code":"040-0046","address":"函館市谷地頭町２５番"}
  ],
  "north":41.7893,
  "south":41.753,
  "east":140.79034,
  "west":140.71647,
  "polyline_list":[
    {
      "start":"谷地頭",
      "end":"湯の川",
      "lat":41.753,
      "lng":140.71647,
      "delta_lat":[0,41,67,53,13,10,11,27,18,94,35,32,73,11,24,18,26,25,19,12,15,12,9,16,10,11,93,44,94,92,95,1,14,13,2,20,16,13,9,28,19,9,27,45,14,38,31,36,63,9,38,54,39,64,71,25,34,21,41,18,38,-38,38,17,-1,-23,-17,-23,-5,-31,-13,-29,-7,-5,-5,12,39,-39,39,123,44,32,68,128,32,70,55,40,42,33,68,21,56,46,30,47,33,43,43,21,51,51,62,27,34,56,61,8,9,16,69,43,78,63,65,2,0,-6,-18,-12,-9,-8,-8,-4,-6,-10,-14,-14,-12,-9,-6,-5,-6,-4,-8,-11,-9,-9,-20,-18,-18,-21,-20,-20,-26,-27,-50,-33,-23,-20,-25,-21,-19,-19,-28,-20,-22,-25,-18,-26,-11,-23,-25,-28,-28,-28,-32,-23,-27,-7,-6,-5,-3,-1,6,12,15,27,18,12,11,13,16,4,12],
      "delta_lng":[0,16,24,18,5,4,3,14,17,103,38,38,78,12,24,15,17,13,8,7,5,3,1,-7,-8,-7,-67,-26,-53,-53,-54,6,57,44,4,53,39,25,14,43,23,11,34,56,19,42,32,38,63,7,39,50,35,57,60,21,24,17,27,10,25,-25,25,10,7,71,50,66,21,90,40,85,18,21,12,12,39,-39,39,118,52,39,86,162,38,87,68,51,54,39,87,27,71,56,40,55,37,52,49,24,65,64,78,36,45,67,73,8,5,4,14,9,21,15,17,5,13,53,163,112,125,148,96,38,58,77,112,101,97,86,67,54,88,28,63,70,42,38,67,52,46,48,47,42,56,59,113,65,46,48,65,64,53,52,71,49,53,63,45,68,25,54,51,49,43,32,28,27,44,9,17,18,19,22,31,34,36,78,59,40,23,26,38,12,48]
    }
  ]
}