{
  "code":99102,
  "name":"札幌市営地下鉄南北線",
  "color":"#008000",
  "symbol":"N",
  "station_list":[
    {"code":9910201,"id":"f5cf01","name":"麻生","name_kana":"あさぶ","lat":43.109106,"lng":141.338255,"prefecture":1,"numbering":[{"index":"01"}],"lines":[99102],"attr":"cool","postal_code":"001-0040","address":"札幌市北区北４０条西５"},
    {"code":9910202,"id":"46a178","name":"北３４条","name_kana":"きたさんじゅうよじょう","lat":43.099883,"lng":141.342028,"prefecture":1,"numbering":[{"index":"02"}],"lines":[99102],"attr":"eco","postal_code":"001-0033","address":"札幌市北区北３３条西４"},
    {"code":9910203,"id":"b76a8b","name":"北２４条","name_kana":"きたにじゅうよじょう","lat":43.089811,"lng":141.344604,"prefecture":1,"numbering":[{"index":"03"}],"lines":[99102],"attr":"eco","postal_code":"001-0023","address":"札幌市北区北２３条西４"},
    {"code":9910204,"id":"3f71e6","name":"北１８条","name_kana":"きたじゅうはちじょう","lat":43.081568,"lng":141.346686,"prefecture":1,"numbering":[{"index":"04"}],"lines":[99102],"attr":"eco","postal_code":"001-0018","address":"札幌市北区北１８条西４"},
    {"code":9910205,"id":"f2e6a8","name":"北１２条","name_kana":"きたじゅうにじょう","lat":43.074829,"lng":141.348403,"prefecture":1,"numbering":[{"index":"05"}],"lines":[99102],"attr":"eco","postal_code":"001-0012","address":"札幌市北区北１２条西４"},
    {"code":9910206,"id":"d51f40","name":"さっぽろ","name_kana":"さっぽろ","lat":43.06637,"lng":141.350299,"prefecture":1,"numbering":[{"index":"06"}],"lines":[99102,99103],"attr":"heat","postal_code":"060-0004","address":"札幌市中央区北４条西４"},
    {"code":9910109,"id":"8933d6","name":"大通","name_kana":"おおどおり","lat":43.060307,"lng":141.352508,"prefecture":1,"numbering":[{"index":"07"}],"lines":[99101,99102,99103],"attr":"cool","postal_code":"060-0042","address":"札幌市中央区大通西２"},
    {"code":9910208,"id":"189aa3","name":"すすきの","name_kana":"すすきの","lat":43.05578,"lng":141.353257,"prefecture":1,"numbering":[{"index":"08"}],"lines":[99102,99104],"attr":"eco","postal_code":"064-0804","address":"札幌市中央区南４条西４"},
    {"code":9910209,"id":"361fe9","name":"中島公園","name_kana":"なかじまこうえん","lat":43.048892,"lng":141.354913,"prefecture":1,"numbering":[{"index":"09"}],"lines":[99102],"attr":"eco","postal_code":"064-0809","address":"札幌市中央区南９条西４"},
    {"code":9910210,"id":"d553e7","name":"幌平橋","name_kana":"ほろひらばし","lat":43.040073,"lng":141.355886,"prefecture":1,"numbering":[{"index":"10"}],"lines":[99102],"attr":"eco","postal_code":"064-0915","address":"札幌市中央区南１５条西４"},
    {"code":9910211,"id":"92821d","name":"中の島","name_kana":"なかのしま","lat":43.037727,"lng":141.360758,"prefecture":1,"numbering":[{"index":"11"}],"lines":[99102],"attr":"eco","postal_code":"062-0921","address":"札幌市豊平区中の島１条１"},
    {"code":9910212,"id":"9dea21","name":"平岸(札幌市交通局)","name_kana":"ひらぎし","lat":43.034666,"lng":141.36853,"prefecture":1,"numbering":[{"index":"12"}],"lines":[99102],"attr":"eco","postal_code":"062-0932","address":"札幌市豊平区平岸2条7丁目"},
    {"code":9910213,"id":"bbe971","name":"南平岸","name_kana":"みなみひらぎし","lat":43.026842,"lng":141.371355,"prefecture":1,"numbering":[{"index":"13"}],"lines":[99102],"attr":"eco","postal_code":"062-0934","address":"札幌市豊平区平岸４条１３"},
    {"code":9910214,"id":"100e8b","name":"澄川","name_kana":"すみかわ","lat":43.016845,"lng":141.367308,"prefecture":1,"numbering":[{"index":"14"}],"lines":[99102],"attr":"eco","postal_code":"005-0004","address":"札幌市南区澄川４条２"},
    {"code":9910215,"id":"f4149c","name":"自衛隊前","name_kana":"じえいたいまえ","lat":43.006038,"lng":141.364776,"prefecture":1,"numbering":[{"index":"15"}],"lines":[99102],"attr":"eco","postal_code":"005-0004","address":"札幌市南区澄川４条７"},
    {"code":9910216,"id":"6942f5","name":"真駒内","name_kana":"まこまない","lat":42.991134,"lng":141.358499,"prefecture":1,"numbering":[{"index":"16"}],"lines":[99102],"attr":"eco","postal_code":"005-0008","address":"札幌市南区真駒内１７"}
  ],
  "north":43.10897,
  "south":42.987,
  "east":141.37273,
  "west":141.33831,
  "polyline_list":[
    {
      "start":"真駒内",
      "end":"麻生",
      "lat":42.987,
      "lng":141.35797,
      "delta_lat":[0,362,112,85,323,54,49,40,112,160,101,147,48,29,39,57,35,28,72,95,172,113,64,67,58,62,103,99,148,47,54,95,44,44,52,40,13,19,48,60,61,33,31,28,30,22,21,19,172,15,16,21,20,27,20,28,38,80,260,87,183,26,24,24,23,21,16,16,14,10,3,4,4,4,1,20,5,12,21,40,46,27,42,31,16,66,44,22,26,14,20,23,32,24,78,15,32,55,29,34,60,46,57,266,60,34,40,117,560,128,344,69,56,126,109,108,120,120,72,82,43,65,61,58,67,56,69,57,60,83,102,26,61,60,163,53,61,127,46,93,34,101,138,94,326,114,882,55,111,515,24,39,19,19,31,19,20,19,126],
      "delta_lng":[0,50,15,13,52,11,22,24,68,109,71,103,32,18,23,25,14,9,22,27,45,27,14,13,12,13,22,21,35,9,12,15,8,6,4,4,1,1,-1,0,0,3,5,7,10,10,16,19,200,15,14,18,9,15,7,9,8,18,59,18,44,2,-3,-10,-18,-18,-23,-24,-24,-21,-43,-55,-64,-48,-14,-140,-20,-40,-54,-104,-111,-65,-98,-64,-35,-114,-76,-54,-70,-46,-46,-45,-62,-39,-82,-8,-22,-32,-14,-12,-1,0,7,45,12,5,-5,-24,-142,-29,-92,-18,-14,-32,-26,-27,-31,-31,-18,-19,-10,-16,-12,-15,-15,-15,-18,-15,-15,-21,-26,-5,-16,-15,-41,-13,-17,-31,-11,-23,-8,-22,-31,-20,-88,-26,-228,-15,-26,-129,-10,-22,-27,-30,-57,-32,-18,-10,-34]
    }
  ]
}