{
  "code":99105,
  "id":"4a31cb",
  "name":"函館市電２系統",
  "name_kana":"はこだてしでんにけいとう",
  "station_size":23,
  "company_code":102,
  "color":"#FF0000",
  "station_list":[
    {"code":9910501,"id":"c96dff","name":"湯の川","name_kana":"ゆのかわ","lat":41.781073,"lng":140.789902,"prefecture":1,"numbering":[{"symbol":"DY","index":"1"}],"lines":[99105,99106],"attr":"cool","postal_code":"042-0932","address":"函館市湯川町２-１８","next":[1120310,9910503,1120311,1110103,9910523,1110117,9910506,1110417,9910502,9910504],"voronoi":{"lat":41.800666,"lng":140.788353,"delta_lat":[0,-15094,-211606,-120503,200812,205326,88047,-19180,-66286,-27512],"delta_lng":[0,-1897,39785,45583,270396,255738,-235925,-293587,-64736,-8382]}},
    {"code":9910502,"id":"ddae88","name":"湯の川温泉","name_kana":"ゆのかわおんせん","lat":41.780129,"lng":140.784881,"prefecture":1,"numbering":[{"symbol":"DY","index":"2"}],"lines":[99105,99106],"attr":"cool","postal_code":"042-0932","address":"函館市湯川町１-２８","next":[9910513,9910503,9910505,9910514,9910516,9910504,9910501,9910523],"voronoi":{"lat":41.785572,"lng":140.786457,"delta_lat":[0,-18889,-12871,-4840,-2770,-5633,-18268,-148335],"delta_lng":[0,-12720,-7125,-2279,133,482,3113,58181]}},
    {"code":9910503,"id":"4b183e","name":"函館アリーナ前","name_kana":"はこだてありーなまえ","lat":41.782065,"lng":140.782006,"prefecture":1,"numbering":[{"symbol":"DY","index":"3"}],"lines":[99105,99106],"attr":"cool","postal_code":"042-0932","address":"函館市湯川町１-３２","next":[9910502,9910501,9910504],"voronoi":{"lat":41.766682,"lng":140.773737,"delta_lat":[0,18889,15094],"delta_lng":[0,12720,1897]}},
    {"code":9910504,"id":"b48d30","name":"駒場車庫前","name_kana":"こまばしゃこまえ","lat":41.783265,"lng":140.779216,"prefecture":1,"numbering":[{"symbol":"DY","index":"4"}],"lines":[99105,99106],"attr":"cool","postal_code":"042-0941","address":"函館市深堀町２４番","next":[9910506,9910505,9910502,9910501,9910503],"voronoi":{"lat":41.766682,"lng":140.773737,"delta_lat":[0,-12871,77758,3100,-34004],"delta_lng":[0,-7125,27416,1301,-6975]}},
    {"code":9910505,"id":"50bc3e","name":"競馬場前(北海道)","name_kana":"けいばじょうまえ","lat":41.784657,"lng":140.775268,"prefecture":1,"numbering":[{"symbol":"DY","index":"5"}],"lines":[99105,99106],"attr":"cool","postal_code":"042-0941","address":"函館市深堀町２２番","next":[9910507,9910502,9910506,9910504,9910512,9910513],"voronoi":{"lat":41.752427,"lng":140.763665,"delta_lat":[0,9709,6300,63133,-77758,-4840],"delta_lng":[0,-1309,2058,29614,-27416,-2279]}},
    {"code":9910506,"id":"3ae7b3","name":"深堀町","name_kana":"ふかぼりちょう","lat":41.787153,"lng":140.769947,"prefecture":1,"numbering":[{"symbol":"DY","index":"6"}],"lines":[99105,99106],"attr":"cool","postal_code":"042-0942","address":"函館市柏木町３５番","next":[9910504,1110103,9910507,9910505,9910501],"voronoi":{"lat":41.840527,"lng":140.776385,"delta_lat":[0,-72091,63133,3100,27512],"delta_lng":[0,-11972,29614,1301,8382]}},
    {"code":9910507,"id":"46653a","name":"柏木町","name_kana":"かしわぎちょう","lat":41.787937,"lng":140.765226,"prefecture":1,"numbering":[{"symbol":"DY","index":"7"}],"lines":[99105,99106],"attr":"cool","postal_code":"042-0942","address":"函館市柏木町３番","next":[9910511,9910505,1110103,9910506,9910512,9910508,1110102],"voronoi":{"lat":41.833528,"lng":140.768007,"delta_lat":[0,-62124,-7792,-1476,6300,72091,-5529],"delta_lng":[0,-7889,1718,520,2058,11972,-7654]}},
    {"code":9910508,"id":"6141cd","name":"杉並町","name_kana":"すぎなみちょう","lat":41.788689,"lng":140.759304,"prefecture":1,"numbering":[{"symbol":"DY","index":"8"}],"lines":[99105,99106],"attr":"cool","postal_code":"040-0004","address":"函館市杉並町２１番","next":[9910510,9910507,9910511,1110102,9910509],"voronoi":{"lat":41.786897,"lng":140.755353,"delta_lat":[0,-7247,-8246,62124,-17801],"delta_lng":[0,1372,3392,7889,-10272]}},
    {"code":9910509,"id":"e2391f","name":"五稜郭公園前","name_kana":"ごりょうかくこうえん","lat":41.789313,"lng":140.75175,"prefecture":1,"numbering":[{"symbol":"DY","index":"9"}],"lines":[99105,99106],"attr":"cool","postal_code":"040-0011","address":"函館市本町２５番","next":[9910511,9910510,9910508,1110102],"voronoi":{"lat":41.793178,"lng":140.740097,"delta_lat":[0,-2527,-3753,28830],"delta_lng":[0,3970,11287,2381]}},
    {"code":9910510,"id":"5efc17","name":"中央病院前","name_kana":"ちゅうおうびょういんまえ","lat":41.787121,"lng":140.751021,"prefecture":1,"numbering":[{"symbol":"DY","index":"10"}],"lines":[99105,99106],"attr":"cool","postal_code":"040-0011","address":"函館市本町２番","next":[9910508,9910511,9910509],"voronoi":{"lat":41.77965,"lng":140.756725,"delta_lat":[0,11000,-3753],"delta_lng":[0,-12659,11287]}},
    {"code":9910511,"id":"0e86e0","name":"千代台","name_kana":"ちよがだい","lat":41.784257,"lng":140.748532,"prefecture":1,"numbering":[{"symbol":"DY","index":"11"}],"lines":[99105,99106],"attr":"cool","postal_code":"040-0013","address":"函館市千代台町１６番","next":[9910507,1110102,9910512,9910510,9910509,9910508],"voronoi":{"lat":41.763613,"lng":140.761835,"delta_lat":[0,28206,1359,-2527,-11000,-8246],"delta_lng":[0,-23489,1750,3970,12659,3392]}},
    {"code":9910512,"id":"2a9692","name":"堀川町","name_kana":"ほりかわちょう","lat":41.780433,"lng":140.74394,"prefecture":1,"numbering":[{"symbol":"DY","index":"12"}],"lines":[99105,99106],"attr":"cool","postal_code":"040-0014","address":"函館市中島町２１番","next":[9910511,9910513,1110102,9910507,9910505],"voronoi":{"lat":41.789857,"lng":140.733986,"delta_lat":[0,1961,-28206,-1476,-9709],"delta_lng":[0,4360,23489,520,1309]}},
    {"code":9910513,"id":"f13cee","name":"昭和橋","name_kana":"しょうわばし","lat":41.778017,"lng":140.740893,"prefecture":1,"numbering":[{"symbol":"DY","index":"13"}],"lines":[99105,99106],"attr":"cool","postal_code":"040-0025","address":"函館市堀川町６番","next":[9910502,1110102,9910512,9910505,9910514],"voronoi":{"lat":41.78881,"lng":140.730349,"delta_lat":[0,1048,-37430,-3456,-2770],"delta_lng":[0,3637,29678,668,133]}},
    {"code":9910514,"id":"afab18","name":"千歳町(北海道)","name_kana":"ちとせちょう","lat":41.776161,"lng":140.738575,"prefecture":1,"numbering":[{"symbol":"DY","index":"14"}],"lines":[99105,99106],"attr":"heat","postal_code":"040-0032","address":"函館市新川町２３番","next":[9910516,1110101,9910515,9910502,9910513,1110102],"voronoi":{"lat":41.788694,"lng":140.72972,"delta_lat":[0,-4175,-39138,-4813,5633,42608],"delta_lng":[0,841,30157,4229,-482,-34116]}},
    {"code":9910515,"id":"9ab459","name":"新川町(北海道)","name_kana":"しんかわちょう","lat":41.77464,"lng":140.736601,"prefecture":1,"numbering":[{"symbol":"DY","index":"15"}],"lines":[99105,99106],"attr":"heat","postal_code":"040-0032","address":"函館市新川町１番","next":[9910517,9910514,9910516,1110101],"voronoi":{"lat":41.776316,"lng":140.731677,"delta_lat":[0,-30934,39138,-5611],"delta_lng":[0,29042,-30157,513]}},
    {"code":9910516,"id":"bea3b4","name":"松風町","name_kana":"まつかぜちょう","lat":41.771296,"lng":140.733039,"prefecture":1,"numbering":[{"symbol":"DY","index":"16"}],"lines":[99105,99106],"attr":"heat","postal_code":"040-0035","address":"函館市松風町１１番","next":[9910523,9910514,9910521,9910517,9910502,9910518,9910515,9910522],"voronoi":{"lat":41.7223,"lng":140.768061,"delta_lat":[0,18268,4813,30934,-8045,-9819,-5366,-28151],"delta_lng":[0,-3113,-4229,-29042,-2144,2856,4139,28678]}},
    {"code":9910517,"id":"e16e64","name":"函館駅前","name_kana":"はこだてえきまえ","lat":41.77264,"lng":140.727997,"prefecture":1,"numbering":[{"symbol":"DY","index":"17"}],"lines":[99105,99106],"attr":"heat","postal_code":"040-0063","address":"函館市若松町１５番","next":[9910515,9910518,9910516,1110101],"voronoi":{"lat":41.776316,"lng":140.731677,"delta_lat":[0,-8045,2985,7653],"delta_lng":[0,-2144,-3622,5164]}},
    {"code":9910518,"id":"348c47","name":"市役所前(北海道)","name_kana":"しやくしょまえ","lat":41.768943,"lng":140.72495,"prefecture":1,"numbering":[{"symbol":"DY","index":"18"}],"lines":[99105,99106],"attr":"heat","postal_code":"040-0064","address":"函館市大手町１１番","next":[9910621,9910517,1110101,9910516,9910521,9910519],"voronoi":{"lat":41.758451,"lng":140.732389,"delta_lat":[0,9819,2985,2574,-494,-14126],"delta_lng":[0,-2856,-3622,-8383,78,13626]}},
    {"code":9910519,"id":"ec60fc","name":"魚市場通","name_kana":"うおいちばどおり","lat":41.765838,"lng":140.721731,"prefecture":1,"numbering":[{"symbol":"DY","index":"19"}],"lines":[99105,99106],"attr":"eco","postal_code":"040-0065","address":"函館市豊川町２２番","next":[9910521,9910520,9910518,9910621],"voronoi":{"lat":41.769951,"lng":140.717244,"delta_lat":[0,-6590,-4152,14126],"delta_lng":[0,3769,10219,-13626]}},
    {"code":9910520,"id":"bb807b","name":"十字街","name_kana":"じゅうじがい","lat":41.763998,"lng":140.718513,"prefecture":1,"numbering":[{"symbol":"DY","index":"20"}],"lines":[99105,99106],"attr":"eco","postal_code":"040-0053","address":"函館市末広町９番","next":[9910521,9910522,9910621,9910519],"voronoi":{"lat":41.769951,"lng":140.717244,"delta_lat":[0,-9655,-34,3099],"delta_lng":[0,-4263,1017,7015]}},
    {"code":9910521,"id":"dcc331","name":"宝来町","name_kana":"ほうらいちょう","lat":41.761085,"lng":140.7198,"prefecture":1,"numbering":[{"symbol":"Y","index":"24"}],"lines":[99105],"attr":"eco","postal_code":"040-0043","address":"函館市宝来町１０番","next":[9910520,9910522,9910516,9910519,9910518],"voronoi":{"lat":41.753085,"lng":140.736527,"delta_lat":[0,7177,3099,-4152,-758],"delta_lng":[0,-22530,7015,10219,1157]}},
    {"code":9910522,"id":"2bf7b6","name":"青柳町","name_kana":"あおやぎちょう","lat":41.756235,"lng":140.718255,"prefecture":1,"numbering":[{"symbol":"Y","index":"25"}],"lines":[99105],"attr":"eco","postal_code":"040-0044","address":"函館市青柳町２１番","next":[9910621,9910521,9910523,9910520,9910516],"voronoi":{"lat":41.758921,"lng":140.710643,"delta_lat":[0,1376,-34,-7177,-28151],"delta_lng":[0,2337,1017,22530,28678]}},
    {"code":9910523,"id":"4656eb","name":"谷地頭","name_kana":"やちがしら","lat":41.753273,"lng":140.71641,"prefecture":1,"numbering":[{"symbol":"Y","index":"26"}],"lines":[99105],"attr":"eco","postal_code":"040-0046","address":"函館市谷地頭町２５番","next":[9910516,9910623,9910621,9910522,1120516,1120515,1120311,9910501,1111913,1111915,1111914,9910502],"voronoi":{"lat":41.453463,"lng":140.871824,"delta_lat":[0,-63361,24966,14865,104585,171695,23137,24592,4979,-33986,-2634,-148335],"delta_lng":[0,-67284,-70550,-37730,-23994,-19963,2662,40354,15324,54562,2855,58181]}}
  ],
  "north":41.7893,
  "south":41.753,
  "east":140.79034,
  "west":140.71647,
  "polyline_list":[
    {
      "start":"谷地頭",
      "end":"湯の川",
      "lat":41.753,
      "lng":140.71647,
      "delta_lat":[0,41,67,53,13,10,11,27,18,94,35,32,73,11,24,18,26,25,19,12,15,12,9,16,10,11,93,44,94,92,95,1,14,13,2,20,16,13,9,28,19,9,27,45,14,38,31,36,63,9,38,54,39,64,71,25,34,21,41,18,38,-38,38,17,-1,-23,-17,-23,-5,-31,-13,-29,-7,-5,-5,12,39,-39,39,123,44,32,68,128,32,70,55,40,42,33,68,21,56,46,30,47,33,43,43,21,51,51,62,27,34,56,61,8,9,16,69,43,78,63,65,2,0,-6,-18,-12,-9,-8,-8,-4,-6,-10,-14,-14,-12,-9,-6,-5,-6,-4,-8,-11,-9,-9,-20,-18,-18,-21,-20,-20,-26,-27,-50,-33,-23,-20,-25,-21,-19,-19,-28,-20,-22,-25,-18,-26,-11,-23,-25,-28,-28,-28,-32,-23,-27,-7,-6,-5,-3,-1,6,12,15,27,18,12,11,13,16,4,12],
      "delta_lng":[0,16,24,18,5,4,3,14,17,103,38,38,78,12,24,15,17,13,8,7,5,3,1,-7,-8,-7,-67,-26,-53,-53,-54,6,57,44,4,53,39,25,14,43,23,11,34,56,19,42,32,38,63,7,39,50,35,57,60,21,24,17,27,10,25,-25,25,10,7,71,50,66,21,90,40,85,18,21,12,12,39,-39,39,118,52,39,86,162,38,87,68,51,54,39,87,27,71,56,40,55,37,52,49,24,65,64,78,36,45,67,73,8,5,4,14,9,21,15,17,5,13,53,163,112,125,148,96,38,58,77,112,101,97,86,67,54,88,28,63,70,42,38,67,52,46,48,47,42,56,59,113,65,46,48,65,64,53,52,71,49,53,63,45,68,25,54,51,49,43,32,28,27,44,9,17,18,19,22,31,34,36,78,59,40,23,26,38,12,48]
    }
  ]
}