{
  "code":99114,
  "id":"323c43",
  "name":"北海道拓殖鉄道",
  "name_kana":"ほっかいどうたくしょくてつどう",
  "name_formal":"北海道拓殖鉄道",
  "station_size":15,
  "closed":true,
  "station_list":[
    {"code":1110618,"id":"3ff7e5","name":"新得","name_kana":"しんとく","lat":43.082501,"lng":142.832432,"prefecture":1,"lines":[11106,11107,11110,99114],"attr":"cool","postal_code":"081-0005","address":"上川郡新得町本通北１丁目","next":[9911404,9911402,1110617,9911403],"voronoi":{"lat":43.088217,"lng":142.860189,"delta_lat":[0,-60772,345785,-268722],"delta_lng":[0,-129310,90092,45336]},"impl":true},
    {"code":9911402,"id":"65c07b","name":"南新得","name_kana":"みなみしんとく","closed":true,"lat":43.070494,"lng":142.838075,"prefecture":1,"lines":[99114],"postal_code":"081-0038","address":"北海道上川郡新得町字新得","open_date":"1928-12-15","closed_date":"1968-10-01","next":[1110702,1110617,9911403,1110618,1111014],"voronoi":{"lat":43.038243,"lng":142.854011,"delta_lat":[0,49974,-60772,-10536,-66660],"delta_lng":[0,6178,-129310,-3402,4280]},"impl":false},
    {"code":9911403,"id":"44e227","name":"佐幌","name_kana":"さほろ","closed":true,"lat":43.065642,"lng":142.877322,"prefecture":1,"lines":[99114],"postal_code":"089-0102","address":"北海道上川郡清水町字下佐幌","open_date":"1932-11-15","closed_date":"1968-10-01","next":[9911402,1110702,9911404,9911405,1110618],"voronoi":{"lat":43.057021,"lng":142.915452,"delta_lat":[0,-15975,-2804,49974,16291],"delta_lng":[0,5401,-66842,6178,6118]},"impl":false},
    {"code":9911404,"id":"9bf4c2","name":"屈足","name_kana":"くったり","closed":true,"lat":43.094833,"lng":142.905528,"prefecture":1,"lines":[99114],"postal_code":"081-0155","address":"北海道上川郡新得町屈足幸町４丁目","open_date":"1928-12-15","closed_date":"1968-10-01","next":[9911411,9911403,1110618,9911409,9911405,9911410,1110617],"voronoi":{"lat":43.280505,"lng":142.877331,"delta_lat":[0,-120434,-4388,-98661,47486,268722,2709],"delta_lng":[0,58514,1650,-22042,-49145,-45336,346]},"impl":false},
    {"code":9911405,"id":"6318a5","name":"熊牛","name_kana":"くまうし","closed":true,"lat":43.087014,"lng":142.940525,"prefecture":1,"lines":[99114],"postal_code":"089-0241","address":"北海道上川郡清水町字熊牛","closed_date":"1968-10-01","next":[1110702,9911409,9911407,9911404,9911403,9911406],"voronoi":{"lat":43.130986,"lng":142.955263,"delta_lat":[0,24696,-98661,-15975,-15718,91490],"delta_lng":[0,-17768,-22042,5401,19103,18752]},"impl":false},
    {"code":9911406,"id":"21d6aa","name":"新幌内","name_kana":"しんほろない","closed":true,"lat":43.082264,"lng":142.9637,"prefecture":1,"lines":[99114],"postal_code":"081-0227","address":"北海道河東郡鹿追町幌内西２２線２４","open_date":"1932-11-15","closed_date":"1968-10-01","next":[1110704,1110705,1110703,1110702,9911407,9911405],"voronoi":{"lat":43.025329,"lng":142.939956,"delta_lat":[0,-12253,-1425,-12001,8489,108680],"delta_lng":[0,10099,3117,60025,17366,-71855]},"impl":false},
    {"code":9911407,"id":"1059fa","name":"中鹿追","name_kana":"なかしかおい","closed":true,"lat":43.098692,"lng":142.988547,"prefecture":1,"lines":[99114],"postal_code":"081-0222","address":"北海道河東郡鹿追町東町１丁目１５−１","closed_date":"1968-10-01","next":[9911409,1110705,9911405,1010704,9911406,1110706,9911408],"voronoi":{"lat":43.028393,"lng":143.07643,"delta_lat":[0,-19968,-287,108680,14168,-848,-96969],"delta_lng":[0,-44957,-910,-71855,-3446,2091,120310]},"impl":false},
    {"code":9911408,"id":"84212c","name":"鹿追","name_kana":"しかおい","closed":true,"lat":43.106336,"lng":142.994708,"prefecture":1,"lines":[99114],"postal_code":"081-0201","address":"北海道河東郡鹿追町新町３丁目５７","open_date":"1928-12-15","closed_date":"1968-10-01","next":[1010704,9911409,9911412,9911413,9911407],"voronoi":{"lat":43.064167,"lng":143.087152,"delta_lat":[0,8604,27523,29845,-96969],"delta_lng":[0,-4318,-19350,-106131,120310]},"impl":false},
    {"code":9911409,"id":"789af5","name":"北笹川","name_kana":"きたささかわ","closed":true,"lat":43.130983,"lng":143.001639,"prefecture":1,"lines":[99114],"postal_code":"081-0204","address":"北海道河東郡鹿追町笹川北９線９−１８","open_date":"1936-12-15","next":[9911408,9911410,9911412,9911411,9911404,9911407,9911405],"voronoi":{"lat":43.130139,"lng":142.957354,"delta_lat":[0,-29845,19087,1476,39214,-4388,-24696],"delta_lng":[0,106131,-8668,-2110,-116862,1650,17768]},"impl":false},
    {"code":9911410,"id":"45ce0f","name":"自衛隊前(北海道拓殖鉄道)","original_name":"自衛隊前","name_kana":"じえいたいまえ","closed":true,"lat":43.143583,"lng":143.005867,"prefecture":1,"lines":[99114],"postal_code":"081-0204","address":"北海道河東郡鹿追町笹川","closed_date":"1968-10-01","next":[9911409,9911411,9911404],"voronoi":{"lat":43.120856,"lng":143.052707,"delta_lat":[0,159648,-120434],"delta_lng":[0,-175376,58514]},"impl":false},
    {"code":9911411,"id":"be7f14","name":"瓜幕","name_kana":"うりまく","closed":true,"lat":43.165361,"lng":143.025692,"prefecture":1,"lines":[99114],"postal_code":"081-0342","address":"北海道河東郡鹿追町瓜幕東１丁目２７","open_date":"1929-11-26","closed_date":"1968-10-01","next":[9911404,9911409,1010715,9911410,1110617,9911412,1010716],"voronoi":{"lat":43.424888,"lng":142.815785,"delta_lat":[0,-48950,-95434,-159648,-1476,200666,7183],"delta_lng":[0,5532,56013,175376,2110,-6141,-8323]},"impl":false},
    {"code":9911412,"id":"db7d13","name":"中瓜幕","name_kana":"なかうりまく","closed":true,"lat":43.167056,"lng":143.081075,"prefecture":1,"lines":[99114],"postal_code":"081-0346","address":"北海道河東郡鹿追町東瓜幕西１９線","open_date":"1932-11-15","closed_date":"1967-10-01","next":[9911413,9911409,1010715,9911408,9911411],"voronoi":{"lat":43.100293,"lng":143.063484,"delta_lat":[0,-27523,210916,36360,-200666],"delta_lng":[0,19350,27349,-61508,6141]},"impl":false},
    {"code":9911413,"id":"dce1cc","name":"東瓜幕","name_kana":"ひがしうりまく","closed":true,"lat":43.163489,"lng":143.108583,"prefecture":1,"lines":[99114],"postal_code":"081-0346","address":"北海道河東郡鹿追町東瓜幕","open_date":"1929-11-26","closed_date":"1967-10-01","next":[9911412,1010707,1010705,1010715,1010706,9911414,9911408,1010704],"voronoi":{"lat":43.064167,"lng":143.087152,"delta_lat":[0,8604,210916,-14516,-140189,-1855,-12686,-5821],"delta_lng":[0,-4318,27349,32661,23497,-493,-7249,-5919]},"impl":false},
    {"code":9911414,"id":"e17b39","name":"中音更","name_kana":"なかおとふけ","closed":true,"lat":43.180436,"lng":143.209692,"prefecture":1,"lines":[99114],"postal_code":"080-1273","address":"北海道河東郡士幌町字中音更","open_date":"1929-11-26","closed_date":"1949-09-01","next":[1010709,1010708,1010710,1010707,9911413,1010715],"voronoi":{"lat":43.248498,"lng":143.222503,"delta_lat":[0,-57106,-36425,-25986,140189,3954],"delta_lng":[0,15962,-17631,-54493,-23497,64387]},"impl":false},
    {"code":1010710,"id":"eb8854","name":"上士幌","name_kana":"かみしほろ","closed":true,"lat":43.229722,"lng":143.289167,"prefecture":1,"lines":[10107,99114],"postal_code":"080-1408","address":"北海道河東郡上士幌町字上士幌東２線２３４−４","open_date":"1926-07-10","closed_date":"1987-03-23","next":[1010709,1010711,9910910,9911414,9910904,9910905,1010715,1010714],"voronoi":{"lat":43.275239,"lng":143.210391,"delta_lat":[0,-2115,-24626,-103961,36543,1627,31173,63069],"delta_lng":[0,-3160,15272,166901,30512,972,-1768,-203079]},"impl":false}
  ],
  "closed_date":"1968-10-01",
  "impl":false
}