{
  "code":99110,
  "id":"9ca86d",
  "name":"定山渓鉄道線",
  "name_kana":"じょうざんけいてつどうせん",
  "name_formal":"定山渓鉄道線",
  "station_size":20,
  "closed":true,
  "station_list":[
    {"code":1110317,"id":"e3ad39","name":"白石(JR)","original_name":"白石","name_kana":"しろいし","lat":43.054715,"lng":141.413612,"prefecture":1,"lines":[11103,11109,99110],"attr":"eco","postal_code":"003-0029","address":"札幌市白石区平和通3丁目北6","open_date":"1903-04-21","next":[9910303,9910114,1110920,1110916,9910113,9910304,9910115,1111210,1110919,1111211],"voronoi":{"lat":43.048566,"lng":141.425067,"delta_lat":[0,-2162,1574,2223,12327,13061,23272,8837,301,58],"delta_lng":[0,-4503,-12422,-3118,-6131,271,16394,8337,1995,18145]},"impl":true},
    {"code":1110920,"id":"d5ac3f","name":"東札幌(国鉄)","original_name":"東札幌","name_kana":"ひがしさっぽろ","closed":true,"lat":43.055333,"lng":141.383861,"prefecture":1,"lines":[11109,99110],"postal_code":"003-0004","address":"北海道札幌市白石区東札幌３条１丁目１-１","open_date":"1926-08-21","closed_date":"1986-11-01","next":[1110317,9910113,9910112,9910111,9911003,1110316,9910304],"voronoi":{"lat":43.073596,"lng":141.393359,"delta_lat":[0,-11313,-8321,-1883,4198,6252,13061],"delta_lng":[0,-14086,-1369,1599,14715,4675,271]},"impl":false},
    {"code":9911003,"id":"78e308","name":"豊平","name_kana":"とよひら","closed":true,"lat":43.048306,"lng":141.375583,"prefecture":1,"lines":[99110],"postal_code":"062-0904","address":"北海道札幌市豊平区豊平４条９丁目１-１","open_date":"1918-10-18","closed_date":"1969-11-01","next":[9910310,9910111,9910311,1110920,9910112],"voronoi":{"lat":43.052079,"lng":141.379502,"delta_lat":[0,1883,-1987,-7371,1381],"delta_lng":[0,-1599,-6108,974,8891]},"impl":false},
    {"code":9910214,"id":"100e8b","name":"澄川","name_kana":"すみかわ","lat":43.016845,"lng":141.367308,"prefecture":1,"lines":[99102,99110],"attr":"eco","postal_code":"005-0004","address":"札幌市南区澄川４条２","next":[9910213,9911005,9910414,9910314,9910415],"voronoi":{"lat":43.015199,"lng":141.385745,"delta_lat":[0,-6771,8034,2793,6177],"delta_lng":[0,904,-34373,2069,6120]},"impl":true},
    {"code":9911005,"id":"b730c8","name":"慈恵学園","name_kana":"じけいがくえん","closed":true,"lat":43.009456,"lng":141.365581,"prefecture":1,"lines":[99110],"postal_code":"005-0004","address":"北海道札幌市南区澄川４条６丁目１-１","open_date":"1959-04-01","closed_date":"1969-11-01","next":[9910215,9910314,9910214,9911006,9910413,9910414],"voronoi":{"lat":43.012479,"lng":141.347332,"delta_lat":[0,-290,-486,-9487,6212,8034],"delta_lng":[0,-288,1337,40281,-2013,-34373]},"impl":false},
    {"code":9911006,"id":"7887bf","name":"真駒内(定山渓鉄道線)","original_name":"真駒内","name_kana":"まこまない","closed":true,"lat":43.002371,"lng":141.363003,"prefecture":1,"lines":[99110],"postal_code":"005-0861","address":"北海道札幌市南区真駒内６１１−１","open_date":"1920-04-01","closed_date":"1969-11-01","next":[9910413,9910412,9910215,9911007,9910216,9911005,9910314],"voronoi":{"lat":42.983917,"lng":141.392774,"delta_lat":[0,21789,4141,2342,-486,-21921,-7491],"delta_lng":[0,-54361,5107,3524,1337,45336,3596]},"impl":false},
    {"code":9911007,"id":"58be7b","name":"緑ヶ丘","name_kana":"みどりがおか","closed":true,"lat":42.988556,"lng":141.358056,"prefecture":1,"lines":[99110],"postal_code":"005-0015","address":"北海道札幌市南区真駒内泉町４丁目１-１","open_date":"1961-04-15","closed_date":"1969-11-01","next":[9911008,9911006,9910314,1110918,1110914,1110911,9910216],"voronoi":{"lat":42.994127,"lng":141.333356,"delta_lat":[0,-120314,20327,29917,2679,55555,1626],"delta_lng":[0,104391,8065,-6393,-1330,-40777,-4539]},"impl":false},
    {"code":9911008,"id":"de2c20","name":"石切山","name_kana":"いしきりやま","closed":true,"lat":42.968889,"lng":141.335389,"prefecture":1,"lines":[99110],"postal_code":"005-0841","address":"北海道札幌市南区石山１条３丁目１-３０","open_date":"1918-10-18","closed_date":"1969-11-01","next":[9911007,1110911,1110431,9910411,9911009,9910216,1110910,1110430],"voronoi":{"lat":42.77312,"lng":141.373248,"delta_lat":[0,227474,-570,-5897,-120314,-80001,-7386,-10014],"delta_lng":[0,-61120,15553,5676,104391,-22151,-2527,-24163]},"impl":false},
    {"code":9911009,"id":"a73179","name":"藤の沢","name_kana":"ふじのさわ","closed":true,"lat":42.9615,"lng":141.307889,"prefecture":1,"lines":[99110],"postal_code":"061-2282","address":"北海道札幌市南区藤野２条２丁目１-２４","open_date":"1918-10-17","closed_date":"1969-11-01","next":[1110430,9911010,9910411,1110429,9911008,9911014],"voronoi":{"lat":42.755065,"lng":141.310151,"delta_lat":[0,18055,227474,2591,-238345,-12674],"delta_lng":[0,63097,-61120,-6010,-19369,804]},"impl":false},
    {"code":9911010,"id":"5ac232","name":"十五島公園","name_kana":"じゅうごしまこうえん","closed":true,"lat":42.962333,"lng":141.297639,"prefecture":1,"lines":[99110],"postal_code":"061-2282","address":"北海道札幌市南区藤野２条６丁目２-１","open_date":"1959-06-21","closed_date":"1969-11-01","next":[9911009,9911011,9910411,9911014],"voronoi":{"lat":43.003186,"lng":141.306118,"delta_lat":[0,7508,-233405,-12448],"delta_lng":[0,-12794,-7691,1116]},"impl":false},
    {"code":9911011,"id":"6d28a9","name":"下藤野","name_kana":"しもふじの","closed":true,"lat":42.962722,"lng":141.285833,"prefecture":1,"lines":[99110],"postal_code":"061-2282","address":"北海道札幌市南区藤野２条９丁目４-８","open_date":"1948-01-01","closed_date":"1969-11-01","next":[9911014,9911010,9911012,9910106,9910411,9911013],"voronoi":{"lat":42.903766,"lng":141.270224,"delta_lat":[0,-126478,233405,3121,1659,-108320],"delta_lng":[0,15408,7691,-4084,-4663,-14217]},"impl":false},
    {"code":9911012,"id":"108a33","name":"東簾舞","name_kana":"ひがしみすまい","closed":true,"lat":42.964833,"lng":141.26975,"prefecture":1,"lines":[99110],"postal_code":"061-2261","address":"北海道札幌市南区簾舞１条１丁目１-３８","open_date":"1951-11-01","closed_date":"1969-11-01","next":[9911013,9910102,9911011,9910106,9910105],"voronoi":{"lat":43.025939,"lng":141.263657,"delta_lat":[0,913,-119698,108320,4925],"delta_lng":[0,-5453,12156,14217,-9101]},"impl":false},
    {"code":9911013,"id":"a7e650","name":"簾舞","name_kana":"みすまい","closed":true,"lat":42.963778,"lng":141.259361,"prefecture":1,"lines":[99110],"postal_code":"061-2272","address":"北海道札幌市南区簾舞５６１−２","open_date":"1918-10-18","closed_date":"1969-11-01","next":[9911015,9911016,9911012,9910102,9911014,9911011,9910101],"voronoi":{"lat":43.03022,"lng":141.244529,"delta_lat":[0,-41344,-3233,-81877,3387,119698,3239],"delta_lng":[0,-3615,331,28980,135,-12156,-12755]},"impl":false},
    {"code":9911014,"id":"28da19","name":"豊滝","name_kana":"とよたき","closed":true,"lat":42.95725,"lng":141.240917,"prefecture":1,"lines":[99110],"postal_code":"061-2273","address":"北海道札幌市南区豊滝４２０−２８","open_date":"1948-01-11","closed_date":"1969-11-01","next":[9911011,1110429,1010209,9911013,9911010,9911009,9911015,1010208],"voronoi":{"lat":42.792274,"lng":141.200554,"delta_lat":[0,5661,187709,-81877,-126478,-12448,-12674,-3156],"delta_lng":[0,-7144,47835,28980,15408,1116,804,-10665]},"impl":false},
    {"code":9911015,"id":"eefd1f","name":"滝の沢","name_kana":"たきのさわ","closed":true,"lat":42.960556,"lng":141.227944,"prefecture":1,"lines":[99110],"postal_code":"061-2274","address":"北海道札幌市南区小金湯３８９","closed_date":"1969-11-01","next":[9911013,9911017,1010209,9911020,9911018,9911014,9911016],"voronoi":{"lat":42.985643,"lng":141.241245,"delta_lat":[0,-187709,4267,114573,1253,15978,54871],"delta_lng":[0,-47835,-5853,5690,253,8335,39079]},"impl":false},
    {"code":9911016,"id":"e073a2","name":"小金湯","name_kana":"こがねゆ","closed":true,"lat":42.967361,"lng":141.218389,"prefecture":1,"lines":[99110],"postal_code":"061-2274","address":"北海道札幌市南区小金湯６２９−１７","open_date":"1936-10-20","closed_date":"1969-11-01","next":[9911013,9910101,9911017,9911015],"voronoi":{"lat":43.03022,"lng":141.244529,"delta_lat":[0,4351,-100566,54871],"delta_lng":[0,-9076,-33618,39079]},"impl":false},
    {"code":9911017,"id":"df0ee5","name":"一の沢","name_kana":"いちのさわ","closed":true,"lat":42.970611,"lng":141.208667,"prefecture":1,"lines":[99110],"postal_code":"061-2274","address":"北海道札幌市南区小金湯６４９","open_date":"1926-08-15","closed_date":"1969-11-01","next":[9911018,1110310,1110309,9911015,1110308,9910101,9911016],"voronoi":{"lat":43.049127,"lng":141.210094,"delta_lat":[0,267,904,1083,-133353,15978,100566],"delta_lng":[0,-779,-3852,-11963,0,8335,33618]},"impl":false},
    {"code":9911018,"id":"d65c43","name":"錦橋","name_kana":"にしきばし","closed":true,"lat":42.970611,"lng":141.178333,"prefecture":1,"lines":[99110],"postal_code":"061-2302","address":"北海道札幌市南区定山渓温泉東１丁目４３","open_date":"1928-06-07","closed_date":"1969-11-01","next":[1110306,9911017,9911020,1110308,9911015,9911019],"voronoi":{"lat":43.054633,"lng":141.154137,"delta_lat":[0,-3115,-137,-133353,-1253,30526],"delta_lng":[0,38876,486,0,-253,-13654]},"impl":false},
    {"code":9911019,"id":"18b06f","name":"白糸の滝","name_kana":"しらいとのたき","closed":true,"lat":42.968694,"lng":141.17025,"prefecture":1,"lines":[99110],"postal_code":"061-2302","address":"北海道札幌市南区定山渓温泉東２丁目１０３","open_date":"1933-01-07","closed_date":"1969-11-01","next":[9911020,1110305,9911018,1110306],"voronoi":{"lat":43.055157,"lng":141.150049,"delta_lat":[0,-2522,-105334,107332],"delta_lng":[0,-42437,71980,-25455]},"impl":false},
    {"code":9911020,"id":"3fb921","name":"定山渓","name_kana":"じょうざんけい","closed":true,"lat":42.963778,"lng":141.163056,"prefecture":1,"lines":[99110],"postal_code":"061-2302","address":"北海道札幌市南区定山渓温泉東４丁目３１５−１","open_date":"1918-10-18","closed_date":"1969-11-01","next":[1110303,1010216,1110304,9911019,9911015,9911018,1010209,1110305],"voronoi":{"lat":42.9473,"lng":141.179593,"delta_lat":[0,-30526,-114573,44020,174116,11183,20521,593],"delta_lng":[0,13654,-5690,-96049,-79532,18107,44111,33419]},"impl":false}
  ],
  "closed_date":"1969-11-01",
  "impl":false
}