{
  "code":99117,
  "id":"4f1cd8",
  "name":"美唄鉄道線",
  "name_kana":"びばいてつどうせん",
  "name_formal":"三菱鉱業美唄鉄道線",
  "station_size":6,
  "closed":true,
  "station_list":[
    {"code":1110331,"id":"22c94d","name":"美唄","name_kana":"びばい","lat":43.330751,"lng":141.862157,"prefecture":1,"lines":[11103,99117],"attr":"eco","postal_code":"072-0012","address":"美唄市東一条南２丁目","next":[9911702,1111222,1111223,1110330,1110332,1110329],"voronoi":{"lat":43.337218,"lng":141.797876,"delta_lat":[0,1288,25581,-17702,-14210,-20233],"delta_lng":[0,433,21332,61766,1179,-29696]},"impl":true},
    {"code":9911702,"id":"55b9cc","name":"東明","name_kana":"とうめい","closed":true,"lat":43.334139,"lng":141.902972,"prefecture":1,"lines":[99117],"postal_code":"072-0807","address":"北海道美唄市東明５条２丁目３-９","open_date":"1948-01-10","closed_date":"1972-06-01","next":[1110332,1110330,1110331,1112507,9911703],"voronoi":{"lat":43.29416,"lng":141.912763,"delta_lat":[0,-671,38685,14210,30592],"delta_lng":[0,-3063,-27114,-1179,36884]},"impl":false},
    {"code":9911703,"id":"bea743","name":"盤の沢","name_kana":"ばんのさわ","closed":true,"lat":43.332483,"lng":141.927781,"prefecture":1,"lines":[99117],"postal_code":"072-0843","address":"北海道美唄市盤の沢町高台１７８０−３１","open_date":"1925-12-15","closed_date":"1972-06-01","next":[1110332,1110333,1112507,9911706,9911704,9911702],"voronoi":{"lat":43.384445,"lng":141.923418,"delta_lat":[0,10492,-41773,-59563,559,82816],"delta_lng":[0,24758,-126,-29170,-6117,5528]},"impl":false},
    {"code":9911704,"id":"b6b0e4","name":"我路","name_kana":"がろ","closed":true,"lat":43.324472,"lng":141.944139,"prefecture":1,"lines":[99117],"postal_code":"072-0852","address":"北海道美唄市我路町二条","open_date":"1914-11-05","closed_date":"1972-06-01","next":[1112507,9911706,9911703,1112508,9911705],"voronoi":{"lat":43.353165,"lng":141.94805,"delta_lat":[0,-59563,-2728,-218,47724],"delta_lng":[0,-29170,8189,12341,13489]},"impl":false},
    {"code":9911705,"id":"3bb90e","name":"美唄炭山","name_kana":"びばいたんざん","closed":true,"lat":43.321944,"lng":141.953083,"prefecture":1,"lines":[99117],"postal_code":"072-0000","address":"北海道美唄市東美唄町番町２０５４","open_date":"1914-11-05","closed_date":"1972-06-01","next":[1112508,9911706,1112509,9911704],"voronoi":{"lat":43.290656,"lng":141.93941,"delta_lat":[0,-253,2807,45170],"delta_lng":[0,1633,42994,-31138]},"impl":false},
    {"code":9911706,"id":"45e24b","name":"常盤台","name_kana":"ときわだい","closed":true,"lat":43.332361,"lng":141.968194,"prefecture":1,"lines":[99117],"postal_code":"072-0000","address":"北海道美唄市東美唄町","open_date":"1924-12-15","closed_date":"1972-06-01","next":[9911612,9911705,1110337,9911703,9911704,1110339,1112509,1110333],"voronoi":{"lat":43.40759,"lng":141.969422,"delta_lat":[0,-13383,-123707,22709,45170,14785,41773,12384],"delta_lng":[0,89515,71578,-146477,-31138,-4849,126,14307]},"impl":false}
  ],
  "closed_date":"1972-06-11",
  "impl":false
}