{
  "code":99116,
  "id":"1a7d45",
  "name":"三井芦別鉄道",
  "name_kana":"みついあしべつてつどう",
  "name_formal":"三井芦別鉄道",
  "station_size":12,
  "closed":true,
  "station_list":[
    {"code":1110606,"id":"d3b6bc","name":"芦別","name_kana":"あしべつ","lat":43.516636,"lng":142.184543,"prefecture":1,"lines":[11106,99116],"attr":"eco","postal_code":"075-0041","address":"芦別市本町","next":[9911603,9911602,1111406,1110345,1110605],"voronoi":{"lat":43.519362,"lng":142.150266,"delta_lat":[0,-13494,106316,5933,6626],"delta_lng":[0,28770,99960,-4696,-81020]},"impl":true},
    {"code":9911602,"id":"c1d28c","name":"高校通り","name_kana":"こうこうどおり","closed":true,"lat":43.512028,"lng":142.189444,"prefecture":1,"lines":[99116],"postal_code":"075-0041","address":"北海道芦別市本町２７７","open_date":"1958-01-20","closed_date":"1989-03-26","next":[1110608,9911603,1110606,1111406,1110607],"voronoi":{"lat":43.605925,"lng":142.284212,"delta_lat":[0,6260,-106316,-12163,57930],"delta_lng":[0,-5216,-99960,13856,63089]},"impl":false},
    {"code":9911603,"id":"c12498","name":"山の手町","name_kana":"やまのてちょう","closed":true,"lat":43.49475,"lng":142.174278,"prefecture":1,"lines":[99116],"postal_code":"075-0161","address":"北海道芦別市西芦別町１１−２３","open_date":"1958-01-20","closed_date":"1989-03-26","next":[1110605,1110607,9911602,9911604,1110606],"voronoi":{"lat":43.493706,"lng":142.192893,"delta_lat":[0,-9482,22926,12213,-13494],"delta_lng":[0,-1566,-52363,11303,28770]},"impl":false},
    {"code":9911604,"id":"158176","name":"三井芦別駅","name_kana":"みついあしべつ","closed":true,"lat":43.489611,"lng":142.172028,"prefecture":1,"lines":[99116],"postal_code":"075-0161","address":"北海道芦別市西芦別町５１−１３","open_date":"1940-11-28","closed_date":"1989-03-26","next":[9911603,1110607,9911605,1110605,9911606],"voronoi":{"lat":43.481018,"lng":142.178212,"delta_lat":[0,23139,2992,-22926,-5127],"delta_lng":[0,-42466,3218,52363,-119]},"impl":false},
    {"code":9911605,"id":"305ede","name":"入山","name_kana":"いりやま","closed":true,"lat":43.481556,"lng":142.167639,"prefecture":1,"lines":[99116],"postal_code":"075-0161","address":"北海道芦別市西芦別町１２７","open_date":"1958-01-20","closed_date":"1989-03-26","next":[9911608,9911610,9911604,1110605,9911606],"voronoi":{"lat":43.504158,"lng":142.135745,"delta_lat":[0,-18895,-11750,-647,8153],"delta_lng":[0,-25836,34674,7393,26235]},"impl":false},
    {"code":9911606,"id":"fa2999","name":"中の丘","name_kana":"なかのおか","closed":true,"lat":43.474583,"lng":142.169806,"prefecture":1,"lines":[99116],"postal_code":"075-0167","address":"北海道芦別市中の丘町","open_date":"1949-09-15","closed_date":"1989-03-26","next":[9911607,9911608,9911605,1110607,9911604],"voronoi":{"lat":43.481018,"lng":142.178212,"delta_lat":[0,-8153,-3187,4342,5076],"delta_lng":[0,-26235,10576,30403,-1748]},"impl":false},
    {"code":9911607,"id":"874de4","name":"幸町","name_kana":"さいわいちょう","closed":true,"lat":43.467,"lng":142.170889,"prefecture":1,"lines":[99116],"postal_code":"075-0163","address":"北海道芦別市緑泉町１９","open_date":"1958-01-20","closed_date":"1989-03-26","next":[9911608,9911606,9911612,9911609,1110607],"voronoi":{"lat":43.47402,"lng":142.192955,"delta_lat":[0,-4342,-19426,-20447,-4123],"delta_lng":[0,-30403,21046,27770,7844]},"impl":false},
    {"code":9911608,"id":"ba8047","name":"緑泉","name_kana":"ろくせん","closed":true,"lat":43.461583,"lng":142.165889,"prefecture":1,"lines":[99116],"postal_code":"075-0163","address":"北海道芦別市緑泉町１６−６","open_date":"1945-12-15","closed_date":"1989-03-26","next":[9911607,9911606,9911605,9911610,9911609],"voronoi":{"lat":43.46499,"lng":142.153737,"delta_lat":[0,8522,-647,-3187,-19426],"delta_lng":[0,-9153,7393,10576,21046]},"impl":false},
    {"code":9911609,"id":"0a5cf7","name":"西町アパート前","name_kana":"にしまちあぱーとまえ","closed":true,"lat":43.457417,"lng":142.163833,"prefecture":1,"lines":[99116],"postal_code":"075-0164","address":"北海道芦別市頼城町４−１０２","open_date":"1958-01-20","closed_date":"1989-03-26","next":[9911611,9911610,9911607,9911608,9911612],"voronoi":{"lat":43.450253,"lng":142.183599,"delta_lat":[0,14738,-13668,-6166,-15351],"delta_lng":[0,-29862,10090,8598,38944]},"impl":false},
    {"code":9911610,"id":"4bbe3d","name":"芦の湯前","name_kana":"あしのゆまえ","closed":true,"lat":43.453111,"lng":142.158,"prefecture":1,"lines":[99116],"postal_code":"075-0164","address":"北海道芦別市頼城町４−１２","open_date":"1958-01-20","closed_date":"1989-03-26","next":[1112005,9911611,1110605,9911609,9911608,1110604,9911605,1112007],"voronoi":{"lat":43.484669,"lng":142.108372,"delta_lat":[0,594,-11750,-8522,-13668,-1288,1564,12405],"delta_lng":[0,1538,34674,9153,10090,-86277,624,7256]},"impl":false},
    {"code":9911611,"id":"cf33fb","name":"頼城","name_kana":"らいじょう","closed":true,"lat":43.449361,"lng":142.158056,"prefecture":1,"lines":[99116],"postal_code":"075-0164","address":"北海道芦別市頼城町６９","open_date":"1945-12-15","closed_date":"1989-03-26","next":[9911610,9911609,9911612,1112005],"voronoi":{"lat":43.451323,"lng":142.163826,"delta_lat":[0,-6166,3631,1247],"delta_lng":[0,8598,-95406,531]},"impl":false},
    {"code":9911612,"id":"846ef2","name":"玉川(北海道)","original_name":"玉川","name_kana":"たまがわ","closed":true,"lat":43.442056,"lng":142.157778,"prefecture":1,"lines":[99116],"postal_code":"075-0164","address":"北海道芦別市頼城町１００","closed_date":"1989-03-26","next":[9911607,9911706,1110607,9911611,1110608,1110612,1110609,1110339,1112509,1112005,9911808,9911609],"voronoi":{"lat":43.425683,"lng":142.219213,"delta_lat":[0,-1220,-59643,-93670,-15363,9706,5008,123707,31982,22598,-3631,-15351],"delta_lng":[0,1073,18560,-32899,-13555,-57351,-4526,-71578,7222,10860,95406,38944]},"impl":false}
  ],
  "closed_date":"1989-03-26",
  "impl":false
}