{
  "code":99111,
  "id":"4d763a",
  "name":"寿都鉄道",
  "name_kana":"すっつてつどう",
  "name_formal":"寿都鉄道",
  "station_size":5,
  "closed":true,
  "station_list":[
    {"code":1110204,"id":"887391","name":"黒松内","name_kana":"くろまつない","lat":42.669608,"lng":140.305704,"prefecture":1,"lines":[11102,99111],"attr":"eco","postal_code":"048-0101","address":"寿都郡黒松内町字黒松内","next":[9911102,1110203,1110205],"voronoi":{"lat":42.624237,"lng":140.175258,"delta_lat":[0,81582,-52089],"delta_lng":[0,162244,4538]},"impl":true},
    {"code":9911102,"id":"41a9fa","name":"中の川","name_kana":"なかのがわ","closed":true,"lat":42.701889,"lng":140.289472,"prefecture":1,"lines":[99111],"postal_code":"048-0123","address":"北海道寿都郡黒松内町字中ノ川２３−２","open_date":"1920-10-24","closed_date":"1972-05-11","next":[1110205,1110204,9911103,9911104,1110203,1011003],"voronoi":{"lat":42.624237,"lng":140.175258,"delta_lat":[0,81582,28521,-14005,-84112,-16792],"delta_lng":[0,162244,8740,-98888,-131352,44053]},"impl":false},
    {"code":9911103,"id":"c0276f","name":"湯別","name_kana":"ゆべつ","closed":true,"lat":42.74975,"lng":140.282694,"prefecture":1,"lines":[99111],"postal_code":"048-0414","address":"北海道寿都郡寿都町字湯別町上湯別１０３","open_date":"1920-10-24","closed_date":"1972-05-11","next":[9911102,1110205,1010306,9911105,9911104,1110206],"voronoi":{"lat":42.901144,"lng":140.364929,"delta_lat":[0,4384,-82636,-102558,14005,33877],"delta_lng":[0,-4383,-63935,-49256,98888,27170]},"impl":false},
    {"code":9911104,"id":"16a803","name":"樽岸","name_kana":"たるきし","closed":true,"lat":42.766306,"lng":140.248222,"prefecture":1,"lines":[99111],"postal_code":"048-0413","address":"北海道寿都郡寿都町字樽岸町樽岸１４４","open_date":"1920-10-24","closed_date":"1972-05-11","next":[1011003,9911102,9911105,9911103],"voronoi":{"lat":42.644544,"lng":140.063257,"delta_lat":[0,-8321,84112,102558],"delta_lng":[0,52746,131352,49256]},"impl":false},
    {"code":9911105,"id":"e6c3e1","name":"寿都","name_kana":"すっつ","closed":true,"lat":42.791056,"lng":140.229306,"prefecture":1,"lines":[99111],"postal_code":"048-0406","address":"北海道寿都郡寿都町字渡島町１４０","open_date":"1920-10-24","closed_date":"1972-05-11","next":[1011009,1111551,1010306,1011007,1011011,9911103,9911104,1011003],"voronoi":{"lat":42.822892,"lng":140.296611,"delta_lat":[0,82636,2355788,1308868,-3856493,-21049,-48012,-87],"delta_lng":[0,63935,-1578353,-2335915,3509060,25936,80981,1002]},"impl":false}
  ],
  "closed_date":"1972-05-11",
  "impl":false
}