{
  "code":99119,
  "id":"71ce29",
  "name":"雄別鉄道",
  "name_kana":"ゆうべつてつどう",
  "name_formal":"雄別鉄道",
  "station_size":14,
  "closed":true,
  "station_list":[
    {"code":1110731,"id":"936c69","name":"釧路","name_kana":"くしろ","lat":42.990584,"lng":144.381983,"prefecture":1,"lines":[11107,11108,11117,99119],"attr":"eco","postal_code":"085-0015","address":"釧路市北大通１４丁目","next":[1110727,1110725,1110728,1110722,1110730,1110803,1110729,9911902,1110726,1110720,9911903,9911904],"voronoi":{"lat":43.000393,"lng":144.367888,"delta_lat":[0,-215096,-15759,-79449,-82227,-121500,-201428,-196253,-209227,1007364,111026,5195],"delta_lng":[0,-75919,-3435,-13592,2475,6961,22726,49888,66737,-17579,-18396,-15723]},"impl":true},
    {"code":9911902,"id":"400b8f","name":"新釧路","name_kana":"しんくしろ","closed":true,"lat":42.992833,"lng":144.395556,"prefecture":1,"lines":[99119],"postal_code":"085-0002","address":"北海道釧路市新釧路町８-８","open_date":"1923-01-17","closed_date":"1970-04-16","next":[1110802,1110803,1110731,9911903],"voronoi":{"lat":42.954722,"lng":144.409354,"delta_lat":[0,-67905,111026,7903],"delta_lng":[0,-3205,-18396,13911]},"impl":false},
    {"code":9911903,"id":"a21fab","name":"中園","name_kana":"なかぞの","closed":true,"lat":43.007111,"lng":144.387444,"prefecture":1,"lines":[99119],"postal_code":"085-0052","address":"北海道釧路市中園町１９-７","open_date":"1960-03-01","closed_date":"1970-04-16","next":[1111726,1111725,1110802,9911904,9911902,1110731],"voronoi":{"lat":43.003038,"lng":144.37203,"delta_lat":[0,62118,-1142,-26840,-31428,-7903],"delta_lng":[0,28113,1770,15428,-15677,-13911]},"impl":false},
    {"code":9911904,"id":"e8c448","name":"雄鉄昭和","name_kana":"ゆうてつしょうわ","closed":true,"lat":43.017306,"lng":144.364917,"prefecture":1,"lines":[99119],"postal_code":"084-0903","address":"北海道釧路市昭和町３丁目１７-５","open_date":"1968-01-20","closed_date":"1970-04-16","next":[1110730,9911905,9911906,9911903,1111725,1110731],"voronoi":{"lat":43.065157,"lng":144.400143,"delta_lat":[0,29361,-9208,-72613,-12304,2646],"delta_lng":[0,-29523,-3379,-12997,13643,4143]},"impl":false},
    {"code":9911905,"id":"2ea5c8","name":"北園","name_kana":"きたぞの","closed":true,"lat":43.020722,"lng":144.345833,"prefecture":1,"lines":[99119],"postal_code":"084-0909","address":"北海道釧路市昭和南５丁目３","closed_date":"1970-04-16","next":[1110730,9911904,9911906],"voronoi":{"lat":43.004866,"lng":144.323851,"delta_lat":[0,7830,72613],"delta_lng":[0,30393,12997]},"impl":false},
    {"code":9911906,"id":"66d0b9","name":"鶴野","name_kana":"つるの","closed":true,"lat":43.031944,"lng":144.325028,"prefecture":1,"lines":[99119],"postal_code":"084-0924","address":"北海道釧路市鶴野","open_date":"1968-01-20","closed_date":"1970-04-16","next":[1111725,1110729,9911904,9911905,9911907,1110730],"voronoi":{"lat":43.004109,"lng":144.322959,"delta_lat":[0,33214,81745,-24551,-9208,-80443],"delta_lng":[0,-25383,59305,13739,-3379,-43390]},"impl":false},
    {"code":9911907,"id":"582865","name":"北斗","name_kana":"ほくと","closed":true,"lat":43.06175,"lng":144.283944,"prefecture":1,"lines":[99119],"postal_code":"084-0922","address":"北海道釧路市北斗１８６−２","open_date":"1923-01-17","closed_date":"1970-04-16","next":[1111725,1110728,1111722,1110729,9911908,9911906],"voronoi":{"lat":43.037323,"lng":144.297577,"delta_lat":[0,-2943,6337,210703,-19658,-112694],"delta_lng":[0,-13258,-33161,66422,12550,26752]},"impl":false},
    {"code":9911908,"id":"ce0661","name":"山花","name_kana":"やまはな","closed":true,"lat":43.07675,"lng":144.236361,"prefecture":1,"lines":[99119],"postal_code":"084-0928","address":"北海道釧路市山花１３５−８","open_date":"1926-10-20","closed_date":"1970-04-16","next":[1110728,9911907,9911909,1111722,1110727,9911911],"voronoi":{"lat":43.201933,"lng":144.223303,"delta_lat":[0,-172471,-12800,24056,210703,48951],"delta_lng":[0,-29343,13808,43389,66422,-22944]},"impl":false},
    {"code":9911909,"id":"b11f73","name":"桜田","name_kana":"さくらだ","closed":true,"lat":43.088111,"lng":144.169583,"prefecture":1,"lines":[99119],"postal_code":"085-0251","address":"北海道釧路市桜田１３−７７−４","open_date":"1925-09-20","closed_date":"1970-04-16","next":[9911910,9911911,1110726,1110727,9911908],"voronoi":{"lat":43.029461,"lng":144.19396,"delta_lat":[0,14554,1229,142410,14278],"delta_lng":[0,-77747,-3462,92576,17976]},"impl":false},
    {"code":9911910,"id":"eaf39d","name":"阿寒","name_kana":"あかん","closed":true,"lat":43.114583,"lng":144.128861,"prefecture":1,"lines":[99119],"postal_code":"085-0218","address":"北海道釧路市阿寒町新町２丁目５","open_date":"1923-01-17","closed_date":"1970-04-16","next":[9911909,1110726,1010904,9911911,1010902,1010903],"voronoi":{"lat":43.045153,"lng":144.099531,"delta_lat":[0,92,142410,-74281,-57227,-4894],"delta_lng":[0,13220,92576,-157949,39272,4447]},"impl":false},
    {"code":9911911,"id":"bdc708","name":"古潭","name_kana":"こたん","closed":true,"lat":43.175361,"lng":144.100278,"prefecture":1,"lines":[99119],"postal_code":"085-0222","address":"北海道釧路市阿寒町布伏内２２線北４１−２４","open_date":"1923-06-14","closed_date":"1970-04-16","next":[9911909,9911912,9911913,1010904,1111722,9911910,1111717,9911908],"voronoi":{"lat":43.318163,"lng":144.293457,"delta_lat":[0,5934,-162911,-41254,-6559,74281,14278,98439],"delta_lng":[0,-5091,-215820,-35996,10829,157949,17976,71332]},"impl":false},
    {"code":9911912,"id":"e92d9d","name":"新雄別","name_kana":"しんゆうべつ","closed":true,"lat":43.183972,"lng":144.093778,"prefecture":1,"lines":[99119],"postal_code":"085-0222","address":"北海道釧路市阿寒町布伏内２２線北５７−１３","open_date":"1953-04-11","closed_date":"1970-04-16","next":[9911911,1111717,9911913,9911914],"voronoi":{"lat":43.212644,"lng":144.103627,"delta_lat":[0,-51458,162911,9699],"delta_lng":[0,-31082,215820,-7949]},"impl":false},
    {"code":9911913,"id":"8faa46","name":"真澄町","name_kana":"ますみちょう","closed":true,"lat":43.190583,"lng":144.082833,"prefecture":1,"lines":[99119],"postal_code":"085-0222","address":"北海道釧路市阿寒町布伏内２２線北７５−３","open_date":"1956-09-01","closed_date":"1970-04-16","next":[9911911,1010904,9911912,9911914,1010905],"voronoi":{"lat":43.119932,"lng":144.036549,"delta_lat":[0,41254,51458,-46056,-45836],"delta_lng":[0,35996,31082,-112584,43604]},"impl":false},
    {"code":9911914,"id":"29351d","name":"雄別炭山","name_kana":"ゆうべつたんざん","closed":true,"lat":43.213806,"lng":144.073333,"prefecture":1,"lines":[99119],"postal_code":"085-0000","address":"北海道釧路市阿寒町雄別２２線１０８−２２","open_date":"1923-01-17","closed_date":"1970-04-16","next":[1010114,1111716,9911912,9911913,1010908,1010905,1111717],"voronoi":{"lat":43.212644,"lng":144.103627,"delta_lat":[0,-46056,323,186422,77422,-1371,-95588],"delta_lng":[0,-112584,-400,-56511,278060,1285,66939]},"impl":false}
  ],
  "closed_date":"1970-04-16",
  "impl":false
}