{
  "code":99113,
  "id":"e0abc3",
  "name":"羽幌炭礦鉄道",
  "name_kana":"はぼろたんこうてつどう",
  "name_formal":"羽幌炭礦鉄道",
  "station_size":8,
  "closed":true,
  "station_list":[
    {"code":1011318,"id":"d77b3c","name":"築別","name_kana":"ちくべつ","closed":true,"lat":44.412361,"lng":141.738333,"prefecture":1,"lines":[10113,99113],"postal_code":"078-4141","address":"北海道苫前郡羽幌町字築別９９０","open_date":"1941-12-09","closed_date":"1987-03-30","next":[1011319,9911302,1011317],"voronoi":{"lat":44.481031,"lng":141.658694,"delta_lat":[0,-60740,-24252],"delta_lng":[0,108592,-31635]},"impl":false},
    {"code":9911302,"id":"223176","name":"五線","closed":true,"lat":44.394389,"lng":141.752111,"prefecture":1,"lines":[99113],"postal_code":"078-4141","address":"北海道苫前郡羽幌町字築別６７０","open_date":"1948-06-01","closed_date":"1970-12-15","next":[1011319,1011318,1011316,1011317,9911303],"voronoi":{"lat":44.36192,"lng":141.74041,"delta_lat":[0,7203,26915,24252,-1147],"delta_lng":[0,-5245,487,31635,9255]},"impl":false},
    {"code":9911303,"id":"a181f6","name":"七線沢","closed":true,"lat":44.386444,"lng":141.764694,"prefecture":1,"lines":[99113],"postal_code":"078-4142","address":"北海道苫前郡羽幌町字上築","open_date":"1958-08-01","closed_date":"1970-12-15","next":[1011319,9911304,9911302,1011316],"voronoi":{"lat":44.36192,"lng":141.74041,"delta_lat":[0,57223,1086,-99973],"delta_lng":[0,36132,11724,-29643]},"impl":false},
    {"code":9911304,"id":"208909","name":"上築別","closed":true,"lat":44.379056,"lng":141.789611,"prefecture":1,"lines":[99113],"postal_code":"078-4142","address":"北海道苫前郡羽幌町字上築９３８−２","closed_date":"1970-12-15","next":[9911306,9911303,1011312,1011316,1011319],"voronoi":{"lat":44.42023,"lng":141.788265,"delta_lat":[0,-99973,-6232,-23580,148463],"delta_lng":[0,-29643,1364,35723,35146]},"impl":false},
    {"code":9911306,"id":"a5e9c3","name":"曙","name_kana":"あけぼの","closed":true,"lat":44.366917,"lng":141.840889,"prefecture":1,"lines":[99113],"postal_code":"078-4144","address":"北海道苫前郡羽幌町字曙","open_date":"1941-12-14","closed_date":"1970-12-15","next":[1011312,9911208,1011319,9911307,9911304],"voronoi":{"lat":44.290444,"lng":141.79571,"delta_lat":[0,-81767,1837,229726,-1333],"delta_lng":[0,66966,36886,-67370,-1336]},"impl":false},
    {"code":9911307,"id":"b1bc74","name":"桜ケ丘","closed":true,"lat":44.373833,"lng":141.864472,"prefecture":1,"lines":[99113],"postal_code":"078-4144","address":"北海道苫前郡羽幌町字曙２２０","closed_date":"1970-12-15","next":[1112417,9911308,9911208,1011319,9911306],"voronoi":{"lat":44.209248,"lng":141.952643,"delta_lat":[0,33462,198706,-1176,-229726],"delta_lng":[0,19508,-139121,-838,67370]},"impl":false},
    {"code":9911308,"id":"f78eef","name":"古賀町","closed":true,"lat":44.38875,"lng":141.885778,"prefecture":1,"lines":[99113],"postal_code":"078-4145","address":"北海道苫前郡羽幌町字築別炭砿","open_date":"1958-06-10","closed_date":"1970-12-15","next":[9911307,1112417,9911309,1011319],"voronoi":{"lat":44.441416,"lng":141.83303,"delta_lat":[0,-198706,34927,169606],"delta_lng":[0,139121,24128,-160476]},"impl":false},
    {"code":9911309,"id":"2961ba","name":"築別炭砿","name_kana":"ちくべつたんこう","closed":true,"lat":44.394111,"lng":141.891444,"prefecture":1,"lines":[99113],"postal_code":"078-4145","address":"北海道苫前郡羽幌町字築別炭砿","open_date":"1941-12-14","closed_date":"1970-12-15","next":[1011320,1112421,1111536,1011322,1112418,1011319,1011321,9911308,1112417,1011324],"voronoi":{"lat":44.539699,"lng":142.035359,"delta_lat":[0,-233249,-18402,-10410,169606,2039,52303,3477,41856,14395],"delta_lng":[0,-22049,-9451,-7581,-160476,846,36112,3919,72425,38122]},"impl":false}
  ],
  "closed_date":"1970-12-15",
  "impl":false
}