{
  "code":99118,
  "id":"1919b8",
  "name":"大夕張鉄道線",
  "name_kana":"おおゆうばりてつどうせん",
  "name_formal":"三菱石炭鉱業大夕張鉄道線",
  "station_size":8,
  "closed":true,
  "station_list":[
    {"code":1111010,"id":"442158","name":"清水沢","name_kana":"しみずさわ","closed":true,"lat":42.99827,"lng":142.007285,"prefecture":1,"lines":[11110,99118],"attr":"unknown","postal_code":"068-0531","address":"夕張市清水沢３丁目","closed_date":"2019-04-01","next":[9911516,9911802,1111009],"voronoi":{"lat":42.993082,"lng":141.982172,"delta_lat":[0,44735,-47233],"delta_lng":[0,33048,14143]},"impl":true},
    {"code":9911802,"id":"414204","name":"遠幌","name_kana":"えんほろ","closed":true,"lat":43.009139,"lng":142.043583,"prefecture":1,"lines":[99118],"postal_code":"068-0540","address":"北海道夕張市南部住の江町２６","open_date":"1940-09-01","closed_date":"1987-07-22","next":[9911803,9911805,9911807,1111010,1111009,9911516,1111008,9911522,9911808],"voronoi":{"lat":43.068314,"lng":142.043063,"delta_lat":[0,-2921,-92052,10960,6284,47233,6906,29109,-1445],"delta_lng":[0,2653,32026,-44325,-4055,-14143,1024,19368,2165]},"impl":false},
    {"code":9911803,"id":"066d0e","name":"南大夕張","name_kana":"みなみおおゆうばり","closed":true,"lat":43.022611,"lng":142.082306,"prefecture":1,"lines":[99118],"postal_code":"068-0544","address":"北海道夕張市南部大宮町１０３","open_date":"1911-06-01","closed_date":"1987-07-22","next":[9911802,9911805,1111007,9911804,1111008],"voronoi":{"lat":42.929542,"lng":142.153586,"delta_lat":[0,120073,15778,-92052,-10557],"delta_lng":[0,-76068,-31802,32026,13337]},"impl":false},
    {"code":9911804,"id":"96c35f","name":"シューパロ湖","name_kana":"しゅーぱろこ","closed":true,"lat":43.03375,"lng":142.099889,"prefecture":1,"lines":[99118],"postal_code":"068-0662","address":"北海道夕張市鹿島明石町","open_date":"1962-06-01","closed_date":"1969-10-01","next":[1011208,9911805,1111007,9911803,1111013,9911806],"voronoi":{"lat":43.037888,"lng":142.241682,"delta_lat":[0,11727,-120073,-13843,31704,89184],"delta_lng":[0,-164163,76068,21237,66218,12080]},"impl":false},
    {"code":9911805,"id":"1da609","name":"明石町","name_kana":"あかしちょう","closed":true,"lat":43.062139,"lng":142.101917,"prefecture":1,"lines":[99118],"postal_code":"068-0662","address":"北海道夕張市鹿島明石町","open_date":"1945-05-06","closed_date":"1973-12-16","next":[9911803,9911806,9911802,9911807,9911804],"voronoi":{"lat":43.071485,"lng":142.086937,"delta_lat":[0,-3172,-2921,-15778,-11727],"delta_lng":[0,-43873,2653,31802,164163]},"impl":false},
    {"code":9911806,"id":"e35b4c","name":"千年町","name_kana":"ちとせまち","closed":true,"lat":43.073778,"lng":142.104444,"prefecture":1,"lines":[99118],"postal_code":"068-0663","address":"北海道夕張市鹿島千年町","open_date":"1950-11-01","closed_date":"1973-12-16","next":[1111013,9911805,9911808,9911807,1110614,9911804],"voronoi":{"lat":43.080718,"lng":142.265167,"delta_lat":[0,54451,-36280,-27404,-33598,-1301],"delta_lng":[0,-10888,-105341,-62002,154745,11440]},"impl":false},
    {"code":9911807,"id":"410efb","name":"大夕張","name_kana":"おおゆうばり","closed":true,"lat":43.082889,"lng":142.100417,"prefecture":1,"lines":[99118],"postal_code":"068-0672","address":"北海道夕張市鹿島富士見町","open_date":"1929-11-01","closed_date":"1973-12-16","next":[9911805,9911802,9911806,9911808],"voronoi":{"lat":43.072388,"lng":142.037776,"delta_lat":[0,-4074,3172,27404],"delta_lng":[0,5287,43873,62002]},"impl":false},
    {"code":9911808,"id":"03cc77","name":"大夕張炭山","name_kana":"おおゆうばりたんざん","closed":true,"lat":43.091278,"lng":142.098417,"prefecture":1,"lines":[99118],"postal_code":"068-0675","address":"北海道夕張市鹿島北栄町","open_date":"1929-01-22","closed_date":"1973-12-16","next":[1011605,1110612,9911806,1112509,9911522,9911807,9911802,1011606,1110614,9911612],"voronoi":{"lat":43.143792,"lng":142.253063,"delta_lat":[0,-8623,-36280,-26502,1445,10794,135194,10835,34837,-9706],"delta_lng":[0,1217,-105341,-111162,-2165,-3016,55559,5128,41758,57351]},"impl":false}
  ],
  "closed_date":"1987-07-22",
  "impl":false
}