{
  "code":99112,
  "id":"032d31",
  "name":"天塩炭礦鉄道",
  "name_kana":"てしおたんこうてつどう",
  "name_formal":"天塩炭礦鉄道",
  "station_size":8,
  "closed":true,
  "station_list":[
    {"code":1111312,"id":"0b8d3a","name":"留萌","name_kana":"るもい","lat":43.942848,"lng":141.651433,"prefecture":1,"lines":[11113,10113,99112,99121],"attr":"cool","postal_code":"077-0005","address":"留萌市船場町２丁目","next":[1111313,9911202,1111311,1011302],"voronoi":{"lat":43.951194,"lng":141.637273,"delta_lat":[0,-46303,26290,24150],"delta_lng":[0,21540,17158,-23141]},"impl":true},
    {"code":9911202,"id":"24dfd3","name":"春日町(北海道)","original_name":"春日町","name_kana":"かすがちょう","closed":true,"lat":43.956194,"lng":141.665361,"prefecture":1,"lines":[99112],"postal_code":"077-0000","address":"北海道留萌市大字留萌村マサリベツ２０１","open_date":"1949-07-25","closed_date":"1967-07-31","next":[1011302,1111312,1011303,9911203,1111311],"voronoi":{"lat":43.931182,"lng":141.67597,"delta_lat":[0,24150,23068,1390,-34891],"delta_lng":[0,-23141,10731,6599,24637]},"impl":false},
    {"code":9911203,"id":"d5a3bf","name":"桜山(北海道)","original_name":"桜山","closed":true,"lat":43.976417,"lng":141.694,"prefecture":1,"lines":[99112],"postal_code":"078-3303","address":"北海道留萌郡小平町字豊平","open_date":"1941-12-18","closed_date":"1967-07-31","next":[1011303,9911205,9911202,1111311,9911204,1011304],"voronoi":{"lat":43.950262,"lng":141.742084,"delta_lat":[0,-3409,-1955,34891,18695,4101],"delta_lng":[0,1436,-48724,-24637,11403,5609]},"impl":false},
    {"code":9911204,"id":"5c4db0","name":"天塩本郷","name_kana":"てしおほんごう","closed":true,"lat":43.997028,"lng":141.713639,"prefecture":1,"lines":[99112],"postal_code":"078-3304","address":"北海道留萌郡小平町字本郷１２６−１２","open_date":"1941-12-18","closed_date":"1967-07-31","next":[1011305,9911205,9911203,1011304],"voronoi":{"lat":44.041924,"lng":141.729562,"delta_lat":[0,-91662,52323,9786],"delta_lng":[0,12522,-54913,3967]},"impl":false},
    {"code":9911205,"id":"60d3c1","name":"沖内","name_kana":"おきない","closed":true,"lat":44.002944,"lng":141.756944,"prefecture":1,"lines":[99112],"postal_code":"078-3309","address":"北海道留萌郡小平町字沖内８９９","open_date":"1942-08-01","closed_date":"1967-07-31","next":[1111311,9911203,9911204,1111309,9911206,1111310,1011305,9911207,1111308],"voronoi":{"lat":43.959853,"lng":141.810188,"delta_lat":[0,97187,-15115,-91662,-3409,-6231,-11086,65,10372],"delta_lng":[0,-73537,-7089,12522,1436,9234,35331,6546,25480]},"impl":false},
    {"code":9911206,"id":"32201a","name":"寧楽","name_kana":"ねいらく","closed":true,"lat":44.022806,"lng":141.783194,"prefecture":1,"lines":[99112],"postal_code":"077-0465","address":"北海道留萌郡小平町字寧楽１１１","open_date":"1942-08-01","closed_date":"1967-07-31","next":[1011307,9911207,1011305,9911205,1011306],"voronoi":{"lat":44.13667,"lng":141.770585,"delta_lat":[0,-176818,97187,21189,40678],"delta_lng":[0,39604,-73537,3196,18355]},"impl":false},
    {"code":9911207,"id":"f13eb6","name":"天塩住吉","name_kana":"てしおすみよし","closed":true,"lat":44.028306,"lng":141.80775,"prefecture":1,"lines":[99112],"postal_code":"077-0464","address":"北海道留萌郡小平町字住吉５９０","open_date":"1942-08-01","closed_date":"1967-07-31","next":[1111308,9912106,9911206,1011308,1011307,1011309,9911205,9911208],"voronoi":{"lat":44.153346,"lng":141.783651,"delta_lat":[0,-1493,-12905,-2277,-176818,-19879,937,32538],"delta_lng":[0,-1527,-10299,-1241,39604,9923,14941,24823]},"impl":false},
    {"code":9911208,"id":"d19a5f","name":"達布","name_kana":"たっぷ","closed":true,"lat":44.049056,"lng":141.856722,"prefecture":1,"lines":[99112],"postal_code":"077-0463","address":"北海道留萌郡小平町字達布３４８−９","open_date":"1941-12-18","closed_date":"1967-07-31","next":[1112417,9911306,9911307,9912106,1011312,1011309,1112414,1112416,9912109,9911207],"voronoi":{"lat":44.153346,"lng":141.783651,"delta_lat":[0,2498,52834,1837,-1266,-17173,-47826,-20012,-137905,-12884],"delta_lng":[0,1657,77367,36886,53081,10000,22005,4602,-108822,-20552]},"impl":false}
  ],
  "closed_date":"1967-07-31",
  "impl":false
}