{
  "code":99115,
  "id":"d339e1",
  "name":"夕張鉄道線",
  "name_kana":"ゆうばりてつどうせん",
  "name_formal":"北海道炭礦汽船夕張鉄道線",
  "station_size":22,
  "closed":true,
  "station_list":[
    {"code":1110321,"id":"c3e3ba","name":"野幌","name_kana":"のっぽろ","lat":43.092559,"lng":141.52984,"prefecture":1,"lines":[11103,99115],"attr":"eco","postal_code":"069-0813","address":"江別市野幌町","next":[1110322,1111212,9911502,1110320,9911504],"voronoi":{"lat":43.038478,"lng":141.54035,"delta_lat":[0,96065,14511,-21686,-60693],"delta_lng":[0,-58888,17469,14955,35881]},"impl":true},
    {"code":9911502,"id":"9efe38","name":"北海鋼機前","name_kana":"ほっかいこうきまえ","closed":true,"lat":43.096611,"lng":141.536694,"prefecture":1,"lines":[99115],"postal_code":"069-0821","address":"北海道江別市東野幌町１１−４","open_date":"1956-12-01","closed_date":"1975-04-01","next":[1110322,1110321,9911504,9911503],"voronoi":{"lat":43.066675,"lng":141.549767,"delta_lat":[0,60693,-40752,-13849],"delta_lng":[0,-35881,34877,3905]},"impl":false},
    {"code":9911503,"id":"a11813","name":"上江別","name_kana":"かみえべつ","closed":true,"lat":43.101444,"lng":141.553833,"prefecture":1,"lines":[99115],"postal_code":"067-0062","address":"北海道江別市上江別南町２９-２１","open_date":"1930-11-03","closed_date":"1974-10-01","next":[1110322,1110323,9911502,9911504],"voronoi":{"lat":43.108811,"lng":141.546456,"delta_lat":[0,-22195,-13849,25689],"delta_lng":[0,2308,3905,24413]},"impl":false},
    {"code":9911504,"id":"67644a","name":"下の月","name_kana":"しものつき","closed":true,"lat":43.075389,"lng":141.58125,"prefecture":1,"lines":[99115],"postal_code":"069-0822","address":"北海道江別市東野幌９３６−２","open_date":"1959-04-01","closed_date":"1974-10-01","next":[1110914,1110913,9911505,9911502,1110324,1110320,1110321,9911503,1110323],"voronoi":{"lat":43.098455,"lng":141.577082,"delta_lat":[0,-25689,-6092,-28197,-2458,-3085,-6812,76419,8768],"delta_lng":[0,-24413,-2901,-9417,87,1945,36116,29205,-12333]},"impl":false},
    {"code":9911505,"id":"412d1e","name":"晩翠","name_kana":"ばんすい","closed":true,"lat":43.064667,"lng":141.609306,"prefecture":1,"lines":[99115],"postal_code":"069-0211","address":"北海道空知郡南幌町南１１線西６２１","open_date":"1930-11-03","closed_date":"1975-04-01","next":[9911506,1110913,9911504,1110324],"voronoi":{"lat":43.102541,"lng":141.607703,"delta_lat":[0,-76419,-25227,96082],"delta_lng":[0,-29205,46657,8559]},"impl":false},
    {"code":9911506,"id":"f95b99","name":"南幌","name_kana":"なんぽろ","closed":true,"lat":43.060861,"lng":141.652028,"prefecture":1,"lines":[99115],"postal_code":"069-0235","address":"北海道空知郡南幌町中央３丁目１-２５","open_date":"1930-11-03","closed_date":"1975-04-01","next":[1110913,9911505,1110324,1110325,9911507,1110912],"voronoi":{"lat":43.105194,"lng":141.67555,"delta_lat":[0,722,-8939,-96082,-34401,-6079],"delta_lng":[0,-17147,-24688,-8559,31580,10659]},"impl":false},
    {"code":9911507,"id":"0d810b","name":"双葉(北海道)","original_name":"双葉","name_kana":"ふたば","closed":true,"lat":43.0585,"lng":141.693944,"prefecture":1,"lines":[99115],"postal_code":"069-1318","address":"北海道夕張郡長沼町西４線北","open_date":"1959-09-22","closed_date":"1974-10-01","next":[1110508,9911508,1110512,1110509,1110912,1110909,9911506,1110325],"voronoi":{"lat":43.105194,"lng":141.67555,"delta_lat":[0,-144779,-12207,-1890,29921,17099,104879,12258],"delta_lng":[0,-8155,13739,4101,24901,8611,-13769,-16559]},"impl":false},
    {"code":9911508,"id":"8f62fd","name":"北長沼","name_kana":"きたながぬま","closed":true,"lat":43.062694,"lng":141.725889,"prefecture":1,"lines":[99115],"postal_code":"069-1317","address":"北海道夕張郡長沼町東１線北１５","open_date":"1930-11-03","closed_date":"1975-04-01","next":[9911509,1110509,1110512,9911507,1110511],"voronoi":{"lat":43.022053,"lng":141.742918,"delta_lat":[0,-28715,104879,-118,-29952],"delta_lng":[0,-24172,-13769,493,36944]},"impl":false},
    {"code":9911509,"id":"0c5005","name":"中央農試前","name_kana":"ちゅうおうのうしまえ","closed":true,"lat":43.063056,"lng":141.759056,"prefecture":1,"lines":[99115],"postal_code":"069-1317","address":"北海道夕張郡長沼町東５線北１７","open_date":"1969-05-01","closed_date":"1974-10-01","next":[9911508,1110511,1110510,1110509],"voronoi":{"lat":43.090306,"lng":141.776109,"delta_lat":[0,-22158,-46094,8128],"delta_lng":[0,-33694,504,15415]},"impl":false},
    {"code":1110510,"id":"f048cb","name":"栗山","name_kana":"くりやま","lat":43.058164,"lng":141.775603,"prefecture":1,"lines":[11105,99115],"attr":"eco","postal_code":"069-1511","address":"夕張郡栗山町中央３丁目","next":[1110512,9911511,1110511,9911509,1110509,1011602],"voronoi":{"lat":43.036708,"lng":141.787555,"delta_lat":[0,-6527,60124,19290,535,-11742],"delta_lng":[0,-29222,17775,16829,929,34575]},"impl":true},
    {"code":9911511,"id":"e1ddd2","name":"角田(北海道)","original_name":"角田","name_kana":"かくた","closed":true,"lat":43.034056,"lng":141.811972,"prefecture":1,"lines":[99115],"postal_code":"069-1524","address":"北海道夕張郡栗山町角田１２５","open_date":"1926-10-14","closed_date":"1971-11-15","next":[9911513,9911512,1110510,1011603,1110509,1110508,1011602],"voronoi":{"lat":43.09251,"lng":141.851708,"delta_lat":[0,-7210,-88073,2731,36751,61680,83],"delta_lng":[0,266,-24739,-8918,-30762,40886,11222]},"impl":false},
    {"code":9911512,"id":"652b40","name":"継立","name_kana":"つぎたて","closed":true,"lat":43.020722,"lng":141.859444,"prefecture":1,"lines":[99115],"postal_code":"068-0353","address":"北海道夕張郡栗山町字継立２５０","open_date":"1926-10-14","closed_date":"1975-04-01","next":[9911511,1110508,1111004,1110507,9911513],"voronoi":{"lat":42.961321,"lng":141.857922,"delta_lat":[0,9655,26251,88073,-109414],"delta_lng":[0,-12457,-18229,24739,49627]},"impl":false},
    {"code":9911513,"id":"b28e24","name":"新二岐","name_kana":"しんふたまた","closed":true,"lat":43.037139,"lng":141.895639,"prefecture":1,"lines":[99115],"postal_code":"068-0354","address":"北海道夕張郡栗山町字日出１１６−２","open_date":"1926-10-14","closed_date":"1975-04-01","next":[9911511,1111012,1011604,1111011,1111004,9911521,1011603,9911512,9911514],"voronoi":{"lat":43.049695,"lng":141.929675,"delta_lat":[0,31485,16420,3264,-8355,-7210,-109414,-8,64694],"delta_lng":[0,-5250,-3151,-22121,-47445,266,49627,1145,27235]},"impl":false},
    {"code":9911514,"id":"808105","name":"錦沢","name_kana":"にしきざわ","closed":true,"lat":43.013611,"lng":141.951528,"prefecture":1,"lines":[99115],"postal_code":"068-0426","address":"北海道夕張市富野","open_date":"1926-10-14","closed_date":"1975-04-01","next":[1111009,9911515,9911516,9911519,1111004,1111005,1111011,9911513],"voronoi":{"lat":42.975878,"lng":141.902746,"delta_lat":[0,-20174,5092,23511,5430,31516,9734,9585],"delta_lng":[0,35164,21264,12099,-962,-9229,-11975,-19126]},"impl":false},
    {"code":9911515,"id":"09c5be","name":"平和(夕張鉄道)","original_name":"平和","name_kana":"へいわ","closed":true,"lat":43.019972,"lng":141.97325,"prefecture":1,"lines":[99115],"postal_code":"068-0424","address":"北海道夕張市千代田１３−１","open_date":"1938-08-01","closed_date":"1975-04-01","next":[9911514,9911518,9911519,9911517,9911516],"voronoi":{"lat":43.02251,"lng":141.973546,"delta_lat":[0,161,-1418,-31516,30166],"delta_lng":[0,-9859,-2605,9229,6316]},"impl":false},
    {"code":9911516,"id":"966eef","name":"礦業所前","name_kana":"こうぎょうしょまえ","closed":true,"lat":43.018611,"lng":141.97975,"prefecture":1,"lines":[99115],"postal_code":"068-0423","address":"北海道夕張市平和１","open_date":"1952-04-25","closed_date":"1971-11-15","next":[1111009,1111010,9911517,9911514,9911802,9911522,9911515],"voronoi":{"lat":42.989737,"lng":141.970312,"delta_lat":[0,-5430,8776,44735,6906,-2153,-22668],"delta_lng":[0,962,10898,33048,1024,-11742,-27874]},"impl":false},
    {"code":9911517,"id":"65db02","name":"夕製前","name_kana":"ゆうせいまえ","closed":true,"lat":43.023222,"lng":141.976,"prefecture":1,"lines":[99115],"postal_code":"068-0422","address":"北海道夕張市日吉５−４","open_date":"1962-09-01","closed_date":"1971-11-15","next":[9911516,9911522,9911515,9911518],"voronoi":{"lat":43.02251,"lng":141.973546,"delta_lat":[0,-2607,22668,-1748],"delta_lng":[0,3081,27874,-18362]},"impl":false},
    {"code":9911518,"id":"9ac95b","name":"若菜","name_kana":"わかな","closed":true,"lat":43.025056,"lng":141.973333,"prefecture":1,"lines":[99115],"postal_code":"068-0425","address":"北海道夕張市若菜１０−１","open_date":"1926-10-14","next":[9911515,9911522,9911519,9911517],"voronoi":{"lat":43.040773,"lng":141.982837,"delta_lat":[0,-18102,-161,18313],"delta_lng":[0,-19149,9859,12593]},"impl":false},
    {"code":9911519,"id":"c5d0e8","name":"営林署前","name_kana":"えいりんしょまえ","closed":true,"lat":43.032167,"lng":141.966611,"prefecture":1,"lines":[99115],"postal_code":"068-0421","address":"北海道夕張市常盤１−２","open_date":"1956-08-11","closed_date":"1971-11-15","next":[1111011,9911522,9911514,9911518,9911515],"voronoi":{"lat":43.021253,"lng":141.961083,"delta_lat":[0,9734,9836,-50,-18102],"delta_lng":[0,-11975,33538,191,-19149]},"impl":false},
    {"code":1111011,"id":"80c9ef","name":"鹿ノ谷","name_kana":"しかのたに","closed":true,"lat":43.039447,"lng":141.964476,"prefecture":1,"lines":[11110,99115],"attr":"unknown","postal_code":"068-0413","address":"夕張市鹿の谷３丁目","closed_date":"2019-04-01","next":[1111012,9911519,9911521,9911513,9911514,9911522],"voronoi":{"lat":43.030987,"lng":141.949107,"delta_lat":[0,9585,9124,-7370,-1476,-27],"delta_lng":[0,-19126,-306,47260,5656,54]},"impl":true},
    {"code":9911521,"id":"12b944","name":"末広(北海道)","original_name":"末広","name_kana":"すえひろ","closed":true,"lat":43.048861,"lng":141.965944,"prefecture":1,"lines":[99115],"postal_code":"068-0411","address":"北海道夕張市末広１丁目６７−１","open_date":"1956-08-11","closed_date":"1971-11-15","next":[1111011,1111012,9911513],"voronoi":{"lat":43.042326,"lng":141.976936,"delta_lat":[0,38855,-31485],"delta_lng":[0,-52510,5250]},"impl":false},
    {"code":9911522,"id":"5174ec","name":"夕張本町","name_kana":"ゆうばりほんちょう","closed":true,"lat":43.056194,"lng":141.972861,"prefecture":1,"lines":[99115],"postal_code":"068-0403","address":"北海道夕張市本町４丁目１","open_date":"1926-10-14","closed_date":"1971-11-15","next":[9911518,9911517,1011605,1011604,9911519,9911516,9911808,1111012,1011606,9911802,1111011],"voronoi":{"lat":43.040773,"lng":141.982837,"delta_lat":[0,50,1748,2153,29109,10794,20497,407,-6033,-58648,-27],"delta_lng":[0,3303,18362,11742,19368,-3016,-92463,-3900,-10972,57331,54]},"impl":false}
  ],
  "closed_date":"1975-04-01",
  "impl":false
}