{
  "code":99121,
  "id":"950748",
  "name":"留萠鉄道",
  "name_kana":"るもいてつどう",
  "name_formal":"留萠鉄道炭礦線",
  "station_size":8,
  "closed":true,
  "station_list":[
    {"code":1111312,"id":"0b8d3a","name":"留萌","name_kana":"るもい","lat":43.942848,"lng":141.651433,"prefecture":1,"lines":[11113,10113,99112,99121],"attr":"cool","postal_code":"077-0005","address":"留萌市船場町２丁目","next":[1111313,9911202,1111311,1011302],"voronoi":{"lat":43.951194,"lng":141.637273,"delta_lat":[0,-46303,26290,24150],"delta_lng":[0,21540,17158,-23141]},"impl":true},
    {"code":1111307,"id":"edcd5a","name":"恵比島","name_kana":"えびしま","lat":43.851296,"lng":141.88144,"prefecture":1,"lines":[11113,99121],"attr":"heat","postal_code":"078-2224","address":"雨竜郡沼田町字恵比島","next":[1111306,1111241,9912103,1111308,1111239],"voronoi":{"lat":43.821983,"lng":141.87951,"delta_lat":[0,27032,50902,-89318,-313],"delta_lng":[0,19574,-49320,724,7169]},"impl":true},
    {"code":9912103,"id":"e5d7f3","name":"本通(北海道)","original_name":"本通","closed":true,"lat":43.866722,"lng":141.897361,"prefecture":1,"lines":[99121],"postal_code":"078-2225","address":"北海道雨竜郡沼田町字幌新","open_date":"1952-05-01","closed_date":"1971-04-15","next":[1111306,9912104,1111307,1111308,9912105,9912106],"voronoi":{"lat":43.930329,"lng":141.843589,"delta_lat":[0,-30412,-50902,6528,61645,2534],"delta_lng":[0,6174,49320,23456,-49879,-3295]},"impl":false},
    {"code":9912104,"id":"39d3d6","name":"幌新","name_kana":"ほろしん","closed":true,"lat":43.8825,"lng":141.916861,"prefecture":1,"lines":[99121],"postal_code":"078-2225","address":"北海道雨竜郡沼田町字幌新","open_date":"1930-07-01","closed_date":"1971-04-15","next":[9912105,9912103,1111305,1111306,1112404],"voronoi":{"lat":43.859657,"lng":141.981317,"delta_lat":[0,-8708,4595,61645,-51515],"delta_lng":[0,-36255,-22522,-49879,112204]},"impl":false},
    {"code":9912105,"id":"6a3876","name":"袋地","closed":true,"lat":43.906278,"lng":141.927778,"prefecture":1,"lines":[99121],"postal_code":"078-2225","address":"北海道雨竜郡沼田町字幌新","open_date":"1952-05-01","closed_date":"1971-04-15","next":[9912108,1112404,9912104,9912106,9912103],"voronoi":{"lat":43.919722,"lng":141.869365,"delta_lat":[0,3273,-20025,-37297,51515],"delta_lng":[0,84066,64190,-32757,-112204]},"impl":false},
    {"code":9912106,"id":"501fbd","name":"新雨竜","closed":true,"lat":43.937667,"lng":141.926556,"prefecture":1,"lines":[99121],"postal_code":"078-2200","address":"北海道雨竜郡沼田町字浅野","open_date":"1930-07-01","closed_date":"1971-04-15","next":[9912105,9911207,9911208,9912108,1111308,9912103,9912109],"voronoi":{"lat":43.986333,"lng":141.880428,"delta_lat":[0,-12884,-32538,-10581,-10607,3273,48159],"delta_lng":[0,-20552,-24823,8537,25776,84066,-43081]},"impl":false},
    {"code":9912108,"id":"27a744","name":"太刀別","name_kana":"たちべつ","closed":true,"lat":43.951333,"lng":141.941833,"prefecture":1,"lines":[99121],"postal_code":"078-2200","address":"北海道雨竜郡沼田町字浅野","open_date":"1963-07-15","closed_date":"1971-04-15","next":[9912105,1112408,1112404,9912109,9912106],"voronoi":{"lat":43.902971,"lng":142.017622,"delta_lat":[0,204,43771,24209,-48159],"delta_lng":[0,307,18075,-125653,43081]},"impl":false},
    {"code":9912109,"id":"39da5f","name":"昭和(北海道)","original_name":"昭和","name_kana":"しょうわ","closed":true,"lat":43.977861,"lng":141.946944,"prefecture":1,"lines":[99121],"postal_code":"078-2200","address":"北海道雨竜郡沼田町","open_date":"1930-10-01","closed_date":"1971-04-15","next":[1112410,1112414,1112408,1112412,1112413,9912108,9912106,1112411,9911208],"voronoi":{"lat":43.986333,"lng":141.880428,"delta_lat":[0,-15178,-24209,28745,11752,12860,34019,55530,34386],"delta_lng":[0,29923,125653,17051,5,-2036,-10134,-27466,-24174]},"impl":false}
  ],
  "closed_date":"1971-04-15",
  "impl":false
}