{
  "code":99202,
  "name":"弘南鉄道弘南線",
  "station_list":[
    {"code":1120257,"id":"e0e87e","name":"弘前","name_kana":"ひろさき","lat":40.599723,"lng":140.485016,"prefecture":2,"lines":[11202,99202],"attr":"eco","postal_code":"036-8096","address":"弘前市表町"},
    {"code":9920202,"id":"a9df15","name":"弘前東高前","name_kana":"ひろさきひがしこうまえ","lat":40.592301,"lng":140.488529,"prefecture":2,"lines":[99202],"attr":"eco","postal_code":"036-8103","address":"弘前市大字川先４-１１-１"},
    {"code":9920203,"id":"c0d35d","name":"運動公園前(青森)","name_kana":"うんどうこうえんまえ","lat":40.589527,"lng":140.502875,"prefecture":2,"lines":[99202],"attr":"eco","postal_code":"036-8102","address":"弘前市大字小比内字富田９１-３"},
    {"code":9920204,"id":"ce9e50","name":"新里(青森)","name_kana":"にさと","lat":40.587445,"lng":140.519879,"prefecture":2,"lines":[99202],"attr":"eco","postal_code":"036-8083","address":"弘前市大字新里字東里見１４-２"},
    {"code":9920205,"id":"05dfc1","name":"館田","name_kana":"たちた","lat":40.585135,"lng":140.538617,"prefecture":2,"lines":[99202],"attr":"eco","postal_code":"036-0155","address":"平川市館田中前田９８-４"},
    {"code":9920206,"id":"b4af63","name":"平賀","name_kana":"ひらか","lat":40.585044,"lng":140.561048,"prefecture":2,"lines":[99202],"attr":"eco","postal_code":"036-0103","address":"平川市本町北柳田２３-５"},
    {"code":9920207,"id":"ad46ab","name":"柏農高校前","name_kana":"はくのうこうこうまえ","lat":40.601867,"lng":140.564367,"prefecture":2,"lines":[99202],"attr":"eco","postal_code":"036-0112","address":"平川市荒田南岡部７４-５"},
    {"code":9920208,"id":"07efe1","name":"津軽尾上","name_kana":"つがるおのえ","lat":40.613869,"lng":140.576068,"prefecture":2,"lines":[99202],"attr":"heat","postal_code":"036-0221","address":"平川市中佐渡南田１８-２"},
    {"code":9920209,"id":"58dec1","name":"尾上高校前","name_kana":"おのえこうこうまえ","lat":40.627634,"lng":140.576806,"prefecture":2,"lines":[99202],"attr":"heat","postal_code":"036-0242","address":"平川市猿賀上川５０-３"},
    {"code":9920213,"id":"ab2efb","name":"田んぼアート","name_kana":"たんぼあーと","lat":40.632659,"lng":140.573849,"prefecture":2,"lines":[99202],"attr":"heat","postal_code":"038-1100","address":"青森県南津軽郡田舎館村"},
    {"code":9920210,"id":"1f7736","name":"田舎館","name_kana":"いなかだて","lat":40.637274,"lng":140.57097,"prefecture":2,"lines":[99202],"attr":"cool","postal_code":"038-1111","address":"南津軽郡田舎館村大字高樋字深山林１０-７"},
    {"code":9920211,"id":"b60f9b","name":"境松","name_kana":"さかいまつ","lat":40.648609,"lng":140.575691,"prefecture":2,"lines":[99202],"attr":"cool","postal_code":"036-0389","address":"黒石市境松２-４６"},
    {"code":9920212,"id":"6311a9","name":"黒石(青森)","name_kana":"くろいし","lat":40.648342,"lng":140.591045,"prefecture":2,"lines":[99202],"attr":"cool","postal_code":"036-0383","address":"黒石市緑町１-１１５"}
  ],
  "north":40.65113,
  "south":40.58062,
  "east":140.59143,
  "west":140.48573,
  "polyline_list":[
    {
      "start":"弘前",
      "end":"黒石",
      "lat":40.59889,
      "lng":140.48573,
      "delta_lat":[0,-66,-144,-85,-222,-33,-25,-40,-41,-63,-17,-21,-18,-16,-12,-28,-13,-24,-5,-68,-15,-32,-4,-23,-69,-60,-11,-10,-68,-20,-21,-11,-39,-28,-13,-18,-10,-13,-125,-137,-27,-111,-17,-3,2,0,8,19,13,19,37,51,45,47,33,78,166,23,65,199,31,30,55,238,220,56,35,36,37,24,69,246,210,65,92,24,22,81,37,45,390,149,11,281,79,14,53,36,36,33,45,108,87,60,94,322,243,56,13,33,40,10,89,61,199,361,28,205,62,65,29,30,30,55,67,22,15,132,208,106,74,14,15,20,53,74,50,18,63,56,21,59,36,38,28,17,0,-4,-26,-72,-41,-28,-69,-29,-20],
      "delta_lng":[0,23,38,27,81,17,17,38,52,89,33,48,58,59,78,156,89,176,31,563,114,280,49,199,568,499,101,88,481,170,170,98,407,233,96,144,81,61,442,465,94,401,63,58,46,41,63,76,45,36,56,51,36,27,9,12,6,0,0,3,0,-5,-11,-43,-43,-12,-7,-3,10,10,45,196,168,52,70,17,18,59,34,45,397,158,12,289,80,16,56,25,16,13,0,-8,13,2,-6,-27,-23,-13,-2,-7,-14,-4,-37,-31,-118,-217,-18,-122,-35,-42,-17,-11,-6,-4,10,9,6,75,105,59,51,9,9,14,38,53,34,12,44,39,10,42,41,59,73,72,54,62,116,285,163,110,269,110,81]
    }
  ]
}