{
  "code":99204,
  "id":"d3923b",
  "name":"十和田観光電鉄",
  "name_kana":"とわだかんこうでんてつ",
  "station_size":11,
  "company_code":106,
  "closed":true,
  "station_list":[
    {"code":1120105,"id":"69a9b3","name":"三沢(青森)","original_name":"三沢","name_kana":"みさわ","lat":40.668498,"lng":141.353638,"prefecture":2,"lines":[11201,99204,99206],"attr":"eco","postal_code":"033-0000","address":"三沢市犬落瀬","next":[1120106,1120306,1120607,9920402,9920403,1120103,1120104,1120304],"voronoi":{"lat":40.965253,"lng":141.705613,"delta_lat":[0,-203899,-62928,-48423,19659,9519,223871,58721],"delta_lng":[0,-140072,-88657,-112586,-37888,-7419,171874,193864]},"impl":true},
    {"code":9920402,"id":"b47024","name":"大曲(青森)","original_name":"大曲","name_kana":"おおまがり","closed":true,"lat":40.648069,"lng":141.343038,"prefecture":2,"lines":[99204],"attr":"unknown","postal_code":"033-0071","address":"上北郡六戸町大字犬落瀬字柳沢９０-２８","closed_date":"2012-04-01","next":[1120105,9920403,1120104],"voronoi":{"lat":40.613229,"lng":141.339393,"delta_lat":[0,56432,-19659],"delta_lng":[0,-12984,37888]},"impl":true},
    {"code":9920403,"id":"8780df","name":"柳沢","name_kana":"やなぎさわ","closed":true,"lat":40.642973,"lng":141.320889,"prefecture":2,"lines":[99204],"attr":"unknown","postal_code":"033-0071","address":"上北郡六戸町大字犬落瀬字柳沢","closed_date":"2012-04-01","next":[1120104,1120105,9920402,9920404,1120106,9920405,9920605],"voronoi":{"lat":40.613229,"lng":141.339393,"delta_lat":[0,56432,9519,-1298,-101784,-31516,2230],"delta_lng":[0,-12984,-7419,-4105,-4455,3677,7268]},"impl":true},
    {"code":9920404,"id":"5b78d1","name":"七百","name_kana":"しちひゃく","closed":true,"lat":40.643631,"lng":141.305855,"prefecture":2,"lines":[99204],"attr":"unknown","postal_code":"033-0071","address":"上北郡六戸町大字犬落瀬字権現沢１４-６６","closed_date":"2012-04-01","next":[9920405,1120106,9920403],"voronoi":{"lat":40.675342,"lng":141.287453,"delta_lat":[0,-99244,101784],"delta_lng":[0,22978,4455]},"impl":true},
    {"code":9920405,"id":"df9aea","name":"古里(青森)","original_name":"古里","name_kana":"ふるさと","closed":true,"lat":40.63877,"lng":141.28486,"prefecture":2,"lines":[99204],"attr":"unknown","postal_code":"039-2372","address":"上北郡六戸町大字折茂字古里","closed_date":"2012-04-01","next":[9920404,1120106,9920605,9920403,9920604,9920406],"voronoi":{"lat":40.678649,"lng":141.271627,"delta_lat":[0,-3306,-99244,-31516,-3312,-6707],"delta_lng":[0,15825,22978,3677,-6320,-20545]},"impl":true},
    {"code":9920406,"id":"7880b7","name":"三農校前","name_kana":"さんのうこうまえ","closed":true,"lat":40.636861,"lng":141.267245,"prefecture":2,"lines":[99204],"attr":"unknown","postal_code":"039-2372","address":"上北郡六戸町大字折茂字今熊２４７","closed_date":"2012-04-01","next":[9920604,1120107,1120106,9920407,9920405],"voronoi":{"lat":40.678649,"lng":141.271627,"delta_lat":[0,6074,-149,-150430,420],"delta_lng":[0,-13659,-5864,34145,993]},"impl":true},
    {"code":9920407,"id":"cd518f","name":"高清水","name_kana":"たかしず","closed":true,"lat":40.635,"lng":141.259046,"prefecture":2,"lines":[99204],"attr":"unknown","postal_code":"034-0041","address":"十和田市大字相坂字高清水７７-３","closed_date":"2012-04-01","next":[9920604,1120107,9920406,9920408],"voronoi":{"lat":40.534143,"lng":141.286249,"delta_lat":[0,150430,1147,-155922],"delta_lng":[0,-34145,-19532,44469]},"impl":true},
    {"code":9920408,"id":"6178ce","name":"北里大学前","name_kana":"きたさとだいがくまえ","closed":true,"lat":40.628666,"lng":141.236837,"prefecture":2,"lines":[99204],"attr":"unknown","postal_code":"034-0001","address":"十和田市大字三本木字前谷地","closed_date":"2012-04-01","next":[9920409,1120107,9922011,9920603,9920407,9920604],"voronoi":{"lat":40.68572,"lng":141.232573,"delta_lat":[0,2071,-2025,-169710,1265,12477],"delta_lng":[0,-7727,-1921,29744,3991,20382]},"impl":true},
    {"code":9920409,"id":"5e528f","name":"工業高校前","name_kana":"こうぎょうこうこうまえ","closed":true,"lat":40.627338,"lng":141.22926,"prefecture":2,"lines":[99204],"attr":"unknown","postal_code":"034-0001","address":"十和田市大字三本木字下平２１５","closed_date":"2012-04-01","next":[9920408,9920410,9920603,9922011,9920411],"voronoi":{"lat":40.578944,"lng":141.232671,"delta_lat":[0,103513,3310,-169710,-1681],"delta_lng":[0,-13326,3579,29744,-4741]},"impl":true},
    {"code":9920410,"id":"65c62b","name":"ひがし野団地","name_kana":"ひがしのだんち","closed":true,"lat":40.626624,"lng":141.223714,"prefecture":2,"lines":[99204],"attr":"unknown","postal_code":"034-0001","address":"十和田市大字三本木字下平６０","closed_date":"2012-04-01","next":[9920409,9920411,9922011],"voronoi":{"lat":40.578944,"lng":141.232671,"delta_lat":[0,91780,11733],"delta_lng":[0,-27357,14031]},"impl":true},
    {"code":9920411,"id":"e11098","name":"十和田市","name_kana":"とわだし","closed":true,"lat":40.623747,"lng":141.214062,"prefecture":2,"lines":[99204],"attr":"unknown","postal_code":"034-0012","address":"十和田市東一番町７-２７","closed_date":"2012-04-01","next":[9922011,9922811,9920410,9920603,9922810,9920409,9920602],"voronoi":{"lat":40.445956,"lng":140.997622,"delta_lat":[0,12632,47612,164523,-91780,-64568,-8525],"delta_lng":[0,-8087,-29494,245273,27357,15256,-19665]},"impl":true}
  ],
  "north":40.6688,
  "south":40.62353,
  "east":141.35471,
  "west":141.21357,
  "closed_date":"2012-04-01",
  "polyline_list":[
    {
      "start":"十和田市",
      "end":"三沢",
      "lat":40.62353,
      "lng":141.21357,
      "delta_lat":[0,21,21,7,105,81,11,9,35,11,5,6,19,27,15,5,7,11,20,15,12,44,3,16,24,38,23,18,9,22,46,28,60,343,31,43,15,18,2,16,9,26,16,16,14,7,53,60,22,16,5,8,9,35,163,90,42,56,22,142,4,-1,-8,-20,-36,-72,-16,-19,-11,-1,-3,-5,2,65,13,6,3,0,-3,-9,-6,-18,-1,-3,-9,-36,-10,-4,-4,-18,0,37,6,20,33,6,7,12,26,18,13,32,22,352,71,70,331,25,39,24,33,43,37,124,62,37,24,18,14,28,34,18,47,43,34,17,53,37,20,19,14,19,39,27,16,23,17,25,23,24,30,13,86,45,30,69,65,27,42,96,77],
      "delta_lng":[0,46,46,15,227,174,40,67,287,77,42,43,142,217,106,41,43,80,181,94,90,190,14,68,136,221,136,117,39,75,145,88,180,1025,91,130,42,55,8,55,37,114,88,106,120,95,542,620,240,149,35,28,25,85,408,227,118,201,76,774,62,59,44,62,79,150,47,69,51,17,27,320,12,194,39,35,31,28,161,241,94,430,17,19,35,88,26,20,33,335,48,429,55,187,239,28,22,23,33,17,8,17,5,50,10,9,46,6,11,11,18,26,26,81,42,28,23,33,36,64,83,37,71,62,41,17,34,25,17,19,18,35,78,53,29,27,16,16,10,7,2,-1,-25,-13,-7,-10,-31,-8,-5,-4,0]
    }
  ],
  "impl":true
}