{
  "code":99208,
  "id":"1c51cd",
  "name":"三陸鉄道リアス線",
  "name_kana":"さんりくてつどうりあすせん",
  "station_size":41,
  "company_code":109,
  "color":"#FF0000",
  "station_list":[
    {"code":9920801,"id":"30420b","name":"盛","name_kana":"さかり","lat":39.086372,"lng":141.710734,"prefecture":3,"lines":[99208,99219],"attr":"eco","postal_code":"022-0003","address":"大船渡市盛町字東町裏","next":[1120840,9920806,9920802,1120834,1120918,1120921,1120919,1120818],"voronoi":{"lat":39.064515,"lng":141.668621,"delta_lat":[0,28706,31083,42895,3218,-18803,-5269,-52088],"delta_lng":[0,66484,18176,-13340,-10650,-100182,-13666,26990]}},
    {"code":9920802,"id":"da0f6d","name":"陸前赤崎","name_kana":"りくぜんあかさき","lat":39.068623,"lng":141.741086,"prefecture":3,"lines":[99208,99219],"attr":"heat","postal_code":"022-0007","address":"大船渡市赤崎町字大洞","next":[1120823,1120838,1120824,9920803,9920801,9920805,1120839,9920806,1120840],"voronoi":{"lat":39.084791,"lng":141.731585,"delta_lat":[0,-13868,-13564,-12356,-12787,47120,32261,12706,-31083],"delta_lng":[0,-1849,3393,10538,19157,11637,-12204,-8977,-18176]}},
    {"code":9920803,"id":"5e598e","name":"綾里","name_kana":"りょうり","lat":39.054318,"lng":141.799012,"prefecture":3,"lines":[99208,99219],"attr":"heat","postal_code":"022-0211","address":"大船渡市三陸町綾里字宮野","next":[1120836,9920805,1122314,9920804,9920802,1120822,1120823,1122412,1122418,1122417,1120821],"voronoi":{"lat":38.521634,"lng":142.110291,"delta_lat":[0,-29703,-143929,-607388,1334762,3960,-47120,-20990,-14155,-119018,-255548],"delta_lng":[0,30751,169240,1039320,-1554671,-20470,-11637,4295,6355,69760,167040]}},
    {"code":9920804,"id":"7aa9de","name":"恋し浜","name_kana":"こいしはま","lat":39.07453,"lng":141.816365,"prefecture":3,"lines":[99208,99219],"attr":"heat","postal_code":"022-0211","address":"岩手県大船渡市三陸町綾里字小石浜","next":[9920809,9920803,9920808,9920816,1122314,1110816,1123004,9920807,9920806,9920805,9933507],"voronoi":{"lat":35.9028,"lng":146.599115,"delta_lat":[0,226642,1611173,1334762,25105,2926,-75833,-65567,-1089571,-1985983,-1189160],"delta_lng":[0,-533603,-2715910,-1554671,48354,19125,290165,186018,2681025,4494737,1324265]}},
    {"code":9920805,"id":"40c3c3","name":"甫嶺","name_kana":"ほれい","lat":39.093394,"lng":141.806571,"prefecture":3,"lines":[99208,99219],"attr":"heat","postal_code":"022-0101","address":"大船渡市三陸町越喜来字甫嶺","next":[9920803,9920802,9920806,9920804],"voronoi":{"lat":39.111597,"lng":141.762258,"delta_lat":[0,-32261,-3960,25105],"delta_lng":[0,12204,20470,48354]}},
    {"code":9920806,"id":"e946dc","name":"三陸","name_kana":"さんりく","lat":39.117194,"lng":141.809836,"prefecture":3,"lines":[99208,99219],"attr":"cool","postal_code":"022-0101","address":"大船渡市三陸町越喜来字肥田","next":[9920801,9920802,9920805,1120921,9920804,9920807],"voronoi":{"lat":39.177491,"lng":141.767725,"delta_lat":[0,-10293,-42895,-12706,-11116,2926],"delta_lng":[0,-27785,13340,8977,81028,19125]}},
    {"code":9920807,"id":"bef61f","name":"吉浜(岩手)","name_kana":"よしはま","lat":39.151122,"lng":141.836382,"prefecture":3,"lines":[99208,99219],"attr":"cool","postal_code":"022-0102","address":"大船渡市三陸町吉浜字上野","next":[9920808,1120921,9920804,1120922,9920806],"voronoi":{"lat":39.177491,"lng":141.767725,"delta_lat":[0,16490,4695,-171102,75833],"delta_lng":[0,21601,14172,349077,-290165]}},
    {"code":9920808,"id":"f810dd","name":"唐丹","name_kana":"とうに","lat":39.201816,"lng":141.86123,"prefecture":3,"lines":[99208,99219],"attr":"eco","postal_code":"026-0121","address":"釜石市唐丹町字片岸","next":[9920807,1120922,1120923,9920804,9920809],"voronoi":{"lat":39.235001,"lng":141.85359,"delta_lat":[0,-10411,-25913,-171102,-65567],"delta_lng":[0,-26392,-23699,349077,186018]}},
    {"code":9920809,"id":"21c840","name":"平田(岩手)","name_kana":"へいた","lat":39.245686,"lng":141.885923,"prefecture":3,"lines":[99208,99219],"attr":"eco","postal_code":"026-0001","address":"釜石市平田町４地割","next":[1120923,9920804,9920814,1120924,9920816,9920808,9920811],"voronoi":{"lat":38.965756,"lng":142.715556,"delta_lat":[0,-1093320,1089571,272993,14888,25692,-4344],"delta_lng":[0,2304062,-2681025,-485004,5658,53572,84973]}},
    {"code":1120924,"id":"fb88bc","name":"釜石","name_kana":"かまいし","lat":39.273321,"lng":141.87267,"prefecture":3,"lines":[11209,99208,99219],"attr":"eco","postal_code":"026-0031","address":"釜石市鈴子町","next":[9920811,9920809,1120923],"voronoi":{"lat":39.307629,"lng":141.845103,"delta_lat":[0,-32048,-25692],"delta_lng":[0,67716,-53572]}},
    {"code":9920811,"id":"91e0af","name":"両石","name_kana":"りょういし","lat":39.308062,"lng":141.889112,"prefecture":3,"lines":[99208],"attr":"cool","postal_code":"026-0304","address":"釜石市両石町","open_date":"1951-07-23","next":[9920814,1120924,1120923,9920809,9920812],"voronoi":{"lat":39.271236,"lng":141.997793,"delta_lat":[0,4344,32048,6914,5859],"delta_lng":[0,-84973,-67716,-5731,97372]}},
    {"code":9920812,"id":"122e6a","name":"鵜住居","name_kana":"うのすまい","lat":39.32694,"lng":141.887976,"prefecture":3,"lines":[99208],"attr":"cool","postal_code":"026-0301","address":"釜石市鵜住居町","open_date":"1939-09-17","next":[9920814,1120923,9920813,1120920,1120922,9920811],"voronoi":{"lat":39.314542,"lng":141.839373,"delta_lat":[0,33214,14657,39022,-79736,-1298],"delta_lng":[0,-40324,-11943,-10701,159248,1092]}},
    {"code":9920813,"id":"3f97eb","name":"大槌","name_kana":"おおつち","lat":39.356734,"lng":141.902894,"prefecture":3,"lines":[99208],"attr":"cool","postal_code":"028-1116","address":"上閉伊郡大槌町本町","open_date":"1938-04-05","next":[1120920,9920819,9920812,9920818,1121313,9920814,9920815],"voronoi":{"lat":39.440537,"lng":141.860416,"delta_lat":[0,15805,3517,-20023,-38400,-79736,49990],"delta_lng":[0,-34674,-28588,-36629,15880,159248,-17946]}},
    {"code":9920814,"id":"fac18f","name":"吉里吉里","name_kana":"きりきり","lat":39.36957,"lng":141.938648,"prefecture":3,"lines":[99208],"attr":"cool","postal_code":"028-1101","address":"上閉伊郡大槌町吉里吉里","open_date":"1938-04-05","next":[9920812,9920809,9920811,9920813,9920816,9920815],"voronoi":{"lat":39.371689,"lng":141.917706,"delta_lat":[0,-49990,-1298,-49165,-305480,421563],"delta_lng":[0,17946,1092,61048,717764,-736250]}},
    {"code":9920815,"id":"5a4a02","name":"浪板海岸","name_kana":"なみいたかいがん","lat":39.383537,"lng":141.935104,"prefecture":3,"lines":[99208],"attr":"cool","postal_code":"028-1101","address":"上閉伊郡大槌町吉里吉里10","open_date":"1961-12-20","next":[9920818,9920816,9920817,9920814,9920813],"voronoi":{"lat":39.440537,"lng":141.860416,"delta_lat":[0,-6429,-13298,-33490,-15630],"delta_lng":[0,31273,46469,41149,-61600]}},
    {"code":9920816,"id":"540970","name":"岩手船越","name_kana":"いわてふなこし","lat":39.431369,"lng":141.974033,"prefecture":3,"lines":[99208],"attr":"cool","postal_code":"028-1371","address":"下閉伊郡山田町船越","open_date":"1936-11-10","next":[9920818,9920817,9920804,9920829,9920823,9920809,9920815,1110816,1110808,9920814,1110806],"voronoi":{"lat":39.188776,"lng":146.005674,"delta_lat":[0,-3302322,1985983,1093320,421563,33490,61627,56452,71297,49145,-292428],"delta_lng":[0,3508682,-4494737,-2304062,-736250,-41149,74568,80488,1084626,2218370,384277]}},
    {"code":9920817,"id":"c371d7","name":"織笠","name_kana":"おりかさ","lat":39.454055,"lng":141.955284,"prefecture":3,"lines":[99208],"attr":"cool","postal_code":"028-1361","address":"下閉伊郡山田町織笠","open_date":"1936-11-10","next":[9920818,9920816,9920815],"voronoi":{"lat":39.434107,"lng":141.891689,"delta_lat":[0,48329,-61627],"delta_lng":[0,121037,-74568]}},
    {"code":9920818,"id":"03f097","name":"陸中山田","name_kana":"りくちゅうやまだ","lat":39.463449,"lng":141.951533,"prefecture":3,"lines":[99208],"attr":"eco","postal_code":"028-1342","address":"下閉伊郡山田町川向町","open_date":"1935-11-17","next":[9920816,9920821,9920817,9920815,9920819,9920813,9920820,9920823],"voronoi":{"lat":39.539259,"lng":142.086694,"delta_lat":[0,-2530,-9810,-70578,-15805,-6429,48329,56452],"delta_lng":[0,-21422,-52969,-186561,34674,31273,121037,80488]}},
    {"code":9920819,"id":"1eaa39","name":"豊間根","name_kana":"とよまね","lat":39.534274,"lng":141.924739,"prefecture":3,"lines":[99208],"attr":"eco","postal_code":"028-1302","address":"下閉伊郡山田町豊間根","open_date":"1935-11-17","next":[9920820,9920813,1121315,9920818,1121316,1121313,1120701],"voronoi":{"lat":39.555819,"lng":141.853033,"delta_lat":[0,9861,-38761,-70578,3517,66529,15335],"delta_lng":[0,14918,144351,-186561,-28588,29717,10555]}},
    {"code":9920820,"id":"13d0e8","name":"払川","name_kana":"はらいかわ","lat":39.564417,"lng":141.932833,"prefecture":3,"lines":[99208],"attr":"eco","postal_code":"027-0203","address":"宮古市津軽石第13地割336番3","open_date":"2019-03-23","next":[9920819,1121316,9920821,9920818],"voronoi":{"lat":39.586391,"lng":141.887009,"delta_lat":[0,-20710,-38761,9810],"delta_lng":[0,-19058,144351,52969]}},
    {"code":9920821,"id":"d2b9ef","name":"津軽石","name_kana":"つがるいし","lat":39.581507,"lng":141.937594,"prefecture":3,"lines":[99208],"attr":"eco","postal_code":"027-0203","address":"宮古市大字津軽石5-60","open_date":"1935-11-17","next":[9920822,9920818,1121316,1121317,9920823,9920820],"voronoi":{"lat":39.586391,"lng":141.887009,"delta_lat":[0,2384,16398,-12979,-52934,-2530],"delta_lng":[0,1522,33029,55653,109480,-21422]}},
    {"code":9920822,"id":"8610ac","name":"八木沢・宮古短大","name_kana":"やぎさわ・みやこたんだい","lat":39.619304,"lng":141.946409,"prefecture":3,"lines":[99208],"attr":"eco","postal_code":"027-0031","address":"宮古市八木沢第一地割1番3","open_date":"2019-03-23","next":[9920821,1121318,1121317,9920823,9920825],"voronoi":{"lat":39.628202,"lng":141.930327,"delta_lat":[0,-23029,-12979,37595,34],"delta_lng":[0,-8767,55653,-27287,-16272]}},
    {"code":9920823,"id":"5d2474","name":"磯鶏","name_kana":"そけい","lat":39.629883,"lng":141.960984,"prefecture":3,"lines":[99208],"attr":"eco","postal_code":"027-0024","address":"宮古市磯鶏石崎13","open_date":"1935-11-17","next":[1121318,9920816,9920829,9920828,9920821,9920826,9920822,9920818],"voronoi":{"lat":39.539259,"lng":142.086694,"delta_lat":[0,52934,37595,36374,12842,-853,-67966,-71297],"delta_lng":[0,-109480,-27287,26045,39913,24364,1137591,-1084626]}},
    {"code":1121318,"id":"805656","name":"宮古","name_kana":"みやこ","lat":39.640287,"lng":141.946454,"prefecture":3,"lines":[11213,99207,99208],"attr":"eco","postal_code":"027-0076","address":"宮古市栄町","open_date":"1934-11-06","next":[9920823,9920822,9920825,9920826],"voronoi":{"lat":39.663981,"lng":141.949317,"delta_lat":[0,-34159,-34,36374],"delta_lng":[0,-15662,16272,26045]}},
    {"code":9920825,"id":"b6b836","name":"山口団地","name_kana":"やまぐちだんち","lat":39.64635,"lng":141.933231,"prefecture":3,"lines":[99207,99208],"attr":"eco","postal_code":"027-0063","address":"岩手県宮古市山口三丁目","open_date":"2010-10-16","next":[1121318,1121317,9920822,9920826],"voronoi":{"lat":39.675876,"lng":141.89806,"delta_lat":[0,-47675,1621,34159],"delta_lng":[0,32267,3327,15662]}},
    {"code":9920826,"id":"40b59b","name":"一の渡","name_kana":"いちのわたり","lat":39.686895,"lng":141.94264,"prefecture":3,"lines":[99207,99208],"attr":"eco","postal_code":"027-0097","address":"宮古市崎山","next":[1121317,1121318,9920827,9920828,9920823,9920825,1121316],"voronoi":{"lat":39.675876,"lng":141.89806,"delta_lat":[0,-11895,2181,12842,26330,-21632,-489],"delta_lng":[0,51256,26655,39913,-54006,-77418,341]}},
    {"code":9920827,"id":"dd1c5e","name":"佐羽根","name_kana":"さばね","lat":39.711131,"lng":141.935868,"prefecture":3,"lines":[99207,99208],"attr":"eco","postal_code":"027-0067","address":"宮古市大字田代","next":[1120709,9920830,1121315,9920826,1121316,9920828],"voronoi":{"lat":39.683703,"lng":141.884461,"delta_lat":[0,34932,22239,41828,-13507,-63860],"delta_lng":[0,-37901,-18754,37487,50470,46116]}},
    {"code":9920828,"id":"03bf08","name":"田老","name_kana":"たろう","lat":39.731848,"lng":141.964556,"prefecture":3,"lines":[99207,99208],"attr":"eco","postal_code":"027-0351","address":"宮古市田老小林","next":[9920829,9920830,9920823,9920826,9920827],"voronoi":{"lat":39.769194,"lng":141.915762,"delta_lat":[0,77,-91120,853,26330],"delta_lng":[0,2527,121959,-24364,-54006]}},
    {"code":9920829,"id":"f52e8c","name":"新田老","name_kana":"しんたろう","lat":39.735514,"lng":141.967295,"prefecture":3,"lines":[99208],"attr":"eco","postal_code":"027-0307","address":"岩手県宮古市田老１丁目３-６","next":[9920828,9920816,9920830,9920823,1110806,1111130],"voronoi":{"lat":39.970348,"lng":144.82605,"delta_lat":[0,-201076,-91120,-67966,49145,155888],"delta_lng":[0,-2907761,121959,1137591,2218370,-187020]}},
    {"code":9920830,"id":"d13f6c","name":"摂待","name_kana":"せったい","lat":39.809453,"lng":141.962182,"prefecture":3,"lines":[99207,99208],"attr":"eco","postal_code":"027-0384","address":"宮古市田老摂待","next":[9920831,1120709,9920829,9920828,9920827,1111130],"voronoi":{"lat":39.769271,"lng":141.91829,"delta_lat":[0,-77,13507,33497,293811,-139662],"delta_lng":[0,-2527,-50470,6784,2621451,332523]}},
    {"code":9920831,"id":"2fd21e","name":"岩泉小本","name_kana":"いわいずみおもと","lat":39.842724,"lng":141.958453,"prefecture":3,"lines":[99207,99208],"attr":"eco","postal_code":"027-0421","address":"下閉伊郡岩泉町小本","next":[9920832,9920830,1120709,1111130],"voronoi":{"lat":39.816198,"lng":141.872076,"delta_lat":[0,43387,514899,-264475],"delta_lng":[0,585,2002576,618290]}},
    {"code":9920832,"id":"7ca601","name":"島越","name_kana":"しまのこし","lat":39.915737,"lng":141.93968,"prefecture":3,"lines":[99207,99208],"attr":"eco","postal_code":"028-8404","address":"下閉伊郡田野畑村松前沢","next":[1120709,9920833,9920831,1111130],"voronoi":{"lat":40.468932,"lng":143.665521,"delta_lat":[0,-569831,-39516,514899],"delta_lng":[0,-1811090,18231,2002576]}},
    {"code":9920833,"id":"c028b0","name":"田野畑","name_kana":"たのはた","lat":39.934276,"lng":141.933847,"prefecture":3,"lines":[99207,99208],"attr":"eco","postal_code":"028-8407","address":"下閉伊郡田野畑村和野","next":[1111130,9920832,9920835,1120709,9920834,1120622],"voronoi":{"lat":40.468932,"lng":143.665521,"delta_lat":[0,-569831,21435,108802,610127,23646],"delta_lng":[0,-1811090,-12975,155998,1182967,60036]}},
    {"code":9920834,"id":"c00464","name":"普代","name_kana":"ふだい","lat":40.002492,"lng":141.886269,"prefecture":3,"lines":[99207,99208],"attr":"cool","postal_code":"028-8332","address":"下閉伊郡普代村銅屋","next":[9920836,9920835,1120709,9920833],"voronoi":{"lat":39.920536,"lng":141.841455,"delta_lat":[0,48306,44889,15607],"delta_lng":[0,-76193,82786,149405]}},
    {"code":9920835,"id":"f1262a","name":"白井海岸","name_kana":"しらいかいがん","lat":40.032628,"lng":141.883121,"prefecture":3,"lines":[99207,99208],"attr":"cool","postal_code":"028-8311","address":"下閉伊郡普代村白井","next":[1120624,9920834,1120622,9920833,9920839,9920836],"voronoi":{"lat":40.238606,"lng":142.064859,"delta_lat":[0,32154,368705,-610127,-15607,155988],"delta_lng":[0,61731,1053830,-1182967,-149405,127133]}},
    {"code":9920836,"id":"c74f12","name":"堀内","name_kana":"ほりない","lat":40.051895,"lng":141.859481,"prefecture":3,"lines":[99207,99208],"attr":"cool","postal_code":"028-8301","address":"下閉伊郡普代村馬場野","next":[9920839,9920834,1120709,9920838,9920835,9920837],"voronoi":{"lat":40.131431,"lng":141.914454,"delta_lat":[0,38289,-155988,-44889,5282,135883],"delta_lng":[0,60728,-127133,-82786,-14960,136886]}},
    {"code":9920837,"id":"e6ac89","name":"野田玉川","name_kana":"のだたまがわ","lat":40.082728,"lng":141.828874,"prefecture":3,"lines":[99207,99208],"attr":"cool","postal_code":"028-8202","address":"九戸郡野田村大字玉川","next":[1120708,1120709,9920838,9920840,9920836],"voronoi":{"lat":40.068217,"lng":141.761844,"delta_lat":[0,-71803,-20178,-2111,135883],"delta_lng":[0,-83071,59707,11823,136886]}},
    {"code":9920838,"id":"176d79","name":"十府ヶ浦海岸","name_kana":"とふがうらかいがん","lat":40.096834,"lng":141.824171,"prefecture":3,"lines":[99207,99208],"attr":"cool","postal_code":"028-8201","address":"岩手県九戸郡野田村大字野田第10地割中沼10-3","open_date":"2017-03-25","next":[9920837,9920839,9920836,9920840],"voronoi":{"lat":40.068217,"lng":141.761844,"delta_lat":[0,41791,21423,-33605],"delta_lng":[0,125345,27265,-125059]}},
    {"code":9920839,"id":"dfe7dc","name":"陸中野田","name_kana":"りくちゅうのだ","lat":40.116115,"lng":141.81899,"prefecture":3,"lines":[99207,99208],"attr":"heat","postal_code":"028-8201","address":"九戸郡野田村大字野田","next":[9920836,1120624,9920835,9920838,9920840],"voronoi":{"lat":40.097826,"lng":141.789394,"delta_lat":[0,33605,38289,68887,-71285],"delta_lng":[0,125059,60728,89678,-241173]}},
    {"code":9920840,"id":"1531a9","name":"陸中宇部","name_kana":"りくちゅううべ","lat":40.132441,"lng":141.785904,"prefecture":3,"lines":[99207,99208],"attr":"heat","postal_code":"028-8111","address":"久慈市宇部町","next":[1120708,9920513,9920837,1120625,1120706,1120624,9920838,9920839],"voronoi":{"lat":40.168693,"lng":141.806486,"delta_lat":[0,-68347,-68228,-27260,-8444,71803,29609,69496],"delta_lng":[0,-263818,-5510,79448,62167,83071,27551,34292]}},
    {"code":1120625,"id":"083ed1","name":"久慈","name_kana":"くじ","lat":40.190391,"lng":141.770891,"prefecture":3,"lines":[11206,99207,99208],"attr":"heat","postal_code":"028-0061","address":"久慈市中央３","next":[9920513,1120623,9920840,1120624],"voronoi":{"lat":40.225042,"lng":141.759948,"delta_lat":[0,-32139,-92558,68347],"delta_lng":[0,-221143,3863,263818]}}
  ],
  "north":40.19119,
  "south":39.05371,
  "east":141.97524,
  "west":141.71085,
  "polyline_list":[
    {
      "start":"盛",
      "end":"釜石",
      "lat":39.08589,
      "lng":141.71085,
      "delta_lat":[0,-69,-47,-31,-40,-43,-76,-152,-8,-28,-43,-20,-32,-6,-7,-19,-14,-12,-4,0,7,8,11,9,16,22,1,14,10,7,3,4,5,1,3,2,2,2,1,1,0,-1,0,-3,-6,-7,-11,-15,-6,-8,-16,-15,-25,-22,-23,-38,-30,-37,-23,-49,-43,-40,-43,-22,-49,-46,-51,-41,-20,-29,-50,-23,-56,-40,-44,-27,-39,-22,-43,-33,-9,-2,-14,-26,-13,-12,-15,-12,-2,-29,-7,-13,-11,-12,-7,-7,-13,-14,-10,-7,-9,-9,-8,-4,0,-22,-21,-68,-71,-41,-63,-5,-50,-59,-44,-39,-35,-7,-39,-55,-47,-36,-20,-16,-13,-27,-18,-70,-105,-64,-61,-36,-46,-10,-18,-13,-23,-16,-23,-19,-11,-12,-6,-3,-3,1,3,3,12,7,13,16,4,7,14,18,21,19,92,76,70,13,32,71,64,32,33,55,42,91,25,41,47,132,161,278,313,129,53,31,69,36,37,16,38,7,51,45,46,182,174,304,167,23,38,14,16,22,11,112,62,61,42,28,48,141,64,22,25,70,106,44,50,53,27,23,56,29,29,10,21,22,24,27,23,45,46,47,46,41,43,22,21,30,12,15,14,37,16,62,158,48,99,20,66,23,110,31,47,21,16,31,22,21,107,73,14,59,74,19,43,147,34,78,74,48,26,52,22,59,46,76,39,33,52,20,18,31,22,26,26,25,67,79,138,80,61,83,85,59,172,7,104,201,133,55,142,83,40,51,97,29,31,58,75,13,13,18,32,85,58,20,20,18,45,18,28,55,18,69,40,18,33,25,20,61,40,7,53,20,21,29,16,21,44,15,27,20,27,13,22,67,28,25,64,122,40,24,49,34,51,75,192,129,140,375,28,42,56,126,117,215,6,262,14,180,126,71,191,93,390,114,156,140,59,9,324,50,204,107,187,66,115,112,6,229,147,46,140,37,97,88,54,85,85,85,81,85,51,44,38,39,51,39,44,42,37,280,136,138,9,341,383,72,102,184,121,35,88,36,20,63,11,29,18,28,30,33,21,38,34,103,32,57,65,7,31,65,83,78,45,20,23,131,76,86,40,23,76,74,85,52,43,43,43,40,88,108,120,78,94,47,56,64,39,54,53,30,21,17,38,40,26,31,30,26,14,16,11,23,40,25,22,13,9,31,28,21,18,11,21,24,15,29,24,22,61,52],
      "delta_lng":[0,10,5,9,11,19,42,86,3,34,47,25,53,10,15,46,43,63,39,50,68,54,47,35,49,68,4,41,35,27,13,19,25,4,21,15,18,31,25,15,8,26,2,38,40,34,45,42,14,19,33,30,43,36,29,57,42,46,30,57,49,45,50,23,53,50,59,45,20,34,56,29,61,49,53,35,50,32,58,48,13,5,22,46,24,21,33,24,4,69,20,42,32,36,25,27,50,64,46,29,46,41,33,14,5,93,88,271,281,165,255,19,233,273,202,181,163,27,189,252,227,178,94,65,37,58,37,115,164,98,98,72,106,27,52,36,81,54,87,77,68,100,74,74,101,60,68,45,82,45,76,75,18,28,59,59,66,52,201,153,146,25,67,136,101,39,33,51,29,50,10,21,14,36,44,74,85,32,1,1,-4,-3,-3,-2,-11,-2,-17,-19,-24,-108,-107,-207,-116,-16,-27,-7,-10,-13,-6,-79,-41,-31,-12,-7,-11,-23,-11,-3,-7,-11,-18,-8,-9,-9,-4,-3,0,4,7,2,5,4,8,10,9,24,25,25,22,17,19,10,8,11,5,4,4,9,4,13,32,7,17,3,14,4,21,5,9,4,3,6,4,4,18,6,-1,0,-3,-1,-4,-10,-2,-6,-4,-4,-1,-1,-1,2,7,16,10,12,30,12,11,18,14,18,19,20,52,59,108,61,47,63,65,45,128,5,78,153,101,42,110,66,30,39,71,22,22,43,56,11,8,14,25,80,60,21,26,22,47,21,34,72,26,91,64,33,65,56,45,144,81,17,120,46,52,69,33,49,92,28,55,31,36,12,24,63,24,20,45,70,19,10,20,13,24,25,71,42,47,125,10,15,13,41,39,71,2,85,4,55,40,23,62,28,132,38,53,46,21,4,123,20,95,46,74,28,48,46,3,96,57,21,45,14,62,62,36,56,62,58,56,61,30,28,26,26,30,27,30,29,28,185,89,95,6,224,249,47,65,125,83,24,55,14,9,21,4,8,6,9,9,9,9,13,10,29,8,15,18,2,8,18,22,18,7,1,1,3,-5,-7,0,-1,-10,-10,-15,-13,-11,-12,-11,-11,-24,-28,-29,-22,-27,-9,-13,-14,-9,-13,-11,-7,-4,-5,-14,-20,-13,-20,-22,-23,-17,-16,-16,-52,-97,-62,-47,-20,-15,-44,-34,-28,-32,-21,-63,-75,-32,-50,-45,-40,-126,-99]
    },
    {
      "start":"釜石",
      "end":"宮古",
      "lat":39.27356,
      "lng":141.87225,
      "delta_lat":[0,42,1,12,34,36,33,33,1,29,5,15,3,10,0,0,-4,-3,-6,-13,-5,0,-2,4,19,6,18,18,22,33,27,20,25,56,43,38,62,55,136,76,82,85,113,66,57,49,71,54,58,52,39,71,58,52,60,53,58,55,57,21,13,10,40,29,25,4,16,10,30,18,19,38,41,39,37,36,30,6,4,38,81,36,20,4,0,-15,2,0,7,8,1,10,1,16,15,31,21,25,22,20,132,15,16,16,15,11,14,9,22,9,14,31,33,28,54,11,18,25,53,18,64,73,37,26,40,24,18,18,24,20,21,27,33,14,33,13,32,50,80,49,200,37,54,65,31,28,65,31,11,118,103,122,24,18,257,71,103,35,80,120,142,146,107,132,26,21,49,94,30,111,7,16,37,28,57,50,51,33,150,176,205,103,303,29,23,64,52,31,40,32,49,47,14,6,26,12,11,12,15,15,9,5,31,11,37,42,22,28,51,34,26,34,40,43,45,28,5,9,62,20,39,56,67,150,44,38,8,13,17,7,3,2,5,17,14,15,13,54,32,24,57,44,16,7,2,55,33,51,56,58,36,60,47,53,37,20,44,16,38,56,56,49,96,66,49,89,41,29,25,26,16,11,7,24,23,29,24,18,12,29,17,68,13,36,36,52,72,69,63,62,18,18,14,12,9,11,14,24,20,24,21,25,29,25,29,44,12,44,29,59,54,3,17,25,24,24,39,41,31,38,35,29,23,32,22,28,30,85,73,80,21,14,51,21,17,34,72,34,57,31,30,67,71,54,30,45,22,38,61,11,17,18,25,44,55,65,95,46,95,40,54,41,49,63,40,147,106,56,110,10,43,42,27,26,71,60,54,78,126,38,29,42,61,27,59,82,128,120,115,86,56,57,84,21,41,24,105,60,59,46,29,10,20,17,48,31,33,30,34,44,110,107,60,51,55,23,36,28,12,17,14,13,34,8,8,4,11,18,10,-1,-2,-4,-3,-3,-3,-5,-2,2,3,14,6,17,9,7,16,20,34,36,77,18,37,118,183,13,57,58,50,30,58,57,25,51,52,57,23,32,13,35,46,111,74,16,20,118,88,70,103,51,25,24,29,23,42,23,19,22,18,48,18,18,20,26,45,43,36,36,31,79,134,212,58,39,13,12,12,27,7,5,2,-4,-12,-8,-10,-9,-28,-30,-23,-4,-14,-8,-9,4,5,0,-6,-15,-26,-23,-15,-9,-6,-3,3,3,14,18,8,0,-3,-2,0,-1,6,8,9,13,18,31,34,47,32,26,38,47,40,36,19,42,35,85,91,132,40,183,71,21,29,40,59,112,62,42,32,31,19,26,32,20,4,103,13,19,24,44,62,61,29,71,217,104,30,23,32,28,11,20,9,37,41,49,25,18,22,22,21,29,36,33,27,15,13,15,16,9,8,9,7,16,10,1,11,36,35,54,18,23,33,16,17,12,18,22,12,11,9,5,10,19,20,24,20,22,21,24,5,37,34,29,28,33,18,43,18,24,26,50,25,26,21,20,24,32,25,26,25,53,59,60,72,47,50,44,54,47,43,35,35,33,30,43,27,29,32,29,30,27,37,34,31,37,13,24,40,58,47,45,20,20,18,33,31,35,33,24,22,23,29,23,7,42,36,41,75,110,41,37,69,37,33,26,28,29,29,32,36,23,27,23,9,4,27,19,20,21,21,31,21,18,21,23,44,29,25,18,19,46,23,35,29,21,13,43,37,19,22,16,28,18,21,29,32,20,25,24,22,36,38,36,34,24,33,16,34,27,20,9,29,22,31,30,28,25,26,31,33,30,29,49,27,33,23,24,27,22,19,26,26,24,26,30,32,29,30,52,1,41,32,24,29,31,23,38,37,32,36,21,26,44,14,60,30,33,34,27,18,38,29,22,49,36,54,60,37,38,49,40,62,61,36,51,36,38,36,31,7,61,37,55,51,43,4,42,33,36,30,25,24,14,6,30,19,23,29,29,30,24,24,23,9,91,23,18,13,14,6,3,18,13,15,9,10,4,4,3,7,15,22,23,27,25,27,30,32,29,5,28,29,37,28,32,36,4,30,28,36,42,38,26,28,23,26,21,24,23,18,22,19,23,25,23,28,28,40,45,45,52,38,4,33,38,28,34,35,35,30,33,49,45,45,20,45,47,47,28,36,21,22,7,13,30,42,23,26,25,18,29,20,20,23,27,29,31,45,35,25,0,16,18,20,18,22,21,21,21,20,18,24,25,27,27,18,19,12,6,15,28,13,14,13,11,12,20,25,15,16,13,19,15,29,50,35,29,34,24,21,18,15,11,10,13,20,24,14,43,33,36,44,32,9,24,32,45,38,53,23,27,29,32,33,31,22,18,5,20,40,27,27,16,38,31,18,9,13,13,12,12,10,10,8,7,7,8,12,6,8,13,11,12,3,3,18,9,15,21,25,22,30,26,27,37,1,17,28,29,33,47,91,15,31,31,32,70,19,20,20,27,29,29,33,9,14,21,17,11,15,21,18,22,21,19,21,18,11,9,5,6,7,11,12,24,11,31,63,9,11,18,25,9,10,10,4,14],
      "delta_lng":[0,-76,-6,-16,-53,-57,-54,-61,-1,-69,-17,-45,-9,-45,-13,-19,-23,-28,-13,-39,-40,-77,-32,-38,-73,-20,-41,-27,-27,-27,-15,-9,-4,-5,0,0,6,4,10,4,12,6,11,7,5,4,16,9,10,9,7,12,12,10,11,7,11,14,19,14,13,14,62,60,53,9,39,24,66,27,31,55,57,54,60,63,60,20,3,80,173,67,61,35,35,432,55,27,55,42,8,39,6,40,40,65,41,33,27,30,128,13,20,23,31,30,30,20,33,15,12,27,22,10,10,0,-2,-6,-23,-7,-28,-35,-22,-15,-25,-20,-20,-32,-40,-39,-39,-36,-32,-11,-16,-7,-9,-13,-22,-9,-41,-8,-5,3,1,10,22,14,7,59,54,57,14,10,122,37,46,19,42,57,71,70,51,67,10,4,28,42,14,49,3,5,12,2,5,-4,-9,0,-12,-6,-8,-2,-9,-1,2,18,17,11,26,24,52,58,25,16,60,34,31,47,61,61,42,27,187,52,214,186,77,83,141,112,80,111,131,129,135,85,16,24,150,47,87,125,154,349,99,87,22,69,79,34,58,71,67,88,65,57,33,121,60,35,75,48,21,7,3,45,23,30,28,31,14,29,26,26,16,8,16,4,6,0,-22,-28,-59,-33,-41,-87,-47,-59,-67,-71,-29,-16,-9,-24,-15,-15,-9,-6,-5,-1,1,20,8,26,38,52,70,69,58,63,20,29,38,54,39,28,30,32,18,18,17,12,11,3,8,20,10,34,28,60,53,2,15,18,14,13,15,14,13,23,27,26,28,32,34,34,25,76,62,72,23,15,52,24,21,49,83,46,65,35,24,39,32,30,22,41,27,62,94,19,25,21,27,41,42,50,73,38,73,31,49,45,55,72,45,167,121,64,126,12,47,43,21,16,26,18,5,11,3,4,7,16,24,9,16,35,49,43,42,26,19,26,25,2,1,-5,-32,-17,-17,-16,-23,-15,-25,-23,-60,-31,-23,-15,-12,-9,-18,-24,-8,-13,-15,-11,-27,-26,-13,-24,-27,-35,-86,-45,-58,-48,-73,-120,-68,-28,-65,-78,-71,-72,-65,-68,-27,-88,-29,-60,-28,-55,-26,-14,-21,-27,-37,-31,-27,0,-2,-1,-4,-3,1,0,2,6,16,21,6,10,-3,-8,-5,-9,-7,-13,-31,-69,-51,-14,-26,-167,-128,-101,-146,-59,-17,-9,-3,6,11,8,13,24,27,63,16,16,19,14,11,1,-9,-20,-22,-65,-105,-159,-51,-41,-17,-20,-25,-72,-37,-38,-77,-27,-45,-26,-24,-22,-56,-65,-70,-19,-53,-61,-62,-55,-79,-58,-64,-47,-53,-46,-35,-45,-36,-36,-46,-27,-70,-73,-41,-32,-51,-18,-37,-13,-48,-40,-21,-23,-19,-29,-23,-16,0,0,-5,-19,-29,-16,-3,-3,7,22,18,28,5,7,-4,-4,-7,-17,-30,-68,-36,-8,4,11,9,28,30,34,11,222,15,17,20,33,33,27,11,25,80,36,1,-3,-12,-21,-10,-27,-11,-55,-69,-79,-36,-19,-14,-3,0,0,-4,-10,-14,-14,-16,-18,-22,-15,-17,-27,-31,-44,-19,-3,-24,-53,-45,-72,-24,-32,-45,-24,-27,-21,-33,-38,-27,-34,-26,-16,-32,-61,-65,-63,-51,-47,-29,-23,-5,-25,-21,-7,-7,-5,0,9,6,13,17,32,18,17,14,13,12,10,5,2,0,3,7,9,23,22,26,19,28,23,21,17,19,18,24,41,33,30,34,30,28,20,27,19,17,16,4,9,16,19,15,15,9,13,16,29,28,30,30,21,19,16,15,10,1,11,11,7,15,19,8,6,13,5,5,5,4,3,6,8,15,13,20,19,9,6,29,23,27,34,42,53,37,32,37,41,78,55,44,34,33,82,40,63,53,39,23,80,62,33,41,30,49,24,20,19,14,4,2,0,-2,-4,-2,1,2,8,16,9,14,13,10,4,8,4,2,-4,-2,-2,4,5,7,7,4,12,4,2,-1,-5,-8,-10,-9,-21,-22,-24,-29,-28,-31,-25,-30,-49,-1,-38,-28,-23,-30,-28,-21,-37,-35,-29,-35,-19,-24,-41,-13,-59,-27,-26,-24,-15,-8,-16,-8,-4,-6,3,10,19,12,16,20,14,25,24,16,20,15,13,15,11,3,24,16,20,22,17,2,15,10,14,18,16,20,14,4,38,19,15,18,17,16,16,12,10,5,57,21,18,19,19,13,6,36,35,35,34,45,20,18,20,17,23,29,27,34,32,29,29,28,16,3,18,21,25,17,22,25,1,18,8,7,-2,-9,-7,-12,-15,-20,-21,-27,-31,-28,-35,-31,-25,-31,-23,-22,-20,-27,-32,-28,-31,-26,-2,-21,-32,-25,-30,-35,-38,-34,-39,-53,-55,-50,-23,-51,-54,-55,-34,-40,-26,-24,-9,-13,-28,-33,-15,-14,-14,-9,-11,-9,-11,-11,-11,-9,-6,-2,6,7,0,7,10,17,15,24,21,18,20,18,15,22,23,22,23,17,19,16,7,18,38,22,23,25,21,20,37,35,19,19,13,16,10,18,28,18,21,21,19,19,21,18,17,16,21,32,36,25,68,51,61,72,51,13,40,52,69,65,81,37,37,46,45,40,37,24,20,6,26,45,34,30,18,44,36,21,13,16,18,20,23,20,22,25,37,30,35,50,19,27,44,39,47,12,15,44,18,29,32,28,23,27,18,17,18,1,4,6,5,4,8,22,3,9,8,6,8,0,0,0,-2,0,-5,-9,-2,-4,-5,-6,-6,-11,-14,-14,-14,-22,-25,-34,-36,-31,-30,-38,-47,-42,-43,-37,-63,-27,-85,-162,-29,-37,-80,-113,-48,-45,-58,-16,-70]
    },
    {
      "start":"宮古",
      "end":"久慈",
      "lat":39.63969,
      "lng":141.94829,
      "delta_lat":[0,40,21,14,15,9,1,4,10,7,-2,-3,-7,-8,-14,-9,-9,6,23,27,13,26,59,36,41,58,43,53,112,31,86,136,9,56,188,145,210,307,74,52,18,29,33,52,35,53,102,177,409,20,193,390,146,40,66,209,164,16,265,269,11,49,40,27,12,62,7,56,49,68,37,68,40,2,50,18,74,246,329,141,135,332,21,94,97,171,40,76,75,75,61,34,38,73,48,51,31,16,52,56,8,108,77,35,5,56,18,31,40,14,28,18,8,33,38,9,20,22,5,20,18,27,46,53,46,52,38,64,9,394,77,42,54,47,115,66,70,94,60,16,27,26,5,18,7,47,46,7,36,42,231,85,30,47,7,118,163,78,21,52,46,154,329,203,8,466,215,11,317,283,267,18,255,127,230,208,23,47,7,266,280,255,81,14,264,212,45,239,54,83,233,231,259,51,122,51,56,49,26,15,53,132,42,38,64,40,63,39,5,48,19,30,12,56,17,19,8,20,36,76,73,83,94,117,96,33,135,72,80,88,53,130,44,322,106,148,96,309,18,50,21,12,58,85,161,71,6,100,20,18,13,28,4,25,4,70,6,103,9,27,9,67,117,118,65,224,129,128,215,121,91,229,226,217,119,109,130,131,189,35,189,99,25,129,107,99,248,216,58,159,220,230,212,102,116,122,195,72,211,68,104,224,78,270,138,57,73,24,147,104,58,183,76,69,55,10,41,13,104,95,21,40,63,129,185,154,40,76,20,43,32,71,52,116,197,94,31,15,93,60,33,43,7,17,16,5,18,36,4,29,60,106,44,27,79,32,179,98,64,63,79,38,20,9,11,15,9,11,16,28,2,56,30,10,9,58,9,5,13,7,22,27,5,15,16,20,20,14,6,16,31,12,26,12,30,38,17,26,14,2,26,28,22,31,56,33,21,82,408,177,59,664,115,389,382,203,545,70,22,112,179,224,221,124,40,21,22,26,46,8,6,46,96,9,8,106,4,93,239,36,60,31,7,115,74,22,47,22,29,14,19,23,21,11,42,6,29,36,34,7,44,5,30,55,12,44,16,36,4,80,26,15,14,56,39,21,20,44,5,78,46,96,124,38,44,51,135,80,42,47,103,78,29,101,58,17,76,21,16,50,47,55,57,47,75,63,38,43,34,69,416,81,515,76,72,78,74,54,35,68,31,42,25,9,3,11,12,18,21,6,38,10,11,14,15,3,12,11,3,27,18,29,26,10,45,2,53,21,27,13,16,11,9,4,0,4,9,17,3,12,31,12,11,23,48,37,35,38,32,60,75,160,70,21,47,88,51,20,23,27,146,4,47,33,209,174,54,29,16,76,51,20,43,20,58,103,45,33,100,37,199,22,46,40,55,43,98,10,79,22,8,67,11,80,76,21,38,35,20,22,112,179,114,25,140,149,91,189,18,57,77,192,14,71,70,166,141,32,47,58,25,28,45,24,38,371,45,43,16,45,47,49,31,61,41,32,24,29,35,49,163,91,215,63,22,66,28,26,8,51,28,2,16,110,45,61,10,5,30,41,67,11,107,34,9,67,94,40,37,4,11,23,11,6,18,5,6,41,74,27,10,27,38,29,6,53,27,54,53,60,68,44,64,69,49,60,45,734,47,31,18,106,144,35,65,25,56,33,42,26,12,72,25,29,121,40,10,4,53,39,40,20,61,153,52,5,111,82,85,67,31,36,60,159,11,43,75,76,48,38,128,248,24,81,28,39,57,24,24,77,67,56,34,45,18,39,27,52,51,43,63,53,47,4,54,27,11,27,5,25,10,37,24,33,19,30,21,32,116,138],
      "delta_lng":[0,-184,-96,-61,-72,-36,-8,-22,-37,-38,-45,-58,-68,-80,-118,-79,-81,-17,-58,-60,-23,-32,-56,-25,-28,-33,-18,-20,-33,-6,-16,-26,-2,-12,-33,-26,-35,-60,-14,-11,-1,0,0,8,7,16,41,81,178,9,81,169,56,21,31,89,71,6,113,116,5,21,18,12,4,27,2,24,21,24,10,7,-1,-1,-5,-5,-17,-98,-143,-62,-58,-144,-12,-38,-43,-77,-15,-36,-21,-8,0,4,5,17,19,26,16,10,33,36,4,72,62,39,5,71,26,56,94,36,103,108,59,299,308,77,134,90,32,66,44,52,74,75,53,51,31,48,7,239,56,34,46,41,96,55,60,81,40,14,12,8,1,7,2,14,11,2,6,8,51,15,8,8,1,26,25,12,1,0,-5,-22,-40,-27,-2,-58,-28,-2,-40,-38,-35,-2,-34,-17,-29,-26,-4,-6,-1,-32,-40,-35,-9,-2,-34,-26,-6,-33,-5,-11,-32,-30,-32,-6,-15,-4,1,6,6,3,11,27,9,7,14,9,12,8,1,10,5,7,2,10,1,1,0,0,4,2,-1,-8,-9,-18,-11,-5,-21,-11,-13,-13,-7,-19,-9,-44,-16,-22,-13,-48,0,-7,-2,-1,-12,-18,-38,-20,-2,-25,-5,-5,-4,-6,-2,-5,-1,-16,-1,-27,-2,-7,-2,-17,-31,-29,-17,-62,-32,-33,-55,-32,-25,-57,-58,-58,-30,-27,-35,-33,-52,-9,-50,-23,-5,-34,-28,-28,-65,-55,-14,-41,-60,-57,-50,-27,-28,-26,-49,-18,-60,-20,-28,-58,-20,-69,-37,-14,-18,-5,-37,-24,-15,-49,-19,-17,-15,-2,-10,-4,-30,-15,0,3,7,19,26,15,-1,-18,-8,-16,-16,-37,-39,-85,-149,-73,-25,-10,-73,-46,-26,-38,-6,-15,-14,-5,-15,-33,-5,-27,-57,-111,-47,-27,-83,-33,-185,-101,-70,-70,-112,-73,-46,-18,-29,-36,-21,-27,-37,-67,-6,-134,-75,-22,-26,-148,-24,-12,-46,-24,-79,-109,-16,-66,-68,-80,-84,-59,-24,-42,-77,-23,-57,-22,-59,-66,-25,-38,-21,-3,-35,-36,-23,-29,-50,-24,-17,-45,-197,-86,-30,-323,-54,-184,-183,-98,-260,-35,-10,-54,-85,-100,-51,-10,1,3,6,8,12,1,3,15,32,3,2,35,2,31,77,14,20,11,2,38,25,7,15,8,9,4,3,3,3,1,3,1,0,1,0,0,-3,0,-3,-12,-1,-17,-4,-11,-3,-36,-12,-7,-7,-28,-19,-10,-10,-23,-2,-43,-19,-40,-43,-8,-10,-3,4,8,6,6,17,13,4,17,8,2,8,2,3,0,1,-3,-9,-10,-26,-30,-23,-22,-17,-55,-351,-69,-437,-63,-58,-65,-65,-48,-31,-60,-31,-52,-39,-16,-4,-18,-21,-34,-43,-13,-98,-34,-44,-60,-90,-12,-63,-65,-24,-112,-52,-72,-45,-20,-78,-5,-84,-30,-44,-22,-30,-27,-26,-23,-7,-69,-126,-98,-9,-46,-101,-32,-31,-49,-85,-54,-49,-41,-33,-49,-47,-79,-38,-18,-32,-63,-43,-21,-21,-26,-140,-7,-44,-33,-206,-175,-67,-41,-26,-140,-89,-36,-68,-33,-59,-77,-18,-13,-22,-5,-1,-3,-6,-8,-19,-19,-42,-6,-32,-9,-4,-29,-4,-35,-34,-10,-16,-17,-7,-9,-48,-73,-42,-10,-45,-40,-18,-42,-4,-12,-18,-31,-1,-3,7,75,63,12,16,13,1,1,-7,-7,-10,-111,-14,-19,-8,-24,-34,-39,-32,-75,-55,-44,-34,-42,-46,-68,-235,-128,-298,-91,-30,-96,-38,-45,-10,-88,-55,-5,-31,-255,-111,-150,-22,-14,-74,-100,-168,-27,-262,-81,-25,-161,-228,-98,-98,-10,-35,-80,-61,-25,-92,-31,-26,-206,-384,-106,-42,-81,-73,-48,-9,-76,-30,-69,-70,-72,-77,-40,-47,-39,-21,-18,-15,-289,-9,-5,-2,-13,7,6,14,9,26,19,25,17,6,47,18,18,81,26,7,3,36,27,30,16,60,158,47,5,75,37,30,23,10,12,20,52,2,16,24,19,8,5,12,14,3,4,1,2,4,0,1,0,-6,-9,-6,-14,-6,-10,-11,-25,-28,-28,-44,-44,-45,-4,-59,-32,-11,-33,-6,-29,-10,-41,-22,-27,-11,-18,-9,-10,-31,-37]
    }
  ]
}