{
  "code":99201,
  "name":"津軽鉄道",
  "station_list":[
    {"code":9920101,"id":"127657","name":"津軽五所川原","name_kana":"つがるごしょがわら","lat":40.809684,"lng":140.448489,"prefecture":2,"lines":[99201],"attr":"eco","postal_code":"037-0063","address":"五所川原市字大町７-５"},
    {"code":9920102,"id":"bd8fc4","name":"十川(青森)","name_kana":"とがわ","lat":40.817526,"lng":140.457044,"prefecture":2,"lines":[99201],"attr":"eco","postal_code":"037-0017","address":"五所川原市大字漆川字鍋懸８５-３"},
    {"code":9920103,"id":"62a44b","name":"五農校前","name_kana":"ごのうこうまえ","lat":40.821146,"lng":140.478753,"prefecture":2,"lines":[99201],"attr":"cool","postal_code":"037-0093","address":"五所川原市大字一野坪字朝日田崎９１"},
    {"code":9920104,"id":"78fe84","name":"津軽飯詰","name_kana":"つがるいいづめ","lat":40.829884,"lng":140.479586,"prefecture":2,"lines":[99201],"attr":"cool","postal_code":"037-0002","address":"五所川原市大字飯詰字清野２２-３"},
    {"code":9920105,"id":"bbcc97","name":"毘沙門","name_kana":"びしゃもん","lat":40.857903,"lng":140.47778,"prefecture":2,"lines":[99201],"attr":"cool","postal_code":"037-0096","address":"五所川原市大字毘沙門字熊石１１３-２３"},
    {"code":9920106,"id":"f4aa5a","name":"嘉瀬","name_kana":"かせ","lat":40.881058,"lng":140.469316,"prefecture":2,"lines":[99201],"attr":"cool","postal_code":"037-0204","address":"五所川原市金木町嘉瀬端山崎２６９-３"},
    {"code":9920107,"id":"4d0359","name":"金木","name_kana":"かなぎ","lat":40.902875,"lng":140.459971,"prefecture":2,"lines":[99201],"attr":"cool","postal_code":"037-0202","address":"五所川原市金木町朝日山３６０-２"},
    {"code":9920108,"id":"8e3e91","name":"芦野公園","name_kana":"あしのこうえん","lat":40.912283,"lng":140.451657,"prefecture":2,"lines":[99201],"attr":"cool","postal_code":"037-0202","address":"五所川原市金木町８４-１７１"},
    {"code":9920109,"id":"f7b10e","name":"川倉","name_kana":"かわくら","lat":40.926356,"lng":140.44368,"prefecture":2,"lines":[99201],"attr":"cool","postal_code":"037-0201","address":"五所川原市金木町川倉林下１７-７"},
    {"code":9920110,"id":"611b7c","name":"大沢内","name_kana":"おおざわない","lat":40.940243,"lng":140.437396,"prefecture":2,"lines":[99201],"attr":"heat","postal_code":"037-0311","address":"北津軽郡中泊町大沢内海原４８-２"},
    {"code":9920111,"id":"d98fe3","name":"深郷田","name_kana":"ふこうだ","lat":40.951203,"lng":140.441043,"prefecture":2,"lines":[99201],"attr":"heat","postal_code":"037-0308","address":"北津軽郡中泊町深郷田字甘木７-３"},
    {"code":9920112,"id":"ffeb69","name":"津軽中里","name_kana":"つがるなかさと","lat":40.964848,"lng":140.44102,"prefecture":2,"lines":[99201],"attr":"heat","postal_code":"037-0305","address":"北津軽郡中泊町中里亀山２２５-１"}
  ],
  "north":40.96521,
  "south":40.80959,
  "east":140.48105,
  "west":140.43724,
  "polyline_list":[
    {
      "start":"津軽五所川原",
      "end":"津軽中里",
      "lat":40.80959,
      "lng":140.44855,
      "delta_lat":[0,103,134,101,57,42,42,34,34,31,44,19,29,22,93,19,11,12,22,51,23,28,14,15,28,31,40,39,51,45,39,47,29,36,68,531,71,191,415,81,54,217,114,67,46,75,114,225,31,174,42,23,31,64,29,22,104,189,193,30,254,52,17,204,231,98,29,60,245,169,227,138,26,108,162,214,294,89,231,33,52,25,53,57,119,196,39,225,202,49,25,33,21,22,29,36,49,20,11,52,43,94,20,86,29,254,94,192,52,25,39,37,36,37,32,20,21,28,25,23,24,55,47,1,83,90,31,96,53,21,26,21,31,27,24,28,62,42,29,73,67,62,31,291,377,66,21,34,46,87,303,73,225,43,40,39,34,354,107,208,124,188,80,75,76,46,37,198,50,72,75,54,49,54,58,193,174,41,43,30,23,36,80,320,65],
      "delta_lng":[0,30,33,27,25,25,30,36,48,60,98,44,64,54,232,88,47,80,284,607,273,358,95,60,69,61,72,62,56,36,25,18,8,2,0,-21,-1,-6,-14,-4,-3,-8,-2,6,9,20,33,63,9,50,9,3,-1,-8,-4,-9,-40,-72,-76,-13,-99,-19,-8,-80,-87,-38,-10,-23,-87,-63,-81,-50,-9,-38,-61,-77,-102,-28,-89,-16,-27,-18,-45,-55,-116,-190,-38,-221,-195,-45,-18,-17,-11,-10,-8,-7,0,2,1,8,11,30,6,27,9,88,32,60,15,4,0,-4,-11,-16,-21,-14,-22,-39,-39,-44,-50,-123,-109,-2,-189,-205,-72,-225,-115,-37,-40,-28,-37,-25,-19,-16,-25,-14,-7,-12,-14,-9,-5,-52,-71,-15,-7,-20,-30,-69,-232,-55,-169,-27,-18,-10,-2,13,3,6,5,7,9,23,42,28,28,196,53,71,68,36,20,16,9,9,6,0,-7,-11,-9,-17,-40,-171,-32]
    }
  ]
}