{
  "code":99203,
  "name":"弘南鉄道大鰐線",
  "station_list":[
    {"code":9920301,"id":"72cea4","name":"大鰐","name_kana":"おおわに","lat":40.52182,"lng":140.566822,"prefecture":2,"lines":[99203],"attr":"heat","postal_code":"038-0211","address":"南津軽郡大鰐町大字大鰐字前田３４-８"},
    {"code":9920302,"id":"4f91e1","name":"宿川原","name_kana":"しゅくがわら","lat":40.525153,"lng":140.557559,"prefecture":2,"lines":[99203],"attr":"heat","postal_code":"038-0231","address":"南津軽郡大鰐町大字宿川原川崎１３５-１３"},
    {"code":9920303,"id":"55f38c","name":"鯖石","name_kana":"さばいし","lat":40.53561,"lng":140.5527,"prefecture":2,"lines":[99203],"attr":"heat","postal_code":"038-0200","address":"南津軽郡大鰐町大字小金崎字桜ノ木３-４"},
    {"code":9920304,"id":"8366c8","name":"石川プール前","name_kana":"いしかわぷーるまえ","lat":40.543292,"lng":140.550278,"prefecture":2,"lines":[99203],"attr":"heat","postal_code":"036-8123","address":"弘前市大字小金崎字村元６０-５"},
    {"code":9920305,"id":"e5a0ce","name":"石川(弘南鉄道)","name_kana":"いしかわ","lat":40.550967,"lng":140.541337,"prefecture":2,"lines":[99203],"attr":"heat","postal_code":"036-8124","address":"青森県弘前市大字石川字大仏下36"},
    {"code":9920306,"id":"ca1895","name":"義塾高校前","name_kana":"ぎじゅくこうこうまえ","lat":40.555824,"lng":140.527461,"prefecture":2,"lines":[99203],"attr":"heat","postal_code":"036-8124","address":"弘前市石川大字野崎６９-２"},
    {"code":9920307,"id":"92fe1c","name":"津軽大沢","name_kana":"つがるおおさわ","lat":40.557865,"lng":140.516392,"prefecture":2,"lines":[99203],"attr":"heat","postal_code":"036-8125","address":"弘前市大字大沢字稲元１-１"},
    {"code":9920308,"id":"c312be","name":"松木平","name_kana":"まつきたい","lat":40.560677,"lng":140.497097,"prefecture":2,"lines":[99203],"attr":"cool","postal_code":"036-8127","address":"弘前市大字小栗山字長田３１-３"},
    {"code":9920309,"id":"b72b66","name":"小栗山","name_kana":"こぐりやま","lat":40.564276,"lng":140.486704,"prefecture":2,"lines":[99203],"attr":"cool","postal_code":"036-8127","address":"弘前市大字小栗山字川合２１"},
    {"code":9920310,"id":"8a6e65","name":"千年","name_kana":"ちとせ","lat":40.567387,"lng":140.480282,"prefecture":2,"lines":[99203],"attr":"cool","postal_code":"036-8142","address":"弘前市大字松原西３-３-８"},
    {"code":9920311,"id":"5493fe","name":"聖愛中高前","name_kana":"せいあいちゅうこうまえ","lat":40.577202,"lng":140.47269,"prefecture":2,"lines":[99203],"attr":"cool","postal_code":"036-8155","address":"青森県弘前市大字中野3-5-11"},
    {"code":9920312,"id":"0ba85d","name":"弘前学院大前","name_kana":"ひろさきがくいんだいまえ","lat":40.583363,"lng":140.470654,"prefecture":2,"lines":[99203],"attr":"eco","postal_code":"036-8155","address":"青森県弘前市大字中野1-13-1"},
    {"code":9920313,"id":"4740d0","name":"弘高下","name_kana":"ひろこうした","lat":40.593078,"lng":140.468212,"prefecture":2,"lines":[99203],"attr":"eco","postal_code":"036-8222","address":"弘前市大字桜林町９-７"},
    {"code":9920314,"id":"43c509","name":"中央弘前","name_kana":"ちゅうおうひろさき","lat":40.599144,"lng":140.472203,"prefecture":2,"lines":[99203],"attr":"eco","postal_code":"036-8188","address":"弘前市大字吉野町１-６"}
  ],
  "north":40.5994,
  "south":40.52171,
  "east":140.56782,
  "west":140.4682,
  "polyline_list":[
    {
      "start":"大鰐",
      "end":"中央弘前",
      "lat":40.52192,
      "lng":140.56782,
      "delta_lat":[0,-21,0,1,6,65,22,5,4,3,8,16,38,46,10,46,56,64,294,24,148,52,46,388,89,62,11,616,52,11,69,130,54,190,21,15,23,33,23,15,61,11,9,51,13,7,30,38,168,80,16,6,3,4,1,1,-2,-2,-6,-3,-2,-7,-2,-3,-4,3,8,10,30,115,9,20,7,60,106,12,2,12,29,7,43,3,47,37,9,10,18,29,10,25,22,9,9,10,56,47,28,52,126,28,69,45,35,39,76,43,60,18,24,39,24,12,226,153,36,29,38,64,219,47,262,79,203,24,60,235,47,45,95,74,175,97,26,104,65,48,24,18,22,16,39,26,25,11,61,26,26,26,16,14,32,43,19,13,57,48],
      "delta_lng":[0,-179,-51,-23,-24,-153,-73,-47,-64,-70,-40,-37,-68,-75,-14,-43,-41,-41,-187,-14,-98,-25,-12,-114,-29,-18,-3,-185,-15,-4,-18,-30,-13,-28,-4,-9,-19,-45,-43,-45,-246,-46,-36,-225,-44,-18,-55,-64,-274,-135,-39,-24,-27,-52,-28,-20,-25,-13,-52,-12,-21,-35,-33,-32,-26,-21,-40,-35,-66,-221,-27,-74,-21,-284,-552,-111,-23,-144,-224,-63,-333,-33,-394,-324,-70,-64,-93,-107,-36,-87,-75,-26,-32,-32,-210,-162,-95,-119,-298,-72,-168,-108,-80,-89,-123,-65,-86,-21,-29,-38,-23,-10,-213,-144,-31,-20,-15,-19,-71,-15,-83,-27,-74,-6,-15,-57,-19,-17,-30,-20,-53,-23,-5,-8,-3,-3,3,6,6,8,24,25,30,23,117,38,29,22,8,1,-3,3,-1,4,43,46]
    }
  ]
}