{
  "code":99216,
  "name":"会津鉄道",
  "name_formal":"会津鉄道会津線",
  "station_list":[
    {"code":9921621,"id":"593b96","name":"会津高原尾瀬口","name_kana":"あいづこうげんおぜぐち","lat":37.090026,"lng":139.705153,"prefecture":7,"lines":[99216,99341],"attr":"heat","postal_code":"967-0015","address":"南会津郡南会津町滝原字羽根子","next":[9934106,1122729,9934108,1122724,1122723,9921620,1122728],"voronoi":{"lat":37.085202,"lng":139.420026,"delta_lat":[0,-22026,-21181,47406,91754,-7648,-34276],"delta_lng":[0,-11152,244829,106991,-256161,-10013,-38479]}},
    {"code":9921620,"id":"ff8893","name":"七ヶ岳登山口","name_kana":"ななつがたけとざんぐち","lat":37.124184,"lng":139.717388,"prefecture":7,"lines":[99216],"attr":"heat","postal_code":"967-0014","address":"福島県南会津郡南会津町糸沢字下宮之原2449-2","next":[9921618,1122723,9921621,9921619,9934108],"voronoi":{"lat":37.089402,"lng":139.760695,"delta_lat":[0,91754,50155,-75193,-64664],"delta_lng":[0,-256161,55518,134434,90471]}},
    {"code":9921619,"id":"941632","name":"会津山村道場","name_kana":"あいづさんそんどうじょう","lat":37.144787,"lng":139.732114,"prefecture":7,"lines":[99216],"attr":"heat","postal_code":"967-0014","address":"南会津郡南会津町糸沢字今泉平４３-１","next":[9921615,9921614,9934108,9921617,9921620,9921618],"voronoi":{"lat":37.121419,"lng":139.818997,"delta_lat":[0,-22830,-12707,5571,64664,-16648],"delta_lng":[0,21525,9757,-65322,-90471,90507]}},
    {"code":9921618,"id":"72a78c","name":"会津荒海","name_kana":"あいづあらかい","lat":37.153317,"lng":139.733683,"prefecture":7,"lines":[99216],"attr":"heat","postal_code":"967-0013","address":"南会津郡南会津町関本字百一","next":[1122723,9921620,9921617,9921619],"voronoi":{"lat":37.156118,"lng":139.694486,"delta_lat":[0,75193,32762,-124603],"delta_lng":[0,-134434,30418,194523]}},
    {"code":9921617,"id":"771616","name":"中荒井","name_kana":"なかあらい","lat":37.180289,"lng":139.75096,"prefecture":7,"lines":[99216],"attr":"heat","postal_code":"967-0005","address":"南会津郡南会津町中荒井字長畔","next":[1122718,9921615,1122723,9921619,1122717,9921616,9921618],"voronoi":{"lat":37.264072,"lng":139.590469,"delta_lat":[0,28697,6260,8640,-153778,-32472,18050],"delta_lng":[0,22260,11523,24197,151490,19057,-34004]}},
    {"code":9921616,"id":"91e468","name":"会津田島","name_kana":"あいづたじま","lat":37.203261,"lng":139.774279,"prefecture":7,"lines":[99216],"attr":"heat","postal_code":"967-0004","address":"南会津郡南会津町田島字西番場甲","next":[1122714,1122717,9921617,9921615,9921611,1122705],"voronoi":{"lat":37.340703,"lng":139.755776,"delta_lat":[0,-186812,153778,40495,3793,-324],"delta_lng":[0,44164,-151490,85308,14468,1292]}},
    {"code":9921615,"id":"a8f85f","name":"田島高校前","name_kana":"たじまこうこうまえ","lat":37.209525,"lng":139.800776,"prefecture":7,"lines":[99216],"attr":"cool","postal_code":"967-0004","address":"南会津郡南会津町田島字田部原","next":[9921619,9921614,9921617,9921616,9921611],"voronoi":{"lat":37.340703,"lng":139.755776,"delta_lat":[0,-186812,-32472,-22830,188689],"delta_lng":[0,44164,19057,21525,-46742]}},
    {"code":9921614,"id":"b1fd32","name":"会津長野","name_kana":"あいづながの","lat":37.21525,"lng":139.823887,"prefecture":7,"lines":[99216],"attr":"cool","postal_code":"967-0001","address":"南会津郡南会津町長野字下谷地","next":[9921613,9921619,9921612,9921615,9921611,100406,9934108],"voronoi":{"lat":37.085882,"lng":139.850278,"delta_lat":[0,12707,188689,-8706,-1005,-211071,-9426],"delta_lng":[0,-9757,-46742,8466,796,109019,-13568]}},
    {"code":9921613,"id":"a7cac0","name":"養鱒公園","name_kana":"ようそんこうえん","lat":37.224499,"lng":139.841794,"prefecture":7,"lines":[99216],"attr":"cool","postal_code":"969-5343","address":"南会津郡下郷町大字落合字下ノ原","next":[9921614,1123102,9921612,100406,1123101],"voronoi":{"lat":37.119998,"lng":139.973354,"delta_lat":[0,157569,-211071,6475,29832],"delta_lng":[0,-170312,109019,10588,34745]}},
    {"code":9921612,"id":"c27e9b","name":"ふるさと公園","name_kana":"ふるさとこうえん","lat":37.243051,"lng":139.858958,"prefecture":7,"lines":[99216],"attr":"cool","postal_code":"969-5344","address":"南会津郡下郷町大字沢田字下沢田甲９４３番地","next":[1123102,9921614,9921613,9921611,9921610],"voronoi":{"lat":37.236044,"lng":139.88842,"delta_lat":[0,42529,-1005,-157569,1177],"delta_lng":[0,-86174,796,170312,1271]}},
    {"code":9921611,"id":"3a515e","name":"会津下郷","name_kana":"あいづしもごう","lat":37.255166,"lng":139.864937,"prefecture":7,"lines":[99216],"attr":"eco","postal_code":"969-5311","address":"南会津郡下郷町大字豊成字下モ","next":[9921608,1122705,9921614,9921610,9921616,9921612,9921615],"voronoi":{"lat":37.340703,"lng":139.755776,"delta_lat":[0,10930,1311,-63923,-52978,42529,8706],"delta_lng":[0,-6258,11943,103374,23585,-86174,-8466]}},
    {"code":9921610,"id":"d7405f","name":"弥五島","name_kana":"やごしま","lat":37.26629,"lng":139.889924,"prefecture":7,"lines":[99216],"attr":"eco","postal_code":"969-5204","address":"南会津郡下郷町大字弥五島字寺下","next":[1123102,9921609,9921608,9921611,9921612],"voronoi":{"lat":37.134762,"lng":139.993186,"delta_lat":[0,151538,2722,-52978,-114868],"delta_lng":[0,-108749,-19602,23585,86205]}},
    {"code":9921609,"id":"e13f8e","name":"塔のへつり","name_kana":"とうのへつり","lat":37.274695,"lng":139.901636,"prefecture":7,"lines":[99216],"attr":"eco","postal_code":"969-5204","address":"南会津郡下郷町大字弥五島字下夕田林","next":[100407,9921610,9921607,1123103,1123102,9921608],"voronoi":{"lat":37.286299,"lng":139.884436,"delta_lat":[0,-151538,3616,23480,95577,40059],"delta_lng":[0,108749,5415,27132,50356,-140831]}},
    {"code":9921608,"id":"31ff0a","name":"湯野上温泉","name_kana":"ゆのかみおんせん","lat":37.304056,"lng":139.895169,"prefecture":7,"lines":[99216],"attr":"eco","postal_code":"969-5206","address":"南会津郡下郷町大字湯野上字大島","next":[9921611,9921607,9921610,9921606,1122705,9921609],"voronoi":{"lat":37.349849,"lng":139.867264,"delta_lat":[0,24222,-21127,-63923,-2722,11194],"delta_lng":[0,-40433,-65371,103374,19602,50821]}},
    {"code":9921607,"id":"d87d92","name":"芦ノ牧温泉南","name_kana":"あしのまきおんせんみなみ","lat":37.334573,"lng":139.918668,"prefecture":7,"lines":[99216],"attr":"eco","postal_code":"969-5133","address":"会津若松市大戸町大字大川字大平甲","next":[100407,9921606,9921609,9921608,1122506],"voronoi":{"lat":37.308365,"lng":140.105478,"delta_lat":[0,41484,-52356,-40059,43530],"delta_lng":[0,-238214,67993,140831,34022]}},
    {"code":9921606,"id":"4c4ecc","name":"大川ダム公園","name_kana":"おおかわだむこうえん","lat":37.34685,"lng":139.920806,"prefecture":7,"lines":[99216],"attr":"eco","postal_code":"969-5133","address":"会津若松市大戸町大字大川ロクロ石乙","next":[9921607,9921605,1122705,9921604,9921608,1122506],"voronoi":{"lat":37.33219,"lng":140.091639,"delta_lat":[0,48175,-2462,-3832,-24222,-41484],"delta_lng":[0,-204133,-54702,-5973,40433,238214]}},
    {"code":9921605,"id":"55554e","name":"芦ノ牧温泉","name_kana":"あしのまきおんせん","lat":37.395456,"lng":139.932277,"prefecture":7,"lines":[99216],"attr":"eco","postal_code":"969-5122","address":"会津若松市大戸町上三寄乙","next":[9921606,1122511,9921604,1122507,9921603,1122515,1122506,9921602],"voronoi":{"lat":37.447221,"lng":139.994842,"delta_lat":[0,-9153,-57703,-48175,54412,45272,21914,-24],"delta_lng":[0,-23323,-84012,204133,-21739,-22103,-28315,-1326]}},
    {"code":9921604,"id":"3fbe83","name":"あまや","name_kana":"あまや","lat":37.416736,"lng":139.917661,"prefecture":7,"lines":[99216],"attr":"eco","postal_code":"965-0000","address":"会津若松市大戸町大字雨屋字上雨屋３６７-１","next":[1122705,9921603,9921605,1122704,9921606],"voronoi":{"lat":37.377904,"lng":139.832804,"delta_lat":[0,38221,7207,14737,-57703],"delta_lng":[0,27068,13657,97989,-84012]}},
    {"code":9921603,"id":"b79d07","name":"門田","name_kana":"もんでん","lat":37.442616,"lng":139.913769,"prefecture":7,"lines":[99216],"attr":"eco","postal_code":"965-0828","address":"会津若松市門田町大字面川字中島","next":[9921604,1122704,9921605,9921602],"voronoi":{"lat":37.451292,"lng":139.901611,"delta_lat":[0,-27961,14737,9153],"delta_lng":[0,-28081,97989,23323]}},
    {"code":9921602,"id":"595b01","name":"南若松","name_kana":"みなみわかまつ","lat":37.458876,"lng":139.914479,"prefecture":7,"lines":[99216],"attr":"eco","postal_code":"965-0844","address":"会津若松市門田町一ノ堰字下住４５９","next":[1122515,9921603,1122703,1122704,9921605],"voronoi":{"lat":37.447221,"lng":139.994842,"delta_lat":[0,4071,21070,576,-19174],"delta_lng":[0,-93231,4522,50945,61079]}},
    {"code":1122703,"id":"bfbd91","name":"西若松","name_kana":"にしわかまつ","lat":37.486034,"lng":139.914172,"prefecture":7,"lines":[11227,99216],"attr":"heat","postal_code":"965-0853","address":"会津若松市材木町１","next":[1122704,9921602,1122515,1122706,1122702],"voronoi":{"lat":37.507102,"lng":139.873822,"delta_lat":[0,-3730,-31009,576,14365],"delta_lng":[0,-691,33002,50945,-20478]}}
  ],
  "north":37.48694,
  "south":37.08979,
  "east":139.93229,
  "west":139.70482,
  "polyline_list":[
    {
      "start":"会津高原尾瀬口",
      "end":"西若松",
      "lat":37.08979,
      "lng":139.70482,
      "delta_lat":[0,23,24,36,13,4,25,18,36,32,19,12,28,19,29,13,16,21,11,46,22,17,18,15,16,26,49,23,7,11,18,20,18,20,41,45,10,7,7,13,34,56,38,38,11,39,46,45,27,60,76,43,23,48,36,13,10,26,23,18,18,13,19,41,20,32,11,25,18,11,23,22,26,23,50,23,15,15,21,19,14,19,16,12,13,20,23,25,4,4,5,28,43,18,7,15,18,25,23,9,46,48,52,24,47,52,29,36,30,41,35,23,34,30,35,16,23,30,27,49,12,44,38,31,18,19,35,26,21,31,16,24,21,45,27,27,29,56,51,16,13,50,24,16,20,11,27,31,22,58,58,33,34,28,17,7,34,49,28,24,36,44,75,42,57,57,47,34,17,28,31,13,23,22,9,25,18,10,12,11,14,1,3,11,18,16,11,11,15,7,11,25,23,18,28,14,27,46,54,26,84,27,13,81,88,54,61,82,33,29,13,13,27,77,20,34,24,14,24,27,29,37,29,18,26,9,17,19,61,60,29,31,90,91,105,45,34,128,80,185,21,62,93,116,129,79,79,15,30,93,59,78,18,28,70,51,44,35,45,36,28,56,91,53,18,6,46,42,44,45,52,47,56,63,48,57,72,49,56,49,58,60,54,58,79,47,38,62,50,14,23,68,56,25,67,58,59,42,42,45,44,39,43,64,94,52,16,53,25,13,20,42,50,49,21,35,58,27,27,32,47,27,49,20,27,20,15,12,9,11,9,13,11,3,7,8,4,0,-1,-1,-3,-4,-4,-10,-7,-7,-9,-5,-4,-2,-1,2,5,11,5,7,9,9,7,11,13,12,18,20,15,23,21,27,21,40,13,19,13,52,41,37,31,26,16,13,17,20,38,45,46,70,68,23,21,9,28,17,13,14,8,17,26,9,22,41,4,9,20,9,4,-4,-6,-5,-4,-7,-4,-1,2,3,2,11,10,31,31,29,29,23,13,38,49,25,38,32,6,5,4,0,0,-1,-1,0,0,4,7,13,4,6,8,7,9,13,9,20,14,11,9,24,16,11,19,17,20,52,46,85,5,39,40,31,20,23,40,51,59,37,14,12,9,10,9,12,29,4,41,49,28,32,9,33,21,47,33,16,16,25,9,9,17,21,4,6,14,9,18,44,9,46,44,47,59,40,25,28,25,38,47,43,22,34,26,37,31,36,28,31,20,21,39,47,34,46,44,32,24,34,18,17,16,16,23,54,11,49,56,42,41,53,36,43,20,29,16,24,30,23,10,40,35,120,69,14,17,7,24,21,11,15,21,18,22,34,81,105,53,27,56,6,16,10,8,31,48,51,47,220,42,35,1,33,31,10,112,35,23,13,11,11,11,12,11,9,3,1,2,0,-2,-4,-11,-13,-11,-12,-11,-13,-16,-12,-17,-9,-12,-26,-20,-12,-18,-2,-5,-9,-2,0,0,3,8,10,31,47,2,46,37,10,44,47,45,52,38,97,1,49,9,3,6,26,17,19,17,21,23,42,43,21,6,42,114,41,18,23,17,16,17,6,1,9,14,9,6,3,5,3,3,8,8,7,6,5,47,10,39,24,225,28,101,5,98,61,22,138,86,27,25,17,25,56,37,23,20,18,20,16,27,15,70,44,43,28,23,20,24,24,15,28,142,25,32,69,49,23,60,59,41,21,30,12,10,25,22,13,33,3,13,51,20,15,19,29,36,24,66,32,14,42,87,21,19,60,15,55,39,39,43,65,26,47,32,51,59,21,26,21,30,5,51,29,32,12,46,42,74,17,18,16,16,14,15,12,22,10,1,80,1,15,12,15,2,3,3,4,2,2,2,2,3,2,2,2,2,1,2,2,0,2,2,2,1,1,3,3,4,10,12,13,11,14,9,16,9,18,15,14,14,12,14,12,12,12,13,9,16,23,28,25,17,19,17,19,16,21,14,18,18,18,18,18,18,17,14,27,35,27,16,18,18,20,16,11,9,16,28,32,38,36,35,32,34,35,32,9,27,34,35,36,36,11,16,12,7,7,14,6,34,5,38,44,34,12,22,19,30,37,14,27,42,35,20,4,65,36,65,33,20,29,25,23,59,43,43,64,9,47,29,14,33,41,47,99,264,179,32,97,57,5,58,66,86,183,27,29,18,18,27,26,29,21,33,28,20,18,26,21,18,49,42,63,2,3,8,7,11,23,15,27,16,40,32,42,41,41,41,243,112,54,115,38,43,38,20,24,34,99,86,26,49,40,22,72,57,115,15,16,20,16,22,21,6,14,20,24,34,24,115,119,122,120,89,29,12,20,15,32,53,63,145,94,12,22,14,22,18,19,17,13,24,11,20,56,56,57,58,56,26,8,10,18,18,27,200,109,28,14,18,26,30,34,43,26,76,12,24,21,13,16,31,40,85,40,41,175,99,12,32,24,28,21,24,23,30,22,1,13,11,83,88,86,87,53,18,14,35,40,25,31,33,25,11,33,23,20,15,50,92,88,86,1,87,91,56,37,24,65,87,69,23,33,59,49,35,99,31,111,19,87,44,65,13,11,38,34,13,18,43,22,19,82,28,79,20,30,129,110,20,69,60,120,8,51,29,3,47,74,54,130,127,119,9,62,67,129,80,49,43,87,129,128,128,60,71,128,130,57,51,20,64,65,92,12,25,31,63,33,70,60,120,11,130,129,89,41,84,45,22,107,104,51,49,36,7,217,212,115,98,129,13,71,40,175,213,16,2,143,56],
      "delta_lng":[0,30,31,45,18,6,31,26,46,31,18,10,16,10,11,5,2,1,-1,0,-1,2,3,1,6,12,29,11,4,9,10,12,12,13,31,30,7,1,4,6,21,39,29,33,11,46,52,50,30,64,87,48,23,49,39,14,12,32,28,25,19,14,17,36,17,22,7,9,6,1,4,0,-1,-3,-9,-4,-7,-5,-10,-7,-5,0,2,3,3,12,13,11,2,0,2,3,4,2,0,-1,-4,-11,-14,-4,-28,-31,-36,-15,-28,-29,-16,-22,-18,-26,-21,-11,-9,-6,-5,0,4,8,9,12,2,9,10,8,5,4,9,6,3,7,5,10,11,24,17,18,20,34,31,10,6,20,8,5,7,3,4,6,3,2,-5,-4,-10,-11,-6,-1,-8,-10,-4,-1,3,4,12,10,15,18,13,12,5,11,13,6,18,23,13,32,30,19,27,36,62,1,9,62,88,72,71,54,47,21,39,69,49,32,47,16,35,39,35,12,49,13,9,44,51,30,36,40,16,12,4,2,1,-6,-2,-9,-13,-9,-5,-7,-4,-2,0,3,6,4,4,7,25,22,12,14,38,37,47,21,16,70,41,97,10,31,48,58,63,42,39,5,14,46,36,46,10,18,50,41,36,34,38,31,27,48,86,49,16,6,39,37,40,40,46,43,47,57,41,52,63,42,49,42,48,51,47,51,68,41,28,45,38,7,14,39,32,13,33,28,28,21,20,22,22,19,20,28,44,24,7,24,11,4,7,14,11,11,4,5,9,7,6,7,11,9,18,9,16,14,11,13,12,14,19,32,31,11,43,50,21,61,46,30,44,55,60,116,84,99,102,84,86,102,119,85,89,106,36,63,64,61,51,73,80,62,61,69,56,76,72,88,73,130,42,61,46,161,134,121,107,83,47,32,30,34,57,67,66,107,100,34,32,14,61,38,39,39,33,60,102,26,66,119,17,24,84,75,78,76,110,83,95,144,96,71,23,35,18,54,31,88,94,81,92,66,41,117,149,79,116,98,24,42,68,49,55,52,58,121,29,44,55,58,16,15,16,10,18,13,11,20,15,10,6,12,9,3,6,6,1,2,1,2,0,9,17,19,15,21,42,58,68,41,17,13,9,8,7,8,17,2,2,0,0,5,4,12,15,28,24,13,16,29,18,22,47,60,8,6,21,11,17,35,8,38,36,39,50,34,23,28,27,41,49,45,24,34,27,38,33,38,29,34,19,23,38,48,36,50,46,35,21,34,18,13,12,11,14,31,6,28,30,24,23,31,20,26,11,14,7,8,9,6,0,2,1,-3,0,3,5,1,9,9,6,8,18,15,20,32,79,103,50,26,52,3,15,7,4,18,23,23,24,106,24,24,1,27,34,10,135,44,32,19,18,20,19,27,23,28,17,9,29,26,17,11,24,26,22,25,25,19,47,51,74,23,34,51,41,31,53,6,21,46,26,58,7,25,31,27,67,99,3,93,78,22,95,97,92,107,75,197,6,95,16,5,11,38,20,19,13,13,11,13,8,4,0,6,23,10,8,12,13,13,19,10,3,15,34,34,34,28,65,118,58,40,31,19,15,9,58,5,16,8,57,6,33,1,31,21,7,49,42,17,21,18,37,87,57,29,19,14,13,8,7,2,-2,-2,-4,-4,-5,-4,-6,-11,-7,-20,-116,-14,-11,-14,-17,-16,-45,-47,-33,-18,-23,-14,-9,-28,-28,-20,-61,-6,-28,-125,-41,-24,-24,-30,-32,-18,-42,-15,-6,-18,-32,-12,-11,-53,-14,-50,-34,-27,-29,-31,-9,-12,-5,-5,1,1,2,3,4,2,14,8,12,6,25,25,60,15,20,18,22,20,27,19,41,28,5,179,3,38,30,52,17,53,49,51,25,35,24,34,26,29,35,27,27,32,27,34,24,30,26,29,23,17,14,13,15,25,23,25,22,28,19,31,17,36,30,27,27,23,25,21,23,22,26,14,22,24,26,26,14,20,16,18,17,19,16,18,17,18,17,17,17,18,14,27,34,28,16,19,16,19,16,11,8,16,27,32,39,34,36,32,32,33,32,9,26,33,32,28,27,7,6,5,1,0,0,0,0,0,-9,-11,-12,-5,-12,-12,-20,-25,-11,-23,-39,-36,-18,-3,-65,-37,-66,-30,-16,-18,-13,-9,-23,-10,-11,-10,0,-3,-1,1,3,10,13,27,72,52,11,27,15,2,16,19,23,51,8,5,1,0,-2,-6,-10,-11,-26,-27,-25,-17,-25,-14,-13,-26,-22,-33,0,-2,-4,-5,-3,-7,-3,-4,0,2,6,11,14,13,15,82,38,21,51,17,21,19,7,13,21,63,57,19,7,0,-2,-19,-17,-29,-4,-4,-2,-2,0,2,0,3,8,14,22,16,79,83,82,83,63,22,8,12,9,17,27,31,71,46,5,11,7,11,9,7,4,3,4,2,1,2,2,4,3,1,1,3,1,3,5,5,58,32,8,4,5,6,6,5,4,1,-9,-3,-4,-6,-2,-6,-11,-18,-43,-19,-20,-87,-48,-6,-18,-17,-22,-18,-22,-23,-34,-26,-2,-20,-15,-131,-130,-131,-130,-83,-25,-22,-43,-45,-22,-27,-23,-15,-7,-14,-8,-6,-3,-7,-17,-16,-15,-1,-16,-18,-9,-8,-4,-12,-16,-14,-3,-7,-16,-18,-13,-42,-13,-48,-7,-38,-18,-28,-5,-4,-12,-7,-2,-2,-1,-2,0,-5,-1,-4,-1,-2,-7,-7,0,-4,-2,-8,-1,-3,0,0,-1,1,0,-1,0,-2,0,0,-1,-1,-1,1,2,7,12,11,12,5,5,11,11,1,2,0,-2,0,-6,-1,-2,-2,-3,-4,-5,-9,-19,-3,-20,-21,-13,-4,-13,-4,-3,-15,-14,-1,0,1,0,29,25,16,13,15,1,6,2,5,7,0,1,5,2]
    }
  ]
}