{
  "code":99210,
  "name":"由利高原鉄道",
  "name_formal":"由利高原鉄道鳥海山ろく線",
  "station_list":[
    {"code":1121450,"id":"abb69c","name":"羽後本荘","name_kana":"うごほんじょう","lat":39.386877,"lng":140.057632,"prefecture":5,"lines":[11214,99210],"attr":"eco","postal_code":"015-0858","address":"由利本荘市西梵天","next":[9921002,1121449,1121453,9921003,1121451,9921006],"voronoi":{"lat":39.442011,"lng":140.028014,"delta_lat":[0,3465,-45484,-30625,2218,12698],"delta_lng":[0,-68663,45748,65340,35472,18756]}},
    {"code":9921002,"id":"37df05","name":"薬師堂(秋田)","name_kana":"やくしどう","lat":39.368008,"lng":140.048788,"prefecture":5,"lines":[99210],"attr":"eco","postal_code":"015-0041","address":"由利本荘市薬師堂山崎１-１０","next":[1121450,9921003,1121449],"voronoi":{"lat":39.399993,"lng":140.005099,"delta_lat":[0,-30625,-19754],"delta_lng":[0,65340,-31268]}},
    {"code":9921003,"id":"cd7c14","name":"子吉","name_kana":"こよし","lat":39.350399,"lng":140.059913,"prefecture":5,"lines":[99210],"attr":"eco","postal_code":"015-0044","address":"由利本荘市玉ノ池","next":[9921006,9921005,1121449,9921002,1121450,9921004],"voronoi":{"lat":39.355869,"lng":140.095009,"delta_lat":[0,15716,-2218,-19754,-23035,27504],"delta_lng":[0,10902,-35472,-31268,1594,52641]}},
    {"code":9921004,"id":"417b1c","name":"鮎川","name_kana":"あゆかわ","lat":39.328693,"lng":140.071254,"prefecture":5,"lines":[99210],"attr":"eco","postal_code":"015-0362","address":"由利本荘市東鮎川","next":[1121448,9921005,9921008,9921010,1121449,9921003],"voronoi":{"lat":39.326578,"lng":140.040764,"delta_lat":[0,-40389,-29871,15442,10258,72064],"delta_lng":[0,-14432,10896,20745,8365,27067]}},
    {"code":9921005,"id":"6cb125","name":"黒沢(由利高原鉄道)","name_kana":"くろさわ","lat":39.320388,"lng":140.093365,"prefecture":5,"lines":[99210],"attr":"eco","postal_code":"015-0361","address":"秋田県由利本荘市黒沢","next":[9921007,9921006,9921003,9921004,9921008],"voronoi":{"lat":39.306185,"lng":140.098916,"delta_lat":[0,49685,-1787,-72064,23751],"delta_lng":[0,-3907,-1603,-27067,32411]}},
    {"code":9921006,"id":"d5eb8b","name":"曲沢","name_kana":"まがりさわ","lat":39.321081,"lng":140.102178,"prefecture":5,"lines":[99210],"attr":"eco","postal_code":"015-0341","address":"由利本荘市前郷","next":[9921003,9921005,9921007,1121451,1121450],"voronoi":{"lat":39.388084,"lng":140.164379,"delta_lat":[0,-81900,49685,15716,12698],"delta_lng":[0,-65464,-3907,10902,18756]}},
    {"code":9921007,"id":"d7deed","name":"前郷","name_kana":"まえごう","lat":39.312649,"lng":140.112727,"prefecture":5,"lines":[99210],"attr":"cool","postal_code":"015-0341","address":"由利本荘市前郷","next":[9921005,1120223,9921008,9921009,9922101,1121451,9921006,9921012],"voronoi":{"lat":39.309706,"lng":140.245802,"delta_lat":[0,-9730,5793,415,81900,16403,-439,-87202],"delta_lng":[0,-89764,-57289,166,65464,95950,531,7347]}},
    {"code":9921008,"id":"922093","name":"久保田(秋田)","name_kana":"くぼた","lat":39.296231,"lng":140.111067,"prefecture":5,"lines":[99210],"attr":"cool","postal_code":"015-0302","address":"由利本荘市久保田","next":[9921007,9921010,9921004,9921005,9921009],"voronoi":{"lat":39.273815,"lng":140.068952,"delta_lat":[0,-2054,10258,23751,-5793],"delta_lng":[0,-10978,8365,32411,57289]}},
    {"code":9921009,"id":"06704a","name":"西滝沢","name_kana":"にしたきさわ","lat":39.278319,"lng":140.116448,"prefecture":5,"lines":[99210],"attr":"cool","postal_code":"015-0333","address":"由利本荘市山本","next":[9921007,9921012,9921008,9921010],"voronoi":{"lat":39.273815,"lng":140.068952,"delta_lat":[0,26162,9730,-37093],"delta_lng":[0,87087,89764,-79077]}},
    {"code":9921010,"id":"c17eb3","name":"吉沢","name_kana":"よしざわ","lat":39.268145,"lng":140.116323,"prefecture":5,"lines":[99210],"attr":"heat","postal_code":"015-0324","address":"由利本荘市吉沢","next":[9921012,9921008,1121448,9921011,9921004,9921009],"voronoi":{"lat":39.273815,"lng":140.068952,"delta_lat":[0,-2054,-15442,-15244,25389,6150],"delta_lng":[0,-10978,-20745,-2175,121396,10276]}},
    {"code":9921011,"id":"93099e","name":"川辺","name_kana":"かわべ","lat":39.248842,"lng":140.12036,"prefecture":5,"lines":[99210],"attr":"heat","postal_code":"015-0412","address":"由利本荘市矢島町川辺","next":[9921012,1121445,9921010,1121448],"voronoi":{"lat":39.184543,"lng":140.020193,"delta_lat":[0,-39530,121450,-25389],"delta_lng":[0,15283,120974,-121396]}},
    {"code":9921012,"id":"39089c","name":"矢島","name_kana":"やしま","lat":39.230305,"lng":140.13897,"prefecture":5,"lines":[99210],"attr":"heat","postal_code":"015-0404","address":"由利本荘市矢島町七日町","next":[9921010,1120208,1120205,9921011,1121445,9921009,9922202,9922101,1120207,1121441,9921007,1120206],"voronoi":{"lat":39.082135,"lng":140.202793,"delta_lat":[0,-43394,53894,52378,121450,6150,37093,7140,-65614,-104988,-15910,-4439],"delta_lng":[0,-103363,-49411,-14543,120974,10276,79077,22405,25118,-12841,-10455,-4740]}}
  ],
  "north":39.38753,
  "south":39.22984,
  "east":140.13967,
  "west":140.0475,
  "polyline_list":[
    {
      "start":"矢島",
      "end":"羽後本荘",
      "lat":39.22984,
      "lng":140.13967,
      "delta_lat":[0,24,47,67,123,48,66,51,59,56,85,65,98,2,65,37,42,45,25,21,45,34,134,61,9,82,49,53,58,55,48,39,18,19,29,32,15,9,2,5,6,11,14,5,12,11,10,20,18,9,11,7,29,27,57,28,40,22,141,94,93,88,86,71,32,56,41,33,293,18,23,17,18,22,20,30,40,24,23,21,6,27,29,20,32,21,17,19,32,32,89,87,24,17,24,36,46,50,45,43,37,31,23,45,36,31,30,39,65,25,45,43,56,176,69,214,206,160,31,44,33,197,284,65,47,64,39,2,42,25,43,43,55,81,29,9,68,226,42,61,56,118,58,35,254,7,175,53,92,223,190,75,141,67,89,22,19,20,213,48,129,33,22,15,12,3,-2,-10,-33,-3,-4,-16,-6,-35,-1,-2,2,9,18,18,8,29,50,61,44,123,150,39,13,22,17,21,98,29,32,13,43,42,40,35,145,20,81,44,108,51,27,38,39,37,29,151,26,22,16,25,42,58,37,31,20,109,45,28,30,27,32,64,21,33,18,11,10,17,37,33,42,63,74,126,39,57,42,17,48,9,73,6,89,134,291,31,69,21,159,156,36,18,41,39,48,32,37,28,51,20,16,37,7,7,8,9,19,14,3,41,81,42,12,24,65,0,25,168,248,36,43,5,46,45,153,53,18,20,44,11,284,36,52,238,19,36,52,47,6,50,43,1,134],
      "delta_lng":[0,-31,-64,-91,-164,-61,-78,-51,-43,-35,-40,-23,-35,-1,-24,-8,-6,0,4,3,8,2,17,-4,1,-40,-33,-41,-62,-64,-65,-55,-21,-32,-50,-79,-65,-67,-84,-145,-60,-63,-57,-17,-33,-22,-16,-27,-24,-11,-14,-7,-31,-22,-26,-9,-9,2,7,9,9,16,25,38,22,55,44,41,352,19,18,14,11,10,9,8,2,-3,-6,-9,-1,-17,-21,-21,-33,-27,-30,-47,-105,-123,-319,-304,-83,-48,-50,-46,-43,-28,-15,-3,5,10,12,29,34,41,51,77,83,19,23,15,7,17,6,22,20,-3,-2,-12,-13,-125,-185,-48,-41,-79,-42,-1,-37,-14,-12,-6,8,18,7,2,14,49,13,29,34,97,37,13,45,1,26,-3,-24,-76,-66,-25,-48,-26,-45,-17,-23,-36,-427,-97,-262,-78,-49,-46,-57,-56,-40,-57,-175,-22,-17,-90,-33,-191,-19,-94,-28,-36,-59,-44,-19,-63,-96,-115,-81,-225,-276,-69,-24,-44,-45,-98,-467,-140,-133,-27,-77,-60,-43,-28,-88,-12,-48,-26,-60,-22,-7,-1,6,13,14,109,16,16,10,6,0,-8,-6,-4,-1,14,0,-6,-10,-13,-29,-76,-27,-37,-22,-13,-12,-21,-43,-38,-52,-76,-87,-152,-42,-56,-42,-17,-52,-9,-78,-8,-88,-132,-285,-30,-68,-19,-157,-153,-34,-19,-39,-30,-33,-17,-13,-5,0,4,1,8,2,2,1,4,7,6,1,18,35,18,5,10,25,1,10,80,116,18,19,2,22,23,73,26,9,11,21,6,137,18,26,117,8,18,25,19,3,17,13,-5,59]
    }
  ]
}