{
  "code":99214,
  "name":"仙台市営地下鉄南北線",
  "color":"#009900",
  "symbol":"N",
  "station_list":[
    {"code":9921401,"id":"b9180c","name":"泉中央","name_kana":"いずみちゅうおう","lat":38.323167,"lng":140.880796,"prefecture":4,"numbering":[{"index":"01"}],"lines":[99214],"attr":"heat","postal_code":"981-3133","address":"仙台市泉区泉中央１-７-１"},
    {"code":9921402,"id":"c28ff4","name":"八乙女","name_kana":"やおとめ","lat":38.312899,"lng":140.884037,"prefecture":4,"numbering":[{"index":"02"}],"lines":[99214],"attr":"heat","postal_code":"981-3135","address":"仙台市泉区八乙女中央１-４-１０"},
    {"code":9921403,"id":"e543d4","name":"黒松(宮城)","name_kana":"くろまつ","lat":38.303142,"lng":140.886285,"prefecture":4,"numbering":[{"index":"03"}],"lines":[99214],"attr":"heat","postal_code":"981-8004","address":"仙台市泉区旭丘堤２-２２-１"},
    {"code":9921404,"id":"0d3511","name":"旭ヶ丘(宮城)","name_kana":"あさひがおか","lat":38.295593,"lng":140.883633,"prefecture":4,"numbering":[{"index":"04"}],"lines":[99214],"attr":"heat","postal_code":"981-0904","address":"仙台市青葉区旭ケ丘三丁目25-15先"},
    {"code":9921405,"id":"37c4df","name":"台原","name_kana":"だいのはら","lat":38.288524,"lng":140.878512,"prefecture":4,"numbering":[{"index":"05"}],"lines":[99214],"attr":"heat","postal_code":"981-0903","address":"仙台市青葉区台原森林公園１-１"},
    {"code":1121703,"id":"19539a","name":"北仙台","name_kana":"きたせんだい","lat":38.281594,"lng":140.869885,"prefecture":4,"numbering":[{"index":"06"}],"lines":[11217,99214],"attr":"eco","postal_code":"981-0913","address":"仙台市青葉区昭和町"},
    {"code":9921407,"id":"e1e0c9","name":"北四番丁","name_kana":"きたよばんちょう","lat":38.272137,"lng":140.86907,"prefecture":4,"numbering":[{"index":"07"}],"lines":[99214],"attr":"heat","postal_code":"980-0802","address":"仙台市青葉区二日町１３-２２"},
    {"code":9921408,"id":"e780d0","name":"勾当台公園","name_kana":"こうとうだいこうえん","lat":38.266304,"lng":140.871292,"prefecture":4,"numbering":[{"index":"08"}],"lines":[99214],"attr":"heat","postal_code":"980-0014","address":"仙台市青葉区本町３-９-２"},
    {"code":9921409,"id":"45ffed","name":"広瀬通","name_kana":"ひろせどおり","lat":38.262971,"lng":140.875736,"prefecture":4,"numbering":[{"index":"09"}],"lines":[99214],"attr":"eco","postal_code":"980-0021","address":"仙台市青葉区中央２-１０-２２"},
    {"code":9921410,"id":"65dec4","name":"仙台(仙台市交通局)","name_kana":"せんだい","lat":38.259901,"lng":140.879928,"prefecture":4,"numbering":[{"index":"10"}],"lines":[99214,99218],"attr":"eco","postal_code":"980-0021","address":"仙台市青葉区中央一丁目10-10"},
    {"code":9921411,"id":"4874d9","name":"五橋","name_kana":"いつつばし","lat":38.251861,"lng":140.881014,"prefecture":4,"numbering":[{"index":"11"}],"lines":[99214],"attr":"eco","postal_code":"980-0022","address":"仙台市青葉区五橋２-１-１０"},
    {"code":9921412,"id":"51bc62","name":"愛宕橋","name_kana":"あたごばし","lat":38.24729,"lng":140.882036,"prefecture":4,"numbering":[{"index":"12"}],"lines":[99214],"attr":"eco","postal_code":"984-0065","address":"仙台市若林区土樋１-１１-１０"},
    {"code":9921413,"id":"c5ada8","name":"河原町(宮城)","name_kana":"かわらまち","lat":38.241112,"lng":140.887702,"prefecture":4,"numbering":[{"index":"13"}],"lines":[99214],"attr":"cool","postal_code":"984-0816","address":"仙台市若林区河原町１-５-１０"},
    {"code":9921414,"id":"79b48d","name":"長町一丁目","name_kana":"ながまちいっちょうめ","lat":38.234085,"lng":140.887402,"prefecture":4,"numbering":[{"index":"14"}],"lines":[99214],"attr":"cool","postal_code":"982-0011","address":"仙台市太白区長町１-２-１２"},
    {"code":1123142,"id":"b4f86b","name":"長町","name_kana":"ながまち","lat":38.226797,"lng":140.885986,"prefecture":4,"numbering":[{"index":"15"}],"lines":[11231,11230,99214],"attr":"eco","postal_code":"982-0011","address":"仙台市太白区長町５丁目"},
    {"code":9921416,"id":"3c3a20","name":"長町南","name_kana":"ながまちみなみ","lat":38.224642,"lng":140.87657,"prefecture":4,"numbering":[{"index":"16"}],"lines":[99214],"attr":"cool","postal_code":"982-0012","address":"仙台市太白区長町南３-１-６０"},
    {"code":9921417,"id":"526da7","name":"富沢","name_kana":"とみざわ","lat":38.214087,"lng":140.87046,"prefecture":4,"numbering":[{"index":"17"}],"lines":[99214],"attr":"cool","postal_code":"982-0032","address":"仙台市太白区富沢４-２-２２"}
  ],
  "north":38.32387,
  "south":38.21354,
  "east":140.88856,
  "west":140.86729,
  "polyline_list":[
    {
      "start":"富沢",
      "end":"泉中央",
      "lat":38.21354,
      "lng":140.87037,
      "delta_lat":[0,121,6,13,12,9,15,26,34,10,43,64,56,5,2,71,5,11,10,66,75,84,54,58,27,15,9,21,14,12,8,27,21,15,12,11,7,8,14,12,20,2,25,2,12,9,16,15,16,15,16,13,11,13,10,13,12,17,14,14,30,48,13,98,10,15,34,11,29,38,40,45,33,39,49,51,43,40,11,56,45,5,28,30,29,23,33,25,22,42,32,38,36,34,46,45,38,23,11,62,34,8,48,50,42,43,33,13,16,27,41,35,34,42,36,35,32,36,17,11,1,40,3,11,15,13,7,20,21,26,37,47,53,51,53,9,32,35,46,3,59,14,21,38,40,29,26,30,36,29,20,14,22,20,27,26,23,25,24,20,19,22,26,29,26,4,127,16,22,22,21,25,26,19,20,21,18,17,12,7,8,4,0,0,0,-1,-3,-5,-2,0,0,-1,-1,1,2,4,8,9,21,15,44,40,39,35,38,39,35,17,94,15,92,20,24,91,96,102,99,18,49,44,90,90,45,95,95,45,49,27,20,34,19,41,45,24,19,27,14,42,106,18,41,45,33,7,26,7,18,10,15,5,16,12,9,8,9,8,7,9,11,9,9,9,6,10,13,17,16,10,18,19,12,14,3,27,52,26,0,16,19,20,13,18,18,29,17,21,20,15,17,27,29,24,26,19,28,36,27,3,14,15,24,19,22,17,21,26,24,26,2,119,9,58,47,44,39,23,28,16,22,20,18,21,16,19,25,20,20,22,26,24,5,33,18,20,18,52,49,38,4,2,84,60,44,41,18,19,30,29,18,18,9,33,23,18,22,24,10,7,3,1,18,29,2,2,1,33,33,3,25,4,50,2,33,43,31,6,68,22,30,4,14,10,19,15,17,20,21,18,16,22,18,6,17,18,17,14,25,21,23,20,31,39,57,75,90,86,7,11,41,49,11,181],
      "delta_lng":[0,46,1,6,2,0,1,0,2,1,1,1,1,1,0,1,-5,0,5,3,2,4,3,2,1,2,3,7,9,9,11,33,31,26,22,23,24,40,76,72,111,12,144,13,63,51,78,69,65,60,65,55,42,47,30,27,15,14,6,3,2,0,0,3,0,1,3,4,17,21,22,26,18,22,28,30,24,23,6,31,21,4,16,18,15,12,7,4,3,1,-1,-3,-5,-4,-13,-12,-13,-6,-5,-21,-13,-3,-19,-18,-16,-15,-13,-5,-11,-23,-49,-41,-41,-53,-40,-41,-42,-47,-31,-28,-6,-114,-5,-25,-28,-10,-6,-3,-1,5,14,14,13,11,12,4,5,8,8,1,10,0,3,8,9,5,6,5,4,4,0,-1,-5,-6,-9,-10,-10,-12,-10,-10,-11,-14,-14,-18,-14,-2,-73,-11,-13,-13,-12,-15,-15,-10,-13,-11,-10,-11,-7,-12,-16,-11,-21,-20,-19,-41,-37,-91,-54,-4,-21,-42,-27,-15,-14,-10,-13,-13,-12,-9,-25,-22,-24,-19,-23,-23,-20,-9,-56,-10,-53,-13,-8,-26,-27,-29,-31,-4,-14,-11,-24,-22,-11,-25,-25,-12,-13,-4,-1,5,7,17,21,9,13,14,8,27,66,11,26,31,32,7,33,9,28,21,32,11,42,30,28,27,30,23,29,27,27,22,31,22,24,34,31,45,39,19,31,25,18,12,4,26,50,26,1,13,19,19,12,18,18,29,15,22,19,14,17,24,29,22,23,17,20,26,18,3,10,12,15,12,11,8,10,8,5,1,0,3,0,1,3,2,0,0,4,5,10,11,13,14,9,12,15,14,12,15,15,15,3,22,10,6,13,31,32,24,3,2,51,37,25,19,9,6,7,4,1,-1,0,-5,-6,-6,-10,-16,-6,-4,-2,-2,-15,-25,-1,-2,-1,-37,-35,-4,-25,-4,-52,-1,-35,-45,-30,-6,-68,-22,-31,-5,-15,-11,-18,-14,-17,-19,-22,-17,-13,-20,-15,-6,-14,-14,-12,-7,-13,-9,-7,-4,-2,-1,-1,-1,-2,-3,0,0,-1,0,-1,1]
    }
  ]
}