{
  "code":99217,
  "name":"仙台空港線",
  "color":"#2A5CAA",
  "station_list":[
    {"code":1123139,"id":"66f4e8","name":"名取","name_kana":"なとり","lat":38.173017,"lng":140.882753,"prefecture":4,"lines":[11231,11230,99217],"attr":"cool","postal_code":"981-1224","address":"名取市増田２丁目５番地１"},
    {"code":9921702,"id":"519658","name":"杜せきのした","name_kana":"もりせきのした","lat":38.165482,"lng":140.895738,"prefecture":4,"lines":[99217],"attr":"heat","postal_code":"981-1224","address":"名取市増田字関下２００番地１"},
    {"code":9921703,"id":"12a2d9","name":"美田園","name_kana":"みたぞの","lat":38.15965,"lng":140.917404,"prefecture":4,"lines":[99217],"attr":"heat","postal_code":"981-1201","address":"名取市下増田字大橋本５４番地"},
    {"code":9921704,"id":"dbf914","name":"仙台空港","name_kana":"せんだいくうこう","lat":38.137267,"lng":140.928763,"prefecture":4,"lines":[99217],"attr":"heat","postal_code":"981-1200","address":"名取市"}
  ],
  "north":38.17419,
  "south":38.13719,
  "east":140.93402,
  "west":140.88269,
  "polyline_list":[
    {
      "start":"仙台空港",
      "end":"名取",
      "lat":38.13719,
      "lng":140.92887,
      "delta_lat":[0,18,6,10,13,22,20,29,173,79,57,55,65,57,69,223,235,48,423,189,60,61,61,44,35,32,30,24,25,22,55,21,96,110,255,43,30,17,13,9,50,15,4,5,14,20,21,41,25,34,32,41,41,20,49,52,84,87,14,218],
      "delta_lng":[0,179,29,29,36,33,28,23,108,43,6,2,-8,-16,-29,-114,-120,-29,-281,-139,-60,-62,-81,-65,-60,-67,-64,-69,-78,-84,-192,-81,-348,-426,-947,-144,-113,-90,-80,-113,-564,-240,-39,-38,-54,-50,-37,-47,-19,-20,-13,-12,-8,0,-5,-2,-6,-6,-1,-12]
    }
  ]
}