{
  "code":99215,
  "name":"福島交通飯坂線",
  "station_list":[
    {"code":100409,"id":"7bfd6b","name":"福島(福島)","name_kana":"ふくしま","lat":37.754123,"lng":140.45968,"prefecture":7,"lines":[11216,11231,99213,99215,1004],"attr":"heat","postal_code":"960-8031","address":"福島市栄町"},
    {"code":9921502,"id":"e5dfdb","name":"曽根田","name_kana":"そねだ","lat":37.760289,"lng":140.459466,"prefecture":7,"lines":[99215],"attr":"eco","postal_code":"960-8051","address":"福島市曾根田町３-３７"},
    {"code":9921503,"id":"fbb07f","name":"美術館図書館前","name_kana":"びじゅつかんとしょかんまえ","lat":37.767074,"lng":140.455246,"prefecture":7,"lines":[99215],"attr":"eco","postal_code":"960-8002","address":"福島市森合町字台３-５"},
    {"code":9921504,"id":"42bf80","name":"岩代清水","name_kana":"いわしろしみず","lat":37.776304,"lng":140.44743,"prefecture":7,"lines":[99215],"attr":"eco","postal_code":"960-8253","address":"福島市泉字大仏３６-１"},
    {"code":9921505,"id":"637dc6","name":"泉(福島交通)","name_kana":"いずみ","lat":37.778551,"lng":140.445635,"prefecture":7,"lines":[99215],"attr":"eco","postal_code":"971-8182","address":"福島県いわき市泉町滝尻上谷地30"},
    {"code":9921506,"id":"f832e1","name":"上松川","name_kana":"かみまつかわ","lat":37.783619,"lng":140.441011,"prefecture":7,"lines":[99215],"attr":"eco","postal_code":"960-8254","address":"福島市南沢又字上並松１９-１"},
    {"code":9921507,"id":"45991e","name":"笹谷","name_kana":"ささや","lat":37.7873,"lng":140.439628,"prefecture":7,"lines":[99215],"attr":"heat","postal_code":"960-0241","address":"福島市笹谷字三本松１８-２"},
    {"code":9921508,"id":"174234","name":"桜水","name_kana":"さくらみず","lat":37.796682,"lng":140.441369,"prefecture":7,"lines":[99215],"attr":"heat","postal_code":"960-0241","address":"福島市笹谷字古屋前２-５"},
    {"code":9921509,"id":"030e68","name":"平野(福島)","name_kana":"ひらの","lat":37.805427,"lng":140.442781,"prefecture":7,"lines":[99215],"attr":"heat","postal_code":"960-0231","address":"福島市飯坂町平野字堂の前１６"},
    {"code":9921510,"id":"b1eb1c","name":"医王寺前","name_kana":"いおうじまえ","lat":37.816544,"lng":140.446395,"prefecture":7,"lines":[99215],"attr":"cool","postal_code":"960-0201","address":"福島市飯坂町平野字道添１４"},
    {"code":9921511,"id":"be4613","name":"花水坂","name_kana":"はなみずざか","lat":37.827043,"lng":140.450739,"prefecture":7,"lines":[99215],"attr":"cool","postal_code":"960-0201","address":"福島市飯坂町字町裏５-１"},
    {"code":9921512,"id":"af40a7","name":"飯坂温泉","name_kana":"いいざかおんせん","lat":37.830265,"lng":140.454696,"prefecture":7,"lines":[99215],"attr":"cool","postal_code":"960-0201","address":"福島市飯坂町十綱下２８"}
  ],
  "north":37.83044,
  "south":37.75341,
  "east":140.46006,
  "west":140.43953,
  "polyline_list":[
    {
      "start":"福島",
      "end":"飯坂温泉",
      "lat":37.75341,
      "lng":140.46006,
      "delta_lat":[0,181,224,239,23,25,21,5,25,29,19,32,79,15,50,29,85,15,22,23,170,28,3,59,2,36,14,12,17,259,27,22,14,19,18,10,13,4,3,24,20,26,19,13,19,26,41,136,61,42,18,23,62,86,18,33,21,70,45,82,17,89,92,41,51,86,48,16,9,9,12,14,19,99,44,20,260,264,204,69,23,35,184,147,38,50,269,171,35,25,34,34,31,94,225,34,55,142,218,9,168,9,49,47,25,32,52,15,23,21,50,45,29,25,78,28,94,66,40,9,107,240,9,63,38,18,17,16,13,14,12,15,18,29,23,17,9,7,61],
      "delta_lng":[0,-5,-20,-24,-2,-7,-5,-2,-7,-13,-11,-22,-51,-10,-33,-20,-55,-7,-15,-15,-110,-15,-1,-36,-2,-26,-6,-5,-4,-48,-7,-11,-12,-18,-24,-19,-27,-12,-13,-72,-64,-75,-38,-20,-23,-25,-34,-102,-45,-31,-13,-17,-54,-79,-17,-31,-21,-68,-44,-76,-16,-76,-80,-36,-44,-75,-41,-10,-3,-1,-1,-2,3,13,6,3,39,42,36,12,4,3,32,27,7,9,50,32,6,4,6,9,11,42,98,13,17,40,62,2,47,3,11,12,6,13,22,6,4,4,8,11,11,14,50,16,50,32,22,4,48,92,4,23,13,9,10,16,16,21,20,27,40,72,56,42,10,6,34]
    }
  ]
}