{
  "code":99220,
  "name":"南部縦貫鉄道線",
  "closed":true,
  "station_list":[
    {"code":1120110,"id":"83ffd8","name":"野辺地","name_kana":"のへじ","lat":40.855142,"lng":141.119603,"prefecture":2,"lines":[11201,11203,99206,99220],"attr":"cool","postal_code":"039-3131","address":"上北郡野辺地町大字野辺地","next":[1120111,1120302,1120109,9922002],"voronoi":{"lat":40.807558,"lng":141.029812,"delta_lat":[0,77733,-45033,-1080],"delta_lng":[0,72690,49450,-1638]}},
    {"code":9922002,"id":"70fc8e","name":"西千曳","name_kana":"にしちびき","closed":true,"lat":40.810193,"lng":141.131398,"prefecture":2,"lines":[99220],"attr":"unknown","postal_code":"039-2685","address":"日本青森県上北郡東北町字家ノ下タ４１","open_date":"1968-08-05","closed_date":"2002-08-01","next":[1120118,9922004,100422,9922005,1120116,1120115,1120114,1120112,1120111,1120109,9922003,1120110],"voronoi":{"lat":40.799896,"lng":141.140198,"delta_lat":[0,-10532,-25964,-42085,-1374,8063,14398,11793,12251,12709,28403,31620],"delta_lng":[0,-10473,-55294,-106435,-5493,194,1646,3540,6059,13287,42583,120502]}},
    {"code":9922003,"id":"63380e","name":"後平","name_kana":"うしろたい","closed":true,"lat":40.791154,"lng":141.150543,"prefecture":2,"lines":[99220],"attr":"unknown","postal_code":"039-2731","address":"日本青森県上北郡七戸町字後平１５０−１１０","open_date":"1963-04-01","closed_date":"2002-08-01","next":[9922004,1120109,1120108,9922002,9922005],"voronoi":{"lat":40.79251,"lng":141.182964,"delta_lat":[0,7386,-10532,-12766,-343],"delta_lng":[0,-42766,-10473,47334,3089]}},
    {"code":9922004,"id":"ecb1c2","name":"坪","name_kana":"つぼ","closed":true,"lat":40.77735,"lng":141.14682,"prefecture":2,"lines":[99220],"attr":"unknown","postal_code":"039-2731","address":"日本青森県上北郡七戸町字後平１２６−２４","open_date":"1962-10-20","closed_date":"2002-08-01","next":[9922002,9922003,9922005],"voronoi":{"lat":40.763401,"lng":141.074431,"delta_lat":[0,25964,-12766],"delta_lng":[0,55294,47334]}},
    {"code":9922005,"id":"f7b136","name":"坪川","name_kana":"つぼがわ","closed":true,"lat":40.768221,"lng":141.147994,"prefecture":2,"lines":[99220],"attr":"unknown","postal_code":"039-2733","address":"日本青森県上北郡七戸町字天間舘前川原３８","open_date":"1963-04-01","closed_date":"2002-08-01","next":[9922002,100422,9922006,9922003,1120108,9922004],"voronoi":{"lat":40.776255,"lng":141.180148,"delta_lat":[0,-7836,-37248,-9856,42085,13198],"delta_lng":[0,1459,-134142,-79469,106435,102628]}},
    {"code":9922006,"id":"e4ce5f","name":"道ノ上","name_kana":"みちのかみ","closed":true,"lat":40.751259,"lng":141.152704,"prefecture":2,"lines":[99220],"attr":"unknown","postal_code":"039-2828","address":"日本青森県上北郡七戸町字森ヶ沢１９２−７","open_date":"1962-10-20","closed_date":"2002-08-01","next":[100422,9922007,9922005,1120108],"voronoi":{"lat":40.76842,"lng":141.181606,"delta_lat":[0,-37248,3506,29157],"delta_lng":[0,-134142,85177,51174]}},
    {"code":9922007,"id":"881f4d","name":"天間林","name_kana":"てんまばやし","closed":true,"lat":40.743482,"lng":141.157135,"prefecture":2,"lines":[99220],"attr":"unknown","postal_code":"039-2827","address":"日本青森県上北郡七戸町字森ノ上１３１−９","open_date":"1962-10-20","closed_date":"2002-08-01","next":[9922008,100422,1120108,9922006],"voronoi":{"lat":40.734677,"lng":141.132641,"delta_lat":[0,-2470,27604,4023],"delta_lng":[0,18650,35175,-2651]}},
    {"code":9922008,"id":"2156da","name":"中野(青森)","name_kana":"なかの","closed":true,"lat":40.735203,"lng":141.163632,"prefecture":2,"lines":[99220],"attr":"unknown","postal_code":"039-2814","address":"日本青森県上北郡七戸町字道ノ下","open_date":"1962-10-20","closed_date":"2002-08-01","next":[1120108,100422,9922007,9922009,9922010],"voronoi":{"lat":40.725144,"lng":141.170569,"delta_lat":[0,5521,1543,27604,-25854],"delta_lng":[0,-16810,-2468,35175,23613]}},
    {"code":9922009,"id":"137152","name":"営農大学校前","name_kana":"えいのうだいがっこうまえ","closed":true,"lat":40.721156,"lng":141.159019,"prefecture":2,"lines":[99220],"attr":"unknown","postal_code":"039-2501","address":"日本青森県上北郡七戸町字荒熊内６７−５５２","open_date":"1962-10-20","closed_date":"2002-08-01","next":[100422,9922008,9922010],"voronoi":{"lat":40.730664,"lng":141.15376,"delta_lat":[0,-19262,13741],"delta_lng":[0,5199,11611]}},
    {"code":9922010,"id":"ff4bc5","name":"盛田牧場前","name_kana":"もりたぼくじょうまえ","closed":true,"lat":40.71309,"lng":141.168565,"prefecture":2,"lines":[99220],"attr":"unknown","postal_code":"039-2504","address":"日本青森県上北郡七戸町字寒水６８−１","open_date":"1964-04-11","closed_date":"2002-08-01","next":[100422,1120107,9922011,1120108,9922009,9922008],"voronoi":{"lat":40.730628,"lng":141.215114,"delta_lat":[0,-37320,13615,4479,13741,8814],"delta_lng":[0,7719,-65938,2064,11611,39510]}},
    {"code":9922011,"id":"bc9d10","name":"七戸","name_kana":"しちのへ","closed":true,"lat":40.696639,"lng":141.165168,"prefecture":2,"lines":[99220],"attr":"unknown","postal_code":"039-2512","address":"日本青森県上北郡七戸町字笊田４８−１","open_date":"1962-10-20","closed_date":"2002-08-01","next":[1120118,1120253,9920408,9920411,100422,1121219,1120107,9922010,1120252,9920409,9920410,1120119],"voronoi":{"lat":40.596755,"lng":140.928431,"delta_lat":[0,110168,-13615,-5517,-2025,-3310,-11733,-174276,18924,19595,8963,13821],"delta_lng":[0,228464,65938,2013,-1921,-3579,-14031,-259815,-21137,-9364,-3594,4105]}}
  ]
}