{
  "code":99223,
  "id":"40fb37",
  "name":"弘南鉄道黒石線",
  "name_kana":"こうなんてつどうくろいしせん",
  "station_size":3,
  "company_code":105,
  "closed":true,
  "station_list":[
    {"code":1120259,"id":"4cc983","name":"川部","name_kana":"かわべ","lat":40.646862,"lng":140.521376,"prefecture":2,"lines":[11202,11204,10201,99223],"attr":"eco","postal_code":"038-1141","address":"南津軽郡田舎館村大字川部","next":[9920210,1120258,9922302,1120442,9920207,9920205,9920204,1120260],"voronoi":{"lat":40.672551,"lng":140.517721,"delta_lat":[0,-35318,-20262,-129,783,6598,49,30670],"delta_lng":[0,-11617,21800,5110,2803,6905,10,-6249]},"impl":true},
    {"code":9922302,"id":"4b52de","name":"前田屋敷","name_kana":"まえだやしき","closed":true,"lat":40.653417,"lng":140.553547,"prefecture":2,"lines":[10201,99223],"postal_code":"038-1102","address":"青森県南津軽郡田舎館村大字堂野前西田４９−４","open_date":"1935-04-15","closed_date":"1998-04-01","next":[1120260,1120259,9920211,9920210],"voronoi":{"lat":40.624271,"lng":140.542732,"delta_lat":[0,30670,19306,-27309],"delta_lng":[0,-6249,33180,-5929]},"impl":false},
    {"code":9920212,"id":"6311a9","name":"黒石(青森)","original_name":"黒石","name_kana":"くろいし","lat":40.648342,"lng":140.591045,"prefecture":2,"lines":[99202,10201,99223],"attr":"cool","postal_code":"036-0383","address":"黒石市緑町１-１１５","next":[1120263,9920608,1120254,9920213,9920209,9920211,9920208,1120261],"voronoi":{"lat":40.68877,"lng":140.714063,"delta_lat":[0,-88833,-10284,29205,17630,3170,39289,17592],"delta_lng":[0,78040,-113135,-67223,-25640,-2891,683,104841]},"impl":true}
  ],
  "closed_date":"1998-04-01",
  "impl":false
}