{
  "code":99225,
  "id":"8cf5e1",
  "name":"くりはら田園鉄道線",
  "name_kana":"くりはらでんえんてつどうせん",
  "station_size":16,
  "company_code":309,
  "closed":true,
  "station_list":[
    {"code":1123161,"id":"9c37af","name":"石越","name_kana":"いしこし","lat":38.768778,"lng":141.15906,"prefecture":4,"lines":[11231,99225],"attr":"eco","postal_code":"989-4703","address":"登米市石越町南郷","next":[1122405,9922502,1123162,1123160,9922503],"voronoi":{"lat":38.740557,"lng":141.138622,"delta_lat":[0,-52048,35199,61724,-26714],"delta_lng":[0,75255,54341,-105067,-20533]},"impl":true},
    {"code":9922502,"id":"f00c62","name":"荒町(宮城)","original_name":"荒町","name_kana":"あらまち","closed":true,"lat":38.777194,"lng":141.148111,"prefecture":4,"lines":[99225],"postal_code":"989-5501","address":"宮城県栗原市若柳川北砂押７２−１","open_date":"1953-05-15","closed_date":"2007-04-01","next":[1123162,1123161,9922504,1123164,9922503],"voronoi":{"lat":38.805763,"lng":141.135518,"delta_lat":[0,11956,-330,-31958,-26714],"delta_lng":[0,1537,3028,23069,-20533]},"impl":false},
    {"code":9922503,"id":"8a6dcf","name":"若柳","name_kana":"わかやなぎ","closed":true,"lat":38.77475,"lng":141.131917,"prefecture":4,"lines":[99225],"postal_code":"989-5501","address":"宮城県栗原市若柳川北塚ノ越１７","open_date":"1921-12-20","closed_date":"2007-04-01","next":[9922504,1123161,1123160,9922502],"voronoi":{"lat":38.740557,"lng":141.138622,"delta_lat":[0,5501,59706,-47046],"delta_lng":[0,-27869,24764,7101]},"impl":false},
    {"code":9922504,"id":"189b6f","name":"谷地畑","name_kana":"やちはた","closed":true,"lat":38.781306,"lng":141.116111,"prefecture":4,"lines":[99225],"postal_code":"989-5505","address":"宮城県栗原市若柳福岡小谷町３５","open_date":"1926-10-10","closed_date":"2007-04-01","next":[1123164,9922502,1123165,9922505,1123160,9922503,100413],"voronoi":{"lat":38.756122,"lng":141.100556,"delta_lat":[0,67812,-4,-6210,-11956,-59706,-133],"delta_lng":[0,25126,75,11297,-1537,-24764,-2786]},"impl":false},
    {"code":9922505,"id":"92ac0c","name":"大岡小前","name_kana":"おおおかしょうまえ","closed":true,"lat":38.785361,"lng":141.105167,"prefecture":4,"lines":[99225],"postal_code":"989-5506","address":"宮城県栗原市若柳大林東千刈１","open_date":"1995-12-25","closed_date":"2007-04-01","next":[100413,9922504,1123165,9922506],"voronoi":{"lat":38.765278,"lng":141.090606,"delta_lat":[0,-9157,67812,3500],"delta_lng":[0,9950,25126,-18135]},"impl":false},
    {"code":9922506,"id":"7510ab","name":"大岡(宮城)","original_name":"大岡","name_kana":"おおおか","closed":true,"lat":38.789972,"lng":141.08825,"prefecture":4,"lines":[99225],"postal_code":"989-5506","address":"宮城県栗原市若柳大林新堰合７３","open_date":"1921-12-20","closed_date":"2007-04-01","next":[9922507,1123165,100413,9922505],"voronoi":{"lat":38.765278,"lng":141.090606,"delta_lat":[0,8433,59537,-5815],"delta_lng":[0,-20954,24151,13744]},"impl":false},
    {"code":9922507,"id":"6acb05","name":"沢辺","name_kana":"さわべ","closed":true,"lat":38.798333,"lng":141.067639,"prefecture":4,"lines":[99225],"postal_code":"989-5171","address":"宮城県栗原市金成沢辺木戸口７０−２２","open_date":"1921-12-20","closed_date":"2007-04-01","next":[9922506,1123165,100413,9922508],"voronoi":{"lat":38.77016,"lng":141.027634,"delta_lat":[0,3551,59537,13764],"delta_lng":[0,42019,24151,-17810]},"impl":false},
    {"code":9922508,"id":"70cb67","name":"津久毛","name_kana":"つくも","closed":true,"lat":38.818417,"lng":141.035722,"prefecture":4,"lines":[99225],"postal_code":"989-5185","address":"宮城県栗原市金成大原木琴野待４４−５","open_date":"1924-01-15","closed_date":"2007-04-01","next":[100413,9922513,9922507,9922512,9922509,9922510,1123165],"voronoi":{"lat":38.870702,"lng":141.062394,"delta_lat":[0,-75684,-7094,-12442,-17272,11951,76852],"delta_lng":[0,-52554,-3296,-1599,-271,22960,48360]},"impl":false},
    {"code":9922509,"id":"6e8b70","name":"杉橋","name_kana":"すぎはし","closed":true,"lat":38.827444,"lng":141.022722,"prefecture":4,"lines":[99225],"postal_code":"989-5311","address":"宮城県栗原市栗駒里谷杉橋９","open_date":"1924-01-15","closed_date":"2007-04-01","next":[9922510,1123165,9922508,1123167],"voronoi":{"lat":38.870702,"lng":141.062394,"delta_lat":[0,-75684,129896,-4632],"delta_lng":[0,-52554,27159,5252]},"impl":false},
    {"code":9922510,"id":"7b381e","name":"鳥矢崎","name_kana":"とやさき","closed":true,"lat":38.829889,"lng":141.011028,"prefecture":4,"lines":[99225],"postal_code":"989-5311","address":"宮城県栗原市栗駒里谷中沖１","next":[9922509,1123168,9922511,9922512,1123167,9922508],"voronoi":{"lat":38.924913,"lng":141.036998,"delta_lat":[0,7807,19926,-140930,-23793,7094],"delta_lng":[0,-7837,-29500,2045,4837,3296]},"impl":false},
    {"code":9922511,"id":"44b2a7","name":"栗駒","name_kana":"くりこま","closed":true,"lat":38.829611,"lng":140.991861,"prefecture":4,"lines":[99225],"postal_code":"989-5301","address":"宮城県栗原市栗駒岩ケ崎上町裏５６−２","open_date":"1922-12-17","closed_date":"2007-04-01","next":[1123168,9922510,9922514,9922512],"voronoi":{"lat":38.851626,"lng":140.96883,"delta_lat":[0,132802,-31782,-140930],"delta_lng":[0,-9128,39959,2045]},"impl":false},
    {"code":9922512,"id":"aaac7c","name":"栗原田町","name_kana":"くりはらたまち","closed":true,"lat":38.824806,"lng":140.986028,"prefecture":4,"lines":[99225],"postal_code":"989-5351","address":"宮城県栗原市栗駒中野田町裏１","open_date":"1951-11-01","closed_date":"2007-04-01","next":[9922510,9922514,9922511,9922508,9922513],"voronoi":{"lat":38.845698,"lng":140.968532,"delta_lat":[0,5928,-39910,-23793,-12442],"delta_lng":[0,298,32876,4837,-1599]},"impl":false},
    {"code":9922513,"id":"76ac4e","name":"尾松","name_kana":"おまつ","closed":true,"lat":38.819361,"lng":140.975528,"prefecture":4,"lines":[99225],"postal_code":"989-5341","address":"宮城県栗原市栗駒稲屋敷上ノ山１７","open_date":"1942-12-01","closed_date":"2007-04-01","next":[100413,9922508,9922514,9922515,9922512],"voronoi":{"lat":38.845698,"lng":140.968532,"delta_lat":[0,-49851,-79353,41715,17272],"delta_lng":[0,-13744,19441,30444,271]},"impl":false},
    {"code":9922514,"id":"da7731","name":"鶯沢","name_kana":"うぐいすざわ","closed":true,"lat":38.826667,"lng":140.949028,"prefecture":4,"lines":[99225],"postal_code":"989-5403","address":"宮城県栗原市鶯沢北郷寺原６８","open_date":"1942-12-01","closed_date":"2007-04-01","next":[1123169,9922511,1121009,9922512,9922513,1123168,9922515,9922516],"voronoi":{"lat":39.039688,"lng":140.803923,"delta_lat":[0,19696,-9826,-65130,-132802,-5928,-49851,59538],"delta_lng":[0,81229,12311,62239,9128,-298,-13744,-49546]},"impl":false},
    {"code":9922515,"id":"a87041","name":"鶯沢工業高校前","name_kana":"うぐいすざわこうぎょうこうこうまえ","closed":true,"lat":38.807111,"lng":140.925528,"prefecture":4,"lines":[99225],"postal_code":"989-5402","address":"宮城県栗原市鶯沢南郷上新反田２７","open_date":"1952-04-01","closed_date":"2007-04-01","next":[1122108,1122111,9922514,100413,9922516,9922513,1122109],"voronoi":{"lat":38.705896,"lng":140.970026,"delta_lat":[0,10599,79353,59538,-132789,-14645,-562],"delta_lng":[0,4203,-19441,-49546,27804,28002,1609]},"impl":false},
    {"code":9922516,"id":"daaa6c","name":"細倉マインパーク前","name_kana":"ほそくらまいんぱーくまえ","closed":true,"lat":38.803028,"lng":140.906028,"prefecture":4,"lines":[99225],"postal_code":"989-5402","address":"宮城県栗原市鶯沢南郷原１２","open_date":"1942-12-01","closed_date":"2007-04-01","next":[1122113,1121012,1121009,1122112,1122114,9922514,9922515,1122111],"voronoi":{"lat":38.855385,"lng":140.905243,"delta_lat":[0,184303,-210,-27579,-130131,-100137,-45432,-13603],"delta_lng":[0,-101319,-1459,-63229,45013,52312,60803,35683]},"impl":false}
  ],
  "closed_date":"2007-04-01",
  "impl":false
}