{
  "code":99228,
  "id":"0d501b",
  "name":"小坂線",
  "name_kana":"こさかせん",
  "name_formal":"小坂精練小坂線",
  "station_size":11,
  "closed":true,
  "station_list":[
    {"code":1120249,"id":"144582","name":"大館","name_kana":"おおだて","lat":40.288122,"lng":140.555946,"prefecture":5,"lines":[11202,11212,99228,99229],"attr":"cool","postal_code":"017-0044","address":"大館市御成町１丁目","next":[1121226,9922802,1120248,9922902],"voronoi":{"lat":40.291976,"lng":140.524368,"delta_lat":[0,-13373,-2543,26300],"delta_lng":[0,2641,46829,-3086]},"impl":true},
    {"code":9922802,"id":"cd6996","name":"岱野","name_kana":"たいの","closed":true,"lat":40.291936,"lng":140.58845,"prefecture":5,"lines":[99228],"postal_code":"017-0031","address":"秋田県大館市上代野稲荷台１−４","open_date":"1909-05-07","closed_date":"1994-10-01","next":[1121225,9922803,1120249,1120250,1121226,9922902],"voronoi":{"lat":40.302359,"lng":140.570751,"delta_lat":[0,-26300,-17148,-1875,57453,1440],"delta_lng":[0,3086,13192,7360,3296,-20730]},"impl":false},
    {"code":9922803,"id":"7382bc","name":"東岱野","name_kana":"ひがしたいの","closed":true,"lat":40.291028,"lng":140.604281,"prefecture":5,"lines":[99228],"postal_code":"017-0024","address":"秋田県大館市大茂内上瘤木台６３−２","open_date":"1970-11-01","closed_date":"1994-10-01","next":[1121225,9922802,1120250,9922804,1121224],"voronoi":{"lat":40.320055,"lng":140.618439,"delta_lat":[0,-5565,-57453,-10101,4078],"delta_lng":[0,-20753,-3296,19621,9377]},"impl":false},
    {"code":9922804,"id":"165e94","name":"小雪沢","name_kana":"こゆきざわ","closed":true,"lat":40.293344,"lng":140.636592,"prefecture":5,"lines":[99228],"postal_code":"017-0021","address":"秋田県大館市雪沢大滝","open_date":"1915-10-20","closed_date":"1961-10-01","next":[9922806,1121224,9922807,1121223,1120250,9922805,9922803],"voronoi":{"lat":40.320055,"lng":140.618439,"delta_lat":[0,1007,-43550,-4304,-19995,-1321,-878],"delta_lng":[0,1003,33603,1121,-3275,-3303,-24200]},"impl":false},
    {"code":9922805,"id":"b56061","name":"雪沢温泉","name_kana":"ゆきさわおんせん","closed":true,"lat":40.297442,"lng":140.641903,"prefecture":5,"lines":[99228],"postal_code":"017-0021","address":"秋田県大館市雪沢下谷地８−１","open_date":"1954-08-01","closed_date":"1994-10-01","next":[1120250,9922806,9922804],"voronoi":{"lat":40.321061,"lng":140.619442,"delta_lat":[0,31541,-75091],"delta_lng":[0,25524,8079]},"impl":false},
    {"code":9922806,"id":"ce142a","name":"新沢","name_kana":"しんさわ","closed":true,"lat":40.299356,"lng":140.659692,"prefecture":5,"lines":[99228],"postal_code":"017-0021","address":"秋田県大館市雪沢雪沢３３−１","open_date":"1927-12-25","closed_date":"1994-10-01","next":[9922804,9922808,9922809,1120250,1120251,9922805,9922807,9922810],"voronoi":{"lat":40.372619,"lng":140.67845,"delta_lat":[0,-16507,-3510,-75091,-4304,31570,24077,29889],"delta_lng":[0,-31485,-1999,8079,1121,22789,6435,435]},"impl":false},
    {"code":9922807,"id":"29ede7","name":"深沢","name_kana":"ふかさわ","closed":true,"lat":40.286686,"lng":140.677244,"prefecture":5,"lines":[99228],"postal_code":"017-0021","address":"秋田県大館市雪沢楢木岱","open_date":"1971-11-10","closed_date":"1994-10-01","next":[1121222,9922808,9922804,9922806,1121223],"voronoi":{"lat":40.261115,"lng":140.694399,"delta_lat":[0,43663,-31570,-19995,-1367],"delta_lng":[0,-17444,-22789,-3275,10957]},"impl":false},
    {"code":9922808,"id":"001c05","name":"茂内","name_kana":"しげない","closed":true,"lat":40.291467,"lng":140.689211,"prefecture":5,"lines":[99228],"postal_code":"017-0021","address":"秋田県大館市雪沢上谷地１０８","open_date":"1909-05-07","closed_date":"2009-04-01","next":[1121222,9922809,9922807,9922806],"voronoi":{"lat":40.304778,"lng":140.676955,"delta_lat":[0,-43663,1149,66591],"delta_lng":[0,17444,17227,-28236]},"impl":false},
    {"code":9922809,"id":"739fbe","name":"篭谷","name_kana":"かごや","closed":true,"lat":40.298678,"lng":140.706217,"prefecture":5,"lines":[99228],"postal_code":"017-0021","address":"秋田県大館市雪沢２０−３","open_date":"1956-02-01","closed_date":"1994-10-01","next":[9922808,1121222,9922810,9922811,9922806,1121219,1121220],"voronoi":{"lat":40.284358,"lng":140.743081,"delta_lat":[0,31942,42444,-29889,-66591,-764,7897],"delta_lng":[0,-20423,-38833,-435,28236,4040,17532]},"impl":false},
    {"code":9922810,"id":"a7d3c2","name":"古館(秋田)","original_name":"古館","name_kana":"ふるだて","closed":true,"lat":40.331111,"lng":140.741667,"prefecture":5,"lines":[99228],"postal_code":"017-0202","address":"秋田県鹿角郡小坂町小坂鉱山古館１−１１","open_date":"1985-10-01","closed_date":"1994-10-01","next":[1120119,9922809,1120252,9922011,1120253,1120118,9922811,1120251,9920411,9922806],"voronoi":{"lat":40.372619,"lng":140.67845,"delta_lat":[0,11100,123845,53585,-3363,-4,-51582,-47612,-142289,42444],"delta_lng":[0,5606,125152,66462,39823,28,44521,29494,-266878,-38833]},"impl":false},
    {"code":9922811,"id":"be54b1","name":"小坂","name_kana":"こさか","closed":true,"lat":40.323828,"lng":140.74555,"prefecture":5,"lines":[99228],"postal_code":"017-0202","address":"秋田県鹿角郡小坂町小坂鉱山古川２０","open_date":"1909-05-07","closed_date":"2009-04-01","next":[9920411,9922809,1121219,1121212,9922810,9920602,1121218],"voronoi":{"lat":40.363232,"lng":140.955448,"delta_lat":[0,-78875,31942,142289,-12632,-43104,-30693],"delta_lng":[0,-212367,-20423,266878,8087,5890,-28464]},"impl":false}
  ],
  "closed_date":"2009-04-01",
  "impl":false
}