{
  "code":99230,
  "id":"36e10f",
  "name":"湯野浜線",
  "name_kana":"ゆのはません",
  "name_formal":"庄内交通湯野浜線",
  "station_size":7,
  "closed":true,
  "station_list":[
    {"code":1121431,"id":"949d24","name":"鶴岡","name_kana":"つるおか","lat":38.74011,"lng":139.83538,"prefecture":6,"lines":[11214,99230],"attr":"eco","postal_code":"997-0015","address":"鶴岡市末広町１丁目","next":[9923002,1121430,1121429,9923210,1121432],"voronoi":{"lat":38.459328,"lng":139.851946,"delta_lat":[0,204782,10015,124840,-237694],"delta_lng":[0,-52503,305,43313,115537]},"impl":true},
    {"code":9923002,"id":"94332c","name":"京田","name_kana":"きょうでん","closed":true,"lat":38.748,"lng":139.812639,"prefecture":6,"lines":[99230],"postal_code":"997-0054","address":"山形県鶴岡市高田宮ノ腰５５","open_date":"1929-12-08","closed_date":"1975-04-01","next":[1121431,1121432,9923006,9923003,1121430,1121433],"voronoi":{"lat":38.82294,"lng":139.831359,"delta_lat":[0,-20457,-86646,-41711,124840,10403],"delta_lng":[0,-15560,-21537,5485,43313,-2637]},"impl":false},
    {"code":9923003,"id":"6054f7","name":"安丹","name_kana":"あんたん","closed":true,"lat":38.752861,"lng":139.793083,"prefecture":6,"lines":[99230],"postal_code":"997-0057","address":"山形県鶴岡市安丹１５３","open_date":"1948-08-01","closed_date":"1975-04-01","next":[9923005,9923004,9923006,9923002,1121430],"voronoi":{"lat":38.747992,"lng":139.780431,"delta_lat":[0,14616,33417,6458,-86646],"delta_lng":[0,738,27485,7146,-21537]},"impl":false},
    {"code":9923004,"id":"900b2d","name":"北大山","name_kana":"きたおおやま","closed":true,"lat":38.754111,"lng":139.768333,"prefecture":6,"lines":[99230],"postal_code":"997-1121","address":"山形県鶴岡市大山近田３７−１","open_date":"1929-12-08","closed_date":"1975-04-01","next":[9923003,9923005,1121430,1121429,9923007],"voronoi":{"lat":38.749213,"lng":139.732869,"delta_lat":[0,-678,-544,14616,1368],"delta_lng":[0,746,46816,738,-25740]},"impl":false},
    {"code":9923005,"id":"9f0451","name":"善宝寺","name_kana":"ぜんぽうじ","closed":true,"lat":38.772417,"lng":139.769306,"prefecture":6,"lines":[99230],"postal_code":"997-1117","address":"山形県鶴岡市下川関根１０７","open_date":"1929-12-08","closed_date":"1975-04-01","next":[9923003,9923006,9923007,9923004],"voronoi":{"lat":38.796024,"lng":139.808653,"delta_lat":[0,-19986,-12063,-1368],"delta_lng":[0,-48241,-4984,25740]},"impl":false},
    {"code":9923006,"id":"578509","name":"七窪","name_kana":"ななくぼ","closed":true,"lat":38.784889,"lng":139.764139,"prefecture":6,"lines":[99230],"postal_code":"997-1117","address":"山形県鶴岡市下川龍花崎３６−４８２","open_date":"1940-07-01","closed_date":"1975-04-01","next":[1121438,9923005,9923007,1121434,9923003,1121433,9923002,1121437],"voronoi":{"lat":38.836775,"lng":139.828793,"delta_lat":[0,-13836,-20457,-6458,-19986,137624,-71700,-3170],"delta_lng":[0,2567,-15560,-7146,-48241,-56207,120282,3491]},"impl":false},
    {"code":9923007,"id":"01adb0","name":"湯野浜温泉","name_kana":"ゆのはまおんせん","closed":true,"lat":38.77975,"lng":139.751556,"prefecture":6,"lines":[99230],"postal_code":"997-1201","address":"山形県鶴岡市湯野浜１丁目１-７","open_date":"1929-12-08","closed_date":"1975-04-01","next":[1121429,1121427,9923005,9923006,1121438,1121442,1121428,9923004],"voronoi":{"lat":38.776039,"lng":139.760413,"delta_lat":[0,137624,176580,28774,-293224,-63193,-13386,14762],"delta_lng":[0,-56207,-266361,-65640,251558,65131,43975,22560]},"impl":false}
  ],
  "closed_date":"1975-04-01",
  "impl":false
}