{
  "code":99234,
  "id":"780edf",
  "name":"福島臨海鉄道",
  "name_kana":"ふくしまりんかいてつどう",
  "name_formal":"福島臨海鉄道本線",
  "station_size":7,
  "station_list":[
    {"code":1122932,"id":"28f062","name":"泉(JR)","original_name":"泉","name_kana":"いずみ","lat":36.955602,"lng":140.854125,"prefecture":7,"lines":[11229,99234],"attr":"eco","postal_code":"971-8182","address":"福島県いわき市泉町滝尻上谷地30","next":[9923403,1122933,9923402,1122931],"voronoi":{"lat":36.939116,"lng":140.864427,"delta_lat":[0,43327,-5341,-85678],"delta_lng":[0,1876,-64635,51940]},"impl":true},
    {"code":9923402,"id":"71aa25","name":"滝尻","closed":true,"lat":36.95465,"lng":140.876115,"prefecture":7,"lines":[99234],"postal_code":"971-8182","address":"福島県いわき市泉町滝尻東越地３０","closed_date":"1972-10-01","next":[9923404,9923405,1122933,9923403,1122932],"voronoi":{"lat":36.939116,"lng":140.864427,"delta_lat":[0,21839,187,38447,-17146],"delta_lng":[0,23635,128,12280,-34167]},"impl":false},
    {"code":9923403,"id":"2d2eb8","name":"東邦亜鉛前","closed":true,"lat":36.949543,"lng":140.880834,"prefecture":7,"lines":[99234],"postal_code":"971-8101","address":"福島県いわき市小名浜大道下２５−２３","closed_date":"1972-10-01","next":[9923404,9923402,1122932,1122931,1122930],"voronoi":{"lat":36.960955,"lng":140.888062,"delta_lat":[0,-21839,-47692,-6603,-5263],"delta_lng":[0,-23635,-10819,2262,3663]},"impl":false},
    {"code":9923404,"id":"27ca02","name":"宮下","name_kana":"みやした","closed":true,"lat":36.947528,"lng":140.886583,"prefecture":7,"lines":[99234],"postal_code":"971-8101","address":"福島県いわき市小名浜宮下１２７","closed_date":"2015-01-13","next":[9923402,9923407,9923403,1122930,1122929,9923405,9923406],"voronoi":{"lat":36.905892,"lng":140.894501,"delta_lat":[0,-67096,3462,37301,81397,187,-38953],"delta_lng":[0,-8012,-3235,-23722,28529,128,6719]},"impl":false},
    {"code":9923405,"id":"c2677b","name":"水素前","name_kana":"すいそまえ","closed":true,"lat":36.948853,"lng":140.894264,"prefecture":7,"lines":[99234],"postal_code":"971-8101","address":"福島県いわき市小名浜渚廻２−６","closed_date":"1972-10-01","next":[9923402,1122933,9923406,9923404,1122801],"voronoi":{"lat":36.92219,"lng":140.894909,"delta_lat":[0,38953,38447,4188,57],"delta_lng":[0,-6719,12280,5481,3113]},"impl":false},
    {"code":9923406,"id":"e7fc8c","name":"小名浜","name_kana":"おなはま","lat":36.94708,"lng":140.904491,"prefecture":7,"lines":[99234],"postal_code":"971-8101","address":"福島県いわき市小名浜辰巳町３１−２明電社四郎電気","next":[9923405,1122801,9923404,9923407],"voronoi":{"lat":36.905892,"lng":140.894501,"delta_lat":[0,16298,81645,2191],"delta_lng":[0,407,14155,19936]},"impl":false},
    {"code":9923407,"id":"8fb6ba","name":"栄町(福島)","original_name":"栄町","closed":true,"lat":36.944493,"lng":140.912,"prefecture":7,"lines":[99234],"postal_code":"971-8101","address":"福島県いわき市小名浜栄町４−４","closed_date":"1968-07-01","next":[1122928,9923404,9933506,9933505,1122926,1123003,1122929,1122801,9931502,1122923,9933507,9923406,1123002],"voronoi":{"lat":37.007318,"lng":140.93645,"delta_lat":[0,-1292,-100134,-67096,-157396,-54128,-279083,-24278,-12585,-36,-1649,-48569,712279],"delta_lng":[0,-7450,-34498,-8012,115590,50264,328137,34371,24252,783,38831,1214035,-1631615]},"impl":false}
  ],
  "impl":false
}