{
  "code":99232,
  "id":"d224ee",
  "name":"三山線",
  "name_kana":"さんざんせん",
  "name_formal":"山形交通三山線",
  "station_size":10,
  "closed":true,
  "station_list":[
    {"code":1121810,"id":"c17599","name":"羽前高松","name_kana":"うぜんたかまつ","lat":38.397494,"lng":140.248666,"prefecture":6,"lines":[11218,99232],"attr":"cool","postal_code":"990-0523","address":"寒河江市大字八鍬","next":[1121627,1121809,1121628,1121629,1121811,9923202],"voronoi":{"lat":38.471876,"lng":140.297546,"delta_lat":[0,-21154,-11102,-62639,13355,93134],"delta_lng":[0,8340,2571,-62336,-9716,54442]},"impl":true},
    {"code":9923202,"id":"f28385","name":"新田(山形)","original_name":"新田","name_kana":"しんでん","closed":true,"lat":38.404532,"lng":140.236626,"prefecture":6,"lines":[99232],"postal_code":"990-0523","address":"山形県寒河江市大字八鍬１１８３−２","open_date":"1926-12-23","closed_date":"1974-11-18","next":[1121629,1121811,1121810,9923203],"voronoi":{"lat":38.48347,"lng":140.290847,"delta_lat":[0,-93134,4450,101055],"delta_lng":[0,-54442,-9744,58194]},"impl":false},
    {"code":9923203,"id":"532ad9","name":"白岩","name_kana":"しらいわ","closed":true,"lat":38.408297,"lng":140.230088,"prefecture":6,"lines":[99232],"postal_code":"990-0505","address":"山形県寒河江市大字白岩１７６−１","open_date":"1926-12-23","closed_date":"1974-11-18","next":[1121629,1121812,9923205,1121811,1121631,9923204,9923202,1121630],"voronoi":{"lat":38.495841,"lng":140.284855,"delta_lat":[0,-101055,1335,892,82943,75704,-23522,-11569],"delta_lng":[0,-58194,-8573,-1060,6210,10311,30380,10045]},"impl":false},
    {"code":9923204,"id":"e6ada3","name":"上野(山形)","original_name":"上野","name_kana":"うわの","closed":true,"lat":38.410116,"lng":140.205793,"prefecture":6,"lines":[99232],"postal_code":"990-0505","address":"山形県寒河江市大字白岩７３６−１３","open_date":"1926-12-23","closed_date":"1974-11-18","next":[1121812,9923203,9923205],"voronoi":{"lat":38.395296,"lng":140.196547,"delta_lat":[0,1717,82943],"delta_lng":[0,20480,6210]},"impl":false},
    {"code":9923205,"id":"cc9288","name":"羽前宮内","name_kana":"うぜんみやうち","closed":true,"lat":38.412739,"lng":140.197473,"prefecture":6,"lines":[99232],"postal_code":"990-0501","address":"山形県寒河江市大字宮内４１","open_date":"1926-12-23","closed_date":"1974-11-18","next":[1121812,1121631,9923203,9923204,9923206],"voronoi":{"lat":38.390818,"lng":140.183726,"delta_lat":[0,4479,84660,75704,4092],"delta_lng":[0,12822,26690,10311,-4214]},"impl":false},
    {"code":9923206,"id":"776850","name":"石田(山形)","original_name":"石田","name_kana":"いしだ","closed":true,"lat":38.416679,"lng":140.182879,"prefecture":6,"lines":[99232],"postal_code":"990-0701","address":"山形県西村山郡西川町大字睦合乙４６３","open_date":"1926-12-23","closed_date":"1974-11-18","next":[1121631,9923207,1121812,1121634,9923205],"voronoi":{"lat":38.390818,"lng":140.183726,"delta_lat":[0,-12708,191551,-2317,-7591],"delta_lng":[0,-17339,51100,4778,7070]},"impl":false},
    {"code":9923207,"id":"bb5eb4","name":"睦合","name_kana":"むつあい","closed":true,"lat":38.419769,"lng":140.171296,"prefecture":6,"lines":[99232],"postal_code":"990-0701","address":"山形県西村山郡西川町大字睦合丙２０４","open_date":"1926-12-23","closed_date":"1974-11-18","next":[9923206,1121812,9923208,1121634,1122004],"voronoi":{"lat":38.577613,"lng":140.20161,"delta_lat":[0,-213738,14234,191551,7903],"delta_lng":[0,-49733,14509,51100,-14829]},"impl":false},
    {"code":9923208,"id":"e35bdd","name":"海味","name_kana":"かいしゅう","closed":true,"lat":38.4226,"lng":140.159129,"prefecture":6,"lines":[99232],"postal_code":"990-0702","address":"山形県西村山郡西川町大字海味８２","open_date":"1926-12-23","closed_date":"1974-11-18","next":[1121812,9923207,1122004,9923209],"voronoi":{"lat":38.333765,"lng":140.127068,"delta_lat":[0,30111,213738,6],"delta_lng":[0,24810,49733,-70]},"impl":false},
    {"code":9923209,"id":"f49a51","name":"西海味","name_kana":"にしかいしゅう","closed":true,"lat":38.425355,"lng":140.150108,"prefecture":6,"lines":[99232],"postal_code":"990-0702","address":"山形県西村山郡西川町大字海味４８６","open_date":"1928-09-17","closed_date":"1974-11-18","next":[9923210,1121812,1122004,9923208],"voronoi":{"lat":38.333765,"lng":140.127068,"delta_lat":[0,-21516,267843,-2472],"delta_lng":[0,-15994,69179,21288]},"impl":false},
    {"code":9923210,"id":"9b73a1","name":"間沢","name_kana":"まざわ","closed":true,"lat":38.430111,"lng":140.131694,"prefecture":6,"lines":[99232],"postal_code":"990-0703","address":"山形県西村山郡西川町大字間沢２２−１１","open_date":"1928-09-17","closed_date":"1974-11-18","next":[9921116,9923209,9921117,1121423,9921115,1121812,1121422,1121432,1122006,1121431,1121429,1122005,1122004,9921114],"voronoi":{"lat":38.330981,"lng":140.000613,"delta_lat":[0,-16046,-5167,2481,267843,2165,4300,-20943,-4342,-101943,-38307,-10141,-29423,-26188],"delta_lng":[0,72430,36477,1554,69179,-12175,-92146,-111149,-6185,-106652,-27112,-2180,-4073,82791]},"impl":false}
  ],
  "closed_date":"1974-11-18",
  "impl":false
}