{
  "code":99233,
  "id":"6bd331",
  "name":"高畠線",
  "name_kana":"たかはたせん",
  "name_formal":"山形交通高畠線",
  "station_size":9,
  "closed":true,
  "station_list":[
    {"code":1121611,"id":"43b694","name":"高畠","name_kana":"たかはた","lat":37.992314,"lng":140.15281,"prefecture":6,"lines":[11216,99233],"attr":"eco","postal_code":"999-2174","address":"東置賜郡高畠町大字福沢","next":[1121612,9921105,9923304,1121610,9923302,1121905],"voronoi":{"lat":38.006056,"lng":140.103171,"delta_lat":[0,11235,1498,-35722,-19845,20337],"delta_lng":[0,13335,21405,40405,6323,-75364]},"impl":true},
    {"code":9923302,"id":"09370d","name":"一本柳","name_kana":"いっぽんやなぎ","closed":true,"lat":38.007248,"lng":140.166013,"prefecture":6,"lines":[99233],"postal_code":"992-0334","address":"山形県東置賜郡高畠町大字一本柳１２６６","open_date":"1922-03-16","closed_date":"1974-11-18","next":[9923303,1121612,1121611,9923304],"voronoi":{"lat":37.983067,"lng":140.178316,"delta_lat":[0,35722,10751,-33745],"delta_lng":[0,-40405,25139,16129]},"impl":false},
    {"code":9923303,"id":"638342","name":"竹ノ森","name_kana":"たけのもり","closed":true,"lat":38.013234,"lng":140.178537,"prefecture":6,"lines":[99233],"postal_code":"992-0342","address":"山形県東置賜郡高畠町大字竹森５４−１３","open_date":"1922-03-16","closed_date":"1974-11-18","next":[9923305,9923302,1121613,1121612,9923304],"voronoi":{"lat":38.049856,"lng":140.202047,"delta_lat":[0,3618,-23934,-33745,35602],"delta_lng":[0,-11590,-27407,16129,18387]},"impl":false},
    {"code":9923304,"id":"ffa4bf","name":"高畠(山形交通)","original_name":"高畠","name_kana":"たかはた","closed":true,"lat":38.005366,"lng":140.193771,"prefecture":6,"lines":[99233],"postal_code":"992-0351","address":"山形県東置賜郡高畠町大字高畠１５６８","open_date":"1922-03-16","closed_date":"1974-11-18","next":[1121611,9923305,9923302,9923303,1121610],"voronoi":{"lat":38.031398,"lng":140.197567,"delta_lat":[0,-35602,-12728,-19845,-21352],"delta_lng":[0,-18387,-863,6323,21351]},"impl":false},
    {"code":9923305,"id":"060138","name":"東高畠","name_kana":"ひがしたかはた","closed":true,"lat":38.006531,"lng":140.206152,"prefecture":6,"lines":[99233],"postal_code":"992-0351","address":"山形県東置賜郡高畠町大字高畠２６２０−１","open_date":"1950-12-01","closed_date":"1968-10-01","next":[9923303,9923306,9923304,1121613,1121610],"voronoi":{"lat":37.941871,"lng":140.205991,"delta_lat":[0,89527,18459,222,-122893],"delta_lng":[0,-8424,4481,7448,8593]},"impl":false},
    {"code":9923306,"id":"19ee0c","name":"八幡宮前","closed":true,"lat":38.00742,"lng":140.218866,"prefecture":6,"lines":[99233],"postal_code":"992-0302","address":"山形県東置賜郡高畠町大字安久津２０４３","open_date":"1924-08-31","closed_date":"1968-10-01","next":[9923307,9923305,1121613,1121610,1121607],"voronoi":{"lat":37.921941,"lng":140.22175,"delta_lat":[0,5244,122893,1310,-131244],"delta_lng":[0,-3661,-8593,7350,19346]},"impl":false},
    {"code":9923307,"id":"1e86f4","name":"蛭沢","closed":true,"lat":38.008707,"lng":140.227597,"prefecture":6,"lines":[99233],"postal_code":"992-0302","address":"山形県東置賜郡高畠町大字安久津４７２","open_date":"1924-08-31","closed_date":"1968-10-01","next":[9923306,9923309,1121607,9923308,1121613],"voronoi":{"lat":38.051389,"lng":140.216845,"delta_lat":[0,-131244,-5411,16435,120332],"delta_lng":[0,19346,30895,-4323,-45525]},"impl":false},
    {"code":9923308,"id":"5f101b","name":"上駄子町","name_kana":"かみだごまち","closed":true,"lat":38.012567,"lng":140.2378,"prefecture":6,"lines":[99233],"postal_code":"992-0301","address":"山形県東置賜郡高畠町大字二井宿９６０−１２","open_date":"1924-08-31","closed_date":"1968-10-01","next":[1121613,9923307,9923309],"voronoi":{"lat":38.051501,"lng":140.217239,"delta_lat":[0,8609,-128941],"delta_lng":[0,20306,25219]},"impl":false},
    {"code":9923309,"id":"7ecd3b","name":"二井宿","name_kana":"にいじゅく","closed":true,"lat":38.015974,"lng":140.25522,"prefecture":6,"lines":[99233],"postal_code":"992-0301","address":"山形県東置賜郡高畠町大字二井宿１９１４","open_date":"1924-08-31","closed_date":"1968-10-01","next":[1121613,1121615,1123131,9923307,1121604,1121614,1121605,9921512,9923308,1121616,1123128,1121607],"voronoi":{"lat":37.914734,"lng":140.267087,"delta_lat":[0,16435,128941,20895,1852,-18810,-16147,-8513,-47848,-52192,-22230,-2877],"delta_lng":[0,-4323,-25219,31293,5429,109318,58381,-284,-23026,-48590,-58203,-43252]},"impl":false}
  ],
  "closed_date":"1974-11-18",
  "impl":false
}