{
  "code":99301,
  "name":"都営大江戸線",
  "color":"#B6007A",
  "symbol":"E",
  "station_list":[
    {"code":9930101,"id":"a34e8c","name":"都庁前","name_kana":"とちょうまえ","lat":35.690551,"lng":139.69257,"prefecture":13,"numbering":[{"index":"28"}],"lines":[99301],"attr":"eco","postal_code":"160-0023","address":"新宿区西新宿２-８-１"},
    {"code":9930102,"id":"ec56a8","name":"新宿西口","name_kana":"しんじゅくにしぐち","lat":35.693315,"lng":139.699155,"prefecture":13,"numbering":[{"index":"01"}],"lines":[99301],"attr":"eco","postal_code":"160-0023","address":"新宿区西新宿１-３-１７"},
    {"code":2801012,"id":"ab88e5","name":"東新宿","name_kana":"ひがししんじゅく","lat":35.698915,"lng":139.707593,"prefecture":13,"numbering":[{"index":"02"}],"lines":[28010,99301],"attr":"heat","postal_code":"160-0022","address":"新宿区新宿７-２７-３"},
    {"code":9930104,"id":"16b972","name":"若松河田","name_kana":"わかまつかわだ","lat":35.699218,"lng":139.718184,"prefecture":13,"numbering":[{"index":"03"}],"lines":[99301],"attr":"eco","postal_code":"162-0054","address":"新宿区河田町１０-１０"},
    {"code":9930105,"id":"bab9b7","name":"牛込柳町","name_kana":"うしごめやなぎちょう","lat":35.699518,"lng":139.725027,"prefecture":13,"numbering":[{"index":"04"}],"lines":[99301],"attr":"eco","postal_code":"162-0053","address":"新宿区原町２-３２"},
    {"code":9930106,"id":"ef2413","name":"牛込神楽坂","name_kana":"うしごめかぐらざか","lat":35.700851,"lng":139.735802,"prefecture":13,"numbering":[{"index":"05"}],"lines":[99301],"attr":"eco","postal_code":"162-0833","address":"新宿区箪笥町１５"},
    {"code":1131316,"id":"e0bb13","name":"飯田橋","name_kana":"いいだばし","lat":35.701835,"lng":139.745143,"prefecture":13,"numbering":[{"index":"06"}],"lines":[11313,28004,28006,28009,99301],"attr":"eco","postal_code":"102-0072","address":"東京都千代田区飯田橋四丁目10-2"},
    {"code":9930108,"id":"3267e1","name":"春日(東京)","name_kana":"かすが","lat":35.709598,"lng":139.75325,"prefecture":13,"numbering":[{"index":"07"}],"lines":[99301,99303],"attr":"eco","postal_code":"112-0003","address":"文京区春日１-１６-１７"},
    {"code":2800205,"id":"a02435","name":"本郷三丁目","name_kana":"ほんごうさんちょうめ","lat":35.706671,"lng":139.759914,"prefecture":13,"numbering":[{"index":"08"}],"lines":[28002,99301],"attr":"eco","postal_code":"113-0033","address":"文京区本郷２-３９-１"},
    {"code":9930110,"id":"02239d","name":"上野御徒町","name_kana":"うえのおかちまち","lat":35.707893,"lng":139.774332,"prefecture":13,"numbering":[{"index":"09"}],"lines":[99301],"attr":"eco","postal_code":"110-0005","address":"台東区上野５-２６-６"},
    {"code":9930111,"id":"c26fbb","name":"新御徒町","name_kana":"しんおかちまち","lat":35.707045,"lng":139.781958,"prefecture":13,"numbering":[{"index":"10"}],"lines":[99301,99309],"attr":"eco","postal_code":"111-0041","address":"台東区元浅草１-５-２"},
    {"code":9930112,"id":"4e445c","name":"蔵前","name_kana":"くらまえ","lat":35.703236,"lng":139.790931,"prefecture":13,"numbering":[{"index":"11"}],"lines":[99301,99302],"attr":"eco","postal_code":"111-0051","address":"台東区蔵前２-３-１"},
    {"code":1131321,"id":"b83349","name":"両国","name_kana":"りょうごく","lat":35.69579,"lng":139.793334,"prefecture":13,"numbering":[{"index":"12"}],"lines":[11313,99301],"attr":"heat","postal_code":"130-0015","address":"墨田区横網１丁目"},
    {"code":9930114,"id":"6cdbab","name":"森下(東京)","name_kana":"もりした","lat":35.68796,"lng":139.797042,"prefecture":13,"numbering":[{"index":"13"}],"lines":[99301,99304],"attr":"eco","postal_code":"135-0004","address":"江東区森下２-１７-１７"},
    {"code":2800811,"id":"54a571","name":"清澄白河","name_kana":"きよすみしらかわ","lat":35.682105,"lng":139.798851,"prefecture":13,"numbering":[{"index":"14"}],"lines":[28008,99301],"attr":"cool","postal_code":"135-0021","address":"江東区白河１-７-１４"},
    {"code":2800412,"id":"8ff791","name":"門前仲町","name_kana":"もんぜんなかちょう","lat":35.671851,"lng":139.796209,"prefecture":13,"numbering":[{"index":"15"}],"lines":[28004,99301],"attr":"heat","postal_code":"135-0048","address":"江東区門前仲町１丁目"},
    {"code":2800621,"id":"059a1f","name":"月島","name_kana":"つきしま","lat":35.664871,"lng":139.784233,"prefecture":13,"numbering":[{"index":"16"}],"lines":[28006,99301],"attr":"cool","postal_code":"104-0052","address":"東京都中央区月島一丁目3-9"},
    {"code":9930118,"id":"21c19c","name":"勝どき","name_kana":"かちどき","lat":35.658507,"lng":139.776442,"prefecture":13,"numbering":[{"index":"17"}],"lines":[99301],"attr":"cool","postal_code":"104-0054","address":"中央区勝どき２-１０-１５"},
    {"code":9930119,"id":"926084","name":"築地市場","name_kana":"つきじしじょう","lat":35.664895,"lng":139.766915,"prefecture":13,"numbering":[{"index":"18"}],"lines":[99301],"attr":"cool","postal_code":"104-0045","address":"中央区築地５-１-２"},
    {"code":9930120,"id":"c1c797","name":"汐留","name_kana":"しおどめ","lat":35.663703,"lng":139.760642,"prefecture":13,"numbering":[{"index":"19"}],"lines":[99301,99311],"attr":"cool","postal_code":"105-0021","address":"港区東新橋１丁目５"},
    {"code":9930121,"id":"f05b47","name":"大門(東京)","name_kana":"だいもん","lat":35.656785,"lng":139.75466,"prefecture":13,"numbering":[{"index":"20"}],"lines":[99301,99302],"attr":"cool","postal_code":"105-0013","address":"港区浜松町１-２７-１２"},
    {"code":9930122,"id":"f6d995","name":"赤羽橋","name_kana":"あかばねばし","lat":35.655007,"lng":139.743642,"prefecture":13,"numbering":[{"index":"21"}],"lines":[99301],"attr":"cool","postal_code":"106-0044","address":"港区東麻布１-２８-１３"},
    {"code":2800916,"id":"6a2cb4","name":"麻布十番","name_kana":"あざぶじゅうばん","lat":35.654682,"lng":139.737051,"prefecture":13,"numbering":[{"index":"22"}],"lines":[28009,99301],"attr":"eco","postal_code":"106-0045","address":"港区麻布十番４-４-９"},
    {"code":2800318,"id":"1cf8c3","name":"六本木","name_kana":"ろっぽんぎ","lat":35.662836,"lng":139.731443,"prefecture":13,"numbering":[{"index":"23"}],"lines":[28003,99301],"attr":"cool","postal_code":"106-0032","address":"港区六本木６-１-２５"},
    {"code":2800116,"id":"de873b","name":"青山一丁目","name_kana":"あおやまいっちょうめ","lat":35.672765,"lng":139.724159,"prefecture":13,"numbering":[{"index":"24"}],"lines":[28001,28008,99301],"attr":"cool","postal_code":"107-0062","address":"港区南青山１-１-１９"},
    {"code":9930126,"id":"c69062","name":"国立競技場","name_kana":"こくりつきょうぎじょう","lat":35.679831,"lng":139.714932,"prefecture":13,"numbering":[{"index":"25"}],"lines":[99301],"attr":"heat","postal_code":"160-0013","address":"新宿区霞ケ丘町１０-３"},
    {"code":1130207,"id":"946224","name":"代々木","name_kana":"よよぎ","lat":35.683061,"lng":139.702042,"prefecture":13,"numbering":[{"index":"26"}],"lines":[11302,11313,99301],"attr":"cool","postal_code":"151-0053","address":"東京都渋谷区代々木一丁目34-1"},
    {"code":1130208,"id":"3ff383","name":"新宿","name_kana":"しんじゅく","lat":35.689729,"lng":139.700464,"prefecture":13,"numbering":[{"index":"27"}],"lines":[11302,11311,11312,11313,11321,11328,11333,24001,25001,28002,99301,99304],"attr":"heat","postal_code":"160-0022","address":"東京都新宿区新宿三丁目38-1"},
    {"code":9930129,"id":"efcf3b","name":"西新宿五丁目","name_kana":"にししんじゅくごちょうめ","lat":35.689798,"lng":139.684304,"prefecture":13,"numbering":[{"index":"29"}],"lines":[99301],"attr":"heat","postal_code":"160-0023","address":"新宿区西新宿５-２５-９"},
    {"code":2800220,"id":"cf60ae","name":"中野坂上","name_kana":"なかのさかうえ","lat":35.69792,"lng":139.68291,"prefecture":13,"numbering":[{"index":"30"}],"lines":[28002,99301],"attr":"heat","postal_code":"164-0011","address":"中野区中央２-１-２"},
    {"code":1131308,"id":"eb3a87","name":"東中野","name_kana":"ひがしなかの","lat":35.706529,"lng":139.684436,"prefecture":13,"numbering":[{"index":"31"}],"lines":[11313,99301],"attr":"cool","postal_code":"164-0003","address":"中野区東中野４丁目"},
    {"code":2200704,"id":"1cd084","name":"中井","name_kana":"なかい","lat":35.715106,"lng":139.686967,"prefecture":13,"numbering":[{"index":"32"}],"lines":[22007,99301],"attr":"cool","postal_code":"161-0032","address":"新宿区中落合１-１９-１"},
    {"code":9930133,"id":"a48104","name":"落合南長崎","name_kana":"おちあいみなみながさき","lat":35.723608,"lng":139.683303,"prefecture":13,"numbering":[{"index":"33"}],"lines":[99301],"attr":"heat","postal_code":"161-0031","address":"新宿区西落合３-１-１８"},
    {"code":9930134,"id":"b82694","name":"新江古田","name_kana":"しんえごた","lat":35.732538,"lng":139.670653,"prefecture":13,"numbering":[{"index":"34"}],"lines":[99301],"attr":"heat","postal_code":"165-0023","address":"中野区江原町２-２９-１３"},
    {"code":2200106,"id":"a254f6","name":"練馬","name_kana":"ねりま","lat":35.737893,"lng":139.654368,"prefecture":13,"numbering":[{"index":"35"}],"lines":[22001,22003,22004,99301],"attr":"heat","postal_code":"176-0001","address":"練馬区練馬１-３-５"},
    {"code":2200402,"id":"214d8c","name":"豊島園","name_kana":"としまえん","lat":35.742054,"lng":139.647979,"prefecture":13,"numbering":[{"index":"36"}],"lines":[22004,99301],"attr":"cool","postal_code":"176-0001","address":"練馬区練馬４-１６-５"},
    {"code":9930137,"id":"d426d9","name":"練馬春日町","name_kana":"ねりまかすがちょう","lat":35.751452,"lng":139.640236,"prefecture":13,"numbering":[{"index":"37"}],"lines":[99301],"attr":"heat","postal_code":"179-0074","address":"練馬区春日町３-２９-２５"},
    {"code":9930138,"id":"cc71eb","name":"光が丘","name_kana":"ひかりがおか","lat":35.758526,"lng":139.628603,"prefecture":13,"numbering":[{"index":"38"}],"lines":[99301],"attr":"heat","postal_code":"179-0072","address":"練馬区光が丘２-９-５"}
  ],
  "north":35.75849,
  "south":35.65384,
  "east":139.79908,
  "west":139.62851,
  "polyline_list":[
    {
      "start":"蔵前",
      "end":"厩橋東詰",
      "lat":35.70513,
      "lng":139.79322,
      "delta_lat":[0,-20,-41,-24,-18,-7,-11,4],
      "delta_lng":[0,12,31,29,38,46,57,72]
    },
    {
      "start":"蔵前",
      "end":"厩橋東詰",
      "lat":35.70513,
      "lng":139.79322,
      "delta_lat":[0,0,-4,-14,-15,-7,-36,-41],
      "delta_lng":[0,104,43,34,22,10,36,36]
    },
    {
      "start":"都庁前",
      "end":"光が丘",
      "lat":35.69085,
      "lng":139.69428,
      "delta_lat":[0,-11,-28,-35,-4,4,6,25,5,-3,-6,-18,-59,-20,-2,4,21,34,44,27,25,72,124,367,43,18,141,184,43,98,36,27,64,79,204,44,34,130,232,22,62,203,132,48,62,182,51,29,17,38,36,41,25,22,58,101,73,27,20,47,39,27,170,101,40,28,23,71,119,9,164,42,59,28,28,51,44,25,14,6,36,16,18,92,76,20,12,44,23,-6,-33,-11,-2,8,14,18,38,40,48,46,77,83,174,15,50,38,79,60,7,48,52,72,58,58,48,44,39,40,22,23,107,56,39,60,29,31,33,34,53,43,36,47,22,39,41,21,23,36,34,27,23,11,2,1,0,-1,-2],
      "delta_lng":[0,-83,-165,-229,-39,-63,-55,-100,-47,-47,-31,-34,-137,-61,-5,-62,-53,-24,-13,0,1,7,22,77,4,2,5,6,-7,-44,-7,-2,2,6,23,8,13,58,109,10,29,98,62,20,31,85,25,12,7,7,-5,-18,-22,-28,-86,-155,-100,-30,-18,-36,-21,-15,-81,-50,-30,-31,-34,-114,-215,-18,-358,-96,-155,-76,-77,-147,-121,-76,-62,-20,-159,-55,-39,-139,-122,-53,-35,-240,-107,-54,-188,-105,-70,-69,-45,-36,-48,-37,-26,-7,-4,2,4,0,-13,-21,-47,-23,-1,-12,-2,-6,-6,-17,-26,-42,-53,-83,-63,-53,-294,-170,-118,-165,-65,-72,-48,-39,-30,-18,-10,-9,-3,-13,-16,-15,-16,-35,-41,-41,-52,-41,-21,-40,-27,-59,-145]
    },
    {
      "start":"都庁前",
      "end":"蔵前",
      "lat":35.69085,
      "lng":139.69428,
      "delta_lat":[0,20,11,6,8,15,19,31,40,16,132,107,165,45,48,24,16,10,5,4,9,6,1,2,-6,-12,-6,-21,-8,-3,-2,5,3,-1,4,11,51,29,24,47,58,6,-8,-22,-7,-9,-5,-13,0,-1,-2,-15,-6,0,33,67,47,59,31,24,30,40,45,19,18,16,0,-6,-41,-12,-19,0,2,13,4,24,26,14,17,32,26,82,91,81,49,9,44,50,20,0,-2,-1,-9,-79,-14,-3,-2,2,5,0,6,1,4,0,0,-2,0,-1,-1,0,-4,-12,-4,0,2,5,12,14,12,36,12,3,-3,-4,-6,-6,-8,0,-2,-11,-2,-15,-4,-4,-2,-1,-6,-7,-5,-8,-7,-2,-5,-4,-7,-2,-2,-7,-4,-5,-9,-5,-8,-7,-7,-5,-15,-5,-2,-2,-5,-7,-10,-19,-8,-9,-16,-13,-4,-14,-9],
      "delta_lng":[0,172,106,65,46,47,35,24,9,-1,-31,-30,-55,-10,-4,9,14,31,67,213,150,99,29,49,63,107,54,166,66,68,109,161,65,65,55,49,117,63,73,151,174,34,42,92,53,100,50,160,137,65,42,102,49,48,142,212,135,146,65,38,36,38,44,17,42,115,42,24,96,45,113,25,16,51,19,68,75,31,21,25,12,24,33,46,41,9,52,91,105,43,119,65,33,154,36,24,9,83,107,22,132,17,79,46,37,53,65,49,51,8,42,92,49,22,25,30,40,40,21,68,25,22,77,71,80,75,78,8,13,119,21,144,39,43,15,16,53,59,47,72,44,17,59,42,54,20,18,63,43,38,86,58,77,55,70,48,134,50,23,20,51,58,72,53,23,30,42,34,10,34,22]
    },
    {
      "start":"都庁前",
      "end":"厩橋東詰",
      "lat":35.69085,
      "lng":139.69428,
      "delta_lat":[0,0,5,1,2,1,-3,-10,-14,-16,-24,-36,-105,-57,-2,-17,-93,-7,-53,-78,-38,-29,-56,-155,-36,-110,-36,-35,-26,-15,-8,3,15,27,20,5,9,4,1,-8,-16,-15,-20,-52,-11,-33,-1,-2,4,1,-5,-13,-17,-23,-26,-4,-27,-163,-150,-35,-25,-30,-27,-53,-92,-59,-19,-16,-20,-18,-22,-36,-95,-232,-42,-21,-31,-199,-18,-83,-21,-24,-29,-87,-31,-40,-39,-26,-89,-52,-30,-62,-39,-29,-33,-10,-9,-20,-29,-33,-4,-23,-27,-32,-31,-10,-16,-7,-14,-26,-11,-17,-27,-3,0,11,26,47,32,119,40,20,7,11,9,-12,-7,0,-4,-5,-4,-4,-6,-3,0,3,3,8,38,40,45,49,85,60,65,81,38,50,52,39,41,85,127,55,27,18,3,9,2,-15,-14,-44,-32,-49,-68,-51,-129,-89,-80,-72,-121,-62,-44,-41,-20,-9,-5,-5,5,40,3,11,58,7,7,52,14,7,30,11,17,12,27,17,17,51,3,6,26,11,24,6,14,47,8,8,62,2,4,10,60,14,15,36,44,21,7,4,62,12,13,2,99,56,105,15,16,37,3,8,11,29,62,65,23,31,29,13,30,33,18,18,24,28,29,37,46,54,58,45,50,24,22,27,40,80,38,18,7,12,20,69,137,15,29,71,23,22,41,45,22,15,46,70,57,22,41,11,67,44,27,23,22,14,69,45,43,42,44,16,47,17,38,46,7,54,57,39,8,97,89,59,38,73,95,66,48,54,8,59,80,78,29,16],
      "delta_lng":[0,73,46,45,48,66,58,43,36,21,12,6,18,13,1,4,34,0,33,70,39,20,17,43,10,34,20,35,43,45,55,39,54,58,46,25,57,143,98,50,68,64,80,194,48,143,15,47,55,59,48,64,56,46,31,3,25,86,82,23,23,63,29,24,44,28,13,23,65,63,42,15,27,47,13,12,32,269,21,102,29,24,17,36,4,-1,-11,-9,-19,-8,0,13,14,21,33,16,15,49,138,143,28,132,130,114,129,126,156,50,63,67,39,35,77,30,27,43,32,30,5,18,8,30,19,37,67,108,84,4,42,56,29,34,86,26,64,29,23,16,28,19,15,12,23,15,13,8,18,19,12,17,35,78,104,54,42,47,8,55,29,35,16,54,40,61,86,63,157,95,66,44,46,27,25,38,31,35,29,48,51,74,7,14,85,9,9,77,20,10,50,15,23,18,36,24,23,72,3,11,34,14,33,9,21,64,14,10,82,4,4,14,83,18,21,50,58,27,11,5,81,14,17,3,131,73,140,22,20,46,3,12,17,38,74,76,29,29,25,11,21,20,11,11,13,12,13,10,11,-3,23,34,39,18,18,23,33,64,32,12,2,1,-2,-8,-23,0,-3,-10,-2,-3,-3,-5,-2,-1,-4,-7,-5,-1,-3,-1,-7,-2,-3,-2,-2,-1,-6,-5,-3,-5,-4,-2,-4,-2,-3,-4,0,-5,-6,-2,0,-8,-8,-4,-3,-7,-8,-6,-4,-5,-1,-5,-6,-16,-33,-36]
    }
  ]
}