{
  "code":99302,
  "name":"都営浅草線",
  "color":"#E85298",
  "symbol":"A",
  "station_list":[
    {"code":9930201,"id":"0f4b79","name":"西馬込","name_kana":"にしまごめ","lat":35.586859,"lng":139.705942,"prefecture":13,"numbering":[{"index":"01"}],"lines":[99302],"attr":"eco","postal_code":"143-0026","address":"大田区西馬込２-１-６"},
    {"code":9930202,"id":"5fbf12","name":"馬込","name_kana":"まごめ","lat":35.596435,"lng":139.711772,"prefecture":13,"numbering":[{"index":"02"}],"lines":[99302],"attr":"eco","postal_code":"143-0021","address":"大田区北馬込２-３１-９"},
    {"code":2600404,"id":"616a50","name":"中延","name_kana":"なかのぶ","lat":35.60571,"lng":139.712526,"prefecture":13,"numbering":[{"index":"03"}],"lines":[26004,99302],"attr":"cool","postal_code":"142-0053","address":"品川区中延４-５-５"},
    {"code":9930204,"id":"a7e1ba","name":"戸越","name_kana":"とごし","lat":35.614633,"lng":139.716495,"prefecture":13,"numbering":[{"index":"04"}],"lines":[99302],"attr":"eco","postal_code":"142-0041","address":"品川区戸越３-４-１７"},
    {"code":1130202,"id":"11eb04","name":"五反田","name_kana":"ごたんだ","lat":35.625974,"lng":139.723822,"prefecture":13,"numbering":[{"index":"05"}],"lines":[11302,26005,99302],"attr":"eco","postal_code":"141-0022","address":"東京都品川区東五反田一丁目26"},
    {"code":9930206,"id":"df5dc1","name":"高輪台","name_kana":"たかなわだい","lat":35.631679,"lng":139.730305,"prefecture":13,"numbering":[{"index":"06"}],"lines":[99302],"attr":"eco","postal_code":"108-0071","address":"港区白金台２-２６-７"},
    {"code":2700101,"id":"283523","name":"泉岳寺","name_kana":"せんがくじ","lat":35.638692,"lng":139.74002,"prefecture":13,"numbering":[{"index":"07"}],"lines":[27001,99302],"attr":"eco","postal_code":"108-0074","address":"港区高輪２-１６-３４"},
    {"code":9930208,"id":"3361a8","name":"三田(東京)","name_kana":"みた","lat":35.64818,"lng":139.748775,"prefecture":13,"numbering":[{"index":"08"}],"lines":[99302,99303],"attr":"cool","postal_code":"108-0014","address":"港区芝５-３４-１０"},
    {"code":9930121,"id":"f05b47","name":"大門(東京)","name_kana":"だいもん","lat":35.656785,"lng":139.75466,"prefecture":13,"numbering":[{"index":"09"}],"lines":[99301,99302],"attr":"cool","postal_code":"105-0013","address":"港区浜松町１-２７-１２"},
    {"code":1130102,"id":"c3891c","name":"新橋","name_kana":"しんばし","lat":35.666195,"lng":139.758587,"prefecture":13,"numbering":[{"index":"10"}],"lines":[11301,11302,11308,11332,28001,99302,99311],"attr":"heat","postal_code":"105-0004","address":"東京都港区新橋二丁目17"},
    {"code":2800313,"id":"291247","name":"東銀座","name_kana":"ひがしぎんざ","lat":35.669464,"lng":139.767253,"prefecture":13,"numbering":[{"index":"11"}],"lines":[28003,99302],"attr":"heat","postal_code":"104-0061","address":"中央区銀座４-１２-１５"},
    {"code":9930212,"id":"f9f40b","name":"宝町(東京)","name_kana":"たからちょう","lat":35.675461,"lng":139.771767,"prefecture":13,"numbering":[{"index":"12"}],"lines":[99302],"attr":"cool","postal_code":"104-0031","address":"中央区京橋２-１３-１１"},
    {"code":2800109,"id":"4996b7","name":"日本橋(東京)","name_kana":"にほんばし","lat":35.682078,"lng":139.773516,"prefecture":13,"numbering":[{"index":"13"}],"lines":[28001,28004,99302],"attr":"heat","postal_code":"103-0027","address":"中央区日本橋１丁目"},
    {"code":2800309,"id":"ab81cc","name":"人形町","name_kana":"にんぎょうちょう","lat":35.686307,"lng":139.782285,"prefecture":13,"numbering":[{"index":"14"}],"lines":[28003,99302],"attr":"eco","postal_code":"103-0013","address":"中央区日本橋人形町２-６-５"},
    {"code":9930215,"id":"788b4f","name":"東日本橋","name_kana":"ひがしにほんばし","lat":35.692126,"lng":139.784821,"prefecture":13,"numbering":[{"index":"15"}],"lines":[99302],"attr":"heat","postal_code":"103-0004","address":"中央区東日本橋３-１１-８"},
    {"code":1131320,"id":"5fd731","name":"浅草橋","name_kana":"あさくさばし","lat":35.697403,"lng":139.784427,"prefecture":13,"numbering":[{"index":"16"}],"lines":[11313,99302],"attr":"heat","postal_code":"111-0053","address":"台東区浅草橋１丁目"},
    {"code":9930112,"id":"4e445c","name":"蔵前","name_kana":"くらまえ","lat":35.703236,"lng":139.790931,"prefecture":13,"numbering":[{"index":"17"}],"lines":[99301,99302],"attr":"eco","postal_code":"111-0051","address":"台東区蔵前２-３-１"},
    {"code":2100201,"id":"6e2d5c","name":"浅草(その他)","name_kana":"あさくさ","lat":35.711883,"lng":139.798214,"prefecture":13,"numbering":[{"index":"18"}],"lines":[21002,28001,99302],"attr":"heat","postal_code":"111-0033","address":"東京都台東区花川戸一丁目4-1"},
    {"code":9930219,"id":"864287","name":"本所吾妻橋","name_kana":"ほんじょあづまばし","lat":35.70858,"lng":139.804624,"prefecture":13,"numbering":[{"index":"19"}],"lines":[99302],"attr":"heat","postal_code":"130-0001","address":"墨田区吾妻橋３-７-１６"},
    {"code":2300201,"id":"ed5340","name":"押上（スカイツリー前）","name_kana":"おしあげ","lat":35.710702,"lng":139.812935,"prefecture":13,"numbering":[{"index":"20"}],"lines":[23002,99302,21002,28008],"attr":"heat","postal_code":"131-0045","address":"墨田区押上一丁目"}
  ],
  "north":35.71072,
  "south":35.58658,
  "east":139.81324,
  "west":139.70583,
  "polyline_list":[
    {
      "start":"西馬込",
      "end":"押上",
      "lat":35.58658,
      "lng":139.70583,
      "delta_lat":[0,10,125,463,110,10,19,180,46,93,339,23,204,161,152,306,79,103,293,137,205,92,77,204,247,162,44,35,93,81,85,96,90,100,8,22,62,27,18,4,3,2,-4,-2,3,10,11,17,21,35,14,110,101,161,135,75,127,218,70,49,37,62,113,31,5,12,6,4,41,16,8,5,11,6,23,16,5,4,6,12,8,16,7,20,4,15,21,87,10,11,62,8,10,59,58,27,9,80,5,9,103,67,24,29,68,19,16,44,14,9,14,7,88,6,20,110,13,13,56,76,82,53,13,11,79,5,24,45,38,29,40,88,-5,-7,-5,-8,0,-2,0,8,18,3,38,132,45,13,30,28,20,12,38,56,20,31,54,59,71,58,64,28,20,27,18,43,8,31,18,58,59,56,31,78,43,24,11,57,13,43,47,14,40,100,34,16,66,35,31,40,17,16,8,35,4,51,3,5,36,74,4,32,76,76,58,13,13,23,29,26,76,33,19,46,11,98,20,50,48,10,15,22,26,26,45,11,148,10,37,14,28,54,46,77,58,52,25,33,76,12,4,27,16,58,51,49,81,56,40,49,61,101,10,10,8,-1,-5,-14,-60,-50,3,4,5,6,1,6,3,8,3,2,22,61,101],
      "delta_lng":[0,2,94,347,82,8,10,45,10,17,68,4,40,34,30,61,29,38,108,54,96,47,41,105,127,77,27,42,131,122,98,116,154,128,12,29,81,69,59,44,54,55,76,41,48,59,33,24,32,40,11,98,39,59,70,40,66,114,38,43,36,86,185,53,8,27,10,9,91,36,18,13,21,12,45,56,15,13,17,47,23,57,27,72,9,13,12,31,3,5,22,4,3,13,6,2,1,13,0,2,15,11,4,4,7,2,2,7,2,2,2,1,12,1,4,16,2,5,47,63,68,42,11,9,63,4,21,36,32,27,31,71,12,25,18,68,18,17,28,52,47,8,73,161,55,14,34,31,22,12,36,49,20,27,45,60,67,43,41,15,13,20,8,27,5,22,9,39,38,34,19,48,26,12,8,36,9,27,27,9,24,62,21,9,75,51,66,122,44,27,16,71,7,85,5,8,55,111,8,25,28,11,-36,-5,-10,3,1,3,12,5,3,6,3,14,2,8,8,4,6,7,9,11,24,6,95,7,24,10,18,39,31,54,41,36,27,50,90,15,6,29,21,70,61,47,74,45,29,34,43,131,19,41,68,17,41,66,139,105,99,48,62,114,15,121,48,120,89,52,62,107,166]
    }
  ]
}