{
  "code":99305,
  "name":"都営都電荒川線",
  "station_list":[
    {"code":9930501,"id":"93acd4","name":"三ノ輪橋","name_kana":"みのわばし","lat":35.732248,"lng":139.791412,"prefecture":13,"lines":[99305],"attr":"eco","postal_code":"116-0003","address":"荒川区南千住１"},
    {"code":9930502,"id":"fdc789","name":"荒川一中前","name_kana":"あらかわいっちゅうまえ","lat":35.733659,"lng":139.788988,"prefecture":13,"lines":[99305],"attr":"eco","postal_code":"116-0003","address":"荒川区南千住１-１"},
    {"code":9930503,"id":"e261df","name":"荒川区役所前","name_kana":"あらかわくやくしょまえ","lat":35.73493,"lng":139.786456,"prefecture":13,"lines":[99305],"attr":"eco","postal_code":"116-0002","address":"荒川区荒川１"},
    {"code":9930504,"id":"2916d8","name":"荒川二丁目","name_kana":"あらかわにちょうめ","lat":35.738623,"lng":139.784696,"prefecture":13,"lines":[99305],"attr":"eco","postal_code":"116-0002","address":"荒川区荒川２"},
    {"code":9930505,"id":"9c6712","name":"荒川七丁目","name_kana":"あらかわななちょうめ","lat":35.741975,"lng":139.78417,"prefecture":13,"lines":[99305],"attr":"eco","postal_code":"116-0002","address":"荒川区荒川７"},
    {"code":9930506,"id":"a599bb","name":"町屋駅前","name_kana":"まちやえきまえ","lat":35.74275,"lng":139.781145,"prefecture":13,"lines":[99305],"attr":"eco","postal_code":"116-0002","address":"荒川区荒川７"},
    {"code":9930507,"id":"ce9716","name":"町屋二丁目","name_kana":"まちやにちょうめ","lat":35.743837,"lng":139.776625,"prefecture":13,"lines":[99305],"attr":"eco","postal_code":"116-0002","address":"荒川区荒川６"},
    {"code":9930508,"id":"8ce596","name":"東尾久三丁目","name_kana":"ひがしおくさんちょうめ","lat":35.745398,"lng":139.774386,"prefecture":13,"lines":[99305],"attr":"eco","postal_code":"116-0012","address":"荒川区東尾久３"},
    {"code":9930509,"id":"860ecb","name":"熊野前","name_kana":"くまのまえ","lat":35.749212,"lng":139.769204,"prefecture":13,"lines":[99305,99342],"attr":"cool","postal_code":"116-0012","address":"荒川区東尾久５"},
    {"code":9930510,"id":"ee4c70","name":"宮ノ前","name_kana":"みやのまえ","lat":35.750135,"lng":139.764955,"prefecture":13,"lines":[99305],"attr":"cool","postal_code":"116-0012","address":"荒川区東尾久５"},
    {"code":9930511,"id":"d2ef04","name":"小台","name_kana":"おだい","lat":35.750579,"lng":139.761779,"prefecture":13,"lines":[99305],"attr":"cool","postal_code":"116-0011","address":"荒川区西尾久５"},
    {"code":9930512,"id":"91a9d9","name":"荒川遊園地前","name_kana":"あらかわゆうえんちまえ","lat":35.750744,"lng":139.757767,"prefecture":13,"lines":[99305],"attr":"cool","postal_code":"116-0011","address":"荒川区西尾久５"},
    {"code":9930513,"id":"3769c9","name":"荒川車庫前","name_kana":"あらかわしゃこまえ","lat":35.750909,"lng":139.752617,"prefecture":13,"lines":[99305],"attr":"cool","postal_code":"116-0011","address":"荒川区西尾久７"},
    {"code":9930514,"id":"767822","name":"梶原","name_kana":"かじわら","lat":35.751162,"lng":139.747403,"prefecture":13,"lines":[99305],"attr":"cool","postal_code":"114-0004","address":"北区堀船３"},
    {"code":9930515,"id":"d831ed","name":"栄町(東京)","name_kana":"さかえちょう","lat":35.750909,"lng":139.742124,"prefecture":13,"lines":[99305],"attr":"cool","postal_code":"114-0005","address":"北区栄町"},
    {"code":9930516,"id":"30265b","name":"王子駅前","name_kana":"おうじえきまえ","lat":35.752998,"lng":139.737874,"prefecture":13,"lines":[99305],"attr":"cool","postal_code":"114-0002","address":"北区王子１"},
    {"code":9930517,"id":"39d757","name":"飛鳥山","name_kana":"あすかやま","lat":35.750248,"lng":139.737382,"prefecture":13,"lines":[99305],"attr":"cool","postal_code":"114-0023","address":"北区滝野川１"},
    {"code":9930518,"id":"707210","name":"滝野川一丁目","name_kana":"たきのがわいっちょうめ","lat":35.747374,"lng":139.735376,"prefecture":13,"lines":[99305],"attr":"cool","postal_code":"114-0023","address":"北区滝野川１"},
    {"code":9930519,"id":"2ec451","name":"西ヶ原四丁目","name_kana":"にしがはらよんちょうめ","lat":35.744501,"lng":139.732779,"prefecture":13,"lines":[99305],"attr":"cool","postal_code":"114-0024","address":"東京都北区西ヶ原四丁目"},
    {"code":9930520,"id":"063881","name":"新庚申塚","name_kana":"しんこうしんづか","lat":35.741348,"lng":139.730451,"prefecture":13,"lines":[99305],"attr":"heat","postal_code":"170-0001","address":"豊島区西巣鴨４"},
    {"code":9930521,"id":"8d58ff","name":"庚申塚","name_kana":"こうしんづか","lat":35.739563,"lng":139.729743,"prefecture":13,"lines":[99305],"attr":"heat","postal_code":"170-0001","address":"豊島区西巣鴨３"},
    {"code":9930522,"id":"471e26","name":"巣鴨新田","name_kana":"すがもしんでん","lat":35.735488,"lng":139.727769,"prefecture":13,"lines":[99305],"attr":"heat","postal_code":"170-0001","address":"豊島区西巣鴨１"},
    {"code":9930523,"id":"e82aee","name":"大塚駅前","name_kana":"おおつかえきまえ","lat":35.732082,"lng":139.729593,"prefecture":13,"lines":[99305],"attr":"heat","postal_code":"170-0005","address":"豊島区南大塚３"},
    {"code":9930524,"id":"205055","name":"向原(東京)","name_kana":"むこうはら","lat":35.728938,"lng":139.724894,"prefecture":13,"lines":[99305],"attr":"heat","postal_code":"170-0005","address":"豊島区南大塚３"},
    {"code":9930525,"id":"4b64f2","name":"東池袋四丁目","name_kana":"ひがしいけぶくろよんちょうめ","lat":35.72528,"lng":139.720012,"prefecture":13,"lines":[99305],"attr":"heat","postal_code":"170-0013","address":"豊島区東池袋５"},
    {"code":9930526,"id":"40df31","name":"都電雑司ヶ谷","name_kana":"とでんぞうしがや","lat":35.724261,"lng":139.718006,"prefecture":13,"lines":[99305],"attr":"heat","postal_code":"171-0022","address":"東京都豊島区南池袋"},
    {"code":9930527,"id":"82099e","name":"鬼子母神前","name_kana":"きしぼじんまえ","lat":35.720403,"lng":139.714916,"prefecture":13,"lines":[99305],"attr":"heat","postal_code":"171-0032","address":"豊島区雑司が谷２"},
    {"code":9930528,"id":"8f8793","name":"学習院下","name_kana":"がくしゅういんした","lat":35.716248,"lng":139.71247,"prefecture":13,"lines":[99305],"attr":"heat","postal_code":"171-0033","address":"豊島区高田２"},
    {"code":9930529,"id":"8c9f7d","name":"面影橋","name_kana":"おもかげばし","lat":35.712981,"lng":139.714444,"prefecture":13,"lines":[99305],"attr":"heat","postal_code":"169-0051","address":"新宿区西早稲田３"},
    {"code":9930530,"id":"b526ca","name":"早稲田(東京都交通局)","name_kana":"わせだ","lat":35.711848,"lng":139.718928,"prefecture":13,"lines":[99305],"attr":"heat","postal_code":"169-0051","address":"東京都新宿区西早稲田一丁目"}
  ],
  "north":35.75295,
  "south":35.71181,
  "east":139.79174,
  "west":139.71186,
  "polyline_list":[
    {
      "start":"早稲田",
      "end":"三ノ輪橋",
      "lat":35.71181,
      "lng":139.71929,
      "delta_lat":[0,13,49,34,3,9,2,109,12,8,15,15,18,11,15,59,43,49,161,36,198,36,63,243,23,28,17,22,68,20,6,53,21,21,18,56,73,52,33,95,16,46,37,6,3,-3,-2,2,9,13,30,33,47,16,26,48,54,127,40,66,14,15,17,16,25,74,60,40,29,41,159,37,32,160,39,44,39,18,19,41,36,32,38,91,24,196,51,35,10,19,16,106,22,19,12,16,13,12,14,6,6,-6,-15,-18,-20,-43,-42,-66,-8,-3,7,5,4,11,3,4,-1,0,0,-1,-3,-5,0,-1,-2,-1,-2,-2,0,-2,-1,-2,-2,-2,-2,-2,-1,-2,-2,-4,-2,-1,-2,0,-2,-3,-4,-4,-2,-1,-4,-2,0,0,-9,-11,-21,-2,-7,-5,-12,-5,-23,-17,-4,0,-3,-9,-1,-5,-3,-11,-16,-24,-65,-25,-15,-43,-4,-37,-26,-10,-53,-6,-21,-16,-80,-10,-2,-33,-32,-7,-6,-9,-13,-1,-13,-17,-14,-11,-1,-3,-5,-15,-27,-28,-10,-8,-13,-35,-256,-46,-113,-7,-22,-16,-22,-22,-7,-74,-35,-9,-44,-28,-14,-9,-7,-13,-9,-6,-5,-13,-49,-58,-21,-25],
      "delta_lng":[0,-47,-185,-187,-18,-49,-13,-211,-18,-8,-5,-2,3,1,5,26,20,24,79,22,136,27,48,179,23,31,28,45,166,48,15,119,32,27,18,50,57,47,35,105,20,96,75,22,16,31,25,8,7,15,23,11,9,-1,-6,-26,-30,-93,-26,-36,-3,0,6,11,22,68,54,31,16,16,61,22,23,123,30,32,29,14,21,55,43,27,27,63,17,136,35,21,8,1,-6,-82,-16,-9,1,6,10,15,26,16,26,60,25,23,25,46,53,81,11,34,97,58,44,188,96,98,20,5,56,26,81,119,9,12,49,24,61,30,12,59,15,50,45,6,77,41,27,12,65,101,41,21,33,15,72,86,80,120,53,13,42,53,9,7,64,46,92,5,32,26,52,18,103,69,35,5,30,54,6,15,7,20,27,32,64,24,14,36,6,32,28,13,86,10,29,27,121,16,4,47,45,11,16,43,55,7,60,76,57,55,11,11,22,73,121,110,24,12,15,21,5,0,3,1,2,3,15,18,4,70,32,8,41,31,20,16,21,69,27,10,8,25,91,106,37,47]
    }
  ]
}