{
  "code":99309,
  "name":"つくばエクスプレス",
  "color":"#FF3540",
  "station_list":[
    {"code":1130222,"id":"41a869","name":"秋葉原","name_kana":"あきはばら","lat":35.69862,"lng":139.77329,"prefecture":13,"numbering":[{"index":"01"}],"lines":[11302,11313,11332,28003,99309],"attr":"heat","postal_code":"101-0021","address":"東京都千代田区外神田一丁目17"},
    {"code":9930111,"id":"c26fbb","name":"新御徒町","name_kana":"しんおかちまち","lat":35.707045,"lng":139.781958,"prefecture":13,"numbering":[{"index":"02"}],"lines":[99301,99309],"attr":"eco","postal_code":"111-0041","address":"台東区元浅草１-５-２"},
    {"code":9930903,"id":"e22ab5","name":"浅草(つくばエクスプレス)","name_kana":"あさくさ","lat":35.713817,"lng":139.792389,"prefecture":13,"numbering":[{"index":"03"}],"lines":[99309],"attr":"heat","postal_code":"111-0035","address":"東京都台東区西浅草三丁目1-11"},
    {"code":1132004,"id":"a02091","name":"南千住","name_kana":"みなみせんじゅ","lat":35.734033,"lng":139.7994,"prefecture":13,"numbering":[{"index":"04"}],"lines":[11320,28003,99309],"attr":"heat","postal_code":"116-0003","address":"荒川区南千住４丁目"},
    {"code":1132005,"id":"6a369b","name":"北千住","name_kana":"きたせんじゅ","lat":35.749677,"lng":139.804872,"prefecture":13,"numbering":[{"index":"05"}],"lines":[11320,21002,28003,28005,99309],"attr":"cool","postal_code":"120-0026","address":"足立区千住旭町"},
    {"code":9930906,"id":"c96901","name":"青井","name_kana":"あおい","lat":35.771782,"lng":139.82038,"prefecture":13,"numbering":[{"index":"06"}],"lines":[99309],"attr":"heat","postal_code":"120-0012","address":"足立区青井三丁目"},
    {"code":9930907,"id":"f045d4","name":"六町","name_kana":"ろくちょう","lat":35.784963,"lng":139.821816,"prefecture":13,"numbering":[{"index":"07"}],"lines":[99309],"attr":"heat","postal_code":"121-0073","address":"足立区六町四丁目"},
    {"code":9930908,"id":"416e0b","name":"八潮","name_kana":"やしお","lat":35.807905,"lng":139.845017,"prefecture":11,"numbering":[{"index":"08"}],"lines":[99309],"attr":"heat","postal_code":"340-0822","address":"八潮市大瀬８２６"},
    {"code":9930909,"id":"43a8ce","name":"三郷中央","name_kana":"みさとちゅうおう","lat":35.824514,"lng":139.878344,"prefecture":11,"numbering":[{"index":"09"}],"lines":[99309],"attr":"heat","postal_code":"341-0032","address":"三郷市谷中"},
    {"code":1130518,"id":"c50197","name":"南流山","name_kana":"みなみながれやま","lat":35.838035,"lng":139.903865,"prefecture":12,"numbering":[{"index":"10"}],"lines":[11305,99309],"attr":"cool","postal_code":"270-0161","address":"流山市大字鰭ケ崎"},
    {"code":9930911,"id":"425cd2","name":"流山セントラルパーク","name_kana":"ながれやませんとらるぱーく","lat":35.854552,"lng":139.915223,"prefecture":12,"numbering":[{"index":"11"}],"lines":[99309],"attr":"eco","postal_code":"270-0152","address":"流山市前平井"},
    {"code":2100422,"id":"7fc77a","name":"流山おおたかの森","name_kana":"ながれやまおおたかのもり","lat":35.872051,"lng":139.925898,"prefecture":12,"numbering":[{"index":"12"}],"lines":[21004,99309],"attr":"heat","postal_code":"270-0121","address":"流山市西初石六丁目"},
    {"code":9930913,"id":"7bdd17","name":"柏の葉キャンパス","name_kana":"かしわのはきゃんぱす","lat":35.89308,"lng":139.952454,"prefecture":12,"numbering":[{"index":"13"}],"lines":[99309],"attr":"cool","postal_code":"277-0871","address":"柏市若柴"},
    {"code":9930914,"id":"715d73","name":"柏たなか","name_kana":"かしわたなか","lat":35.9109,"lng":139.957533,"prefecture":12,"numbering":[{"index":"14"}],"lines":[99309],"attr":"heat","postal_code":"277-0803","address":"柏市小青田"},
    {"code":9930915,"id":"f55a06","name":"守谷","name_kana":"もりや","lat":35.950626,"lng":139.992209,"prefecture":8,"numbering":[{"index":"15"}],"lines":[99309,99318],"attr":"heat","postal_code":"302-0115","address":"守谷市守谷甲２２１５-２"},
    {"code":9930916,"id":"a8a31d","name":"みらい平","name_kana":"みらいだいら","lat":35.99514,"lng":140.038555,"prefecture":8,"numbering":[{"index":"16"}],"lines":[99309],"attr":"heat","postal_code":"300-2416","address":"つくばみらい市東楢戸字細久保１７２２-１"},
    {"code":9930917,"id":"1ed1b1","name":"みどりの","name_kana":"みどりの","lat":36.03025,"lng":140.056276,"prefecture":8,"numbering":[{"index":"17"}],"lines":[99309],"attr":"eco","postal_code":"305-0875","address":"つくば市大字花島新田"},
    {"code":9930918,"id":"c1ec1c","name":"万博記念公園(茨城)","name_kana":"ばんぱくきねんこうえん","lat":36.058431,"lng":140.059327,"prefecture":8,"numbering":[{"index":"18"}],"lines":[99309],"attr":"eco","postal_code":"300-2655","address":"つくば市島名字白合４３８６"},
    {"code":9930919,"id":"b44f75","name":"研究学園","name_kana":"けんきゅうがくえん","lat":36.0821,"lng":140.082256,"prefecture":8,"numbering":[{"index":"19"}],"lines":[99309],"attr":"cool","postal_code":"305-0822","address":"つくば市苅間１"},
    {"code":9930920,"id":"8ee741","name":"つくば","name_kana":"つくば","lat":36.0825,"lng":140.110604,"prefecture":8,"numbering":[{"index":"20"}],"lines":[99309],"attr":"cool","postal_code":"305-0031","address":"つくば市吾妻２-４-１"}
  ],
  "north":36.08288,
  "south":35.6976,
  "east":140.11153,
  "west":139.77395,
  "polyline_list":[
    {
      "start":"秋葉原",
      "end":"つくば",
      "lat":35.6976,
      "lng":139.77395,
      "delta_lat":[0,117,176,0,53,161,413,20,15,12,11,9,4,-53,-21,0,-42,2,5,11,16,17,23,38,205,59,134,48,115,169,46,57,36,51,54,49,45,43,24,27,27,42,51,34,30,37,52,56,56,84,90,84,98,36,58,52,31,39,25,47,32,22,23,19,16,12,13,12,13,20,20,24,36,32,132,0,56,64,43,199,133,159,160,68,93,133,161,71,165,235,0,181,66,62,78,107,67,65,70,105,63,44,32,22,23,15,20,29,39,37,45,65,88,75,63,58,60,79,112,73,35,136,163,0,121,63,54,134,91,77,25,172,93,97,71,64,51,168,22,77,136,537,47,41,38,304,44,30,20,18,22,12,111,10,19,307,380,79,0,347,73,92,270,115,57,60,146,83,53,54,58,67,51,54,105,0,299,66,94,52,55,41,38,45,63,63,69,116,114,184,0,85,13,16,91,34,18,25,21,21,14,33,52,56,42,52,87,61,65,40,47,58,70,48,35,27,13,13,30,32,32,48,15,20,27,16,29,51,162,120,350,145,125,180,154,152,175,331,89,0,483,238,60,58,44,550,41,60,58,89,70,65,52,80,108,111,502,375,315,60,114,273,119,635,153,127,105,60,162,188,197,767,394,280,86,102,76,38,32,34,38,47,27,11,37,232,57,90,79,36,76,38,77,91,60,114,18,155,302,219,99,38,35,23,25,24,42,204,428,370,684,148,100,41,41,89,387,217,121,381,442,242,198,105,79,201,602,358,285,62,101,116,64,198,114,1525,125,194,258,630,118,159,99,250,182,131,645,269,127,108,99,91,110,49,11,-9,-7,-35,-22,-166,-40,-14,2,9,17,28,23,182,91],
      "delta_lng":[0,40,20,0,6,-13,86,13,18,18,20,27,34,454,232,0,508,51,37,30,29,20,26,26,72,17,38,12,14,31,4,1,1,3,0,2,-1,-2,-6,-11,-18,-26,-29,-21,-17,-18,-3,-3,-3,-4,-8,-6,-4,0,4,9,13,23,18,41,39,37,46,47,57,64,65,43,49,53,41,35,37,31,102,0,33,36,17,74,35,47,53,18,28,41,56,33,64,73,0,40,28,37,56,91,61,56,59,89,82,70,85,68,73,54,36,45,42,33,36,43,56,36,27,21,23,28,48,28,10,6,7,0,10,9,9,31,18,15,2,9,8,6,4,12,10,19,2,10,2,-2,7,12,21,266,41,36,34,30,45,46,470,26,33,596,553,111,0,480,102,162,458,206,128,197,629,410,147,101,83,80,50,42,66,0,188,64,113,93,124,159,451,229,169,134,107,131,116,264,0,135,25,27,155,48,21,20,12,10,8,16,20,16,12,20,46,46,62,49,59,75,89,54,33,26,13,12,22,21,20,24,7,9,13,7,9,16,37,23,54,20,38,66,83,118,178,361,96,0,525,275,77,92,81,1162,72,83,64,83,50,35,27,32,37,29,140,108,92,16,30,80,36,181,45,33,30,19,95,111,127,477,252,170,68,102,95,57,61,83,127,262,192,89,121,569,131,199,186,78,152,57,102,88,47,67,11,78,163,114,57,26,28,19,26,26,53,245,564,490,893,165,102,38,38,73,233,117,67,205,246,136,116,62,45,108,340,202,129,25,29,27,16,54,25,382,20,9,-23,-80,-9,-2,6,54,73,70,357,149,93,98,118,153,273,247,222,312,146,541,188,681,194,135,140,98,100,103,67,407,197]
    }
  ]
}