{
  "code":99304,
  "name":"都営新宿線",
  "color":"#6CBB5A",
  "symbol":"S",
  "station_list":[
    {"code":1130208,"id":"3ff383","name":"新宿","name_kana":"しんじゅく","lat":35.689729,"lng":139.700464,"prefecture":13,"numbering":[{"index":"01"}],"lines":[11302,11311,11312,11313,11321,11328,11333,24001,25001,28002,99301,99304],"attr":"heat","postal_code":"160-0022","address":"東京都新宿区新宿三丁目38-1"},
    {"code":2800217,"id":"a6c08b","name":"新宿三丁目","name_kana":"しんじゅくさんちょうめ","lat":35.690847,"lng":139.704895,"prefecture":13,"numbering":[{"index":"02"}],"lines":[28002,28010,99304],"attr":"cool","postal_code":"160-0022","address":"新宿区新宿３-１４-１"},
    {"code":9930403,"id":"b5df85","name":"曙橋","name_kana":"あけぼのばし","lat":35.692402,"lng":139.722881,"prefecture":13,"numbering":[{"index":"03"}],"lines":[99304],"attr":"heat","postal_code":"162-0065","address":"新宿区住吉町７-１"},
    {"code":1131315,"id":"51ad8c","name":"市ケ谷(市ヶ谷)","name_kana":"いちがや","lat":35.691107,"lng":139.735238,"prefecture":13,"numbering":[{"index":"04"}],"lines":[11313,28006,28009,99304],"attr":"heat","postal_code":"162-0843","address":"東京都新宿区市谷田町一丁目1"},
    {"code":2800407,"id":"0545be","name":"九段下","name_kana":"くだんした","lat":35.695589,"lng":139.751948,"prefecture":13,"numbering":[{"index":"05"}],"lines":[28004,28008,99304],"attr":"eco","postal_code":"102-0074","address":"千代田区九段南１-６-１"},
    {"code":2800807,"id":"27128f","name":"神保町","name_kana":"じんぼうちょう","lat":35.695966,"lng":139.757606,"prefecture":13,"numbering":[{"index":"06"}],"lines":[28008,99303,99304],"attr":"heat","postal_code":"101-0051","address":"千代田区神田神保町２-２"},
    {"code":9930407,"id":"3da39d","name":"小川町(東京)","name_kana":"おがわまち","lat":35.695487,"lng":139.767551,"prefecture":13,"numbering":[{"index":"07"}],"lines":[99304],"attr":"heat","postal_code":"101-0052","address":"千代田区神田小川町１-６"},
    {"code":9930408,"id":"15d3cb","name":"岩本町","name_kana":"いわもとちょう","lat":35.695534,"lng":139.775866,"prefecture":13,"numbering":[{"index":"08"}],"lines":[99304],"attr":"cool","postal_code":"101-0033","address":"千代田区神田岩本町１"},
    {"code":9930409,"id":"f3d0f8","name":"馬喰横山","name_kana":"ばくろよこやま","lat":35.69212,"lng":139.782768,"prefecture":13,"numbering":[{"index":"09"}],"lines":[99304],"attr":"cool","postal_code":"103-0003","address":"中央区日本橋横山町４-１３"},
    {"code":9930410,"id":"7e0242","name":"浜町","name_kana":"はまちょう","lat":35.688516,"lng":139.788154,"prefecture":13,"numbering":[{"index":"10"}],"lines":[99304],"attr":"cool","postal_code":"103-0007","address":"中央区日本橋浜町２-５９-３"},
    {"code":9930114,"id":"6cdbab","name":"森下(東京)","name_kana":"もりした","lat":35.68796,"lng":139.797042,"prefecture":13,"numbering":[{"index":"11"}],"lines":[99301,99304],"attr":"eco","postal_code":"135-0004","address":"江東区森下２-１７-１７"},
    {"code":9930412,"id":"25acb3","name":"菊川(東京)","name_kana":"きくかわ","lat":35.688379,"lng":139.806016,"prefecture":13,"numbering":[{"index":"12"}],"lines":[99304],"attr":"cool","postal_code":"130-0024","address":"墨田区菊川３-１６-２"},
    {"code":2800814,"id":"d1dfd5","name":"住吉(東京)","name_kana":"すみよし","lat":35.689073,"lng":139.815681,"prefecture":13,"numbering":[{"index":"13"}],"lines":[28008,99304],"attr":"cool","postal_code":"135-0002","address":"江東区住吉２-２３-１２"},
    {"code":9930414,"id":"f58adc","name":"西大島","name_kana":"にしおおじま","lat":35.689349,"lng":139.826206,"prefecture":13,"numbering":[{"index":"14"}],"lines":[99304],"attr":"eco","postal_code":"136-0072","address":"江東区大島２-４１-１９"},
    {"code":9930415,"id":"8e56ca","name":"大島(東京)","name_kana":"おおじま","lat":35.689905,"lng":139.83565,"prefecture":13,"numbering":[{"index":"15"}],"lines":[99304],"attr":"eco","postal_code":"136-0072","address":"江東区大島５-１０-８"},
    {"code":9930416,"id":"66328e","name":"東大島","name_kana":"ひがしおおじま","lat":35.690355,"lng":139.845963,"prefecture":13,"numbering":[{"index":"16"}],"lines":[99304],"attr":"eco","postal_code":"136-0072","address":"江東区大島９-３-１４"},
    {"code":9930417,"id":"2b3ad2","name":"船堀","name_kana":"ふなぼり","lat":35.683795,"lng":139.864258,"prefecture":13,"numbering":[{"index":"17"}],"lines":[99304],"attr":"eco","postal_code":"134-0091","address":"江戸川区船堀３-６-１"},
    {"code":9930418,"id":"1e80e3","name":"一之江","name_kana":"いちのえ","lat":35.686055,"lng":139.882934,"prefecture":13,"numbering":[{"index":"18"}],"lines":[99304],"attr":"eco","postal_code":"134-0003","address":"江戸川区春江町４-２"},
    {"code":9930419,"id":"2cc587","name":"瑞江","name_kana":"みずえ","lat":35.693318,"lng":139.89761,"prefecture":13,"numbering":[{"index":"19"}],"lines":[99304],"attr":"eco","postal_code":"132-0011","address":"江戸川区瑞江２-２-１"},
    {"code":9930420,"id":"acd147","name":"篠崎","name_kana":"しのざき","lat":35.706017,"lng":139.903698,"prefecture":13,"numbering":[{"index":"20"}],"lines":[99304],"attr":"eco","postal_code":"133-0061","address":"江戸川区篠崎町７-２７-１"},
    {"code":1131328,"id":"9860cd","name":"本八幡","name_kana":"もとやわた","lat":35.720898,"lng":139.92741,"prefecture":12,"numbering":[{"index":"21"}],"lines":[11313,99304],"attr":"cool","postal_code":"272-0021","address":"市川市八幡２丁目"}
  ],
  "north":35.72407,
  "south":35.68375,
  "east":139.92749,
  "west":139.69791,
  "polyline_list":[
    {
      "start":"新宿",
      "end":"九段下",
      "lat":35.68815,
      "lng":139.69791,
      "delta_lat":[0,56,22,3,14,40,12,19,52,20,1,59,26,20,1,-15,-23,-2,-1,17,1,-13,-4,4,25,2,62,16,7,-6,-9,-14,-14,-47,-17,-12,-5,-1,7,13,-5,-23,-6,-18,-4,0,11,15,5,14,51,50,48,87],
      "delta_lng":[0,141,53,12,63,206,60,49,129,52,2,191,78,87,55,131,177,76,57,106,62,71,53,42,91,14,213,61,36,198,128,102,44,105,61,72,105,102,90,100,40,75,18,49,22,20,52,47,18,42,179,177,157,259]
    },
    {
      "start":"九段下",
      "end":"本八幡",
      "lat":35.69356,
      "lng":139.74421,
      "delta_lat":[0,18,17,21,28,13,65,21,-6,21,15,5,17,10,5,-6,1,3,2,0,0,0,-7,-16,-27,-7,-63,-20,-11,-10,-3,-3,-1,0,4,9,11,20,11,11,40,17,2,26,-2,-2,-4,-2,-5,-7,-4,-1,-3,-1,-2,-3,0,-3,-2,0,-3,-3,-38,-57,-46,-41,-10,-56,-26,-10,-31,-33,-31,-30,-30,-26,-25,-13,-71,-64,-26,-39,-15,-17,-1,-9,1,2,0,2,1,0,0,1,0,0,3,0,3,3,0,5,6,7,0,2,7,8,9,3,2,3,1,5,5,1,3,4,5,0,6,3,2,9,3,2,2,9,9,0,2,-3,-1,-5,0,7,7,15,10,2,3,3,9,2,4,10,10,-2,-10,7,11,20,2,-5,-17,-30,-11,-49,-2,-70,-76,-208,-67,-87,-21,-11,-6,-1,-1,6,2,12,15,15,19,107,29,27,22,39,21,26,31,85,49,23,55,103,126,81,142,186,240,90,194,130,69,95,44,85,137,17,38,124,231,49,65,73,86,63,70,50,56,25,40,116,296,184,143],
      "delta_lng":[0,24,43,50,93,46,209,117,5,131,76,4,105,108,259,0,23,107,91,11,38,82,26,24,39,14,79,28,17,21,23,33,28,24,42,48,41,54,30,25,107,42,6,62,104,31,55,34,98,125,60,48,58,43,40,49,25,28,60,10,46,84,58,91,60,46,11,66,30,11,34,38,35,35,34,30,30,10,100,102,52,171,91,143,25,118,61,26,48,105,126,7,26,46,14,84,101,10,96,48,35,101,130,132,12,34,89,102,132,35,27,55,28,87,98,15,76,94,96,32,81,73,29,223,53,45,67,244,214,23,89,104,63,73,36,72,81,161,124,11,31,45,90,7,48,106,103,88,68,171,110,235,59,51,89,105,26,111,7,158,172,485,156,202,70,46,49,35,12,203,11,242,197,110,129,788,224,202,184,291,89,90,78,184,85,24,61,106,91,58,100,125,147,28,41,24,12,24,21,65,141,15,57,214,364,76,103,129,159,145,182,100,79,29,46,96,236,137,123]
    }
  ]
}