{
  "code":99314,
  "name":"伊豆箱根鉄道大雄山線",
  "color":"#000000",
  "symbol":"ID",
  "station_list":[
    {"code":100204,"id":"eaa3c7","name":"小田原","name_kana":"おだわら","lat":35.256225,"lng":139.155772,"prefecture":14,"numbering":[{"index":"01"}],"lines":[11301,25001,99314,99339,1002],"attr":"heat","postal_code":"250-0011","address":"小田原市栄町１丁目"},
    {"code":9931402,"id":"27fa3f","name":"緑町","name_kana":"みどりちょう","lat":35.259226,"lng":139.158578,"prefecture":14,"numbering":[{"index":"02"}],"lines":[99314],"attr":"eco","postal_code":"250-0011","address":"小田原市栄町３-５-２１"},
    {"code":9931403,"id":"70fa59","name":"井細田","name_kana":"いさいだ","lat":35.268964,"lng":139.157397,"prefecture":14,"numbering":[{"index":"03"}],"lines":[99314],"attr":"eco","postal_code":"250-0001","address":"小田原市扇町３-２１-１"},
    {"code":9931404,"id":"a280b7","name":"五百羅漢","name_kana":"ごひゃくらかん","lat":35.27519,"lng":139.155758,"prefecture":14,"numbering":[{"index":"04"}],"lines":[99314],"attr":"eco","postal_code":"250-0001","address":"小田原市扇町５-１１-１２"},
    {"code":9931405,"id":"558f96","name":"穴部","name_kana":"あなべ","lat":35.279887,"lng":139.148787,"prefecture":14,"numbering":[{"index":"05"}],"lines":[99314],"attr":"eco","postal_code":"250-0053","address":"小田原市穴部５６３"},
    {"code":9931406,"id":"70fd97","name":"飯田岡","name_kana":"いいだおか","lat":35.287913,"lng":139.139109,"prefecture":14,"numbering":[{"index":"06"}],"lines":[99314],"attr":"eco","postal_code":"250-0854","address":"小田原市飯田岡５４５"},
    {"code":9931407,"id":"7ae1ff","name":"相模沼田","name_kana":"さがみぬまた","lat":35.292334,"lng":139.133945,"prefecture":14,"numbering":[{"index":"07"}],"lines":[99314],"attr":"cool","postal_code":"250-0115","address":"南足柄市沼田５９-１"},
    {"code":9931408,"id":"b1dc83","name":"岩原","name_kana":"いわはら","lat":35.298825,"lng":139.12879,"prefecture":14,"numbering":[{"index":"08"}],"lines":[99314],"attr":"cool","postal_code":"250-0113","address":"南足柄市岩原２７０-１"},
    {"code":9931409,"id":"4e5638","name":"塚原","name_kana":"つかはら","lat":35.301305,"lng":139.126632,"prefecture":14,"numbering":[{"index":"09"}],"lines":[99314],"attr":"cool","postal_code":"250-0117","address":"南足柄市塚原２６８０-１"},
    {"code":9931410,"id":"68a867","name":"和田河原","name_kana":"わだがはら","lat":35.31585,"lng":139.118684,"prefecture":14,"numbering":[{"index":"10"}],"lines":[99314],"attr":"cool","postal_code":"250-0112","address":"南足柄市和田河原５８４"},
    {"code":9931411,"id":"cde0d8","name":"富士フイルム前","name_kana":"ふじふいるむまえ","lat":35.317657,"lng":139.109483,"prefecture":14,"numbering":[{"index":"11"}],"lines":[99314],"attr":"cool","postal_code":"250-0126","address":"神奈川県南足柄市狩野"},
    {"code":9931412,"id":"9cdcca","name":"大雄山","name_kana":"だいゆうざん","lat":35.319046,"lng":139.10365,"prefecture":14,"numbering":[{"index":"12"}],"lines":[99314],"attr":"cool","postal_code":"250-0105","address":"南足柄市関本５９２-１"}
  ],
  "north":35.31913,
  "south":35.25613,
  "east":139.15906,
  "west":139.10328,
  "polyline_list":[
    {
      "start":"小田原",
      "end":"大雄山",
      "lat":35.25613,
      "lng":139.15631,
      "delta_lat":[0,55,104,17,12,16,18,16,14,12,14,9,54,45,13,30,40,110,156,15,14,83,57,37,20,40,162,41,48,64,23,20,81,29,24,23,36,54,20,25,31,35,32,22,16,32,59,50,20,16,20,20,13,14,15,31,272,47,110,96,322,230,47,117,90,128,50,1,69,13,12,94,143,141,97,88,52,202,46,57,11,14,13,29,67,239,93,86,79,65,47,55,84,354,22,5,24,25,16,13,22,11,7,6,27,7,12,20,40,54,9,10,62,53,9,9],
      "delta_lng":[0,40,70,10,7,13,17,18,12,13,11,3,34,27,1,-1,-10,-31,-43,-4,-4,-23,-14,-7,-3,-3,-12,-3,-6,-6,-3,-2,1,1,3,8,19,32,10,6,0,-12,-20,-18,-25,-50,-92,-77,-34,-43,-71,-64,-36,-26,-21,-34,-284,-53,-119,-107,-386,-277,-61,-144,-110,-156,-60,-2,-77,-16,-13,-69,-105,-104,-71,-71,-44,-168,-38,-50,-10,-8,-5,-1,-3,-1,0,-1,-8,-8,-14,-23,-49,-232,-15,-5,-38,-41,-37,-50,-137,-54,-40,-44,-155,-56,-87,-96,-167,-228,-38,-42,-266,-230,-45,-41]
    }
  ]
}