{
  "code":99315,
  "name":"ひたちなか海浜鉄道湊線",
  "station_list":[
    {"code":1122918,"id":"7c1f97","name":"勝田","name_kana":"かつた","lat":36.394033,"lng":140.524482,"prefecture":8,"lines":[11229,99315],"attr":"cool","postal_code":"312-0045","address":"ひたちなか市勝田中央"},
    {"code":9931508,"id":"f4131a","name":"工機前","name_kana":"こうきまえ","lat":36.388099,"lng":140.524542,"prefecture":8,"lines":[99315],"attr":"cool","postal_code":"312-0025","address":"ひたちなか市武田字大塚前１０９２-１５"},
    {"code":9931507,"id":"967047","name":"金上","name_kana":"かねあげ","lat":36.382319,"lng":140.534132,"prefecture":8,"lines":[99315],"attr":"eco","postal_code":"312-0023","address":"ひたちなか市大平４-３４３３"},
    {"code":9931506,"id":"6d5e7f","name":"中根","name_kana":"なかね","lat":36.367488,"lng":140.562138,"prefecture":8,"lines":[99315],"attr":"eco","postal_code":"312-0021","address":"ひたちなか市三反田中丸４４５８"},
    {"code":9931510,"id":"f12c45","name":"高田の鉄橋","name_kana":"たかだのてっきょう","lat":36.352556,"lng":140.580028,"prefecture":8,"lines":[99315],"attr":"eco","postal_code":"312-0000","address":"茨城県ひたちなか市横堰"},
    {"code":9931505,"id":"9e76a8","name":"那珂湊","name_kana":"なかみなと","lat":36.345453,"lng":140.587716,"prefecture":8,"lines":[99315],"attr":"eco","postal_code":"311-1225","address":"ひたちなか市釈迦町２２-２"},
    {"code":9931504,"id":"b05cae","name":"殿山","name_kana":"とのやま","lat":36.349497,"lng":140.601087,"prefecture":8,"lines":[99315],"attr":"eco","postal_code":"311-1213","address":"ひたちなか市牛久保２-１０３-２"},
    {"code":9931503,"id":"302829","name":"平磯","name_kana":"ひらいそ","lat":36.357546,"lng":140.607575,"prefecture":8,"lines":[99315],"attr":"heat","postal_code":"312-0000","address":"ひたちなか市平磯町字根本の上２６５-７"},
    {"code":9931502,"id":"937073","name":"磯崎","name_kana":"いそざき","lat":36.37781,"lng":140.617934,"prefecture":8,"lines":[99315],"attr":"heat","postal_code":"311-1202","address":"ひたちなか市磯崎町西ノ三３８４７-４"},
    {"code":9931501,"id":"fa4efc","name":"阿字ヶ浦","name_kana":"あじがうら","lat":36.383529,"lng":140.61244,"prefecture":8,"lines":[99315],"attr":"heat","postal_code":"311-1201","address":"茨城県ひたちなか市阿字ヶ浦町"}
  ],
  "north":36.39359,
  "south":36.34447,
  "east":140.61795,
  "west":140.52374,
  "polyline_list":[
    {
      "start":"勝田",
      "end":"阿字ヶ浦",
      "lat":36.39359,
      "lng":140.52444,
      "delta_lat":[0,-65,-187,-129,-37,-22,-34,-47,-51,-43,-110,-352,-79,-91,-52,-116,-33,-47,-47,-118,-71,-28,-14,-12,-55,-18,-36,-72,-93,-503,-34,-36,-12,-33,-84,-47,-20,-66,-295,-273,-358,-266,-49,-620,-102,-22,-12,-16,-5,0,7,17,19,282,104,51,32,55,134,18,22,30,44,40,63,59,61,53,36,38,27,85,54,14,100,29,55,65,101,42,50,49,27,73,74,381,433,453,21,59,15,21,27,32,23,27,34,16,16,20,23,29,41,43,35,40,43,22,63],
      "delta_lng":[0,-14,-39,-16,2,6,21,36,51,57,182,596,134,153,104,279,61,67,43,101,58,38,25,39,318,75,98,176,262,760,61,64,21,67,202,81,28,76,314,294,384,286,52,665,109,23,24,57,46,45,45,60,43,582,212,109,69,117,275,36,29,32,32,17,12,-2,-10,-5,1,8,11,53,34,9,84,32,71,125,195,66,72,46,15,33,20,73,87,89,0,2,0,-6,-19,-36,-34,-76,-152,-57,-41,-36,-29,-28,-30,-23,-9,-4,6,6,16]
    }
  ]
}