{
  "code":99313,
  "name":"ユーカリが丘線",
  "station_list":[
    {"code":2300133,"id":"5d976d","name":"ユーカリが丘","name_kana":"ゆーかりがおか","lat":35.721801,"lng":140.156354,"prefecture":12,"lines":[23001,99313],"attr":"eco","postal_code":"285-0858","address":"佐倉市ユーカリが丘４-８-２"},
    {"code":9931302,"id":"a82ba3","name":"地区センター","name_kana":"ちくせんたー","lat":35.726225,"lng":140.155041,"prefecture":12,"lines":[99313],"attr":"eco","postal_code":"285-0858","address":"佐倉市ユーカリが丘４-３-１"},
    {"code":9931303,"id":"0d0b78","name":"公園","name_kana":"こうえん","lat":35.730758,"lng":140.153755,"prefecture":12,"lines":[99313],"attr":"eco","postal_code":"285-0858","address":"佐倉市ユーカリが丘６-５-５"},
    {"code":9931304,"id":"3107c0","name":"女子大","name_kana":"じょしだい","lat":35.738357,"lng":140.155054,"prefecture":12,"lines":[99313],"attr":"cool","postal_code":"285-0858","address":"佐倉市ユーカリが丘５-１-１"},
    {"code":9931305,"id":"03e3d3","name":"中学校","name_kana":"ちゅうがっこう","lat":35.740123,"lng":140.14841,"prefecture":12,"lines":[99313],"attr":"cool","postal_code":"285-0857","address":"佐倉市宮ノ台３-１-１"},
    {"code":9931306,"id":"799ea8","name":"井野(千葉)","name_kana":"いの","lat":35.732605,"lng":140.148497,"prefecture":12,"lines":[99313],"attr":"heat","postal_code":"285-0858","address":"佐倉市ユーカリが丘７-２４-１"}
  ],
  "north":35.74122,
  "south":35.72197,
  "east":140.157,
  "west":140.14729,
  "polyline_list":[
    {
      "start":"ユーカリが丘",
      "end":"公園",
      "lat":35.72197,
      "lng":140.15698,
      "delta_lat":[0,47,8,4,2,4,5,14,38,54,46,33,34,65,29,5,65,10,66,38,50,122,7,54,38,4,38,32,5],
      "delta_lng":[0,2,-3,-6,-8,-7,-12,-17,-27,-35,-24,-14,-9,-12,-6,-1,-8,-1,-10,-9,-19,-55,-3,-21,-14,-1,-6,1,0]
    },
    {
      "start":"公園",
      "end":"公園",
      "lat":35.73114,
      "lng":140.15373,
      "delta_lat":[0,3,5,7,11,11,5,7,4,4,4,5,5,11,9,14,33,0,9,56,37,10,49,142,53,107,81,69,10,33,23,42,6,67,5,16,13,10,6,11,9,4,2,-1,-5,-13,-13,-21,-32,-29,-13,-15,-27,-43,-65,-5,-53,-2,-10,-10,-14,-11,-49,-23,-42,-74,-29,-12,-4,-40,-42,-1,-4,0,-18,-27,-9,-33,-27,-21,-60,-76,-29,-6],
      "delta_lng":[0,-5,-8,-21,-66,-51,-36,-61,-118,-34,-25,-15,-13,-17,-12,-9,-14,0,-3,-21,-15,-5,-20,-75,14,27,21,18,2,9,6,11,1,16,1,4,7,8,9,15,23,22,17,25,21,41,34,56,87,77,27,19,31,44,64,4,50,4,5,7,2,4,2,-4,-9,-25,-13,-4,-1,-16,-15,-1,0,-1,-7,-7,-4,-11,-10,-8,-19,-27,-8,-1]
    }
  ]
}