{
  "code":99317,
  "name":"横浜新都市交通金沢シーサイドライン",
  "color":"#F68B1E",
  "station_list":[
    {"code":1130708,"id":"4dc06c","name":"新杉田","name_kana":"しんすぎた","lat":35.386863,"lng":139.619483,"prefecture":14,"numbering":[{"index":"01"}],"lines":[11307,99317],"attr":"eco","postal_code":"235-0032","address":"横浜市磯子区新杉田町"},
    {"code":9931702,"id":"830980","name":"南部市場","name_kana":"なんぶしじょう","lat":35.380192,"lng":139.633163,"prefecture":14,"numbering":[{"index":"02"}],"lines":[99317],"attr":"heat","postal_code":"236-0051","address":"横浜市金沢区富岡東２-１"},
    {"code":9931703,"id":"ff167a","name":"鳥浜","name_kana":"とりはま","lat":35.377187,"lng":139.641704,"prefecture":14,"numbering":[{"index":"03"}],"lines":[99317],"attr":"heat","postal_code":"236-0005","address":"横浜市金沢区並木１-１"},
    {"code":9931704,"id":"cb6d62","name":"並木北","name_kana":"なみききた","lat":35.372015,"lng":139.642743,"prefecture":14,"numbering":[{"index":"04"}],"lines":[99317],"attr":"heat","postal_code":"236-0005","address":"横浜市金沢区並木１-１２"},
    {"code":9931705,"id":"7b5012","name":"並木中央","name_kana":"なみきちゅうおう","lat":35.365505,"lng":139.642945,"prefecture":14,"numbering":[{"index":"05"}],"lines":[99317],"attr":"heat","postal_code":"236-0003","address":"横浜市金沢区幸浦２-１-１"},
    {"code":9931706,"id":"32c4fa","name":"幸浦","name_kana":"さちうら","lat":35.358406,"lng":139.643706,"prefecture":14,"numbering":[{"index":"06"}],"lines":[99317],"attr":"heat","postal_code":"236-0003","address":"横浜市金沢区幸浦２-２４"},
    {"code":9931707,"id":"35bd2d","name":"産業振興センター","name_kana":"さんぎょうしんこうせんたー","lat":35.35339,"lng":139.646326,"prefecture":14,"numbering":[{"index":"07"}],"lines":[99317],"attr":"heat","postal_code":"236-0004","address":"横浜市金沢区福浦１-５-２"},
    {"code":9931708,"id":"c124a4","name":"福浦","name_kana":"ふくうら","lat":35.349627,"lng":139.648517,"prefecture":14,"numbering":[{"index":"08"}],"lines":[99317],"attr":"eco","postal_code":"236-0004","address":"横浜市金沢区福浦２-７-２"},
    {"code":9931709,"id":"64471c","name":"市大医学部","name_kana":"しだいいがくぶ","lat":35.343966,"lng":139.650156,"prefecture":14,"numbering":[{"index":"09"}],"lines":[99317],"attr":"eco","postal_code":"236-0004","address":"横浜市金沢区福浦３"},
    {"code":9931710,"id":"5fae2b","name":"八景島","name_kana":"はっけいじま","lat":35.340914,"lng":139.64079,"prefecture":14,"numbering":[{"index":"10"}],"lines":[99317],"attr":"eco","postal_code":"236-0013","address":"横浜市金沢区海の公園１０"},
    {"code":9931711,"id":"78d53b","name":"海の公園柴口","name_kana":"うみのこうえんしばぐち","lat":35.342086,"lng":139.635846,"prefecture":14,"numbering":[{"index":"11"}],"lines":[99317],"attr":"eco","postal_code":"236-0013","address":"横浜市金沢区海の公園１０"},
    {"code":9931712,"id":"29e920","name":"海の公園南口","name_kana":"うみのこうえんみなみぐち","lat":35.337225,"lng":139.632096,"prefecture":14,"numbering":[{"index":"12"}],"lines":[99317],"attr":"cool","postal_code":"236-0013","address":"横浜市金沢区海の公園１０"},
    {"code":9931713,"id":"306ff7","name":"野島公園","name_kana":"のじまこうえん","lat":35.330559,"lng":139.631524,"prefecture":14,"numbering":[{"index":"13"}],"lines":[99317],"attr":"cool","postal_code":"236-0023","address":"横浜市金沢区平潟町１２７"},
    {"code":2700139,"id":"634c7c","name":"金沢八景","name_kana":"かなざわはっけい","lat":35.331223,"lng":139.62018,"prefecture":14,"numbering":[{"index":"14"}],"lines":[27001,27004,99317],"attr":"heat","postal_code":"236-0027","address":"横浜市金沢区瀬戸１５-１"}
  ],
  "north":35.38597,
  "south":35.32841,
  "east":139.65014,
  "west":139.62041,
  "polyline_list":[
    {
      "start":"金沢八景",
      "end":"新杉田",
      "lat":35.3315,
      "lng":139.62217,
      "delta_lat":[0,-49,-7,-55,-27,-56,-56,-26,-16,-11,-5,-1,1,5,9,11,6,5,6,16,22,19,22,26,16,33,3,36,3,52,24,26,26,24,30,46,40,96,68,96,53,25,67,25,22,17,24,47,115,30,24,16,17,50,48,48,40,14,9,9,7,2,0,0,0,-5,-4,-4,-7,-5,-11,-8,-10,-16,-47,-82,-58,-32,-11,-9,-2,-1,0,0,9,32,14,13,17,28,43,67,127,70,49,16,13,13,11,14,14,17,11,14,20,20,25,264,69,258,29,18,14,15,9,4,0,1,0,6,9,16,20,26,40,345,68,107,45,44,50,49,51,114,28,5,144,70,137,317,130,75,163,137,60,51,41,54,39,28,24,18,18,42,96,17,77,41,27,8,47,66,89,71,36,48,8,52],
      "delta_lng":[0,59,7,60,34,85,85,38,31,28,22,29,14,27,30,30,16,9,14,32,36,34,42,49,26,61,7,66,5,97,31,15,6,0,-9,-14,-14,-33,-26,-25,-11,1,6,7,5,8,13,33,87,23,19,13,18,58,59,62,50,23,18,24,25,18,16,16,17,23,17,14,15,12,14,10,11,15,35,65,46,28,18,22,23,45,340,82,65,162,53,28,20,16,6,0,0,-3,3,-5,-7,-10,-11,-26,-24,-30,-15,-12,-15,-3,-2,1,-4,-1,-5,-13,-15,-23,-25,-42,-52,-85,-95,-30,-24,-22,-18,-12,-5,-15,0,-8,-7,-12,-16,-15,-7,-3,-1,0,-2,1,-18,-1,-3,-9,-11,-7,-14,-16,-17,-46,-43,-39,-40,-36,-53,-147,-439,-79,-291,-137,-77,-24,-118,-132,-154,-110,-59,-61,-10,-67]
    }
  ]
}