{
  "code":99311,
  "name":"ゆりかもめ",
  "color":"#27404E",
  "symbol":"U",
  "station_list":[
    {"code":1130102,"id":"c3891c","name":"新橋","name_kana":"しんばし","lat":35.666195,"lng":139.758587,"prefecture":13,"numbering":[{"index":"01"}],"lines":[11301,11302,11308,11332,28001,99302,99311],"attr":"heat","postal_code":"105-0004","address":"東京都港区新橋二丁目17"},
    {"code":9930120,"id":"c1c797","name":"汐留","name_kana":"しおどめ","lat":35.663703,"lng":139.760642,"prefecture":13,"numbering":[{"index":"02"}],"lines":[99301,99311],"attr":"cool","postal_code":"105-0021","address":"港区東新橋１丁目５"},
    {"code":9931103,"id":"ca089d","name":"竹芝","name_kana":"たけしば","lat":35.654099,"lng":139.762037,"prefecture":13,"numbering":[{"index":"03"}],"lines":[99311],"attr":"eco","postal_code":"105-0022","address":"港区海岸１-１３-１０"},
    {"code":9931104,"id":"272a54","name":"日の出","name_kana":"ひので","lat":35.649136,"lng":139.75906,"prefecture":13,"numbering":[{"index":"04"}],"lines":[99311],"attr":"eco","postal_code":"105-0022","address":"港区海岸２-７-６８"},
    {"code":9931105,"id":"673bab","name":"芝浦ふ頭","name_kana":"しばうらふとう","lat":35.641773,"lng":139.757852,"prefecture":13,"numbering":[{"index":"05"}],"lines":[99311],"attr":"eco","postal_code":"108-0022","address":"港区海岸３-２２-１２"},
    {"code":9931106,"id":"b54cfa","name":"お台場海浜公園","name_kana":"おだいばかいひんこうえん","lat":35.629813,"lng":139.778607,"prefecture":13,"numbering":[{"index":"06"}],"lines":[99311],"attr":"eco","postal_code":"135-0091","address":"港区台場２-３"},
    {"code":9931107,"id":"496bd9","name":"台場","name_kana":"だいば","lat":35.625908,"lng":139.771435,"prefecture":13,"numbering":[{"index":"07"}],"lines":[99311],"attr":"eco","postal_code":"135-0091","address":"港区台場２-６"},
    {"code":9931108,"id":"78b1fe","name":"東京国際クルーズターミナル","name_kana":"とうきょうこくさいくるーずたーみなる","lat":35.621462,"lng":139.773157,"prefecture":13,"numbering":[{"index":"08"}],"lines":[99311],"attr":"eco","postal_code":"135-0064","address":"江東区青海1丁目1-49"},
    {"code":9931109,"id":"7dd97b","name":"テレコムセンター","name_kana":"てれこむせんたー","lat":35.617593,"lng":139.779327,"prefecture":13,"numbering":[{"index":"09"}],"lines":[99311],"attr":"cool","postal_code":"135-0064","address":"江東区青海２-２９"},
    {"code":9931110,"id":"aac49b","name":"青海(東京)","name_kana":"あおみ","lat":35.62467,"lng":139.781132,"prefecture":13,"numbering":[{"index":"10"}],"lines":[99311],"attr":"cool","postal_code":"135-0064","address":"江東区青海１"},
    {"code":9931111,"id":"783a1c","name":"東京ビッグサイト","name_kana":"とうきょうびっぐさいと","lat":35.630158,"lng":139.791228,"prefecture":13,"numbering":[{"index":"11"}],"lines":[99311],"attr":"cool","postal_code":"135-0063","address":"江東区有明三丁目6-15"},
    {"code":9931112,"id":"9bf888","name":"有明(東京)","name_kana":"ありあけ","lat":35.634596,"lng":139.793269,"prefecture":13,"numbering":[{"index":"12"}],"lines":[99311],"attr":"cool","postal_code":"135-0063","address":"江東区有明２-５"},
    {"code":9931113,"id":"43d2a0","name":"有明テニスの森","name_kana":"ありあけてにすのもり","lat":35.639964,"lng":139.78888,"prefecture":13,"numbering":[{"index":"13"}],"lines":[99311],"attr":"heat","postal_code":"135-0063","address":"江東区有明１丁目"},
    {"code":9931114,"id":"68815d","name":"市場前","name_kana":"しじょうまえ","lat":35.645684,"lng":139.78564,"prefecture":13,"numbering":[{"index":"14"}],"lines":[99311],"attr":"heat","postal_code":"135-0061","address":"江東区豊洲６丁目"},
    {"code":9931115,"id":"f8cecf","name":"新豊洲","name_kana":"しんとよす","lat":35.648718,"lng":139.789996,"prefecture":13,"numbering":[{"index":"15"}],"lines":[99311],"attr":"heat","postal_code":"135-0061","address":"江東区豊洲６丁目"},
    {"code":2800622,"id":"21bab1","name":"豊洲","name_kana":"とよす","lat":35.654908,"lng":139.79621,"prefecture":13,"numbering":[{"index":"16"}],"lines":[28006,99311],"attr":"cool","postal_code":"135-0061","address":"東京都江東区豊洲四丁目1-1"}
  ],
  "north":35.66612,
  "south":35.61693,
  "east":139.79583,
  "west":139.75493,
  "polyline_list":[
    {
      "start":"新橋",
      "end":"豊洲",
      "lat":35.66612,
      "lng":139.75896,
      "delta_lat":[0,-29,-103,-5,-21,-9,-7,-9,-6,-8,-24,-63,-59,-30,-13,-14,-18,-16,-18,-20,-59,-28,-20,-34,-67,-99,-33,-10,-8,-4,-5,-3,-6,-13,-5,-5,-12,-14,-16,-55,-23,-16,-12,-14,-14,-11,-14,-25,-16,-20,-8,-7,-6,-20,-3,-58,-142,-35,-62,-173,-4,-70,-3,-116,-81,-38,-86,-41,-40,-121,-116,-54,-27,-250,-23,-39,-23,-28,-73,-16,-13,-12,-18,-16,-12,-8,-10,-5,-4,-1,0,2,3,4,7,7,11,15,12,11,14,10,10,12,21,13,8,11,15,16,8,9,8,4,4,3,0,-3,-6,-8,-5,-14,-18,-7,-118,-23,-65,-67,-2,-16,-11,-6,-3,2,6,9,19,42,33,32,2,-2,-4,-5,-16,-20,-13,-14,-6,-18,-343,-33,-21,-29,-26,-27,-29,-20,-2,-39,-2,-351,-2,-38,-1,-16,-24,-22,-16,-15,-19,-18,-104,-14,-7,-16,-21,-46,-18,-19,-6,-57,-5,-370,-14,-10,-9,-11,-5,-6,-2,-3,-1,1,2,3,5,47,3,37,4,18,12,10,9,14,17,17,11,64,34,25,155,44,31,34,24,30,27,73,3,66,3,374,91,2,76,3,129,9,6,12,12,11,12,13,36,19,103,3,55,489,54,441,17,14,11,10,13,17,41,175,89,36,25,24,25,38,71,115,47,21,28,58,59],
      "delta_lng":[0,2,184,8,27,6,1,0,-2,-5,-21,-60,-57,-28,-11,-9,-9,-6,-3,-4,-5,-5,-3,-7,-17,-26,-6,0,2,4,5,8,27,66,16,16,30,29,27,94,35,19,10,9,7,5,3,2,-1,-2,-3,-3,-5,-14,-2,-46,-111,-19,-32,-82,-2,-33,0,-54,-36,-15,-20,1,7,1,3,2,0,4,0,-2,-3,2,-3,-3,-2,-7,-11,-17,-17,-13,-23,-17,-21,-8,-16,-18,-22,-11,-17,-12,-16,-15,-9,-7,-7,-1,-2,-1,1,2,3,5,11,17,10,14,16,14,14,29,22,43,35,40,18,50,62,23,353,67,209,206,5,53,46,51,35,13,46,48,70,113,96,118,30,21,27,33,51,48,21,16,7,16,273,15,3,-9,-14,-22,-37,-38,-5,-69,-5,-636,-6,-68,-1,-24,-23,-13,-5,-3,2,8,85,13,5,15,24,56,23,17,5,48,3,297,15,11,11,17,14,17,12,16,18,17,18,14,13,96,8,69,8,30,15,7,5,6,3,-3,-5,-46,-23,-13,-74,-19,-6,0,4,15,31,130,6,119,6,691,167,5,140,6,230,13,5,8,5,0,-1,-3,-12,-15,-78,-3,-42,-400,-47,-360,-9,-4,0,3,10,24,70,252,133,53,43,30,25,32,58,89,46,27,42,74,79]
    }
  ]
}