{
  "code":99326,
  "name":"湘南モノレール",
  "station_list":[
    {"code":1130107,"id":"92c81d","name":"大船","name_kana":"おおふな","lat":35.353466,"lng":139.531127,"prefecture":14,"lines":[11301,11307,11308,11328,11333,99326],"attr":"cool","postal_code":"247-0056","address":"鎌倉市大船１丁目"},
    {"code":9932602,"id":"ce627c","name":"富士見町(神奈川)","name_kana":"ふじみちょう","lat":35.345389,"lng":139.529277,"prefecture":14,"lines":[99326],"attr":"heat","postal_code":"247-0061","address":"鎌倉市台２-１９-７"},
    {"code":9932603,"id":"d209ac","name":"湘南町屋","name_kana":"しょうなんまちや","lat":35.337832,"lng":139.522666,"prefecture":14,"lines":[99326],"attr":"heat","postal_code":"247-0065","address":"鎌倉市上町屋７２２"},
    {"code":9932604,"id":"a4af08","name":"湘南深沢","name_kana":"しょうなんふかさわ","lat":35.332865,"lng":139.518903,"prefecture":14,"lines":[99326],"attr":"heat","postal_code":"247-0063","address":"鎌倉市梶原６５８"},
    {"code":9932605,"id":"4bd1df","name":"西鎌倉","name_kana":"にしかまくら","lat":35.319383,"lng":139.504365,"prefecture":14,"lines":[99326],"attr":"cool","postal_code":"248-0035","address":"鎌倉市西鎌倉１-２０-３５"},
    {"code":9932606,"id":"45ef75","name":"片瀬山","name_kana":"かたせやま","lat":35.317256,"lng":139.496052,"prefecture":14,"lines":[99326],"attr":"cool","postal_code":"248-0035","address":"鎌倉市西鎌倉４-８９４-６"},
    {"code":9932607,"id":"307784","name":"目白山下","name_kana":"めじろやました","lat":35.31402,"lng":139.491533,"prefecture":14,"lines":[99326],"attr":"eco","postal_code":"251-0032","address":"藤沢市片瀬３-２７７６"},
    {"code":9932608,"id":"e55d58","name":"湘南江の島","name_kana":"しょうなんえのしま","lat":35.311867,"lng":139.487794,"prefecture":14,"lines":[99326],"attr":"eco","postal_code":"251-0032","address":"藤沢市片瀬３-１５-１"}
  ],
  "north":35.3531,
  "south":35.31173,
  "east":139.53212,
  "west":139.48762,
  "polyline_list":[
    {
      "start":"湘南江の島",
      "end":"大船",
      "lat":35.31173,
      "lng":139.48762,
      "delta_lat":[0,29,3,40,2,103,4,39,30,3,76,25,13,25,22,53,28,30,12,13,10,7,2,-1,-1,-5,0,-5,-2,-2,-1,-2,0,3,5,8,11,10,15,24,20,21,27,16,18,15,7,4,5,0,0,0,-4,-3,-5,-4,0,4,7,11,19,1,18,14,22,16,26,15,33,18,8,9,11,10,9,8,7,5,5,10,9,10,13,22,10,11,13,27,26,23,33,30,35,23,22,16,24,11,21,18,25,31,20,27,28,51,32,35,22,17,34,27,25,27,27,33,41,20,24,24,34,34,23,20,37,10,74,89,53,49,25,21,24,56,38,61,25,20,26,43,52,65,19,20,39,48,38,75,222,53,59,49,26,28,35,18,22,32,29,47,38,42,43,40,39,73,83,46],
      "delta_lng":[0,39,3,65,5,177,6,68,53,6,127,34,12,15,9,19,11,11,11,16,20,25,30,20,17,31,8,54,8,18,8,25,30,25,21,24,21,18,25,36,32,31,41,21,27,29,20,21,21,21,32,26,27,24,28,40,26,10,15,20,36,3,18,11,11,7,10,8,15,6,9,9,13,17,17,20,25,28,19,58,33,28,29,39,20,17,17,41,45,36,52,46,63,33,37,28,33,11,22,19,19,24,15,22,21,38,25,24,11,5,9,11,10,16,18,20,25,13,17,14,26,27,24,23,40,10,82,95,54,50,21,11,11,16,8,6,4,11,16,35,40,50,17,27,53,55,39,71,213,51,56,44,27,44,55,20,7,2,-6,-19,-18,-31,-24,-13,1,18,23,12]
    }
  ]
}