{
  "code":99320,
  "name":"江ノ島電鉄線",
  "color":"#005B1A",
  "symbol":"EN",
  "station_list":[
    {"code":1130108,"id":"c75cd8","name":"藤沢","name_kana":"ふじさわ","lat":35.338882,"lng":139.487293,"prefecture":14,"numbering":[{"index":"01"}],"lines":[11301,25002,99320],"attr":"cool","postal_code":"251-0052","address":"藤沢市藤沢"},
    {"code":9932002,"id":"ac28eb","name":"石上","name_kana":"いしがみ","lat":35.332482,"lng":139.485572,"prefecture":14,"numbering":[{"index":"02"}],"lines":[99320],"attr":"heat","postal_code":"251-0024","address":"藤沢市鵠沼橘１-９-３"},
    {"code":9932003,"id":"a40711","name":"柳小路","name_kana":"やなぎこうじ","lat":35.327352,"lng":139.485189,"prefecture":14,"numbering":[{"index":"03"}],"lines":[99320],"attr":"heat","postal_code":"251-0031","address":"藤沢市鵠沼藤が谷４-８-１１"},
    {"code":9932004,"id":"2f386e","name":"鵠沼","name_kana":"くげぬま","lat":35.321447,"lng":139.482637,"prefecture":14,"numbering":[{"index":"04"}],"lines":[99320],"attr":"heat","postal_code":"251-0038","address":"藤沢市鵠沼松が岡１-１-１"},
    {"code":9932005,"id":"378668","name":"湘南海岸公園","name_kana":"しょうなんかいがんこうえん","lat":35.315203,"lng":139.4833,"prefecture":14,"numbering":[{"index":"05"}],"lines":[99320],"attr":"heat","postal_code":"251-0032","address":"藤沢市片瀬４-９-２２"},
    {"code":9932006,"id":"1e0621","name":"江ノ島","name_kana":"えのしま","lat":35.311003,"lng":139.487581,"prefecture":14,"numbering":[{"index":"06"}],"lines":[99320],"attr":"heat","postal_code":"251-0035","address":"藤沢市片瀬海岸１-４-７"},
    {"code":9932007,"id":"5fd6e6","name":"腰越","name_kana":"こしごえ","lat":35.308287,"lng":139.493286,"prefecture":14,"numbering":[{"index":"07"}],"lines":[99320],"attr":"heat","postal_code":"248-0033","address":"鎌倉市腰越２-１４-１４"},
    {"code":9932008,"id":"169506","name":"鎌倉高校前","name_kana":"かまくらこうこうまえ","lat":35.306698,"lng":139.500535,"prefecture":14,"numbering":[{"index":"08"}],"lines":[99320],"attr":"eco","postal_code":"248-0033","address":"鎌倉市腰越１-１-２５"},
    {"code":9932009,"id":"e3a07b","name":"七里ヶ浜","name_kana":"しちりがはま","lat":35.306243,"lng":139.510101,"prefecture":14,"numbering":[{"index":"09"}],"lines":[99320],"attr":"eco","postal_code":"248-0026","address":"神奈川県鎌倉市七里ガ浜一丁目9-5"},
    {"code":9932010,"id":"7d5d3c","name":"稲村ヶ崎","name_kana":"いなむらがさき","lat":35.30426,"lng":139.522322,"prefecture":14,"numbering":[{"index":"10"}],"lines":[99320],"attr":"eco","postal_code":"248-0024","address":"神奈川県鎌倉市稲村ガ崎二丁目8-1"},
    {"code":9932011,"id":"4b9365","name":"極楽寺","name_kana":"ごくらくじ","lat":35.309318,"lng":139.528721,"prefecture":14,"numbering":[{"index":"11"}],"lines":[99320],"attr":"cool","postal_code":"248-0023","address":"鎌倉市極楽寺３-７-４"},
    {"code":9932012,"id":"315b63","name":"長谷(神奈川)","name_kana":"はせ","lat":35.311265,"lng":139.536168,"prefecture":14,"numbering":[{"index":"12"}],"lines":[99320],"attr":"cool","postal_code":"248-0016","address":"鎌倉市長谷２-１４-１０"},
    {"code":9932013,"id":"67b4a7","name":"由比ヶ浜","name_kana":"ゆいがはま","lat":35.312857,"lng":139.54157,"prefecture":14,"numbering":[{"index":"13"}],"lines":[99320],"attr":"cool","postal_code":"248-0014","address":"神奈川県鎌倉市由比ガ浜三丁目10-13"},
    {"code":9932014,"id":"93cb31","name":"和田塚","name_kana":"わだづか","lat":35.31372,"lng":139.545362,"prefecture":14,"numbering":[{"index":"14"}],"lines":[99320],"attr":"cool","postal_code":"248-0014","address":"鎌倉市由比ガ浜３-４-１"},
    {"code":1130812,"id":"7e2761","name":"鎌倉","name_kana":"かまくら","lat":35.318793,"lng":139.550428,"prefecture":14,"numbering":[{"index":"15"}],"lines":[11308,99320],"attr":"eco","postal_code":"248-0006","address":"鎌倉市小町１丁目"}
  ],
  "north":35.33772,
  "south":35.30397,
  "east":139.55028,
  "west":139.48189,
  "polyline_list":[
    {
      "start":"藤沢",
      "end":"鎌倉",
      "lat":35.33772,
      "lng":139.48743,
      "delta_lat":[0,-32,-18,-21,-21,-14,-4,-32,-18,-17,-44,-144,-2,-128,-61,-73,-57,-68,-97,-82,-86,-46,-32,-27,-40,-65,-67,-29,-29,-21,-27,-105,-100,-48,-38,-13,-13,-27,-14,-13,-14,-16,-14,-17,-22,-24,-54,-52,-18,-13,-16,-11,-15,-23,-25,-13,-30,-17,-9,-20,-41,-28,-19,-8,-58,-16,-12,-30,-15,-17,-27,-65,-38,-15,-18,-23,-20,-12,-21,-10,-5,-4,-1,1,3,1,-2,-16,-13,-22,-69,-60,-24,-12,-14,-22,-36,-5,-7,-20,-51,-7,-8,-5,-3,0,8,2,1,-1,-3,-2,-2,-2,-3,-2,-2,-3,-1,-5,-11,-2,-3,-5,-3,-3,0,3,-1,-8,-10,-7,-4,-2,-2,0,-1,-2,2,1,2,8,8,5,3,3,2,2,1,-3,-3,-6,-12,-13,-15,-13,-11,-12,-11,-9,-11,-16,-13,-30,-44,-10,-1,4,4,-4,-2,-1,-8,-2,-2,2,-3,1,6,14,7,1,4,1,0,3,1,1,6,12,13,13,18,38,16,26,23,24,21,9,18,18,22,40,16,29,20,18,16,37,15,33,25,16,11,13,11,8,12,16,11,14,2,6,7,0,0,3,4,9,20,15,5,14,11,13,16,20,9,23,24,6,14,12,15,18,17,11,3,6,3,9,12,14,15,19,17,15,15,19,28,50,24,23,9,9,6,11,14,17,16,23,65,38],
      "delta_lng":[0,-10,-8,-10,-13,-8,-5,-27,-12,-7,-12,-35,-1,-29,-14,-16,-10,-8,-2,0,8,-1,-4,-5,-14,-27,-30,-16,-28,-19,-14,-44,-43,-22,-16,3,13,29,15,9,5,4,0,-2,-5,-14,-40,-39,-10,-8,-5,-2,-3,-1,1,4,14,10,9,25,60,40,21,7,39,16,15,48,19,17,20,43,24,10,24,33,29,21,48,24,21,31,25,24,14,11,11,32,19,31,102,88,36,23,34,47,81,13,9,14,33,5,13,15,18,32,60,28,23,21,56,18,30,31,86,77,54,61,26,50,83,22,34,60,22,41,28,32,14,32,34,29,23,25,55,27,53,37,48,23,14,26,21,14,6,8,8,9,9,31,6,9,9,9,7,9,9,8,13,22,31,42,46,97,145,43,12,22,31,30,24,16,46,27,44,61,49,56,19,34,25,2,27,34,53,56,32,25,28,47,27,20,23,37,18,27,30,33,34,14,14,10,8,9,10,21,21,20,16,36,18,42,38,32,24,43,37,22,38,47,44,45,6,49,84,30,27,28,15,44,71,56,27,44,38,49,45,31,17,93,98,35,53,59,63,79,72,53,14,24,18,26,24,26,26,32,23,23,21,26,41,73,36,35,10,13,5,8,7,6,0,-4,-14,0]
    }
  ]
}