{
  "code":99329,
  "id":"0b4220",
  "name":"新京成電鉄線",
  "name_kana":"しんけいせいでんてつせん",
  "name_formal":"新京成電鉄新京成線",
  "station_size":24,
  "company_code":142,
  "color":"#EF59A1",
  "symbol":"SL",
  "station_list":[
    {"code":1132009,"id":"fef0df","name":"松戸","name_kana":"まつど","lat":35.784472,"lng":139.900779,"prefecture":12,"numbering":[{"index":"01"}],"lines":[11320,99329],"attr":"cool","postal_code":"271-0092","address":"松戸市松戸","next":[9930909,1132010,9932923,1132008,9934004,9934003],"voronoi":{"lat":35.771445,"lng":139.888374,"delta_lat":[0,25391,7261,-12012,-15648,-5555],"delta_lng":[0,-12479,12959,17866,5183,-8888]},"impl":true},
    {"code":9932923,"id":"ea3e8d","name":"上本郷","name_kana":"かみほんごう","lat":35.789524,"lng":139.916031,"prefecture":12,"numbering":[{"index":"02"}],"lines":[99329],"attr":"heat","postal_code":"271-0064","address":"松戸市上本郷２６４８-１１","next":[9934005,9934004,1132009,1132010,9932922],"voronoi":{"lat":35.796857,"lng":139.918309,"delta_lat":[0,-4772,-15648,-594,554],"delta_lng":[0,-11589,5183,8886,913]},"impl":true},
    {"code":9932922,"id":"b03895","name":"松戸新田","name_kana":"まつどしんでん","lat":35.790652,"lng":139.922833,"prefecture":12,"numbering":[{"index":"03"}],"lines":[99329],"attr":"heat","postal_code":"270-2241","address":"松戸市松戸新田２６４-２","next":[1132010,9934005,9932921,1132011,9932923],"voronoi":{"lat":35.796857,"lng":139.918309,"delta_lat":[0,4985,1621,-26480,-586],"delta_lng":[0,4324,6167,-5214,-1884]},"impl":true},
    {"code":9932921,"id":"44e8a6","name":"みのり台","name_kana":"みのりだい","lat":35.789346,"lng":139.929466,"prefecture":12,"numbering":[{"index":"04"}],"lines":[99329],"attr":"heat","postal_code":"270-2241","address":"松戸市松戸新田５７５-１９","next":[1130521,9934005,9932922,9932920,1132011],"voronoi":{"lat":35.803462,"lng":139.9288,"delta_lat":[0,-26480,514,2131,24416],"delta_lng":[0,-5214,9837,2777,-6333]},"impl":true},
    {"code":9932920,"id":"b64681","name":"八柱","name_kana":"やばしら","lat":35.791394,"lng":139.937362,"prefecture":12,"numbering":[{"index":"05"}],"lines":[99329],"attr":"heat","postal_code":"270-2253","address":"松戸市日暮３７１-４","next":[1130520,1132011,9932921,1130521],"voronoi":{"lat":35.779628,"lng":139.9362,"delta_lat":[0,24416,373,-22442],"delta_lng":[0,-6333,377,13474]},"impl":true},
    {"code":9932919,"id":"9bfa9c","name":"常盤平","name_kana":"ときわだいら","lat":35.803191,"lng":139.949522,"prefecture":12,"numbering":[{"index":"06"}],"lines":[99329],"attr":"heat","postal_code":"270-2261","address":"松戸市常盤平１-２９","next":[1130519,9934007,2100425,1132013,1132014,1130520,1132011,9932918,2100426],"voronoi":{"lat":35.789301,"lng":139.953688,"delta_lat":[0,-317,18978,6235,1844,8078,-184,-3943,-3904],"delta_lng":[0,-1074,-19062,1644,1444,13410,1659,7885,3822]},"impl":true},
    {"code":9932918,"id":"efd056","name":"五香","name_kana":"ごこう","lat":35.797281,"lng":139.965796,"prefecture":12,"numbering":[{"index":"07"}],"lines":[99329],"attr":"cool","postal_code":"270-2251","address":"松戸市金ケ作４０８-８","next":[9932917,9932916,2100426,2100427,9932919,9934007],"voronoi":{"lat":35.786445,"lng":139.965676,"delta_lat":[0,20308,7384,1951,-26787,-3855],"delta_lng":[0,14271,-10680,-5852,-9728,10482]},"impl":true},
    {"code":9932917,"id":"bd4bcf","name":"元山(千葉)","original_name":"元山","name_kana":"もとやま","lat":35.790229,"lng":139.975831,"prefecture":12,"numbering":[{"index":"08"}],"lines":[99329],"attr":"cool","postal_code":"270-2212","address":"松戸市五香南１-５-１","next":[2100427,9932918,9932915,9932916,2100428,2100429],"voronoi":{"lat":35.786126,"lng":139.985963,"delta_lat":[0,319,20308,-467,-5552,-12022],"delta_lng":[0,-20286,14271,1937,4321,1794]},"impl":true},
    {"code":9932916,"id":"57894f","name":"くぬぎ山","name_kana":"くぬぎやま","lat":35.782343,"lng":139.975707,"prefecture":12,"numbering":[{"index":"09"}],"lines":[99329],"attr":"cool","postal_code":"273-0128","address":"鎌ケ谷市くぬぎ山５-１-６","next":[9932918,9932915,9932917,9934008,9934007],"voronoi":{"lat":35.785445,"lng":139.96417,"delta_lat":[0,999,-319,-9855,5077],"delta_lng":[0,1507,20286,-3028,-17176]},"impl":true},
    {"code":9932915,"id":"1092e6","name":"北初富","name_kana":"きたはつとみ","lat":35.777237,"lng":139.992325,"prefecture":12,"numbering":[{"index":"10"}],"lines":[99329],"attr":"cool","postal_code":"273-0111","address":"鎌ケ谷市北中沢１-１８-２５","next":[9932913,2100429,2100431,9932917,9934008,2100430,9932916],"voronoi":{"lat":35.77627,"lng":139.982935,"delta_lat":[0,-9714,3451,5741,11088,1875,-2586],"delta_lng":[0,1105,9411,3687,-4641,-4497,-2037]},"impl":true},
    {"code":2100430,"id":"a3a320","name":"新鎌ヶ谷","name_kana":"しんかまがや","lat":35.780221,"lng":139.999455,"prefecture":12,"numbering":[{"index":"11"}],"lines":[21004,23006,99329,99340],"attr":"cool","postal_code":"273-0107","address":"千葉県鎌ケ谷市新鎌ケ谷一丁目13-1","open_date":"1991-03-31","next":[9934010,2100429,9932915,9932913],"voronoi":{"lat":35.775749,"lng":139.997137,"delta_lat":[0,11088,431,-9135],"delta_lng":[0,-4641,22361,1180]},"impl":true},
    {"code":9932913,"id":"9038f7","name":"初富","name_kana":"はつとみ","lat":35.771992,"lng":140.000493,"prefecture":12,"numbering":[{"index":"12"}],"lines":[99329],"attr":"eco","postal_code":"273-0124","address":"鎌ケ谷市中央１-２-１９","next":[2100431,9932915,9934010,9932912,2100430],"voronoi":{"lat":35.775749,"lng":139.997137,"delta_lat":[0,-5741,-5294,9879,3540],"delta_lng":[0,-3687,13499,10498,-1410]},"impl":true},
    {"code":9932912,"id":"c042cf","name":"鎌ヶ谷大仏","name_kana":"かまがやだいぶつ","lat":35.757827,"lng":140.013823,"prefecture":12,"numbering":[{"index":"13"}],"lines":[99329],"attr":"eco","postal_code":"273-0105","address":"千葉県鎌ケ谷市鎌ケ谷1丁目8番1号","next":[2100432,9934010,2100431,9932911,9932913,9932909],"voronoi":{"lat":35.769907,"lng":140.024464,"delta_lat":[0,4686,-9879,-13706,-9763,2936],"delta_lng":[0,-7017,-10498,-4916,7333,4707]},"impl":true},
    {"code":9932911,"id":"65a262","name":"二和向台","name_kana":"ふたわむこうだい","lat":35.753825,"lng":140.023731,"prefecture":12,"numbering":[{"index":"14"}],"lines":[99329],"attr":"eco","postal_code":"274-0805","address":"船橋市二和東５-３８-１","next":[9934010,9932909,9932910,9932912],"voronoi":{"lat":35.76593,"lng":140.040005,"delta_lat":[0,-20830,-920,25726],"delta_lng":[0,-20067,-5864,10391]},"impl":true},
    {"code":9932910,"id":"b1447b","name":"三咲","name_kana":"みさき","lat":35.749217,"lng":140.028514,"prefecture":12,"numbering":[{"index":"15"}],"lines":[99329],"attr":"eco","postal_code":"274-0813","address":"船橋市南三咲２-２-１","next":[9933805,9932911,9932909,9932907,9934011,9934010],"voronoi":{"lat":35.76593,"lng":140.040005,"delta_lat":[0,-20830,-4398,1482,13661,9816],"delta_lng":[0,-20067,21587,5222,9999,-13622]},"impl":true},
    {"code":9932909,"id":"b56eee","name":"滝不動","name_kana":"たきふどう","lat":35.737957,"lng":140.02622,"prefecture":12,"numbering":[{"index":"16"}],"lines":[99329],"attr":"eco","postal_code":"274-0813","address":"船橋市南三咲３-２３-１","next":[9932911,9933803,9932907,9932908,9932910,9932912,2100432],"voronoi":{"lat":35.744181,"lng":140.014073,"delta_lat":[0,920,-4398,-1627,-11183,785,12567],"delta_lng":[0,5864,21587,-2120,-26597,-4781,1340]},"impl":true},
    {"code":9932908,"id":"19777e","name":"高根公団","name_kana":"たかねこうだん","lat":35.730436,"lng":140.029382,"prefecture":12,"numbering":[{"index":"17"}],"lines":[99329],"attr":"eco","postal_code":"274-0065","address":"船橋市高根台１-６-１","next":[9932907,9933803,9932909],"voronoi":{"lat":35.727893,"lng":140.012808,"delta_lat":[0,-6304,17487],"delta_lng":[0,14570,12027]},"impl":true},
    {"code":9932907,"id":"bef792","name":"高根木戸","name_kana":"たかねきど","lat":35.726625,"lng":140.034923,"prefecture":12,"numbering":[{"index":"18"}],"lines":[99329],"attr":"eco","postal_code":"274-0063","address":"船橋市習志野台１-１-３","next":[9933805,9932908,9932906,9932904,9932909,9933803,9932910],"voronoi":{"lat":35.735336,"lng":140.046834,"delta_lat":[0,-17210,-489,3951,17487,1627,1482],"delta_lng":[0,-12535,-2991,-3930,12027,2120,5222]},"impl":true},
    {"code":9932906,"id":"786b49","name":"北習志野","name_kana":"きたならしの","lat":35.721328,"lng":140.042195,"prefecture":12,"numbering":[{"index":"19"}],"lines":[99329,99338],"attr":"eco","postal_code":"274-0063","address":"船橋市習志野台３-１-１","next":[9933805,9932907,9932904,9932905],"voronoi":{"lat":35.717625,"lng":140.035505,"delta_lat":[0,501,17210,-16073],"delta_lng":[0,-1206,12535,5371]},"impl":true},
    {"code":9932905,"id":"a0c1bf","name":"習志野","name_kana":"ならしの","lat":35.715293,"lng":140.042787,"prefecture":12,"numbering":[{"index":"20"}],"lines":[99329],"attr":"eco","postal_code":"274-0063","address":"船橋市習志野台４-１-９","next":[9933805,9932906,9932904,2300128,2300127],"voronoi":{"lat":35.701695,"lng":140.050925,"delta_lat":[0,15930,1638,-12874,-3332],"delta_lng":[0,-15420,16700,9263,-3715]},"impl":true},
    {"code":9932904,"id":"7e7aa6","name":"薬園台","name_kana":"やくえんだい","lat":35.710271,"lng":140.037599,"prefecture":12,"numbering":[{"index":"21"}],"lines":[99329],"attr":"eco","postal_code":"274-0077","address":"船橋市薬円台６-１-１","next":[9932903,9933803,9932907,9932906,9932905,2300127],"voronoi":{"lat":35.717625,"lng":140.035505,"delta_lat":[0,501,-489,-8608,-12011,4677],"delta_lng":[0,-1206,-2991,-2138,11471,10284]},"impl":true},
    {"code":9932903,"id":"7e7db4","name":"前原","name_kana":"まえばら","lat":35.700666,"lng":140.027542,"prefecture":12,"numbering":[{"index":"22"}],"lines":[99329],"attr":"eco","postal_code":"274-0825","address":"船橋市前原西７-１７-２１","next":[9932904,9932902,9933803,1131332,2300127,1131333],"voronoi":{"lat":35.702515,"lng":140.015654,"delta_lat":[0,1212,5303,-12011,-5613,4711],"delta_lng":[0,-44,13560,11471,-3900,-13007]},"impl":true},
    {"code":9932902,"id":"e2f955","name":"新津田沼","name_kana":"しんつだぬま","lat":35.690184,"lng":140.023745,"prefecture":12,"numbering":[{"index":"23"}],"lines":[99329],"attr":"eco","postal_code":"275-0016","address":"習志野市津田沼１-１０-３５","next":[9932903,1131333,2300127,2300126],"voronoi":{"lat":35.686284,"lng":140.020472,"delta_lat":[0,9832,-4711,-2511],"delta_lng":[0,3262,13007,-420]},"impl":true},
    {"code":2300126,"id":"28818e","name":"京成津田沼","name_kana":"けいせいつだぬま","lat":35.68364,"lng":140.024823,"prefecture":12,"numbering":[{"index":"24"}],"lines":[23001,23004,99329],"attr":"heat","postal_code":"275-0016","address":"習志野市津田沼３-１-１","next":[1131334,2300125,2300127,1132613,2300402,1131333,9932902],"voronoi":{"lat":35.686284,"lng":140.020472,"delta_lat":[0,-2586,-5848,-8838,12361,2067,5454],"delta_lng":[0,-4302,-551,12006,7938,1302,-544]},"impl":true}
  ],
  "north":35.80406,
  "south":35.68349,
  "east":140.04378,
  "west":139.90039,
  "polyline_list":[
    {
      "start":"京成津田沼",
      "end":"松戸",
      "lat":35.68349,
      "lng":140.02558,
      "delta_lat":[0,30,6,14,25,12,30,32,24,20,15,17,15,22,12,11,4,9,4,10,2,6,18,12,15,16,15,15,17,32,24,16,11,18,22,12,20,16,13,11,18,9,38,9,11,20,21,19,4,24,9,21,23,27,32,14,39,9,36,39,39,36,38,54,37,2,127,79,33,28,43,38,23,28,36,61,43,62,47,75,57,38,62,46,38,17,38,97,161,65,18,163,14,188,33,18,12,21,27,34,18,98,72,80,50,34,36,21,29,21,7,29,18,16,12,48,42,63,126,48,50,29,32,86,11,77,74,27,35,101,76,63,85,27,78,48,38,20,42,18,29,32,22,29,27,20,23,32,27,18,21,24,30,24,45,85,47,159,62,54,34,32,33,33,34,35,41,146,96,140,47,36,92,67,1,74,58,39,28,17,16,27,32,42,47,9,56,94,11,77,69,26,63,9,36,63,0,26,25,21,92,84,110,109,18,157,12,181,24,106,83,42,38,38,30,26,100,74,76,173,174,27,27,28,24,18,40,24,7,21,11,2,-4,-19,-6,-3,-35,-9,-27,-21,-71,-17,-59,-14,-17,-32,-55,-5,24,53,24,110,132,29,13,17,16,28,24,30,6,36,66,92,35,126,75,181,4,3,127,25,31,5,35,14,13,30,17,65,10,57,40,18,10,56,64,18,13,26,67,91,59,24,61,99,145,67,46,13,43,39,13,36,90,104,30,0,2,-5,-19,-16,-24,-11,-32,-14,-74,-35,-43,-27,-13,-108,-308,-101,-48,-178,-43,-22,-41,-22,-36,-54,-25,-40,-17,-72,-8,-39,-12,1,2,25,5,100,5,17,21,2,-9,-23,-20,-51,-12,-21,-46,-51,-41,-15,-2,8,41,11,36,0,0,-18,-3,-26,-9,-16,-38,-35,-25,-56,-24,-66,-66,-171],
      "delta_lng":[0,-147,-30,-75,-27,-11,-17,-17,-2,1,4,8,12,25,21,36,28,100,25,28,8,8,26,19,20,20,13,11,12,14,6,1,0,-6,-13,-11,-27,-29,-31,-35,-75,-29,-103,-22,-18,-20,-16,-9,0,-3,0,1,7,21,35,19,63,12,49,46,43,25,15,5,0,0,-11,-6,1,5,16,23,21,33,48,100,55,67,46,61,52,37,63,50,40,18,44,110,188,75,20,191,15,216,39,19,10,15,13,11,7,30,22,24,20,9,5,4,0,-4,-1,-9,-8,-9,-9,-45,-38,-75,-156,-60,-65,-36,-40,-125,-18,-121,-121,-49,-52,-151,-103,-82,-115,-39,-104,-65,-50,-21,-40,-14,-19,-16,-8,-8,-5,-4,0,1,4,4,9,13,17,18,33,72,41,133,53,44,24,12,6,0,-3,-3,-6,-33,-19,-31,-12,-7,-18,-17,0,-30,-30,-32,-28,-21,-25,-54,-74,-103,-117,-24,-134,-238,-25,-192,-169,-62,-152,-20,-83,-147,-3,-53,-34,-20,-94,-80,-100,-106,-18,-145,-11,-173,-21,-100,-63,-23,-8,-3,7,6,40,31,31,71,67,7,5,0,-5,-9,-28,-34,-10,-37,-53,-29,-34,-82,-20,-11,-121,-31,-101,-71,-221,-55,-179,-51,-59,-113,-195,-30,-104,-159,-65,-332,-393,-46,-16,-15,-11,-10,-6,-4,-1,2,14,29,9,31,22,50,0,0,26,-1,-7,0,-16,-11,-12,-41,-22,-86,-15,-86,-83,-59,-35,-175,-192,-41,-28,-35,-59,-46,-30,-12,-30,-42,-60,-38,-35,-14,-40,-61,-24,-100,-300,-323,-124,-29,-28,-43,-115,-72,-111,-41,-109,-49,-259,-92,-64,-26,-10,-90,-251,-70,-23,-80,-15,-8,-18,-9,-27,-54,-37,-65,-58,-296,-32,-168,-96,-29,-21,-128,-23,-478,-20,-120,-159,-115,-48,-82,-30,-72,-17,-33,-67,-83,-95,-86,-69,-52,-175,-38,-146,-37,-35,-126,-24,-174,-42,-49,-68,-35,-13,-22,-9,-26,-19,-89]
    }
  ],
  "impl":true
}