{
  "code":99322,
  "id":"b0c970",
  "name":"鹿島鉄道線",
  "name_kana":"かしまてつどうせん",
  "name_formal":"鹿島鉄道線",
  "station_size":17,
  "company_code":135,
  "closed":true,
  "station_list":[
    {"code":1122910,"id":"b64f4e","name":"石岡","name_kana":"いしおか","lat":36.191554,"lng":140.279709,"prefecture":8,"lines":[11229,99322],"attr":"eco","postal_code":"315-0014","address":"石岡市国府１","next":[9935114,1122911,1122909,1122908,9935106,9932202,9935105],"voronoi":{"lat":36.204564,"lng":140.189942,"delta_lat":[0,13643,13060,-14266,-45302,-11610,23231],"delta_lng":[0,-5389,6309,113039,-27750,-21369,-53144]},"impl":true},
    {"code":9932202,"id":"f9ca33","name":"石岡南台","name_kana":"いしおかみなみだい","closed":true,"lat":36.183889,"lng":140.292222,"prefecture":8,"lines":[99322],"postal_code":"315-0037","address":"茨城県石岡市東石岡３丁目１","open_date":"1989-06-15","closed_date":"2007-04-01","next":[1122909,9932203,1122911,1122910],"voronoi":{"lat":36.1717,"lng":140.276151,"delta_lat":[0,2565,42780,-43],"delta_lng":[0,20335,7927,-512]},"impl":false},
    {"code":9932203,"id":"8228ac","name":"東田中","name_kana":"ひがしたなか","closed":true,"lat":36.181722,"lng":140.303917,"prefecture":8,"lines":[99322],"postal_code":"315-0033","address":"茨城県石岡市東光台３丁目７","open_date":"1964-11-18","closed_date":"2007-04-01","next":[1122911,9932204,9932202,1122909],"voronoi":{"lat":36.174264,"lng":140.296487,"delta_lat":[0,42780,3295,-51600],"delta_lng":[0,7927,12686,-9867]},"impl":false},
    {"code":9932204,"id":"0e7e36","name":"玉里","name_kana":"たまり","closed":true,"lat":36.179583,"lng":140.315103,"prefecture":8,"lines":[99322],"postal_code":"311-3434","address":"茨城県小美玉市栗又四ケ","open_date":"1988-04-01","closed_date":"2007-04-01","next":[1122909,9932203,1122911,9932205],"voronoi":{"lat":36.22034,"lng":140.317099,"delta_lat":[0,-51600,-9522,65095],"delta_lng":[0,-9867,7344,12075]},"impl":false},
    {"code":9932205,"id":"93d35b","name":"新高浜","name_kana":"しんたかはま","closed":true,"lat":36.178417,"lng":140.321389,"prefecture":8,"lines":[99322],"postal_code":"311-3434","address":"茨城県小美玉市栗又四ケ２４００−１１","open_date":"1924-06-08","closed_date":"2007-04-01","next":[9932206,9932204,1122911,1122909],"voronoi":{"lat":36.229067,"lng":140.336166,"delta_lat":[0,-4754,-65095,-11639],"delta_lng":[0,-9514,-12075,6349]},"impl":false},
    {"code":9932206,"id":"e3d44c","name":"四箇村","name_kana":"しかむら","closed":true,"lat":36.1765,"lng":140.331639,"prefecture":8,"lines":[99322],"postal_code":"311-3434","address":"茨城県小美玉市栗又四ケ１５１７−１０","open_date":"1931-02-01","closed_date":"2007-04-01","next":[9932205,9932207,1122911,1122909],"voronoi":{"lat":36.147578,"lng":140.320926,"delta_lat":[0,81488,35082,-123862],"delta_lng":[0,15240,55664,-68410]},"impl":false},
    {"code":9932207,"id":"bc933d","name":"常陸小川","name_kana":"ひたちおがわ","closed":true,"lat":36.166528,"lng":140.349694,"prefecture":8,"lines":[99322],"postal_code":"311-3435","address":"茨城県小美玉市田木谷","open_date":"1924-06-08","closed_date":"2007-04-01","next":[9932208,9932206,1122914,1122915,9932306,1122911,1122909],"voronoi":{"lat":36.250561,"lng":140.411533,"delta_lat":[0,16525,420,122,-3479,-123862,-17372],"delta_lng":[0,-5897,-1379,-7940,-4488,-68410,836]},"impl":false},
    {"code":9932208,"id":"8cd24c","name":"小川高校下","name_kana":"おがわこうこうした","closed":true,"lat":36.162444,"lng":140.355667,"prefecture":8,"lines":[99322],"postal_code":"311-3423","address":"茨城県小美玉市小川８１１−１","open_date":"1988-04-01","closed_date":"2007-04-01","next":[9932207,9932306,9932215,9932209,1122909],"voronoi":{"lat":36.250561,"lng":140.411533,"delta_lat":[0,-13918,-28090,-104191,18553],"delta_lng":[0,5517,-1060,-92172,437]},"impl":false},
    {"code":9932209,"id":"edf7ef","name":"桃浦","name_kana":"ももうら","closed":true,"lat":36.143056,"lng":140.377583,"prefecture":8,"lines":[99322],"postal_code":"311-3507","address":"茨城県行方市羽生７９","open_date":"1926-08-15","closed_date":"2007-04-01","next":[9932211,9932208,1122909,9932214,1122908,9932215,9932210],"voronoi":{"lat":36.191819,"lng":140.418626,"delta_lat":[0,16734,-104191,-13855,-17283,31249,73582],"delta_lng":[0,-2635,-92172,-3484,3033,36383,58529]},"impl":false},
    {"code":9932210,"id":"a7c949","name":"八木蒔","name_kana":"やきまき","closed":true,"lat":36.130528,"lng":140.393333,"prefecture":8,"lines":[99322],"postal_code":"311-3506","address":"茨城県行方市八木蒔４９７","open_date":"1931-02-01","closed_date":"2007-04-01","next":[9932213,9932214,9932211,9932209,9932212],"voronoi":{"lat":36.16385,"lng":140.420622,"delta_lat":[0,14205,-73582,27102,6483],"delta_lng":[0,-2343,-58529,53268,6162]},"impl":false},
    {"code":9932211,"id":"c7ee1e","name":"浜","name_kana":"はま","closed":true,"lat":36.116278,"lng":140.400583,"prefecture":8,"lines":[99322],"postal_code":"311-3505","address":"茨城県行方市浜２６６−２","open_date":"1926-08-15","closed_date":"2007-04-01","next":[9932209,1132707,9932212,9932210,1122908,1132708],"voronoi":{"lat":36.002839,"lng":140.34627,"delta_lat":[0,5437,64947,31249,27102,-127771],"delta_lng":[0,-24674,1772,36383,53268,-45554]},"impl":false},
    {"code":9932212,"id":"d253fd","name":"玉造町","name_kana":"たまつくりまち","closed":true,"lat":36.111861,"lng":140.412972,"prefecture":8,"lines":[99322],"postal_code":"311-3512","address":"茨城県行方市玉造甲９４−３","open_date":"1928-02-01","closed_date":"2007-04-01","next":[1132708,9932211,1132709,1132904,9932213,9932210],"voronoi":{"lat":36.131574,"lng":140.413018,"delta_lat":[0,-127771,-832,2264,16865,115957],"delta_lng":[0,-45554,78020,11196,21617,-59117]},"impl":false},
    {"code":9932213,"id":"950a72","name":"榎本","name_kana":"えのきもと","closed":true,"lat":36.127694,"lng":140.444028,"prefecture":8,"lines":[99322],"postal_code":"311-3501","address":"茨城県行方市芹沢１７６４","open_date":"1929-05-16","closed_date":"2007-04-01","next":[1132904,9932214,9932210,9932309,9932212],"voronoi":{"lat":36.024516,"lng":140.482667,"delta_lat":[0,72744,66590,-25792,-115957],"delta_lng":[0,5675,-67720,-1442,59117]},"impl":false},
    {"code":9932214,"id":"6baff7","name":"借宿前","name_kana":"かりやどまえ","closed":true,"lat":36.141056,"lng":140.457167,"prefecture":8,"lines":[99322],"postal_code":"311-1526","address":"茨城県鉾田市半原２１４−２６","open_date":"1951-10-01","closed_date":"2007-04-01","next":[9932216,9932213,9932215,9932210,9932209,9932309],"voronoi":{"lat":36.09726,"lng":140.488343,"delta_lat":[0,66590,14205,13764,-51932,-31678],"delta_lng":[0,-67720,-2343,346,56864,15684]},"impl":false},
    {"code":9932215,"id":"36f610","name":"巴川","name_kana":"ともえがわ","closed":true,"lat":36.158028,"lng":140.472667,"prefecture":8,"lines":[99322],"postal_code":"311-1527","address":"茨城県鉾田市借宿３６６","open_date":"1929-05-26","closed_date":"2007-04-01","next":[9932306,9932208,9932307,9932214,9932216,9932209],"voronoi":{"lat":36.208552,"lng":140.415991,"delta_lat":[0,28090,-31492,-20380,-44884,51932],"delta_lng":[0,1060,52545,15772,-9878,-56864]},"impl":false},
    {"code":9932216,"id":"3715a5","name":"坂戸(茨城)","original_name":"坂戸","name_kana":"さかど","closed":true,"lat":36.155167,"lng":140.485667,"prefecture":8,"lines":[99322],"postal_code":"311-1528","address":"茨城県鉾田市当間２２９６","open_date":"1931-02-01","closed_date":"2007-04-01","next":[9932214,9932309,9932217,9932215,9932307],"voronoi":{"lat":36.184771,"lng":140.485367,"delta_lat":[0,-44884,-31678,2595,63424],"delta_lng":[0,-9878,15684,1760,5328]},"impl":false},
    {"code":9932217,"id":"88eb4a","name":"鉾田","name_kana":"ほこた","closed":true,"lat":36.153333,"lng":140.5075,"prefecture":8,"lines":[99322],"postal_code":"311-1517","address":"茨城県鉾田市鉾田２４５６","open_date":"1929-05-16","closed_date":"2007-04-01","next":[9932307,9932308,9932216,9932309],"voronoi":{"lat":36.110803,"lng":140.492934,"delta_lat":[0,63424,-3110,-42635],"delta_lng":[0,5328,16584,-2100]},"impl":false}
  ],
  "closed_date":"2007-04-01",
  "impl":false
}