{
  "code":99327,
  "id":"2926d4",
  "name":"上信電鉄",
  "name_kana":"じょうしんでんてつ",
  "station_size":21,
  "company_code":140,
  "station_list":[
    {"code":100506,"id":"4505b7","name":"高崎","name_kana":"たかさき","lat":36.322239,"lng":139.012354,"prefecture":10,"lines":[1005,1009,11318,11323,11337,11341,11342,99327],"attr":"eco","postal_code":"370-0849","address":"高崎市八島町","next":[1134102,9932721,9932702,1133702,1131815],"voronoi":{"lat":36.318062,"lng":139.034969,"delta_lat":[0,-787,179,17121,-5698],"delta_lng":[0,-2700,-44723,25127,28712]}},
    {"code":9932702,"id":"c943d9","name":"南高崎","name_kana":"みなみたかさき","lat":36.31247,"lng":139.012315,"prefecture":10,"lines":[99327],"attr":"heat","postal_code":"370-0846","address":"高崎市下和田町３-７-６","next":[1133703,9932703,9932721,100506,1133702,9932709,9932708],"voronoi":{"lat":36.296025,"lng":138.974552,"delta_lat":[0,1780,16378,3270,-179,-22923,-2853],"delta_lng":[0,-2176,7511,7658,44723,-39679,-8880]}},
    {"code":9932721,"id":"0646ba","name":"佐野のわたし","name_kana":"さののわたし","lat":36.302389,"lng":139.018139,"prefecture":10,"lines":[99327],"attr":"heat","postal_code":"370-0857","address":"群馬県高崎市上佐野町字舟橋167-3","open_date":"2014-12-22","next":[9932703,9932704,100506,9932702,1131815],"voronoi":{"lat":36.317275,"lng":139.032269,"delta_lat":[0,-22923,3540,1681,18489],"delta_lng":[0,-39679,38457,2640,1282]}},
    {"code":9932703,"id":"0da76a","name":"根小屋","name_kana":"ねごや","lat":36.291114,"lng":139.019177,"prefecture":10,"lines":[99327],"attr":"heat","postal_code":"370-1214","address":"高崎市根小屋町２０４０-３","next":[9932704,9932721,9932702,9932708,9932707],"voronoi":{"lat":36.297892,"lng":139.031046,"delta_lat":[0,-3540,-2853,-7652,-8319],"delta_lng":[0,-38457,-8880,7722,25058]}},
    {"code":9932704,"id":"e07d93","name":"高崎商科大学前","name_kana":"たかさきしょうかだいがくまえ","lat":36.284295,"lng":139.029654,"prefecture":10,"lines":[99327],"attr":"heat","postal_code":"370-1214","address":"高崎市根小屋町８８６-２","next":[9932703,1131815,9932721,9932707,9932705,9932706],"voronoi":{"lat":36.2751,"lng":139.01697,"delta_lat":[0,427,22364,1681,-9383,-12550],"delta_lng":[0,-480,14557,2640,7537,-9970]}},
    {"code":9932705,"id":"713363","name":"山名","name_kana":"やまな","lat":36.277587,"lng":139.038098,"prefecture":10,"lines":[99327],"attr":"heat","postal_code":"370-1213","address":"高崎市山名町１５１５-３","next":[1131814,1131815,9932704,1131813,9932706],"voronoi":{"lat":36.27764,"lng":139.031253,"delta_lat":[0,12550,-9095,-16383,-9045],"delta_lng":[0,9970,18093,1874,-5444]}},
    {"code":9932706,"id":"59abc0","name":"西山名","name_kana":"にしやまな","lat":36.270841,"lng":139.032046,"prefecture":10,"lines":[99327],"attr":"eco","postal_code":"370-1213","address":"高崎市山名町１２６１-２","next":[9932707,9932704,9932705,1131813],"voronoi":{"lat":36.27764,"lng":139.031253,"delta_lat":[0,-2539,-57199,37765],"delta_lng":[0,-14284,23693,15084]}},
    {"code":9932707,"id":"ffded2","name":"馬庭","name_kana":"まにわ","lat":36.261428,"lng":139.009321,"prefecture":10,"lines":[99327],"attr":"eco","postal_code":"370-2104","address":"群馬県高崎市吉井町馬庭191-1","next":[9932706,9932704,9932708,1131813,9932703,1131812],"voronoi":{"lat":36.160694,"lng":139.018097,"delta_lat":[0,123152,-8319,-427,-57199,-14995],"delta_lng":[0,-26665,25058,480,23693,-2246]}},
    {"code":9932708,"id":"3bcbf2","name":"吉井(群馬)","original_name":"吉井","name_kana":"よしい","lat":36.256036,"lng":138.984418,"prefecture":10,"lines":[99327],"attr":"eco","postal_code":"370-2132","address":"多野郡吉井町吉井２１９","next":[9932707,9932703,9930621,9930625,9932709,1131812,9932702],"voronoi":{"lat":36.283847,"lng":138.991432,"delta_lat":[0,-123152,-3888,-22686,-8026,169931,-4527],"delta_lng":[0,26665,-1298,-25920,-13727,-2599,9157]}},
    {"code":9932709,"id":"c3fe27","name":"西吉井","name_kana":"にしよしい","lat":36.255753,"lng":138.965914,"prefecture":10,"lines":[99327],"attr":"eco","postal_code":"370-2127","address":"多野郡吉井町長根１３６７-３４","next":[9930625,1133703,9932710,9932708,9932702],"voronoi":{"lat":36.297805,"lng":138.972376,"delta_lat":[0,-1317,-184899,14505,169931],"delta_lng":[0,-12719,-3701,21195,-2599]}},
    {"code":9932710,"id":"1a4d5e","name":"上州新屋","name_kana":"じょうしゅうにいや","lat":36.256036,"lng":138.951776,"prefecture":10,"lines":[99327],"attr":"eco","postal_code":"370-2216","address":"甘楽郡甘楽町金井３４３-４","next":[9932711,1133703,9932709,9930635,9930625],"voronoi":{"lat":36.106614,"lng":138.949401,"delta_lat":[0,-1029,192175,-1272,-184899],"delta_lng":[0,-11301,3200,18358,-3701]}},
    {"code":9932711,"id":"3d7b67","name":"上州福島","name_kana":"じょうしゅうふくしま","lat":36.256408,"lng":138.92944,"prefecture":10,"lines":[99327],"attr":"eco","postal_code":"370-2212","address":"甘楽郡甘楽町福島６６４-５","next":[9932717,9930635,9932716,9932710,1133704,9932712,1133703],"voronoi":{"lat":36.29786,"lng":138.941012,"delta_lat":[0,-3944,-126121,-12228,-54562,4581,192175],"delta_lng":[0,-19693,-20186,627,8782,27557,3200]}},
    {"code":9932712,"id":"abf340","name":"東富岡","name_kana":"ひがしとみおか","lat":36.260816,"lng":138.901898,"prefecture":10,"lines":[99327],"attr":"eco","postal_code":"370-2316","address":"富岡市富岡１９５５-２","next":[9932716,1133704,9932713,9932711],"voronoi":{"lat":36.298454,"lng":138.895535,"delta_lat":[0,-124923,-5737,126121],"delta_lng":[0,4426,1173,20186]}},
    {"code":9932713,"id":"c30859","name":"上州富岡","name_kana":"じょうしゅうとみおか","lat":36.26046,"lng":138.891851,"prefecture":10,"lines":[99327],"attr":"eco","postal_code":"370-2316","address":"富岡市富岡１５９９-３","next":[1133704,9932716,9932714,9932712,1133705],"voronoi":{"lat":36.298454,"lng":138.895535,"delta_lat":[0,-124923,42552,80537,3725],"delta_lng":[0,4426,-11285,-2470,3349]}},
    {"code":9932714,"id":"b265e9","name":"西富岡","name_kana":"にしとみおか","lat":36.260182,"lng":138.882786,"prefecture":10,"lines":[99327],"attr":"eco","postal_code":"370-2343","address":"富岡市七日市６７１-８","next":[9932715,9932713,9932716,1133705],"voronoi":{"lat":36.285866,"lng":138.873802,"delta_lat":[0,-59226,-10556,80537],"delta_lng":[0,10883,3990,-2470]}},
    {"code":9932715,"id":"97f066","name":"上州七日市","name_kana":"じょうしゅうなのかいち","lat":36.258666,"lng":138.874536,"prefecture":10,"lines":[99327],"attr":"eco","postal_code":"370-2343","address":"富岡市七日市１６２５-１","next":[9932716,1133705,9932714],"voronoi":{"lat":36.285866,"lng":138.873802,"delta_lat":[0,-9618,-49608],"delta_lng":[0,-15356,26239]}},
    {"code":9932716,"id":"2cc552","name":"上州一ノ宮","name_kana":"じょうしゅういちのみや","lat":36.253053,"lng":138.863924,"prefecture":10,"lines":[99327],"attr":"eco","postal_code":"370-2452","address":"富岡市一ノ宮２２６-２","next":[9932717,9932712,9932715,9932713,9932711,9932714,1133705],"voronoi":{"lat":36.271023,"lng":138.841851,"delta_lat":[0,-115457,12228,5737,42552,10556,49608],"delta_lng":[0,59910,-627,-1173,-11285,-3990,-26239]}},
    {"code":9932717,"id":"8d1b37","name":"神農原","name_kana":"かのはら","lat":36.242629,"lng":138.843835,"prefecture":10,"lines":[99327],"attr":"cool","postal_code":"370-2455","address":"富岡市神農原６４７-２","next":[9932716,9932718,9932711,9932720,9930635,1133705],"voronoi":{"lat":36.155566,"lng":138.90176,"delta_lat":[0,-54562,-9284,97403,83749,-1849],"delta_lng":[0,8782,-19449,-54782,-12198,17737]}},
    {"code":9932718,"id":"a75f8c","name":"南蛇井","name_kana":"なんじゃい","lat":36.23826,"lng":138.813838,"prefecture":10,"lines":[99327],"attr":"cool","postal_code":"370-2464","address":"富岡市南蛇井４９６-２","next":[9932717,1133705,9932720,1133706,9932719],"voronoi":{"lat":36.26947,"lng":138.78716,"delta_lat":[0,7026,-3623,-83749,12128],"delta_lng":[0,30871,6083,12198,-12405]}},
    {"code":9932719,"id":"64d335","name":"千平","name_kana":"せんだいら","lat":36.230021,"lng":138.798543,"prefecture":10,"lines":[99327],"attr":"cool","postal_code":"370-2464","address":"富岡市南蛇井乙２０３８","next":[1133708,9932720,1133707,9932718,1133706],"voronoi":{"lat":36.201252,"lng":138.823907,"delta_lat":[0,58499,5694,3791,234],"delta_lng":[0,-96349,9956,27480,22166]}},
    {"code":9932720,"id":"aa912e","name":"下仁田","name_kana":"しもにた","lat":36.210484,"lng":138.786681,"prefecture":10,"lines":[99327],"attr":"cool","postal_code":"370-2601","address":"甘楽郡下仁田町下仁田甲３７４-４","next":[1140107,9932717,9932719,9932718,9930635,100903,1140116,1140117,1140112,1140119,1140106,1133708],"voronoi":{"lat":36.241256,"lng":138.679941,"delta_lat":[0,-46906,-11696,-4205,-53373,-20473,-62900,-55365,105382,97403,12128,58499],"delta_lng":[0,-40971,249,413,7919,7398,48647,50073,137424,-54782,-12405,-96349]}}
  ],
  "north":36.32038,
  "south":36.21047,
  "east":139.03818,
  "west":138.78626,
  "polyline_list":[
    {
      "start":"下仁田",
      "end":"高崎",
      "lat":36.21047,
      "lng":138.78626,
      "delta_lat":[0,7,7,4,7,2,2,4,3,2,4,3,2,6,3,6,8,6,9,6,5,6,4,13,19,24,26,13,3,2,4,3,13,13,11,12,6,8,6,5,7,8,5,5,8,13,25,12,13,20,14,22,16,6,7,7,8,8,13,13,27,17,16,13,18,12,11,14,13,13,14,18,9,15,14,20,22,5,11,14,9,6,9,9,7,13,15,19,26,9,30,31,27,14,13,17,27,21,38,23,39,79,28,37,26,11,17,13,20,16,11,11,16,15,13,10,9,8,3,9,9,9,7,7,6,7,6,5,4,5,2,5,4,2,1,1,2,1,5,6,7,10,6,8,9,10,9,11,8,10,9,9,15,67,27,18,8,12,9,15,10,10,8,7,12,11,14,15,12,15,6,5,7,25,42,27,87,17,22,47,21,24,33,30,31,40,22,18,11,20,12,11,15,24,42,42,10,55,11,31,27,36,12,6,5,8,3,9,13,4,3,3,6,11,2,8,6,11,6,11,6,4,9,16,6,7,11,7,4,10,13,2,4,13,5,10,6,6,7,18,7,7,7,21,1,4,12,8,5,6,8,13,6,5,6,8,4,6,3,8,1,0,4,4,3,5,6,7,12,6,11,11,16,38,11,25,132,130,148,69,89,31,55,87,28,15,32,38,26,25,15,15,16,7,11,7,9,6,10,4,6,2,1,0,0,0,0,2,2,3,4,5,10,25,16,15,57,71,69,48,37,30,20,9,6,3,3,10,5,5,2,6,4,3,7,2,6,5,2,3,4,4,7,4,7,2,2,5,5,3,8,5,-1,-4,-6,-14,-4,-20,-39,-67,-35,-46,-44,-25,-49,-39,-28,-9,-11,-5,-3,-5,-3,-1,-1,-1,-3,0,-6,-2,-4,-2,-3,-4,0,-2,-1,-2,0,-1,-5,0,-3,0,-2,-1,-6,-1,0,-1,-1,0,0,-3,-2,-2,0,-1,-1,-3,-2,-4,-3,0,-2,0,-1,-1,-1,-6,-2,-3,-4,0,2,0,4,5,3,2,4,9,9,8,6,10,12,10,17,20,9,22,18,25,18,11,15,23,23,12,32,22,14,15,13,12,16,14,8,7,4,3,4,4,1,-1,-1,-1,-2,0,-2,-2,0,0,1,3,4,10,13,22,10,26,16,4,7,27,9,2,14,4,9,11,25,45,40,29,43,27,35,18,25,18,9,31,32,24,14,21,14,22,12,20,16,22,26,32,18,27,19,26,18,15,15,19,19,18,15,13,2,5,20,48,15,46,18,27,18,42,14,27,40,27,40,39,26,18,25,28,23,31,38,29,50,87,32,18,46,20,19,19,13,25,9,19,24,16,11,8,7,5,16,10,16,17,8,12,15,9,9,12,13,22,15,16,11,9,10,22,29,32,11,0,3,1,45,33,27,18,11,18,34,26,20,12,35,32,15,26,48,14,35,10,11,14,6,29,11,37,12,14,34,38,53,38,50,8,54,40,30,29,31,40,34,22,9,29,30,31,43,26,3,31,20,21,22,15,18,13,15,24,29,29,15,30,46,48,56,78,22,40,25,16,14,18,31,2,17,15,18,24,15,14,13,10,22,42,20,19,22,45,28,34,34,49,27,20,33,21,16,18,26,34,29,38,20,29,25,71,56,7,38,56,25,46,59,18,22,11,30,30,39,32,32,26,22,85,94,96],
      "delta_lng":[0,84,73,44,70,24,16,40,26,30,37,44,40,50,44,48,85,51,62,26,15,23,12,36,54,74,73,44,9,12,8,13,70,43,26,18,5,8,4,5,6,6,4,2,2,2,1,0,-2,-4,-7,-10,-9,-5,-9,-10,-14,-16,-31,-29,-57,-29,-24,-15,-17,-10,-7,-6,-4,-3,0,0,2,3,3,5,3,0,0,0,-1,-2,-2,-4,-5,-8,-13,-24,-35,-12,-38,-38,-34,-16,-13,-17,-25,-17,-29,-16,-26,-48,-14,-19,-10,-4,-5,-3,-4,-1,-1,1,1,3,4,4,4,3,4,7,6,12,7,9,9,17,15,15,18,20,18,21,35,18,19,30,32,25,30,30,27,20,12,9,7,9,6,5,4,3,2,3,2,-1,1,0,0,3,1,6,4,5,4,5,8,9,11,13,16,23,8,10,11,53,92,60,189,38,50,102,44,52,73,61,70,87,45,42,21,38,27,18,24,38,66,67,15,88,17,47,44,68,22,15,20,27,22,54,97,43,35,31,77,98,16,64,73,107,60,114,57,56,89,150,62,81,100,71,37,99,135,18,35,119,51,103,40,66,77,180,63,76,73,200,16,34,116,81,46,47,79,134,54,54,46,81,40,58,31,73,18,17,13,17,11,20,15,15,17,10,10,11,14,27,8,19,95,92,107,48,64,22,41,66,22,11,22,26,18,15,14,12,17,8,11,11,14,15,23,17,21,14,24,17,187,72,63,10,17,10,11,9,14,31,23,15,72,88,84,60,44,42,42,25,29,18,67,217,147,120,82,117,110,118,124,48,178,138,83,92,145,135,171,160,197,67,110,149,179,79,321,117,57,26,33,31,11,34,54,86,48,63,55,36,62,52,38,17,28,13,15,32,73,38,80,71,194,158,347,79,157,149,214,172,53,114,120,101,27,111,164,112,126,42,132,101,261,77,9,31,34,30,45,104,102,49,45,63,67,125,120,217,134,98,36,17,79,118,78,285,79,227,170,115,36,10,67,71,54,35,70,136,140,82,76,90,95,64,106,108,46,109,94,108,76,30,41,52,44,24,56,39,25,26,19,21,23,25,18,13,7,9,15,37,31,46,44,55,109,75,98,62,17,33,29,20,14,32,44,68,31,85,57,17,37,130,43,5,68,29,26,27,53,107,94,66,99,60,83,42,56,42,23,73,74,57,32,50,31,52,25,48,39,50,62,74,44,64,44,59,44,38,32,44,42,44,31,29,4,7,29,65,20,59,26,35,23,56,19,35,54,37,54,51,34,17,19,16,10,10,4,-2,-3,-6,-3,-3,-4,-5,-7,-9,-8,-21,-7,-17,-26,-22,-18,-11,-16,-17,-45,-29,-51,-47,-25,-37,-41,-18,-15,-11,-13,-20,-16,-19,-16,-16,-17,-44,-57,-61,-20,-2,-4,-5,-91,-63,-53,-35,-22,-32,-72,-46,-40,-21,-69,-58,-24,-44,-71,-21,-51,-14,-17,-22,-10,-42,-17,-39,-12,-15,-27,-29,-43,-29,-40,-5,-44,-30,-25,-24,-26,-30,-28,-19,-7,-24,-24,-21,-26,-10,-1,-9,-3,0,0,2,3,4,5,13,20,23,14,28,41,47,51,71,20,38,19,13,8,6,7,0,1,-1,-7,-10,-8,-10,-9,-10,-23,-48,-25,-22,-29,-55,-31,-43,-44,-60,-32,-25,-39,-26,-20,-17,-19,-16,-6,-4,-2,-3,-2,-8,-8,0,-4,-6,-4,-6,-8,-1,1,1,4,8,10,8,5,1,-2,-4,-5,-7]
    }
  ]
}