{
  "code":99329,
  "name":"新京成電鉄線",
  "color":"#EF59A1",
  "symbol":"SL",
  "station_list":[
    {"code":1132009,"id":"fef0df","name":"松戸","name_kana":"まつど","lat":35.784472,"lng":139.900779,"prefecture":12,"numbering":[{"index":"01"}],"lines":[11320,99329],"attr":"cool","postal_code":"271-0092","address":"松戸市松戸"},
    {"code":9932923,"id":"ea3e8d","name":"上本郷","name_kana":"かみほんごう","lat":35.789524,"lng":139.916031,"prefecture":12,"numbering":[{"index":"02"}],"lines":[99329],"attr":"heat","postal_code":"271-0064","address":"松戸市上本郷２６４８-１１"},
    {"code":9932922,"id":"b03895","name":"松戸新田","name_kana":"まつどしんでん","lat":35.790652,"lng":139.922833,"prefecture":12,"numbering":[{"index":"03"}],"lines":[99329],"attr":"heat","postal_code":"270-2241","address":"松戸市松戸新田２６４-２"},
    {"code":9932921,"id":"44e8a6","name":"みのり台","name_kana":"みのりだい","lat":35.789346,"lng":139.929466,"prefecture":12,"numbering":[{"index":"04"}],"lines":[99329],"attr":"heat","postal_code":"270-2241","address":"松戸市松戸新田５７５-１９"},
    {"code":9932920,"id":"b64681","name":"八柱","name_kana":"やばしら","lat":35.791394,"lng":139.937362,"prefecture":12,"numbering":[{"index":"05"}],"lines":[99329],"attr":"heat","postal_code":"270-2253","address":"松戸市日暮３７１-４"},
    {"code":9932919,"id":"9bfa9c","name":"常盤平","name_kana":"ときわだいら","lat":35.803191,"lng":139.949522,"prefecture":12,"numbering":[{"index":"06"}],"lines":[99329],"attr":"heat","postal_code":"270-2261","address":"松戸市常盤平１-２９"},
    {"code":9932918,"id":"efd056","name":"五香","name_kana":"ごこう","lat":35.797281,"lng":139.965796,"prefecture":12,"numbering":[{"index":"07"}],"lines":[99329],"attr":"cool","postal_code":"270-2251","address":"松戸市金ケ作４０８-８"},
    {"code":9932917,"id":"bd4bcf","name":"元山(千葉)","name_kana":"もとやま","lat":35.790229,"lng":139.975831,"prefecture":12,"numbering":[{"index":"08"}],"lines":[99329],"attr":"cool","postal_code":"270-2212","address":"松戸市五香南１-５-１"},
    {"code":9932916,"id":"57894f","name":"くぬぎ山","name_kana":"くぬぎやま","lat":35.782343,"lng":139.975707,"prefecture":12,"numbering":[{"index":"09"}],"lines":[99329],"attr":"cool","postal_code":"273-0128","address":"鎌ケ谷市くぬぎ山５-１-６"},
    {"code":9932915,"id":"1092e6","name":"北初富","name_kana":"きたはつとみ","lat":35.777237,"lng":139.992325,"prefecture":12,"numbering":[{"index":"10"}],"lines":[99329],"attr":"cool","postal_code":"273-0111","address":"鎌ケ谷市北中沢１-１８-２５"},
    {"code":2100430,"id":"a3a320","name":"新鎌ヶ谷","name_kana":"しんかまがや","lat":35.780221,"lng":139.999455,"prefecture":12,"numbering":[{"index":"11"}],"lines":[21004,23006,99329,99340],"attr":"cool","postal_code":"273-0107","address":"千葉県鎌ケ谷市新鎌ケ谷一丁目13-1"},
    {"code":9932913,"id":"9038f7","name":"初富","name_kana":"はつとみ","lat":35.771992,"lng":140.000493,"prefecture":12,"numbering":[{"index":"12"}],"lines":[99329],"attr":"eco","postal_code":"273-0124","address":"鎌ケ谷市中央１-２-１９"},
    {"code":9932912,"id":"c042cf","name":"鎌ヶ谷大仏","name_kana":"かまがやだいぶつ","lat":35.757827,"lng":140.013823,"prefecture":12,"numbering":[{"index":"13"}],"lines":[99329],"attr":"eco","postal_code":"273-0105","address":"千葉県鎌ケ谷市鎌ケ谷1丁目8番1号"},
    {"code":9932911,"id":"65a262","name":"二和向台","name_kana":"ふたわむこうだい","lat":35.753825,"lng":140.023731,"prefecture":12,"numbering":[{"index":"14"}],"lines":[99329],"attr":"eco","postal_code":"274-0805","address":"船橋市二和東５-３８-１"},
    {"code":9932910,"id":"b1447b","name":"三咲","name_kana":"みさき","lat":35.749217,"lng":140.028514,"prefecture":12,"numbering":[{"index":"15"}],"lines":[99329],"attr":"eco","postal_code":"274-0813","address":"船橋市南三咲２-２-１"},
    {"code":9932909,"id":"b56eee","name":"滝不動","name_kana":"たきふどう","lat":35.737957,"lng":140.02622,"prefecture":12,"numbering":[{"index":"16"}],"lines":[99329],"attr":"eco","postal_code":"274-0813","address":"船橋市南三咲３-２３-１"},
    {"code":9932908,"id":"19777e","name":"高根公団","name_kana":"たかねこうだん","lat":35.730436,"lng":140.029382,"prefecture":12,"numbering":[{"index":"17"}],"lines":[99329],"attr":"eco","postal_code":"274-0065","address":"船橋市高根台１-６-１"},
    {"code":9932907,"id":"bef792","name":"高根木戸","name_kana":"たかねきど","lat":35.726625,"lng":140.034923,"prefecture":12,"numbering":[{"index":"18"}],"lines":[99329],"attr":"eco","postal_code":"274-0063","address":"船橋市習志野台１-１-３"},
    {"code":9932906,"id":"786b49","name":"北習志野","name_kana":"きたならしの","lat":35.721328,"lng":140.042195,"prefecture":12,"numbering":[{"index":"19"}],"lines":[99329,99338],"attr":"eco","postal_code":"274-0063","address":"船橋市習志野台３-１-１"},
    {"code":9932905,"id":"a0c1bf","name":"習志野","name_kana":"ならしの","lat":35.715293,"lng":140.042787,"prefecture":12,"numbering":[{"index":"20"}],"lines":[99329],"attr":"eco","postal_code":"274-0063","address":"船橋市習志野台４-１-９"},
    {"code":9932904,"id":"7e7aa6","name":"薬園台","name_kana":"やくえんだい","lat":35.710271,"lng":140.037599,"prefecture":12,"numbering":[{"index":"21"}],"lines":[99329],"attr":"eco","postal_code":"274-0077","address":"船橋市薬円台６-１-１"},
    {"code":9932903,"id":"7e7db4","name":"前原","name_kana":"まえばら","lat":35.700666,"lng":140.027542,"prefecture":12,"numbering":[{"index":"22"}],"lines":[99329],"attr":"eco","postal_code":"274-0825","address":"船橋市前原西７-１７-２１"},
    {"code":9932902,"id":"e2f955","name":"新津田沼","name_kana":"しんつだぬま","lat":35.690184,"lng":140.023745,"prefecture":12,"numbering":[{"index":"23"}],"lines":[99329],"attr":"eco","postal_code":"275-0016","address":"習志野市津田沼１-１０-３５"},
    {"code":2300126,"id":"28818e","name":"京成津田沼","name_kana":"けいせいつだぬま","lat":35.68364,"lng":140.024823,"prefecture":12,"numbering":[{"index":"24"}],"lines":[23001,23004,99329],"attr":"heat","postal_code":"275-0016","address":"習志野市津田沼３-１-１"}
  ],
  "north":35.80406,
  "south":35.68349,
  "east":140.04378,
  "west":139.90039,
  "polyline_list":[
    {
      "start":"京成津田沼",
      "end":"松戸",
      "lat":35.68349,
      "lng":140.02558,
      "delta_lat":[0,30,6,14,25,12,30,32,24,20,15,17,15,22,12,11,4,9,4,10,2,6,18,12,15,16,15,15,17,32,24,16,11,18,22,12,20,16,13,11,18,9,38,9,11,20,21,19,4,24,9,21,23,27,32,14,39,9,36,39,39,36,38,54,37,2,127,79,33,28,43,38,23,28,36,61,43,62,47,75,57,38,62,46,38,17,38,97,161,65,18,163,14,188,33,18,12,21,27,34,18,98,72,80,50,34,36,21,29,21,7,29,18,16,12,48,42,63,126,48,50,29,32,86,11,77,74,27,35,101,76,63,85,27,78,48,38,20,42,18,29,32,22,29,27,20,23,32,27,18,21,24,30,24,45,85,47,159,62,54,34,32,33,33,34,35,41,146,96,140,47,36,92,67,1,74,58,39,28,17,16,27,32,42,47,9,56,94,11,77,69,26,63,9,36,63,0,26,25,21,92,84,110,109,18,157,12,181,24,106,83,42,38,38,30,26,100,74,76,173,174,27,27,28,24,18,40,24,7,21,11,2,-4,-19,-6,-3,-35,-9,-27,-21,-71,-17,-59,-14,-17,-32,-55,-5,24,53,24,110,132,29,13,17,16,28,24,30,6,36,66,92,35,126,75,181,4,3,127,25,31,5,35,14,13,30,17,65,10,57,40,18,10,56,64,18,13,26,67,91,59,24,61,99,145,67,46,13,43,39,13,36,90,104,30,0,2,-5,-19,-16,-24,-11,-32,-14,-74,-35,-43,-27,-13,-108,-308,-101,-48,-178,-43,-22,-41,-22,-36,-54,-25,-40,-17,-72,-8,-39,-12,1,2,25,5,100,5,17,21,2,-9,-23,-20,-51,-12,-21,-46,-51,-41,-15,-2,8,41,11,36,0,0,-18,-3,-26,-9,-16,-38,-35,-25,-56,-24,-66,-66,-171],
      "delta_lng":[0,-147,-30,-75,-27,-11,-17,-17,-2,1,4,8,12,25,21,36,28,100,25,28,8,8,26,19,20,20,13,11,12,14,6,1,0,-6,-13,-11,-27,-29,-31,-35,-75,-29,-103,-22,-18,-20,-16,-9,0,-3,0,1,7,21,35,19,63,12,49,46,43,25,15,5,0,0,-11,-6,1,5,16,23,21,33,48,100,55,67,46,61,52,37,63,50,40,18,44,110,188,75,20,191,15,216,39,19,10,15,13,11,7,30,22,24,20,9,5,4,0,-4,-1,-9,-8,-9,-9,-45,-38,-75,-156,-60,-65,-36,-40,-125,-18,-121,-121,-49,-52,-151,-103,-82,-115,-39,-104,-65,-50,-21,-40,-14,-19,-16,-8,-8,-5,-4,0,1,4,4,9,13,17,18,33,72,41,133,53,44,24,12,6,0,-3,-3,-6,-33,-19,-31,-12,-7,-18,-17,0,-30,-30,-32,-28,-21,-25,-54,-74,-103,-117,-24,-134,-238,-25,-192,-169,-62,-152,-20,-83,-147,-3,-53,-34,-20,-94,-80,-100,-106,-18,-145,-11,-173,-21,-100,-63,-23,-8,-3,7,6,40,31,31,71,67,7,5,0,-5,-9,-28,-34,-10,-37,-53,-29,-34,-82,-20,-11,-121,-31,-101,-71,-221,-55,-179,-51,-59,-113,-195,-30,-104,-159,-65,-332,-393,-46,-16,-15,-11,-10,-6,-4,-1,2,14,29,9,31,22,50,0,0,26,-1,-7,0,-16,-11,-12,-41,-22,-86,-15,-86,-83,-59,-35,-175,-192,-41,-28,-35,-59,-46,-30,-12,-30,-42,-60,-38,-35,-14,-40,-61,-24,-100,-300,-323,-124,-29,-28,-43,-115,-72,-111,-41,-109,-49,-259,-92,-64,-26,-10,-90,-251,-70,-23,-80,-15,-8,-18,-9,-27,-54,-37,-65,-58,-296,-32,-168,-96,-29,-21,-128,-23,-478,-20,-120,-159,-115,-48,-82,-30,-72,-17,-33,-67,-83,-95,-86,-69,-52,-175,-38,-146,-37,-35,-126,-24,-174,-42,-49,-68,-35,-13,-22,-9,-26,-19,-89]
    }
  ]
}