{
  "code":99320,
  "name":"江ノ島電鉄線",
  "color":"#005B1A",
  "symbol":"EN",
  "station_list":[
    {"code":1130108,"id":"c75cd8","name":"藤沢","name_kana":"ふじさわ","lat":35.338882,"lng":139.487293,"prefecture":14,"numbering":[{"index":"01"}],"lines":[11301,25002,99320],"attr":"cool","postal_code":"251-0052","address":"藤沢市藤沢","next":[9932605,9932604,9932603,9932002,2500212,2500213,1130107,2500215],"voronoi":{"lat":35.33221,"lng":139.499344,"delta_lat":[0,3211,11704,10082,7136,-4900,-19884,-2077],"delta_lng":[0,3667,2228,300,-2375,-8332,-16452,1355]}},
    {"code":9932002,"id":"ac28eb","name":"石上","name_kana":"いしがみ","lat":35.332482,"lng":139.485572,"prefecture":14,"numbering":[{"index":"02"}],"lines":[99320],"attr":"heat","postal_code":"251-0024","address":"藤沢市鵠沼橘１-９-３","next":[1130108,9932605,2500215,9932606,9932003],"voronoi":{"lat":35.330267,"lng":139.480697,"delta_lat":[0,7216,-5272,-2823,-330],"delta_lng":[0,-961,19609,-1968,-480]}},
    {"code":9932003,"id":"a40711","name":"柳小路","name_kana":"やなぎこうじ","lat":35.327352,"lng":139.485189,"prefecture":14,"numbering":[{"index":"03"}],"lines":[99320],"attr":"heat","postal_code":"251-0031","address":"藤沢市鵠沼藤が谷４-８-１１","next":[9932606,9932004,9932002,2500215],"voronoi":{"lat":35.32643,"lng":139.479215,"delta_lat":[0,-4699,7327,1209],"delta_lng":[0,10873,6809,-16200]}},
    {"code":9932004,"id":"2f386e","name":"鵠沼","name_kana":"くげぬま","lat":35.321447,"lng":139.482637,"prefecture":14,"numbering":[{"index":"04"}],"lines":[99320],"attr":"heat","postal_code":"251-0038","address":"藤沢市鵠沼松が岡１-１-１","next":[9932607,9932606,2500216,9932003,2500215,9932005],"voronoi":{"lat":35.321091,"lng":139.489888,"delta_lat":[0,640,4699,-1868,-6856,1157],"delta_lng":[0,200,-10873,-2504,422,10895]}},
    {"code":9932005,"id":"378668","name":"湘南海岸公園","name_kana":"しょうなんかいがんこうえん","lat":35.315203,"lng":139.4833,"prefecture":14,"numbering":[{"index":"05"}],"lines":[99320],"attr":"heat","postal_code":"251-0032","address":"藤沢市片瀬４-９-２２","next":[9932006,9932607,2500217,9932004,2500216,9932608],"voronoi":{"lat":35.318862,"lng":139.488027,"delta_lat":[0,-1157,-4917,-603,20,4194],"delta_lng":[0,-10895,-2254,9661,21,3113]}},
    {"code":9932006,"id":"1e0621","name":"江ノ島","name_kana":"えのしま","lat":35.311003,"lng":139.487581,"prefecture":14,"numbering":[{"index":"06"}],"lines":[99320],"attr":"heat","postal_code":"251-0035","address":"藤沢市片瀬海岸１-４-７","next":[9932608,9932005,9932007,2500217],"voronoi":{"lat":35.312185,"lng":139.48454,"delta_lat":[0,20,-1564,-6985],"delta_lng":[0,21,6347,-3325]}},
    {"code":9932007,"id":"5fd6e6","name":"腰越","name_kana":"こしごえ","lat":35.308287,"lng":139.493286,"prefecture":14,"numbering":[{"index":"07"}],"lines":[99320],"attr":"heat","postal_code":"248-0033","address":"鎌倉市腰越２-１４-１４","next":[9932608,9932607,9932008,2500217,9932006,9932606],"voronoi":{"lat":35.231119,"lng":139.480169,"delta_lat":[0,72538,6985,66,1598,-516],"delta_lng":[0,7413,3325,44,5227,1674]}},
    {"code":9932008,"id":"169506","name":"鎌倉高校前","name_kana":"かまくらこうこうまえ","lat":35.306698,"lng":139.500535,"prefecture":14,"numbering":[{"index":"08"}],"lines":[99320],"attr":"eco","postal_code":"248-0033","address":"鎌倉市腰越１-１-２５","next":[9932606,2700509,9932605,9932009,9932007,9932010,2500217],"voronoi":{"lat":35.31179,"lng":139.497852,"delta_lat":[0,1542,-1238,-102324,-40225,-30739,92313],"delta_lng":[0,3632,4101,-4867,-4501,-29931,13883]}},
    {"code":9932009,"id":"e3a07b","name":"七里ヶ浜","name_kana":"しちりがはま","lat":35.306243,"lng":139.510101,"prefecture":14,"numbering":[{"index":"09"}],"lines":[99320],"attr":"eco","postal_code":"248-0026","address":"神奈川県鎌倉市七里ガ浜一丁目9-5","next":[9932010,9932008,9932605,9932011],"voronoi":{"lat":35.317433,"lng":139.517817,"delta_lat":[0,-5340,-102324,106530],"delta_lng":[0,-12231,-4867,17286]}},
    {"code":9932010,"id":"7d5d3c","name":"稲村ヶ崎","name_kana":"いなむらがさき","lat":35.30426,"lng":139.522322,"prefecture":14,"numbering":[{"index":"10"}],"lines":[99320],"attr":"eco","postal_code":"248-0024","address":"神奈川県鎌倉市稲村ガ崎二丁目8-1","next":[9932011,2700404,9932009,9932012,2700509,9932008],"voronoi":{"lat":35.316299,"lng":139.518004,"delta_lat":[0,-24329,-18908,-69872,-33646,40225],"delta_lng":[0,19230,9566,-12124,-38459,4501]}},
    {"code":9932011,"id":"4b9365","name":"極楽寺","name_kana":"ごくらくじ","lat":35.309318,"lng":139.528721,"prefecture":14,"numbering":[{"index":"11"}],"lines":[99320],"attr":"cool","postal_code":"248-0023","address":"鎌倉市極楽寺３-７-４","next":[9932010,9932012,9932604,9932009,9932605],"voronoi":{"lat":35.317433,"lng":139.517817,"delta_lat":[0,-1134,-24329,31305,-4442],"delta_lng":[0,188,19230,-8185,-10654]}},
    {"code":9932012,"id":"315b63","name":"長谷(神奈川)","name_kana":"はせ","lat":35.311265,"lng":139.536168,"prefecture":14,"numbering":[{"index":"12"}],"lines":[99320],"attr":"cool","postal_code":"248-0016","address":"鎌倉市長谷２-１４-１０","next":[9932011,9932013,9932010,1130813,9932603,2700404,1130811,9932604],"voronoi":{"lat":35.323275,"lng":139.52905,"delta_lat":[0,-31305,-18908,2316,3179,47741,373,-413],"delta_lng":[0,8185,9566,895,1047,-14069,-1079,-812]}},
    {"code":9932013,"id":"67b4a7","name":"由比ヶ浜","name_kana":"ゆいがはま","lat":35.312857,"lng":139.54157,"prefecture":14,"numbering":[{"index":"13"}],"lines":[99320],"attr":"cool","postal_code":"248-0014","address":"神奈川県鎌倉市由比ガ浜三丁目10-13","next":[9932014,1130811,9932012,1130813,1130812],"voronoi":{"lat":35.282608,"lng":139.550448,"delta_lat":[0,-4050,47741,-700,-2745],"delta_lng":[0,-1706,-14069,4776,1840]}},
    {"code":9932014,"id":"93cb31","name":"和田塚","name_kana":"わだづか","lat":35.31372,"lng":139.545362,"prefecture":14,"numbering":[{"index":"14"}],"lines":[99320],"attr":"cool","postal_code":"248-0014","address":"鎌倉市由比ガ浜３-４-１","next":[9932013,1130813,1130812],"voronoi":{"lat":35.322853,"lng":139.541289,"delta_lat":[0,-40246,20800],"delta_lng":[0,9159,10313]}},
    {"code":1130812,"id":"7e2761","name":"鎌倉","name_kana":"かまくら","lat":35.318793,"lng":139.550428,"prefecture":14,"numbering":[{"index":"15"}],"lines":[11308,99320],"attr":"eco","postal_code":"248-0006","address":"鎌倉市小町１丁目","next":[9932013,2700403,1130811,1130813,9932014],"voronoi":{"lat":35.320833,"lng":139.574145,"delta_lat":[0,16116,-11350,-2745,-19446],"delta_lng":[0,4760,-39456,1840,19472]}}
  ],
  "north":35.33772,
  "south":35.30397,
  "east":139.55028,
  "west":139.48189,
  "polyline_list":[
    {
      "start":"藤沢",
      "end":"鎌倉",
      "lat":35.33772,
      "lng":139.48743,
      "delta_lat":[0,-32,-18,-21,-21,-14,-4,-32,-18,-17,-44,-144,-2,-128,-61,-73,-57,-68,-97,-82,-86,-46,-32,-27,-40,-65,-67,-29,-29,-21,-27,-105,-100,-48,-38,-13,-13,-27,-14,-13,-14,-16,-14,-17,-22,-24,-54,-52,-18,-13,-16,-11,-15,-23,-25,-13,-30,-17,-9,-20,-41,-28,-19,-8,-58,-16,-12,-30,-15,-17,-27,-65,-38,-15,-18,-23,-20,-12,-21,-10,-5,-4,-1,1,3,1,-2,-16,-13,-22,-69,-60,-24,-12,-14,-22,-36,-5,-7,-20,-51,-7,-8,-5,-3,0,8,2,1,-1,-3,-2,-2,-2,-3,-2,-2,-3,-1,-5,-11,-2,-3,-5,-3,-3,0,3,-1,-8,-10,-7,-4,-2,-2,0,-1,-2,2,1,2,8,8,5,3,3,2,2,1,-3,-3,-6,-12,-13,-15,-13,-11,-12,-11,-9,-11,-16,-13,-30,-44,-10,-1,4,4,-4,-2,-1,-8,-2,-2,2,-3,1,6,14,7,1,4,1,0,3,1,1,6,12,13,13,18,38,16,26,23,24,21,9,18,18,22,40,16,29,20,18,16,37,15,33,25,16,11,13,11,8,12,16,11,14,2,6,7,0,0,3,4,9,20,15,5,14,11,13,16,20,9,23,24,6,14,12,15,18,17,11,3,6,3,9,12,14,15,19,17,15,15,19,28,50,24,23,9,9,6,11,14,17,16,23,65,38],
      "delta_lng":[0,-10,-8,-10,-13,-8,-5,-27,-12,-7,-12,-35,-1,-29,-14,-16,-10,-8,-2,0,8,-1,-4,-5,-14,-27,-30,-16,-28,-19,-14,-44,-43,-22,-16,3,13,29,15,9,5,4,0,-2,-5,-14,-40,-39,-10,-8,-5,-2,-3,-1,1,4,14,10,9,25,60,40,21,7,39,16,15,48,19,17,20,43,24,10,24,33,29,21,48,24,21,31,25,24,14,11,11,32,19,31,102,88,36,23,34,47,81,13,9,14,33,5,13,15,18,32,60,28,23,21,56,18,30,31,86,77,54,61,26,50,83,22,34,60,22,41,28,32,14,32,34,29,23,25,55,27,53,37,48,23,14,26,21,14,6,8,8,9,9,31,6,9,9,9,7,9,9,8,13,22,31,42,46,97,145,43,12,22,31,30,24,16,46,27,44,61,49,56,19,34,25,2,27,34,53,56,32,25,28,47,27,20,23,37,18,27,30,33,34,14,14,10,8,9,10,21,21,20,16,36,18,42,38,32,24,43,37,22,38,47,44,45,6,49,84,30,27,28,15,44,71,56,27,44,38,49,45,31,17,93,98,35,53,59,63,79,72,53,14,24,18,26,24,26,26,32,23,23,21,26,41,73,36,35,10,13,5,8,7,6,0,-4,-14,0]
    }
  ]
}