{
  "code":99328,
  "name":"上毛電気鉄道",
  "station_list":[
    {"code":9932801,"id":"54f424","name":"中央前橋","name_kana":"ちゅうおうまえばし","lat":36.390915,"lng":139.07531,"prefecture":10,"lines":[99328],"attr":"heat","postal_code":"371-0016","address":"前橋市城東町４-１-１"},
    {"code":9932802,"id":"f028a7","name":"城東","name_kana":"じょうとう","lat":36.391212,"lng":139.081124,"prefecture":10,"lines":[99328],"attr":"heat","postal_code":"371-0016","address":"前橋市城東町４-２３-１"},
    {"code":9932803,"id":"0df6a9","name":"三俣","name_kana":"みつまた","lat":36.393748,"lng":139.089192,"prefecture":10,"lines":[99328],"attr":"heat","postal_code":"371-0018","address":"前橋市三俣町１-３２-５"},
    {"code":9932804,"id":"a624e5","name":"片貝","name_kana":"かたかい","lat":36.393982,"lng":139.095597,"prefecture":10,"lines":[99328],"attr":"heat","postal_code":"371-0013","address":"前橋市西片貝町１-２８０-５"},
    {"code":9932805,"id":"5a19b3","name":"上泉","name_kana":"かみいずみ","lat":36.39419,"lng":139.106598,"prefecture":10,"lines":[99328],"attr":"heat","postal_code":"371-0007","address":"前橋市上泉町２８１"},
    {"code":9932806,"id":"13f219","name":"赤坂(群馬)","name_kana":"あかさか","lat":36.39721,"lng":139.117324,"prefecture":10,"lines":[99328],"attr":"heat","postal_code":"371-0007","address":"前橋市上泉町３４４４-３"},
    {"code":9932807,"id":"e53d31","name":"心臓血管センター","name_kana":"しんぞうけっかんせんたー","lat":36.40559,"lng":139.129614,"prefecture":10,"lines":[99328],"attr":"heat","postal_code":"371-0004","address":"前橋市亀泉町６-２"},
    {"code":9932808,"id":"812c5e","name":"江木","name_kana":"えぎ","lat":36.407209,"lng":139.133391,"prefecture":10,"lines":[99328],"attr":"eco","postal_code":"371-0002","address":"前橋市江木町１２２３-３"},
    {"code":9932809,"id":"6709f8","name":"大胡","name_kana":"おおご","lat":36.412673,"lng":139.156263,"prefecture":10,"lines":[99328],"attr":"eco","postal_code":"371-0232","address":"前橋市茂木町４１-２"},
    {"code":9932810,"id":"d47864","name":"樋越","name_kana":"ひごし","lat":36.415459,"lng":139.173308,"prefecture":10,"lines":[99328],"attr":"eco","postal_code":"371-0221","address":"前橋市樋越町１９１-４"},
    {"code":9932811,"id":"7ed930","name":"北原","name_kana":"きたはら","lat":36.413681,"lng":139.184604,"prefecture":10,"lines":[99328],"attr":"eco","postal_code":"371-0216","address":"前橋市粕川町込皆戸３８-３"},
    {"code":9932812,"id":"ad4f28","name":"新屋(群馬)","name_kana":"あらや","lat":36.413704,"lng":139.19657,"prefecture":10,"lines":[99328],"attr":"eco","postal_code":"371-0206","address":"前橋市粕川町新屋２３３-２"},
    {"code":9932813,"id":"bd1e7e","name":"粕川","name_kana":"かすかわ","lat":36.416818,"lng":139.210943,"prefecture":10,"lines":[99328],"attr":"eco","postal_code":"371-0217","address":"前橋市粕川町西田面２９３-２"},
    {"code":9932814,"id":"b89ce3","name":"膳","name_kana":"ぜん","lat":36.416821,"lng":139.22197,"prefecture":10,"lines":[99328],"attr":"eco","postal_code":"371-0204","address":"前橋市粕川町膳５６８-３"},
    {"code":9932815,"id":"424808","name":"新里(群馬)","name_kana":"にいさと","lat":36.418543,"lng":139.236949,"prefecture":10,"lines":[99328],"attr":"eco","postal_code":"376-0124","address":"桐生市新里町小林１２６-１"},
    {"code":9932816,"id":"646048","name":"新川(群馬)","name_kana":"にっかわ","lat":36.418288,"lng":139.257536,"prefecture":10,"lines":[99328],"attr":"eco","postal_code":"376-0121","address":"桐生市新里町新川２０４２-３"},
    {"code":9932817,"id":"4a7acd","name":"東新川(群馬)","name_kana":"ひがしにっかわ","lat":36.422002,"lng":139.267591,"prefecture":10,"lines":[99328],"attr":"eco","postal_code":"376-0121","address":"桐生市新里町新川３９０６"},
    {"code":2101108,"id":"178230","name":"赤城","name_kana":"あかぎ","lat":36.425615,"lng":139.276784,"prefecture":10,"lines":[21011,99328],"attr":"eco","postal_code":"376-0101","address":"みどり市大間々町大間々２４４５"},
    {"code":9932823,"id":"938b8d","name":"桐生球場前","name_kana":"きりゅうきゅうじょうまえ","lat":36.41928,"lng":139.297864,"prefecture":10,"lines":[99328],"attr":"cool","postal_code":"376-0011","address":"桐生市相生町２-５３２-３"},
    {"code":9932819,"id":"0ef7a6","name":"天王宿","name_kana":"てんのうじゅく","lat":36.414975,"lng":139.308054,"prefecture":10,"lines":[99328],"attr":"cool","postal_code":"376-0011","address":"桐生市相生町２-４７７-３"},
    {"code":9932820,"id":"fa0390","name":"富士山下","name_kana":"ふじやました","lat":36.413992,"lng":139.315828,"prefecture":10,"lines":[99328],"attr":"cool","postal_code":"376-0011","address":"桐生市相生町２-２７４-７"},
    {"code":9932821,"id":"0d88a0","name":"丸山下","name_kana":"まるやました","lat":36.416842,"lng":139.32128,"prefecture":10,"lines":[99328],"attr":"cool","postal_code":"376-0042","address":"桐生市堤町３-９-１"},
    {"code":9932822,"id":"8f75f7","name":"西桐生","name_kana":"にしきりゅう","lat":36.414142,"lng":139.33269,"prefecture":10,"lines":[99328],"attr":"cool","postal_code":"376-0046","address":"桐生市宮前町２-１-３３"}
  ],
  "north":36.4275,
  "south":36.38899,
  "east":139.33364,
  "west":139.07514,
  "polyline_list":[
    {
      "start":"中央前橋",
      "end":"西桐生",
      "lat":36.39113,
      "lng":139.07514,
      "delta_lat":[0,-40,-21,-44,-47,-25,-17,-8,-6,-3,-2,0,2,2,5,5,5,9,10,9,9,12,13,18,45,24,21,10,12,9,22,45,60,41,35,14,9,7,4,4,3,2,0,4,1,1,3,0,0,6,0,3,2,3,0,3,0,1,4,4,0,5,1,3,1,2,4,2,0,0,2,1,3,1,2,2,3,2,5,13,13,9,11,12,23,13,61,35,47,20,54,16,18,76,42,83,47,22,52,18,23,14,12,18,20,40,5,91,43,81,33,23,16,38,66,30,16,15,24,28,7,24,23,15,18,56,46,48,41,44,5,4,51,21,22,27,49,17,24,10,25,29,22,10,27,26,14,11,11,13,18,16,26,14,7,7,6,0,-4,-7,-27,-15,-75,-39,-28,-13,-16,-12,-6,-20,-16,-19,-15,-9,-3,3,5,9,10,31,34,16,4,27,33,36,36,38,63,13,13,31,18,30,27,17,14,14,6,3,0,-1,-4,-4,-19,-26,-33,-14,-10,-1,1,3,5,9,10,17,4,24,22,23,18,4,16,15,10,6,2,0,-2,-4,-4,-9,-8,-3,-1,-6,-2,-14,-3,1,5,9,12,17,30,39,45,11,8,3,6,1,0,0,-2,-3,-2,-3,-9,-3,-7,-8,-8,-20,-13,-18,-16,-21,-16,-13,-9,-8,-5,-5,-3,-5,-1,-1,2,2,6,9,8,11,24,25,24,31,20,8,105,73,21,36,116,17,53,27,68,2,52,23,11,146,13,5,2,-2,-5,-20,-11,-17,-17,-21,-33,-13,-126,-156,-58,-188,-74,-29,-13,-28,-25,-13,-24,-20,-16,-13,-10,-9,-8,-5,-9,-11,-9,-6,-8,-6,-10,-17,-25,-53,-31,-32,-42,-26,-37,-36,-31,-58,-25,-7,-12,-8,-4,-5,-2,1,8,7,8,7,16,20,25,42,9,107,38,23,8,10,13,7,11,9,9,11,6,1,0,0,-1,-4,-6,-22,-16,-16,-21,-19,-27,-16,-12,-21,-7,-5,-8,-8,-8,-9,-9,-5,-11,-5,-6,-6,-10,-5],
      "delta_lng":[0,45,24,50,54,31,25,19,15,22,26,22,28,18,26,18,14,13,16,12,12,10,10,11,24,15,16,7,10,9,27,79,109,70,65,35,19,22,22,23,24,20,19,110,90,27,86,45,61,122,79,82,77,76,26,72,16,49,114,174,5,174,40,98,19,87,143,90,88,53,148,92,136,47,77,70,23,17,30,40,30,18,18,20,26,15,55,34,41,18,51,14,15,70,40,74,46,23,60,24,33,22,17,29,36,81,14,178,88,166,68,48,29,80,138,63,41,43,81,111,31,96,92,64,79,224,182,197,164,175,22,15,205,81,93,131,242,89,120,54,126,148,108,50,133,130,80,48,31,26,33,32,53,35,30,35,37,31,44,57,170,87,460,234,173,82,100,82,32,121,99,116,93,67,55,50,71,58,57,136,163,78,21,118,152,169,168,174,290,59,63,137,84,136,117,79,79,62,35,29,26,63,30,27,72,87,130,59,83,34,28,29,34,44,45,83,24,102,95,114,82,19,88,90,90,54,72,40,30,44,45,118,93,42,13,55,37,145,52,27,32,42,40,37,48,61,70,13,21,17,24,21,25,24,28,19,15,27,65,62,28,41,48,119,81,107,92,127,92,81,48,49,28,25,26,34,26,28,31,36,28,34,24,26,57,47,50,64,40,21,204,145,40,71,236,40,134,80,193,3,152,72,30,397,71,25,38,32,37,89,39,45,32,37,54,21,211,258,92,304,122,37,22,46,41,21,40,35,30,32,28,30,34,22,35,54,43,40,38,20,27,43,50,107,60,60,85,51,72,67,67,113,46,16,31,23,27,31,33,27,47,27,27,18,31,38,35,58,13,144,55,32,11,15,21,12,21,19,27,38,30,21,22,20,32,22,34,82,53,51,63,62,87,50,40,77,27,22,37,25,42,49,37,38,72,45,40,46,75,42]
    }
  ]
}