{
  "code":99321,
  "name":"埼玉新都市交通伊奈線",
  "color":"#FFFF00",
  "station_list":[
    {"code":100403,"id":"d73fff","name":"大宮(埼玉)","name_kana":"おおみや","lat":35.906439,"lng":139.62405,"prefecture":11,"lines":[1004,1005,11319,11321,11322,11323,11328,11332,11333,21004,99321],"attr":"heat","postal_code":"330-0853","address":"さいたま市大宮区錦町","next":[1132211,2100403,9932102,1132117,2100402,1132118,1131905],"voronoi":{"lat":35.898754,"lng":139.626974,"delta_lat":[0,-6805,-743,11713,9263,-1138,-2075],"delta_lng":[0,-23992,-9344,4202,20487,18057,4055]}},
    {"code":9932102,"id":"85a5bf","name":"鉄道博物館","name_kana":"てつどうはくぶつかん","lat":35.920271,"lng":139.617796,"prefecture":11,"lines":[99321],"attr":"cool","postal_code":"330-0852","address":"さいたま市大宮区大成町３-８９","next":[2100402,100403,1132202,1132211,2100403,1131907,9932103],"voronoi":{"lat":35.927721,"lng":139.613699,"delta_lat":[0,-15931,-8871,9263,13673,1243,1300],"delta_lng":[0,-15385,-474,20487,6138,-285,-1063]}},
    {"code":9932103,"id":"88e3a2","name":"加茂宮","name_kana":"かものみや","lat":35.93568,"lng":139.616688,"prefecture":11,"lines":[99321],"attr":"cool","postal_code":"331-0812","address":"さいたま市北区宮原町１-３０５","next":[1132307,1131907,9932104,1132202,9932102],"voronoi":{"lat":35.927721,"lng":139.613699,"delta_lat":[0,6953,5098,-2184,-9190],"delta_lng":[0,-2712,3225,11095,-2190]}},
    {"code":9932104,"id":"411ae8","name":"東宮原","name_kana":"ひがしみやはら","lat":35.94262,"lng":139.618054,"prefecture":11,"lines":[99321],"attr":"cool","postal_code":"331-0812","address":"さいたま市北区宮原町２-１０９-７","next":[9932105,1131907,1132307,9932103,1131908],"voronoi":{"lat":35.937588,"lng":139.625308,"delta_lat":[0,2184,7775,-3320,-718],"delta_lng":[0,-11095,-2137,17499,198]}},
    {"code":9932105,"id":"71dbcf","name":"今羽","name_kana":"こんば","lat":35.949941,"lng":139.619443,"prefecture":11,"lines":[99321],"attr":"cool","postal_code":"331-0811","address":"さいたま市北区吉野町１-２５-１","next":[1132307,9932104,9932106,1131908],"voronoi":{"lat":35.956923,"lng":139.602983,"delta_lat":[0,-9376,-3320,7317],"delta_lng":[0,9092,17499,418]}},
    {"code":9932106,"id":"e55f86","name":"吉野原","name_kana":"よしのはら","lat":35.957065,"lng":139.620862,"prefecture":11,"lines":[99321],"attr":"cool","postal_code":"331-0811","address":"さいたま市北区吉野町１-４０４-２","next":[1132308,1131908,9932105,9932107,1132307],"voronoi":{"lat":35.958227,"lng":139.601062,"delta_lat":[0,6474,-6760,-6397,5379],"delta_lng":[0,3286,28382,-2737,-27009]}},
    {"code":9932107,"id":"06e3fa","name":"原市","name_kana":"はらいち","lat":35.964072,"lng":139.622531,"prefecture":11,"lines":[99321],"attr":"cool","postal_code":"362-0021","address":"上尾市大字原市５１２-１","next":[1132308,9932108,1131908,9932106],"voronoi":{"lat":35.964701,"lng":139.604347,"delta_lat":[0,5223,-4475,-7508],"delta_lng":[0,1447,33413,-6478]}},
    {"code":9932108,"id":"2d4ee8","name":"沼南","name_kana":"しょうなん","lat":35.971165,"lng":139.623481,"prefecture":11,"lines":[99321],"attr":"heat","postal_code":"362-0021","address":"上尾市大字原市２１３５-１０","next":[9932109,1131909,1131908,9932107,1132308],"voronoi":{"lat":35.973396,"lng":139.639214,"delta_lat":[0,-6320,-1628,4475,8107],"delta_lng":[0,2163,-2170,-33413,545]}},
    {"code":9932109,"id":"cf68fd","name":"丸山(埼玉)","name_kana":"まるやま","lat":35.97989,"lng":139.624711,"prefecture":11,"lines":[99321],"attr":"heat","postal_code":"362-0806","address":"北足立郡伊奈町大字小室２８９-１","next":[9932108,9932110,1132308,1131909],"voronoi":{"lat":35.988741,"lng":139.638465,"delta_lat":[0,-7105,-3606,-4634],"delta_lng":[0,-32758,632,32875]}},
    {"code":9932110,"id":"c9d7b3","name":"志久","name_kana":"しく","lat":35.991099,"lng":139.62228,"prefecture":11,"lines":[99321],"attr":"heat","postal_code":"362-0806","address":"北足立郡伊奈町大字小室４８３５","next":[1131909,1132308,9932109,9932111,1131910],"voronoi":{"lat":36.008939,"lng":139.64185,"delta_lat":[0,-23445,-3858,7105,16849],"delta_lng":[0,-38146,2004,32758,5387]}},
    {"code":9932111,"id":"b7a77e","name":"伊奈中央","name_kana":"いなちゅうおう","lat":35.999537,"lng":139.617094,"prefecture":11,"lines":[99321],"attr":"heat","postal_code":"362-0806","address":"北足立郡伊奈町大字小室９７４４","next":[1132308,1131910,9932112,9932110],"voronoi":{"lat":36.027616,"lng":139.635014,"delta_lat":[0,-38132,-3990,23445],"delta_lng":[0,-34932,3622,38146]}},
    {"code":9932112,"id":"5131d9","name":"羽貫","name_kana":"はぬき","lat":36.007311,"lng":139.608608,"prefecture":11,"lines":[99321],"attr":"eco","postal_code":"362-0802","address":"北足立郡伊奈町大字羽貫８７２","next":[1131911,1132308,1132309,1131910,9932113,9932111],"voronoi":{"lat":35.989485,"lng":139.600081,"delta_lat":[0,2378,4520,47312,-6405,-9673],"delta_lng":[0,-3982,-3123,37134,3170,1733]}},
    {"code":9932113,"id":"59632f","name":"内宿","name_kana":"うちじゅく","lat":36.014163,"lng":139.599878,"prefecture":11,"lines":[99321],"attr":"eco","postal_code":"362-0808","address":"北足立郡伊奈町大字小針新宿１４６１","next":[2100235,1132310,2100234,1131911,9932112,1132311,1132309,2100233],"voronoi":{"lat":36.043694,"lng":139.63011,"delta_lat":[0,-47312,7987,29775,33688,757,-7918,-3438],"delta_lng":[0,-37134,-10058,-13204,9122,19192,22528,4947]}}
  ],
  "north":36.01404,
  "south":35.90773,
  "east":139.62466,
  "west":139.59968,
  "polyline_list":[
    {
      "start":"大宮",
      "end":"内宿",
      "lat":35.90773,
      "lng":139.62235,
      "delta_lat":[0,13,-8,-1,8,28,16,15,12,22,83,158,103,159,230,159,217,8,63,141,43,89,31,114,114,55,50,110,84,58,60,121,112,90,111,104,64,136,314,174,71,117,311,233,71,51,149,251,180,68,211,45,61,82,21,42,92,62,66,129,18,85,85,57,80,34,24,143,61,147,39,77,79,23,27,109,50,40,37,30,29,41,26,23,19,61,21,26,74,70,46,34,20,9,18,3,14,3,121,101,2,38,125,79,58,46,53,24,20,18,31,25,65,29,29,16,9,56,74,83,77,48,62,104,69,71,58,53,86,52,29,72,49,58,9,4,35,3,27,38,2,56,6,26,97,70,50,11,22,26,62,34,5,35,20,20,15,15,62,7,75,41,7,28,8,11,14,11,19,7,59,2,47],
      "delta_lng":[0,-19,-37,-20,-13,-11,2,23,17,0,-31,-50,-33,-57,-84,-54,-71,-2,-25,-37,-11,-20,-5,-17,-15,-6,-6,-11,-3,0,1,4,6,10,12,15,12,26,61,29,15,23,60,42,12,11,27,46,32,15,43,9,11,12,4,10,16,9,13,25,3,17,16,9,16,5,6,25,10,28,7,16,15,3,0,0,2,3,10,12,5,1,0,-3,-3,2,7,4,-2,-4,-7,-20,-9,-1,-3,-1,-2,-2,-10,-15,-2,-6,-30,-22,-18,-16,-18,-10,-7,-7,-12,-10,-24,-12,-14,-5,-4,-27,-38,-45,-43,-32,-39,-69,-51,-54,-50,-45,-73,-48,-30,-70,-52,-64,-11,-3,-40,-4,-31,-46,-2,-66,-9,-34,-124,-91,-61,-10,-27,-35,-81,-41,-7,-46,-27,-24,-21,-18,-81,-9,-95,-52,-9,-37,-10,-16,-17,-14,-24,-9,-76,-7,-60]
    }
  ]
}