{
  "code":99330,
  "name":"真岡鐵道",
  "name_formal":"真岡鐵道真岡線",
  "station_list":[
    {"code":1133907,"id":"bc7bc4","name":"下館","name_kana":"しもだて","lat":36.304197,"lng":139.97866,"prefecture":8,"lines":[11339,99318,99330],"attr":"heat","postal_code":"308-0041","address":"茨城県筑西市乙86","next":[1133906,1133908,9931823,9931822,9933002],"voronoi":{"lat":36.304192,"lng":139.958159,"delta_lat":[0,-5472,-23833,-2135,51928],"delta_lng":[0,769,32648,34445,-20529]}},
    {"code":9933002,"id":"d754e5","name":"下館二高前","name_kana":"しもだてにこうまえ","lat":36.319137,"lng":139.972193,"prefecture":8,"lines":[99330],"attr":"cool","postal_code":"308-0051","address":"筑西市岡芹","next":[9933003,1133906,1133908,1133907],"voronoi":{"lat":36.304192,"lng":139.958159,"delta_lat":[0,24448,2737,-6697],"delta_lng":[0,-14918,61355,896]}},
    {"code":9933003,"id":"665a65","name":"折本","name_kana":"おりもと","lat":36.340684,"lng":139.971232,"prefecture":8,"lines":[99330],"attr":"cool","postal_code":"308-0007","address":"筑西市折本","next":[9933002,1133908,1133905,1133906,9933004],"voronoi":{"lat":36.34591,"lng":139.921274,"delta_lat":[0,-492,-16777,2737,20485],"delta_lng":[0,402,21565,61355,3805]}},
    {"code":9933004,"id":"6cbec6","name":"ひぐち","name_kana":"ひぐち","lat":36.357882,"lng":139.970057,"prefecture":8,"lines":[99330],"attr":"cool","postal_code":"308-0007","address":"筑西市折本","next":[9933005,1133908,1131920,1133905,9933003],"voronoi":{"lat":36.34591,"lng":139.921274,"delta_lat":[0,12827,13837,-9557,-11154],"delta_lng":[0,-14807,4497,102253,-4816]}},
    {"code":9933005,"id":"94a0c9","name":"久下田","name_kana":"くげた","lat":36.37606,"lng":139.971756,"prefecture":9,"lines":[99330],"attr":"cool","postal_code":"321-4521","address":"栃木県真岡市久下田","next":[9933004,1131921,1131920,9933006,1133908],"voronoi":{"lat":36.406945,"lng":139.919525,"delta_lat":[0,-7043,-27329,-9557,18402],"delta_lng":[0,-4046,-4516,102253,13115]}},
    {"code":9933006,"id":"c12616","name":"寺内","name_kana":"てらうち","lat":36.410876,"lng":139.980077,"prefecture":9,"lines":[99330],"attr":"cool","postal_code":"321-4345","address":"真岡市寺内","next":[1131922,1133908,9933007,1131921,1133909,9933005],"voronoi":{"lat":36.406945,"lng":139.919525,"delta_lat":[0,47725,11611,-76114,-5107,-3642],"delta_lng":[0,10775,9328,95394,-3581,-5110]}},
    {"code":9933007,"id":"5a124f","name":"真岡","name_kana":"もおか","lat":36.439144,"lng":140.002632,"prefecture":9,"lines":[99330],"attr":"cool","postal_code":"321-4306","address":"真岡市台町","next":[1133909,1131922,9933006,9933008,100405,9933009],"voronoi":{"lat":36.412003,"lng":140.036293,"delta_lat":[0,92089,-120,-37691,-76114,4906],"delta_lng":[0,-80140,-138,-16387,95394,6505]}},
    {"code":9933008,"id":"be9771","name":"北真岡","name_kana":"きたもおか","lat":36.44909,"lng":140.014061,"prefecture":9,"lines":[99330],"attr":"cool","postal_code":"321-4362","address":"真岡市熊倉町","next":[9933009,9933013,100405,1131924,9933007],"voronoi":{"lat":36.504093,"lng":139.956153,"delta_lat":[0,15796,15801,-20987,-102699],"delta_lng":[0,15042,33800,18521,12777]}},
    {"code":9933009,"id":"5e5c40","name":"西田井","name_kana":"にしだい","lat":36.453407,"lng":140.04876,"prefecture":9,"lines":[99330],"attr":"cool","postal_code":"321-4301","address":"真岡市西田井","next":[9933008,9933012,1133909,9933010,9933013,9933007],"voronoi":{"lat":36.400327,"lng":140.064694,"delta_lat":[0,93728,2121,18526,-102699,-16930],"delta_lng":[0,-11169,-1785,-28223,12777,5234]}},
    {"code":9933010,"id":"ba6cb0","name":"北山(栃木)","name_kana":"きたやま","lat":36.455665,"lng":140.067708,"prefecture":9,"lines":[99330],"attr":"cool","postal_code":"321-4301","address":"真岡市西田井","next":[1133909,9933009,1133910,9933011,9933012],"voronoi":{"lat":36.494056,"lng":140.053525,"delta_lat":[0,-93728,377,9803,71189],"delta_lng":[0,11169,7533,23005,-24963]}},
    {"code":9933011,"id":"f409c1","name":"益子","name_kana":"ましこ","lat":36.462965,"lng":140.088526,"prefecture":9,"lines":[99330],"attr":"cool","postal_code":"321-4217","address":"芳賀郡益子町益子","next":[1133910,9933016,9933012,9933010,1133913,1133911],"voronoi":{"lat":36.444485,"lng":140.173001,"delta_lat":[0,20398,16813,-71189,7384,16317],"delta_lng":[0,-20019,-82713,24963,37843,32284]}},
    {"code":9933012,"id":"bf2d44","name":"七井","name_kana":"なない","lat":36.491814,"lng":140.09439,"prefecture":9,"lines":[99330],"attr":"eco","postal_code":"321-4104","address":"芳賀郡益子町大沢","next":[9933014,9933009,9933011,9933013,9933010,9933015,9933016],"voronoi":{"lat":36.481697,"lng":140.070269,"delta_lat":[0,12359,2121,12894,-1626,-13212,-29349],"delta_lng":[0,-16744,-1785,67648,4747,11025,17822]}},
    {"code":9933013,"id":"541f2a","name":"多田羅","name_kana":"たたら","lat":36.515922,"lng":140.089795,"prefecture":9,"lines":[99330],"attr":"eco","postal_code":"321-3425","address":"芳賀郡市貝町多田羅","next":[9933014,1131924,1133402,9933008,9933012,9933009,1131925],"voronoi":{"lat":36.579367,"lng":140.043295,"delta_lat":[0,-70296,-12894,18526,20987,21425,17556],"delta_lng":[0,76092,-67648,-28223,-18521,12119,18427]}},
    {"code":9933014,"id":"dca826","name":"市塙","name_kana":"いちはな","lat":36.538029,"lng":140.110218,"prefecture":9,"lines":[99330],"attr":"heat","postal_code":"321-3423","address":"芳賀郡市貝町市塙","next":[9933012,9933013,1133403,1133406,1133405,1133402,9933015],"voronoi":{"lat":36.593153,"lng":140.070465,"delta_lat":[0,-1087,-11550,-1150,-70296,-1626,81881],"delta_lng":[0,-8825,-17078,-1266,76092,4747,9740]}},
    {"code":9933015,"id":"1dda0c","name":"笹原田","name_kana":"ささはらだ","lat":36.533911,"lng":140.144837,"prefecture":9,"lines":[99330],"attr":"heat","postal_code":"321-3421","address":"芳賀郡市貝町笹原田","next":[1133408,1133406,9933017,1133407,9933012,9933016,9933014],"voronoi":{"lat":36.591216,"lng":140.141173,"delta_lat":[0,694,-1310,-20441,-75926,13212,81881],"delta_lng":[0,11896,14915,-1712,-31113,-11025,9740]}},
    {"code":9933016,"id":"69540e","name":"天矢場","name_kana":"てんやば","lat":36.529292,"lng":140.156109,"prefecture":9,"lines":[99330],"attr":"heat","postal_code":"321-3622","address":"芳賀郡茂木町北高岡","next":[9933011,1133913,9933017,9933015,9933012],"voronoi":{"lat":36.444485,"lng":140.173001,"delta_lat":[0,368,125305,-75926,-29349],"delta_lng":[0,1002,-7730,-31113,17822]}},
    {"code":9933017,"id":"0597a3","name":"茂木","name_kana":"もてぎ","lat":36.530851,"lng":140.181382,"prefecture":9,"lines":[99330],"attr":"heat","postal_code":"321-3531","address":"芳賀郡茂木町茂木","next":[1133914,1133817,9933015,9933016,1133408,1133913],"voronoi":{"lat":36.485502,"lng":140.295225,"delta_lat":[0,126152,-21054,-20441,-125305,9504],"delta_lng":[0,-31537,-95703,-1712,7730,45769]}}
  ],
  "north":36.54497,
  "south":36.3038,
  "east":140.18155,
  "west":139.96886,
  "polyline_list":[
    {
      "start":"下館",
      "end":"茂木",
      "lat":36.30438,
      "lng":139.98,
      "delta_lat":[0,-51,-7,1,3,6,7,14,14,15,26,21,33,34,40,34,27,44,56,99,132,286,253,131,60,36,17,29,39,20,38,74,35,50,33,39,6,45,27,9,53,50,69,81,38,13,22,68,40,15,26,21,10,82,36,7,65,121,69,98,44,37,139,9,16,67,34,55,52,18,42,56,42,43,179,67,231,213,76,51,75,62,59,61,68,69,46,82,239,123,65,197,67,271,321,208,170,265,225,52,170,73,230,373,22,406,360,112,6,191,255,117,107,27,40,40,41,65,47,121,45,210,269,339,61,182,82,119,45,49,29,31,34,29,82,180,9,85,46,56,1,27,19,17,36,165,206,11,83,51,21,86,36,25,27,18,7,17,18,11,82,12,48,16,39,39,15,154,7,21,2,99,125,11,21,15,65,22,121,110,129,21,113,52,23,32,50,36,27,48,32,35,26,16,38,9,11,9,1,8,21,24,11,12,10,4,17,1,1,11,109,2,24,18,8,85,25,25,36,3,30,5,33,5,1,3,3,12,5,44,37,25,38,13,4,4,2,3,4,7,2,2,1,2,2,25,11,16,40,18,32,4,2,0,16,2,3,1,18,34,9,4,10,12,14,14,11,11,7,7,15,21,19,22,10,10,21,150,41,33,36,103,5,42,102,152,28,58,16,76,61,253,77,59,141,660,36,47,406,5,285,56,39,149,49,83,57,47,12,64,68,15,15,38,27,22,22,23,79,162,30,19,41,110,25,218,21,63,311,112,20,18,18,17,23,47,78,36,72,135,32,240,80,8,47,107,56,32,22,44,37,33,42,182,94,15,23,25,6,9,45,107,1,2,51,0,0,53,1,0,19,15,21,2,1,0,65,0,94,44,38,32,20,12,9,20,72,73,31,13,12,14,4,150,65,2,16,141,9,67,18,15,76,20,85,75,20,40,0,64,62,132,44,22,2,17,13,17,1,0,9,8,7,7,2,0,-2,0,-5,-10,-25,-9,-16,-14,-35,-47,-34,-127,-45,-22,-3,-20,-18,-1,-6,-68,-23,0,-13,-1,-93,-1,-45,-4,-4,-42,-80,-1,-47,-2,-57,-33,-21,-19,-1,-2,-4,-6,-9,-7,-1,-4,-9,-9,-20,-18,-36,-2,-23,-20,-8,-9,-8,-10,-11,-14,-11,-14,-24,-14,-17,-23,-13,-45,-87,-9,-5,-13,-25,-2,-9,-11,-11,-3,-11,-4,-29,-63,-18,-23,-37,-7,-2,6,18,43,10,55,4,7,8,-1,-11,-26,-30,-59,-25,-20,-14,-2,5,24,37,28,12,45,175,99],
      "delta_lng":[0,-362,-97,-68,-58,-54,-37,-41,-36,-27,-29,-22,-22,-19,-12,-6,0,7,5,17,16,44,38,18,5,0,0,-4,-9,-8,-13,-34,-14,-23,-15,-15,-3,-14,-8,-2,-12,-9,-4,2,5,1,2,12,6,3,3,4,0,14,6,0,11,20,10,16,6,8,23,0,3,9,1,5,0,-1,-8,-14,-12,-15,-62,-24,-92,-81,-25,-11,-10,-1,1,5,9,11,8,17,50,24,8,16,5,18,24,16,14,18,16,2,12,6,16,27,1,31,24,9,0,11,19,7,12,8,14,14,20,29,26,69,26,118,152,195,35,103,48,69,27,32,26,31,41,38,118,266,16,129,72,87,2,37,25,18,32,140,171,9,67,39,17,68,29,20,21,16,7,11,15,10,63,9,37,13,28,20,6,52,1,8,1,32,43,3,7,4,23,6,40,40,47,8,42,22,13,19,35,27,23,46,34,43,36,26,63,20,22,16,5,17,57,71,41,59,59,30,133,9,11,90,877,21,198,151,63,683,204,209,291,18,240,39,279,37,17,21,24,93,45,349,304,201,314,102,34,21,20,25,36,59,15,14,13,15,17,211,86,132,318,156,250,21,13,20,124,20,14,20,138,278,74,22,49,37,36,30,20,22,8,12,19,23,15,16,6,5,12,74,17,17,17,53,1,21,48,73,13,23,6,22,13,36,10,9,21,95,5,5,61,1,43,8,3,23,7,13,8,7,1,9,2,-1,-4,-12,-10,-10,-15,-13,-51,-102,-16,-9,-15,-32,-8,-58,-9,-19,-98,-35,-3,-2,-1,-1,0,0,4,1,5,10,2,16,7,0,4,10,6,7,6,17,18,19,31,143,77,15,24,32,9,13,72,184,0,7,88,0,3,88,0,4,27,20,30,4,0,3,80,3,114,54,44,37,20,14,9,21,72,70,28,13,11,11,6,134,57,5,12,126,7,60,15,14,67,21,77,73,20,43,2,71,68,142,48,26,4,22,24,37,0,5,20,23,26,58,33,42,11,7,22,36,68,25,38,25,72,63,45,172,66,39,6,45,47,3,17,185,60,3,36,4,248,5,118,8,9,70,117,2,67,3,83,53,35,41,3,5,10,27,48,81,130,36,65,29,63,49,72,3,42,44,22,31,37,70,81,84,45,48,57,34,32,36,19,57,108,12,6,18,43,8,23,32,42,16,82,20,101,189,60,169,252,71,36,73,123,280,28,140,19,24,64,43,53,78,62,88,44,48,71,67,41,66,57,34,8,30,49,24]
    }
  ]
}