{
  "code":99337,
  "name":"東京臨海高速鉄道",
  "color":"#3366CC",
  "symbol":"R",
  "station_list":[
    {"code":1130201,"id":"d3bfe4","name":"大崎","name_kana":"おおさき","lat":35.619772,"lng":139.728439,"prefecture":13,"numbering":[{"index":"08"}],"lines":[11302,11321,11333,99337],"attr":"cool","postal_code":"141-0032","address":"東京都品川区大崎一丁目21-4"},
    {"code":1133228,"id":"6dde5c","name":"大井町","name_kana":"おおいまち","lat":35.606257,"lng":139.73485,"prefecture":13,"numbering":[{"index":"07"}],"lines":[11332,26004,99337],"attr":"cool","postal_code":"140-0014","address":"品川区大井１丁目"},
    {"code":9933706,"id":"c3eb4a","name":"品川シーサイド","name_kana":"しながわしーさいど","lat":35.608524,"lng":139.749549,"prefecture":13,"numbering":[{"index":"06"}],"lines":[99337],"attr":"heat","postal_code":"140-0002","address":"品川区東品川４-１２-２２"},
    {"code":9933602,"id":"ab47d9","name":"天王洲アイル","name_kana":"てんのうずあいる","lat":35.622908,"lng":139.750675,"prefecture":13,"numbering":[{"index":"05"}],"lines":[99336,99337],"attr":"eco","postal_code":"140-0002","address":"品川区東品川２-５-１９"},
    {"code":9933704,"id":"985a83","name":"東京テレポート","name_kana":"とうきょうてれぽーと","lat":35.62753,"lng":139.778896,"prefecture":13,"numbering":[{"index":"04"}],"lines":[99337],"attr":"heat","postal_code":"135-0064","address":"江東区青海１-２"},
    {"code":9933703,"id":"6af921","name":"国際展示場","name_kana":"こくさいてんじじょう","lat":35.63441,"lng":139.791617,"prefecture":13,"numbering":[{"index":"03"}],"lines":[99337],"attr":"heat","postal_code":"135-0063","address":"江東区有明２-５-２５"},
    {"code":9933702,"id":"a25021","name":"東雲(東京)","name_kana":"しののめ","lat":35.640987,"lng":139.804395,"prefecture":13,"numbering":[{"index":"02"}],"lines":[99337],"attr":"cool","postal_code":"135-0062","address":"江東区東雲２-８-１０"},
    {"code":1132605,"id":"369de7","name":"新木場","name_kana":"しんきば","lat":35.646172,"lng":139.827402,"prefecture":13,"numbering":[{"index":"01"}],"lines":[11326,28006,99337],"attr":"cool","postal_code":"136-0082","address":"東京都江東区新木場一丁目5"}
  ],
  "north":35.64592,
  "south":35.60669,
  "east":139.82786,
  "west":139.72743,
  "polyline_list":[
    {
      "start":"大崎",
      "end":"新木場",
      "lat":35.62041,
      "lng":139.72743,
      "delta_lat":[0,-132,-302,-150,-61,-83,-151,-22,-24,-24,-148,-24,-43,-31,-38,-27,-20,-45,-11,-27,-3,-4,-2,5,2,-5,-2,4,55,26,29,57,50,178,94,810,199,20,30,37,50,31,29,27,6,12,8,5,5,9,16,28,11,5,6,6,3,0,0,0,1,3,6,8,19,24,16,26,71,39,270,153,74,52,129,70,186,96,177,9,39,41,12,4,5,2,70,2,125,211,40,11,44,24,17],
      "delta_lng":[0,93,277,100,1,-10,-92,-16,-10,-8,-25,2,10,25,42,80,79,289,90,226,24,191,175,56,60,114,30,36,250,46,27,39,19,32,14,73,12,8,13,18,36,32,42,55,16,39,60,200,101,40,74,105,61,174,229,309,116,30,41,44,42,43,203,93,120,91,43,67,129,75,509,279,138,98,237,131,343,174,325,17,71,77,25,11,16,5,234,5,405,624,119,51,518,279,251]
    }
  ]
}