{
  "code":99336,
  "name":"東京モノレール",
  "color":"#004098",
  "symbol":"MO",
  "station_list":[
    {"code":1130227,"id":"d22a54","name":"浜松町","name_kana":"はままつちょう","lat":35.655391,"lng":139.757135,"prefecture":13,"numbering":[{"index":"01"}],"lines":[11302,11332,99336],"attr":"heat","postal_code":"105-0022","address":"東京都港区海岸一丁目3-1"},
    {"code":9933602,"id":"ab47d9","name":"天王洲アイル","name_kana":"てんのうずあいる","lat":35.622908,"lng":139.750675,"prefecture":13,"numbering":[{"index":"02"}],"lines":[99336,99337],"attr":"eco","postal_code":"140-0002","address":"品川区東品川２-５-１９"},
    {"code":9933603,"id":"e63370","name":"大井競馬場前","name_kana":"おおいけいばじょうまえ","lat":35.595006,"lng":139.74708,"prefecture":13,"numbering":[{"index":"03"}],"lines":[99336],"attr":"eco","postal_code":"140-0012","address":"品川区勝島２-２-３５"},
    {"code":9933604,"id":"da3ff9","name":"流通センター","name_kana":"りゅうつうせんたー","lat":35.58186,"lng":139.748964,"prefecture":13,"numbering":[{"index":"04"}],"lines":[99336],"attr":"eco","postal_code":"143-0006","address":"大田区平和島６-１-２"},
    {"code":9933605,"id":"eaebf6","name":"昭和島","name_kana":"しょうわじま","lat":35.570656,"lng":139.749918,"prefecture":13,"numbering":[{"index":"05"}],"lines":[99336],"attr":"eco","postal_code":"143-0004","address":"大田区昭和島２-２-１"},
    {"code":9933606,"id":"7629db","name":"整備場","name_kana":"せいびじょう","lat":35.555125,"lng":139.753366,"prefecture":13,"numbering":[{"index":"06"}],"lines":[99336],"attr":"heat","postal_code":"144-0041","address":"大田区羽田空港１-７-４"},
    {"code":2700205,"id":"846c56","name":"天空橋","name_kana":"てんくうばし","lat":35.548908,"lng":139.75423,"prefecture":13,"numbering":[{"index":"07"}],"lines":[27002,99336],"attr":"heat","postal_code":"144-0041","address":"大田区羽田空港１-１-２"},
    {"code":9933611,"id":"92a138","name":"羽田空港第３ターミナル(東京モノレール)","name_kana":"はねだくうこうだいさんたーみなる","lat":35.544169,"lng":139.768206,"prefecture":13,"numbering":[{"index":"08"}],"lines":[99336],"attr":"cool","postal_code":"144-0041","address":"日本東京都大田区羽田空港２丁目６-５"},
    {"code":9933608,"id":"1c29bf","name":"新整備場","name_kana":"しんせいびじょう","lat":35.542773,"lng":139.786777,"prefecture":13,"numbering":[{"index":"09"}],"lines":[99336],"attr":"cool","postal_code":"144-0041","address":"大田区羽田空港３-５-１"},
    {"code":9933609,"id":"d52dd8","name":"羽田空港第１ターミナル","name_kana":"はねだくうこうだいいちたーみなる","lat":35.549163,"lng":139.784653,"prefecture":13,"numbering":[{"index":"10"}],"lines":[99336],"attr":"cool","postal_code":"144-0041","address":"大田区羽田空港３-３-２"},
    {"code":9933610,"id":"b79d6b","name":"羽田空港第２ターミナル","name_kana":"はねだくうこうだいにたーみなる","lat":35.550734,"lng":139.787979,"prefecture":13,"numbering":[{"index":"11"}],"lines":[99336],"attr":"cool","postal_code":"144-0041","address":"大田区羽田空港３-４-２"}
  ],
  "north":35.65635,
  "south":35.53795,
  "east":139.78852,
  "west":139.7466,
  "polyline_list":[
    {
      "start":"羽田空港第２ビル",
      "end":"浜松町",
      "lat":35.55013,
      "lng":139.78852,
      "delta_lat":[0,131,65,35,29,16,-7,-20,-37,-34,-35,-32,-52,-37,-82,-187,-164,-160,-58,-38,-30,-59,-72,-234,-56,-59,-18,-22,1,11,17,89,72,119,47,64,30,86,48,48,33,17,7,11,10,23,21,31,21,26,18,30,31,29,18,165,37,91,47,47,29,56,27,58,38,89,29,88,56,25,20,16,21,84,60,42,30,33,16,40,49,14,26,38,55,36,93,52,35,94,44,56,96,40,52,19,25,14,17,47,93,10,75,44,7,96,9,27,105,130,89,37,39,30,34,29,87,46,87,121,7,87,16,124,78,52,115,59,26,6,8,16,14,22,31,22,94,83,70,423,4,104,6,412,117,13,15,18,27,29,68,150,4,111,53,40,185,258,170,159,365,186,65,31,29,38,139,2,83,4,27,11,11,12,29,65,155,463,201,38,30,37,19,109,107,25,47,175,29,35,36,108,29,27,58,188,9,25,8,27,29,14,25,11,14,10,11,17,12,29,15,13,15,12,69,38,54,53,90,36,60,11,11,16,22,86,71,21,161,16,121],
      "delta_lng":[0,-101,-51,-32,-50,-62,-69,-50,-56,-21,-9,-2,11,19,62,129,111,97,15,-17,-32,-82,-127,-356,-92,-88,-41,-71,-55,-48,-57,-196,-167,-255,-99,-56,-19,-32,-28,-41,-43,-41,-60,-139,-90,-185,-150,-174,-135,-127,-68,-54,-37,-31,-8,-62,-13,-30,-20,-13,-3,-6,-3,-3,-3,0,0,0,5,4,4,5,9,45,23,11,7,9,2,7,6,0,-2,-9,-36,-30,-82,-46,-34,-85,-37,-53,-73,-19,-19,-5,-2,-1,2,12,22,1,19,12,2,24,3,6,28,33,18,2,-3,-6,-9,-12,-40,-20,-39,-54,-3,-37,-7,-56,-35,-22,-51,-29,-14,-4,-5,-7,-4,-3,-3,1,7,9,5,33,1,8,1,28,14,3,2,8,15,20,54,122,4,86,24,6,16,26,15,12,36,19,4,-4,-7,-18,-92,-2,-51,-3,-17,-6,-4,-4,0,5,13,39,22,4,0,-5,-6,-58,-54,-7,-6,-1,4,11,21,75,14,7,2,5,-1,-4,-3,-10,-14,-9,-17,-6,-6,-2,-2,1,2,10,7,12,20,18,137,72,77,68,85,34,61,9,8,8,7,30,19,2,-62,-6,12]
    }
  ]
}