{
  "code":99338,
  "name":"東葉高速鉄道",
  "color":"#3FB036",
  "symbol":"TR",
  "station_list":[
    {"code":1130524,"id":"c67257","name":"西船橋","name_kana":"にしふなばし","lat":35.707283,"lng":139.959536,"prefecture":12,"numbering":[{"index":"01"}],"lines":[11305,11313,28004,99338],"attr":"eco","postal_code":"273-0031","address":"船橋市西船４丁目"},
    {"code":9933802,"id":"b4205a","name":"東海神","name_kana":"ひかしかいじん","lat":35.705888,"lng":139.980343,"prefecture":12,"numbering":[{"index":"02"}],"lines":[99338],"attr":"eco","postal_code":"273-0021","address":"船橋市海神２-１５地下１号"},
    {"code":9933803,"id":"8bc0a4","name":"飯山満","name_kana":"はさま","lat":35.71407,"lng":140.0223,"prefecture":12,"numbering":[{"index":"03"}],"lines":[99338],"attr":"eco","postal_code":"274-0822","address":"船橋市飯山満町３-１０５３-５"},
    {"code":9932906,"id":"786b49","name":"北習志野","name_kana":"きたならしの","lat":35.721328,"lng":140.042195,"prefecture":12,"numbering":[{"index":"04"}],"lines":[99329,99338],"attr":"eco","postal_code":"274-0063","address":"船橋市習志野台３-１-１"},
    {"code":9933805,"id":"497f98","name":"船橋日大前","name_kana":"ふなばしにちだいまえ","lat":35.726931,"lng":140.058962,"prefecture":12,"numbering":[{"index":"05"}],"lines":[99338],"attr":"eco","postal_code":"274-0062","address":"船橋市坪井町６８１-３"},
    {"code":9933806,"id":"7c0cb6","name":"八千代緑が丘","name_kana":"やちよみどりがおか","lat":35.728884,"lng":140.073461,"prefecture":12,"numbering":[{"index":"06"}],"lines":[99338],"attr":"heat","postal_code":"276-0049","address":"八千代市緑が丘１-１１０４-３"},
    {"code":9933807,"id":"e3e498","name":"八千代中央","name_kana":"やちよちゅうおう","lat":35.727807,"lng":140.103713,"prefecture":12,"numbering":[{"index":"07"}],"lines":[99338],"attr":"heat","postal_code":"276-0042","address":"八千代市ゆりのき台１-３８"},
    {"code":9933808,"id":"6835b5","name":"村上(千葉)","name_kana":"むらかみ","lat":35.72371,"lng":140.118375,"prefecture":12,"numbering":[{"index":"08"}],"lines":[99338],"attr":"cool","postal_code":"276-0028","address":"八千代市村上字辺田前４０８９-２"},
    {"code":9933809,"id":"e298c9","name":"東葉勝田台","name_kana":"とうようかつただい","lat":35.715458,"lng":140.126075,"prefecture":12,"numbering":[{"index":"09"}],"lines":[99338],"attr":"cool","postal_code":"276-0028","address":"八千代市村上字下市場台北側４５０３-２４"}
  ],
  "north":35.73005,
  "south":35.70331,
  "east":140.1262,
  "west":139.95775,
  "polyline_list":[
    {
      "start":"ほげ",
      "end":"東葉勝田台",
      "lat":35.70765,
      "lng":139.95775,
      "delta_lat":[0,-6,-68,-20,-7,-110,-9,-20,-95,-45,-28,-16,-10,2,18,2,20,39,78,55,102,24,29,23,30,54,23,4,7,14,11,10,21,47,2,20,42,27,15,13,39,108,12,22,7,1,8,6,-4,-5,-26,1,3,8,4,6,11,23,66,2,90,2,140,183,112,3,59,2,26,2,163,21,18,4,13,34,56,43,21,10,33,9,21,35,58,6,15,145,22,47,12,2,37,21,18,0,14,2,31,0,17,1,25,6,21,3,23,5,16,3,-3,-3,-7,-14,-24,-64,-53,-3,-23,0,-47,-2,-7,-79,-17,-52,-14,-13,-18,-29,-7,-30,-57,-18,-2,-82,-5,-38,-10,-15,-17,-20,-3,-16,-70,-44,-29,-42,-66,-111,-72,-197,-21],
      "delta_lng":[0,11,146,47,14,250,23,60,245,155,143,139,113,135,133,9,77,128,210,129,226,60,86,99,195,432,197,28,71,86,44,36,54,110,9,39,113,84,57,48,175,473,63,110,54,12,89,104,138,102,286,83,48,53,21,31,41,66,155,6,207,6,330,442,265,4,160,7,78,5,515,64,62,10,45,102,186,133,69,32,104,28,65,111,185,18,47,459,66,153,40,4,143,127,149,10,175,15,462,6,211,9,397,86,310,50,326,73,255,91,64,45,86,108,150,363,261,10,100,9,223,8,36,361,75,232,51,52,68,110,29,91,148,51,6,207,9,83,21,26,33,34,5,20,85,49,31,34,40,56,29,88,10]
    }
  ]
}