{
  "code":99331,
  "name":"千葉都市モノレール１号線",
  "color":"#2843BA",
  "station_list":[
    {"code":1132617,"id":"a974be","name":"千葉みなと","name_kana":"ちばみなと","lat":35.60739,"lng":140.102477,"prefecture":12,"lines":[11326,99331],"attr":"cool","postal_code":"260-0024","address":"千葉市中央区中央港１丁目"},
    {"code":9933102,"id":"59aa2a","name":"市役所前(千葉)","name_kana":"しやくしょまえ","lat":35.606878,"lng":140.107757,"prefecture":12,"lines":[99331],"attr":"cool","postal_code":"260-0026","address":"千葉市中央区千葉港地先道路"},
    {"code":1131339,"id":"76a5a4","name":"千葉","name_kana":"ちば","lat":35.612927,"lng":140.113479,"prefecture":12,"lines":[11313,11314,11324,11325,11328,99331,99332],"attr":"cool","postal_code":"260-0031","address":"千葉市中央区新千葉１丁目"},
    {"code":9933104,"id":"5481e7","name":"栄町(千葉)","name_kana":"さかえちょう","lat":35.612822,"lng":140.118592,"prefecture":12,"lines":[99331],"attr":"cool","postal_code":"260-0016","address":"千葉市中央区栄町２９-９"},
    {"code":9933105,"id":"8379f9","name":"葭川公園","name_kana":"よしかわこうえん","lat":35.608551,"lng":140.120142,"prefecture":12,"lines":[99331],"attr":"cool","postal_code":"260-0013","address":"千葉市中央区中央２-１"},
    {"code":9933106,"id":"2ee215","name":"県庁前(千葉)","name_kana":"けんちょうまえ","lat":35.603958,"lng":140.12222,"prefecture":12,"lines":[99331],"attr":"cool","postal_code":"260-0855","address":"千葉市中央区市場町１-２"}
  ],
  "north":35.61374,
  "south":35.60357,
  "east":140.12225,
  "west":140.10224,
  "polyline_list":[
    {
      "start":"千葉みなと",
      "end":"県庁前",
      "lat":35.60762,
      "lng":140.10224,
      "delta_lat":[0,-104,-102,-12,-6,0,0,9,73,50,16,51,9,19,34,23,16,18,49,2,34,25,71,10,5,5,0,3,4,38,59,15,65,18,14,14,12,16,47,7,4,2,-2,-2,-2,-5,-9,-14,-11,-6,-54,-6,-43,-38,-27,-38,-12,-15,-20,-25,-127,-63,-27,-29,-30,-46,-23,-31,-69,-56,-47,-39,-13,-42,-46],
      "delta_lng":[0,108,106,19,26,21,4,29,105,76,25,73,13,27,46,29,18,15,39,1,17,11,35,11,19,125,26,16,11,38,52,11,51,14,25,44,81,60,101,14,20,18,11,9,6,8,8,5,5,3,16,3,21,23,27,30,8,6,3,2,9,1,0,3,12,38,31,19,20,14,12,16,9,23,20]
    }
  ]
}