{
  "code":99345,
  "name":"ディズニーリゾートライン線",
  "station_list":[
    {"code":9934501,"id":"3f5f8e","name":"リゾートゲートウェイ・ステーション","name_kana":"りぞーとげーとうぇい・すてーしょん","lat":35.635269,"lng":139.885141,"prefecture":12,"lines":[99345],"attr":"eco","postal_code":"279-0031","address":"千葉県浦安市舞浜"},
    {"code":9934502,"id":"1a7596","name":"東京ディズニーランド・ステーション","name_kana":"とうきょうでぃずにーらんど・すてーしょん","lat":35.635891,"lng":139.878646,"prefecture":12,"lines":[99345],"attr":"eco","postal_code":"279-0031","address":"千葉県浦安市舞浜"},
    {"code":9934503,"id":"a3079b","name":"ベイサイド・ステーション","name_kana":"べいさいど・すてーしょん","lat":35.627947,"lng":139.876414,"prefecture":12,"lines":[99345],"attr":"cool","postal_code":"279-0031","address":"千葉県浦安市舞浜"},
    {"code":9934504,"id":"3f22f3","name":"東京ディズニーシー・ステーション","name_kana":"とうきょうでぃずにーしー・すてーしょん","lat":35.627394,"lng":139.889468,"prefecture":12,"lines":[99345],"attr":"cool","postal_code":"279-0031","address":"千葉県浦安市舞浜"}
  ],
  "north":35.63611,
  "south":35.62289,
  "east":139.89086,
  "west":139.87483,
  "polyline_list":[
    {
      "start":"夢の国",
      "end":"夢の国",
      "lat":35.6357,
      "lng":139.87802,
      "delta_lat":[0,29,12,-43,-53,15,-39,-58,-102,-56,-63,-51,-224,-24,-21,-31,-106,-63,-75,-72,-23,-102,-74,-23,-13,-21,0,30,123,18,18,20,114,32,27,28,72,27,20,31,366,243,29,43,40],
      "delta_lng":[0,85,45,201,148,152,124,205,134,68,65,1,-256,-7,-3,11,134,80,95,2,-12,-117,-89,-29,-25,-35,-57,-135,-531,-21,-14,-7,0,0,-21,-23,-286,-100,-75,-22,-4,126,24,56,113]
    }
  ]
}