{
  "code":99342,
  "name":"日暮里・舎人ライナー",
  "color":"#FF69B4",
  "symbol":"NT",
  "station_list":[
    {"code":1130218,"id":"84218b","name":"日暮里","name_kana":"にっぽり","lat":35.727908,"lng":139.771287,"prefecture":13,"numbering":[{"index":"01"}],"lines":[11302,11320,11332,23001,23006,99342],"attr":"heat","postal_code":"116-0013","address":"東京都荒川区西日暮里二丁目19-1"},
    {"code":1130217,"id":"202b50","name":"西日暮里","name_kana":"にしにっぽり","lat":35.731954,"lng":139.766857,"prefecture":13,"numbering":[{"index":"02"}],"lines":[11302,11332,28005,99342],"attr":"heat","postal_code":"116-0013","address":"東京都荒川区西日暮里五丁目22-1"},
    {"code":9934203,"id":"b387b5","name":"赤土小学校前","name_kana":"あかどしょうがっこうまえ","lat":35.742454,"lng":139.768989,"prefecture":13,"numbering":[{"index":"03"}],"lines":[99342],"attr":"heat","postal_code":"116-0012","address":"荒川区東尾久４-７-７"},
    {"code":9930509,"id":"860ecb","name":"熊野前","name_kana":"くまのまえ","lat":35.749212,"lng":139.769204,"prefecture":13,"numbering":[{"index":"04"}],"lines":[99305,99342],"attr":"cool","postal_code":"116-0012","address":"荒川区東尾久５"},
    {"code":9934205,"id":"de1461","name":"足立小台","name_kana":"あだちおだい","lat":35.754658,"lng":139.770381,"prefecture":13,"numbering":[{"index":"05"}],"lines":[99342],"attr":"cool","postal_code":"120-0046","address":"足立区小台１-２０-１"},
    {"code":9934206,"id":"01129c","name":"扇大橋","name_kana":"おおぎおおはし","lat":35.763897,"lng":139.770808,"prefecture":13,"numbering":[{"index":"06"}],"lines":[99342],"attr":"cool","postal_code":"123-0873","address":"足立区扇２-２５-７"},
    {"code":9934207,"id":"caac8b","name":"高野(東京)","name_kana":"こうや","lat":35.768359,"lng":139.770679,"prefecture":13,"numbering":[{"index":"07"}],"lines":[99342],"attr":"cool","postal_code":"123-0873","address":"足立区扇２-４５-１"},
    {"code":9934208,"id":"5328fc","name":"江北","name_kana":"こうほく","lat":35.774021,"lng":139.770306,"prefecture":13,"numbering":[{"index":"08"}],"lines":[99342],"attr":"eco","postal_code":"123-0872","address":"足立区江北４-３０-２７"},
    {"code":9934209,"id":"a3839b","name":"西新井大師西","name_kana":"にしあらいだいしにし","lat":35.781505,"lng":139.770094,"prefecture":13,"numbering":[{"index":"09"}],"lines":[99342],"attr":"eco","postal_code":"123-0872","address":"足立区江北６-３０-２３"},
    {"code":9934210,"id":"1a056c","name":"谷在家","name_kana":"やざいけ","lat":35.788774,"lng":139.770043,"prefecture":13,"numbering":[{"index":"10"}],"lines":[99342],"attr":"eco","postal_code":"123-0863","address":"足立区谷在家３-２０-２３"},
    {"code":9934211,"id":"d8b089","name":"舎人公園","name_kana":"とねりこうえん","lat":35.79623,"lng":139.770183,"prefecture":13,"numbering":[{"index":"11"}],"lines":[99342],"attr":"eco","postal_code":"121-0837","address":"足立区舎人公園１-１０"},
    {"code":9934212,"id":"79b305","name":"舎人","name_kana":"とねり","lat":35.8057,"lng":139.770108,"prefecture":13,"numbering":[{"index":"12"}],"lines":[99342],"attr":"eco","postal_code":"121-0831","address":"足立区舎人１-１６-１５"},
    {"code":9934213,"id":"5b191b","name":"見沼代親水公園","name_kana":"みぬまだいしんすいこうえん","lat":35.814544,"lng":139.770719,"prefecture":13,"numbering":[{"index":"13"}],"lines":[99342],"attr":"eco","postal_code":"121-0831","address":"足立区舎人２-２１-１３"}
  ],
  "north":35.81479,
  "south":35.72854,
  "east":139.77195,
  "west":139.76809,
  "polyline_list":[
    {
      "start":"日暮里",
      "end":"見沼代親水公園",
      "lat":35.72854,
      "lng":139.77086,
      "delta_lat":[0,51,33,12,19,122,64,114,19,38,84,174,187,132,69,303,62,205,199,44,79,38,414,121,52,277,199,56,222,40,92,76,333,83,442,29,80,248,206,211,66,435,259,50,728,91,489,349,44,221,312,139,110,66,37],
      "delta_lng":[0,59,39,11,-2,-141,-78,-150,-15,0,8,18,22,18,5,30,6,20,47,5,9,4,0,16,7,37,29,9,5,-13,-5,-2,-9,-6,-30,-2,-5,-16,0,-2,0,-4,0,0,2,0,7,-5,-1,-3,-3,34,20,7,4]
    }
  ]
}