{
  "code":99343,
  "name":"横浜市営地下鉄グリーンライン",
  "color":"#40CC40",
  "symbol":"G",
  "station_list":[
    {"code":1130607,"id":"bc49ca","name":"中山(神奈川)","name_kana":"なかやま","lat":35.514745,"lng":139.539692,"prefecture":14,"numbering":[{"index":"01"}],"lines":[11306,99343],"attr":"cool","postal_code":"226-0013","address":"横浜市緑区寺山町"},
    {"code":9934302,"id":"cf282b","name":"川和町","name_kana":"かわわちょう","lat":35.52802,"lng":139.548745,"prefecture":14,"numbering":[{"index":"02"}],"lines":[99343],"attr":"heat","postal_code":"224-0057","address":"横浜市都筑区川和町１２５１番地先"},
    {"code":9934303,"id":"26c4fb","name":"都筑ふれあいの丘","name_kana":"つづきふれあいのおか","lat":35.536583,"lng":139.561359,"prefecture":14,"numbering":[{"index":"03"}],"lines":[99343],"attr":"heat","postal_code":"224-0062","address":"横浜市都筑区葛が谷１１番"},
    {"code":9931604,"id":"0475cd","name":"センター南","name_kana":"せんたーみなみ","lat":35.545476,"lng":139.574291,"prefecture":14,"numbering":[{"index":"04"}],"lines":[99316,99343],"attr":"eco","postal_code":"224-0032","address":"横浜市都筑区茅ケ崎中央１-１"},
    {"code":9931603,"id":"7830b3","name":"センター北","name_kana":"せんたーきた","lat":35.55353,"lng":139.578457,"prefecture":14,"numbering":[{"index":"05"}],"lines":[99316,99343],"attr":"eco","postal_code":"224-0003","address":"横浜市都筑区中川中央１-１-１"},
    {"code":9934306,"id":"b712a6","name":"北山田(神奈川)","name_kana":"きたやまた","lat":35.561077,"lng":139.592258,"prefecture":14,"numbering":[{"index":"06"}],"lines":[99343],"attr":"cool","postal_code":"224-0021","address":"横浜市都筑区北山田１丁目６番先"},
    {"code":9934307,"id":"39ff5a","name":"東山田","name_kana":"ひがしやまた","lat":35.554302,"lng":139.604369,"prefecture":14,"numbering":[{"index":"07"}],"lines":[99343],"attr":"cool","postal_code":"224-0024","address":"横浜市都筑区東山田町３３９番地"},
    {"code":9934308,"id":"60fe2a","name":"高田(神奈川)","name_kana":"たかた","lat":35.549713,"lng":139.619944,"prefecture":14,"numbering":[{"index":"08"}],"lines":[99343],"attr":"cool","postal_code":"223-0065","address":"横浜市港北区高田東３丁目１番先"},
    {"code":9934309,"id":"aeb3e6","name":"日吉本町","name_kana":"ひよしほんちょう","lat":35.549883,"lng":139.633554,"prefecture":14,"numbering":[{"index":"09"}],"lines":[99343],"attr":"eco","postal_code":"223-0062","address":"横浜市港北区日吉本町５丁目３番"},
    {"code":2600113,"id":"b16830","name":"日吉(神奈川)","name_kana":"ひよし","lat":35.5539,"lng":139.646944,"prefecture":14,"numbering":[{"index":"10"}],"lines":[26001,26002,99343],"attr":"eco","postal_code":"223-0061","address":"横浜市港北区日吉２-１-１"}
  ],
  "north":35.56143,
  "south":35.51435,
  "east":139.64722,
  "west":139.54001,
  "polyline_list":[
    {
      "start":"中山",
      "end":"日吉",
      "lat":35.51435,
      "lng":139.54001,
      "delta_lat":[0,78,462,245,188,182,227,55,134,209,58,106,118,329,114,221,185,106,139,628,163,237,43,306,159,16,-12,-12,-4,-22,-36,-57,-86,-112,-89,-109,-64,-57,-35,-23,-8,-15,-27,-118,-135,-137,-60,-29,-38,-22,-23,16,76,72,9,97,176,76,73,14,2,13,-12,-83,-19],
      "delta_lng":[0,50,301,145,41,86,245,57,135,211,76,147,217,909,341,320,82,53,69,308,80,117,70,581,313,92,86,85,33,104,167,141,153,169,66,71,45,74,102,222,77,134,317,211,300,372,165,75,249,224,178,125,184,116,98,135,201,137,126,24,31,144,134,323,77]
    }
  ]
}