{
  "code":99354,
  "id":"27ad42",
  "name":"東野鉄道",
  "name_kana":"とうやてつどう",
  "name_formal":"東野鉄道",
  "station_size":8,
  "closed":true,
  "station_list":[
    {"code":1131931,"id":"461bb5","name":"西那須野","name_kana":"にしなすの","lat":36.883726,"lng":139.986383,"prefecture":9,"lines":[11319,99354],"attr":"eco","postal_code":"329-2727","address":"那須塩原市永田町","next":[9935403,100406,9935402,1131930,9934107],"voronoi":{"lat":36.946996,"lng":139.855718,"delta_lat":[0,-97704,7539,60607,78134],"delta_lng":[0,136514,2422,-4607,-109829]},"impl":true},
    {"code":9935402,"id":"a7f561","name":"乃木神社前","name_kana":"のぎじんじゃまえ","closed":true,"lat":36.884667,"lng":139.998764,"prefecture":9,"lines":[99354],"postal_code":"329-2704","address":"栃木県那須塩原市新南６９３−５","open_date":"1935-08-21","closed_date":"1968-12-16","next":[9935403,100406,1131931],"voronoi":{"lat":36.902735,"lng":140.021753,"delta_lat":[0,14703,-60607],"delta_lng":[0,-31707,4607]},"impl":false},
    {"code":9935403,"id":"db33c4","name":"大高前","name_kana":"だいこうまえ","closed":true,"lat":36.873878,"lng":140.017039,"prefecture":9,"lines":[99354],"postal_code":"324-0058","address":"栃木県大田原市紫塚１丁目１","open_date":"1933-08-17","closed_date":"1968-12-16","next":[1131931,9935402,9935405,1131930,9935404,100406],"voronoi":{"lat":36.896192,"lng":140.029013,"delta_lat":[0,-74976,28076,7539,45904,-438],"delta_lng":[0,-22501,-14281,2422,27100,6952]},"impl":false},
    {"code":9935404,"id":"8b2c00","name":"大田原","name_kana":"おおたわら","closed":true,"lat":36.870972,"lng":140.026722,"prefecture":9,"lines":[99354],"postal_code":"324-0051","address":"栃木県大田原市山の手２丁目１５","open_date":"1918-04-17","closed_date":"1968-12-16","next":[1131930,9935406,9935405,9935403,1131928],"voronoi":{"lat":36.814785,"lng":140.049917,"delta_lat":[0,81407,-74976,-31176,-20150],"delta_lng":[0,-20903,-22501,12317,28940]},"impl":false},
    {"code":9935405,"id":"7c4fa5","name":"中田原","closed":true,"lat":36.875196,"lng":140.043172,"prefecture":9,"lines":[99354],"postal_code":"324-0062","address":"栃木県大田原市中田原１５２５−７","open_date":"1933-08-17","closed_date":"1968-12-16","next":[9935403,9935406,9935404,100406],"voronoi":{"lat":36.902298,"lng":140.028705,"delta_lat":[0,-6105,-81407,103725],"delta_lng":[0,308,20903,19728]},"impl":false},
    {"code":9935406,"id":"3c0247","name":"金丸原","closed":true,"lat":36.868502,"lng":140.078368,"prefecture":9,"lines":[99354],"postal_code":"324-0011","address":"栃木県大田原市北金丸１５６３−４","open_date":"1918-04-17","closed_date":"1968-12-16","next":[9935404,1123101,9935408,1133404,9935405,1131928,9935407,100406],"voronoi":{"lat":36.922377,"lng":140.086415,"delta_lat":[0,-141597,-14979,3964,126,44895,103725,1081],"delta_lng":[0,-5886,-2674,-29977,-109,2147,19728,1190]},"impl":false},
    {"code":9935407,"id":"c73060","name":"白旗城址前","closed":true,"lat":36.86802,"lng":140.089964,"prefecture":9,"lines":[99354],"postal_code":"324-0011","address":"栃木県大田原市北金丸","open_date":"1936-05-14","closed_date":"1968-12-16","next":[1123101,9935408,9935406],"voronoi":{"lat":36.931549,"lng":140.117885,"delta_lat":[0,-150769,141597],"delta_lng":[0,-37356,5886]},"impl":false},
    {"code":9935408,"id":"52b914","name":"黒羽","name_kana":"くろばね","closed":true,"lat":36.862333,"lng":140.112917,"prefecture":9,"lines":[99354],"postal_code":"324-0241","address":"栃木県黒羽向町大田原市","open_date":"1918-04-17","closed_date":"1968-12-16","next":[1133832,1123104,9935407,1133405,9935406,1123102,1133408,1123103,1133826,1133825,1123101,1133404,1133827],"voronoi":{"lat":36.908462,"lng":140.256427,"delta_lat":[0,-52441,-83524,-15807,3262,5848,14979,150769,2106,7133,-2878,-5196,-9019],"delta_lng":[0,-9312,-32182,-79449,-38934,-18695,2674,37356,4307,37446,69273,23755,4438]},"impl":false}
  ],
  "closed_date":"1968-12-16",
  "impl":false
}