{
  "code":99353,
  "id":"baeb6f",
  "name":"茨城線",
  "name_kana":"いばらきせん",
  "name_formal":"茨城交通茨城線",
  "station_size":16,
  "closed":true,
  "station_list":[
    {"code":1122915,"id":"b80311","name":"赤塚","name_kana":"あかつか","lat":36.381755,"lng":140.415248,"prefecture":8,"lines":[11229,99353],"attr":"eco","postal_code":"311-4141","address":"水戸市赤塚１","next":[9932306,9935307,1122916,9932207,1122914,9935308,9935302],"voronoi":{"lat":36.393798,"lng":140.420006,"delta_lat":[0,4730,526,-131548,-420,4790,82427],"delta_lng":[0,-12474,-27810,24536,1379,7730,17500]},"impl":true},
    {"code":9935302,"id":"030ef5","name":"東石川","closed":true,"lat":36.385881,"lng":140.430252,"prefecture":8,"lines":[99353],"postal_code":"311-4142","address":"茨城県水戸市東赤塚２１０８","closed_date":"1971-02-11","next":[9935303,9935307,9935306,1122915,1122916],"voronoi":{"lat":36.354302,"lng":140.430867,"delta_lat":[0,39495,3032,-2111,-25843],"delta_lng":[0,-10861,10460,2329,5258]},"impl":false},
    {"code":9935303,"id":"2531fa","name":"西原町","closed":true,"lat":36.387577,"lng":140.438588,"prefecture":8,"lines":[99353],"postal_code":"310-0043","address":"茨城県水戸市松が丘１丁目２-４０","closed_date":"1971-02-11","next":[9935305,1122916,9935304,9935302,9935306],"voronoi":{"lat":36.390157,"lng":140.443494,"delta_lat":[0,-10164,-11117,25843,-2285],"delta_lng":[0,3685,-9127,-5258,8745]},"impl":false},
    {"code":9935304,"id":"eb06bc","name":"上水戸","name_kana":"かみみと","closed":true,"lat":36.391321,"lng":140.448914,"prefecture":8,"lines":[99353],"postal_code":"310-0041","address":"茨城県水戸市上水戸３丁目７-３６","open_date":"1926-10-24","closed_date":"1971-02-11","next":[1133802,1122916,9935303,9935305,1133803],"voronoi":{"lat":36.403281,"lng":140.463822,"delta_lat":[0,-13125,-10164,7921,4745],"delta_lng":[0,-20328,3685,19625,1032]},"impl":false},
    {"code":9935305,"id":"9560d8","name":"曙町(茨城)","original_name":"曙町","closed":true,"lat":36.394617,"lng":140.446786,"prefecture":8,"lines":[99353],"postal_code":"310-0055","address":"茨城県水戸市袴塚１丁目６-１６銀星映画劇場","closed_date":"1971-02-11","next":[9935303,1133803,9935306,9935304],"voronoi":{"lat":36.420179,"lng":140.459353,"delta_lat":[0,-27745,-2277,13125],"delta_lng":[0,-17814,1955,20328]},"impl":false},
    {"code":9935306,"id":"f0773e","name":"大学前(茨城)","original_name":"大学前","closed":true,"lat":36.398113,"lng":140.441341,"prefecture":8,"lines":[99353],"postal_code":"310-0055","address":"茨城県水戸市袴塚３丁目６","closed_date":"1971-02-11","next":[1133804,1133803,9935302,1133813,9935303,9935305,9935307,9935309],"voronoi":{"lat":36.435966,"lng":140.452398,"delta_lat":[0,-12166,-3622,-27745,2285,2111,35387,4176],"delta_lng":[0,6427,528,-17814,-8745,-2329,16434,4288]},"impl":false},
    {"code":9935307,"id":"3b33ea","name":"堀","closed":true,"lat":36.405967,"lng":140.424429,"prefecture":8,"lines":[99353],"postal_code":"310-0903","address":"茨城県水戸市堀町５０５−９","closed_date":"1968-06-16","next":[9935309,1122915,9935302,9935308,9935306],"voronoi":{"lat":36.39683,"lng":140.430465,"delta_lat":[0,-3032,4730,28814,4875],"delta_lng":[0,-10460,-12474,30421,8947]},"impl":false},
    {"code":9935308,"id":"48b27b","name":"田野(茨城)","original_name":"田野","closed":true,"lat":36.414997,"lng":140.415876,"prefecture":8,"lines":[99353],"postal_code":"310-0901","address":"茨城県水戸市田野町３４３","closed_date":"1968-06-16","next":[1122914,9935307,1122915,9935309],"voronoi":{"lat":36.410379,"lng":140.371659,"delta_lat":[0,-11326,-526,28814],"delta_lng":[0,8062,27810,30421]},"impl":false},
    {"code":9935309,"id":"e01e71","name":"飯富","name_kana":"いいとみ","closed":true,"lat":36.427566,"lng":140.41266,"prefecture":8,"lines":[99353],"postal_code":"311-4206","address":"茨城県水戸市飯富町３５６２−７","open_date":"1926-10-24","closed_date":"1968-06-16","next":[9935307,9935311,1133813,1122914,9935310,9935306,9935308],"voronoi":{"lat":36.432217,"lng":140.446899,"delta_lat":[0,4176,3959,-8069,-7818,-14085,16962],"delta_lng":[0,4288,-3241,-74941,-14871,13525,66293]},"impl":false},
    {"code":9935310,"id":"9615a2","name":"藤井(茨城)","original_name":"藤井","name_kana":"ふじい","closed":true,"lat":36.445333,"lng":140.410747,"prefecture":8,"lines":[99353],"postal_code":"311-4201","address":"茨城県水戸市藤井町２４７−４","open_date":"1926-10-24","closed_date":"1968-06-16","next":[9935311,1133814,1133815,1133813,9935309],"voronoi":{"lat":36.432283,"lng":140.373006,"delta_lat":[0,43657,-1096,-6171,-28321],"delta_lng":[0,50826,2432,8158,13525]},"impl":false},
    {"code":9935311,"id":"6776c1","name":"那珂西","name_kana":"なかさい","closed":true,"lat":36.467623,"lng":140.391601,"prefecture":8,"lines":[99353],"postal_code":"311-4302","address":"茨城県東茨城郡城里町大字那珂西２４６９−１","open_date":"1926-10-24","closed_date":"1968-06-16","next":[9935310,1133815,9935309,9935312,1122914,9935313],"voronoi":{"lat":36.497279,"lng":140.396615,"delta_lat":[0,-69471,-3344,7818,43657,26122],"delta_lng":[0,-46887,8406,14871,50826,-21564]},"impl":false},
    {"code":9935312,"id":"810e2e","name":"石塚","name_kana":"いしつか","closed":true,"lat":36.481535,"lng":140.370988,"prefecture":8,"lines":[99353],"postal_code":"311-4303","address":"茨城県東茨城郡城里町大字石塚１１８０−１","open_date":"1926-10-24","closed_date":"1968-06-16","next":[9935313,1133914,9935311,1122914],"voronoi":{"lat":36.435681,"lng":140.301443,"delta_lat":[0,27788,33810,-69471],"delta_lng":[0,-24218,119390,-46887]},"impl":false},
    {"code":9935313,"id":"3c7eec","name":"常陸岩船","closed":true,"lat":36.497249,"lng":140.366538,"prefecture":8,"lines":[99353],"postal_code":"311-4324","address":"茨城県東茨城郡城里町大字高久５","closed_date":"1966-06-01","next":[9935312,9935314,9935315,1133815,1133914,9935311,9935316],"voronoi":{"lat":36.468654,"lng":140.271861,"delta_lat":[0,-5185,33810,4782,832,6053,-16225],"delta_lng":[0,5365,119390,5652,-102,-55291,-37442]},"impl":false},
    {"code":9935314,"id":"5ad41f","name":"阿波山","name_kana":"あはやま","closed":true,"lat":36.516113,"lng":140.368603,"prefecture":8,"lines":[99353],"postal_code":"311-4344","address":"茨城県東茨城郡城里町大字阿波山１８９−２","open_date":"1927-02-23","closed_date":"1966-06-01","next":[1133815,9935313,9935315,1133816],"voronoi":{"lat":36.546022,"lng":140.380339,"delta_lat":[0,-37075,-6053,10562],"delta_lng":[0,-33464,55291,1535]},"impl":false},
    {"code":9935315,"id":"26abbd","name":"阿野沢","closed":true,"lat":36.531293,"lng":140.351785,"prefecture":8,"lines":[99353],"postal_code":"311-4342","address":"茨城県東茨城郡城里町大字上阿野沢７７２","closed_date":"1966-06-01","next":[1133816,9935313,9935316,9935314,1133817],"voronoi":{"lat":36.546022,"lng":140.380339,"delta_lat":[0,-37075,-16225,63843,-9379],"delta_lng":[0,-33464,-37442,50716,19878]},"impl":false},
    {"code":9935316,"id":"3304e2","name":"御前山","name_kana":"ごぜんやま","closed":true,"lat":36.542701,"lng":140.337424,"prefecture":8,"lines":[99353],"postal_code":"311-4341","address":"茨城県東茨城郡城里町大字御前山１２２−２","open_date":"1927-03-26","closed_date":"1966-06-01","next":[1133408,1133817,1133821,9935315,1133914,9933017,9935313],"voronoi":{"lat":36.468654,"lng":140.271861,"delta_lat":[0,4069,136773,31568,-2762,-81738,-63843],"delta_lng":[0,-7593,-10387,18654,7033,80581,-50716]},"impl":false}
  ],
  "closed_date":"1971-02-11",
  "impl":false
}