{
  "code":99351,
  "id":"91a0b4",
  "name":"筑波線",
  "name_kana":"つくばせん",
  "name_formal":"筑波鉄道筑波線",
  "station_size":18,
  "company_code":310,
  "closed":true,
  "station_list":[
    {"code":1122907,"id":"ec441e","name":"土浦","name_kana":"つちうら","lat":36.078644,"lng":140.206238,"prefecture":8,"lines":[11229,99351],"attr":"eco","postal_code":"300-0035","address":"土浦市有明町","next":[1132707,1122905,9931903,9935102,1122908,1122906,9935103],"voronoi":{"lat":36.062003,"lng":140.177246,"delta_lat":[0,-79224,-2454,-679,27409,91033,-23295],"delta_lng":[0,94500,3625,4225,39007,-89751,-44435]},"impl":true},
    {"code":9935102,"id":"61f1a1","name":"新土浦","name_kana":"しんつちうら","closed":true,"lat":36.090551,"lng":140.199996,"prefecture":8,"lines":[99351],"postal_code":"300-0051","address":"茨城県土浦市真鍋１丁目１１","open_date":"1959-07-01","closed_date":"1987-04-01","next":[9935103,9935104,1122907,1122908],"voronoi":{"lat":36.074794,"lng":140.184416,"delta_lat":[0,56845,11280,-44830],"delta_lng":[0,11685,5205,27545]},"impl":false},
    {"code":9935103,"id":"2aae57","name":"虫掛","name_kana":"むしかけ","closed":true,"lat":36.095419,"lng":140.176315,"prefecture":8,"lines":[99351],"postal_code":"300-0066","address":"茨城県土浦市虫掛","open_date":"1918-04-17","closed_date":"1987-04-01","next":[9935102,9930920,9935104,1122906,1122907],"voronoi":{"lat":36.131639,"lng":140.196101,"delta_lat":[0,-55953,-8969,-4713,12790],"delta_lng":[0,-50032,1763,29413,7171]},"impl":false},
    {"code":9935104,"id":"e1d09d","name":"坂田(茨城)","original_name":"坂田","name_kana":"さかた","closed":true,"lat":36.107941,"lng":140.162311,"prefecture":8,"lines":[99351],"postal_code":"300-4114","address":"茨城県土浦市上坂田","open_date":"1955-10-01","closed_date":"1987-04-01","next":[9935103,9935102,9930920,1122908,9935105],"voronoi":{"lat":36.09916,"lng":140.134519,"delta_lat":[0,-23475,55953,11280,1454],"delta_lng":[0,11550,50032,5205,-210]},"impl":false},
    {"code":9935105,"id":"1d7e71","name":"常陸藤沢","name_kana":"ひたちふじさわ","closed":true,"lat":36.121755,"lng":140.15293,"prefecture":8,"lines":[99351],"postal_code":"300-4115","address":"茨城県土浦市藤沢","open_date":"1918-04-17","closed_date":"1987-04-01","next":[1122908,9930920,9935106,1122910,9935104],"voronoi":{"lat":36.183321,"lng":140.201638,"delta_lat":[0,21244,-99665,-5739,45212],"delta_lng":[0,-11696,-60747,5324,66577]},"impl":false},
    {"code":9935106,"id":"4401ca","name":"田土部","name_kana":"たどべ","closed":true,"lat":36.133719,"lng":140.133301,"prefecture":8,"lines":[99351],"postal_code":"300-4118","address":"茨城県土浦市田土部","open_date":"1918-02-17","closed_date":"1987-04-01","next":[9935107,9930920,9935114,9935105,1122910],"voronoi":{"lat":36.1049,"lng":140.129196,"delta_lat":[0,12803,99792,713,-13643],"delta_lng":[0,-28890,80718,3530,5389]},"impl":false},
    {"code":9935107,"id":"12640e","name":"常陸小田","name_kana":"ひたちおだ","closed":true,"lat":36.153317,"lng":140.109072,"prefecture":8,"lines":[99351],"postal_code":"300-4223","address":"茨城県つくば市小田２５０９","open_date":"1918-04-17","closed_date":"1987-04-01","next":[9935106,9935108,9930920,9935114,9930919],"voronoi":{"lat":36.117702,"lng":140.100305,"delta_lat":[0,99792,-403,-85543,-13941],"delta_lng":[0,80718,-10877,-111237,37022]},"impl":false},
    {"code":9935108,"id":"c101a8","name":"常陸北条","name_kana":"ひたちほうじょう","closed":true,"lat":36.17444,"lng":140.092828,"prefecture":8,"lines":[99351],"postal_code":"300-4231","address":"茨城県つくば市北条４４１０−１","open_date":"1918-04-17","closed_date":"1987-04-01","next":[9935114,9930919,9935107,9931818,9931816,9935109,9931817],"voronoi":{"lat":36.142333,"lng":140.035398,"delta_lat":[0,26414,49810,-1466,-85543,2237,7518],"delta_lng":[0,-4505,126505,12748,-111237,-19544,-3641]},"impl":false},
    {"code":9935109,"id":"56e6aa","name":"筑波","name_kana":"つくば","closed":true,"lat":36.206809,"lng":140.080083,"prefecture":8,"lines":[99351],"postal_code":"300-4353","address":"茨城県つくば市沼田２８３","open_date":"1918-04-17","closed_date":"1987-04-01","next":[9935110,9935113,9935114,9935111,9935112,9931818,9935108,9931820],"voronoi":{"lat":36.179596,"lng":140.025981,"delta_lat":[0,49967,3566,638,-1191,-14018,-49810,10053],"delta_lng":[0,62820,6696,13473,8647,39781,-126505,-4886]},"impl":false},
    {"code":9935110,"id":"26bc8a","name":"上大島","name_kana":"かみおおしま","closed":true,"lat":36.226187,"lng":140.06467,"prefecture":8,"lines":[99351],"postal_code":"300-4351","address":"城県つくば市上大島１１７０−４","open_date":"1918-06-07","closed_date":"1987-04-01","next":[9931821,9935109,9935111,9931820],"voronoi":{"lat":36.229562,"lng":140.088802,"delta_lat":[0,2995,-33937,-19025],"delta_lng":[0,-68592,1135,4637]},"impl":false},
    {"code":9935111,"id":"6c2760","name":"酒寄","name_kana":"さかより","closed":true,"lat":36.235028,"lng":140.065056,"prefecture":8,"lines":[99351],"postal_code":"300-4413","address":"茨城県桜川市真壁町酒寄","open_date":"1959-07-01","closed_date":"1987-04-01","next":[9931822,9935112,9935110,9931821,9935109],"voronoi":{"lat":36.229562,"lng":140.088802,"delta_lat":[0,2995,4815,35004,-39248],"delta_lng":[0,-68592,-640,4815,71113]},"impl":false},
    {"code":9935112,"id":"371ce3","name":"紫尾","name_kana":"しいお","closed":true,"lat":36.257872,"lng":140.077664,"prefecture":8,"lines":[99351],"postal_code":"300-4414","address":"茨城県桜川市真壁町椎尾４５０","open_date":"1918-06-07","closed_date":"1987-04-01","next":[9935111,9935113,9935109,1133908,9931822,1133907],"voronoi":{"lat":36.272857,"lng":140.024336,"delta_lat":[0,-480,-39248,638,58315,-17320],"delta_lng":[0,49,71113,13473,-52231,-31513]},"impl":false},
    {"code":9935113,"id":"8369dc","name":"常陸桃山","name_kana":"ひたちももやま","closed":true,"lat":36.267529,"lng":140.088446,"prefecture":8,"lines":[99351],"postal_code":"300-4412","address":"茨城県桜川市真壁町羽鳥","open_date":"1957-12-14","closed_date":"1987-04-01","next":[9935116,9935109,9935114,9935112,1133908,9935115],"voronoi":{"lat":36.232575,"lng":140.117617,"delta_lat":[0,1191,58315,9954,-400,-13265],"delta_lng":[0,-8647,-52231,12210,987,17665]},"impl":false},
    {"code":9935114,"id":"d43684","name":"真壁","name_kana":"まかべ","closed":true,"lat":36.27618,"lng":140.104527,"prefecture":8,"lines":[99351],"postal_code":"300-4407","address":"茨城県桜川市真壁町古城５３−１","open_date":"1918-06-07","closed_date":"1987-04-01","next":[1122911,9935108,1122910,9935113,9935109,9935106,1133912,9935107,9935115,1122912],"voronoi":{"lat":36.261883,"lng":140.193203,"delta_lat":[0,7358,19129,-55795,-14018,-1466,403,713,13060,21505],"delta_lng":[0,-6701,-98901,30016,39781,12748,10877,3530,6309,3365]},"impl":false},
    {"code":9935115,"id":"9e59c2","name":"樺穂","name_kana":"かばほ","closed":true,"lat":36.293371,"lng":140.107852,"prefecture":8,"lines":[99351],"postal_code":"300-4403","address":"茨城県桜川市真壁町長岡２１７−５","open_date":"1922-03-20","closed_date":"1987-04-01","next":[1133912,9935116,1133911,9935114,9935113],"voronoi":{"lat":36.301636,"lng":140.069937,"delta_lat":[0,3959,-1381,-34972,19129],"delta_lng":[0,88523,2436,25607,-98901]},"impl":false},
    {"code":9935116,"id":"f18f9b","name":"東飯田","name_kana":"ひがしいいだ","closed":true,"lat":36.313252,"lng":140.106963,"prefecture":8,"lines":[99351],"postal_code":"309-1233","address":"茨城県桜川市東飯田","open_date":"1955-12-23","closed_date":"1987-04-01","next":[9935117,1133911,1133908,9935113,9935115],"voronoi":{"lat":36.301636,"lng":140.069937,"delta_lat":[0,400,5026,19895,-21362],"delta_lng":[0,-987,1098,63454,24958]},"impl":false},
    {"code":9935117,"id":"295fe3","name":"雨引","name_kana":"あまびき","closed":true,"lat":36.323056,"lng":140.103889,"prefecture":8,"lines":[99351],"postal_code":"309-1231","address":"茨城県桜川市本木１６１４","open_date":"1918-09-07","closed_date":"1987-04-01","next":[1133909,9935116,1133910,1133908,1133911],"voronoi":{"lat":36.307061,"lng":140.070047,"delta_lat":[0,2276,33423,-3858,-11946],"delta_lng":[0,176,24530,28888,9860]},"impl":false},
    {"code":1133910,"id":"01d7f7","name":"岩瀬","name_kana":"いわせ","lat":36.359377,"lng":140.108739,"prefecture":8,"lines":[11339,99351],"attr":"eco","postal_code":"309-1217","address":"桜川市犬田","next":[9935117,9933011,9933010,1133911,1133909],"voronoi":{"lat":36.338903,"lng":140.123642,"delta_lat":[0,78989,-7384,-9803,-57944],"delta_lng":[0,9433,-37843,-23005,22527]},"impl":true}
  ],
  "closed_date":"1987-04-01",
  "impl":false
}