{
  "code":99352,
  "id":"52a42a",
  "name":"日立電鉄線",
  "name_kana":"ひたちでんてつせん",
  "name_formal":"日立電鉄線",
  "station_size":14,
  "company_code":311,
  "closed":true,
  "station_list":[
    {"code":9935201,"id":"399713","name":"鮎川(茨城)","original_name":"鮎川","name_kana":"あゆかわ","closed":true,"lat":36.566775,"lng":140.646817,"prefecture":8,"lines":[99352],"postal_code":"316-0035","address":"茨城県日立市国分町１丁目６番1号","open_date":"1947-09-01","closed_date":"2005-04-01","next":[9935214,1122922,9935202,1122923],"voronoi":{"lat":36.63752,"lng":140.561912,"delta_lat":[0,-3995,-70494,-28266],"delta_lng":[0,1178,72963,87043]},"impl":false},
    {"code":9935202,"id":"1c0090","name":"桜川(茨城)","original_name":"桜川","name_kana":"さくらがわ","closed":true,"lat":36.553678,"lng":140.642564,"prefecture":8,"lines":[99352],"postal_code":"316-0035","address":"茨城県日立市国分町１丁目２","open_date":"1947-09-01","closed_date":"2005-04-01","next":[1122922,9935203,9931502,1122923,9935201],"voronoi":{"lat":36.563031,"lng":140.636053,"delta_lat":[0,-12539,-112420,-15098,111791],"delta_lng":[0,1945,189834,107805,-212541]},"impl":false},
    {"code":9935203,"id":"7a29bf","name":"河原子","name_kana":"かわらご","closed":true,"lat":36.544958,"lng":140.6374,"prefecture":8,"lines":[99352],"postal_code":"316-0004","address":"茨城県日立市東多賀町３丁目６-１８","open_date":"1947-09-01","closed_date":"2005-04-01","next":[9935205,9935202,9931502,9935204,1122922],"voronoi":{"lat":36.544884,"lng":140.629454,"delta_lat":[0,-38326,-65435,-3050,112420],"delta_lng":[0,54188,118002,26188,-189834]},"impl":false},
    {"code":9935204,"id":"7ecae3","name":"大沼(茨城)","original_name":"大沼","name_kana":"おおぬま","closed":true,"lat":36.537367,"lng":140.632031,"prefecture":8,"lines":[99352],"postal_code":"316-0014","address":"茨城県日立市東金沢町２丁目１６-１１","open_date":"1947-09-01","closed_date":"2005-04-01","next":[1122922,9935205,9935203,9935210],"voronoi":{"lat":36.5463,"lng":140.597311,"delta_lat":[0,-1416,-38326,39380],"delta_lng":[0,32144,54188,-86120]},"impl":false},
    {"code":9935205,"id":"05daa1","name":"水木","name_kana":"みずき","closed":true,"lat":36.525442,"lng":140.626578,"prefecture":8,"lines":[99352],"postal_code":"316-0024","address":"茨城県日立市水木町２丁目２-１５","open_date":"1947-09-01","closed_date":"2005-04-01","next":[9935203,9935207,1122921,9935204,9931502,9935210],"voronoi":{"lat":36.545938,"lng":140.597522,"delta_lat":[0,-39380,-65435,2260,25209,62351],"delta_lng":[0,86120,118002,-38590,-53109,-107057]},"impl":false},
    {"code":1122921,"id":"fdb18c","name":"大甕","name_kana":"おおみか","lat":36.513052,"lng":140.619362,"prefecture":8,"lines":[11229,99352],"attr":"cool","postal_code":"319-1221","address":"日立市大みか町２","next":[9935207,9935205,9935209,9935210],"voronoi":{"lat":36.50811,"lng":140.608684,"delta_lat":[0,-39519,62351,-2720],"delta_lng":[0,101262,-107057,121]},"impl":true},
    {"code":9935207,"id":"9a8b18","name":"久慈浜","name_kana":"くじはま","closed":true,"lat":36.497242,"lng":140.613192,"prefecture":8,"lines":[99352],"postal_code":"319-1222","address":"茨城県日立市久慈町３丁目４０-２","open_date":"1928-12-27","closed_date":"2005-04-01","next":[9931502,1122921,9935205,9935208,1122920,9935209,9931501],"voronoi":{"lat":36.443382,"lng":140.763055,"delta_lat":[0,25209,39519,-423,-56211,-11119,-396],"delta_lng":[0,-53109,-101262,-248,1151,7482,59839]},"impl":false},
    {"code":9935208,"id":"c96174","name":"南高野","name_kana":"みなみこうや","closed":true,"lat":36.497056,"lng":140.604111,"prefecture":8,"lines":[99352],"postal_code":"319-1222","address":"茨城県日立市久慈町５丁目４８-２５","open_date":"1929-08-16","closed_date":"2005-04-01","next":[9935210,9935207,1122920,9935209],"voronoi":{"lat":36.451476,"lng":140.609587,"delta_lat":[0,35466,100,20645],"delta_lng":[0,-29352,91,28110]},"impl":false},
    {"code":9935209,"id":"3f48ef","name":"茂宮","name_kana":"もみや","closed":true,"lat":36.506742,"lng":140.596997,"prefecture":8,"lines":[99352],"postal_code":"319-1225","address":"茨城県日立市石名坂町１丁目３４-１３","open_date":"1929-07-03","closed_date":"2005-04-01","next":[9935210,9935207,1122921,9935208],"voronoi":{"lat":36.487042,"lng":140.580326,"delta_lat":[0,41180,-20112,-423],"delta_lng":[0,22684,5674,-248]},"impl":false},
    {"code":9935210,"id":"b266b5","name":"大橋(茨城)","original_name":"大橋","name_kana":"おおはし","closed":true,"lat":36.511661,"lng":140.588067,"prefecture":8,"lines":[99352],"postal_code":"319-1234","address":"茨城県日立市大和田町１丁目７","open_date":"1929-07-03","closed_date":"2005-04-01","next":[9935208,9935209,9935211,1122922,9935204,1122920,9935205,1122921],"voronoi":{"lat":36.530943,"lng":140.602888,"delta_lat":[0,14995,362,2954,-56873,-5438,100,41180],"delta_lng":[0,-5366,-212,-2680,-25718,11322,91,22684]},"impl":false},
    {"code":9935211,"id":"8dc7c2","name":"川中子","name_kana":"かわなかご","closed":true,"lat":36.519497,"lng":140.570739,"prefecture":8,"lines":[99352],"postal_code":"313-0033","address":"茨城県常陸太田市小目町７８５","open_date":"1929-07-03","closed_date":"2005-04-01","next":[1122920,9935210,1122922,9935212],"voronoi":{"lat":36.49382,"lng":140.553029,"delta_lat":[0,-1440,56873,27319],"delta_lng":[0,15884,25718,-14399]},"impl":false},
    {"code":9935212,"id":"d54fdd","name":"常陸岡田","name_kana":"ひたちおかだ","closed":true,"lat":36.524997,"lng":140.554008,"prefecture":8,"lines":[99352],"postal_code":"313-0031","address":"茨城県常陸太田市岡田町１７４６−２","open_date":"1929-07-03","closed_date":"2005-04-01","next":[1122922,1122920,9935214,9935213,9935211],"voronoi":{"lat":36.49382,"lng":140.553029,"delta_lat":[0,-1099,63695,60489,-40333],"delta_lng":[0,-5539,1837,16988,13917]},"impl":false},
    {"code":9935213,"id":"5a9ee6","name":"小沢(茨城)","original_name":"小沢","name_kana":"おざわ","closed":true,"lat":36.525319,"lng":140.542842,"prefecture":8,"lines":[99352],"postal_code":"313-0038","address":"茨城県常陸太田市小沢町８１０−３","open_date":"1929-07-03","closed_date":"2005-04-01","next":[1133812,9935214,1133811,1133810,9935212,1122920],"voronoi":{"lat":36.492251,"lng":140.546264,"delta_lat":[0,8267,23266,59,32573,-63695],"delta_lng":[0,-5488,-7229,23,15756,-1837]},"impl":false},
    {"code":9935214,"id":"302b21","name":"常北太田","name_kana":"じょうほくおおた","closed":true,"lat":36.532028,"lng":140.528972,"prefecture":8,"lines":[99352],"postal_code":"313-0013","address":"茨城県常陸太田市山下町１７２２−１","open_date":"1929-07-03","closed_date":"2005-04-01","next":[9935201,1122922,1122924,9935213,1133812,1122923,9935212,1133819],"voronoi":{"lat":36.645408,"lng":140.558448,"delta_lat":[0,-7888,-3995,-16620,-60489,-32573,77498,75136],"delta_lng":[0,3465,1178,3224,-16988,-15756,-51773,54455]},"impl":false}
  ],
  "closed_date":"2005-04-01",
  "impl":false
}