{
  "code":99401,
  "name":"富士急行",
  "symbol":"FJ",
  "station_list":[
    {"code":1131120,"id":"3c541f","name":"大月","name_kana":"おおつき","lat":35.613222,"lng":138.942729,"prefecture":19,"numbering":[{"index":"01"}],"lines":[11311,99401],"attr":"heat","postal_code":"401-0013","address":"大月市大月１丁目","next":[1131125,1131525,1131121,1131119,9930635,9940102,1131123],"voronoi":{"lat":35.793147,"lng":138.898062,"delta_lat":[0,-2113,-30736,-166647,74264,48939,44921],"delta_lng":[0,20372,39087,-2222,-62643,-15780,7289]}},
    {"code":9940102,"id":"618ea0","name":"上大月","name_kana":"かみおおつき","lat":35.609341,"lng":138.938128,"prefecture":19,"numbering":[{"index":"02"}],"lines":[99401],"attr":"heat","postal_code":"401-0013","address":"大月市大月２丁目","next":[1131119,9940103,1131121,1131120],"voronoi":{"lat":35.592445,"lng":138.955441,"delta_lat":[0,20500,54970,-74264],"delta_lng":[0,-47492,-15292,62643]}},
    {"code":9940103,"id":"124342","name":"田野倉","name_kana":"たのくら","lat":35.593456,"lng":138.931271,"prefecture":19,"numbering":[{"index":"03"}],"lines":[99401],"attr":"heat","postal_code":"402-0001","address":"都留市田野倉","next":[1131119,9940104,9940105,9940102,1131121],"voronoi":{"lat":35.592445,"lng":138.955441,"delta_lat":[0,-11695,5672,2329,24194],"delta_lng":[0,6120,-49847,-4183,418]}},
    {"code":9940104,"id":"1302e8","name":"禾生","name_kana":"かせい","lat":35.575175,"lng":138.929191,"prefecture":19,"numbering":[{"index":"04"}],"lines":[99401],"attr":"heat","postal_code":"402-0004","address":"都留市古川渡","next":[1131118,9940103,9940107,1131117,1150508,9940105,1131119],"voronoi":{"lat":35.490532,"lng":139.011188,"delta_lat":[0,-4633,-6500,47426,59598,-5672,-18443],"delta_lng":[0,1280,-12436,-47177,-41142,49847,17741]}},
    {"code":9940105,"id":"2e6985","name":"赤坂(山梨)","name_kana":"あかさか","lat":35.566093,"lng":138.916035,"prefecture":19,"numbering":[{"index":"05"}],"lines":[99401],"attr":"heat","postal_code":"402-0005","address":"都留市四日市場","next":[9940103,9940106,9940104,1131121,9940107],"voronoi":{"lat":35.542395,"lng":138.9319,"delta_lat":[0,33842,12515,-2329,-59598],"delta_lng":[0,-35369,10999,4183,41142]}},
    {"code":9940106,"id":"7be04c","name":"都留市","name_kana":"つるし","lat":35.557199,"lng":138.907525,"prefecture":19,"numbering":[{"index":"06"}],"lines":[99401],"attr":"heat","postal_code":"402-0056","address":"都留市つる１-１２-１","next":[1131121,9940107,9940105,9940109,9940108],"voronoi":{"lat":35.564894,"lng":138.882098,"delta_lat":[0,1372,9970,-33842,22078],"delta_lng":[0,-1254,15688,35369,-49244]}},
    {"code":9940107,"id":"0fee81","name":"谷村町","name_kana":"やむらまち","lat":35.550744,"lng":138.904631,"prefecture":19,"numbering":[{"index":"07"}],"lines":[99401],"attr":"heat","postal_code":"402-0053","address":"都留市上谷１丁目","next":[9940104,9940106,1150509,1150508,9940108,9940105],"voronoi":{"lat":35.479399,"lng":139.000033,"delta_lat":[0,-2230,-8748,96052,-22078,-15570],"delta_lng":[0,-3073,-18017,-96286,49244,20955]}},
    {"code":9940108,"id":"4684d0","name":"都留文科大学前","name_kana":"つるぶんかだいがくまえ","lat":35.542531,"lng":138.896438,"prefecture":19,"numbering":[{"index":"08"}],"lines":[99401],"attr":"heat","postal_code":"402-0054","address":"都留市田原２-６５４","next":[1150509,9940106,9940107,9940109],"voronoi":{"lat":35.46842,"lng":138.978943,"delta_lat":[0,96052,422,-122381],"delta_lng":[0,-96286,-559,49915]}},
    {"code":9940109,"id":"98a5d6","name":"十日市場(山梨)","name_kana":"とおかいちば","lat":35.538881,"lng":138.887489,"prefecture":19,"numbering":[{"index":"09"}],"lines":[99401],"attr":"heat","postal_code":"402-0031","address":"都留市十日市場","next":[9940111,9940106,9940110,1150509,9940112,1131121,9940108],"voronoi":{"lat":35.564894,"lng":138.882098,"delta_lat":[0,1372,-383,-103403,-27435,-9291,16759],"delta_lng":[0,-1254,-6025,15742,9544,4568,27340]}},
    {"code":9940110,"id":"dae996","name":"東桂","name_kana":"ひがしかつら","lat":35.536334,"lng":138.870758,"prefecture":19,"numbering":[{"index":"10"}],"lines":[99401],"attr":"heat","postal_code":"402-0034","address":"都留市桂町","next":[1131121,9940111,9940109,1131122],"voronoi":{"lat":35.565884,"lng":138.874819,"delta_lat":[0,-103403,103136,5911],"delta_lng":[0,15742,-49273,8772]}},
    {"code":9940111,"id":"5a67a3","name":"三つ峠","name_kana":"みつとうげ","lat":35.524291,"lng":138.84555,"prefecture":19,"numbering":[{"index":"11"}],"lines":[99401],"attr":"eco","postal_code":"403-0022","address":"南都留郡西桂町小沼","next":[9940109,9940110,9940112,1131122],"voronoi":{"lat":35.462481,"lng":138.89056,"delta_lat":[0,-27435,121052,9519],"delta_lng":[0,9544,-96072,37255]}},
    {"code":9940112,"id":"80fe64","name":"寿","name_kana":"ことぶき","lat":35.508442,"lng":138.82558,"prefecture":19,"numbering":[{"index":"12"}],"lines":[99401],"attr":"eco","postal_code":"403-0001","address":"富士吉田市上暮地","next":[9940111,9940116,9940109,1150509,9940113,1131122,1150511],"voronoi":{"lat":35.406806,"lng":138.884935,"delta_lat":[0,53734,95521,36,-121052,-9291,-15811],"delta_lng":[0,-44769,-45431,9297,96072,4568,-13717]}},
    {"code":9940113,"id":"8aed41","name":"葭池温泉前","name_kana":"よしいけおんせんまえ","lat":35.502084,"lng":138.812212,"prefecture":19,"numbering":[{"index":"13"}],"lines":[99401],"attr":"eco","postal_code":"403-0004","address":"富士吉田市下吉田","next":[9940116,9940114,9940112,1131122,9940118],"voronoi":{"lat":35.480991,"lng":138.817214,"delta_lat":[0,-20450,95521,1183,-13701],"delta_lng":[0,22952,-45431,-9276,1217]}},
    {"code":9940114,"id":"9637d4","name":"下吉田","name_kana":"しもよしだ","lat":35.497909,"lng":138.80366,"prefecture":19,"numbering":[{"index":"14"}],"lines":[99401],"attr":"eco","postal_code":"403-0011","address":"富士吉田市新倉","next":[9940113,9940115,9940116,9940118],"voronoi":{"lat":35.480991,"lng":138.817214,"delta_lat":[0,4344,27787,30422],"delta_lng":[0,-7830,-22989,281]}},
    {"code":9940115,"id":"65c6f8","name":"月江寺","name_kana":"げっこうじ","lat":35.493313,"lng":138.798105,"prefecture":19,"numbering":[{"index":"15"}],"lines":[99401],"attr":"eco","postal_code":"403-0013","address":"富士吉田市緑ケ丘１丁目","next":[9940116,9940117,9940114,9940118],"voronoi":{"lat":35.507971,"lng":138.785529,"delta_lat":[0,-17933,-4703,27787],"delta_lng":[0,4846,19009,-22989]}},
    {"code":9940116,"id":"d0f9c2","name":"富士山","name_kana":"ふじさん","lat":35.483536,"lng":138.795686,"prefecture":19,"numbering":[{"index":"16"}],"lines":[99401],"attr":"cool","postal_code":"403-0016","address":"富士吉田市松山","next":[9940115,9940113,9950309,1140206,9940117,1150511,9940112,1150512,9940114],"voronoi":{"lat":35.460541,"lng":138.840167,"delta_lat":[0,-53734,-67864,-16560,3291,11911,152453,-4703,-4344],"delta_lng":[0,44769,-89929,-26255,-20160,-19005,60789,19009,7830]}},
    {"code":9940117,"id":"7d78ab","name":"富士急ハイランド","name_kana":"ふじきゅうはいらんど","lat":35.488974,"lng":138.782048,"prefecture":19,"numbering":[{"index":"17"}],"lines":[99401],"attr":"cool","postal_code":"401-0301","address":"南都留郡富士河口湖町船津字剣丸尾","next":[1140206,1140207,9940115,9940116,9940118],"voronoi":{"lat":35.363935,"lng":138.684488,"delta_lat":[0,-9241,-17109,152453,17933],"delta_lng":[0,14794,30304,60789,-4846]}},
    {"code":9940118,"id":"a918d7","name":"河口湖","name_kana":"かわぐちこ","lat":35.498231,"lng":138.768852,"prefecture":19,"numbering":[{"index":"18"}],"lines":[99401],"attr":"cool","postal_code":"401-0301","address":"南都留郡富士河口湖町船津","next":[1131123,1140230,1140220,1140208,9940117,1131122,1131129,1140207,9940114,9940115,1140221,1140222,9940113],"voronoi":{"lat":35.513121,"lng":138.786395,"delta_lat":[0,-5151,-144036,13984,13025,5002,11917,63335,57350,47147,-5648,-12802,-13701],"delta_lng":[0,-866,-101041,-25148,-21367,-1223,-2182,-7928,16477,55959,62373,24010,1217]}}
  ],
  "north":35.61287,
  "south":35.48357,
  "east":138.94225,
  "west":138.76871,
  "polyline_list":[
    {
      "start":"富士山",
      "end":"富士山スイッチバック",
      "lat":35.48357,
      "lng":138.7951,
      "delta_lat":[0,4,1,4,11,14],
      "delta_lng":[0,-53,-12,-38,-96,-157]
    },
    {
      "start":"富士山スイッチバック",
      "end":"河口湖",
      "lat":35.48391,
      "lng":138.79154,
      "delta_lat":[0,2,12,23,1,14,10,30,38,31,27,44,3,22,34,27,72,79,6,27,35,11,10,24,0,37,62,66,32,47,49,127,2,159,63,43,54,37,19,11,6,3,2,11],
      "delta_lng":[0,-32,-115,-112,-5,-44,-28,-63,-64,-45,-35,-49,-5,-23,-34,-30,-74,-80,-7,-31,-50,-18,-19,-48,-1,-81,-139,-152,-59,-65,-47,-84,-1,-99,-52,-48,-70,-72,-48,-43,-24,-30,-23,-134]
    },
    {
      "start":"富士山スイッチバック",
      "end":"大月",
      "lat":35.48391,
      "lng":138.79154,
      "delta_lat":[0,38,35,47,41,41,47,85,29,15,9,24,21,2,20,27,35,74,23,26,15,22,10,17,20,28,30,138,45,86,206,42,18,31,22,27,19,6,11,7,13,3,23,33,36,60,61,40,31,73,26,20,9,66,64,95,48,8,56,62,62,36,20,11,13,16,7,45,30,32,25,27,22,49,32,27,28,94,26,33,20,34,29,36,29,28,14,16,14,48,5,11,13,14,18,27,51,63,22,43,81,28,21,26,23,17,10,6,1,-10,-9,-19,-23,0,0,6,16,17,15,8,23,24,26,22,43,55,24,73,13,20,15,34,1,35,14,28,14,20,16,27,72,154,98,61,2,44,24,17,36,20,36,17,56,29,75,11,50,80,73,17,64,41,6,43,61,73,31,10,3,4,2,1,0,-6,-3,-8,-4,-8,0,-9,-15,-4,-6,-1,-1,3,9,11,4,5,3,1,3,2,5,2,4,4,7,4,12,4,5,14,6,13,29,32,31,80,26,22,29,54,40,13,10,9,8,9,12,22,11,18,33,17,20,15,16,11,9,17,3,26,21,7,16,28,52,65,32,29,11,15,15,21,40,70,31,99,29,24,20,17,10,9,14,15,29,23,11,74,29,40,32,29,84,75,95,9,35,143,31,25,20,26,28,26,14,36,16,9,8,12,13,20,18,56,15,14,11,7,34,39,26,22,55,44,49,26,78,26,29,22,16,54,94,61,75,65,7,27,28,36,27,27,29,42,97,47,29,65,43,33,31,22,41,30,20,11,21,12,11,11,11,14,3,26,3,3,6,4,20,3,42,47,74,20,19,17,29,18,19,23,25,20,22,16,18,18,40,22,25,26,48,54,40,40,65,83,47,29,33,23,32,26,21,31,31,34,39,56,26,69,22,57,36,26,34,30,32,40,38,35,26,78,52,49,31,41,29,33,38,4,27,30,29,44,25,16,16,0,22,27,25,22,32,21,23,24,38,68,42,29,29,30,63,98,9,17,42,31,10,9,12,29,9,14,14,14,19,12,19,13,11,11,5,12,10,5,9,19,39],
      "delta_lng":[0,-61,-38,-31,-13,-5,10,21,17,11,9,23,34,1,36,56,68,147,49,49,25,36,14,21,18,26,22,85,28,54,130,40,19,49,49,163,121,41,50,19,36,8,43,54,47,78,89,59,55,166,70,52,22,174,157,241,114,16,112,111,108,62,35,19,18,21,11,63,42,39,24,19,10,13,-1,-6,-11,-39,-9,-4,0,2,9,15,21,31,24,37,43,159,21,18,22,19,16,20,21,19,8,15,28,17,18,26,38,41,35,39,52,54,31,90,95,36,56,32,46,34,26,10,38,39,36,31,50,57,25,85,25,29,28,72,3,92,36,93,42,55,36,50,113,235,149,99,3,71,43,36,75,41,108,44,138,71,182,28,123,198,178,31,128,79,12,89,134,164,71,25,15,21,17,23,19,22,16,29,13,27,1,26,32,13,45,6,23,27,42,39,23,35,16,17,44,50,97,56,70,89,142,34,76,18,18,63,18,38,70,71,67,177,60,46,66,124,86,28,24,16,12,11,11,13,6,8,13,7,10,10,14,12,12,31,9,63,49,14,22,43,76,92,44,35,9,10,5,7,8,11,5,34,11,9,10,14,10,12,23,24,45,36,14,42,15,19,8,3,-12,-11,-13,-3,-4,-15,0,2,5,9,15,18,14,43,21,14,15,30,39,55,46,148,36,33,18,12,46,52,33,30,70,57,59,31,101,31,38,29,25,92,159,107,132,114,12,46,47,49,36,33,32,44,103,51,31,66,42,28,24,18,32,25,16,9,21,14,17,22,28,49,9,100,8,13,23,8,34,2,47,55,82,24,15,9,15,4,3,0,-2,-6,-8,-6,-8,-10,-24,-15,-20,-21,-40,-44,-29,-25,-28,-36,-35,-28,-43,-40,-73,-48,-36,-31,-26,-17,-11,-5,-3,-7,-2,-6,-3,2,9,13,18,29,31,27,25,65,47,46,34,54,41,51,65,7,47,67,64,121,66,31,25,1,23,22,11,9,4,0,-4,-5,-13,-36,-18,-18,-21,-29,-74,-117,-3,-10,-12,-9,1,1,2,8,4,6,8,9,13,12,27,23,24,32,24,55,41,16,27,39,61]
    }
  ]
}