{
  "code":99404,
  "name":"上田電鉄別所線",
  "station_list":[
    {"code":100905,"id":"f3b943","name":"上田","name_kana":"うえだ","lat":36.396579,"lng":138.249298,"prefecture":20,"lines":[99403,99404,1009],"attr":"eco","postal_code":"386-0025","address":"上田市天神１丁目１８８７番地"},
    {"code":9940402,"id":"a68492","name":"城下(長野)","name_kana":"しろした","lat":36.392454,"lng":138.242712,"prefecture":20,"lines":[99404],"attr":"cool","postal_code":"386-0032","address":"上田市大字諏訪形字中田９８２"},
    {"code":9940403,"id":"eefb87","name":"三好町","name_kana":"みよしちょう","lat":36.391712,"lng":138.235585,"prefecture":20,"lines":[99404],"attr":"cool","postal_code":"386-0034","address":"上田市大字中之条字中満丁２４０-５"},
    {"code":9940404,"id":"22dcd7","name":"赤坂上","name_kana":"あかさかうえ","lat":36.391301,"lng":138.227224,"prefecture":20,"lines":[99404],"attr":"heat","postal_code":"386-1102","address":"上田市大字上田原字一ノ口８７５-７"},
    {"code":9940405,"id":"55559b","name":"上田原","name_kana":"うえだはら","lat":36.390488,"lng":138.221439,"prefecture":20,"lines":[99404],"attr":"heat","postal_code":"386-1102","address":"上田市大字上田原字屋鋪田６９７-５"},
    {"code":9940406,"id":"3fef12","name":"寺下","name_kana":"てらした","lat":36.38388,"lng":138.21634,"prefecture":20,"lines":[99404],"attr":"heat","postal_code":"386-1103","address":"上田市大字神畑字寺下６１６-１"},
    {"code":9940407,"id":"7b763f","name":"神畑","name_kana":"かばたけ","lat":36.377841,"lng":138.216965,"prefecture":20,"lines":[99404],"attr":"eco","postal_code":"386-1103","address":"上田市大字神畑字孤池９４-５"},
    {"code":9940408,"id":"76ecdb","name":"大学前(長野)","name_kana":"だいがくまえ","lat":36.371287,"lng":138.215171,"prefecture":20,"lines":[99404],"attr":"eco","postal_code":"386-1211","address":"上田市大字下之郷字上迎２８４-５"},
    {"code":9940409,"id":"6555ff","name":"下之郷","name_kana":"しものごう","lat":36.363249,"lng":138.217227,"prefecture":20,"lines":[99404],"attr":"eco","postal_code":"386-1211","address":"上田市大字下之郷５１７-３"},
    {"code":9940410,"id":"0ef39c","name":"中塩田","name_kana":"なかしおだ","lat":36.363212,"lng":138.204728,"prefecture":20,"lines":[99404],"attr":"eco","postal_code":"386-1324","address":"上田市大字五加字富在家１２２５-６"},
    {"code":9940411,"id":"83794b","name":"塩田町","name_kana":"しおだまち","lat":36.360888,"lng":138.198445,"prefecture":20,"lines":[99404],"attr":"eco","postal_code":"386-1325","address":"上田市大字中野字兼田４０-２"},
    {"code":9940412,"id":"4e3549","name":"中野(長野)","name_kana":"なかの","lat":36.360654,"lng":138.193438,"prefecture":20,"lines":[99404],"attr":"eco","postal_code":"386-1325","address":"上田市大字中野字池下４９６-４"},
    {"code":9940413,"id":"2484d7","name":"舞田","name_kana":"まいた","lat":36.359621,"lng":138.18288,"prefecture":20,"lines":[99404],"attr":"eco","postal_code":"386-1326","address":"上田市大字舞田字柳堂４４-６"},
    {"code":9940414,"id":"6bd0e1","name":"八木沢","name_kana":"やぎさわ","lat":36.358365,"lng":138.175786,"prefecture":20,"lines":[99404],"attr":"eco","postal_code":"386-1327","address":"上田市大字八木沢字表田中４３９-２"},
    {"code":9940415,"id":"08f02e","name":"別所温泉","name_kana":"べっしょおんせん","lat":36.353121,"lng":138.161924,"prefecture":20,"lines":[99404],"attr":"eco","postal_code":"386-1431","address":"上田市大字別所温泉１８５３-３"}
  ],
  "north":36.39687,
  "south":36.35292,
  "east":138.2514,
  "west":138.16165,
  "polyline_list":[
    {
      "start":"別所温泉",
      "end":"上田",
      "lat":36.35292,
      "lng":138.16165,
      "delta_lat":[0,56,177,19,16,13,53,94,94,10,5,4,-10,-3,2,11,13,113,13,32,5,15,27,2,5,13,15,11,32,34,10,8,76,25,11,18,26,43,10,3,-3,-10,-54,-3,-4,-4,-3,-51,-5,-60,-5,3,8,7,12,18,20,34,62,35,19,32,51,269,12,12,11,13,290,65,188,33,25,261,16,65,65,127,43,29,172,170,65,150,207,152,42,18,13,10,4,3,-1,5,6,16,12,68,14,31,7,1,-3,-9,0,-5,-8,1,10,24,41,31,33,14,18,36,96,90,60,36,19,10,9,4,-2,-3,-10,-97,-96],
      "delta_lng":[0,46,105,15,17,24,117,210,219,30,25,29,246,154,40,93,82,621,81,180,23,102,667,83,83,171,174,81,204,166,22,9,67,27,14,41,67,111,37,44,32,36,107,8,8,8,8,105,15,456,66,45,36,18,20,20,15,14,21,5,-2,-6,-12,-89,-4,-3,-4,-5,-96,-2,24,3,9,133,5,5,6,14,1,0,-34,-42,-9,71,94,67,20,18,17,21,21,30,49,52,43,81,54,411,80,205,73,61,89,329,82,209,150,36,54,74,110,73,75,31,22,34,92,84,49,43,27,26,24,26,22,27,29,114,113]
    }
  ]
}