{
  "code":99407,
  "id":"ed45b8",
  "name":"松本電鉄上高地線",
  "name_kana":"まつもとでんてつかみこうちせん",
  "name_formal":"アルピコ交通上高地線",
  "station_size":14,
  "company_code":159,
  "station_list":[
    {"code":1140901,"id":"975a5b","name":"松本","name_kana":"まつもと","lat":36.230393,"lng":137.96445,"prefecture":20,"lines":[11409,11412,99407],"attr":"cool","postal_code":"390-0815","address":"松本市深志１丁目","next":[1141204,9940703,9940415,9940702,1140902],"voronoi":{"lat":36.231769,"lng":137.959087,"delta_lat":[0,-1545,-6766,27734,36707],"delta_lng":[0,590,19290,109430,-22813]}},
    {"code":9940702,"id":"4e4d13","name":"西松本","name_kana":"にしまつもと","lat":36.227111,"lng":137.963299,"prefecture":20,"lines":[99407],"attr":"eco","postal_code":"390-0816","address":"松本市中条３-１５","next":[9940703,1140901,1141204],"voronoi":{"lat":36.216233,"lng":137.959566,"delta_lat":[0,13991,-6766],"delta_lng":[0,112,19290]}},
    {"code":9940703,"id":"185143","name":"渚(長野)","name_kana":"なぎさ","lat":36.227169,"lng":137.956006,"prefecture":20,"lines":[99407],"attr":"eco","postal_code":"390-0841","address":"松本市渚３-９-４２","next":[1141204,9940702,1140901,9940704,1140902,9940705],"voronoi":{"lat":36.216233,"lng":137.959566,"delta_lat":[0,13991,1545,2352,-19738,-6719],"delta_lng":[0,112,-590,-4633,-5599,96]}},
    {"code":9940704,"id":"97271b","name":"信濃荒井","name_kana":"しなのあらい","lat":36.229019,"lng":137.949484,"prefecture":20,"lines":[99407],"attr":"cool","postal_code":"390-0852","address":"松本市大字島立字荒井５５","next":[9940703,1140903,9940705,1140902],"voronoi":{"lat":36.239022,"lng":137.951066,"delta_lat":[0,-2057,-22581,19738],"delta_lng":[0,-7920,5710,5599]}},
    {"code":9940705,"id":"2ece32","name":"大庭","name_kana":"おおにわ","lat":36.226961,"lng":137.941346,"prefecture":20,"lines":[99407],"attr":"cool","postal_code":"390-0852","address":"松本市大字島立字大庭１８６８","next":[1140904,9940706,1141204,1141215,9940704,1140903,9940703],"voronoi":{"lat":36.207378,"lng":137.948784,"delta_lat":[0,-8482,35081,3767,-780,-22581,-6719],"delta_lng":[0,-14182,-3420,7465,4499,5710,96]}},
    {"code":9940706,"id":"bd6888","name":"下新","name_kana":"しもにい","lat":36.22513,"lng":137.922564,"prefecture":20,"lines":[99407],"attr":"cool","postal_code":"390-1241","address":"松本市大字新村下新北３２８７","next":[9940705,1140904,9940707,1141215,1140905],"voronoi":{"lat":36.233977,"lng":137.931182,"delta_lat":[0,-35081,-1433,38333,2137],"delta_lng":[0,3420,-1204,-23304,11786]}},
    {"code":9940707,"id":"485e05","name":"北新・松本大学前","name_kana":"きたにい・まつもとだいがくまえ","lat":36.219816,"lng":137.913823,"prefecture":20,"lines":[99407],"attr":"heat","postal_code":"390-1241","address":"松本市大字新村北新西２０８８","next":[1141215,9940706,1140905,1141203,9940708],"voronoi":{"lat":36.193477,"lng":137.931085,"delta_lat":[0,3987,38333,1104,-51383],"delta_lng":[0,2313,-23304,-7967,20356]}},
    {"code":9940708,"id":"a3bffe","name":"新村","name_kana":"にいむら","lat":36.216441,"lng":137.905304,"prefecture":20,"lines":[99407],"attr":"heat","postal_code":"390-1241","address":"松本市大字新村山王５４８","next":[1141202,1140906,1141203,1140905,9940709,9940707],"voronoi":{"lat":36.236901,"lng":137.902127,"delta_lat":[0,980,-193,-66911,668,14073],"delta_lng":[0,-2596,-7102,17305,1032,11717]}},
    {"code":9940709,"id":"c3f153","name":"三溝","name_kana":"さみぞ","lat":36.212863,"lng":137.891469,"prefecture":20,"lines":[99407],"attr":"heat","postal_code":"390-1401","address":"長野県松本市波田三溝1680-2","next":[1141202,9940708,1140906,9940710],"voronoi":{"lat":36.170776,"lng":137.909734,"delta_lat":[0,66911,5799,-75777],"delta_lng":[0,-17305,-21393,35277]}},
    {"code":9940710,"id":"f734b7","name":"森口","name_kana":"もりぐち","lat":36.208136,"lng":137.881315,"prefecture":20,"lines":[99407],"attr":"heat","postal_code":"390-1401","address":"長野県松本市波田森口4417-25","next":[9940711,1140906,1141202,9940709],"voronoi":{"lat":36.243486,"lng":137.871036,"delta_lat":[0,1052,-96416,19587],"delta_lng":[0,-2374,20405,17246]}},
    {"code":9940711,"id":"2cf9c7","name":"下島(松本電鉄)","name_kana":"しもじま","lat":36.206131,"lng":137.871841,"prefecture":20,"lines":[99407],"attr":"heat","postal_code":"390-1401","address":"長野県松本市波田4417-12","next":[1141202,9940710,1140906,9940712],"voronoi":{"lat":36.148123,"lng":137.889067,"delta_lat":[0,96416,15596,-115859],"delta_lng":[0,-20405,-25821,43350]}},
    {"code":9940712,"id":"77fa60","name":"波田","name_kana":"はた","lat":36.200358,"lng":137.856412,"prefecture":20,"lines":[99407],"attr":"heat","postal_code":"390-1401","address":"長野県松本市波田鍋割4417-28","next":[9940713,1141139,1141202,1140907,9940711,1140906],"voronoi":{"lat":36.262877,"lng":137.839436,"delta_lat":[0,9167,-138055,9219,1067,115859],"delta_lng":[0,-14271,43160,17267,599,-43350]}},
    {"code":9940713,"id":"080d86","name":"渕東","name_kana":"えんどう","lat":36.195325,"lng":137.840313,"prefecture":20,"lines":[99407],"attr":"heat","postal_code":"390-1401","address":"長野県松本市波田4207","next":[9940712,1140910,9940714,1140907,1141139],"voronoi":{"lat":36.122388,"lng":137.851927,"delta_lat":[0,159148,-6348,-3144,-138055],"delta_lng":[0,-47469,16811,3895,43160]}},
    {"code":9940714,"id":"b9a0b7","name":"新島々","name_kana":"しんしましま","lat":36.18977,"lng":137.821689,"prefecture":20,"lines":[99407],"attr":"heat","postal_code":"390-1401","address":"長野県松本市波田赤松3050-1","next":[1140910,1140915,9940914,1140913,1140914,1141135,9940713,1141139,1141137,1141138,1140911,1141134,1141626,1141627,1141624],"voronoi":{"lat":36.174794,"lng":137.535665,"delta_lat":[0,24871,89912,56138,-11777,-4080,-15866,-22548,-9908,-159148,-14284,-12765,-13980,2871,11289],"delta_lng":[0,-2146,-1377,58678,62182,19214,56574,55935,19733,47469,-15402,-24577,-62647,-115099,-78534]}}
  ],
  "north":36.23148,
  "south":36.18965,
  "east":137.96436,
  "west":137.82138,
  "polyline_list":[
    {
      "start":"新島々",
      "end":"松本",
      "lat":36.18965,
      "lng":137.82138,
      "delta_lat":[0,31,55,135,68,37,21,25,40,29,47,33,12,9,6,12,62,25,7,2,45,215,22,30,87,40,239,4,19,87,92,46,43,16,9,0,3,24,2,36,2,18,2,1,15,4,3,1,3,-2,0,4,4,1,2,4,10,2,2,3,10,9,10,28,23,85,182,89,54,33,92,26,2,6,2,2,6,3,2,-4,-3,4,7,14,27,163,31,27,149,26,31,19,11,7,6,5,13,13,1,6,9,17,16,19,15,65,157,60,36,23,24,13,9,19,14,9,27,12,45,72,15,23,8,7,0,5,2,0,5,14,182,6,5,3,2,2,-2,-3,-4,-2,-24,-77,-11,-6,-27,-27,-39,-37,-43,-20,-9,-9,-9,-2,0,2,7,13,9,29,44,15,32,23,28,30,39,29,20,17,23,35,103,85],
      "delta_lng":[0,77,145,359,173,96,57,108,190,123,176,141,76,59,32,87,422,134,33,11,131,605,60,56,122,67,437,9,48,280,287,150,195,82,25,6,6,91,4,128,4,70,1,4,52,21,22,10,18,10,0,158,45,13,9,26,51,7,14,15,43,38,37,78,62,190,379,183,112,65,199,59,6,19,13,12,37,34,47,160,160,94,56,48,59,332,68,54,289,51,67,50,33,29,32,29,110,85,5,26,30,40,35,29,21,50,126,50,33,28,32,23,18,49,45,52,139,72,229,365,91,136,76,70,68,753,79,19,45,65,611,27,24,20,17,29,19,37,19,3,78,215,29,21,72,59,69,74,83,40,27,37,43,37,44,33,39,49,23,51,59,17,37,22,22,20,20,11,4,1,-1,-8,-35,-28]
    }
  ]
}