{
  "code":99413,
  "name":"富山地鉄市内線",
  "station_list":[
    {"code":9941301,"id":"1a3fe6","name":"南富山駅前","name_kana":"みなみとやまえきまえ","lat":36.670484,"lng":137.22044,"prefecture":16,"lines":[99413],"attr":"cool","postal_code":"939-8073","address":"富山市大町２１７-８"},
    {"code":9941302,"id":"021a81","name":"大町(富山)","name_kana":"おおまち","lat":36.673066,"lng":137.220483,"prefecture":16,"lines":[99413],"attr":"cool","postal_code":"939-8073","address":"富山市大町２区"},
    {"code":9941303,"id":"813966","name":"堀川小泉","name_kana":"ほりかわこいずみ","lat":36.675647,"lng":137.219281,"prefecture":16,"lines":[99413],"attr":"cool","postal_code":"939-8081","address":"富山市堀川小泉町"},
    {"code":9941304,"id":"5e9c97","name":"小泉町(富山)","name_kana":"こいずみちょう","lat":36.678745,"lng":137.217779,"prefecture":16,"lines":[99413],"attr":"cool","postal_code":"939-8082","address":"富山市小泉町中部"},
    {"code":9941305,"id":"2563fb","name":"西中野","name_kana":"にしなかの","lat":36.680844,"lng":137.216663,"prefecture":16,"lines":[99413],"attr":"cool","postal_code":"939-8083","address":"富山市西中野本町"},
    {"code":9941306,"id":"2d1131","name":"広貫堂前","name_kana":"こうかんどうまえ","lat":36.683357,"lng":137.215934,"prefecture":16,"lines":[99413],"attr":"cool","postal_code":"939-8085","address":"富山市中野新町"},
    {"code":9941307,"id":"a053f5","name":"上本町","name_kana":"かみほんまち","lat":36.686282,"lng":137.215762,"prefecture":16,"lines":[99413],"attr":"cool","postal_code":"930-0057","address":"富山市上本町"},
    {"code":9941308,"id":"08db76","name":"西町","name_kana":"にしちょう","lat":36.689001,"lng":137.215676,"prefecture":16,"lines":[99413,99422],"attr":"cool","postal_code":"930-0062","address":"富山県富山市西町"},
    {"code":9941321,"id":"b025f8","name":"中町","name_kana":"なかまち","lat":36.690306,"lng":137.215722,"prefecture":16,"lines":[99413],"attr":"cool","postal_code":"930-0083","address":"富山県富山市総曲輪"},
    {"code":9941309,"id":"18aecf","name":"荒町","name_kana":"あらまち","lat":36.691513,"lng":137.215805,"prefecture":16,"lines":[99413],"attr":"heat","postal_code":"930-0028","address":"富山市荒町"},
    {"code":9941310,"id":"8fbd69","name":"桜橋(富山)","name_kana":"さくらばし","lat":36.69461,"lng":137.215934,"prefecture":16,"lines":[99413],"attr":"heat","postal_code":"930-0029","address":"富山市本町"},
    {"code":9941311,"id":"7e9dac","name":"電気ビル前","name_kana":"でんきびるまえ","lat":36.697432,"lng":137.216105,"prefecture":16,"lines":[99413],"attr":"heat","postal_code":"930-0004","address":"富山市桜橋通り"},
    {"code":9941312,"id":"c3ba19","name":"地鉄ビル前","name_kana":"ちてつびるまえ","lat":36.698584,"lng":137.216105,"prefecture":16,"lines":[99413],"attr":"heat","postal_code":"930-0003","address":"富山市桜町"},
    {"code":9941313,"id":"d56ebc","name":"電鉄富山駅・エスタ前","name_kana":"でんてつとやまえき・えすたまえ","lat":36.700236,"lng":137.213316,"prefecture":16,"lines":[99413],"attr":"heat","postal_code":"930-0003","address":"富山市桜町"},
    {"code":9941322,"id":"f72cbd","name":"富山駅","name_kana":"とやまえき","lat":36.701479,"lng":137.212583,"prefecture":16,"lines":[99413,99415],"attr":"eco","postal_code":"930-0001","address":"富山県富山市明輪町1-227"},
    {"code":9941314,"id":"f99315","name":"新富町(富山)","name_kana":"しんとみちょう","lat":36.69886,"lng":137.211256,"prefecture":16,"lines":[99413],"attr":"eco","postal_code":"930-0002","address":"富山市新富町"},
    {"code":9941315,"id":"478080","name":"県庁前(富山)","name_kana":"けんちょうまえ","lat":36.695728,"lng":137.20984,"prefecture":16,"lines":[99413],"attr":"eco","postal_code":"930-0094","address":"富山市安住町"},
    {"code":9941316,"id":"cc16f9","name":"丸の内(富山)","name_kana":"まるのうち","lat":36.692563,"lng":137.208896,"prefecture":16,"lines":[99422,99413],"attr":"eco","postal_code":"930-0085","address":"富山県富山市丸の内一丁目"},
    {"code":9941317,"id":"ca5e38","name":"諏訪川原","name_kana":"すわのかわら","lat":36.692322,"lng":137.206535,"prefecture":16,"lines":[99413],"attr":"eco","postal_code":"930-0088","address":"富山市諏訪川原"},
    {"code":9941318,"id":"73516d","name":"安野屋","name_kana":"やすのや","lat":36.692522,"lng":137.204382,"prefecture":16,"lines":[99413],"attr":"eco","postal_code":"930-0087","address":"富山市安野屋町"},
    {"code":9941319,"id":"dcf9b0","name":"富山トヨペット本社前（五福末広町）","name_kana":"とやまとよぺっとほんしゃまえ（ごふくすえひろちょう）","lat":36.694834,"lng":137.19542,"prefecture":16,"lines":[99413],"attr":"eco","postal_code":"930-0887","address":"富山市五福"},
    {"code":9941320,"id":"12c59c","name":"富山大学前","name_kana":"とやまだいがくまえ","lat":36.698688,"lng":137.191129,"prefecture":16,"lines":[99413],"attr":"eco","postal_code":"930-0887","address":"富山市五福"}
  ],
  "north":36.70042,
  "south":36.66972,
  "east":137.22125,
  "west":137.19065,
  "polyline_list":[
    {
      "start":"大学前",
      "end":"南富山駅前",
      "lat":36.69912,
      "lng":137.19065,
      "delta_lat":[0,-31,-216,-53,-35,-43,-37,-24,-18,-22,-144,-15,-13,-7,-1,-17,-3,-3,-15,5,5,5,41,28,29,34,28,25,21,102,40,84,47,57,47,54,38,124,6,5,2,-1,-40,-21,-65,-5,-9,-9,-10,-44,-70,-44,-143,-28,-75,-42,-265,-44,-142,-45,-42,-83,-153,-46,-228,-47,-38,-46,-60,-51,-40,-40,-194,-40,-271,-30,-206,-38,-104,-13,-12,-77,-38,-18,-23,-30],
      "delta_lng":[0,30,219,53,45,57,56,40,43,58,478,52,52,29,33,268,52,49,202,8,4,0,1,1,5,6,6,12,6,38,13,34,22,31,29,34,25,69,6,9,10,12,120,49,159,8,8,4,1,-1,-3,-1,-7,0,-4,-3,-13,-4,-7,-2,2,1,6,0,12,0,6,13,20,17,12,18,98,19,139,17,111,20,47,1,-6,-64,-28,-14,-13,-22]
    }
  ]
}