{
  "code":99413,
  "id":"5de6ae",
  "name":"富山地鉄市内線",
  "name_kana":"とやまちてつしないせん",
  "station_size":22,
  "company_code":160,
  "station_list":[
    {"code":9941301,"id":"1a3fe6","name":"南富山駅前","name_kana":"みなみとやまえきまえ","lat":36.670484,"lng":137.22044,"prefecture":16,"lines":[99413],"attr":"cool","postal_code":"939-8073","address":"富山市大町２１７-８","next":[9941303,9941304,1141642,9941005,9941006,1141645,9941302],"voronoi":{"lat":36.6563,"lng":137.202082,"delta_lat":[0,-4490,2904,11650,2583,2926,-127],"delta_lng":[0,-10008,-307,1731,8020,13033,7612]},"impl":true},
    {"code":9941302,"id":"021a81","name":"大町(富山)","original_name":"大町","name_kana":"おおまち","lat":36.673066,"lng":137.220483,"prefecture":16,"lines":[99413],"attr":"cool","postal_code":"939-8073","address":"富山市大町２区","next":[9941004,9941005,9941303,9941301],"voronoi":{"lat":36.671873,"lng":137.21455,"delta_lat":[0,4493,-4591,-29],"delta_lng":[0,9647,2514,-4549]},"impl":true},
    {"code":9941303,"id":"813966","name":"堀川小泉","name_kana":"ほりかわこいずみ","lat":36.675647,"lng":137.219281,"prefecture":16,"lines":[99413],"attr":"cool","postal_code":"939-8081","address":"富山市堀川小泉町","next":[9941301,9941302,9941304,9941004],"voronoi":{"lat":36.679608,"lng":137.223505,"delta_lat":[0,-10661,2926,4493],"delta_lng":[0,-21988,13033,9647]},"impl":true},
    {"code":9941304,"id":"5e9c97","name":"小泉町(富山)","original_name":"小泉町","name_kana":"こいずみちょう","lat":36.678745,"lng":137.217779,"prefecture":16,"lines":[99413],"attr":"cool","postal_code":"939-8082","address":"富山市小泉町中部","next":[9941301,9941305,9941303,1141645,9941004],"voronoi":{"lat":36.667176,"lng":137.193488,"delta_lat":[0,-811,2583,10661,3708],"delta_lng":[0,10,8020,21988,339]},"impl":true},
    {"code":9941305,"id":"2563fb","name":"西中野","name_kana":"にしなかの","lat":36.680844,"lng":137.216663,"prefecture":16,"lines":[99413],"attr":"cool","postal_code":"939-8083","address":"富山市西中野本町","next":[9941319,1141645,9941304,9942203,9941004,9941306,9941318],"voronoi":{"lat":36.678231,"lng":137.20296,"delta_lat":[0,6135,-1050,-16141,1474,101,8754],"delta_lng":[0,21152,-267,-30357,-83,66,8324]},"impl":true},
    {"code":9941306,"id":"2d1131","name":"広貫堂前","name_kana":"こうかんどうまえ","lat":36.683357,"lng":137.215934,"prefecture":16,"lines":[99413],"attr":"cool","postal_code":"939-8085","address":"富山市中野新町","next":[9941305,9941003,9942203,9941307,9941004],"voronoi":{"lat":36.685315,"lng":137.224272,"delta_lat":[0,-766,-6317,6135,594],"delta_lng":[0,-13029,-8283,21152,256]},"impl":true},
    {"code":9941307,"id":"a053f5","name":"上本町","name_kana":"かみほんまち","lat":36.686282,"lng":137.215762,"prefecture":16,"lines":[99413],"attr":"cool","postal_code":"930-0057","address":"富山市上本町","next":[9942204,9941003,9942203,9941308,9941306],"voronoi":{"lat":36.684549,"lng":137.211243,"delta_lat":[0,154,2903,299,-2590],"delta_lng":[0,109,3226,9451,243]},"impl":true},
    {"code":9941308,"id":"08db76","name":"西町","name_kana":"にしちょう","lat":36.689001,"lng":137.215676,"prefecture":16,"lines":[99413,99422],"attr":"cool","postal_code":"930-0062","address":"富山県富山市西町","open_date":"1913-09-01","next":[9942204,9941003,9941321,9941307],"voronoi":{"lat":36.689356,"lng":137.224129,"delta_lat":[0,339,-2090,299],"delta_lng":[0,-9622,71,9451]},"impl":true},
    {"code":9941321,"id":"b025f8","name":"中町","name_kana":"なかまち","lat":36.690306,"lng":137.215722,"prefecture":16,"lines":[99413],"attr":"cool","postal_code":"930-0083","address":"富山県富山市総曲輪","open_date":"2013-05-17","next":[9942204,9941309,9941003,9941308],"voronoi":{"lat":36.690324,"lng":137.224271,"delta_lat":[0,727,-1356,-339],"delta_lng":[0,-10567,803,9622]},"impl":true},
    {"code":9941309,"id":"18aecf","name":"荒町","name_kana":"あらまち","lat":36.691513,"lng":137.215805,"prefecture":16,"lines":[99413],"attr":"heat","postal_code":"930-0028","address":"富山市荒町","open_date":"2013-05-17","next":[9941310,9942202,9940802,9942204,9941321,9941003],"voronoi":{"lat":36.690324,"lng":137.224271,"delta_lat":[0,727,111,1992,-430,-1520],"delta_lng":[0,-10567,-119,63,10317,500]},"impl":true},
    {"code":9941310,"id":"8fbd69","name":"桜橋(富山)","original_name":"桜橋","name_kana":"さくらばし","lat":36.69461,"lng":137.215934,"prefecture":16,"lines":[99413],"attr":"heat","postal_code":"930-0029","address":"富山市本町","open_date":"2013-05-17","next":[9941314,9941309,9942202,9941315,9940802,9941311],"voronoi":{"lat":36.692724,"lng":137.223964,"delta_lat":[0,430,1355,1645,43,-636],"delta_lng":[0,-10317,-882,302,39,10489]},"impl":true},
    {"code":9941311,"id":"7e9dac","name":"電気ビル前","name_kana":"でんきびるまえ","lat":36.697432,"lng":137.216105,"prefecture":16,"lines":[99413],"attr":"heat","postal_code":"930-0004","address":"富山市桜橋通り","open_date":"2013-05-17","next":[9941312,9940802,9941503,9941314,9941313,9941310],"voronoi":{"lat":36.696198,"lng":137.213107,"delta_lat":[0,1473,337,0,-2157,-289],"delta_lng":[0,434,340,7987,1744,-16]},"impl":true},
    {"code":9941312,"id":"c3ba19","name":"地鉄ビル前","name_kana":"ちてつびるまえ","lat":36.698584,"lng":137.216105,"prefecture":16,"lines":[99413],"attr":"heat","postal_code":"930-0003","address":"富山市桜町","open_date":"2013-05-17","next":[9940801,9941502,9941311,9941503,9941313],"voronoi":{"lat":36.701039,"lng":137.216665,"delta_lat":[0,-406,-2625,0,1152],"delta_lng":[0,3482,1721,-7987,682]},"impl":true},
    {"code":9941313,"id":"d56ebc","name":"電鉄富山駅・エスタ前","name_kana":"でんてつとやまえき・えすたまえ","lat":36.700236,"lng":137.213316,"prefecture":16,"lines":[99413],"attr":"heat","postal_code":"930-0003","address":"富山市桜町","open_date":"2013-05-17","next":[9940801,9941314,9941322,100911,9941311,9941312],"voronoi":{"lat":36.698008,"lng":137.21388,"delta_lat":[0,-337,2536,707,19,-1773],"delta_lng":[0,-340,-1695,1200,426,1091]},"impl":true},
    {"code":9941322,"id":"f72cbd","name":"富山駅","name_kana":"とやまえき","lat":36.701479,"lng":137.212583,"prefecture":16,"lines":[99413,99415],"attr":"eco","postal_code":"930-0001","address":"富山県富山市明輪町1-227","open_date":"2015-03-14","next":[9941314,9941313,9941501,100911,9941320],"voronoi":{"lat":36.700207,"lng":137.211846,"delta_lat":[0,707,1971,19180,-16430],"delta_lng":[0,1200,-393,-13656,2137]},"impl":true},
    {"code":9941314,"id":"f99315","name":"新富町(富山)","original_name":"新富町","name_kana":"しんとみちょう","lat":36.69886,"lng":137.211256,"prefecture":16,"lines":[99413],"attr":"eco","postal_code":"930-0002","address":"富山市新富町","open_date":"2013-05-17","next":[9941320,9941310,9941315,9941313,9941322,9941319,9941318,9941311],"voronoi":{"lat":36.700207,"lng":137.211846,"delta_lat":[0,5428,-122,-3551,-1406,-4401,43,1473],"delta_lng":[0,-10712,1,903,1296,9734,39,434]},"impl":true},
    {"code":9941315,"id":"478080","name":"県庁前(富山)","original_name":"県庁前","name_kana":"けんちょうまえ","lat":36.695728,"lng":137.20984,"prefecture":16,"lines":[99413],"attr":"eco","postal_code":"930-0094","address":"富山市安住町","open_date":"2013-05-17","next":[9941314,9942202,9941318,9941310,9941316,9941317],"voronoi":{"lat":36.696322,"lng":137.205821,"delta_lat":[0,4234,-4401,-1645,-772,970],"delta_lng":[0,-2487,9734,-302,-2029,-3252]},"impl":true},
    {"code":9941316,"id":"cc16f9","name":"丸の内(富山)","original_name":"丸の内","name_kana":"まるのうち","lat":36.692563,"lng":137.208896,"prefecture":16,"lines":[99413,99422],"attr":"eco","postal_code":"930-0085","address":"富山県富山市丸の内一丁目","open_date":"1913-09-01","next":[9942202,9942203,9941317,9941315],"voronoi":{"lat":36.694707,"lng":137.207484,"delta_lat":[0,-5334,1192,3172],"delta_lng":[0,544,1552,1156]},"impl":true},
    {"code":9941317,"id":"ca5e38","name":"諏訪川原","name_kana":"すわのかわら","lat":36.692322,"lng":137.206535,"prefecture":16,"lines":[99413],"attr":"eco","postal_code":"930-0088","address":"富山市諏訪川原","next":[9941316,9941318,9942203,9941315],"voronoi":{"lat":36.689374,"lng":137.208029,"delta_lat":[0,-5503,12451,-1614],"delta_lng":[0,-3364,1156,1664]},"impl":true},
    {"code":9941318,"id":"73516d","name":"安野屋","name_kana":"やすのや","lat":36.692522,"lng":137.204382,"prefecture":16,"lines":[99413],"attr":"eco","postal_code":"930-0087","address":"富山市安野屋町","next":[9941319,9942203,9941317,9941315,9941314,9941305],"voronoi":{"lat":36.66875,"lng":137.19347,"delta_lat":[0,33211,-1406,-4234,-12451,-6366],"delta_lng":[0,8567,1296,2487,-1156,-2870]},"impl":true},
    {"code":9941319,"id":"dcf9b0","name":"富山トヨペット本社前（五福末広町）","name_kana":"とやまとよぺっとほんしゃまえ（ごふくすえひろちょう）","lat":36.694834,"lng":137.19542,"prefecture":16,"lines":[99413],"attr":"eco","postal_code":"930-0887","address":"富山市五福","next":[9941305,1141643,9941318,1141645,9941314,9941320],"voronoi":{"lat":36.685855,"lng":137.183479,"delta_lat":[0,-1043,-16162,101,33211,3551],"delta_lng":[0,-256,10181,66,8567,-903]},"impl":true},
    {"code":9941320,"id":"12c59c","name":"富山大学前","name_kana":"とやまだいがくまえ","lat":36.698688,"lng":137.191129,"prefecture":16,"lines":[99413],"attr":"eco","postal_code":"930-0887","address":"富山市五福","next":[9941314,1141643,9941506,9941501,1141554,9941319,9941322],"voronoi":{"lat":36.705513,"lng":137.201135,"delta_lat":[0,-19658,31944,12245,-6304,-1675,-16430],"delta_lng":[0,-17655,1456,9401,4381,279,2137]},"impl":true}
  ],
  "north":36.70042,
  "south":36.66972,
  "east":137.22125,
  "west":137.19065,
  "polyline_list":[
    {
      "start":"大学前",
      "end":"南富山駅前",
      "lat":36.69912,
      "lng":137.19065,
      "delta_lat":[0,-31,-216,-53,-35,-43,-37,-24,-18,-22,-144,-15,-13,-7,-1,-17,-3,-3,-15,5,5,5,41,28,29,34,28,25,21,102,40,84,47,57,47,54,38,124,6,5,2,-1,-40,-21,-65,-5,-9,-9,-10,-44,-70,-44,-143,-28,-75,-42,-265,-44,-142,-45,-42,-83,-153,-46,-228,-47,-38,-46,-60,-51,-40,-40,-194,-40,-271,-30,-206,-38,-104,-13,-12,-77,-38,-18,-23,-30],
      "delta_lng":[0,30,219,53,45,57,56,40,43,58,478,52,52,29,33,268,52,49,202,8,4,0,1,1,5,6,6,12,6,38,13,34,22,31,29,34,25,69,6,9,10,12,120,49,159,8,8,4,1,-1,-3,-1,-7,0,-4,-3,-13,-4,-7,-2,2,1,6,0,12,0,6,13,20,17,12,18,98,19,139,17,111,20,47,1,-6,-64,-28,-14,-13,-22]
    }
  ],
  "impl":true
}