{
  "code":99417,
  "name":"北陸鉄道浅野川線",
  "station_list":[
    {"code":9941701,"id":"eaafc5","name":"北鉄金沢","name_kana":"ほくてつかなざわ","lat":36.578637,"lng":136.649524,"prefecture":17,"lines":[99417],"attr":"heat","postal_code":"920-0847","address":"金沢市堀川町","next":[9941702,100913,1141544,9941601],"voronoi":{"lat":36.564705,"lng":136.65408,"delta_lat":[0,17860,-11903,-11286],"delta_lng":[0,-6839,23885,8356]}},
    {"code":9941702,"id":"ffdee2","name":"七ツ屋","name_kana":"ななつや","lat":36.583108,"lng":136.651752,"prefecture":17,"lines":[99417],"attr":"heat","postal_code":"920-0022","address":"金沢市北安江１","next":[9941701,1141544,9941703,100913],"voronoi":{"lat":36.570663,"lng":136.671126,"delta_lat":[0,19686,-5608,-2175],"delta_lng":[0,-11497,-15416,3028]}},
    {"code":9941703,"id":"aecb72","name":"上諸江","name_kana":"かみもろえ","lat":36.590835,"lng":136.648941,"prefecture":17,"lines":[99417],"attr":"cool","postal_code":"920-0014","address":"金沢市諸江町","next":[9941702,100913,1141542,9941704,1141544],"voronoi":{"lat":36.594836,"lng":136.659023,"delta_lat":[0,-5248,-3095,-1753,5608],"delta_lng":[0,-47785,4202,28773,15416]}},
    {"code":9941704,"id":"ce30a3","name":"磯部(石川)","name_kana":"いそべ","lat":36.596554,"lng":136.648313,"prefecture":17,"lines":[99417],"attr":"cool","postal_code":"920-0014","address":"金沢市諸江町","next":[1141542,1141544,9941708,9941707,9941705,9941703,9941706],"voronoi":{"lat":36.5996,"lng":136.621157,"delta_lat":[0,-2684,-1192,-6136,5248,4452,832],"delta_lng":[0,-14882,-4853,9817,47785,601,-31361]}},
    {"code":9941705,"id":"64c9ab","name":"割出","name_kana":"わりだし","lat":36.602619,"lng":136.648474,"prefecture":17,"lines":[99417],"attr":"cool","postal_code":"920-0014","address":"金沢市諸江町","next":[9941706,1141544,9941704],"voronoi":{"lat":36.600121,"lng":136.628263,"delta_lat":[0,7935,-8767],"delta_lng":[0,35047,-3686]}},
    {"code":9941706,"id":"32bb06","name":"三口","name_kana":"みつくち","lat":36.606572,"lng":136.647579,"prefecture":17,"lines":[99417],"attr":"cool","postal_code":"920-0018","address":"金沢市三口町","next":[9941707,1141545,1141544,9941705,9941704],"voronoi":{"lat":36.5996,"lng":136.621157,"delta_lat":[0,17613,-1601,-7557,-7935],"delta_lng":[0,46333,213,-4392,-35047]}},
    {"code":9941707,"id":"cf4b15","name":"三ツ屋","name_kana":"みつや","lat":36.611941,"lng":136.645538,"prefecture":17,"lines":[99417],"attr":"cool","postal_code":"920-0214","address":"金沢市三ツ屋町","next":[9941710,1141545,9941706,9941708,9941704],"voronoi":{"lat":36.596916,"lng":136.606275,"delta_lat":[0,24710,1176,-5589,-17613],"delta_lng":[0,54204,6985,26,-46333]}},
    {"code":9941708,"id":"93bf5a","name":"大河端","name_kana":"おこばた","lat":36.616701,"lng":136.643368,"prefecture":17,"lines":[99417],"attr":"cool","postal_code":"920-0213","address":"金沢市大河端町","next":[9941709,9941704,9941707,9941710,1141542,9941712],"voronoi":{"lat":36.621368,"lng":136.647119,"delta_lat":[0,259,-24710,-1192,3353,7424],"delta_lng":[0,13359,-54204,-4853,-9612,13432]}},
    {"code":9941709,"id":"711a9f","name":"北間","name_kana":"きたま","lat":36.622625,"lng":136.641265,"prefecture":17,"lines":[99417],"attr":"cool","postal_code":"920-0212","address":"金沢市北間町","next":[9941710,9941711,9941708,9941712],"voronoi":{"lat":36.626145,"lng":136.639026,"delta_lat":[0,-4778,-14866,15220],"delta_lng":[0,8093,-41878,22996]}},
    {"code":9941710,"id":"8100e7","name":"蚊爪","name_kana":"かがつめ","lat":36.625886,"lng":136.64319,"prefecture":17,"lines":[99417],"attr":"cool","postal_code":"920-0208","address":"金沢市蚊爪町","next":[9941707,9941709,9941711,9941708,1141904,1141545],"voronoi":{"lat":36.667461,"lng":136.67458,"delta_lat":[0,-41315,-4778,259,1176,39428],"delta_lng":[0,-35553,8093,13359,6985,11703]}},
    {"code":9941711,"id":"0b0b28","name":"粟ヶ崎","name_kana":"あわがさき","lat":36.630224,"lng":136.638149,"prefecture":17,"lines":[99417],"attr":"eco","postal_code":"920-0274","address":"石川県河北郡内灘町向粟崎","next":[1141904,9941709,9941712,9941710],"voronoi":{"lat":36.626145,"lng":136.639026,"delta_lat":[0,-4424,52413,-6674],"delta_lng":[0,-10789,41205,5137]}},
    {"code":9941712,"id":"cb3d34","name":"内灘","name_kana":"うちなだ","lat":36.63336,"lng":136.63416,"prefecture":17,"lines":[99417],"attr":"eco","postal_code":"920-0274","address":"河北郡内灘町向粟崎","next":[1141905,1141541,1141539,1141537,9941711,1141912,1141904,1141538,9941709,1141542,1141540,9941708,1141906],"voronoi":{"lat":36.681269,"lng":136.664467,"delta_lat":[0,-7135,-52413,-15220,-7424,1395,15526,61639,25429,243949,280619,-107463,-158636],"delta_lng":[0,4976,-41205,-22996,-13432,-8646,-39428,-96741,-31076,-247995,-276660,189977,219430]}}
  ],
  "north":36.63356,
  "south":36.57774,
  "east":136.65182,
  "west":136.63358,
  "polyline_list":[
    {
      "start":"北鉄金沢",
      "end":"内灘",
      "lat":36.57774,
      "lng":136.64925,
      "delta_lat":[0,94,86,210,30,45,37,62,38,295,166,97,31,45,103,203,55,29,190,36,40,182,67,55,54,47,149,317,42,43,88,112,62,127,66,76,65,118,54,93,91,55,147,84,80,67,32,35,192,52,28,26,23,71,30,28,35,57,45,50,29,58,114,109,41,71,35,113,38,37],
      "delta_lng":[0,64,53,120,13,6,0,-7,-15,-134,-72,-43,-11,-6,1,0,-2,-2,-54,-9,5,35,12,4,-5,-8,-19,-45,-11,-15,-40,-54,-21,-39,-13,-33,-35,-63,-23,-28,-27,-30,-110,-64,-58,-31,-6,-2,21,6,6,18,22,90,30,17,7,-2,-8,-31,-30,-94,-180,-151,-51,-69,-50,-136,-68,-92]
    }
  ]
}