{
  "code":99415,
  "name":"富山地鉄富山港線",
  "color":"#00008B",
  "station_list":[
    {"code":9941322,"id":"f72cbd","name":"富山駅","name_kana":"とやまえき","lat":36.701479,"lng":137.212583,"prefecture":16,"lines":[99413,99415],"attr":"eco","postal_code":"930-0001","address":"富山県富山市明輪町1-227"},
    {"code":9941501,"id":"56b05c","name":"富山駅北","name_kana":"とやまえききた","closed":true,"lat":36.70249,"lng":137.214003,"prefecture":16,"lines":[99415],"attr":"heat","postal_code":"930-0858","address":"富山市牛島町２４番３地先"},
    {"code":9941502,"id":"eeb842","name":"インテック本社前","name_kana":"いんてっくほんしゃまえ","lat":36.703556,"lng":137.216685,"prefecture":16,"lines":[99415],"attr":"heat","postal_code":"930-0856","address":"富山市牛島新町５番８地先"},
    {"code":9941503,"id":"43c6d8","name":"奥田中学校前","name_kana":"おくだちゅうがっこうまえ","lat":36.703522,"lng":137.223637,"prefecture":16,"lines":[99415],"attr":"heat","postal_code":"930-0853","address":"富山市永楽町３２番地"},
    {"code":9941504,"id":"ce460d","name":"下奥井","name_kana":"しもおくい","lat":36.711311,"lng":137.224478,"prefecture":16,"lines":[99415],"attr":"heat","postal_code":"930-0817","address":"富山市下奥井"},
    {"code":9941505,"id":"366204","name":"粟島（大阪屋ショップ前）","name_kana":"あわじま","lat":36.719391,"lng":137.224796,"prefecture":16,"lines":[99415],"attr":"heat","postal_code":"931-8314","address":"富山県富山市粟島町"},
    {"code":9941506,"id":"910c86","name":"越中中島","name_kana":"えっちゅうなかじま","lat":36.722121,"lng":137.224844,"prefecture":16,"lines":[99415],"attr":"heat","postal_code":"930-0801","address":"富山市中島３丁目"},
    {"code":9941507,"id":"ad2027","name":"城川原","name_kana":"じょうがわら","lat":36.731103,"lng":137.226082,"prefecture":16,"lines":[99415],"attr":"heat","postal_code":"931-8325","address":"富山市城川原"},
    {"code":9941508,"id":"756960","name":"犬島新町","name_kana":"いぬじましんまち","lat":36.735445,"lng":137.22662,"prefecture":16,"lines":[99415],"attr":"eco","postal_code":"931-8328","address":"富山市犬島新町１丁目１４番地"},
    {"code":9941509,"id":"9ad5a3","name":"蓮町(馬場記念公園前)","name_kana":"はすまち（ばばきねんこうえんまえ）","lat":36.742663,"lng":137.227463,"prefecture":16,"lines":[99415],"attr":"eco","postal_code":"931-8333","address":"富山県富山市蓮町1丁目2番地"},
    {"code":9941510,"id":"e20a4a","name":"萩浦小学校前","name_kana":"はぎうらしょうがっこうまえ","lat":36.748602,"lng":137.228643,"prefecture":16,"lines":[99415],"attr":"eco","postal_code":"931-8345","address":"富山市西宮町6番地"},
    {"code":9941511,"id":"eabc08","name":"東岩瀬","name_kana":"ひがしいわせ","lat":36.751935,"lng":137.230479,"prefecture":16,"lines":[99415],"attr":"cool","postal_code":"931-8345","address":"富山市西宮"},
    {"code":9941512,"id":"6d2df5","name":"競輪場前(富山)","name_kana":"けいりんじょうまえ","lat":36.757454,"lng":137.233907,"prefecture":16,"lines":[99415],"attr":"cool","postal_code":"931-8376","address":"富山市岩瀬池田町"},
    {"code":9941513,"id":"c88fbd","name":"岩瀬浜","name_kana":"いわせはま","lat":36.761212,"lng":137.23409,"prefecture":16,"lines":[99415],"attr":"cool","postal_code":"931-8378","address":"富山市岩瀬天神町"}
  ],
  "north":36.76159,
  "south":36.70255,
  "east":137.23446,
  "west":137.21341,
  "polyline_list":[
    {
      "start":"富山",
      "end":"岩瀬浜",
      "lat":36.70255,
      "lng":137.21341,
      "delta_lat":[0,2,2,7,11,121,8,-2,-33,-18,-61,11,-6,11,23,52,111,47,129,151,217,68,49,74,19,39,91,157,36,44,90,52,60,36,29,64,55,38,58,20,68,69,94,95,50,13,163,59,153,17,182,66,159,92,74,77,89,88,89,100,34,34,73,61,71,68,61,82,128,95,56,59,59,57,68,27,51,69,96,63,54,25,37,93,77,102,107,54,55,56,37,16,37,119,64],
      "delta_lng":[0,40,11,7,10,68,17,20,103,48,166,188,324,13,6,-3,-1,5,18,23,30,10,8,13,3,6,14,26,-1,-4,-7,-6,-5,-4,-2,-6,-2,-2,0,2,8,9,12,14,6,2,22,8,20,3,23,10,22,12,10,9,13,13,12,13,3,6,10,9,9,8,6,12,16,13,8,7,8,17,32,15,32,42,60,39,33,12,24,61,48,63,67,32,22,12,2,-1,-4,-22,-17]
    }
  ]
}