{
  "code":99419,
  "name":"えちぜん鉄道勝山永平寺線",
  "color":"#FFA500",
  "symbol":"E",
  "station_list":[
    {"code":1141523,"id":"7960cf","name":"福井(福井)","name_kana":"ふくい","lat":36.062057,"lng":136.223516,"prefecture":18,"numbering":[{"color":"#0000FF","index":"1"}],"lines":[11415,11421,99419,99420],"attr":"cool","postal_code":"910-0006","address":"福井市中央１丁目"},
    {"code":9941902,"id":"caa636","name":"新福井","name_kana":"しんふくい","lat":36.064714,"lng":136.226721,"prefecture":18,"numbering":[{"color":"#0000FF","index":"2"}],"lines":[99419,99420],"attr":"cool","postal_code":"910-0859","address":"福井市日之出１-２５０２"},
    {"code":9941903,"id":"e7a131","name":"福井口","name_kana":"ふくいぐち","lat":36.071386,"lng":136.233176,"prefecture":18,"numbering":[{"color":"#0000FF","index":"3"}],"lines":[99419,99420],"attr":"cool","postal_code":"910-0003","address":"福井市松本上町８字１３-１"},
    {"code":9941904,"id":"2386b1","name":"越前開発","name_kana":"えちぜんかいほつ","lat":36.075358,"lng":136.241275,"prefecture":18,"numbering":[{"color":"#0000FF","index":"4"}],"lines":[99419],"attr":"cool","postal_code":"910-0841","address":"福井市開発町７２字１１-１"},
    {"code":9941905,"id":"8aec2e","name":"越前新保","name_kana":"えちぜんしんぼ","lat":36.080392,"lng":136.251314,"prefecture":18,"numbering":[{"color":"#0000FF","index":"5"}],"lines":[99419],"attr":"cool","postal_code":"910-0833","address":"福井市新保２-６０８"},
    {"code":9941906,"id":"ea94ea","name":"追分口","name_kana":"おいわけぐち","lat":36.082478,"lng":136.261507,"prefecture":18,"numbering":[{"color":"#0000FF","index":"6"}],"lines":[99419],"attr":"eco","postal_code":"910-0826","address":"福井市上中町１３字１-４"},
    {"code":9941907,"id":"000fad","name":"東藤島","name_kana":"ひがしふじしま","lat":36.086686,"lng":136.269837,"prefecture":18,"numbering":[{"color":"#0000FF","index":"7"}],"lines":[99419],"attr":"eco","postal_code":"910-0827","address":"福井市藤島町４８字４-２"},
    {"code":9941908,"id":"46ddd7","name":"越前島橋","name_kana":"えちぜんしまばし","lat":36.089967,"lng":136.277123,"prefecture":18,"numbering":[{"color":"#0000FF","index":"8"}],"lines":[99419],"attr":"eco","postal_code":"910-0816","address":"福井市中ノ郷町九字２３-４"},
    {"code":9941909,"id":"eb6d3e","name":"観音町(福井)","name_kana":"かんのんまち","lat":36.091726,"lng":136.289913,"prefecture":18,"numbering":[{"color":"#0000FF","index":"9"}],"lines":[99419],"attr":"eco","postal_code":"910-1134","address":"吉田郡永平寺町松岡芝原３-７"},
    {"code":9941910,"id":"c90146","name":"松岡","name_kana":"まつおか","lat":36.09402,"lng":136.301703,"prefecture":18,"numbering":[{"color":"#0000FF","index":"10"}],"lines":[99419],"attr":"eco","postal_code":"910-1117","address":"吉田郡永平寺町松岡神明１-９８-１"},
    {"code":9941911,"id":"a1d1ea","name":"志比堺","name_kana":"しいざかい","lat":36.097792,"lng":136.311021,"prefecture":18,"numbering":[{"color":"#0000FF","index":"11"}],"lines":[99419],"attr":"eco","postal_code":"910-1111","address":"吉田郡永平寺町松岡志比堺１２字３２-５"},
    {"code":9941912,"id":"896659","name":"永平寺口","name_kana":"えいへいじぐち","lat":36.095849,"lng":136.32678,"prefecture":18,"numbering":[{"color":"#0000FF","index":"12"}],"lines":[99419],"attr":"eco","postal_code":"910-1212","address":"吉田郡永平寺町東古市１字２３-４"},
    {"code":9941913,"id":"1e349d","name":"下志比","name_kana":"しもしい","lat":36.090674,"lng":136.336346,"prefecture":18,"numbering":[{"color":"#0000FF","index":"13"}],"lines":[99419],"attr":"eco","postal_code":"910-1214","address":"吉田郡永平寺町谷口１２字４１-２"},
    {"code":9941914,"id":"46e652","name":"光明寺","name_kana":"こうみょうじ","lat":36.088463,"lng":136.344586,"prefecture":18,"numbering":[{"color":"#0000FF","index":"14"}],"lines":[99419],"attr":"eco","postal_code":"910-1216","address":"吉田郡永平寺町光明寺１３字４０-２"},
    {"code":9941915,"id":"039ef1","name":"轟","name_kana":"どめき","lat":36.08688,"lng":136.361071,"prefecture":18,"numbering":[{"color":"#0000FF","index":"15"}],"lines":[99419],"attr":"eco","postal_code":"910-1218","address":"吉田郡永平寺町轟１０字３-４"},
    {"code":9941916,"id":"9ab4ea","name":"越前野中","name_kana":"えちぜんのなか","lat":36.082887,"lng":136.37685,"prefecture":18,"numbering":[{"color":"#0000FF","index":"16"}],"lines":[99419],"attr":"eco","postal_code":"910-1324","address":"吉田郡永平寺町野中１字１２-４"},
    {"code":9941917,"id":"39ce6c","name":"山王(福井)","name_kana":"さんのう","lat":36.079143,"lng":136.39243,"prefecture":18,"numbering":[{"color":"#0000FF","index":"17"}],"lines":[99419],"attr":"eco","postal_code":"910-1321","address":"吉田郡永平寺町山王２１字１５-３"},
    {"code":9941918,"id":"19a3f9","name":"越前竹原","name_kana":"えちぜんたけはら","lat":36.073945,"lng":136.413023,"prefecture":18,"numbering":[{"color":"#0000FF","index":"18"}],"lines":[99419],"attr":"eco","postal_code":"910-1305","address":"吉田郡永平寺町竹原２字８-１"},
    {"code":9941919,"id":"8adf93","name":"小舟渡","name_kana":"こぶなと","lat":36.075553,"lng":136.434054,"prefecture":18,"numbering":[{"color":"#0000FF","index":"19"}],"lines":[99419],"attr":"eco","postal_code":"910-1303","address":"吉田郡永平寺町藤巻６４字１-２９"},
    {"code":9941920,"id":"66d6d4","name":"保田(福井)","name_kana":"ほた","lat":36.069838,"lng":136.451611,"prefecture":18,"numbering":[{"color":"#0000FF","index":"20"}],"lines":[99419],"attr":"eco","postal_code":"911-0848","address":"勝山市鹿谷町保田６２字８-１"},
    {"code":9941921,"id":"db4596","name":"発坂","name_kana":"ほっさか","lat":36.072643,"lng":136.465684,"prefecture":18,"numbering":[{"color":"#0000FF","index":"21"}],"lines":[99419],"attr":"eco","postal_code":"911-0848","address":"勝山市鹿谷町保田９７字８-２"},
    {"code":9941922,"id":"c797cd","name":"比島","name_kana":"ひしま","lat":36.066011,"lng":136.483574,"prefecture":18,"numbering":[{"color":"#0000FF","index":"22"}],"lines":[99419],"attr":"eco","postal_code":"911-0831","address":"勝山市遅羽町比島２５字１１-１３"},
    {"code":9941923,"id":"3c91a5","name":"勝山","name_kana":"かつやま","lat":36.056362,"lng":136.492079,"prefecture":18,"numbering":[{"color":"#0000FF","index":"23"}],"lines":[99419],"attr":"eco","postal_code":"911-0831","address":"勝山市遅羽町比島３４字"}
  ],
  "north":36.09969,
  "south":36.05565,
  "east":136.49234,
  "west":136.22383,
  "polyline_list":[
    {
      "start":"福井",
      "end":"勝山",
      "lat":36.06181,
      "lng":136.22383,
      "delta_lat":[0,58,90,20,34,62,18,40,69,91,71,94,40,43,43,51,64,50,61,24,27,38,24,12,11,13,7,11,9,16,26,29,52,34,34,58,38,39,18,41,33,12,20,13,14,27,49,114,1,19,19,13,20,11,8,15,19,16,11,19,35,39,66,89,45,30,20,18,63,19,16,10,3,32,5,38,34,29,51,38,45,22,20,16,11,16,16,4,24,2,11,48,38,23,10,5,7,1,-8,-4,0,2,6,13,10,43,13,9,10,9,6,10,8,10,10,38,13,23,15,9,14,102,81,23,19,21,28,12,11,7,4,9,16,3,1,2,1,1,5,10,14,17,22,31,9,10,50,1,6,1,-1,-6,-11,-20,-52,-51,-30,-17,-7,-10,-11,-24,-41,-85,-45,-24,-29,-24,-401,-36,-27,-15,-8,-7,-38,-8,-7,-23,-57,-25,-11,-9,-6,-19,-13,0,4,13,1,-1,-4,-16,-21,-19,-22,-18,-9,-29,-6,-10,-55,-113,-44,-20,-74,-30,-9,-9,-11,-67,-11,-116,-54,-57,-38,-5,-8,-11,-19,-103,-37,-107,-106,-29,-36,-13,-13,-15,-10,-4,-3,-18,-26,-12,-6,-9,-12,-6,-3,3,20,6,28,13,4,2,1,0,3,1,16,18,49,39,41,39,34,7,1,-4,-7,-40,-25,-6,-8,-9,-3,4,9,2,2,-6,-27,-5,-7,2,9,6,-5,-36,-68,-51,-26,-28,-91,-103,-32,-19,-7,-47,-11,-11,-12,-12,-6,11,7,7,38,103,11,12,8,9,38,42,14,6,0,-9,-9,-8,-13,-25,-144,-13,-3,-29,-37,-14,-10,-9,-5,-1,-6,-13,-25,-20,-29,-74,-38,-18,-12,-6,-52,-4,-14,-38,-9,-4,16,4,1,0,-8,-9,-22,-27,-42,-45,-86,-51,-93,-68,-88,-53,-89,-41,-87,-170,-27,-27],
      "delta_lng":[0,46,59,20,45,86,26,56,89,123,93,124,46,43,31,24,26,12,15,13,20,40,39,35,59,95,47,47,41,44,49,56,96,68,64,100,63,63,32,69,60,32,81,49,35,54,85,186,2,32,33,20,49,63,121,224,217,106,47,56,65,67,116,159,80,68,49,44,168,43,28,19,7,67,12,69,61,41,75,53,74,40,43,52,52,93,85,19,85,5,44,133,104,68,36,44,58,60,506,75,140,34,59,58,36,108,28,31,35,44,49,115,77,60,47,151,51,86,70,40,29,218,170,51,30,28,27,18,30,30,48,57,79,10,5,7,6,5,18,44,46,51,54,86,29,54,298,19,36,34,42,41,42,44,88,89,61,36,16,26,27,39,59,94,57,32,44,49,778,69,50,34,29,32,281,49,36,65,164,79,44,30,53,129,80,31,54,93,46,115,64,172,183,165,175,148,67,128,19,32,212,424,173,77,312,128,40,38,43,285,47,469,218,236,163,22,35,39,66,185,53,109,96,29,47,27,45,95,101,23,22,55,69,26,27,18,36,23,38,52,121,77,237,144,113,20,30,34,39,134,167,52,104,122,174,103,105,34,30,26,24,109,89,35,46,83,198,262,130,35,45,93,264,52,93,49,108,150,62,159,253,103,25,27,42,39,12,14,13,91,31,37,41,50,63,29,17,19,102,266,40,95,142,71,135,126,68,30,120,37,40,27,39,36,143,12,3,34,55,34,33,106,140,35,37,32,40,26,30,36,27,29,31,12,180,13,49,131,39,48,167,96,33,42,53,47,39,34,29,24,30,36,98,41,31,16,64,31,62,121,14,14]
    }
  ]
}