{
  "code":99416,
  "id":"8706cf",
  "name":"北陸鉄道石川線",
  "name_kana":"ほくりくてつどういしかわせん",
  "station_size":17,
  "company_code":165,
  "station_list":[
    {"code":9941601,"id":"ecf797","name":"野町","name_kana":"のまち","lat":36.553779,"lng":136.644309,"prefecture":17,"lines":[99416],"attr":"cool","postal_code":"921-8031","address":"金沢市野町５","next":[9941606,9941602,1141544,1141711,100913,9941616,1141712,9941607,9941701,9941610,9941609],"voronoi":{"lat":36.489587,"lng":136.700465,"delta_lat":[0,-12328,13422,15840,52856,5329,2469,-30860,-12502,-22460,-7675],"delta_lng":[0,61127,843,-295,-82657,-25402,-15584,956,11892,29190,12084]}},
    {"code":9941602,"id":"09e2d1","name":"西泉","name_kana":"にしいずみ","lat":36.553445,"lng":136.633524,"prefecture":17,"lines":[99416],"attr":"cool","postal_code":"921-8042","address":"金沢市泉本町７","next":[9941601,9941606,100913,9941604,9941603],"voronoi":{"lat":36.573766,"lng":136.627391,"delta_lat":[0,-6591,-30860,122,10698],"delta_lng":[0,11106,956,-220,-10913]}},
    {"code":9941603,"id":"1e5a31","name":"新西金沢","name_kana":"しんにしかなざわ","lat":36.553067,"lng":136.622688,"prefecture":17,"lines":[99416],"attr":"cool","postal_code":"921-8044","address":"金沢市米泉町７","next":[1141542,100913,9941602,9941604],"voronoi":{"lat":36.547487,"lng":136.621396,"delta_lat":[0,29410,-3132,-26631],"delta_lng":[0,2915,3079,929]}},
    {"code":9941604,"id":"ad44e8","name":"押野","name_kana":"おしの","lat":36.541805,"lng":136.622114,"prefecture":17,"lines":[99416],"attr":"eco","postal_code":"921-8802","address":"石川郡野々市町押野町","next":[9941605,1141541,1141542,9941602,9941603,9941606],"voronoi":{"lat":36.547134,"lng":136.62832,"delta_lat":[0,353,-885,-4857,-5049,-260],"delta_lng":[0,-6923,-11350,32,22071,7083]}},
    {"code":9941605,"id":"608228","name":"野々市(北陸鉄道)","name_kana":"ののいち","lat":36.536459,"lng":136.620891,"prefecture":17,"lines":[99416],"attr":"eco","postal_code":"921-8815","address":"石川県野々市市本町1丁目","next":[9941604,9941606,1141541],"voronoi":{"lat":36.536696,"lng":136.632149,"delta_lat":[0,-5183,10232],"delta_lng":[0,-24393,2322]}},
    {"code":9941606,"id":"22bc35","name":"野々市工大前","name_kana":"ののいちこうだいまえ","lat":36.532336,"lng":136.621767,"prefecture":17,"lines":[99416],"attr":"eco","postal_code":"921-8815","address":"石川郡野々市町本町２","next":[9941601,9941607,9941602,9941605,9941604,1141541],"voronoi":{"lat":36.536696,"lng":136.632149,"delta_lat":[0,-260,-122,-12502,5626,2075],"delta_lng":[0,7083,220,11892,-44402,814]}},
    {"code":9941607,"id":"5c41ac","name":"馬替","name_kana":"まがえ","lat":36.522935,"lng":136.620576,"prefecture":17,"lines":[99416],"attr":"eco","postal_code":"921-8141","address":"金沢市馬替３","next":[9941609,9941606,9941601,9941608,1141541],"voronoi":{"lat":36.526611,"lng":136.604595,"delta_lat":[0,-16453,-8805,22460,5626],"delta_lng":[0,42235,33705,-29190,-44402]}},
    {"code":9941608,"id":"83e7f3","name":"額住宅前","name_kana":"ぬかじゅうたくまえ","lat":36.518507,"lng":136.618851,"prefecture":17,"lines":[99416],"attr":"eco","postal_code":"921-8148","address":"金沢市額新保１","next":[9941607,9941609,1141541],"voronoi":{"lat":36.510158,"lng":136.646829,"delta_lat":[0,8903,7550],"delta_lng":[0,-50631,8396]}},
    {"code":9941609,"id":"f8faff","name":"乙丸","name_kana":"おとまる","lat":36.511853,"lng":136.617681,"prefecture":17,"lines":[99416],"attr":"heat","postal_code":"921-8146","address":"金沢市額乙丸町","next":[9941607,1141540,1141541,9941608,9941610,9941601],"voronoi":{"lat":36.509604,"lng":136.589151,"delta_lat":[0,5941,3516,-8903,-8805,-7675],"delta_lng":[0,1714,5333,50631,33705,12084]}},
    {"code":9941610,"id":"43dc7c","name":"四十万","name_kana":"しじま","lat":36.498879,"lng":136.615684,"prefecture":17,"lines":[99416],"attr":"heat","postal_code":"921-8135","address":"金沢市四十万４","next":[1141540,9941616,9941619,9941601,9941609],"voronoi":{"lat":36.489587,"lng":136.700465,"delta_lat":[0,-3466,14934,8549,-15926],"delta_lng":[0,-19901,-96220,4808,103467]}},
    {"code":9941619,"id":"70bf8c","name":"陽羽里","name_kana":"ひばり","lat":36.493628,"lng":136.614869,"prefecture":17,"lines":[99416],"attr":"heat","postal_code":"920-2101","address":"石川県白山市曽谷町ヲ40番地","open_date":"2015-03-14","next":[1141540,9941616,9941611,9941610],"voronoi":{"lat":36.484394,"lng":136.672567,"delta_lat":[0,11751,4910,-14934],"delta_lng":[0,-91561,3338,96220]}},
    {"code":9941611,"id":"133db6","name":"曽谷","name_kana":"そだに","lat":36.490028,"lng":136.614407,"prefecture":17,"lines":[99416],"attr":"heat","postal_code":"920-2101","address":"白山市曽谷町","next":[1141540,9941616,9941619,9941612],"voronoi":{"lat":36.492613,"lng":136.578319,"delta_lat":[0,3531,-11751,-3820],"delta_lng":[0,2687,91561,-15366]}},
    {"code":9941612,"id":"0012d4","name":"道法寺","name_kana":"どうほうじ","lat":36.484315,"lng":136.613535,"prefecture":17,"lines":[99416],"attr":"heat","postal_code":"920-2162","address":"白山市道法寺町","next":[9941616,9941615,9941613,1141540,9941611],"voronoi":{"lat":36.492613,"lng":136.578319,"delta_lat":[0,-6179,-9904,812,3231],"delta_lng":[0,-5534,64787,9532,10097]}},
    {"code":9941613,"id":"5818de","name":"井口(石川)","name_kana":"いのくち","lat":36.476282,"lng":136.612307,"prefecture":17,"lines":[99416],"attr":"heat","postal_code":"920-2162","address":"白山市道法寺町","next":[1141540,9941612,1141539,9941614,9941615],"voronoi":{"lat":36.472198,"lng":136.620357,"delta_lat":[0,7966,1254,5016,-9904],"delta_lng":[0,-53453,394,5486,64787]}},
    {"code":9941614,"id":"dfb683","name":"小柳(石川)","name_kana":"おやなぎ","lat":36.470639,"lng":136.611466,"prefecture":17,"lines":[99416],"attr":"heat","postal_code":"920-2103","address":"白山市小柳町","next":[9941613,1141539,9941615],"voronoi":{"lat":36.424406,"lng":136.545475,"delta_lat":[0,55759,-7966],"delta_lng":[0,21429,53453]}},
    {"code":9941615,"id":"c12029","name":"日御子","name_kana":"ひのみこ","lat":36.46479,"lng":136.615199,"prefecture":17,"lines":[99416],"attr":"heat","postal_code":"920-2153","address":"白山市日御子町","next":[1141539,9941612,1141535,9941616,9941614,9941613],"voronoi":{"lat":36.477342,"lng":136.647104,"delta_lat":[0,-67521,13202,1382,47793,4332],"delta_lng":[0,-98801,-3428,601,74882,17214]}},
    {"code":9941616,"id":"0d17f7","name":"鶴来","name_kana":"つるぎ","lat":36.452178,"lng":136.623818,"prefecture":17,"lines":[99416],"attr":"heat","postal_code":"920-2121","address":"白山市鶴来本町４丁目","next":[9941610,1141535,9941612,1141713,9941611,9941923,9941922,1141712,9941601,9941615,1141632,9941619,1142121,1141534,1141533,9952538],"voronoi":{"lat":36.201929,"lng":136.754365,"delta_lat":[0,2581,13778,22924,54274,75081,39255,67521,3231,3820,1727,3466,-12328,-47674,-192032,-8640],"delta_lng":[0,-46908,-41397,-63123,-26263,-21806,-6565,98801,10097,15366,7997,19901,61127,15608,48264,-2684]}}
  ],
  "north":36.55392,
  "south":36.45188,
  "east":136.64439,
  "west":136.61143,
  "polyline_list":[
    {
      "start":"鶴来",
      "end":"野町",
      "lat":36.45188,
      "lng":136.62403,
      "delta_lat":[0,60,49,185,37,140,46,22,84,175,244,202,63,232,233,40,31,72,10,194,32,49,20,24,72,10,88,62,147,18,9,147,17,15,50,22,112,71,54,11,44,15,60,39,48,197,112,43,29,10,34,33,33,19,69,74,14,17,51,49,35,85,24,9,57,22,13,23,36,8,94,29,9,23,56,67,34,25,67,136,37,90,493,356,30,30,129,292,171,13,39,20,103,103,162,57,17,84,87,22,27,102,341,233,13,43,17,113,27,31,36,51,5,40,9,11,22,46,62,145,27,30,34,73,85,53,44,13,7,141,45,53,13,108,6,68,67,78,51,70,34,29,33,23,24,37,32,21,15,14,17,10,9,11,7,16,15,4,2,1,-4,0,-3,-2,-2,0,4,0,6,1,11,4,1,8,2,3,4,3,4,2,-2,0,-6,-3,-3,0,-10,-13,-24,-8,3,6,9,9,38,46],
      "delta_lng":[0,-42,-32,-124,-29,-101,-30,-16,-57,-123,-172,-142,-43,-161,-164,-18,-6,0,3,30,7,7,4,3,12,0,14,13,22,2,2,23,1,4,5,5,17,11,12,0,8,1,9,8,7,30,18,7,4,2,4,7,7,2,10,10,3,3,7,6,6,11,5,1,9,3,1,4,4,2,14,5,0,5,6,9,4,2,9,19,5,13,73,57,5,4,18,45,42,3,9,6,29,37,80,25,8,37,38,6,1,4,12,4,2,2,1,10,-1,-9,-27,-41,-3,-27,-3,-3,4,22,33,71,12,4,-3,-1,-5,-3,-4,0,-1,-10,-3,-5,0,-16,-1,-7,-8,-7,-3,0,-1,-1,-4,-6,-9,-18,-18,-9,-3,0,6,7,9,14,13,41,40,12,9,11,75,14,88,114,70,50,45,7,47,7,118,24,16,77,15,47,21,21,53,38,25,3,87,37,42,0,191,207,372,118,20,23,23,14,52,41]
    }
  ]
}