{
  "code":99415,
  "id":"6143ed",
  "name":"富山地鉄富山港線",
  "name_kana":"とやまちてつとやまこうせん",
  "name_formal":"富山港線",
  "station_size":14,
  "company_code":160,
  "color":"#00008B",
  "station_list":[
    {"code":9941322,"id":"f72cbd","name":"富山駅","name_kana":"とやまえき","lat":36.701479,"lng":137.212583,"prefecture":16,"lines":[99413,99415],"attr":"eco","postal_code":"930-0001","address":"富山県富山市明輪町1-227","open_date":"2015-03-14","next":[9941314,9941313,9941501,100911,9941320],"voronoi":{"lat":36.700207,"lng":137.211846,"delta_lat":[0,707,1971,19180,-16430],"delta_lng":[0,1200,-393,-13656,2137]},"impl":true},
    {"code":9941501,"id":"56b05c","name":"富山駅北","name_kana":"とやまえききた","closed":true,"lat":36.70249,"lng":137.214003,"prefecture":16,"lines":[99415],"attr":"unknown","postal_code":"930-0858","address":"富山市牛島町２４番３地先","next":[9941505,9940801,9941506,100911,9941502,9941322,9941320],"voronoi":{"lat":36.72374,"lng":137.198718,"delta_lat":[0,-2608,-4027,-15319,-158,1257,19180],"delta_lng":[0,4723,6307,6088,-1709,-1474,-13656]},"impl":true},
    {"code":9941502,"id":"eeb842","name":"インテック本社前","name_kana":"いんてっくほんしゃまえ","lat":36.703556,"lng":137.216685,"prefecture":16,"lines":[99415],"attr":"heat","postal_code":"930-0856","address":"富山市牛島新町５番８地先","next":[9941503,9941312,9941505,9941501,9940801,9941504],"voronoi":{"lat":36.71584,"lng":137.212216,"delta_lat":[0,1265,-15319,-747,-406,7202],"delta_lng":[0,-2469,6088,829,3482,36]},"impl":true},
    {"code":9941503,"id":"43c6d8","name":"奥田中学校前","name_kana":"おくだちゅうがっこうまえ","lat":36.703522,"lng":137.223637,"prefecture":16,"lines":[99415],"attr":"heat","postal_code":"930-0853","address":"富山市永楽町３２番地","next":[9941502,9941504,9941312,9941311,9940802],"voronoi":{"lat":36.69585,"lng":137.223612,"delta_lat":[0,2157,2625,7202,-1409],"delta_lng":[0,-1744,-1721,36,13053]},"impl":true},
    {"code":9941504,"id":"ce460d","name":"下奥井","name_kana":"しもおくい","lat":36.711311,"lng":137.224478,"prefecture":16,"lines":[99415],"attr":"heat","postal_code":"930-0817","address":"富山市下奥井","next":[9941505,9941503,9940802,9940839,9941502],"voronoi":{"lat":36.71584,"lng":137.212216,"delta_lat":[0,-1128,-7480,-806,1409],"delta_lng":[0,28661,-5890,-1752,-13053]},"impl":true},
    {"code":9941505,"id":"366204","name":"粟島（大阪屋ショップ前）","name_kana":"あわじま","lat":36.719391,"lng":137.224796,"prefecture":16,"lines":[99415],"attr":"heat","postal_code":"931-8314","address":"富山県富山市粟島町","next":[9941504,9940803,9941501,1140502,9941502,9941506,9940839],"voronoi":{"lat":36.719717,"lng":137.246774,"delta_lat":[0,663,751,-4027,-1265,-1128,4004],"delta_lng":[0,-610,-42723,6307,2469,28661,5160]},"impl":true},
    {"code":9941506,"id":"910c86","name":"越中中島","name_kana":"えっちゅうなかじま","lat":36.722121,"lng":137.224844,"prefecture":16,"lines":[99415],"attr":"heat","postal_code":"930-0801","address":"富山市中島３丁目","next":[1140502,9941320,1141554,9941501,9941505,9941507],"voronoi":{"lat":36.720381,"lng":137.246164,"delta_lat":[0,751,2608,6304,865,-6727],"delta_lng":[0,-42723,-4723,-4381,-47,48805]},"impl":true},
    {"code":9941507,"id":"ad2027","name":"城川原","name_kana":"じょうがわら","lat":36.731103,"lng":137.226082,"prefecture":16,"lines":[99415],"attr":"heat","postal_code":"931-8325","address":"富山市城川原","next":[1140502,1141554,9941508,9941506],"voronoi":{"lat":36.730909,"lng":137.194289,"delta_lat":[0,6499,-5785,-7441],"delta_lng":[0,-1302,46696,3411]},"impl":true},
    {"code":9941508,"id":"756960","name":"犬島新町","name_kana":"いぬじましんまち","lat":36.735445,"lng":137.22662,"prefecture":16,"lines":[99415],"attr":"eco","postal_code":"931-8328","address":"富山市犬島新町１丁目１４番地","next":[1140502,9941509,9941507,1141554],"voronoi":{"lat":36.743213,"lng":137.191427,"delta_lat":[0,-5438,-6153,5785],"delta_lng":[0,46563,1693,-46696]},"impl":true},
    {"code":9941509,"id":"9ad5a3","name":"蓮町(馬場記念公園前)","name_kana":"はすまち（ばばきねんこうえんまえ）","lat":36.742663,"lng":137.227463,"prefecture":16,"lines":[99415],"attr":"eco","postal_code":"931-8333","address":"富山県富山市蓮町1丁目2番地","next":[9941508,9941510,1141554,1140502],"voronoi":{"lat":36.753703,"lng":137.187435,"delta_lat":[0,-10489,-5438,5825],"delta_lng":[0,3992,46563,291]},"impl":true},
    {"code":9941510,"id":"e20a4a","name":"萩浦小学校前","name_kana":"はぎうらしょうがっこうまえ","lat":36.748602,"lng":137.228643,"prefecture":16,"lines":[99415],"attr":"eco","postal_code":"931-8345","address":"富山市西宮町6番地","next":[9941513,9941509,9941511,1141554,1140502],"voronoi":{"lat":36.7436,"lng":137.238282,"delta_lat":[0,10102,25276,-3606,-30206],"delta_lng":[0,-50846,-11794,8347,54834]},"impl":true},
    {"code":9941511,"id":"eabc08","name":"東岩瀬","name_kana":"ひがしいわせ","lat":36.751935,"lng":137.230479,"prefecture":16,"lines":[99415],"attr":"cool","postal_code":"931-8345","address":"富山市西宮","next":[9941513,9941512,9941510,1140502],"voronoi":{"lat":36.745167,"lng":137.238823,"delta_lat":[0,30206,-15550,-10642],"delta_lng":[0,-54834,39948,17134]},"impl":true},
    {"code":9941512,"id":"6d2df5","name":"競輪場前(富山)","original_name":"競輪場前","name_kana":"けいりんじょうまえ","lat":36.757454,"lng":137.233907,"prefecture":16,"lines":[99415],"attr":"cool","postal_code":"931-8376","address":"富山市岩瀬池田町","next":[9941511,9941513,1140502],"voronoi":{"lat":36.759823,"lng":137.223936,"delta_lat":[0,-10642,9329],"delta_lng":[0,17134,9837]},"impl":true},
    {"code":9941513,"id":"c88fbd","name":"岩瀬浜","name_kana":"いわせはま","lat":36.761212,"lng":137.23409,"prefecture":16,"lines":[99415],"attr":"cool","postal_code":"931-8378","address":"富山市岩瀬天神町","next":[9940817,9940815,9941510,1140503,9941424,1141554,1141919,1140502,1140504,9941511,9940822,9940823,9941512,1140508],"voronoi":{"lat":36.901402,"lng":137.278771,"delta_lat":[0,-8485,-12338,-42711,-11994,-51040,-16325,1313,15550,3606,2021,215490,5335,-98453],"delta_lng":[0,3235,1572,2886,88,-14093,-21552,-26971,-39948,-8347,-1238,23782,5549,74089]},"impl":true}
  ],
  "north":36.76159,
  "south":36.70255,
  "east":137.23446,
  "west":137.21341,
  "polyline_list":[
    {
      "start":"富山",
      "end":"岩瀬浜",
      "lat":36.70255,
      "lng":137.21341,
      "delta_lat":[0,2,2,7,11,121,8,-2,-33,-18,-61,11,-6,11,23,52,111,47,129,151,217,68,49,74,19,39,91,157,36,44,90,52,60,36,29,64,55,38,58,20,68,69,94,95,50,13,163,59,153,17,182,66,159,92,74,77,89,88,89,100,34,34,73,61,71,68,61,82,128,95,56,59,59,57,68,27,51,69,96,63,54,25,37,93,77,102,107,54,55,56,37,16,37,119,64],
      "delta_lng":[0,40,11,7,10,68,17,20,103,48,166,188,324,13,6,-3,-1,5,18,23,30,10,8,13,3,6,14,26,-1,-4,-7,-6,-5,-4,-2,-6,-2,-2,0,2,8,9,12,14,6,2,22,8,20,3,23,10,22,12,10,9,13,13,12,13,3,6,10,9,9,8,6,12,16,13,8,7,8,17,32,15,32,42,60,39,33,12,24,61,48,63,67,32,22,12,2,-1,-4,-22,-17]
    }
  ],
  "impl":true
}