{
  "code":99414,
  "name":"万葉線",
  "station_list":[
    {"code":9941401,"id":"88440d","name":"高岡駅","name_kana":"たかおかえき","lat":36.742173,"lng":137.014722,"prefecture":16,"lines":[99414],"attr":"eco","postal_code":"933-0021","address":"高岡市下関町"},
    {"code":9941425,"id":"b70045","name":"末広町(富山)","name_kana":"すえひろちょう","lat":36.744825,"lng":137.013148,"prefecture":16,"lines":[99414],"attr":"eco","postal_code":"933-0024","address":"高岡市宮脇町１００３番地先"},
    {"code":9941402,"id":"a5d686","name":"片原町(富山)","name_kana":"かたはらまち","lat":36.746389,"lng":137.012838,"prefecture":16,"lines":[99414],"attr":"eco","postal_code":"933-0026","address":"高岡市片原町"},
    {"code":9941403,"id":"e76384","name":"坂下町","name_kana":"さかしたまち","lat":36.747367,"lng":137.014585,"prefecture":16,"lines":[99414],"attr":"heat","postal_code":"933-0038","address":"高岡市坂下町"},
    {"code":9941404,"id":"cb9aa2","name":"急患医療センター前","name_kana":"きゅうかんいりょうせんたーまえ","lat":36.750686,"lng":137.018736,"prefecture":16,"lines":[99414],"attr":"heat","postal_code":"933-0913","address":"高岡市本町"},
    {"code":9941405,"id":"5d920a","name":"広小路(富山)","name_kana":"ひろこうじ","lat":36.752566,"lng":137.020615,"prefecture":16,"lines":[99414],"attr":"heat","postal_code":"933-0912","address":"高岡市丸の内"},
    {"code":9941406,"id":"3344c0","name":"志貴野中学校前","name_kana":"しきのちゅうがっこうまえ","lat":36.755648,"lng":137.023759,"prefecture":16,"lines":[99414],"attr":"heat","postal_code":"933-0911","address":"高岡市あわら町"},
    {"code":9941407,"id":"de3dbf","name":"市民病院前","name_kana":"しみんびょういんまえ","lat":36.758196,"lng":137.0261,"prefecture":16,"lines":[99414],"attr":"heat","postal_code":"933-0902","address":"高岡市向野町３"},
    {"code":9941408,"id":"7a8c7a","name":"江尻","name_kana":"えじり","lat":36.762295,"lng":137.030603,"prefecture":16,"lines":[99414],"attr":"heat","postal_code":"933-0062","address":"高岡市江尻"},
    {"code":9941409,"id":"7d0c7a","name":"旭ヶ丘(富山)","name_kana":"あさひがおか","lat":36.763965,"lng":137.032469,"prefecture":16,"lines":[99414],"attr":"heat","postal_code":"933-0062","address":"富山県高岡市江尻"},
    {"code":9941410,"id":"8949a3","name":"荻布","name_kana":"おぎの","lat":36.76682,"lng":137.035619,"prefecture":16,"lines":[99414],"attr":"eco","postal_code":"933-0073","address":"高岡市荻布"},
    {"code":9941411,"id":"07ac09","name":"新能町","name_kana":"しんのうまち","lat":36.770258,"lng":137.037713,"prefecture":16,"lines":[99414],"attr":"eco","postal_code":"933-0073","address":"高岡市荻布"},
    {"code":9941412,"id":"11672c","name":"米島口","name_kana":"よねじまぐち","lat":36.773,"lng":137.038718,"prefecture":16,"lines":[99414],"attr":"eco","postal_code":"933-0076","address":"高岡市米島"},
    {"code":9941413,"id":"ae5289","name":"能町口","name_kana":"のうまちぐち","lat":36.773239,"lng":137.049031,"prefecture":16,"lines":[99414],"attr":"eco","postal_code":"933-0003","address":"高岡市能町"},
    {"code":9941414,"id":"9f5bd1","name":"新吉久","name_kana":"しんよしひさ","lat":36.776086,"lng":137.052839,"prefecture":16,"lines":[99414],"attr":"eco","postal_code":"933-0002","address":"高岡市吉久１"},
    {"code":9941415,"id":"dc0732","name":"吉久","name_kana":"よしひさ","lat":36.782018,"lng":137.056369,"prefecture":16,"lines":[99414],"attr":"eco","postal_code":"933-0002","address":"高岡市吉久３"},
    {"code":9941416,"id":"3d0434","name":"中伏木","name_kana":"なかふしき","lat":36.788224,"lng":137.061655,"prefecture":16,"lines":[99414],"attr":"eco","postal_code":"934-0001","address":"射水市庄西町２"},
    {"code":9941417,"id":"cb75e8","name":"六渡寺","name_kana":"ろくどうじ","lat":36.788935,"lng":137.066443,"prefecture":16,"lines":[99414],"attr":"eco","postal_code":"934-0001","address":"射水市庄西町１"},
    {"code":9941418,"id":"14ea26","name":"庄川口","name_kana":"しょうがわぐち","lat":36.784433,"lng":137.070729,"prefecture":16,"lines":[99414],"attr":"cool","postal_code":"934-0003","address":"射水市庄川本町"},
    {"code":9941419,"id":"a93373","name":"西新湊","name_kana":"にししんみなと","lat":36.781234,"lng":137.078505,"prefecture":16,"lines":[99414],"attr":"cool","postal_code":"934-0011","address":"射水市本町２"},
    {"code":9941420,"id":"dee3fa","name":"新町口","name_kana":"しんまちぐち","lat":36.778983,"lng":137.084259,"prefecture":16,"lines":[99414],"attr":"cool","postal_code":"934-0012","address":"射水市中央町"},
    {"code":9941421,"id":"c34472","name":"中新湊","name_kana":"なかしんみなと","lat":36.775148,"lng":137.088617,"prefecture":16,"lines":[99414],"attr":"cool","postal_code":"934-0027","address":"射水市中新湊"},
    {"code":9941422,"id":"110a2e","name":"東新湊","name_kana":"ひがししんみなと","lat":36.777825,"lng":137.099368,"prefecture":16,"lines":[99414],"attr":"cool","postal_code":"934-0025","address":"射水市八幡町３"},
    {"code":9941423,"id":"d19dd6","name":"海王丸","name_kana":"かいおうまる","lat":36.776726,"lng":137.105331,"prefecture":16,"lines":[99414],"attr":"cool","postal_code":"934-0024","address":"射水市越の潟町"},
    {"code":9941424,"id":"5c5478","name":"越ノ潟","name_kana":"こしのかた","lat":36.774704,"lng":137.111839,"prefecture":16,"lines":[99414],"attr":"cool","postal_code":"934-0024","address":"射水市越の潟町"}
  ],
  "north":36.78928,
  "south":36.74199,
  "east":137.11216,
  "west":137.01229,
  "polyline_list":[
    {
      "start":"六渡寺",
      "end":"越ノ潟",
      "lat":36.78897,
      "lng":137.06566,
      "delta_lat":[0,-29,-25,-32,-45,-31,-272,-34,-44,-43,-198,-12,-24,-157,-47,-17,-5,-37,-84,-30,-89,-27,-25,-17,-3,-32,-26,-25,-27,-29,-6,-1,8,13,53,64,145,40,24,14,9,5,0,-6,-13,-143,-17,-92,-9,-12,-47],
      "delta_lng":[0,62,41,36,42,33,253,41,54,93,553,30,73,416,90,25,7,33,65,21,47,24,36,33,4,97,74,79,79,83,37,46,45,30,76,76,177,49,40,38,40,41,47,36,75,685,82,407,31,22,45]
    },
    {
      "start":"高岡駅",
      "end":"六渡寺",
      "lat":36.74199,
      "lng":137.01438,
      "delta_lat":[0,15,11,15,51,109,31,35,37,70,15,14,18,11,9,51,40,9,12,44,61,126,15,11,30,30,46,89,29,18,17,12,24,129,85,24,257,40,37,257,31,154,27,320,30,66,30,36,183,36,134,45,25,47,47,33,18,10,8,-2,-20,-6,-33,-5,-34,0,4,6,25,16,21,4,20,42,67,79,31,199,49,200,45,45,40,85,211,11,35,80,30,21,95,40,21,35,25,18,10,5,-5,-10,-16],
      "delta_lng":[0,42,26,2,-37,-82,-28,-31,-33,-65,-2,10,32,21,17,89,71,16,21,78,84,129,15,10,30,29,45,93,31,19,19,12,25,131,83,26,236,39,41,287,35,171,30,355,33,72,24,20,68,13,51,15,9,17,17,51,37,42,49,57,146,42,221,42,228,33,63,20,51,28,34,6,31,51,73,84,21,131,24,91,29,35,35,79,199,10,22,37,17,13,98,40,21,42,38,47,42,49,61,53,45]
    }
  ]
}