{
  "code":99428,
  "id":"ac5120",
  "name":"福井鉄道鯖浦線",
  "name_kana":"ふくいてつどうせいほうせん",
  "station_size":12,
  "company_code":168,
  "closed":true,
  "station_list":[
    {"code":1141519,"id":"36de74","name":"鯖江","name_kana":"さばえ","lat":35.943355,"lng":136.188852,"prefecture":18,"lines":[11415,99428],"attr":"cool","postal_code":"916-0053","address":"鯖江市日の出町","next":[1142106,9942105,1141518,1141520,1141516,9942104,9942802],"voronoi":{"lat":35.929776,"lng":136.274704,"delta_lat":[0,-37719,-1845,19935,30944,4046,2261],"delta_lng":[0,24437,-45282,-44564,-25541,1745,37549]}},
    {"code":9942802,"id":"68654d","name":"東鯖江","name_kana":"ひがしさばえ","closed":true,"lat":35.947308,"lng":136.188614,"prefecture":18,"lines":[99428],"attr":"unknown","postal_code":"916-0025","address":"日本福井県鯖江市旭町３丁目１旭町３丁目公園","next":[9942106,9942105,1141520,1141519],"voronoi":{"lat":35.945137,"lng":136.185498,"delta_lat":[0,3528,8119,-9386],"delta_lng":[0,-503,14975,23077]}},
    {"code":9942803,"id":"57ea27","name":"越前平井","name_kana":"えちぜんへいい","closed":true,"lat":35.96167,"lng":136.164614,"prefecture":18,"lines":[99428],"attr":"unknown","postal_code":"916-0061","address":"日本福井県鯖江市平井町２７−９−５","next":[9942107,9942103,9942104,9942105,9942804,9942108],"voronoi":{"lat":35.95501,"lng":136.174142,"delta_lat":[0,-11259,-662,-1563,50225,-25332],"delta_lng":[0,-9978,-1043,-9413,3818,16224]}},
    {"code":9942804,"id":"06b76e","name":"川去","name_kana":"かわさり","closed":true,"lat":35.963087,"lng":136.145974,"prefecture":18,"lines":[99428],"attr":"unknown","postal_code":"916-0071","address":"日本福井県鯖江市持明寺町","next":[9942807,9942805,9942108,9942803,9942103,9942109,9942806],"voronoi":{"lat":35.9341,"lng":136.142495,"delta_lat":[0,7425,50225,3530,501,-36202,-25445],"delta_lng":[0,11214,3818,-948,-222,-23094,9206]}},
    {"code":9942805,"id":"9f06b3","name":"西田中","name_kana":"にしたなか","closed":true,"lat":35.972585,"lng":136.131085,"prefecture":18,"lines":[99428],"attr":"unknown","postal_code":"916-0146","address":"日本福井県丹生郡越前町朝日１丁目５０１","next":[9942112,9942023,9942813,9942806,9942804,9942008,9942022,9942125,9942007,9942109,9942111],"voronoi":{"lat":36.014269,"lng":136.153431,"delta_lat":[0,-18488,-36202,22101,110960,-6030,-8873,-4315,-24781,-7441,-14452],"delta_lng":[0,2926,-23094,-41444,-21535,10544,14335,6561,35617,4163,6983]}},
    {"code":9942806,"id":"19ea22","name":"佐々生","name_kana":"さそう","closed":true,"lat":35.954142,"lng":136.12125,"prefecture":18,"lines":[99428],"attr":"unknown","postal_code":"916-0144","address":"日本福井県丹生郡越前町佐々生４３−１１−１","next":[9942805,9942809,9942813,9942807,9942804],"voronoi":{"lat":35.953976,"lng":136.101776,"delta_lat":[0,26065,1639,-22101,-25445],"delta_lng":[0,-10073,115,41444,9206]}},
    {"code":9942807,"id":"598078","name":"陶の谷","name_kana":"すえのたに","closed":true,"lat":35.938531,"lng":136.113638,"prefecture":18,"lines":[99428],"attr":"unknown","postal_code":"916-0266","address":"日本福井県丹生郡越前町寺３−５−３","next":[9942124,9942804,9942809,9942806,9942102,1141517,9942103],"voronoi":{"lat":35.934134,"lng":136.142469,"delta_lat":[0,19842,-84475,19675,30530,12459,1935],"delta_lng":[0,-40692,-7914,27367,16392,4447,426]}},
    {"code":9942809,"id":"c19bb0","name":"樫津","name_kana":"かしづ","closed":true,"lat":35.941003,"lng":136.087252,"prefecture":18,"lines":[99428],"attr":"unknown","postal_code":"916-0272","address":"日本福井県丹生郡越前町樫津４−５","next":[9942813,9942807,9942806,9942811,9942810,1141517],"voronoi":{"lat":35.85614,"lng":136.081114,"delta_lat":[0,44212,64737,14953,-26065,-84475],"delta_lng":[0,-2901,4262,9228,10073,-7914]}},
    {"code":9942810,"id":"726303","name":"下江波","name_kana":"しもえなみ","closed":true,"lat":35.941837,"lng":136.074583,"prefecture":18,"lines":[99428],"attr":"unknown","postal_code":"916-0255","address":"日本福井県丹生郡越前町江波７７−８","next":[9942812,9942809,9942813,9942811],"voronoi":{"lat":35.947158,"lng":136.067819,"delta_lat":[0,7530,10400,-64737],"delta_lng":[0,3635,11022,-4262]}},
    {"code":9942811,"id":"1ee9ae","name":"江波(福井)","name_kana":"えなみ","closed":true,"lat":35.939474,"lng":136.063943,"prefecture":18,"lines":[99428],"attr":"unknown","postal_code":"916-0255","address":"日本福井県丹生郡越前町江波２４−４４−１","next":[1142221,9942812,1142220,9942809,1141517,1141512,9942810],"voronoi":{"lat":35.947158,"lng":136.067819,"delta_lat":[0,-110256,-36485,-12249,2406,65565,44212],"delta_lng":[0,-237057,95712,50893,56524,47224,-2901]}},
    {"code":9942812,"id":"7f1e2a","name":"矢倉(福井)","name_kana":"やくら","closed":true,"lat":35.949145,"lng":136.059445,"prefecture":18,"lines":[99428],"attr":"unknown","postal_code":"916-0223","address":"日本福井県丹生郡越前町下河原１２−２６","next":[9942810,9942811,1142219,1142206,9942813,1142220],"voronoi":{"lat":35.947158,"lng":136.067819,"delta_lat":[0,7530,-30470,-13740,-29897,-43679],"delta_lng":[0,3635,-448788,13240,72642,122214]}},
    {"code":9942813,"id":"10bb42","name":"織田","name_kana":"おた","closed":true,"lat":35.958557,"lng":136.058806,"prefecture":18,"lines":[99428],"attr":"unknown","postal_code":"916-0215","address":"日本福井県丹生郡越前町織田","next":[9942008,9942809,9942805,9960906,9942021,9942806,9942812,9942810,9960913,1142206,1142204],"voronoi":{"lat":36.072558,"lng":135.48516,"delta_lat":[0,72710,160220,-204495,-8353,-110960,-1639,-14953,-10400,-30470,71853],"delta_lng":[0,-36624,-45159,658739,8167,21535,-115,-9228,-11022,-448788,-70746]}}
  ],
  "closed_date":"1973-09-29"
}