{
  "code":99420,
  "name":"えちぜん鉄道三国芦原線",
  "color":"#0066FF",
  "station_list":[
    {"code":1141523,"id":"7960cf","name":"福井(福井)","name_kana":"ふくい","lat":36.062057,"lng":136.223516,"prefecture":18,"numbering":[{"symbol":"E","index":"1"}],"lines":[11415,11421,99419,99420],"attr":"cool","postal_code":"910-0006","address":"福井市中央１丁目"},
    {"code":9941902,"id":"caa636","name":"新福井","name_kana":"しんふくい","lat":36.064714,"lng":136.226721,"prefecture":18,"numbering":[{"symbol":"E","index":"2"}],"lines":[99419,99420],"attr":"cool","postal_code":"910-0859","address":"福井市日之出１-２５０２"},
    {"code":9941903,"id":"e7a131","name":"福井口","name_kana":"ふくいぐち","lat":36.071386,"lng":136.233176,"prefecture":18,"numbering":[{"symbol":"E","index":"3"}],"lines":[99419,99420],"attr":"cool","postal_code":"910-0003","address":"福井市松本上町８字１３-１"},
    {"code":9942024,"id":"9ab6ae","name":"まつもと町屋","name_kana":"まつもとまちや","lat":36.07696597,"lng":136.2290465,"prefecture":18,"numbering":[{"symbol":"E","index":"24"}],"lines":[99420],"attr":"eco","postal_code":"910-0002","address":"福井県福井市町屋二丁目3番"},
    {"code":9942004,"id":"9b1cdf","name":"西別院","name_kana":"にしべついん","lat":36.07516,"lng":136.222704,"prefecture":18,"numbering":[{"symbol":"E","index":"25"}],"lines":[99420],"attr":"heat","postal_code":"910-0003","address":"福井市松本３-２４０３"},
    {"code":9942005,"id":"9f0978","name":"田原町(福井)","name_kana":"たわらまち","lat":36.074888,"lng":136.21738,"prefecture":18,"numbering":[{"symbol":"E","index":"26"}],"lines":[99420,99421],"attr":"heat","postal_code":"910-0018","address":"福井市田原下町２字７-３"},
    {"code":9942006,"id":"068893","name":"福大前西福井","name_kana":"ふくだいまえにしふくい","lat":36.074218,"lng":136.210339,"prefecture":18,"numbering":[{"symbol":"E","index":"27"}],"lines":[99420],"attr":"heat","postal_code":"910-0017","address":"福井市文京４-３０２"},
    {"code":9942022,"id":"1fa3f3","name":"日華化学前","name_kana":"にっかかがくまえ","lat":36.080945,"lng":136.206479,"prefecture":18,"numbering":[{"symbol":"E","index":"28"}],"lines":[99420],"attr":"heat","postal_code":"910-0065","address":"福井市八ツ島町３０-９"},
    {"code":9942023,"id":"10b412","name":"八ツ島","name_kana":"やつしま","lat":36.086407,"lng":136.205943,"prefecture":18,"numbering":[{"symbol":"E","index":"29"}],"lines":[99420],"attr":"heat","postal_code":"910-0065","address":"福井市八ツ島町５-２０"},
    {"code":9942007,"id":"47062a","name":"新田塚","name_kana":"にったづか","lat":36.092483,"lng":136.205299,"prefecture":18,"numbering":[{"symbol":"E","index":"30"}],"lines":[99420],"attr":"heat","postal_code":"910-0067","address":"福井市新田塚２-６００１"},
    {"code":9942008,"id":"0660ba","name":"中角","name_kana":"なかつの","lat":36.10111,"lng":136.204591,"prefecture":18,"numbering":[{"symbol":"E","index":"31"}],"lines":[99420],"attr":"heat","postal_code":"910-0103","address":"福井市中角町５２字１３９"},
    {"code":9942009,"id":"832de9","name":"鷲塚針原","name_kana":"わしづかはりばら","lat":36.12061,"lng":136.204793,"prefecture":18,"numbering":[{"symbol":"E","index":"32"}],"lines":[99420],"attr":"heat","postal_code":"910-0102","address":"福井市川合鷲塚町３３字４６"},
    {"code":9942010,"id":"bdfdfb","name":"太郎丸エンゼルランド","name_kana":"たろうまるえんぜるらんど","lat":36.131298,"lng":136.20574,"prefecture":18,"numbering":[{"symbol":"E","index":"33"}],"lines":[99420],"attr":"heat","postal_code":"919-0474","address":"坂井市春江町西太郎丸５字４０-２"},
    {"code":9942011,"id":"075c2a","name":"西春江ハートピア","name_kana":"にしはるえはーとぴあ","lat":36.138964,"lng":136.206187,"prefecture":18,"numbering":[{"symbol":"E","index":"34"}],"lines":[99420],"attr":"heat","postal_code":"919-0473","address":"坂井市春江町本堂２字６５-２"},
    {"code":9942012,"id":"bc5bbb","name":"西長田ゆりの里","name_kana":"にしながたゆりのさと","lat":36.153615,"lng":136.206472,"prefecture":18,"numbering":[{"symbol":"E","index":"35"}],"lines":[99420],"attr":"heat","postal_code":"919-0404","address":"坂井市春江町西長田２０字１１-２"},
    {"code":9942013,"id":"b72e0e","name":"下兵庫こうふく","name_kana":"しもひょうごこうふく","lat":36.170129,"lng":136.202507,"prefecture":18,"numbering":[{"symbol":"E","index":"36"}],"lines":[99420],"attr":"heat","postal_code":"919-0527","address":"坂井市坂井町下兵庫８７字５-３"},
    {"code":9942014,"id":"330c19","name":"大関","name_kana":"おおぜき","lat":36.186574,"lng":136.203687,"prefecture":18,"numbering":[{"symbol":"E","index":"37"}],"lines":[99420],"attr":"heat","postal_code":"919-0547","address":"坂井市坂井町大味４７字９-２"},
    {"code":9942015,"id":"a5352d","name":"本荘","name_kana":"ほんじょう","lat":36.205011,"lng":136.202881,"prefecture":18,"numbering":[{"symbol":"E","index":"38"}],"lines":[99420],"attr":"heat","postal_code":"910-4137","address":"あわら市中番１５字１"},
    {"code":9942016,"id":"1acb13","name":"番田(福井)","name_kana":"ばんでん","lat":36.212358,"lng":136.202333,"prefecture":18,"numbering":[{"symbol":"E","index":"39"}],"lines":[99420],"attr":"cool","postal_code":"910-4123","address":"あわら市番田３４字４８-３"},
    {"code":9942017,"id":"f80d98","name":"あわら湯のまち","name_kana":"あわらゆのまち","lat":36.223159,"lng":136.193695,"prefecture":18,"numbering":[{"symbol":"E","index":"40"}],"lines":[99420],"attr":"cool","postal_code":"910-4103","address":"あわら市二面３３字１-１"},
    {"code":9942018,"id":"23791e","name":"水居","name_kana":"みずい","lat":36.219081,"lng":136.172019,"prefecture":18,"numbering":[{"symbol":"E","index":"41"}],"lines":[99420],"attr":"cool","postal_code":"913-0011","address":"坂井市三国町水居２２字５２-１"},
    {"code":9942019,"id":"b82cc6","name":"三国神社","name_kana":"みくにじんじゃ","lat":36.214773,"lng":136.158037,"prefecture":18,"numbering":[{"symbol":"E","index":"42"}],"lines":[99420],"attr":"cool","postal_code":"913-0054","address":"坂井市三国町滝谷７字１-１"},
    {"code":9942020,"id":"a92986","name":"三国(福井)","name_kana":"みくに","lat":36.217012,"lng":136.149615,"prefecture":18,"numbering":[{"symbol":"E","index":"43"}],"lines":[99420],"attr":"cool","postal_code":"913-0054","address":"坂井市三国町滝谷２３字１-１０"},
    {"code":9942021,"id":"080e30","name":"三国港","name_kana":"みくにみなと","lat":36.220264,"lng":136.140049,"prefecture":18,"numbering":[{"symbol":"E","index":"44"}],"lines":[99420],"attr":"cool","postal_code":"913-0056","address":"坂井市三国町宿２３字"}
  ],
  "north":36.22298,
  "south":36.06181,
  "east":136.23455,
  "west":136.13998,
  "polyline_list":[
    {
      "start":"福井口",
      "end":"三国港",
      "lat":36.07119,
      "lng":136.23332,
      "delta_lat":[0,61,42,43,42,49,43,25,14,7,21,5,12,18,27,14,29,22,25,11,10,14,16,9,8,8,3,1,0,1,-3,-6,-4,-7,-48,-52,-13,-19,-12,-8,-3,-5,-13,-5,-4,-9,-12,-32,-29,-12,-2,7,15,34,49,42,41,53,50,38,18,52,39,126,82,30,32,125,161,163,21,80,145,61,35,171,150,72,199,105,22,123,22,34,19,22,203,38,63,182,21,254,128,203,190,125,56,175,247,266,67,123,2,273,173,255,197,20,67,123,258,311,62,59,33,222,276,342,60,142,20,83,87,42,39,65,198,175,213,264,22,256,31,83,13,24,150,155,6,3,27,27,103,343,239,6,272,248,259,122,66,178,109,60,46,30,31,37,60,269,52,423,201,225,91,107,192,116,109,188,66,92,222,163,92,13,114,46,42,41,40,40,25,26,16,18,11,4,0,3,2,2,-11,-11,-9,-13,0,-27,-23,-44,-22,-47,-84,-2,-73,-23,-85,-3,-86,-94,-53,-45,-43,-23,-24,-10,-4,11,9,17,20,60,116,40,110,74,33,18,18,4,5,11,7,8,19],
      "delta_lng":[0,15,8,17,26,28,17,10,2,0,-2,0,-2,-5,-10,-8,-20,-16,-24,-12,-12,-18,-34,-21,-18,-43,-26,-31,-41,-102,-146,-103,-18,-17,-87,-76,-30,-63,-63,-71,-75,-84,-259,-113,-82,-107,-64,-123,-142,-71,-55,-66,-40,-84,-76,-47,-44,-44,-33,-20,-6,-22,-9,-11,-8,-3,-4,-12,-17,-20,-2,-9,-14,-7,-3,-15,-13,-8,-19,-11,-3,-11,-3,-4,0,-2,-19,-6,-4,-17,-2,-23,-12,13,15,8,4,13,18,19,5,9,2,22,14,19,14,3,6,9,18,21,4,4,4,14,21,21,5,11,0,-1,-14,-10,-18,-24,-63,-57,-71,-83,-7,-82,-8,-5,-2,2,-3,0,0,0,1,0,11,24,18,0,18,15,19,11,6,17,7,4,5,3,1,1,-1,-23,-4,-36,-17,-18,-8,-8,-15,-9,-10,-16,-5,-8,-16,-14,-7,-1,-13,-12,-16,-25,-32,-40,-31,-47,-42,-60,-59,-44,-116,-245,-82,-186,-213,-146,-116,-108,-2,-183,-120,-211,-97,-167,-277,-6,-241,-71,-290,-8,-269,-303,-177,-138,-139,-75,-97,-61,-67,-91,-63,-59,-55,-90,-186,-64,-171,-116,-58,-38,-50,-27,-122,-182,-92,-34,-75]
    },
    {
      "start":"福井",
      "end":"福井口",
      "lat":36.06181,
      "lng":136.22383,
      "delta_lat":[0,58,90,20,34,62,18,40,69,91,71,94,40,43,43,51,64,50],
      "delta_lng":[0,46,59,20,45,86,26,56,89,123,93,124,46,43,31,24,26,12]
    }
  ]
}