{
  "code":99426,
  "id":"b2e0af",
  "name":"IRいしかわ鉄道線",
  "name_kana":"あいあーるいしかわてつどう",
  "name_formal":"IRいしかわ鉄道株式会社",
  "station_size":5,
  "company_code":246,
  "color":"#00A7E3",
  "station_list":[
    {"code":100913,"id":"27b8ec","name":"金沢","name_kana":"かなざわ","lat":36.578117,"lng":136.648166,"prefecture":17,"lines":[1009,11415,99426],"attr":"eco","postal_code":"920-0023","address":"金沢市北安江町","next":[1141542,9941602,9941601,9941703,9941603,9941702,9941701],"voronoi":{"lat":36.582565,"lng":136.647241,"delta_lat":[0,2175,1753,-9596,-3132,-6591,-2469],"delta_lng":[0,-3028,-28773,8871,3079,11106,15584]}},
    {"code":1141544,"id":"0d1d76","name":"東金沢","name_kana":"ひがしかなざわ","lat":36.593652,"lng":136.669806,"prefecture":17,"lines":[99426],"attr":"cool","postal_code":"920-0811","address":"金沢市小坂町西","next":[9941704,9941601,1141545,9941702,1141711,9941706,9941705,9941701,9941703],"voronoi":{"lat":36.594836,"lng":136.659023,"delta_lat":[0,4452,8767,7557,-101837,-7255,52856,11286,19686],"delta_lng":[0,601,3686,4392,95675,-1238,-82657,-8356,-11497]}},
    {"code":1141545,"id":"2448a7","name":"森本","name_kana":"もりもと","lat":36.612144,"lng":136.689489,"prefecture":17,"lines":[99426],"attr":"cool","postal_code":"920-3115","address":"金沢市弥勒町","next":[1141904,9941707,1141544,9941706,1141711,1141546,9941710],"voronoi":{"lat":36.661721,"lng":136.680523,"delta_lat":[0,-89768,-58178,101837,1601,5589,39428],"delta_lng":[0,99514,-16660,-95675,-213,-26,11703]}},
    {"code":1141546,"id":"ab7adc","name":"津幡","name_kana":"つばた","lat":36.657895,"lng":136.730759,"prefecture":17,"lines":[11419,99426],"attr":"cool","postal_code":"929-0343","address":"河北郡津幡町字南中条","next":[1141902,1141711,1141903,1141547,1141904,1141545],"voronoi":{"lat":36.661721,"lng":136.680523,"delta_lat":[0,7586,-2055,-24084,-67390,-3825],"delta_lng":[0,24626,26746,34569,16163,-2590]}},
    {"code":1141547,"id":"bcdcf0","name":"倶利伽羅","name_kana":"くりから","lat":36.672489,"lng":136.791605,"prefecture":17,"lines":[99425,99426],"attr":"cool","postal_code":"929-0416","address":"河北郡津幡町字刈安","next":[1141548,1141908,1141546,1141711,1141904,1141907,1141902,1141906],"voronoi":{"lat":36.743177,"lng":136.794885,"delta_lat":[0,12082,-144596,-34884,67390,72288,7725,5901],"delta_lng":[0,33844,6,-46107,-16163,-1309,2227,5939]}}
  ],
  "north":36.67261,
  "south":36.57726,
  "east":136.79253,
  "west":136.64711,
  "polyline_list":[
    {
      "start":"金沢",
      "end":"倶利伽羅",
      "lat":36.57726,
      "lng":136.64711,
      "delta_lat":[0,100,101,71,59,78,63,47,4,36,35,6,6,4,40,15,18,33,16,17,18,65,34,27,20,23,19,245,153,205,17,88,56,22,82,53,38,6,27,32,24,34,13,29,41,26,58,52,17,10,28,28,74,74,121,201,174,209,89,139,80,58,180,366,128,149,80,103,225,153,171,180,287,106,245,410,87,68,210,173,196,182,287,79,286,57,192,150,166,23,50,91,143,74,63,34,2,16,6,2,0,1,-5,-3,-37,-41,-4,-54,-48,-12,-38,-46,-44,-31,-31,-14,-7,-2,-2,-1,7,5,11,23,62,87,34,12,55,23,38,35,25,44,64,62,36,63,44,21,11,13,48,44,15,14,4,19,17,20,14,5,1,-6,-2,-5,-4],
      "delta_lng":[0,63,84,64,59,88,75,63,5,61,72,12,12,6,82,32,36,74,39,12,19,66,41,36,28,39,33,432,225,294,24,121,79,33,120,68,39,7,21,26,18,24,10,21,30,19,49,58,20,12,36,35,81,70,100,219,192,230,97,155,87,62,196,401,139,163,90,104,193,130,145,151,242,89,207,347,74,57,179,147,165,152,243,66,239,48,161,126,138,27,69,186,295,148,166,91,5,110,71,32,16,69,32,44,151,154,13,176,159,43,138,152,90,71,78,33,44,29,57,73,79,60,79,85,213,297,120,38,201,81,94,85,57,60,87,87,50,97,64,32,16,17,69,72,26,30,7,53,52,82,90,63,106,143,36,93,92]
    }
  ]
}