{
  "code":99428,
  "name":"福井鉄道鯖浦線",
  "closed":true,
  "station_list":[
    {"code":1141519,"id":"36de74","name":"鯖江","name_kana":"さばえ","lat":35.943355,"lng":136.188852,"prefecture":18,"lines":[11415,99428],"attr":"cool","postal_code":"916-0053","address":"鯖江市日の出町"},
    {"code":9942802,"id":"68654d","name":"東鯖江","name_kana":"ひがしさばえ","closed":true,"lat":35.947308,"lng":136.188614,"prefecture":18,"lines":[99428],"attr":"unknown","postal_code":"916-0025","address":"日本福井県鯖江市旭町３丁目１旭町３丁目公園"},
    {"code":9942803,"id":"57ea27","name":"越前平井","name_kana":"えちぜんへいい","closed":true,"lat":35.96167,"lng":136.164614,"prefecture":18,"lines":[99428],"attr":"unknown","postal_code":"916-0061","address":"日本福井県鯖江市平井町２７−９−５"},
    {"code":9942804,"id":"06b76e","name":"川去","name_kana":"かわさり","closed":true,"lat":35.963087,"lng":136.145974,"prefecture":18,"lines":[99428],"attr":"unknown","postal_code":"916-0071","address":"日本福井県鯖江市持明寺町"},
    {"code":9942805,"id":"9f06b3","name":"西田中","name_kana":"にしたなか","closed":true,"lat":35.972585,"lng":136.131085,"prefecture":18,"lines":[99428],"attr":"unknown","postal_code":"916-0146","address":"日本福井県丹生郡越前町朝日１丁目５０１"},
    {"code":9942806,"id":"19ea22","name":"佐々生","name_kana":"さそう","closed":true,"lat":35.954142,"lng":136.12125,"prefecture":18,"lines":[99428],"attr":"unknown","postal_code":"916-0144","address":"日本福井県丹生郡越前町佐々生４３−１１−１"},
    {"code":9942807,"id":"598078","name":"陶の谷","name_kana":"すえのたに","closed":true,"lat":35.938531,"lng":136.113638,"prefecture":18,"lines":[99428],"attr":"unknown","postal_code":"916-0266","address":"日本福井県丹生郡越前町寺３−５−３"},
    {"code":9942809,"id":"c19bb0","name":"樫津","name_kana":"かしづ","closed":true,"lat":35.941003,"lng":136.087252,"prefecture":18,"lines":[99428],"attr":"unknown","postal_code":"916-0272","address":"日本福井県丹生郡越前町樫津４−５"},
    {"code":9942810,"id":"726303","name":"下江波","name_kana":"しもえなみ","closed":true,"lat":35.941837,"lng":136.074583,"prefecture":18,"lines":[99428],"attr":"unknown","postal_code":"916-0255","address":"日本福井県丹生郡越前町江波７７−８"},
    {"code":9942811,"id":"1ee9ae","name":"江波(福井)","name_kana":"えなみ","closed":true,"lat":35.939474,"lng":136.063943,"prefecture":18,"lines":[99428],"attr":"unknown","postal_code":"916-0255","address":"日本福井県丹生郡越前町江波２４−４４−１"},
    {"code":9942812,"id":"7f1e2a","name":"矢倉(福井)","name_kana":"やくら","closed":true,"lat":35.949145,"lng":136.059445,"prefecture":18,"lines":[99428],"attr":"unknown","postal_code":"916-0223","address":"日本福井県丹生郡越前町下河原１２−２６"},
    {"code":9942813,"id":"10bb42","name":"織田","name_kana":"おた","closed":true,"lat":35.958557,"lng":136.058806,"prefecture":18,"lines":[99428],"attr":"unknown","postal_code":"916-0215","address":"日本福井県丹生郡越前町織田"}
  ]
}