{
  "code":99425,
  "id":"0870d5",
  "name":"あいの風とやま鉄道線",
  "name_kana":"あいのかぜとやまてつどうせん",
  "station_size":22,
  "company_code":245,
  "color":"#00A556",
  "station_list":[
    {"code":1141547,"id":"bcdcf0","name":"倶利伽羅","name_kana":"くりから","lat":36.672489,"lng":136.791605,"prefecture":17,"lines":[99425,99426],"attr":"cool","postal_code":"929-0416","address":"河北郡津幡町字刈安","next":[1141548,1141908,1141546,1141711,1141904,1141907,1141902,1141906],"voronoi":{"lat":36.743177,"lng":136.794885,"delta_lat":[0,12082,-144596,-34884,67390,72288,7725,5901],"delta_lng":[0,33844,6,-46107,-16163,-1309,2227,5939]}},
    {"code":1141548,"id":"88b3dc","name":"石動","name_kana":"いするぎ","lat":36.672492,"lng":136.865859,"prefecture":16,"lines":[99425],"attr":"heat","postal_code":"932-0053","address":"小矢部市石動町","next":[1141547,1141711,1141908,1141709,1141707,1141549,1141708,1141909,1141710,1141706],"voronoi":{"lat":36.77411,"lng":136.853762,"delta_lat":[0,-14169,-4683,-144596,1999,13814,67,11503,12448,13010],"delta_lng":[0,-20151,-4882,6,18622,41236,99,10788,8645,5345]}},
    {"code":1141549,"id":"bb514c","name":"福岡","name_kana":"ふくおか","lat":36.708239,"lng":136.932079,"prefecture":16,"lines":[99425],"attr":"heat","postal_code":"939-0116","address":"高岡市福岡町下蓑","next":[1141808,1141704,1141706,1141548,1141705,1141910,1141909,1141550],"voronoi":{"lat":36.681708,"lng":136.951263,"delta_lat":[0,-11749,-6456,110607,20368,17244,-10430,-104631],"delta_lng":[0,-16296,-21497,-59708,13387,15204,25235,50577]}},
    {"code":1141550,"id":"3145c2","name":"西高岡","name_kana":"にしたかおか","lat":36.724295,"lng":136.965295,"prefecture":16,"lines":[99425],"attr":"eco","postal_code":"933-0325","address":"高岡市立野","next":[1141556,1141703,1141808,1141704,1141549],"voronoi":{"lat":36.801293,"lng":136.907587,"delta_lat":[0,-6830,-76545,-12409,-8847],"delta_lng":[0,33861,42931,-7205,-19010]}},
    {"code":1141556,"id":"2258a8","name":"高岡やぶなみ","name_kana":"たかおかやぶなみ","lat":36.737528,"lng":136.988889,"prefecture":16,"lines":[99425],"attr":"eco","postal_code":"933-0844","address":"富山県高岡市羽広32-3","open_date":"2018-03-17","next":[9941402,9941425,9941401,1141807,100912,1141550,1141808,1141702,1141703],"voronoi":{"lat":36.717918,"lng":136.98438,"delta_lat":[0,76545,-255,-6853,-44237,-6475,-382,-9994,-7040],"delta_lng":[0,-42931,16447,26172,16367,1948,68,-4488,-9463]}},
    {"code":1141551,"id":"81a1f9","name":"高岡","name_kana":"たかおか","lat":36.740948,"lng":137.015274,"prefecture":16,"lines":[11417,11418,99425],"attr":"eco","postal_code":"933-0021","address":"高岡市下関町","next":[100912,1141802,9941404,9941401],"voronoi":{"lat":36.736171,"lng":137.003038,"delta_lat":[0,-5975,13615,527],"delta_lng":[0,29151,-9545,-1481]}},
    {"code":1141552,"id":"d5775e","name":"越中大門","name_kana":"えっちゅうだいもん","lat":36.733818,"lng":137.055904,"prefecture":16,"lines":[99425],"attr":"eco","postal_code":"939-0271","address":"射水市大島北野","next":[9941414,1141703,1141702,1141553,100912,9941419,9941421,1141803,9941413,1141802],"voronoi":{"lat":36.753746,"lng":137.053716,"delta_lat":[0,1983,370,-25,-8746,-78669,8778,28992,22252,21876],"delta_lng":[0,11374,5107,52,11050,-27468,-4552,-11349,-3505,12435]}},
    {"code":1141553,"id":"c1a36c","name":"小杉(あいの風とやま鉄道線)","original_name":"小杉","name_kana":"こすぎ","lat":36.720947,"lng":137.092767,"prefecture":16,"lines":[99425],"attr":"heat","postal_code":"939-0341","address":"富山県射水市三ケ4156-2","next":[1141552,9941421,1141554,1141703,1141641,1141645,1141642,9941423,9941424],"voronoi":{"lat":36.694638,"lng":137.128084,"delta_lat":[0,-986,-14606,-26886,16500,78669,1397,-138,-10360],"delta_lng":[0,-555,-12263,-58530,-2905,27468,18244,613,29198]}},
    {"code":1141554,"id":"97f5d4","name":"呉羽","name_kana":"くれは","lat":36.718845,"lng":137.164874,"prefecture":16,"lines":[99425],"attr":"heat","postal_code":"930-0138","address":"富山市呉羽町","next":[1141643,1141645,9941509,9941513,9941506,9941507,1141553,9941424,9941320,9941508,9941510],"voronoi":{"lat":36.778978,"lng":137.175641,"delta_lat":[0,2021,-42772,-43590,2324,20837,12245,865,6499,5806,10489],"delta_lng":[0,-1238,-45049,-1270,23399,33452,9401,-47,-1302,-1560,-3992]}},
    {"code":100911,"id":"7b9954","name":"富山","name_kana":"とやま","lat":36.701613,"lng":137.213255,"prefecture":16,"lines":[1009,11405,11416,99425],"attr":"eco","postal_code":"930-0001","address":"富山市明輪町","next":[9941501,9941313,9941322,9940801],"voronoi":{"lat":36.700933,"lng":137.213471,"delta_lat":[0,-19,1971,-1257],"delta_lng":[0,-426,-393,1474]}},
    {"code":1140502,"id":"0101d2","name":"東富山","name_kana":"ひがしとやま","lat":36.741589,"lng":137.248953,"prefecture":16,"lines":[11405,99425],"attr":"eco","postal_code":"931-8303","address":"富山市米田","next":[9941508,9941506,9941507,9940804,9941505,9940805,9941513,9940803,9941509,9941512,9941511,1140503,9941510],"voronoi":{"lat":36.7436,"lng":137.238282,"delta_lat":[0,-5825,-6153,-7441,-3801,-663,1164,6039,318,47596,-16325,-9329,-4014],"delta_lng":[0,-291,1693,3411,3069,610,12290,14900,291,-1795,-21552,-9837,-2248]}},
    {"code":1140503,"id":"6853d8","name":"水橋","name_kana":"みずはし","lat":36.743454,"lng":137.298404,"prefecture":16,"lines":[11405,99425],"attr":"eco","postal_code":"939-3524","address":"富山市水橋伊勢屋","next":[9941513,9940814,9940806,9940815,9940813,9940805,1140502],"voronoi":{"lat":36.774834,"lng":137.27246,"delta_lat":[0,51040,-39471,-46113,-11794,-5356,4098],"delta_lng":[0,14093,17607,15440,834,-24562,-21617]}},
    {"code":1140504,"id":"62f339","name":"滑川","name_kana":"なめりかわ","lat":36.768955,"lng":137.348676,"prefecture":16,"lines":[11405,99408,99425],"attr":"eco","postal_code":"936-0024","address":"滑川市辰野","next":[9940815,9940817,9941513,9940813,9940812],"voronoi":{"lat":36.88058,"lng":137.283578,"delta_lat":[0,-42711,-83521,-1686,714],"delta_lng":[0,2886,66747,4451,10569]}},
    {"code":1140505,"id":"f0a7af","name":"東滑川","name_kana":"ひがしなめりかわ","lat":36.787987,"lng":137.37805,"prefecture":16,"lines":[11405,99425],"attr":"eco","postal_code":"936-0002","address":"滑川市中村","next":[9940820,9940819,9940818,9940821,9940812],"voronoi":{"lat":36.741088,"lng":137.404459,"delta_lat":[0,103323,-12335,-9900,-83909],"delta_lng":[0,-67573,15047,9413,48594]}},
    {"code":1140506,"id":"8507ed","name":"魚津","name_kana":"うおづ","lat":36.82642,"lng":137.405693,"prefecture":16,"lines":[11405,99425],"attr":"eco","postal_code":"937-0067","address":"魚津市釈迦堂","next":[9940821,9940832,9940823,9940828,9940830,9940822,9940829],"voronoi":{"lat":36.805782,"lng":137.470378,"delta_lat":[0,6061,25153,-15831,-38553,2473,1706],"delta_lng":[0,-4400,-53671,-10149,80651,-804,-873]}},
    {"code":1140507,"id":"0e5228","name":"黒部","name_kana":"くろべ","lat":36.869322,"lng":137.434393,"prefecture":16,"lines":[11405,99425],"attr":"cool","postal_code":"938-0042","address":"黒部市天神新","next":[1140508,9940824,9940826,9940825,9940823],"voronoi":{"lat":36.851688,"lng":137.433623,"delta_lat":[0,34431,1745,-37189,-18469],"delta_lng":[0,-10435,8153,18223,5989]}},
    {"code":1140508,"id":"7c2ce9","name":"生地","name_kana":"いくじ","lat":36.906031,"lng":137.426534,"prefecture":16,"lines":[11405,99425],"attr":"cool","postal_code":"938-0005","address":"黒部市吉田","next":[1140507,1141919,9940826,9940823,9940824,9940825,9940827,9941513,1140509],"voronoi":{"lat":37.174451,"lng":137.254392,"delta_lat":[0,-172627,-98453,-9547,-7705,1745,7892,6382,449],"delta_lng":[0,-50657,74089,52842,92523,8153,14329,8209,427]}},
    {"code":1140509,"id":"f62f81","name":"西入善","name_kana":"にしにゅうぜん","lat":36.930124,"lng":137.459298,"prefecture":16,"lines":[11405,99425],"attr":"eco","postal_code":"939-0663","address":"下新川郡入善町下飯野","next":[1140510,9941807,100910,1141919,9940827,9940828,1140508],"voronoi":{"lat":37.174451,"lng":137.254392,"delta_lat":[0,68091,150379,-484351,-4699,-1303,19],"delta_lng":[0,15342,80758,136294,-12065,-6396,-14018]}},
    {"code":1140510,"id":"afe7ca","name":"入善","name_kana":"にゅうぜん","lat":36.941296,"lng":137.499,"prefecture":16,"lines":[11405,99425],"attr":"eco","postal_code":"939-0626","address":"下新川郡入善町入膳","next":[1140509,1140512,9940831,9940832,9940830,9941807,1140511,100910],"voronoi":{"lat":36.905625,"lng":137.503291,"delta_lat":[0,2777,589,218916,336345,-71331,-484351,-2289],"delta_lng":[0,29021,2249,-40587,-109076,-34407,136294,8600]}},
    {"code":1140511,"id":"abe18f","name":"泊(富山)","original_name":"泊","name_kana":"とまり","lat":36.951897,"lng":137.556179,"prefecture":16,"lines":[11405,99425],"attr":"eco","postal_code":"939-0744","address":"下新川郡朝日町平柳","next":[9940834,1140512,1140510,9940832,9940833,9940835],"voronoi":{"lat":37.127908,"lng":137.493974,"delta_lat":[0,-218916,-1884,-2078,-1073,-1363],"delta_lng":[0,40587,4535,8243,6838,54247]}},
    {"code":1140512,"id":"170c07","name":"越中宮崎","name_kana":"えっちゅうみやざき","lat":36.973863,"lng":137.599423,"prefecture":16,"lines":[11405,99425],"attr":"eco","postal_code":"939-0703","address":"下新川郡朝日町宮崎","next":[1140513,1140510,1140511,1140514,9941807,9940835],"voronoi":{"lat":36.902593,"lng":137.608424,"delta_lat":[0,225314,336345,283802,-337281,-518825],"delta_lng":[0,-114450,-109076,103808,80149,67055]}},
    {"code":1140513,"id":"78203a","name":"市振","name_kana":"いちぶり","lat":36.980448,"lng":137.650373,"prefecture":15,"lines":[11405,99423,99425],"attr":"cool","postal_code":"949-0111","address":"糸魚川市市振","next":[1140512,1140937,9941202,1140514,9940835,9941201],"voronoi":{"lat":36.871205,"lng":137.730839,"delta_lat":[0,270,539299,-518825,-2303,-9499],"delta_lng":[0,117,-162101,67055,2967,24356]}}
  ],
  "north":36.98054,
  "south":36.67138,
  "east":137.65204,
  "west":136.79068,
  "polyline_list":[
    {
      "start":"倶利伽羅",
      "end":"倶利伽羅トンネル西",
      "lat":36.67253,
      "lng":136.79068,
      "delta_lat":[0,-5,-4,-3,-9,-13,-22,-25,-9,-11,-4,-2,-3,-4,-1,4,7,11,12,21,15,38],
      "delta_lng":[0,93,92,58,135,113,135,154,54,102,59,35,37,79,54,116,82,116,75,84,45,96]
    },
    {
      "start":"倶利伽羅トンネル西",
      "end":"倶利伽羅トンネル東",
      "lat":36.67247,
      "lng":136.80882,
      "delta_lat":[0,14,10,9,9,5,4,-2,-2,0,0,-1,3,2,1,0,-1,3,4,9,2,10,3,18,16,20,34,43],
      "delta_lng":[0,44,54,57,65,76,182,378,370,178,22,133,405,369,202,259,272,79,39,38,9,37,9,61,38,38,53,69]
    },
    {
      "start":"倶利伽羅トンネル西",
      "end":"倶利伽羅トンネル東",
      "lat":36.67247,
      "lng":136.80882,
      "delta_lat":[0,23,18,13,15,7,5,0,-1,0,0,0,3,0,0,0,4,3,9,10,25,16,16,22,25],
      "delta_lng":[0,56,55,51,64,45,27,199,385,502,22,16,424,684,160,377,63,48,55,34,87,44,42,43,53]
    },
    {
      "start":"倶利伽羅トンネル東",
      "end":"石動１",
      "lat":36.67459,
      "lng":136.84418,
      "delta_lat":[0,13,13,14,9,5,0,-3,-5,-8,-14,-23,-24,-7,-54,-31,-36,-15,-12,-15,-14,-64,-45,-5,3,2,5,6,7,18,26,39,38,70,31,8,5,5,6,6,7,19,21,66,36,42,11,34,22],
      "delta_lng":[0,33,41,52,52,39,25,37,39,35,50,59,66,15,128,65,67,35,37,51,85,329,245,65,71,54,48,35,31,69,74,114,115,216,90,18,21,11,16,18,18,57,58,177,107,119,32,123,65]
    },
    {
      "start":"石動１",
      "end":"石動２",
      "lat":36.67671,
      "lng":136.87825,
      "delta_lat":[0,41,4,9,12,12,3,2,7,5],
      "delta_lng":[0,126,22,41,84,104,31,20,47,42]
    },
    {
      "start":"石動１",
      "end":"石動２",
      "lat":36.67671,
      "lng":136.87825,
      "delta_lat":[0,9,16,5,6,26,7,12,14],
      "delta_lng":[0,67,83,34,63,160,31,38,41]
    },
    {
      "start":"石動２",
      "end":"高岡",
      "lat":36.67766,
      "lng":136.88342,
      "delta_lat":[0,11,16,44,50,53,109,23,22,52,58,145,103,132,50,35,20,141,167,154,58,116,202,137,20,132,138,45,117,163,159,94,25,76,38,123,68,33,38,94,47,46,44,131,124,17,128,68,41,104,123,85,106,8,60,59,47,31,23,33,30,35,22,14,15,9,19,13,17,30,26,1,33,59,53,40,31,71,23,21,31,5,31,31,61,103,123,85,111,119,70,36,74,71,63,64,63,29,23,29,20,18,16,13,11,17,13,4,0,0,-2,-11,-10,-3,-3,-9,-3,-1,-5,-7,-6,-14,-11,-6,-3,-9],
      "delta_lng":[0,67,48,113,118,113,246,50,45,96,96,215,149,192,73,52,26,211,251,224,89,177,304,192,30,208,204,66,172,239,232,139,35,111,59,177,92,48,54,139,72,72,80,251,233,29,238,127,79,195,231,160,201,17,106,106,100,92,101,168,154,175,93,64,66,40,93,80,68,121,86,4,99,165,144,113,94,204,69,53,58,8,45,37,60,81,98,73,88,98,57,29,55,55,48,49,54,29,31,44,35,36,42,39,40,71,64,45,22,39,33,71,167,48,47,128,37,11,64,94,75,233,150,87,24,125]
    },
    {
      "start":"高岡",
      "end":"富山１",
      "lat":36.74146,
      "lng":137.01061,
      "delta_lat":[0,-4,-4,-3,-1,-2,-1,-11,-1,-4,0,-1,-4,-4,-14,-1,-7,-25,-20,-25,-12,-6,-38,-60,-68,-6,-5,-2,-2,-47,-43,-4,-13,-3,-24,-9,-5,-21,-52,-23,-75,-41,-14,-5,-6,-89,-24,-46,-141,-132,-112,-27,-112,-91,-162,-29,-2,-33,-12,-74,-82,-68,-27,-61,-62,-29,-16,-22,-47,-39,-26,-29,-39,-4,-31,-79,-47,-4,-49,-6,-5,-3,0,0,0,5,4,8,8,11,0,2,8,13,8,12,4,11,7,5,10,10,20,27,25,21,51,33,34,68,5,7,0,-9,-4,-10,-16,-28,0,-33,-61,-36,-77,-26,-47,-74,-35,-47],
      "delta_lng":[0,87,70,35,30,28,9,167,21,50,12,8,70,42,229,11,115,340,301,243,105,44,231,366,385,27,36,7,15,272,246,16,83,17,111,46,18,60,115,49,172,93,30,13,9,189,57,104,320,297,252,56,245,215,376,88,5,116,37,310,325,278,110,253,258,113,72,86,197,201,190,204,263,28,217,534,341,32,335,68,54,72,18,56,109,89,166,175,246,266,16,48,200,310,221,280,96,266,217,58,68,75,113,152,147,118,300,190,189,432,39,80,103,120,55,67,84,109,0,95,180,105,228,70,135,207,98,129]
    },
    {
      "start":"富山１",
      "end":"富山２",
      "lat":36.71482,
      "lng":137.18918,
      "delta_lat":[0,-30,-33,-23,-26,-26,-37,-40,-27,-18,-16,-47,-72,-64,-53,-37],
      "delta_lng":[0,58,56,35,28,33,42,49,32,19,18,56,84,73,61,43]
    },
    {
      "start":"富山１",
      "end":"富山２",
      "lat":36.71482,
      "lng":137.18918,
      "delta_lat":[0,-19,-22,-29,-23,-26,-34,-27,-38,-24,-20,-70,-53,-70,-48,-46],
      "delta_lng":[0,51,54,62,31,33,43,30,43,31,20,72,54,70,51,42]
    },
    {
      "start":"富山２",
      "end":"市振",
      "lat":36.70934,
      "lng":137.19606,
      "delta_lat":[0,-117,-26,-16,-18,-12,-53,-34,-33,-173,-98,-13,-72,-48,-102,-31,-16,-29,-16,-14,-53,-7,-10,-13,-15,-17,-6,-20,-15,-12,-8,-5,-7,3,7,9,11,18,8,11,12,16,11,11,30,21,40,39,21,77,55,77,67,67,17,186,24,27,107,126,91,101,103,78,146,79,2,1,55,69,74,255,59,113,172,61,76,128,56,26,35,127,36,130,82,153,49,163,74,110,205,142,268,74,65,65,45,33,28,42,29,17,23,24,10,19,6,4,9,7,1,3,5,1,1,0,4,2,4,3,5,2,2,5,2,5,1,-6,-5,-11,-16,-24,-47,-2,-40,-53,-13,-42,-68,-51,-20,-11,-6,-3,-9,-7,-2,-13,-9,-7,-9,-11,-4,-3,3,8,28,24,16,37,65,69,68,70,67,65,73,13,59,70,44,22,18,106,85,38,64,65,67,68,13,54,36,37,80,82,85,61,93,86,9,99,79,82,80,78,85,122,156,62,129,109,42,85,86,85,84,82,85,1,90,96,103,92,96,75,161,154,112,67,112,120,102,22,27,96,91,73,66,68,20,72,208,31,155,170,62,31,249,63,33,171,214,163,167,154,145,32,163,128,248,27,137,214,47,9,162,158,164,162,182,141,144,148,62,55,1,31,34,49,37,47,44,41,44,52,14,41,12,18,61,11,13,32,64,27,47,74,25,60,116,16,29,18,31,25,24,54,25,23,44,69,63,34,38,76,62,108,101,28,14,164,140,71,20,100,96,164,268,90,41,108,63,23,101,112,66,95,27,129,108,109,101,103,104,102,99,8,94,92,87,85,72,72,63,120,129,73,54,131,129,134,141,136,175,228,105,106,91,34,25,43,32,44,22,37,207,272,133,9,26,37,26,29,56,52,27,61,64,49,83,43,20,21,31,35,22,23,18,24,12,9,31,24,23,9,40,36,36,44,30,20,7,28,27,77,26,23,34,18,26,34,35,43,33,21,14,46,30,16,27,44,27,34,44,9,23,36,35,42,36,36,52,31,2,31,32,36,38,29,65,76,13,52,42,41,37,37,40,41,37,13,68,47,47,45,46,35,8,43,40,40,10,53,27,16,7,6,2,4,0,3,3,0,10,3,11,9,6,2,7,10,18,13,20,24,37,60,43,132,12,118,30,22,77,123,119,94,14,85,109,25,98,81,20,37,47,44,32,36,33,34,35,37,49,10,38,2,36,24,34,32,11,27,13,22,30,33,44,32,23,42,29,27,27,29,31,7,22,28,26,29,36,7,14,5,1,7,8,7,7,7,7,6,7,6,7,9,5,8,9,5,9,7,6,12,24,13,6,6,8,10,6,1,4,7,6,5,8,8,8,5,5,4,3,3,5,10,6,7,2,0,19],
      "delta_lng":[0,137,33,21,46,31,141,88,81,439,241,34,176,124,248,71,39,64,42,32,123,19,22,30,39,38,14,47,42,41,35,30,65,104,65,75,83,124,48,63,55,54,35,31,60,41,60,45,19,64,39,54,43,33,9,79,10,10,43,50,35,39,41,31,58,29,2,1,21,28,28,99,25,45,65,25,28,52,22,10,13,51,13,52,32,60,18,66,29,46,78,58,115,32,32,39,32,28,32,53,39,28,42,48,35,67,37,38,95,113,16,123,131,70,36,40,152,153,159,176,217,185,27,196,190,143,60,73,71,68,68,81,124,10,121,156,45,141,236,169,64,69,38,65,140,132,43,232,142,144,162,149,75,104,94,49,110,56,31,63,113,119,117,121,115,113,117,22,97,116,76,38,30,181,145,64,114,111,116,115,22,93,61,47,100,106,101,78,115,109,11,122,99,101,103,93,107,151,184,87,200,174,66,136,134,136,136,131,137,2,141,154,163,146,153,119,251,249,180,102,188,192,162,41,41,158,146,120,83,64,20,48,101,15,72,84,29,13,116,29,14,77,101,78,76,70,65,14,76,60,114,13,63,99,23,4,83,86,79,75,85,69,69,71,35,42,1,30,47,79,79,139,146,143,144,181,50,134,43,64,209,36,44,101,166,47,55,66,22,54,107,15,25,16,30,22,23,46,17,15,29,33,17,8,4,-4,-9,-30,-32,-9,-5,-54,-51,-24,-6,-32,-32,-55,-90,-34,-14,-40,-19,-8,-32,-31,-18,-25,-10,-36,-31,-32,-28,-32,-33,-28,-26,-2,-24,-26,-27,-23,-23,-18,-14,-10,-10,-7,-3,-12,-13,-10,-11,-7,-12,-16,-2,-4,0,3,4,16,12,23,16,33,209,299,146,12,26,42,26,28,61,56,30,62,68,52,84,46,23,28,57,67,52,66,62,87,39,35,112,84,79,43,139,125,133,155,112,66,30,99,96,283,92,87,120,63,95,119,125,155,118,75,47,168,105,62,95,160,99,120,161,31,80,130,129,148,129,129,184,112,8,113,117,128,120,90,252,272,41,186,150,149,141,137,140,146,133,44,255,180,173,158,160,124,29,162,154,133,39,193,108,101,69,139,165,179,13,68,107,10,237,40,277,170,167,57,193,332,415,77,64,65,84,82,41,119,11,108,28,20,71,108,106,89,11,97,123,25,120,87,22,48,59,67,44,60,54,66,59,66,87,22,69,6,81,50,89,101,56,152,86,101,126,124,136,130,133,275,214,206,202,199,211,60,147,208,204,209,244,45,80,33,12,39,58,44,53,39,51,44,48,35,42,66,33,52,59,35,59,49,41,75,168,87,45,45,49,66,40,8,35,59,34,36,78,62,82,33,57,54,34,32,78,147,95,87,65,34,311]
    }
  ]
}