{
  "code":99506,
  "name":"遠州鉄道",
  "station_list":[
    {"code":9950601,"id":"d3314a","name":"新浜松","name_kana":"しんはままつ","lat":34.703402,"lng":137.732456,"prefecture":22,"numbering":[{"index":"01"}],"lines":[99506],"attr":"heat","postal_code":"430-0933","address":"浜松市中区鍛冶町４"},
    {"code":9950602,"id":"60125c","name":"第一通り","name_kana":"だいいちどおり","lat":34.707477,"lng":137.732845,"prefecture":22,"numbering":[{"index":"02"}],"lines":[99506],"attr":"heat","postal_code":"430-0944","address":"浜松市中区田町２３０-２８"},
    {"code":9950603,"id":"57c80b","name":"遠州病院","name_kana":"えんしゅうびょういん","lat":34.710657,"lng":137.73327,"prefecture":22,"numbering":[{"index":"03"}],"lines":[99506],"attr":"heat","postal_code":"430-0916","address":"浜松市中区早馬町２-２１"},
    {"code":9950604,"id":"c14825","name":"八幡(静岡)","name_kana":"はちまん","lat":34.717012,"lng":137.73598,"prefecture":22,"numbering":[{"index":"04"}],"lines":[99506],"attr":"heat","postal_code":"430-0918","address":"浜松市中区八幡町１３９-４"},
    {"code":9950605,"id":"135637","name":"助信","name_kana":"すけのぶ","lat":34.724537,"lng":137.738609,"prefecture":22,"numbering":[{"index":"05"}],"lines":[99506],"attr":"heat","postal_code":"430-0911","address":"浜松市中区新津町２８-４"},
    {"code":9950606,"id":"9c1af4","name":"曳馬","name_kana":"ひくま","lat":34.733255,"lng":137.741256,"prefecture":22,"numbering":[{"index":"06"}],"lines":[99506],"attr":"heat","postal_code":"430-0901","address":"浜松市中区曳馬４-２０-３"},
    {"code":9950607,"id":"45849f","name":"上島","name_kana":"かみじま","lat":34.741573,"lng":137.745233,"prefecture":22,"numbering":[{"index":"07"}],"lines":[99506],"attr":"heat","postal_code":"433-8122","address":"浜松市中区上島３-４０-１"},
    {"code":9950608,"id":"c8b8bd","name":"自動車学校前","name_kana":"じどうしゃがっこうまえ","lat":34.747489,"lng":137.751625,"prefecture":22,"numbering":[{"index":"08"}],"lines":[99506],"attr":"heat","postal_code":"431-3122","address":"浜松市東区有玉南町１７３９"},
    {"code":9950609,"id":"203326","name":"さぎの宮","name_kana":"さぎのみや","lat":34.757275,"lng":137.757327,"prefecture":22,"numbering":[{"index":"09"}],"lines":[99506],"attr":"heat","postal_code":"431-3113","address":"浜松市東区大瀬町４１７-２"},
    {"code":9950610,"id":"4b70fa","name":"積志","name_kana":"せきし","lat":34.768082,"lng":137.763409,"prefecture":22,"numbering":[{"index":"10"}],"lines":[99506],"attr":"cool","postal_code":"431-3114","address":"浜松市東区積志町８１４"},
    {"code":9950611,"id":"a5b2ae","name":"遠州西ヶ崎","name_kana":"えんしゅうにしがさき","lat":34.776821,"lng":137.773905,"prefecture":22,"numbering":[{"index":"11"}],"lines":[99506],"attr":"cool","postal_code":"431-3115","address":"浜松市東区西ヶ崎町686-1"},
    {"code":9950612,"id":"559de2","name":"遠州小松","name_kana":"えんしゅうこまつ","lat":34.784264,"lng":137.777838,"prefecture":22,"numbering":[{"index":"12"}],"lines":[99506],"attr":"cool","postal_code":"434-0042","address":"浜松市浜北区小松４５００-１"},
    {"code":9950613,"id":"569c5a","name":"浜北","name_kana":"はまきた","lat":34.791358,"lng":137.784356,"prefecture":22,"numbering":[{"index":"13"}],"lines":[99506],"attr":"cool","postal_code":"434-0037","address":"浜松市浜北区沼５４-１"},
    {"code":9950614,"id":"958305","name":"美薗中央公園","name_kana":"みそのちゅうおうこうえん","lat":34.798208,"lng":137.789764,"prefecture":22,"numbering":[{"index":"14"}],"lines":[99506],"attr":"cool","postal_code":"434-0038","address":"浜松市浜北区貴布祢４８７-３"},
    {"code":9950615,"id":"8a83fd","name":"遠州小林","name_kana":"えんしゅうこばやし","lat":34.808374,"lng":137.795538,"prefecture":22,"numbering":[{"index":"15"}],"lines":[99506],"attr":"cool","postal_code":"434-0014","address":"浜松市浜北区本沢合８７１-７"},
    {"code":9950616,"id":"00f9ea","name":"遠州芝本","name_kana":"えんしゅうしばもと","lat":34.823599,"lng":137.7986,"prefecture":22,"numbering":[{"index":"16"}],"lines":[99506],"attr":"eco","postal_code":"434-0015","address":"浜松市浜北区於呂３０６１-２"},
    {"code":9950617,"id":"c47a0c","name":"遠州岩水寺","name_kana":"えんしゅうがんすいじ","lat":34.834373,"lng":137.801131,"prefecture":22,"numbering":[{"index":"17"}],"lines":[99506],"attr":"eco","postal_code":"434-0015","address":"浜松市浜北区於呂２８１９-３"},
    {"code":9950518,"id":"79a480","name":"西鹿島","name_kana":"にしかじま","lat":34.846758,"lng":137.807988,"prefecture":22,"numbering":[{"index":"18"}],"lines":[99505,99506],"attr":"eco","postal_code":"431-3312","address":"浜松市天竜区二俣町南鹿島"}
  ],
  "north":34.84709,
  "south":34.70307,
  "east":137.80797,
  "west":137.73211,
  "polyline_list":[
    {
      "start":"新浜松",
      "end":"西鹿島",
      "lat":34.70307,
      "lng":137.73249,
      "delta_lat":[0,69,23,23,24,23,28,18,24,26,20,31,51,46,87,16,57,36,22,23,27,20,23,71,40,36,27,23,27,22,35,77,60,61,50,33,79,86,103,109,83,81,96,38,68,64,25,12,33,83,72,61,43,69,64,65,56,69,55,52,51,41,47,62,16,57,79,43,70,62,50,58,59,40,53,58,86,37,69,59,33,32,23,24,29,9,9,85,82,16,10,19,120,42,14,15,99,47,38,68,64,37,168,94,125,146,63,22,79,92,4,89,32,18,196,50,74,56,82,132,81,13,57,38,27,22,13,30,18,11,19,1,9,25,27,24,14,15,16,29,29,32,31,22,87,71,37,75,77,9,67,18,108,141,4,119,87,89,119,25,31,12,53,56,47,52,40,174,99,119,58,67,58,78,96,54,58,59,40,36,58,18,64,53,53,48,12,50,49,47,53,90,57,44,54,46,33,24,38,47,29,20,30,39,37,67,4,31,88,107,61,60,56,67,60,72,32,86,37,48,41,58,24,21,24,20,45,41,42,61,33,32,62,52,36,102,68,145,81,31,56,24,26,31,27,18,2,15,61,114,34,42,19,39,39,49,61,35,13,69,38,45,62,35,13,59,54,44,45,51,74,38,24,57,71,72,69,75,42,3,13,19,12,33,26,24,26,18,29,68],
      "delta_lng":[0,-6,-4,-8,-10,-7,-2,-1,2,7,6,10,18,16,31,6,20,12,6,3,2,-2,-1,-8,-4,-1,3,6,9,10,20,49,35,34,30,15,35,36,41,42,33,30,33,16,24,23,9,5,13,31,26,24,17,23,19,17,13,17,13,11,13,14,12,21,6,25,33,17,35,33,27,37,41,27,29,28,35,14,28,27,16,14,12,15,22,9,12,109,106,19,14,26,162,58,18,15,73,33,26,42,44,22,83,46,55,68,30,12,37,67,4,68,23,13,101,24,36,30,41,67,40,9,44,42,31,30,21,51,39,29,61,3,34,78,87,68,33,28,28,40,36,37,32,18,48,33,20,39,39,7,29,9,53,72,1,62,43,47,73,16,27,14,49,56,46,46,38,153,88,110,53,63,54,72,91,46,48,44,27,21,30,6,27,22,25,23,6,28,30,30,41,78,47,35,43,33,22,16,20,22,10,6,9,9,6,10,1,5,13,18,8,7,4,5,1,2,0,3,-3,0,3,3,3,6,7,5,18,19,24,36,20,20,32,24,9,18,7,17,9,4,6,3,7,8,9,6,2,7,26,53,14,14,6,10,10,8,6,4,1,11,5,5,15,9,5,30,31,28,32,39,55,28,18,43,53,54,52,59,35,1,10,16,6,19,12,8,6,0,1,3]
    }
  ]
}