{
  "code":99502,
  "name":"伊豆箱根鉄道駿豆線",
  "color":"#000000",
  "symbol":"IS",
  "station_list":[
    {"code":100206,"id":"909cad","name":"三島","name_kana":"みしま","lat":35.126253,"lng":138.911133,"prefecture":22,"numbering":[{"index":"01"}],"lines":[11501,99502,1002],"attr":"cool","postal_code":"411-0036","address":"三島市一番町"},
    {"code":9950202,"id":"d45e17","name":"三島広小路","name_kana":"みしまひろこうじ","lat":35.119272,"lng":138.911202,"prefecture":22,"numbering":[{"index":"02"}],"lines":[99502],"attr":"cool","postal_code":"411-0856","address":"三島市広小路町"},
    {"code":9950203,"id":"2e9bc4","name":"三島田町","name_kana":"みしまたまち","lat":35.116205,"lng":138.918421,"prefecture":22,"numbering":[{"index":"03"}],"lines":[99502],"attr":"cool","postal_code":"411-0854","address":"三島市北田町"},
    {"code":9950204,"id":"57b46d","name":"三島二日町","name_kana":"みしまふつかまち","lat":35.111039,"lng":138.926001,"prefecture":22,"numbering":[{"index":"04"}],"lines":[99502],"attr":"cool","postal_code":"411-0832","address":"三島市南二日町"},
    {"code":9950205,"id":"638977","name":"大場","name_kana":"だいば","lat":35.092569,"lng":138.939414,"prefecture":22,"numbering":[{"index":"05"}],"lines":[99502],"attr":"cool","postal_code":"411-0803","address":"三島市大場"},
    {"code":9950206,"id":"1f8e60","name":"伊豆仁田","name_kana":"いずにった","lat":35.078821,"lng":138.941509,"prefecture":22,"numbering":[{"index":"06"}],"lines":[99502],"attr":"cool","postal_code":"419-0114","address":"田方郡函南町仁田"},
    {"code":9950207,"id":"4f915e","name":"原木","name_kana":"ばらき","lat":35.065653,"lng":138.943695,"prefecture":22,"numbering":[{"index":"07"}],"lines":[99502],"attr":"cool","postal_code":"410-2124","address":"伊豆の国市原木"},
    {"code":9950208,"id":"b92fab","name":"韮山","name_kana":"にらやま","lat":35.053547,"lng":138.945467,"prefecture":22,"numbering":[{"index":"08"}],"lines":[99502],"attr":"heat","postal_code":"410-2123","address":"伊豆の国市四日町"},
    {"code":9950209,"id":"da0a36","name":"伊豆長岡","name_kana":"いずながおか","lat":35.039907,"lng":138.947539,"prefecture":22,"numbering":[{"index":"09"}],"lines":[99502],"attr":"heat","postal_code":"410-2114","address":"伊豆の国市南條"},
    {"code":9950210,"id":"5b51f7","name":"田京","name_kana":"たきょう","lat":35.014551,"lng":138.945767,"prefecture":22,"numbering":[{"index":"10"}],"lines":[99502],"attr":"heat","postal_code":"410-2315","address":"伊豆の国市田京"},
    {"code":9950211,"id":"ba769c","name":"大仁","name_kana":"おおひと","lat":34.994467,"lng":138.937527,"prefecture":22,"numbering":[{"index":"11"}],"lines":[99502],"attr":"heat","postal_code":"410-2323","address":"伊豆の国市大仁"},
    {"code":9950212,"id":"803676","name":"牧之郷","name_kana":"まきのこう","lat":34.988677,"lng":138.954317,"prefecture":22,"numbering":[{"index":"12"}],"lines":[99502],"attr":"eco","postal_code":"410-2401","address":"伊豆市牧之郷"},
    {"code":9950213,"id":"bedaff","name":"修善寺","name_kana":"しゅぜんじ","lat":34.979091,"lng":138.950545,"prefecture":22,"numbering":[{"index":"13"}],"lines":[99502],"attr":"eco","postal_code":"410-2407","address":"伊豆市柏久保"}
  ],
  "north":35.12599,
  "south":34.9791,
  "east":138.95444,
  "west":138.90639,
  "polyline_list":[
    {
      "start":"修善寺",
      "end":"三島",
      "lat":34.9791,
      "lng":138.95044,
      "delta_lat":[0,33,14,18,31,15,7,7,16,15,16,18,18,27,15,16,14,112,107,105,74,81,98,82,73,39,23,14,8,14,19,18,17,16,15,13,10,6,11,18,32,33,34,37,30,2,13,5,0,0,-2,-5,-6,-10,-15,-51,-18,-11,-8,-4,-2,0,5,6,12,13,19,21,20,24,26,29,89,17,20,34,64,33,31,112,120,75,73,48,52,15,22,3,60,33,37,65,314,166,27,480,3,142,0,530,164,175,16,199,88,59,156,142,76,14,62,80,43,41,19,70,15,47,70,15,44,4,26,30,5,47,35,9,38,36,8,23,135,15,7,42,13,169,18,22,23,18,21,9,39,44,12,60,148,89,14,78,124,10,106,67,42,181,3,11,6,12,103,759,161,0,148,2,62,659,20,230,31,8,40,18,85,9,25,129,5,20,44,14,72,89,164,15,72,17,43,29,139,22,71,75,119,34,53,56,38,177,72,108,41,34,58,128,67,66,120,61,42,60,52,43,38,58,46,46,15,24,62,67,75,130,96,41,43,62,79,47,109,91,72,79,20,22,4,27,17,22,11,9,18,25,13,12,17,26,36,29,50,73,17,24,13,5,25,18,16,28,16,27,20,25,28,26,37,43,27,41,57,32,25,17,9,25,27],
      "delta_lng":[0,107,33,38,53,23,10,11,24,18,18,14,12,11,4,5,3,1,3,2,2,1,1,4,2,1,-1,-1,-1,-4,-5,-9,-13,-14,-21,-16,-20,-19,-32,-85,-137,-157,-144,-166,-135,-8,-58,-31,-26,-25,-25,-24,-26,-24,-22,-66,-29,-27,-32,-25,-29,-23,-30,-28,-29,-27,-29,-26,-18,-14,-9,-6,-4,1,5,13,27,23,20,81,88,55,53,36,36,9,13,2,31,17,13,23,84,45,7,132,1,37,0,143,41,24,2,26,14,18,49,32,11,2,-4,-10,-6,-10,-6,-22,-5,-16,-24,-5,-14,-1,-10,-10,-2,-15,-11,-3,-10,-6,-2,-4,-23,-1,-1,-7,-1,-26,-2,-4,-3,-2,-3,-1,-6,-6,-2,-10,-20,-14,-2,-12,-20,0,-15,-10,-4,-30,0,-1,-3,0,-15,-111,-23,-1,-25,-1,-10,-104,-3,-38,-4,-2,-6,-3,-14,-2,-5,-20,0,-3,-7,-2,-13,-13,-26,-3,-12,-2,-7,-4,-22,-4,-14,-12,-20,-6,-7,-10,-7,-29,-12,-16,-7,-4,-9,-23,-11,-11,-19,-15,-15,-24,-30,-31,-32,-58,-50,-62,-22,-31,-83,-94,-106,-178,-131,-58,-58,-87,-105,-64,-141,-125,-99,-110,-31,-31,-6,-51,-40,-79,-43,-38,-122,-124,-62,-39,-47,-45,-44,-25,-31,-45,-11,-22,-16,-6,-36,-29,-40,-96,-50,-50,-26,-28,-21,-14,-10,-6,2,15,34,35,38,32,43,151,150]
    }
  ]
}