{
  "code":99504,
  "name":"静岡鉄道静岡清水線",
  "symbol":"S",
  "station_list":[
    {"code":9950401,"id":"dc079b","name":"新静岡","name_kana":"しんしずおか","lat":34.975823,"lng":138.387423,"prefecture":22,"numbering":[{"index":"01"}],"lines":[99504],"attr":"eco","postal_code":"420-0839","address":"静岡市葵区鷹匠１-１-１"},
    {"code":9950402,"id":"96ecb6","name":"日吉町","name_kana":"ひよしちょう","lat":34.977017,"lng":138.391114,"prefecture":22,"numbering":[{"index":"02"}],"lines":[99504],"attr":"eco","postal_code":"420-0839","address":"静岡市葵区鷹匠２"},
    {"code":9950403,"id":"1a34f7","name":"音羽町","name_kana":"おとわちょう","lat":34.978387,"lng":138.395775,"prefecture":22,"numbering":[{"index":"03"}],"lines":[99504],"attr":"eco","postal_code":"420-0834","address":"静岡市葵区音羽町"},
    {"code":9950404,"id":"2632b4","name":"春日町","name_kana":"かすがちょう","lat":34.978387,"lng":138.400544,"prefecture":22,"numbering":[{"index":"04"}],"lines":[99504],"attr":"eco","postal_code":"420-0823","address":"静岡市葵区春日２"},
    {"code":9950405,"id":"1ee2ad","name":"柚木(静岡鉄道)","name_kana":"ゆのき","lat":34.981891,"lng":138.406084,"prefecture":22,"numbering":[{"index":"05"}],"lines":[99504],"attr":"eco","postal_code":"420-0822","address":"静岡市葵区宮前町"},
    {"code":9950406,"id":"5cee3e","name":"長沼(静岡)","name_kana":"ながぬま","lat":34.989069,"lng":138.412884,"prefecture":22,"numbering":[{"index":"06"}],"lines":[99504],"attr":"eco","postal_code":"420-0813","address":"静岡市葵区長沼１"},
    {"code":9950407,"id":"88e6dd","name":"古庄","name_kana":"ふるしょう","lat":34.992855,"lng":138.419581,"prefecture":22,"numbering":[{"index":"07"}],"lines":[99504],"attr":"eco","postal_code":"420-0812","address":"静岡市葵区古庄"},
    {"code":9950408,"id":"94a2d7","name":"県総合運動場","name_kana":"けんそうごううんどうじょう","lat":34.993375,"lng":138.430113,"prefecture":22,"numbering":[{"index":"08"}],"lines":[99504],"attr":"eco","postal_code":"422-8008","address":"静岡市駿河区栗原"},
    {"code":9950409,"id":"4f05f4","name":"県立美術館前","name_kana":"けんりつびじゅつかんまえ","lat":34.997494,"lng":138.438088,"prefecture":22,"numbering":[{"index":"09"}],"lines":[99504],"attr":"cool","postal_code":"424-0888","address":"静岡市清水区中之郷２"},
    {"code":1150116,"id":"1d3f30","name":"草薙","name_kana":"くさなぎ","lat":35.002854,"lng":138.442025,"prefecture":22,"numbering":[{"index":"10"}],"lines":[11501,99504],"attr":"cool","postal_code":"424-0886","address":"静岡市清水区草薙"},
    {"code":9950411,"id":"0368dc","name":"御門台","name_kana":"みかどだい","lat":35.007902,"lng":138.452464,"prefecture":22,"numbering":[{"index":"11"}],"lines":[99504],"attr":"cool","postal_code":"424-0066","address":"静岡市清水区七ツ新屋"},
    {"code":9950412,"id":"bd7a97","name":"狐ヶ崎","name_kana":"きつねがさき","lat":35.011488,"lng":138.459739,"prefecture":22,"numbering":[{"index":"12"}],"lines":[99504],"attr":"cool","postal_code":"424-0871","address":"静岡市清水区上原"},
    {"code":9950413,"id":"5da020","name":"桜橋(静岡)","name_kana":"さくらばし","lat":35.013107,"lng":138.477573,"prefecture":22,"numbering":[{"index":"13"}],"lines":[99504],"attr":"heat","postal_code":"424-0842","address":"静岡市清水区春日１"},
    {"code":9950414,"id":"a56db4","name":"入江岡","name_kana":"いりえおか","lat":35.014891,"lng":138.481264,"prefecture":22,"numbering":[{"index":"14"}],"lines":[99504],"attr":"heat","postal_code":"424-0834","address":"静岡市清水区浜田町"},
    {"code":9950415,"id":"573d06","name":"新清水","name_kana":"しんしみず","lat":35.017054,"lng":138.487539,"prefecture":22,"numbering":[{"index":"15"}],"lines":[99504],"attr":"heat","postal_code":"424-0821","address":"静岡市清水区相生町２-２８"}
  ],
  "north":35.01706,
  "south":34.97577,
  "east":138.48785,
  "west":138.38721,
  "polyline_list":[
    {
      "start":"新静岡",
      "end":"新清水",
      "lat":34.97577,
      "lng":138.38721,
      "delta_lat":[0,18,2,21,12,30,25,40,49,51,19,6,6,0,-6,-3,-12,-5,-10,-20,-8,2,2,9,21,36,13,47,46,41,29,38,42,59,65,42,98,66,60,60,49,57,54,64,58,38,48,31,38,44,47,43,61,53,17,35,38,40,5,8,1,-1,-1,-5,-2,-4,-9,-16,-10,-3,-3,0,-2,-1,-1,-3,2,9,11,12,12,24,73,32,41,75,36,54,16,39,28,105,112,93,13,39,96,72,155,167,117,44,90,173,24,14,8,3,7,9,6,4,12,25,26,7,2,16,18,9,7,6,12,34,58,62,45,29,80,61,13,4,5,3,4,4,7,4,3,-7],
      "delta_lng":[0,88,17,101,37,66,50,74,92,96,40,27,28,35,43,26,86,21,72,115,55,32,27,30,45,79,33,110,104,90,43,37,32,40,50,30,73,51,47,54,46,60,60,74,72,47,63,53,56,70,88,85,120,104,27,75,79,88,27,22,35,34,10,32,24,23,53,85,83,23,58,7,38,32,31,125,73,83,78,84,33,52,131,54,67,91,46,67,18,52,35,135,125,90,12,49,149,111,239,261,181,63,122,205,31,31,22,25,72,141,81,53,170,343,363,96,33,229,229,71,43,26,43,69,119,115,86,74,203,159,35,13,12,9,16,14,28,22,21,76]
    }
  ]
}