{
  "code":99509,
  "name":"西名古屋港線(あおなみ線)",
  "symbol":"AN",
  "station_list":[
    {"code":100213,"id":"91ffc2","name":"名古屋","name_kana":"なごや","lat":35.170694,"lng":136.881637,"prefecture":23,"numbering":[{"index":"01"}],"lines":[11411,11502,11508,99509,99513,99517,1002],"attr":"eco","postal_code":"450-0002","address":"名古屋市中村区名駅１丁目４番"},
    {"code":9950902,"id":"ee18a8","name":"ささしまライブ","name_kana":"ささしまらいぶ","lat":35.161745,"lng":136.881815,"prefecture":23,"numbering":[{"index":"02"}],"lines":[99509],"attr":"cool","postal_code":"453-0872","address":"名古屋市中村区平池町４丁目５１番１"},
    {"code":9950903,"id":"1ed7ba","name":"小本","name_kana":"こもと","lat":35.14921,"lng":136.861331,"prefecture":23,"numbering":[{"index":"03"}],"lines":[99509],"attr":"cool","postal_code":"454-0828","address":"名古屋市中川区小本１丁目１９番１６号"},
    {"code":9950904,"id":"090a07","name":"荒子","name_kana":"あらこ","lat":35.139992,"lng":136.861676,"prefecture":23,"numbering":[{"index":"04"}],"lines":[99509],"attr":"cool","postal_code":"454-0874","address":"名古屋市中川区吉良町１３８番２"},
    {"code":9950905,"id":"34a1ee","name":"南荒子","name_kana":"みなみあらこ","lat":35.131707,"lng":136.861771,"prefecture":23,"numbering":[{"index":"05"}],"lines":[99509],"attr":"cool","postal_code":"454-0876","address":"名古屋市中川区若山町２丁目５９番２"},
    {"code":9950906,"id":"2c8590","name":"中島(愛知)","name_kana":"なかじま","lat":35.125144,"lng":136.861346,"prefecture":23,"numbering":[{"index":"06"}],"lines":[99509],"attr":"cool","postal_code":"454-0865","address":"名古屋市中川区掛入町３丁目２４番"},
    {"code":9950907,"id":"fb0d57","name":"名古屋競馬場前","name_kana":"なごやけいばじょうまえ","lat":35.114529,"lng":136.862739,"prefecture":23,"numbering":[{"index":"07"}],"lines":[99509],"attr":"heat","postal_code":"455-0074","address":"名古屋市港区正保町５丁目３番１"},
    {"code":9950908,"id":"401236","name":"荒子川公園","name_kana":"あらこがわこうえん","lat":35.104569,"lng":136.861148,"prefecture":23,"numbering":[{"index":"08"}],"lines":[99509],"attr":"heat","postal_code":"455-0066","address":"名古屋市港区寛政町５丁目３９番１"},
    {"code":9950909,"id":"7317ec","name":"稲永","name_kana":"いなえい","lat":35.091418,"lng":136.863203,"prefecture":23,"numbering":[{"index":"09"}],"lines":[99509],"attr":"heat","postal_code":"455-0842","address":"名古屋市港区稲永一丁目１番４９号"},
    {"code":9950910,"id":"d248a2","name":"野跡","name_kana":"のせき","lat":35.075253,"lng":136.854136,"prefecture":23,"numbering":[{"index":"10"}],"lines":[99509],"attr":"eco","postal_code":"455-0845","address":"名古屋市港区野跡二丁目４番３２号"},
    {"code":9950911,"id":"615d4b","name":"金城ふ頭","name_kana":"きんじょうふとう","lat":35.048775,"lng":136.849009,"prefecture":23,"numbering":[{"index":"11"}],"lines":[99509],"attr":"eco","postal_code":"455-0848","address":"名古屋市港区金城ふ頭三丁目２番"}
  ],
  "north":35.17227,
  "south":35.04866,
  "east":136.88395,
  "west":136.84897,
  "polyline_list":[
    {
      "start":"金城ふ頭",
      "end":"名古屋",
      "lat":35.04866,
      "lng":136.84897,
      "delta_lat":[0,45,43,179,36,38,44,50,230,169,35,90,168,208,1278,107,49,41,25,15,14,14,13,40,197,47,27,35,34,45,41,44,30,27,24,43,17,20,36,45,34,33,96,29,42,142,215,25,51,74,261,88,49,47,40,45,49,67,182,315,115,905,49,21,15,17,42,73,66,66,175,44,47,69,199,170,105,34,45,41,31,29,33,112,51,164,105,11,12,33,36,63,85,36,120,47,29,15,91,3,151,114,97,161,161,125,86,11,20,41,60,26,53,62,8,12,67,27,23,30,19,15,19,15,18,11,17,17,18,33,76,25,44,36,46,17,54,9,29,27,38,14,24,23,14,70,54,35,35,13,33,61,55,111,18,22,23,28,15,24,29,39,28,26,25,56,34,15,19,24,22,34,43,33,25,38,39,30,43,124,86,27],
      "delta_lng":[0,55,53,212,35,31,26,18,55,36,5,-1,-5,-3,6,-2,3,6,8,9,9,15,17,67,410,100,50,45,34,33,33,47,43,44,37,63,25,23,23,17,9,7,-6,-7,-18,-76,-123,-14,-30,-41,-165,-43,-15,-13,-8,-2,-3,4,36,51,17,130,8,3,1,2,2,-8,-12,-16,-66,-22,-16,-10,0,4,4,2,7,13,14,14,4,0,0,-6,5,1,5,13,11,7,5,-3,-8,-1,-2,-1,-10,0,-16,-9,-7,-18,-15,-14,-6,0,0,1,5,4,5,13,2,2,18,14,14,21,17,15,31,22,41,22,42,38,37,72,165,55,85,71,80,44,125,16,48,45,65,25,53,51,30,150,118,77,64,19,45,76,59,124,19,23,14,16,7,11,13,20,10,4,4,0,-5,-2,-7,-12,-10,-18,-25,-20,-14,-22,-22,-18,-23,-67,-46,-13]
    }
  ]
}