{
  "code":99517,
  "name":"名古屋市営地下鉄桜通線",
  "color":"#C4392F",
  "symbol":"S",
  "station_list":[
    {"code":9951701,"id":"75898e","name":"中村区役所","name_kana":"なかむらくやくしょ","lat":35.167611,"lng":136.873126,"prefecture":23,"numbering":[{"index":"01"}],"lines":[99517],"attr":"eco","postal_code":"453-0811","address":"名古屋市中村区太閤通３-２７-３"},
    {"code":100213,"id":"91ffc2","name":"名古屋","name_kana":"なごや","lat":35.170694,"lng":136.881637,"prefecture":23,"numbering":[{"index":"02"}],"lines":[11411,11502,11508,99509,99513,99517,1002],"attr":"eco","postal_code":"450-0002","address":"名古屋市中村区名駅１丁目４番"},
    {"code":9951703,"id":"efcb40","name":"国際センター(愛知)","name_kana":"こくさいせんたー","lat":35.172128,"lng":136.889375,"prefecture":23,"numbering":[{"index":"03"}],"lines":[99517],"attr":"eco","postal_code":"450-0002","address":"名古屋市中村区名駅４-１３"},
    {"code":9951606,"id":"f6c73c","name":"丸の内(愛知)","name_kana":"まるのうち","lat":35.173458,"lng":136.896944,"prefecture":23,"numbering":[{"index":"04"}],"lines":[99516,99517],"attr":"eco","postal_code":"460-0003","address":"名古屋市中区錦２-１"},
    {"code":9951408,"id":"62e811","name":"久屋大通","name_kana":"ひさやおおどおり","lat":35.173784,"lng":136.908156,"prefecture":23,"numbering":[{"index":"05"}],"lines":[99514,99517],"attr":"eco","postal_code":"460-0003","address":"名古屋市中区錦３-４８"},
    {"code":9951706,"id":"ab5f47","name":"高岳","name_kana":"たかおか","lat":35.174062,"lng":136.915656,"prefecture":23,"numbering":[{"index":"06"}],"lines":[99517],"attr":"eco","postal_code":"461-0005","address":"名古屋市東区東桜２-１-２"},
    {"code":9951707,"id":"3a0210","name":"車道","name_kana":"くるまみち","lat":35.173507,"lng":136.929543,"prefecture":23,"numbering":[{"index":"07"}],"lines":[99517],"attr":"eco","postal_code":"461-0004","address":"名古屋市東区葵３-１２"},
    {"code":9951313,"id":"667c9f","name":"今池(愛知)","name_kana":"いまいけ","lat":35.169919,"lng":136.937331,"prefecture":23,"numbering":[{"index":"08"}],"lines":[99513,99517],"attr":"heat","postal_code":"464-0850","address":"名古屋市千種区今池５-１"},
    {"code":9951709,"id":"6c3d6b","name":"吹上(愛知)","name_kana":"ふきあげ","lat":35.158787,"lng":136.935376,"prefecture":23,"numbering":[{"index":"09"}],"lines":[99517],"attr":"eco","postal_code":"464-0855","address":"名古屋市千種区千種通７-２４-２"},
    {"code":9951612,"id":"bd6428","name":"御器所","name_kana":"ごきそ","lat":35.149585,"lng":136.934146,"prefecture":23,"numbering":[{"index":"10"}],"lines":[99516,99517],"attr":"heat","postal_code":"466-0015","address":"名古屋市昭和区御器所通３-７"},
    {"code":9951711,"id":"2274a7","name":"桜山","name_kana":"さくらやま","lat":35.139695,"lng":136.933316,"prefecture":23,"numbering":[{"index":"11"}],"lines":[99517],"attr":"heat","postal_code":"467-0805","address":"名古屋市瑞穂区桜見町１-１-１４"},
    {"code":9951712,"id":"c4f1f3","name":"瑞穂区役所","name_kana":"みずほくやくしょ","lat":35.131793,"lng":136.93443,"prefecture":23,"numbering":[{"index":"12"}],"lines":[99517],"attr":"heat","postal_code":"467-0806","address":"名古屋市瑞穂区瑞穂通２-２７"},
    {"code":9951713,"id":"42bbc0","name":"瑞穂運動場西","name_kana":"みずほうんどうじょうにし","lat":35.124949,"lng":136.935477,"prefecture":23,"numbering":[{"index":"13"}],"lines":[99517],"attr":"heat","postal_code":"467-0806","address":"名古屋市瑞穂区瑞穂通５-２４"},
    {"code":9951419,"id":"e8596b","name":"新瑞橋","name_kana":"あらたまばし","lat":35.117734,"lng":136.936603,"prefecture":23,"numbering":[{"index":"14"}],"lines":[99514,99517],"attr":"heat","postal_code":"467-0806","address":"名古屋市瑞穂区瑞穂通８-２７"},
    {"code":9951715,"id":"22ab32","name":"桜本町","name_kana":"さくらほんまち","lat":35.109001,"lng":136.936761,"prefecture":23,"numbering":[{"index":"15"}],"lines":[99517],"attr":"heat","postal_code":"457-0005","address":"名古屋市南区桜台１-１０１"},
    {"code":9951716,"id":"84d115","name":"鶴里","name_kana":"つるさと","lat":35.105738,"lng":136.943433,"prefecture":23,"numbering":[{"index":"16"}],"lines":[99517],"attr":"heat","postal_code":"457-0031","address":"名古屋市南区鯛取通３-１８-２"},
    {"code":9951717,"id":"b318cc","name":"野並","name_kana":"のなみ","lat":35.102358,"lng":136.95549,"prefecture":23,"numbering":[{"index":"17"}],"lines":[99517],"attr":"cool","postal_code":"468-0046","address":"名古屋市天白区古川町２００"},
    {"code":9951718,"id":"7b2c83","name":"鳴子北","name_kana":"なるこきた","lat":35.102684,"lng":136.966209,"prefecture":23,"numbering":[{"index":"18"}],"lines":[99517],"attr":"cool","postal_code":"468-0836","address":"名古屋市天白区相川1丁目1"},
    {"code":9951719,"id":"1722a2","name":"相生山","name_kana":"あいおいやま","lat":35.102545,"lng":136.976208,"prefecture":23,"numbering":[{"index":"19"}],"lines":[99517],"attr":"cool","postal_code":"458-0011","address":"名古屋市緑区相川3丁目61"},
    {"code":9951720,"id":"3e931e","name":"神沢","name_kana":"かみさわ","lat":35.098518,"lng":136.98954,"prefecture":23,"numbering":[{"index":"20"}],"lines":[99517],"attr":"cool","postal_code":"458-0014","address":"名古屋市緑区神沢1丁目303"},
    {"code":9951721,"id":"e5a429","name":"徳重","name_kana":"とくしげ","lat":35.094491,"lng":136.99815,"prefecture":23,"numbering":[{"index":"21"}],"lines":[99517],"attr":"cool","postal_code":"458-0004","address":"名古屋市緑区乗鞍2丁目102-1"}
  ],
  "north":35.17417,
  "south":35.0953,
  "east":136.99719,
  "west":136.87281,
  "polyline_list":[
    {
      "start":"野並",
      "end":"徳重",
      "lat":35.10236,
      "lng":136.95536,
      "delta_lat":[0,-81,-13,-11,-7,11,29,15,40,17,22,33,0,-11,-15,-10,-1,-9,12,18,5,-11,-28,-37,-56,-72,-131,-71,-81,-45,-84,-77,-57],
      "delta_lng":[0,178,30,44,116,97,197,53,101,56,93,452,76,85,77,208,60,425,155,159,105,77,92,59,65,89,150,85,132,123,224,217,103]
    },
    {
      "start":"中村区役所",
      "end":"野並",
      "lat":35.16764,
      "lng":136.87281,
      "delta_lat":[0,-2,-2,-2,8,19,26,27,30,57,64,28,12,19,13,35,15,8,13,65,17,32,18,25,9,12,3,50,11,2,0,2,24,14,0,0,0,-7,-7,-24,-16,-11,-22,-31,-14,-16,-43,-80,-49,-38,-68,-6,-40,-94,-116,-399,-42,-335,-31,-93,-52,-159,-323,-266,-88,-10,-107,-80,-149,-43,-260,-259,-13,-78,-146,-262,-266,-25,-90,-143,-286,-172,-95,-158,-287,-80,-95,-72,-104,-24,-84,-134,-58,-41,-45,-36,-92,-172,-98,-54,-26,-23,-15,-39,-14,-8,-7,-6,-8,-15,-21,-15,-11,-11,-14,-8,-10,-10,-21,-25,-29,-13,-13,-9,-16,-1,-3,-18,-10,-11,-13,-7,-12,-13,-24,-21,-24,-49],
      "delta_lng":[0,116,113,75,41,53,52,42,45,87,99,42,30,45,44,130,63,36,57,391,113,331,185,225,89,159,48,705,120,22,13,38,354,300,150,351,173,171,117,173,118,86,134,177,56,44,115,198,90,25,-7,-1,-4,-18,-20,-70,-8,-59,-5,-14,-9,-27,-57,-46,-16,0,-4,-6,-5,-3,-5,-8,1,4,17,39,40,1,16,20,45,24,15,26,43,11,14,13,15,4,13,20,11,6,8,4,-14,-33,-18,-11,-3,8,5,23,10,13,16,20,30,54,92,68,48,64,70,50,68,66,110,105,114,52,52,39,64,13,21,86,67,63,63,26,30,36,48,44,45,93]
    }
  ]
}