{
  "code":99516,
  "name":"名古屋市営地下鉄鶴舞線",
  "color":"#009CBE",
  "symbol":"T",
  "station_list":[
    {"code":3001506,"id":"a692a3","name":"上小田井","name_kana":"かみおたい","lat":35.223482,"lng":136.876941,"prefecture":23,"numbering":[{"index":"01"}],"lines":[30015,99516],"attr":"cool","postal_code":"452-0816","address":"名古屋市西区貴生町"},
    {"code":9951602,"id":"3abb20","name":"庄内緑地公園","name_kana":"しょうないりょくちこうえん","lat":35.215186,"lng":136.886963,"prefecture":23,"numbering":[{"index":"02"}],"lines":[99516],"attr":"eco","postal_code":"452-0818","address":"名古屋市西区山田町大字上小田井字東古川３１２９"},
    {"code":9951603,"id":"ca28af","name":"庄内通","name_kana":"しょうないどおり","lat":35.204476,"lng":136.891044,"prefecture":23,"numbering":[{"index":"03"}],"lines":[99516],"attr":"eco","postal_code":"451-0016","address":"名古屋市西区庄内通３-１２"},
    {"code":9951604,"id":"82de1d","name":"浄心","name_kana":"じょうしん","lat":35.192205,"lng":136.890819,"prefecture":23,"numbering":[{"index":"04"}],"lines":[99516],"attr":"eco","postal_code":"451-0031","address":"名古屋市西区城西４-３２０８"},
    {"code":9951605,"id":"c58f8c","name":"浅間町","name_kana":"せんげんちょう","lat":35.18384,"lng":136.890335,"prefecture":23,"numbering":[{"index":"05"}],"lines":[99516],"attr":"eco","postal_code":"451-0035","address":"名古屋市西区浅間１-２０６"},
    {"code":9951606,"id":"f6c73c","name":"丸の内(愛知)","name_kana":"まるのうち","lat":35.173458,"lng":136.896944,"prefecture":23,"numbering":[{"index":"06"}],"lines":[99516,99517],"attr":"eco","postal_code":"460-0003","address":"名古屋市中区錦２-１"},
    {"code":9951309,"id":"48857f","name":"伏見(愛知)","name_kana":"ふしみ","lat":35.169273,"lng":136.897427,"prefecture":23,"numbering":[{"index":"07"}],"lines":[99513,99516],"attr":"eco","postal_code":"460-0003","address":"名古屋市中区錦２-１６-２４"},
    {"code":9951608,"id":"aaf6c8","name":"大須観音","name_kana":"おおすかんのん","lat":35.160729,"lng":136.898158,"prefecture":23,"numbering":[{"index":"08"}],"lines":[99516],"attr":"eco","postal_code":"460-0011","address":"名古屋市中区大須２-１０-３９"},
    {"code":9951411,"id":"c4f435","name":"上前津","name_kana":"かみまえづ","lat":35.157477,"lng":136.906815,"prefecture":23,"numbering":[{"index":"09"}],"lines":[99514,99516],"attr":"eco","postal_code":"460-0011","address":"名古屋市中区大須４-１１-１５"},
    {"code":1141103,"id":"55bebd","name":"鶴舞","name_kana":"つるまい","lat":35.156416,"lng":136.917436,"prefecture":23,"numbering":[{"index":"10"}],"lines":[11411,99516],"attr":"heat","postal_code":"460-0012","address":"名古屋市中区千代田町５丁目"},
    {"code":9951611,"id":"3fc758","name":"荒畑","name_kana":"あらはた","lat":35.149654,"lng":136.92593,"prefecture":23,"numbering":[{"index":"11"}],"lines":[99516],"attr":"heat","postal_code":"466-0064","address":"名古屋市昭和区鶴舞４-１７-２２"},
    {"code":9951612,"id":"bd6428","name":"御器所","name_kana":"ごきそ","lat":35.149585,"lng":136.934146,"prefecture":23,"numbering":[{"index":"12"}],"lines":[99516,99517],"attr":"heat","postal_code":"466-0015","address":"名古屋市昭和区御器所通３-７"},
    {"code":9951613,"id":"6d446d","name":"川名","name_kana":"かわな","lat":35.148703,"lng":136.948717,"prefecture":23,"numbering":[{"index":"13"}],"lines":[99516],"attr":"heat","postal_code":"466-0854","address":"名古屋市昭和区広路通８-７"},
    {"code":9951614,"id":"c23a12","name":"いりなか","name_kana":"いりなか","lat":35.143234,"lng":136.955375,"prefecture":23,"numbering":[{"index":"14"}],"lines":[99516],"attr":"heat","postal_code":"466-0833","address":"名古屋市昭和区隼人町３-４"},
    {"code":9951422,"id":"32e4d2","name":"八事","name_kana":"やごと","lat":35.136946,"lng":136.964036,"prefecture":23,"numbering":[{"index":"15"}],"lines":[99514,99516],"attr":"heat","postal_code":"466-0825","address":"名古屋市昭和区八事本町１０２-３"},
    {"code":9951616,"id":"b7b75d","name":"塩釜口","name_kana":"しおがまぐち","lat":35.132433,"lng":136.977529,"prefecture":23,"numbering":[{"index":"16"}],"lines":[99516],"attr":"heat","postal_code":"468-0073","address":"名古屋市天白区塩釜口１-８３４"},
    {"code":9951617,"id":"384f8a","name":"植田(名古屋市交通局)","name_kana":"うえだ","lat":35.128649,"lng":136.987882,"prefecture":23,"numbering":[{"index":"17"}],"lines":[99516],"attr":"cool","postal_code":"468-0051","address":"名古屋市天白区植田三丁目1001"},
    {"code":9951618,"id":"7cbe80","name":"原(愛知)","name_kana":"はら","lat":35.126118,"lng":136.996714,"prefecture":23,"numbering":[{"index":"18"}],"lines":[99516],"attr":"cool","postal_code":"468-0015","address":"名古屋市天白区原１-５１３"},
    {"code":9951619,"id":"ba83df","name":"平針","name_kana":"ひらばり","lat":35.122766,"lng":137.006904,"prefecture":23,"numbering":[{"index":"19"}],"lines":[99516],"attr":"cool","postal_code":"468-0011","address":"名古屋市天白区平針２-１３０１"},
    {"code":3000609,"id":"99ea78","name":"赤池(愛知)","name_kana":"あかいけ","lat":35.121097,"lng":137.017978,"prefecture":23,"numbering":[{"index":"20"}],"lines":[30006,99516],"attr":"eco","postal_code":"470-0125","address":"日進市赤池１-１５０３"}
  ],
  "north":35.2236,
  "south":35.12073,
  "east":137.0186,
  "west":136.87685,
  "polyline_list":[
    {
      "start":"赤池",
      "end":"上小田井",
      "lat":35.12108,
      "lng":137.0186,
      "delta_lat":[0,-9,-11,-4,-9,-2,2,4,9,18,27,25,16,4,45,35,23,71,73,62,85,18,15,11,14,16,20,18,17,29,27,35,15,16,11,7,18,3,4,6,17,17,20,22,25,21,21,25,38,29,31,29,29,20,9,10,6,4,3,2,6,3,7,8,25,14,11,11,16,11,15,5,3,12,9,10,15,18,14,22,34,17,26,6,14,39,30,28,45,35,11,65,44,27,74,27,26,59,64,35,29,60,83,48,37,44,19,20,28,43,54,52,29,15,31,23,20,14,6,12,7,13,1,21,7,6,14,15,2,2,1,-1,1,0,0,-1,0,1,0,2,-2,3,1,1,4,7,2,4,9,9,11,13,28,40,36,20,42,26,29,35,83,76,51,38,27,9,7,7,9,0,11,24,12,6,7,12,11,4,7,11,3,26,21,2,11,6,9,18,5,8,5,2,3,4,6,6,4,7,11,15,11,23,29,68,118,81,221,177,116,97,69,60,7,61,300,145,116,314,49,31,25,9,35,34,36,41,47,51,58,103,477,98,192,119,426,475,78,74,119,442,30,208,80,58,196,95,70,27,208,56,72,65,46,29,23,134,20,59],
      "delta_lng":[0,-79,-134,-58,-116,-54,-56,-89,-49,-57,-62,-45,-48,-16,-130,-107,-77,-213,-224,-189,-251,-56,-46,-32,-39,-54,-59,-54,-54,-81,-95,-128,-69,-64,-50,-32,-75,-17,-33,-27,-55,-51,-60,-48,-45,-31,-27,-33,-49,-45,-42,-59,-66,-64,-46,-62,-50,-90,-22,-34,-25,-18,-16,-11,-37,-34,-48,-49,-72,-45,-62,-27,-37,-113,-74,-71,-60,-63,-45,-63,-85,-31,-57,-12,-32,-72,-51,-45,-57,-47,-16,-75,-53,-39,-136,-45,-40,-74,-85,-43,-36,-80,-98,-59,-46,-52,-16,-16,-10,-11,-17,-16,-10,-12,-38,-48,-54,-45,-47,-71,-47,-84,-15,-167,-43,-49,-100,-111,-18,-73,-164,-195,-148,-123,-124,-94,-10,-101,-50,-107,-68,-159,-44,-146,-121,-63,-44,-64,-68,-53,-37,-25,-31,-36,-27,-10,-10,-12,-13,-17,-39,-39,-31,-31,-30,-14,-24,-27,-39,-1,-52,-148,-89,-51,-65,-109,-95,-32,-58,-79,-28,-121,-155,-13,-77,-52,-142,-235,-42,-88,-38,-20,-22,-18,-25,-20,-14,-9,-13,-17,-6,-6,-2,-6,-10,-9,-21,-18,-8,-11,-8,-4,-1,-9,-28,-15,-14,-41,-45,-66,-112,-49,-163,-77,-50,-32,-23,-1,6,14,66,4,-14,-8,-22,36,5,2,9,27,-14,-201,-70,-36,-117,-65,-51,-42,-379,-94,-93,-75,-44,-29,-18,-76,-10,-34]
    }
  ]
}