{
  "code":99515,
  "name":"名古屋市営地下鉄名港線",
  "color":"#977AD4",
  "symbol":"E",
  "station_list":[
    {"code":1141102,"id":"27a817","name":"金山(愛知)","name_kana":"かなやま","lat":35.142928,"lng":136.900517,"prefecture":23,"numbering":[{"index":"01"}],"lines":[11411,11502,30001,30008,99514,99515],"attr":"heat","postal_code":"460-0022","address":"名古屋市中区金山１丁目"},
    {"code":9951502,"id":"eed540","name":"日比野(名古屋市交通局)","name_kana":"ひびの","lat":35.132711,"lng":136.893125,"prefecture":23,"numbering":[{"index":"02"}],"lines":[99515],"attr":"eco","postal_code":"456-0062","address":"名古屋市熱田区大宝一丁目3-18"},
    {"code":9951503,"id":"81f00f","name":"六番町","name_kana":"ろくばんちょう","lat":35.124623,"lng":136.888715,"prefecture":23,"numbering":[{"index":"03"}],"lines":[99515],"attr":"eco","postal_code":"456-0051","address":"名古屋市熱田区四番１-１０-１２"},
    {"code":9951504,"id":"7b5e78","name":"東海通","name_kana":"とうかいどおり","lat":35.113388,"lng":136.887336,"prefecture":23,"numbering":[{"index":"04"}],"lines":[99515],"attr":"eco","postal_code":"455-0002","address":"名古屋市港区東海通３-１７７"},
    {"code":9951505,"id":"13fa75","name":"港区役所","name_kana":"みなとくやくしょ","lat":35.105736,"lng":136.88455,"prefecture":23,"numbering":[{"index":"05"}],"lines":[99515],"attr":"heat","postal_code":"455-0014","address":"名古屋市港区港楽１-１４-２０"},
    {"code":9951506,"id":"819eb5","name":"築地口","name_kana":"つきじぐち","lat":35.099348,"lng":136.883162,"prefecture":23,"numbering":[{"index":"06"}],"lines":[99515],"attr":"heat","postal_code":"455-0014","address":"名古屋市港区港楽３-４-１３"},
    {"code":9951507,"id":"7f2cfa","name":"名古屋港","name_kana":"なごやこう","lat":35.09348,"lng":136.881971,"prefecture":23,"numbering":[{"index":"07"}],"lines":[99515],"attr":"cool","postal_code":"455-0032","address":"名古屋市港区入船１-８-２３"}
  ],
  "north":35.14419,
  "south":35.09286,
  "east":136.90218,
  "west":136.88185,
  "polyline_list":[
    {
      "start":"名古屋港",
      "end":"金山",
      "lat":35.09286,
      "lng":136.88185,
      "delta_lat":[0,69,222,143,36,206,65,125,309,70,44,32,15,56,16,164,167,32,142,115,67,126,44,106,33,83,42,30,116,114,93,155,52,70,51,166,163,150,178,94,59,21,55,30,20,19,21,26,28,51,78,76,101,20,99,45,60,45,81,79,60,35,63],
      "delta_lng":[0,14,41,27,8,40,12,29,62,14,13,13,8,29,4,22,27,7,22,20,16,24,10,19,6,15,11,6,26,23,22,33,14,35,27,90,89,81,97,50,38,12,26,19,25,40,57,38,25,37,58,55,73,13,73,29,46,31,59,56,43,26,48]
    }
  ]
}