{
  "code":99513,
  "name":"名古屋市営地下鉄東山線",
  "color":"#FFB700",
  "symbol":"H",
  "station_list":[
    {"code":9951301,"id":"5c9e3a","name":"高畑","name_kana":"たかばた","lat":35.139161,"lng":136.853466,"prefecture":23,"numbering":[{"index":"01"}],"lines":[99513],"attr":"eco","postal_code":"454-0911","address":"名古屋市中川区高畑２-１５１"},
    {"code":1150802,"id":"efce45","name":"八田","name_kana":"はった","lat":35.148973,"lng":136.852258,"prefecture":23,"numbering":[{"index":"02"}],"lines":[11508,99513],"attr":"heat","postal_code":"454-0877","address":"名古屋市中川区八田町字下長田"},
    {"code":9951303,"id":"61bc90","name":"岩塚","name_kana":"いわつか","lat":35.158459,"lng":136.854406,"prefecture":23,"numbering":[{"index":"03"}],"lines":[99513],"attr":"eco","postal_code":"453-0862","address":"名古屋市中村区岩塚町字向田３７-１"},
    {"code":9951304,"id":"f5c607","name":"中村公園","name_kana":"なかむらこうえん","lat":35.16783,"lng":136.855056,"prefecture":23,"numbering":[{"index":"04"}],"lines":[99513],"attr":"eco","postal_code":"453-0834","address":"名古屋市中村区豊国通１-３"},
    {"code":9951305,"id":"19e63b","name":"中村日赤","name_kana":"なかむらにっせき","lat":35.172385,"lng":136.861733,"prefecture":23,"numbering":[{"index":"05"}],"lines":[99513],"attr":"eco","postal_code":"453-0046","address":"名古屋市中村区道下町３-３５"},
    {"code":9951306,"id":"afa72f","name":"本陣","name_kana":"ほんじん","lat":35.177135,"lng":136.866782,"prefecture":23,"numbering":[{"index":"06"}],"lines":[99513],"attr":"eco","postal_code":"453-0044","address":"名古屋市中村区鳥居通２-３６"},
    {"code":9951307,"id":"516849","name":"亀島","name_kana":"かめじま","lat":35.177526,"lng":136.876756,"prefecture":23,"numbering":[{"index":"07"}],"lines":[99513],"attr":"eco","postal_code":"453-0013","address":"名古屋市中村区亀島１-２-２"},
    {"code":100213,"id":"91ffc2","name":"名古屋","name_kana":"なごや","lat":35.170694,"lng":136.881637,"prefecture":23,"numbering":[{"index":"08"}],"lines":[11411,11502,11508,99509,99513,99517,1002],"attr":"eco","postal_code":"450-0002","address":"名古屋市中村区名駅１丁目４番"},
    {"code":9951309,"id":"48857f","name":"伏見(愛知)","name_kana":"ふしみ","lat":35.169273,"lng":136.897427,"prefecture":23,"numbering":[{"index":"09"}],"lines":[99513,99516],"attr":"eco","postal_code":"460-0003","address":"名古屋市中区錦２-１６-２４"},
    {"code":9951310,"id":"38c388","name":"栄(愛知)","name_kana":"さかえ","lat":35.16999,"lng":136.908031,"prefecture":23,"numbering":[{"index":"10"}],"lines":[99513,99514],"attr":"eco","postal_code":"460-0008","address":"名古屋市中区栄３-５-１２"},
    {"code":9951311,"id":"245e63","name":"新栄町(愛知)","name_kana":"しんさかえまち","lat":35.170729,"lng":136.920377,"prefecture":23,"numbering":[{"index":"11"}],"lines":[99513],"attr":"eco","postal_code":"461-0004","address":"名古屋市東区葵１-１９-２３"},
    {"code":1141104,"id":"1be191","name":"千種","name_kana":"ちくさ","lat":35.170168,"lng":136.930665,"prefecture":23,"numbering":[{"index":"12"}],"lines":[11411,99513],"attr":"heat","postal_code":"464-0075","address":"名古屋市千種区内山町３丁目"},
    {"code":9951313,"id":"667c9f","name":"今池(愛知)","name_kana":"いまいけ","lat":35.169919,"lng":136.937331,"prefecture":23,"numbering":[{"index":"13"}],"lines":[99513,99517],"attr":"heat","postal_code":"464-0850","address":"名古屋市千種区今池５-１"},
    {"code":9951314,"id":"0426e3","name":"池下","name_kana":"いけした","lat":35.167675,"lng":136.946486,"prefecture":23,"numbering":[{"index":"14"}],"lines":[99513],"attr":"heat","postal_code":"464-0841","address":"名古屋市千種区覚王山通７-１１"},
    {"code":9951315,"id":"24c922","name":"覚王山","name_kana":"かくおうざん","lat":35.166565,"lng":136.953708,"prefecture":23,"numbering":[{"index":"15"}],"lines":[99513],"attr":"heat","postal_code":"464-0821","address":"名古屋市千種区末盛通１-７"},
    {"code":9951316,"id":"3ea271","name":"本山(愛知)","name_kana":"もとやま","lat":35.163923,"lng":136.963441,"prefecture":23,"numbering":[{"index":"16"}],"lines":[99513,99514],"attr":"heat","postal_code":"464-0821","address":"名古屋市千種区末盛通５-１３-３"},
    {"code":9951317,"id":"0c1a6a","name":"東山公園(愛知)","name_kana":"ひがしやまこうえん","lat":35.160454,"lng":136.972873,"prefecture":23,"numbering":[{"index":"17"}],"lines":[99513],"attr":"heat","postal_code":"464-0807","address":"名古屋市千種区東山通５-１"},
    {"code":9951318,"id":"1a2e32","name":"星ヶ丘(愛知)","name_kana":"ほしがおか","lat":35.162399,"lng":136.985095,"prefecture":23,"numbering":[{"index":"18"}],"lines":[99513],"attr":"heat","postal_code":"464-0026","address":"名古屋市千種区井上町85-1"},
    {"code":9951319,"id":"0bd5fa","name":"一社","name_kana":"いっしゃ","lat":35.168231,"lng":136.995927,"prefecture":23,"numbering":[{"index":"19"}],"lines":[99513],"attr":"cool","postal_code":"465-0093","address":"名古屋市名東区一社２-１"},
    {"code":9951320,"id":"f81546","name":"上社","name_kana":"かみやしろ","lat":35.173656,"lng":137.007081,"prefecture":23,"numbering":[{"index":"20"}],"lines":[99513],"attr":"cool","postal_code":"465-0025","address":"名古屋市名東区上社１-８０３"},
    {"code":9951321,"id":"a949ef","name":"本郷(愛知)","name_kana":"ほんごう","lat":35.175453,"lng":137.013425,"prefecture":23,"numbering":[{"index":"21"}],"lines":[99513],"attr":"cool","postal_code":"465-0024","address":"名古屋市名東区本郷２-１５３"},
    {"code":9951201,"id":"59c2e7","name":"藤が丘(愛知)","name_kana":"ふじがおか","lat":35.182113,"lng":137.02171,"prefecture":23,"numbering":[{"index":"22"}],"lines":[99512,99513],"attr":"eco","postal_code":"465-0032","address":"名古屋市名東区藤が丘１６３"}
  ],
  "north":35.18285,
  "south":35.13791,
  "east":137.02162,
  "west":136.85303,
  "polyline_list":[
    {
      "start":"高畑",
      "end":"藤が丘",
      "lat":35.13791,
      "lng":136.85362,
      "delta_lat":[0,122,113,41,150,105,81,98,93,59,37,33,26,145,73,92,80,61,69,61,76,67,78,108,62,106,85,54,110,56,88,44,44,64,37,47,36,40,54,46,106,69,11,16,18,61,41,28,7,69,64,123,50,193,185,52,20,5,4,0,0,0,-2,0,-116,-76,-118,-32,-54,-166,-60,-11,-38,-92,-117,-11,-9,-2,0,13,13,40,12,4,8,6,3,1,0,-2,-11,-11,-7,-4,-1,5,0,2,2,3,8,5,5,7,6,12,6,3,11,4,2,1,1,1,66,5,26,-2,-22,-2,-7,-8,-20,-44,-2,-4,0,-2,-7,-5,-9,-11,-19,-23,-29,-33,-26,-21,-7,-19,-51,-15,-25,-22,-6,-5,0,11,3,4,2,1,-4,-11,-12,-15,-12,-19,-19,-19,-19,-15,-20,-14,-19,-72,-25,-44,-74,-90,-21,-18,-21,-21,-15,-16,-4,0,4,0,4,9,18,33,12,16,18,25,6,43,20,36,78,20,45,32,62,34,67,47,10,6,17,24,10,11,24,12,11,15,3,13,11,9,16,16,31,50,9,12,200,54,76,55,19,16,11,13,11,12,9,13,13,7,5,6,12,6,9,33,11,10,13,18,15,26,24,29,44,41,45,87,94,7,63,69,34,26,59],
      "delta_lng":[0,-11,-10,-1,-11,-7,-5,-6,-5,-4,2,4,7,21,10,9,9,9,8,8,9,8,8,13,9,7,2,4,5,4,3,1,4,4,-1,-7,-1,0,5,5,21,1,1,19,28,118,86,58,3,132,115,146,60,221,214,61,24,18,408,508,66,44,88,40,109,69,80,20,36,87,36,5,20,35,38,12,13,16,19,81,74,206,60,32,72,59,42,50,14,40,66,94,61,56,63,69,13,35,49,69,95,88,90,94,106,164,102,62,125,44,34,45,27,91,952,81,396,57,325,128,79,61,156,399,26,35,13,42,79,37,31,45,69,83,112,125,103,76,31,87,218,67,100,96,26,20,36,83,62,39,40,21,44,54,51,58,53,50,61,52,55,43,57,42,56,206,69,119,199,241,57,55,54,58,46,60,62,99,71,52,89,194,116,165,54,56,54,72,23,112,43,66,127,31,58,38,75,39,92,71,16,9,38,44,23,27,74,38,43,63,27,88,61,49,59,55,92,119,15,23,318,80,107,76,23,24,21,27,23,31,33,43,58,36,44,54,126,79,80,330,72,48,45,44,27,35,23,22,17,10,5,-2,-3,1,7,16,13,17,36]
    }
  ]
}