{
  "code":99510,
  "name":"東海交通事業城北線",
  "station_list":[
    {"code":1150234,"id":"8fe63c","name":"枇杷島","name_kana":"びわじま","lat":35.198681,"lng":136.861816,"prefecture":23,"lines":[11502,99510],"attr":"eco","postal_code":"452-0064","address":"清須市西枇杷島町旭１丁目"},
    {"code":9951002,"id":"39c73a","name":"尾張星の宮","name_kana":"おわりほしのみや","lat":35.212988,"lng":136.855011,"prefecture":23,"lines":[99510],"attr":"cool","postal_code":"452-0901","address":"清須市阿原星の宮"},
    {"code":9951003,"id":"7ee05b","name":"小田井","name_kana":"おたい","lat":35.221043,"lng":136.880491,"prefecture":23,"lines":[99510],"attr":"cool","postal_code":"452-0815","address":"名古屋市西区八筋町"},
    {"code":9951004,"id":"a1ea5f","name":"比良(愛知)","name_kana":"ひら","lat":35.228549,"lng":136.90178,"prefecture":23,"lines":[99510],"attr":"heat","postal_code":"452-0802","address":"名古屋市西区比良３"},
    {"code":9951005,"id":"1ae087","name":"味美(東海交通事業)","name_kana":"あじよし","lat":35.229504,"lng":136.932263,"prefecture":23,"lines":[99510],"attr":"heat","postal_code":"486-0956","address":"愛知県春日井市中新町二丁目"},
    {"code":1141107,"id":"3c4833","name":"勝川","name_kana":"かちがわ","lat":35.22982,"lng":136.956285,"prefecture":23,"lines":[11411,99510],"attr":"cool","postal_code":"486-0931","address":"春日井市松新町６丁目"}
  ],
  "north":35.22974,
  "south":35.19879,
  "east":136.95369,
  "west":136.85377,
  "polyline_list":[
    {
      "start":"枇杷島",
      "end":"勝川",
      "lat":35.19879,
      "lng":136.86224,
      "delta_lat":[0,50,109,154,46,21,18,24,3,28,34,27,32,48,25,43,39,55,51,124,293,29,2,12,36,22,44,9,32,20,22,22,21,16,56,36,39,36,41,31,27,17,18,16,18,13,17,13,9,7,4,0,-1,-13,2,3,2,13,30,25,33,12,21,61,51,81,38,213,63,92,42,54,153,43,13,7,7,7,7,6,1,1,2,1,4,4,24,1,2,3,7,5,15,29,9,0,8,5,0,-5,-8,-5,-8,-7,-13,-68,-11,-38,-34,-36,-7,-8,-18,12,15,52,31],
      "delta_lng":[0,-56,-139,-217,-68,-39,-34,-43,-5,-44,-44,-32,-34,-40,-16,-18,-10,-8,4,19,43,5,1,2,8,8,16,3,12,10,12,13,13,11,42,32,42,41,56,48,53,31,39,36,37,30,54,68,58,58,57,88,54,199,46,235,154,90,133,89,104,40,63,148,104,170,73,434,153,263,133,161,473,131,54,27,38,46,40,63,9,17,37,42,86,96,533,10,34,104,124,95,378,634,156,19,116,113,104,85,80,71,62,43,82,495,82,278,238,250,61,68,148,166,92,145,71]
    }
  ]
}