{
  "code":99523,
  "name":"ゆとりーとライン",
  "color":"#3C459A",
  "symbol":"Y",
  "station_list":[
    {"code":1141105,"id":"86e45d","name":"大曽根","name_kana":"おおぞね","lat":35.191508,"lng":136.937161,"prefecture":23,"numbering":[{"index":"01"}],"lines":[11411,30012,99514,99523],"attr":"eco","postal_code":"461-0022","address":"名古屋市東区東大曽根町"},
    {"code":9951401,"id":"c56fc8","name":"ナゴヤドーム前矢田","name_kana":"なごやどーむまえやだ","lat":35.190691,"lng":136.945255,"prefecture":23,"numbering":[{"index":"02"}],"lines":[99514,99523],"attr":"eco","postal_code":"461-0043","address":"名古屋市東区大幸１-１"},
    {"code":9951428,"id":"5cf164","name":"砂田橋","name_kana":"すなだばし","lat":35.188861,"lng":136.953999,"prefecture":23,"numbering":[{"index":"03"}],"lines":[99514,99523],"attr":"cool","postal_code":"461-0043","address":"名古屋市東区大幸４-１６"},
    {"code":9952304,"id":"f36118","name":"守山(愛知)","name_kana":"もりやま","lat":35.197431,"lng":136.956639,"prefecture":23,"numbering":[{"index":"04"}],"lines":[99523],"attr":"eco","postal_code":"463-0067","address":"名古屋市守山区守山１-９"},
    {"code":9952305,"id":"04c1b6","name":"金屋","name_kana":"かなや","lat":35.202551,"lng":136.956747,"prefecture":23,"numbering":[{"index":"05"}],"lines":[99523],"attr":"eco","postal_code":"463-0072","address":"名古屋市守山区金屋２-２４３"},
    {"code":9952306,"id":"f21e97","name":"川宮","name_kana":"かわみや","lat":35.210405,"lng":136.962047,"prefecture":23,"numbering":[{"index":"06"}],"lines":[99523],"attr":"heat","postal_code":"463-0081","address":"名古屋市守山区川宮町７８番地"},
    {"code":9952307,"id":"47feed","name":"川村(愛知)","name_kana":"かわむら","lat":35.214297,"lng":136.968591,"prefecture":23,"numbering":[{"index":"07"}],"lines":[99523],"attr":"heat","postal_code":"463-0098","address":"名古屋市守山区川北町３２２-２"},
    {"code":9952308,"id":"7d41e6","name":"白沢渓谷","name_kana":"しらさわけいこく","lat":35.216121,"lng":136.978569,"prefecture":23,"numbering":[{"index":"08"}],"lines":[99523],"attr":"heat","postal_code":"463-0005","address":"名古屋市守山区大字川字東山１８０７番地"},
    {"code":9952309,"id":"c2fb3b","name":"小幡緑地","name_kana":"おばたりょくち","lat":35.218785,"lng":136.982839,"prefecture":23,"numbering":[{"index":"09"}],"lines":[99523],"attr":"cool","postal_code":"463-0004","address":"名古屋市守山区大字吉根字松洞３３８６-７"}
  ],
  "north":35.21895,
  "south":35.18869,
  "east":136.9831,
  "west":136.93749,
  "polyline_list":[
    {
      "start":"大曽根",
      "end":"小幡緑地",
      "lat":35.19119,
      "lng":136.93751,
      "delta_lat":[0,67,7,10,8,4,3,2,-4,-10,-24,-44,-57,-53,-15,-59,-34,-34,-17,0,5,8,9,12,11,17,50,66,39,26,19,17,16,13,14,15,30,13,69,23,22,18,26,30,45,72,50,99,26,44,42,131,62,29,22,21,13,14,18,18,16,37,24,59,124,87,42,52,13,13,16,23,68,44,40,11,14,11,19,73,71,53,23,59,26,30,26,33,30,17,11,6,4,11,22,21,16,20,17,7,25,8,3,26,18,11,5,5,8,9,3,20,38,36,78,36,22,9,12,20,14,57],
      "delta_lng":[0,-2,0,3,6,10,12,17,18,54,115,206,263,249,80,267,177,155,79,25,15,15,10,8,6,6,16,20,17,10,12,11,9,8,4,6,7,2,15,4,0,-2,-1,0,0,-5,-7,-10,-4,-9,-13,-34,-20,-4,0,2,2,4,7,7,11,24,18,45,93,68,33,36,9,7,7,7,25,14,15,7,8,7,16,67,63,50,21,54,23,24,17,21,16,13,9,9,7,39,97,91,72,92,79,28,118,48,20,236,152,89,53,28,38,28,10,53,72,67,144,71,39,13,10,18,13,49]
    }
  ]
}