{
  "code":99521,
  "name":"豊橋鉄道東田本線",
  "station_list":[
    {"code":9952101,"id":"e90bad","name":"駅前","name_kana":"えきまえ","lat":34.763879,"lng":137.383132,"prefecture":23,"numbering":[{"index":"1"}],"lines":[99521],"attr":"eco","postal_code":"441-0000","address":"豊橋市"},
    {"code":9952102,"id":"8444d7","name":"駅前大通","name_kana":"えきまえおおどおり","lat":34.763209,"lng":137.385707,"prefecture":23,"numbering":[{"index":"2"}],"lines":[99521],"attr":"eco","postal_code":"441-0000","address":"豊橋市"},
    {"code":9952103,"id":"5a378f","name":"新川(愛知)","name_kana":"しんかわ","lat":34.762857,"lng":137.389483,"prefecture":23,"numbering":[{"index":"3"}],"lines":[99521],"attr":"eco","postal_code":"441-0000","address":"豊橋市"},
    {"code":9952104,"id":"699dc5","name":"札木","name_kana":"ふだぎ","lat":34.765959,"lng":137.390299,"prefecture":23,"numbering":[{"index":"4"}],"lines":[99521],"attr":"eco","postal_code":"441-0000","address":"豊橋市"},
    {"code":9952105,"id":"3c02f6","name":"市役所前(愛知)","name_kana":"しやくしょまえ","lat":34.767369,"lng":137.392488,"prefecture":23,"numbering":[{"index":"5"}],"lines":[99521],"attr":"eco","postal_code":"441-0000","address":"豊橋市"},
    {"code":9952106,"id":"52c554","name":"豊橋公園前","name_kana":"とよはしこうえんまえ","lat":34.766841,"lng":137.395406,"prefecture":23,"numbering":[{"index":"6"}],"lines":[99521],"attr":"eco","postal_code":"441-0000","address":"豊橋市"},
    {"code":9952107,"id":"35476a","name":"東八町","name_kana":"ひがしはっちょう","lat":34.765924,"lng":137.400341,"prefecture":23,"numbering":[{"index":"7"}],"lines":[99521],"attr":"eco","postal_code":"441-0000","address":"豊橋市"},
    {"code":9952108,"id":"096170","name":"前畑","name_kana":"まえはた","lat":34.765818,"lng":137.404718,"prefecture":23,"numbering":[{"index":"8"}],"lines":[99521],"attr":"heat","postal_code":"441-0000","address":"豊橋市"},
    {"code":9952109,"id":"429f8f","name":"東田坂上","name_kana":"あずまださかうえ","lat":34.765783,"lng":137.408495,"prefecture":23,"numbering":[{"index":"9"}],"lines":[99521],"attr":"heat","postal_code":"441-0000","address":"豊橋市"},
    {"code":9952110,"id":"06ec4f","name":"東田","name_kana":"あずまだ","lat":34.76536,"lng":137.413151,"prefecture":23,"numbering":[{"index":"10"}],"lines":[99521],"attr":"heat","postal_code":"441-0000","address":"豊橋市"},
    {"code":9952111,"id":"430b6f","name":"競輪場前(愛知)","name_kana":"けいりんじょうまえ","lat":34.765078,"lng":137.416778,"prefecture":23,"numbering":[{"index":"11"}],"lines":[99521],"attr":"heat","postal_code":"441-0000","address":"豊橋市"},
    {"code":9952112,"id":"486382","name":"井原(愛知)","name_kana":"いはら","lat":34.764232,"lng":137.421885,"prefecture":23,"numbering":[{"index":"12"}],"lines":[99521,99522],"attr":"cool","postal_code":"441-0000","address":"豊橋市"},
    {"code":9952113,"id":"6bf4ba","name":"赤岩口","name_kana":"あかいわぐち","lat":34.763403,"lng":137.429931,"prefecture":23,"numbering":[{"index":"13"}],"lines":[99521],"attr":"cool","postal_code":"441-0000","address":"豊橋市"},
    {"code":9952202,"id":"4f4812","name":"運動公園前(愛知)","name_kana":"うんどうこうえんまえ","lat":34.75845,"lng":137.422314,"prefecture":23,"numbering":[{"index":"14"}],"lines":[99521,99522],"attr":"cool","postal_code":"441-0000","address":"豊橋市"}
  ],
  "north":34.7677,
  "south":34.75826,
  "east":137.42939,
  "west":137.38301,
  "polyline_list":[
    {
      "start":"井原",
      "end":"運動公園前",
      "lat":34.76413,
      "lng":137.42208,
      "delta_lat":[0,-5,-4,-18,-115,-149,-159,-87,-50],
      "delta_lng":[0,11,1,0,3,7,7,2,1]
    },
    {
      "start":"井原",
      "end":"赤岩口",
      "lat":34.76413,
      "lng":137.42208,
      "delta_lat":[0,-61,-14,-4,-4,2,4,3,2],
      "delta_lng":[0,272,64,28,34,29,130,120,54]
    },
    {
      "start":"駅前",
      "end":"井原",
      "lat":34.76382,
      "lng":137.38301,
      "delta_lat":[0,-38,-12,-6,-3,-2,-9,-2,-1,-10,-7,-3,0,0,19,31,61,24,47,25,75,68,69,40,9,7,4,1,1,-1,-7,-20,-10,-11,-3,-16,-23,-11,-9,-18,-23,-24,-7,0,-1,-3,-2,-5,-2,0,0,0,0,-2,0,-3,-7,-9,-10,-10,-4,-3,-10,-11,-2,-5,-1,-6,0,-3,-23,-17,-24,-11],
      "delta_lng":[0,23,9,7,10,28,168,45,30,168,135,48,1,14,31,2,4,2,5,2,5,4,3,4,3,5,5,7,8,11,37,106,46,58,18,85,120,56,39,98,124,116,45,7,58,66,126,130,51,80,86,87,85,59,14,48,77,99,122,114,51,32,122,131,21,51,31,68,12,10,106,75,104,49]
    }
  ]
}