{
  "code":99531,
  "name":"伊賀鉄道伊賀線",
  "station_list":[
    {"code":1150907,"id":"5fd21f","name":"伊賀上野","name_kana":"いがうえの","lat":34.789143,"lng":136.122907,"prefecture":24,"lines":[11509,99531],"attr":"heat","postal_code":"518-0022","address":"伊賀市三田"},
    {"code":9953102,"id":"309792","name":"新居","name_kana":"にい","closed":true,"lat":34.786338,"lng":136.115903,"prefecture":24,"lines":[99531],"attr":"eco","postal_code":"518-0024","address":"伊賀市東高倉８３-２"},
    {"code":9953103,"id":"1bcfba","name":"西大手","name_kana":"にしおおて","closed":true,"lat":34.766923,"lng":136.124675,"prefecture":24,"lines":[99531],"attr":"eco","postal_code":"518-0878","address":"伊賀市上野西大手町１"},
    {"code":9953104,"id":"56af99","name":"上野市","name_kana":"うえのし","closed":true,"lat":34.767654,"lng":136.129419,"prefecture":24,"lines":[99531],"attr":"eco","postal_code":"518-0873","address":"伊賀市上野丸之内６１-２"},
    {"code":9953105,"id":"df73cf","name":"広小路(三重)","name_kana":"ひろこうじ","closed":true,"lat":34.767054,"lng":136.134427,"prefecture":24,"lines":[99531],"attr":"eco","postal_code":"518-0831","address":"伊賀市上野農人町４２６-２"},
    {"code":9953106,"id":"891bd3","name":"茅町","name_kana":"かやまち","closed":true,"lat":34.761524,"lng":136.135732,"prefecture":24,"lines":[99531],"attr":"eco","postal_code":"518-0838","address":"伊賀市上野茅町２６５２-２"},
    {"code":9953107,"id":"6c1231","name":"桑町","name_kana":"くわまち","closed":true,"lat":34.754164,"lng":136.136621,"prefecture":24,"lines":[99531],"attr":"eco","postal_code":"518-0823","address":"伊賀市四十九町八反田２１３５"},
    {"code":9953115,"id":"f4b82a","name":"四十九","name_kana":"しじゅく","lat":34.748194,"lng":136.137,"prefecture":24,"lines":[99531],"attr":"eco","postal_code":"518-0823","address":"三重県伊賀市四十九町"},
    {"code":9953108,"id":"36a145","name":"猪田道","name_kana":"いだみち","closed":true,"lat":34.735424,"lng":136.140352,"prefecture":24,"lines":[99531],"attr":"cool","postal_code":"518-0101","address":"伊賀市依那具１０２４-４"},
    {"code":9953109,"id":"577a5e","name":"市部","name_kana":"いちべ","closed":true,"lat":34.726245,"lng":136.148661,"prefecture":24,"lines":[99531],"attr":"cool","postal_code":"518-0102","address":"伊賀市市部４１７-２"},
    {"code":9953110,"id":"cc2895","name":"依那古","name_kana":"いなこ","closed":true,"lat":34.715199,"lng":136.15318,"prefecture":24,"lines":[99531],"attr":"cool","postal_code":"518-0103","address":"伊賀市沖１８-２"},
    {"code":9953111,"id":"07f3c1","name":"丸山(三重)","name_kana":"まるやま","closed":true,"lat":34.704381,"lng":136.157461,"prefecture":24,"lines":[99531],"attr":"cool","postal_code":"518-0108","address":"伊賀市才良３５３-４"},
    {"code":9953112,"id":"4cab50","name":"上林","name_kana":"うえばやし","closed":true,"lat":34.694998,"lng":136.161219,"prefecture":24,"lines":[99531],"attr":"heat","postal_code":"518-0112","address":"伊賀市上林原代２６-２"},
    {"code":9953113,"id":"b6377b","name":"比土","name_kana":"ひど","closed":true,"lat":34.675828,"lng":136.16047,"prefecture":24,"lines":[99531],"attr":"heat","postal_code":"518-0115","address":"伊賀市比土城之越３３２-４"},
    {"code":3100539,"id":"ff94c3","name":"伊賀神戸","name_kana":"いがかんべ","lat":34.673639,"lng":136.152854,"prefecture":24,"lines":[31005,99531],"attr":"heat","postal_code":"518-0115","address":"伊賀市比土２６２８-３"}
  ],
  "north":34.78893,
  "south":34.67275,
  "east":136.16816,
  "west":136.11582,
  "polyline_list":[
    {
      "start":"伊賀神戸",
      "end":"伊賀上野",
      "lat":34.67431,
      "lng":136.15136,
      "delta_lat":[0,-64,-49,-21,-13,-7,-2,0,4,7,12,16,12,52,69,44,45,54,68,26,176,78,102,97,219,37,28,21,76,128,47,21,21,20,40,43,18,20,20,20,18,121,92,29,15,12,19,127,84,24,15,21,57,186,183,234,29,15,61,81,14,15,41,59,69,84,79,14,32,139,207,20,33,136,54,175,63,47,172,111,257,242,103,63,49,57,49,112,81,179,50,89,144,104,50,108,24,78,127,24,30,188,142,38,26,24,14,33,168,21,17,25,164,201,165,25,16,20,115,29,32,59,129,62,264,29,36,30,31,58,41,60,47,29,52,39,36,52,44,34,37,49,26,51,15,9,27,20,24,8,8,4,0,-9,-10,-19,-62,-10,-1,2,7,6,6,43,11,11,25,16,34,35,41,29,25,51,136,136,37,87,53,47,45,67,49,65,90,63,106,185,73,140,22,17,63,25,43,26,20,16,32,36,25,21,22,18,22,17,21,5,7,9,4,12,3],
      "delta_lng":[0,142,157,84,65,40,22,41,35,31,35,32,16,60,57,33,27,30,38,15,94,41,47,45,92,20,16,17,72,121,47,19,17,15,22,24,4,5,1,-1,-5,-59,-50,-20,-14,-14,-31,-255,-158,-45,-19,-19,-37,-104,-100,-114,-8,-1,6,15,0,-3,-21,-24,-29,-46,-53,-7,-8,-28,-41,-8,-20,-92,-23,-58,-23,-12,-55,-42,-88,-96,-45,-36,-31,-38,-59,-151,-95,-192,-47,-66,-101,-75,-37,-77,-14,-28,-39,-3,2,35,32,5,0,-4,-7,-19,-124,-16,-10,-9,-47,-49,-35,-5,0,2,39,5,0,-12,-28,-18,-96,-7,-5,1,5,27,23,27,22,8,5,-3,-3,-11,-14,-18,-26,-38,-15,-23,-8,-9,-32,-29,-46,-23,-29,-36,-56,-119,-70,-132,-376,-72,-34,-67,-63,-44,-18,-91,-15,-10,-17,-7,-12,-4,-1,3,6,17,47,45,10,12,1,-6,-10,-20,-21,-42,-63,-43,-71,-126,-53,-95,-16,-7,-22,-4,-7,0,4,3,13,20,18,17,23,27,33,36,52,19,31,61,79,226,73]
    }
  ]
}