{
  "code":99606,
  "name":"叡山電鉄叡山本線",
  "color":"#007F00",
  "symbol":"E",
  "station_list":[
    {"code":3300401,"id":"11fb58","name":"出町柳","name_kana":"でまちやなぎ","lat":35.029613,"lng":135.77244,"prefecture":26,"numbering":[{"index":"01"}],"lines":[33001,33004,99606],"attr":"eco","postal_code":"606-0821","address":"京都市左京区賀茂大橋東詰"},
    {"code":9960602,"id":"795bc3","name":"元田中","name_kana":"もとたなか","lat":35.034968,"lng":135.781411,"prefecture":26,"numbering":[{"index":"02"}],"lines":[99606],"attr":"eco","postal_code":"606-8236","address":"京都市左京区田中大久保町７５"},
    {"code":9960603,"id":"2811f3","name":"茶山(京都)","name_kana":"ちゃやま","lat":35.038248,"lng":135.784508,"prefecture":26,"numbering":[{"index":"03"}],"lines":[99606],"attr":"eco","postal_code":"606-8233","address":"京都市左京区田中北春菜町３８"},
    {"code":9960604,"id":"6af9bc","name":"一乗寺","name_kana":"いちじょうじ","lat":35.044247,"lng":135.787416,"prefecture":26,"numbering":[{"index":"04"}],"lines":[99606],"attr":"eco","postal_code":"606-8115","address":"京都市左京区一乗寺里ノ西町１０２"},
    {"code":9960605,"id":"b24e48","name":"修学院","name_kana":"しゅうがくいん","lat":35.050119,"lng":135.790297,"prefecture":26,"numbering":[{"index":"05"}],"lines":[99606],"attr":"heat","postal_code":"606-8007","address":"京都市左京区山端壱町田町１４-１"},
    {"code":9960606,"id":"29b087","name":"宝ヶ池","name_kana":"たからがいけ","lat":35.058054,"lng":135.792366,"prefecture":26,"numbering":[{"index":"06"}],"lines":[99606,99607],"attr":"heat","postal_code":"606-0093","address":"京都市左京区上高野上荒蒔町"},
    {"code":9960607,"id":"5b3876","name":"三宅八幡","name_kana":"みやけはちまん","lat":35.062387,"lng":135.796207,"prefecture":26,"numbering":[{"index":"07"}],"lines":[99606],"attr":"cool","postal_code":"606-0086","address":"京都市左京区上高野木ノ下町２０-３"},
    {"code":9960608,"id":"0a4f29","name":"八瀬比叡山口","name_kana":"やせひえいざんぐち","lat":35.065225,"lng":135.8085,"prefecture":26,"numbering":[{"index":"08"}],"lines":[99606],"attr":"cool","postal_code":"601-1254","address":"京都市左京区八瀬野瀬町１１３"}
  ],
  "north":35.06534,
  "south":35.03066,
  "east":135.80862,
  "west":135.77337,
  "polyline_list":[
    {
      "start":"出町柳",
      "end":"八瀬比叡山口",
      "lat":35.03066,
      "lng":135.77337,
      "delta_lat":[0,53,86,58,25,15,20,14,10,18,57,33,30,9,17,16,20,30,39,39,40,99,23,47,33,154,250,97,11,60,140,66,201,92,67,21,65,19,30,36,56,43,64,107,180,117,73,60,55,20,24,38,74,80,23,36,7,4,13,12,8,31,18,18,41,11,18,25,13,16,44],
      "delta_lng":[0,35,59,39,22,17,27,25,26,58,210,122,112,36,76,40,34,39,34,25,21,48,10,25,17,73,118,44,7,32,68,32,100,44,36,13,35,9,18,17,24,13,12,14,22,15,11,11,13,13,19,49,94,102,33,67,16,10,44,49,64,304,131,92,216,40,67,67,27,27,55]
    }
  ]
}