{
  "code":99617,
  "name":"水間鉄道",
  "station_list":[
    {"code":3200124,"id":"5ab0dd","name":"貝塚(大阪)","name_kana":"かいづか","lat":34.445499,"lng":135.357485,"prefecture":27,"lines":[32001,99617],"attr":"eco","postal_code":"597-0083","address":"貝塚市海塚２５０-２"},
    {"code":9961702,"id":"200e0f","name":"貝塚市役所前","name_kana":"かいづかしやくしょまえ","lat":34.439461,"lng":135.360497,"prefecture":27,"lines":[99617],"attr":"eco","postal_code":"597-0072","address":"貝塚市畠中３１"},
    {"code":9961703,"id":"b38782","name":"近義の里","name_kana":"こぎのさと","lat":34.436903,"lng":135.362892,"prefecture":27,"lines":[99617],"attr":"eco","postal_code":"597-0084","address":"貝塚市鳥羽２７６"},
    {"code":9961704,"id":"59f219","name":"石才","name_kana":"いしざい","lat":34.430596,"lng":135.368205,"prefecture":27,"lines":[99617],"attr":"eco","postal_code":"597-0082","address":"貝塚市石才５２９"},
    {"code":9961705,"id":"c2bd77","name":"清児","name_kana":"せちご","lat":34.424786,"lng":135.372127,"prefecture":27,"lines":[99617],"attr":"eco","postal_code":"597-0041","address":"貝塚市清児８６６"},
    {"code":9961706,"id":"9998cd","name":"名越","name_kana":"なごせ","lat":34.421467,"lng":135.375027,"prefecture":27,"lines":[99617],"attr":"heat","postal_code":"597-0042","address":"貝塚市名越７０２"},
    {"code":9961707,"id":"dd2e9a","name":"森(大阪)","name_kana":"もり","lat":34.414246,"lng":135.38189,"prefecture":27,"lines":[99617],"attr":"heat","postal_code":"597-0044","address":"貝塚市森５４８"},
    {"code":9961708,"id":"8d5e34","name":"三ツ松","name_kana":"みつまつ","lat":34.411135,"lng":135.383387,"prefecture":27,"lines":[99617],"attr":"heat","postal_code":"597-0105","address":"貝塚市三ツ松８３２"},
    {"code":9961709,"id":"e29833","name":"三ヶ山口","name_kana":"みけやまぐち","lat":34.407247,"lng":135.385026,"prefecture":27,"lines":[99617],"attr":"cool","postal_code":"597-0045","address":"大阪府貝塚市三ツ松"},
    {"code":9961710,"id":"f6252e","name":"水間観音","name_kana":"みずまかんのん","lat":34.403528,"lng":135.385581,"prefecture":27,"lines":[99617],"attr":"cool","postal_code":"597-0104","address":"大阪府貝塚市水間"}
  ],
  "north":34.44555,
  "south":34.40317,
  "east":135.3856,
  "west":135.35667,
  "polyline_list":[
    {
      "start":"水間観音",
      "end":"貝塚",
      "lat":34.40317,
      "lng":135.3856,
      "delta_lat":[0,67,228,72,66,12,72,107,130,65,13,238,60,11,27,105,38,139,141,62,25,61,25,2,26,19,32,34,21,100,151,37,28,282,27,164,27,57,16,94,4,69,14,244,53,80,56,3,195,52,100,268,30,29,29,27,58,45],
      "delta_lng":[0,-8,-29,-10,-18,-6,-31,-47,-56,-27,-5,-121,-28,-3,-14,-64,-25,-127,-133,-57,-15,-47,-32,-2,-66,-50,-65,-41,-18,-67,-101,-26,-27,-203,-19,-119,-20,-39,-11,-63,-4,-46,-10,-222,-48,-74,-49,-3,-177,-46,-100,-246,-22,-6,5,15,71,61]
    }
  ]
}