{
  "code":99610,
  "name":"京都市営地下鉄烏丸線",
  "color":"#3CB371",
  "symbol":"K",
  "station_list":[
    {"code":9961001,"id":"30dc62","name":"国際会館","name_kana":"こくさいかいかん","lat":35.062942,"lng":135.785216,"prefecture":26,"numbering":[{"index":"01"}],"lines":[99610],"attr":"eco","postal_code":"606-0001","address":"京都市左京区岩倉大鷺町"},
    {"code":9961002,"id":"38191d","name":"松ヶ崎(京都)","name_kana":"まつがさき","lat":35.051657,"lng":135.777114,"prefecture":26,"numbering":[{"index":"02"}],"lines":[99610],"attr":"eco","postal_code":"606-0915","address":"京都市左京区松ヶ崎六ノ坪町"},
    {"code":9961003,"id":"0bab67","name":"北山(京都)","name_kana":"きたやま","lat":35.051277,"lng":135.766329,"prefecture":26,"numbering":[{"index":"03"}],"lines":[99610],"attr":"eco","postal_code":"603-8053","address":"京都市北区上賀茂岩ケ垣内町"},
    {"code":9961004,"id":"7b8b7c","name":"北大路","name_kana":"きたおおじ","lat":35.044972,"lng":135.75866,"prefecture":26,"numbering":[{"index":"04"}],"lines":[99610],"attr":"eco","postal_code":"603-8142","address":"京都市北区小山北上総町"},
    {"code":9961005,"id":"2a755c","name":"鞍馬口","name_kana":"くらまぐち","lat":35.03739,"lng":135.759385,"prefecture":26,"numbering":[{"index":"05"}],"lines":[99610],"attr":"eco","postal_code":"602-0894","address":"京都市上京区上御霊中町"},
    {"code":9961006,"id":"14d87e","name":"今出川","name_kana":"いまでがわ","lat":35.030168,"lng":135.759385,"prefecture":26,"numbering":[{"index":"06"}],"lines":[99610],"attr":"eco","postal_code":"602-0032","address":"京都市上京区岡松町"},
    {"code":9961007,"id":"1c36fd","name":"丸太町","name_kana":"まるたまち","lat":35.016554,"lng":135.759537,"prefecture":26,"numbering":[{"index":"07"}],"lines":[99610],"attr":"eco","postal_code":"606-0000","address":"京都市左京区丸太町橋東詰"},
    {"code":9961008,"id":"46691f","name":"烏丸御池","name_kana":"からすまおいけ","lat":35.010517,"lng":135.759638,"prefecture":26,"numbering":[{"index":"08"}],"lines":[99610,99611],"attr":"eco","postal_code":"604-8171","address":"京都市中京区虎屋町"},
    {"code":9961009,"id":"025411","name":"四条","name_kana":"しじょう","lat":35.002353,"lng":135.759623,"prefecture":26,"numbering":[{"index":"09"}],"lines":[99610],"attr":"heat","postal_code":"605-0000","address":"京都市東山区四条大橋東詰"},
    {"code":9961010,"id":"dee72f","name":"五条(京都)","name_kana":"ごじょう","lat":34.995252,"lng":135.759687,"prefecture":26,"numbering":[{"index":"10"}],"lines":[99610],"attr":"heat","postal_code":"605-0846","address":"京都市東山区五条大橋東詰"},
    {"code":100216,"id":"deedbe","name":"京都","name_kana":"きょうと","lat":34.985465,"lng":135.757748,"prefecture":26,"numbering":[{"index":"11"}],"lines":[11601,11602,11605,11614,11618,31025,99610,1002],"attr":"heat","postal_code":"600-8216","address":"京都市下京区烏丸通塩小路下ル東塩小路町"},
    {"code":9961012,"id":"5e475e","name":"九条(京都)","name_kana":"くじょう","lat":34.979062,"lng":135.759664,"prefecture":26,"numbering":[{"index":"12"}],"lines":[99610],"attr":"heat","postal_code":"601-8041","address":"京都市南区東九条南烏丸町"},
    {"code":9961013,"id":"77d0f0","name":"十条(京都市交通局)","name_kana":"じゅうじょう","lat":34.972168,"lng":135.759623,"prefecture":26,"numbering":[{"index":"13"}],"lines":[99610],"attr":"cool","postal_code":"601-8033","address":"京都市南区東九条南石田町"},
    {"code":9961014,"id":"a8ed16","name":"くいな橋","name_kana":"くいなばし","lat":34.962674,"lng":135.757441,"prefecture":26,"numbering":[{"index":"14"}],"lines":[99610],"attr":"cool","postal_code":"612-8415","address":"京都市伏見区竹田中島町"},
    {"code":3102505,"id":"1e4e3d","name":"竹田(京都)","name_kana":"たけだ","lat":34.956825,"lng":135.756091,"prefecture":26,"numbering":[{"index":"15"},{"symbol":"B","color":"#FFD700","index":"05"}],"lines":[31025,99610],"attr":"heat","postal_code":"612-8421","address":"京都市伏見区竹田桶ノ井町"}
  ],
  "north":35.06373,
  "south":34.95497,
  "east":135.78525,
  "west":135.75601,
  "polyline_list":[
    {
      "start":"北大路",
      "end":"国際会館",
      "lat":35.04435,
      "lng":135.75838,
      "delta_lat":[0,56,113,137,50,67,38,42,18,7,35,28,27,18,8,36,1,1,18,1,4,2,0,0,0,3,1,0,1,0,0,0,2,-1,3,2,0,0,2,0,0,2,1,0,0,0,4,0,0,1,9,14,18,33,33,44,63,117,140,68,63,59,8,74,57,168,70,91,81],
      "delta_lng":[0,0,-4,-9,-3,10,15,14,13,7,49,41,55,36,57,322,13,11,192,13,44,14,10,16,7,64,15,19,48,12,28,16,53,43,32,83,11,16,110,22,42,119,75,14,19,20,166,4,15,42,49,48,30,47,35,32,54,94,112,49,34,23,3,20,7,8,-1,17,15]
    },
    {
      "start":"竹田",
      "end":"北大路",
      "lat":34.95497,
      "lng":135.75619,
      "delta_lat":[0,203,262,51,39,45,46,23,181,71,52,56,139,55,341,47,3,12,86,118,11,12,49,25,16,57,12,19,57,24,12,40,18,7,58,101,44,7,15,46,15,11,81,16,60,54,20,31,7,14,30,12,6,19,33,18,26,14,197,71,27,64,78,67,41,37,233,54,31,7,63,4,49,48,127,141,40,83,130,116,57,62,72,38,9,51,76,121,117,125,41,73,24,32,50,17,132,136,124,137,113,11,10,110,4,83,37,23,81,34,129,57,491,97,11,69,10,67,2,131,82,98,114,114,16,22,74,25,40,15,451,38,29,64,57],
      "delta_lng":[0,-6,-9,-3,0,5,16,17,205,72,33,16,11,0,-4,0,0,0,2,-5,0,-1,0,-1,1,1,0,0,1,0,0,1,0,0,0,4,0,0,0,0,0,0,1,0,1,0,0,1,0,0,0,0,0,0,0,0,1,1,12,-8,-1,-4,-4,-4,7,-7,-1,7,0,0,-1,0,-2,0,-3,-1,-1,0,-1,-1,0,0,1,0,0,-1,-1,0,0,1,-1,-4,0,0,0,0,0,-3,-5,-4,-5,-1,0,-5,0,0,-1,0,-2,0,-1,0,0,-1,1,-1,0,-2,0,0,0,1,-1,0,0,0,1,0,0,-1,-5,-10,-22,-37,-21]
    }
  ]
}