{
  "code":99618,
  "name":"OsakaMetro御堂筋線",
  "color":"#E5171F",
  "symbol":"M",
  "station_list":[
    {"code":9961404,"id":"04bc6b","name":"江坂","name_kana":"えさか","lat":34.758755,"lng":135.497106,"prefecture":27,"numbering":[{"index":"11"}],"lines":[99614,99618],"attr":"heat","postal_code":"564-0051","address":"吹田市豊津町９"},
    {"code":9961802,"id":"e5611c","name":"東三国","name_kana":"ひがしみくに","lat":34.741052,"lng":135.498496,"prefecture":27,"numbering":[{"index":"12"}],"lines":[99618],"attr":"eco","postal_code":"532-0002","address":"大阪市淀川区東三国１-３３-６"},
    {"code":100217,"id":"5d9093","name":"新大阪","name_kana":"しんおおさか","lat":34.734136,"lng":135.501852,"prefecture":27,"numbering":[{"index":"13"}],"lines":[11602,11629,11641,99618,1002,1003],"attr":"cool","postal_code":"532-0011","address":"大阪市淀川区西中島５丁目"},
    {"code":9961804,"id":"faf2ba","name":"西中島南方","name_kana":"にしなかじまみなみがた","lat":34.726584,"lng":135.498579,"prefecture":27,"numbering":[{"index":"14"}],"lines":[99618],"attr":"eco","postal_code":"532-0011","address":"大阪市淀川区西中島１-１２-１０"},
    {"code":9961805,"id":"19a45e","name":"中津(OsakaMetro)","name_kana":"なかつ","lat":34.711191,"lng":135.496938,"prefecture":27,"numbering":[{"index":"15"}],"lines":[99618],"attr":"eco","postal_code":"531-0071","address":"大阪府大阪市北区中津一丁目13-19"},
    {"code":9961806,"id":"c4002e","name":"梅田","name_kana":"うめだ","lat":34.703188,"lng":135.497708,"prefecture":27,"numbering":[{"index":"16"}],"lines":[99618],"attr":"eco","postal_code":"530-0017","address":"大阪市北区角田町8-6"},
    {"code":3300140,"id":"20ea02","name":"淀屋橋","name_kana":"よどやばし","lat":34.692456,"lng":135.501648,"prefecture":27,"numbering":[{"index":"17"}],"lines":[33001,99618],"attr":"cool","postal_code":"541-0041","address":"大阪市中央区北浜三丁目6-14"},
    {"code":9961808,"id":"8a0ae5","name":"本町","name_kana":"ほんまち","lat":34.681936,"lng":135.498982,"prefecture":27,"numbering":[{"index":"18"}],"lines":[99618,99620,99621],"attr":"eco","postal_code":"541-0055","address":"大阪市中央区船場中央４-１-６"},
    {"code":9961809,"id":"dbd674","name":"心斎橋","name_kana":"しんさいばし","lat":34.675012,"lng":135.50033,"prefecture":27,"numbering":[{"index":"19"}],"lines":[99618,99624],"attr":"eco","postal_code":"542-0085","address":"大阪市中央区心斎橋筋１-８-１６"},
    {"code":9961810,"id":"b02e7f","name":"なんば","name_kana":"なんば","lat":34.666316,"lng":135.500277,"prefecture":27,"numbering":[{"index":"20"}],"lines":[99618,99620,99622],"attr":"eco","postal_code":"542-0076","address":"大阪市中央区難波１-９-７"},
    {"code":9961811,"id":"01b198","name":"大国町","name_kana":"だいこくちょう","lat":34.656075,"lng":135.4978,"prefecture":27,"numbering":[{"index":"21"}],"lines":[99618,99620],"attr":"eco","postal_code":"556-0012","address":"大阪市浪速区敷津東３-１１-１０"},
    {"code":9961812,"id":"422405","name":"動物園前","name_kana":"どうぶつえんまえ","lat":34.648815,"lng":135.504413,"prefecture":27,"numbering":[{"index":"22"}],"lines":[99618,99623],"attr":"cool","postal_code":"557-0002","address":"大阪市西成区太子１-６-１２"},
    {"code":1160719,"id":"4382c4","name":"天王寺","name_kana":"てんのうじ","lat":34.647844,"lng":135.513227,"prefecture":27,"numbering":[{"index":"23"}],"lines":[11607,11623,11626,99618,99619],"attr":"heat","postal_code":"543-0055","address":"大阪市天王寺区悲田院町"},
    {"code":9961814,"id":"a5bb20","name":"昭和町(大阪)","name_kana":"しょうわちょう","lat":34.633564,"lng":135.516954,"prefecture":27,"numbering":[{"index":"24"}],"lines":[99618],"attr":"cool","postal_code":"545-0011","address":"大阪市阿倍野区昭和町１-９-２６"},
    {"code":9961815,"id":"c9bfcd","name":"西田辺","name_kana":"にしたなべ","lat":34.621627,"lng":135.515152,"prefecture":27,"numbering":[{"index":"25"}],"lines":[99618],"attr":"heat","postal_code":"545-0014","address":"大阪市阿倍野区西田辺町１-１-２５"},
    {"code":1162605,"id":"f861e3","name":"長居","name_kana":"ながい","lat":34.6109,"lng":135.512769,"prefecture":27,"numbering":[{"index":"26"}],"lines":[11626,99618],"attr":"heat","postal_code":"558-0004","address":"大阪市住吉区長居東４"},
    {"code":9961817,"id":"47acbd","name":"あびこ","name_kana":"あびこ","lat":34.598821,"lng":135.512747,"prefecture":27,"numbering":[{"index":"27"}],"lines":[99618],"attr":"heat","postal_code":"558-0011","address":"大阪市住吉区苅田７-１２-２１"},
    {"code":9961818,"id":"acbcaf","name":"北花田","name_kana":"きたはなだ","lat":34.581873,"lng":135.516469,"prefecture":27,"numbering":[{"index":"28"}],"lines":[99618],"attr":"heat","postal_code":"591-8002","address":"堺市北区北花田町２丁１４-３"},
    {"code":9961819,"id":"f3eea9","name":"新金岡","name_kana":"しんかなおか","lat":34.567447,"lng":135.514864,"prefecture":27,"numbering":[{"index":"29"}],"lines":[99618],"attr":"heat","postal_code":"591-8021","address":"堺市北区新金岡町１丁７-２"},
    {"code":9961820,"id":"4852a8","name":"なかもず","name_kana":"なかもず","lat":34.55607,"lng":135.50579,"prefecture":27,"numbering":[{"index":"30"}],"lines":[99618],"attr":"heat","postal_code":"591-8023","address":"堺市北区中百舌鳥町２丁２４０-１"}
  ],
  "north":34.75961,
  "south":34.55561,
  "east":135.51929,
  "west":135.49614,
  "polyline_list":[
    {
      "start":"なかもず",
      "end":"江坂",
      "lat":34.55561,
      "lng":135.50551,
      "delta_lat":[0,155,209,103,137,36,31,161,50,113,36,39,101,176,184,36,40,165,236,235,221,135,179,168,152,46,77,108,31,20,31,86,100,189,29,24,28,100,21,34,25,105,83,213,82,187,188,186,188,61,197,184,184,157,33,190,185,53,161,91,7,184,191,191,189,140,119,122,127,47,21,168,182,180,53,132,32,31,25,20,22,2,10,40,17,76,34,97,29,18,9,44,67,23,5,24,9,16,20,0,38,53,48,189,137,211,206,177,35,104,118,104,10,27,18,27,156,30,244,347,204,60,132,278,169,53,248,501,294,26,302,38,52,123,38,90,131,26,13,13,11,5,5,11,9,16,8,16,205,57,116,226,97,42,32,21,41,56,43,73,110,59,6,7,37,30,43,31,7,21,97,45,46,29,131,26,269,24,12,22,17,73,27,44,64,39,23,193,216,39,54,31,22,72,188,539,105,186,43,37,50,62,61,23,54,80,172,38,36,60,65,77,6,173,85,35,18,47,8,37,86,224,9,172],
      "delta_lng":[0,161,203,100,134,36,27,116,35,75,20,11,31,55,57,7,2,3,6,5,13,-2,-11,-12,-11,0,-6,-22,-9,-8,-21,-66,-79,-144,-20,-6,1,9,3,6,4,9,5,22,8,17,14,19,16,6,23,24,21,15,3,25,19,8,20,16,1,27,29,28,24,23,27,25,26,14,7,42,41,35,10,22,5,0,-9,-17,-33,-7,-30,-156,-64,-322,-141,-368,-119,-68,-28,-178,-283,-104,-17,-92,-30,-26,-18,-1,-23,-23,4,8,4,-4,0,6,4,5,107,89,9,15,6,2,-1,0,0,7,3,4,5,11,4,2,11,20,4,2,27,-6,-19,-50,-16,-35,-49,-14,-13,-22,-23,-18,-10,-19,-7,-10,-4,-8,-69,-16,-29,-48,-22,-5,2,6,23,37,36,62,95,53,2,3,26,23,10,3,0,3,1,-5,-7,-5,-22,-3,-44,-5,-2,-3,-3,-12,-4,-7,-7,-6,-1,-5,-2,0,0,0,-1,0,-1,-4,1,-3,-6,-8,-9,-13,-10,-5,-8,-15,-23,-6,-6,-9,-12,-13,-1,-24,-9,2,2,3,0,3,7,14,1,13]
    }
  ]
}