{
  "code":99612,
  "name":"京福電鉄嵐山本線",
  "color":"#D7003A",
  "symbol":"A",
  "station_list":[
    {"code":9961201,"id":"b566a0","name":"四条大宮","name_kana":"しじょうおおみや","lat":35.00319,"lng":135.748395,"prefecture":26,"numbering":[{"index":"1"}],"lines":[99612],"attr":"eco","postal_code":"600-8389","address":"京都市下京区四条大宮町４-４"},
    {"code":3400304,"id":"625797","name":"西院","name_kana":"さいいん(さい)","lat":35.003619,"lng":135.732447,"prefecture":26,"numbering":[{"index":"2"}],"lines":[34003,99612],"attr":"eco","postal_code":"604-8854","address":"京都市中京区壬生仙念町１６"},
    {"code":9961203,"id":"17ea4e","name":"西大路三条","name_kana":"にしおおじさんじょう","lat":35.007855,"lng":135.732438,"prefecture":26,"numbering":[{"index":"3"}],"lines":[99612],"attr":"heat","postal_code":"615-0001","address":"京都市右京区西院上今田町２２"},
    {"code":9961204,"id":"933b2c","name":"山ノ内(京都)","name_kana":"やまのうち","lat":35.008336,"lng":135.72317,"prefecture":26,"numbering":[{"index":"4"}],"lines":[99612],"attr":"heat","postal_code":"615-0093","address":"京都市右京区山ノ内宮前町"},
    {"code":9961213,"id":"e99d1f","name":"嵐電天神川","name_kana":"らんでんてんじんがわ","lat":35.010192,"lng":135.715227,"prefecture":26,"numbering":[{"index":"5"}],"lines":[99612],"attr":"heat","postal_code":"616-8104","address":"京都市右京区太秦下刑部町"},
    {"code":9961205,"id":"d6f582","name":"蚕ノ社","name_kana":"かいこのやしろ","lat":35.011894,"lng":135.712987,"prefecture":26,"numbering":[{"index":"6"}],"lines":[99612],"attr":"heat","postal_code":"616-8105","address":"京都市右京区太秦森ケ前町１３-４"},
    {"code":9961206,"id":"217df6","name":"太秦広隆寺","name_kana":"うずまさこうりゅうじ","lat":35.013513,"lng":135.708232,"prefecture":26,"numbering":[{"index":"7"}],"lines":[99612],"attr":"cool","postal_code":"616-8125","address":"京都市右京区太秦組石町１０-４"},
    {"code":9961207,"id":"92c6c1","name":"帷子ノ辻","name_kana":"かたびらのつじ","lat":35.015146,"lng":135.700257,"prefecture":26,"numbering":[{"index":"8"}],"lines":[99612,99613],"attr":"cool","postal_code":"616-8151","address":"京都市右京区太秦帷子ケ辻町３０-３"},
    {"code":9961208,"id":"d9c91b","name":"有栖川","name_kana":"ありすがわ","lat":35.015249,"lng":135.694216,"prefecture":26,"numbering":[{"index":"9"}],"lines":[99612],"attr":"cool","postal_code":"616-8317","address":"京都市右京区嵯峨野神ノ木町３７-６"},
    {"code":9961209,"id":"c31843","name":"車折神社","name_kana":"くるまざきじんじゃ","lat":35.016763,"lng":135.688986,"prefecture":26,"numbering":[{"index":"10"}],"lines":[99612],"attr":"cool","postal_code":"616-8347","address":"京都市右京区嵯峨中又町３０-２"},
    {"code":9961210,"id":"fa0778","name":"鹿王院","name_kana":"ろくおういん","lat":35.01704,"lng":135.685236,"prefecture":26,"numbering":[{"index":"11"}],"lines":[99612],"attr":"cool","postal_code":"616-8367","address":"京都市右京区嵯峨北堀町２６-６"},
    {"code":9961211,"id":"fa3142","name":"嵐電嵯峨","name_kana":"らんでんさが","lat":35.016426,"lng":135.681425,"prefecture":26,"numbering":[{"index":"12"}],"lines":[99612],"attr":"cool","postal_code":"616-8366","address":"京都市右京区嵯峨天龍寺今堀町２３-２"},
    {"code":9961212,"id":"e5d602","name":"嵐山(京福電気鉄道)","name_kana":"あらしやま","lat":35.015271,"lng":135.677698,"prefecture":26,"numbering":[{"index":"13"}],"lines":[99612],"attr":"cool","postal_code":"616-8384","address":"京都市右京区嵯峨天龍寺造路町"}
  ],
  "north":35.01707,
  "south":35.00288,
  "east":135.74836,
  "west":135.67783,
  "polyline_list":[
    {
      "start":"嵐山",
      "end":"四条大宮",
      "lat":35.01525,
      "lng":135.67783,
      "delta_lat":[0,22,45,15,18,12,26,10,6,7,11,4,3,2,-4,-9,-8,-6,-7,-5,-12,-10,-10,-7,-18,-11,-18,-7,-12,-15,-11,-9,-5,-2,-2,-7,-6,-5,-2,-2,4,5,7,5,1,-11,-18,-24,-14,-9,-6,-3,-6,-17,-8,-11,-7,-8,-13,-8,-8,-5,-6,-17,-10,-20,-15,-12,-24,-22,-24,-12,-7,-11,-13,-25,-18,-41,-17,-36,-18,-16,-49,-38,-29,-8,-5,-2,-8,-6,-2,-4,0,3,1,0,0,2,0,-2,0,0,-1,1,4,3,4,0,0,0,3,-4,-8,-9,-3,-15,-33,-12,-13,-16,-15,-87,-65,-94,-41,-26,-21,-18,-17,-16,-9,-7,-7,-9,-2,-1,-2,0,0,0,0,0,-2,-4,-2,4,3,1,2,1,0,0,3,5,17],
      "delta_lng":[0,76,130,49,68,36,75,41,22,44,50,54,30,27,79,109,121,68,84,31,50,35,19,9,31,25,28,12,24,23,31,31,32,34,81,71,99,56,47,69,78,57,86,53,21,22,37,79,59,41,43,31,41,82,31,31,19,20,33,21,31,42,53,79,20,52,46,45,81,78,64,26,15,18,16,30,22,44,18,37,22,18,49,40,39,13,7,4,24,20,23,45,67,66,224,147,55,148,152,41,36,51,51,27,21,33,52,55,35,59,44,27,12,12,8,18,43,13,13,14,7,0,3,1,2,9,14,15,23,19,16,10,13,43,20,262,292,6,15,173,19,92,14,32,28,51,68,40,115,45,10,9,10,22,24]
    }
  ]
}