{
  "code":99619,
  "name":"OsakaMetro谷町線",
  "color":"#522886",
  "symbol":"T",
  "station_list":[
    {"code":9961901,"id":"28017e","name":"大日","name_kana":"だいにち","lat":34.749476,"lng":135.578241,"prefecture":27,"numbering":[{"index":"11"}],"lines":[99619,99626],"attr":"heat","postal_code":"570-0003","address":"守口市大日町２-１"},
    {"code":9961902,"id":"c7b1e6","name":"守口","name_kana":"もりぐち","lat":34.737973,"lng":135.563851,"prefecture":27,"numbering":[{"index":"12"}],"lines":[99619],"attr":"eco","postal_code":"570-0083","address":"守口市京阪本通２-２"},
    {"code":9961903,"id":"6ea613","name":"太子橋今市","name_kana":"たいしばしいまいち","lat":34.731376,"lng":135.55493,"prefecture":27,"numbering":[{"index":"13"}],"lines":[99619,99652],"attr":"eco","postal_code":"535-0001","address":"大阪市旭区太子橋１-４"},
    {"code":9961904,"id":"9152b3","name":"千林大宮","name_kana":"せんばやしおおみや","lat":34.723808,"lng":135.54913,"prefecture":27,"numbering":[{"index":"14"}],"lines":[99619],"attr":"eco","postal_code":"535-0013","address":"大阪市旭区森小路２-６"},
    {"code":9961905,"id":"3ee993","name":"関目高殿","name_kana":"せきめたかどの","lat":34.715197,"lng":135.545797,"prefecture":27,"numbering":[{"index":"15"}],"lines":[99619],"attr":"eco","postal_code":"535-0031","address":"大阪市旭区高殿４-２２"},
    {"code":9961906,"id":"fd4c82","name":"野江内代","name_kana":"のえうちんだい","lat":34.708951,"lng":135.538137,"prefecture":27,"numbering":[{"index":"16"}],"lines":[99619],"attr":"eco","postal_code":"534-0013","address":"大阪市都島区内代町１-８"},
    {"code":9961907,"id":"bf1741","name":"都島","name_kana":"みやこじま","lat":34.709087,"lng":135.525799,"prefecture":27,"numbering":[{"index":"17"}],"lines":[99619],"attr":"eco","postal_code":"534-0021","address":"大阪市都島区都島本通３-３"},
    {"code":3400811,"id":"217d16","name":"天神橋筋六丁目","name_kana":"てんじんばしすじろくちょうめ","lat":34.710265,"lng":135.510757,"prefecture":27,"numbering":[{"index":"18"}],"lines":[34008,99619,99623],"attr":"cool","postal_code":"530-0022","address":"大阪市北区浪花町１４-２８"},
    {"code":9961909,"id":"e6e590","name":"中崎町","name_kana":"なかざきちょう","lat":34.706864,"lng":135.505245,"prefecture":27,"numbering":[{"index":"19"}],"lines":[99619],"attr":"eco","postal_code":"530-0016","address":"大阪市北区中崎町１-６-１６"},
    {"code":9961910,"id":"699bfb","name":"東梅田","name_kana":"ひがしうめだ","lat":34.701031,"lng":135.49969,"prefecture":27,"numbering":[{"index":"20"}],"lines":[99619],"attr":"eco","postal_code":"530-0057","address":"大阪市北区曽根崎２-１１-１１"},
    {"code":9961911,"id":"ba73ad","name":"南森町","name_kana":"みなみもりまち","lat":34.697699,"lng":135.511078,"prefecture":27,"numbering":[{"index":"21"}],"lines":[99619,99623],"attr":"heat","postal_code":"530-0054","address":"大阪市北区南森町２-１-４"},
    {"code":3300138,"id":"cf3a3e","name":"天満橋","name_kana":"てんまばし","lat":34.6902,"lng":135.516633,"prefecture":27,"numbering":[{"index":"22"}],"lines":[33001,33008,99619],"attr":"eco","postal_code":"540-0012","address":"大阪市中央区谷町１-２-５"},
    {"code":9961913,"id":"2bf5f4","name":"谷町四丁目","name_kana":"たにまちよんちょうめ","lat":34.681914,"lng":135.517253,"prefecture":27,"numbering":[{"index":"23"}],"lines":[99619,99621],"attr":"eco","postal_code":"540-0012","address":"大阪市中央区谷町４-４-２１"},
    {"code":9961914,"id":"9f3929","name":"谷町六丁目","name_kana":"たにまちろくちょうめ","lat":34.674923,"lng":135.516912,"prefecture":27,"numbering":[{"index":"24"}],"lines":[99619,99624],"attr":"heat","postal_code":"542-0012","address":"大阪市中央区谷町６-９-１"},
    {"code":9961915,"id":"5d963a","name":"谷町九丁目","name_kana":"たにまちきゅうちょうめ","lat":34.667146,"lng":135.515801,"prefecture":27,"numbering":[{"index":"25"}],"lines":[99619,99622],"attr":"heat","postal_code":"543-0072","address":"大阪市天王寺区生玉前町１-２４"},
    {"code":9961916,"id":"559153","name":"四天王寺前夕陽ヶ丘","name_kana":"してんのうじまえゆうひがおか","lat":34.658536,"lng":135.514134,"prefecture":27,"numbering":[{"index":"26"}],"lines":[99619],"attr":"heat","postal_code":"543-0075","address":"大阪市天王寺区夕陽丘町"},
    {"code":1160719,"id":"4382c4","name":"天王寺","name_kana":"てんのうじ","lat":34.647844,"lng":135.513227,"prefecture":27,"numbering":[{"index":"27"}],"lines":[11607,11623,11626,99618,99619],"attr":"heat","postal_code":"543-0055","address":"大阪市天王寺区悲田院町"},
    {"code":9961918,"id":"cb3740","name":"阿倍野","name_kana":"あべの","lat":34.642374,"lng":135.51198,"prefecture":27,"numbering":[{"index":"28"}],"lines":[99619,99628],"attr":"heat","postal_code":"545-0052","address":"大阪市阿倍野区阿倍野筋２-４"},
    {"code":9961919,"id":"c5d167","name":"文の里","name_kana":"ふみのさと","lat":34.636039,"lng":135.518024,"prefecture":27,"numbering":[{"index":"29"}],"lines":[99619],"attr":"heat","postal_code":"545-0011","address":"大阪市阿倍野区昭和町１-１"},
    {"code":9961920,"id":"3969ad","name":"田辺","name_kana":"たなべ","lat":34.628215,"lng":135.525515,"prefecture":27,"numbering":[{"index":"30"}],"lines":[99619],"attr":"heat","postal_code":"546-0031","address":"大阪市東住吉区田辺１-４-４"},
    {"code":9961921,"id":"91e729","name":"駒川中野","name_kana":"こまがわなかの","lat":34.621507,"lng":135.533036,"prefecture":27,"numbering":[{"index":"31"}],"lines":[99619],"attr":"heat","postal_code":"546-0011","address":"大阪市東住吉区針中野１-１-１"},
    {"code":9961922,"id":"21a344","name":"平野(OsakaMetro)","name_kana":"ひらの","lat":34.621078,"lng":135.548887,"prefecture":27,"numbering":[{"index":"32"}],"lines":[99619],"attr":"cool","postal_code":"547-0033","address":"大阪市平野区平野西5-2"},
    {"code":9961923,"id":"7f425c","name":"喜連瓜破","name_kana":"きれうりわり","lat":34.609376,"lng":135.551633,"prefecture":27,"numbering":[{"index":"33"}],"lines":[99619],"attr":"cool","postal_code":"547-0027","address":"大阪市平野区喜連２-５"},
    {"code":9961924,"id":"ef1444","name":"出戸","name_kana":"でと","lat":34.609012,"lng":135.565801,"prefecture":27,"numbering":[{"index":"34"}],"lines":[99619],"attr":"cool","postal_code":"547-0015","address":"大阪市平野区長吉長原西１-１-１０"},
    {"code":9961925,"id":"c03b56","name":"長原(大阪)","name_kana":"ながはら","lat":34.602432,"lng":135.573853,"prefecture":27,"numbering":[{"index":"35"}],"lines":[99619],"attr":"cool","postal_code":"547-0013","address":"大阪市平野区長吉長原東２-２"},
    {"code":9961926,"id":"51f55b","name":"八尾南","name_kana":"やおみなみ","lat":34.597433,"lng":135.582464,"prefecture":27,"numbering":[{"index":"36"}],"lines":[99619],"attr":"cool","postal_code":"581-0038","address":"八尾市若林町１-３６"}
  ],
  "north":34.74997,
  "south":34.59704,
  "east":135.58366,
  "west":135.49945,
  "polyline_list":[
    {
      "start":"八尾南",
      "end":"大日",
      "lat":34.59704,
      "lng":135.58366,
      "delta_lat":[0,9,7,4,4,4,2,2,1,0,0,1,13,21,22,18,24,40,35,31,49,31,146,161,64,86,87,49,38,30,40,24,12,7,8,67,43,5,7,13,15,0,-2,-4,-1,3,2,5,9,15,16,17,27,34,97,219,221,168,56,189,53,43,38,34,26,22,21,20,9,2,0,-3,-17,-21,-40,-14,-42,-4,0,3,10,11,18,21,11,13,52,31,89,50,223,109,113,77,92,47,217,171,206,66,156,24,24,22,19,15,15,20,21,20,29,37,26,15,27,27,112,51,188,38,52,83,171,81,52,28,15,20,106,48,31,33,100,167,50,89,153,187,222,290,12,32,136,195,109,97,136,92,30,131,45,251,228,36,175,157,89,186,42,25,195,69,32,140,88,93,49,43,45,44,37,17,23,16,4,18,16,2,6,9,8,29,13,11,26,115,175,43,38,15,38,60,90,121,119,102,70,152,61,27,6,0,-2,0,-2,-2,-5,-59,-85,-66,-10,-38,-4,0,5,66,8,6,3,1,-6,-45,-2,2,5,16,31,107,119,35,114,72,31,32,24,36,76,14,13,21,19,176,559,145,63,125,127,46,31,32,60,78,69,34,185,215,59,150,18,114,141,215,49,202,24,7,183,180,94],
      "delta_lng":[0,-32,-31,-26,-27,-29,-24,-109,-83,-5,-2,-67,-78,-104,-109,-53,-47,-50,-29,-16,-12,-7,-34,-33,-12,-10,-5,-4,-2,-7,-18,-19,-21,-15,-39,-279,-202,-24,-45,-226,-293,-41,-76,-326,-327,-319,-35,-33,-21,-16,-17,-10,-7,0,-3,-5,-2,-7,-2,-7,-4,-10,-13,-15,-16,-16,-16,-41,-34,-25,-31,-39,-125,-125,-298,-105,-408,-116,-52,-20,-44,-32,-47,-45,-19,-23,-69,-35,-79,-51,-214,-105,-109,-72,-86,-44,-208,-168,-193,-64,-152,-26,-35,-40,-49,-36,-42,-33,-22,-14,-15,-11,-5,-2,8,9,30,14,47,7,9,18,26,14,9,6,0,0,-12,-1,0,1,4,11,6,14,25,32,43,56,3,8,31,37,17,14,15,7,9,8,2,10,5,2,2,6,-2,-3,0,3,-12,5,3,16,11,22,8,6,8,5,1,-5,-13,-23,-53,-278,-206,-34,-97,-131,-125,-497,-239,-32,-14,-46,-67,-4,0,8,39,72,117,160,152,127,91,193,80,38,33,6,13,10,39,18,17,184,274,210,28,111,17,34,25,439,54,52,55,81,80,871,47,18,21,24,38,105,111,31,105,72,35,44,44,75,170,27,17,12,6,53,173,49,24,49,53,28,39,37,84,112,99,49,273,278,70,194,22,147,175,275,57,257,28,8,236,227,121]
    }
  ]
}