{
  "code":99613,
  "name":"京福電鉄北野線",
  "color":"#5654A2",
  "symbol":"B",
  "station_list":[
    {"code":9961207,"id":"92c6c1","name":"帷子ノ辻","name_kana":"かたびらのつじ","lat":35.015146,"lng":135.700257,"prefecture":26,"numbering":[{"symbol":"A","color":"#D7003A","index":"8"}],"lines":[99612,99613],"attr":"cool","postal_code":"616-8151","address":"京都市右京区太秦帷子ケ辻町３０-３"},
    {"code":9961310,"id":"14ff93","name":"撮影所前","name_kana":"さつえいじょまえ","lat":35.01575,"lng":135.702778,"prefecture":26,"numbering":[{"index":"1"}],"lines":[99613],"attr":"cool","postal_code":"616-8173","address":"京都市右京区太秦上ノ段町1-5"},
    {"code":9961302,"id":"a26405","name":"常盤(京都)","name_kana":"ときわ","lat":35.020296,"lng":135.704807,"prefecture":26,"numbering":[{"index":"2"}],"lines":[99613],"attr":"cool","postal_code":"616-8225","address":"京都市右京区常盤馬塚町５-１"},
    {"code":9961303,"id":"8e8673","name":"鳴滝","name_kana":"なるたき","lat":35.023626,"lng":135.705793,"prefecture":26,"numbering":[{"index":"3"}],"lines":[99613],"attr":"cool","postal_code":"616-8234","address":"京都市右京区鳴滝嵯峨園町１-２"},
    {"code":9961304,"id":"fdd2f7","name":"宇多野","name_kana":"うたの","lat":35.027145,"lng":135.709731,"prefecture":26,"numbering":[{"index":"4"}],"lines":[99613],"attr":"cool","postal_code":"616-8207","address":"京都市右京区宇多野長尾町１１-１"},
    {"code":9961305,"id":"818e4f","name":"御室仁和寺","name_kana":"おむろにんなじ","lat":35.02639,"lng":135.714106,"prefecture":26,"numbering":[{"index":"5"}],"lines":[99613],"attr":"heat","postal_code":"616-8094","address":"京都市右京区御室小松野町１２-２"},
    {"code":9961306,"id":"6178e6","name":"妙心寺","name_kana":"みょうしんじ","lat":35.026345,"lng":135.718011,"prefecture":26,"numbering":[{"index":"6"}],"lines":[99613],"attr":"heat","postal_code":"616-8021","address":"京都市右京区花園天授ケ岡町３-２"},
    {"code":9961307,"id":"33f8d4","name":"龍安寺","name_kana":"りょうあんじ","lat":35.027862,"lng":135.721264,"prefecture":26,"numbering":[{"index":"7"}],"lines":[99613],"attr":"heat","postal_code":"616-8012","address":"京都市右京区谷口垣ノ内町９-１"},
    {"code":9961308,"id":"4dda60","name":"等持院・立命館大学衣笠キャンパス前","name_kana":"とうじいん・りつめいかんだいがくきぬがさきゃんぱすまえ","lat":35.027828,"lng":135.723797,"prefecture":26,"numbering":[{"index":"8"}],"lines":[99613],"attr":"eco","postal_code":"603-8354","address":"京都市北区等持院西町１５-２"},
    {"code":9961309,"id":"0a7b20","name":"北野白梅町","name_kana":"きたのはくばいちょう","lat":35.027409,"lng":135.730846,"prefecture":26,"numbering":[{"index":"9"}],"lines":[99613],"attr":"eco","postal_code":"603-8326","address":"京都市北区北野下白梅町１５-２"}
  ],
  "north":35.02784,
  "south":35.01512,
  "east":135.7312,
  "west":135.70005,
  "polyline_list":[
    {
      "start":"帷子ノ辻",
      "end":"北野白梅町",
      "lat":35.01512,
      "lng":135.70005,
      "delta_lat":[0,5,1,5,4,7,7,9,12,21,32,29,30,30,93,109,58,42,62,53,104,97,62,39,23,44,51,24,35,59,12,13,16,8,-5,-13,-11,-6,-6,-15,-6,-22,-20,-11,-5,3,3,3,14,33,25,33,25,19,17,13,5,2,0,0,0,0,0,-3,-4,-3,-8,-9,-10,-8],
      "delta_lng":[0,53,21,60,33,29,17,22,19,33,38,23,12,8,28,39,15,15,20,17,33,30,20,24,20,43,49,22,36,61,11,21,46,24,81,116,96,29,30,65,34,82,85,49,28,22,34,20,33,68,29,43,29,24,34,45,23,22,34,81,41,106,76,77,107,108,104,106,134,78]
    }
  ]
}