{
  "code":99611,
  "name":"京都市営地下鉄東西線",
  "color":"#FF4500",
  "symbol":"T",
  "station_list":[
    {"code":1161806,"id":"67fee5","name":"六地蔵(JR)","name_kana":"ろくじぞう","lat":34.932843,"lng":135.797335,"prefecture":26,"numbering":[{"index":"01"}],"lines":[11618,99611],"attr":"heat","postal_code":"612-8007","address":"京都市伏見区桃山町因幡2"},
    {"code":9961102,"id":"520a28","name":"石田(京都)","name_kana":"いしだ","lat":34.940569,"lng":135.803995,"prefecture":26,"numbering":[{"index":"02"}],"lines":[99611],"attr":"eco","postal_code":"601-1434","address":"京都市伏見区石田森南町"},
    {"code":9961103,"id":"a8cb44","name":"醍醐(京都)","name_kana":"だいご","lat":34.950732,"lng":135.810769,"prefecture":26,"numbering":[{"index":"03"}],"lines":[99611],"attr":"eco","postal_code":"601-1375","address":"京都市伏見区醍醐高畑町"},
    {"code":9961104,"id":"b0e879","name":"小野(京都)","name_kana":"おの","lat":34.961218,"lng":135.812733,"prefecture":26,"numbering":[{"index":"04"}],"lines":[99611],"attr":"eco","postal_code":"607-8258","address":"京都市山科区小野西浦"},
    {"code":9961105,"id":"c824a0","name":"椥辻","name_kana":"なぎつじ","lat":34.972675,"lng":135.814658,"prefecture":26,"numbering":[{"index":"05"}],"lines":[99611],"attr":"eco","postal_code":"607-8162","address":"京都市山科区椥辻草海道町"},
    {"code":9961106,"id":"b2bec1","name":"東野(京都)","name_kana":"ひがしの","lat":34.981841,"lng":135.816602,"prefecture":26,"numbering":[{"index":"06"}],"lines":[99611],"attr":"eco","postal_code":"607-8156","address":"京都市山科区東野片下り町"},
    {"code":1160119,"id":"a4984d","name":"山科","name_kana":"やましな","lat":34.992636,"lng":135.816647,"prefecture":26,"numbering":[{"index":"07"}],"lines":[11601,11605,99611],"attr":"heat","postal_code":"607-8009","address":"京都市山科区安朱北屋敷町"},
    {"code":3300701,"id":"d9b4e5","name":"御陵","name_kana":"みささぎ","lat":34.996158,"lng":135.801637,"prefecture":26,"numbering":[{"index":"08"}],"lines":[33007,99611],"attr":"heat","postal_code":"607-8424","address":"京都市山科区御陵原西町１７-４"},
    {"code":9961109,"id":"c0c1f1","name":"蹴上","name_kana":"けあげ","lat":35.008037,"lng":135.790227,"prefecture":26,"numbering":[{"index":"09"}],"lines":[99611],"attr":"heat","postal_code":"605-0044","address":"京都市東山区東小物座町"},
    {"code":9961110,"id":"86de15","name":"東山(京都)","name_kana":"ひがしやま","lat":35.009425,"lng":135.780448,"prefecture":26,"numbering":[{"index":"10"}],"lines":[99611],"attr":"heat","postal_code":"605-0022","address":"京都市東山区大井手町"},
    {"code":9961111,"id":"840ddd","name":"三条京阪","name_kana":"さんじょうけいはん","lat":35.009278,"lng":135.773773,"prefecture":26,"numbering":[{"index":"11"}],"lines":[99611],"attr":"heat","postal_code":"605-0009","address":"京都市東山区大橋町"},
    {"code":9961112,"id":"af540c","name":"京都市役所前","name_kana":"きょうとしやくしょまえ","lat":35.011003,"lng":135.768829,"prefecture":26,"numbering":[{"index":"12"}],"lines":[99611],"attr":"heat","postal_code":"604-0084","address":"京都市中京区下丸屋町"},
    {"code":9961008,"id":"46691f","name":"烏丸御池","name_kana":"からすまおいけ","lat":35.010517,"lng":135.759638,"prefecture":26,"numbering":[{"index":"13"}],"lines":[99610,99611],"attr":"eco","postal_code":"604-8171","address":"京都市中京区虎屋町"},
    {"code":9961114,"id":"7c58fa","name":"二条城前","name_kana":"にじょうじょうまえ","lat":35.011892,"lng":135.750473,"prefecture":26,"numbering":[{"index":"14"}],"lines":[99611],"attr":"eco","postal_code":"604-8301","address":"京都市中京区二条城町"},
    {"code":1161403,"id":"b86917","name":"二条","name_kana":"にじょう","lat":35.010978,"lng":135.741701,"prefecture":26,"numbering":[{"index":"15"}],"lines":[11614,99611],"attr":"heat","postal_code":"604-8415","address":"京都市中京区西ノ京栂尾町"},
    {"code":9961116,"id":"9e418a","name":"西大路御池","name_kana":"にしおおじおいけ","lat":35.010983,"lng":135.731181,"prefecture":26,"numbering":[{"index":"16"}],"lines":[99611],"attr":"cool","postal_code":"604-0000","address":"京都市中京区西ノ京"},
    {"code":9961117,"id":"458158","name":"太秦天神川","name_kana":"うずまさてんじんがわ","lat":35.010816,"lng":135.716085,"prefecture":26,"numbering":[{"index":"17"}],"lines":[99611],"attr":"cool","postal_code":"616-0000","address":"京都市右京区太秦"}
  ],
  "north":35.01229,
  "south":34.93278,
  "east":135.81753,
  "west":135.71548,
  "polyline_list":[
    {
      "start":"六地蔵",
      "end":"太秦天神川",
      "lat":34.93278,
      "lng":135.79581,
      "delta_lat":[0,37,27,97,36,528,104,324,52,28,30,459,10,77,143,5,122,13,41,43,85,14,11,44,43,155,30,32,62,32,46,19,49,50,41,71,107,57,51,68,113,87,82,5,184,6,29,58,97,38,7,9,63,11,102,90,101,94,92,4,94,27,102,66,61,47,56,38,37,95,22,53,8,185,170,56,63,114,92,43,29,47,28,23,20,2,-80,-2,-19,-11,-2,4,7,6,30,12,29,15,40,66,30,49,30,45,52,11,67,62,38,47,67,51,42,266,81,122,90,154,3,86,18,37,11,9,16,6,0,-4,-1,-6,-4,-14,-2,6,2,3,0,3,6,2,2,-1,-3,-3,-3,-3,-5,-4,-3,-6,-2,0,4,16,24,14,9,38,43,21,8,-1,-2,-4,0,-2,-2,-1,0,0,0,-1,0,0,0,0,0,0,-1,0,-4,0,4,1,12,27,26,23,15,6,0,5,1,3,5,4,4,4,6,6,2,-2,-4,-43,-86,1,0,0,0,-1,0],
      "delta_lng":[0,21,18,71,40,598,119,373,58,23,15,131,2,21,41,2,34,5,11,13,23,1,3,1,2,7,1,4,13,5,10,5,11,10,9,17,19,11,10,2,3,3,3,0,6,1,5,25,53,23,4,6,38,7,63,2,3,3,3,0,3,0,28,18,17,14,13,6,5,1,4,11,2,40,-19,1,2,-2,1,-1,-10,-28,-32,-45,-73,-66,-277,-6,-101,-120,-114,-57,-47,-60,-57,-12,-32,-17,-44,-74,-60,-101,-64,-99,-112,-24,-149,-145,-73,-65,-72,-47,-26,-141,-42,-61,-48,-76,-2,-51,-14,-60,-44,-65,-144,-84,-53,-50,-8,-59,-30,-114,-92,-71,-12,-32,-9,-24,-64,-47,-39,-81,-56,-72,-101,-50,-51,-40,-48,-60,-16,-31,-18,-32,-27,-18,-10,-41,-48,-41,-49,-50,-110,-113,-6,-72,-73,-34,-40,-104,-78,-75,-70,-71,-77,-12,-53,-54,-21,-9,-178,-62,-109,-60,-67,-85,-53,-52,-52,-60,-52,-71,-9,-73,-106,-46,-27,-70,-162,-144,-79,-23,-13,-96,-196,-320,-392,-58,-605,-895,-115]
    }
  ]
}