{
  "code":99616,
  "name":"泉北高速鉄道線",
  "color":"#007FFF",
  "symbol":"SB",
  "station_list":[
    {"code":3200715,"id":"23603e","name":"中百舌鳥","name_kana":"なかもず","lat":34.556232,"lng":135.504454,"prefecture":27,"numbering":[{"index":"01"}],"lines":[32007,99616],"attr":"heat","postal_code":"591-8023","address":"堺市北区中百舌鳥町２丁１９６"},
    {"code":9961602,"id":"4d2e91","name":"深井","name_kana":"ふかい","lat":34.530398,"lng":135.497461,"prefecture":27,"numbering":[{"index":"02"}],"lines":[99616],"attr":"eco","postal_code":"599-8236","address":"堺市中区深井沢町３２９０"},
    {"code":9961603,"id":"8e9c67","name":"泉ヶ丘","name_kana":"いずみがおか","lat":34.497099,"lng":135.511575,"prefecture":27,"numbering":[{"index":"03"}],"lines":[99616],"attr":"eco","postal_code":"590-0105","address":"堺市南区竹城台1丁"},
    {"code":9961604,"id":"633f29","name":"栂・美木多","name_kana":"とが・みきた","lat":34.485087,"lng":135.490286,"prefecture":27,"numbering":[{"index":"04"}],"lines":[99616],"attr":"heat","postal_code":"590-0141","address":"堺市南区桃山台二丁１-１"},
    {"code":9961605,"id":"18f200","name":"光明池","name_kana":"こうみょういけ","lat":34.474712,"lng":135.475572,"prefecture":27,"numbering":[{"index":"05"}],"lines":[99616],"attr":"cool","postal_code":"590-0143","address":"堺市南区新檜尾台二丁１-１"},
    {"code":9961606,"id":"0c8c23","name":"和泉中央","name_kana":"いずみちゅうおう","lat":34.461211,"lng":135.456063,"prefecture":27,"numbering":[{"index":"06"}],"lines":[99616],"attr":"cool","postal_code":"594-0041","address":"和泉市いぶき野５-１-１"}
  ],
  "north":34.55692,
  "south":34.46057,
  "east":135.51336,
  "west":135.4549,
  "polyline_list":[
    {
      "start":"和泉中央",
      "end":"中百舌鳥",
      "lat":34.46057,
      "lng":135.4549,
      "delta_lat":[0,36,72,13,15,67,84,7,104,63,90,63,176,21,144,211,48,76,11,13,20,0,150,200,51,193,80,29,45,24,23,54,31,15,93,64,126,139,28,61,26,3,15,29,71,14,26,4,65,56,42,20,8,61,35,26,31,58,35,42,36,25,24,27,5,21,24,12,3,38,44,48,51,39,31,18,35,63,29,51,38,30,63,51,25,33,36,93,130,50,107,79,223,226,28,210,44,191,65,174,41,197,112,27,66,131,166,37,43,38,29,23,21,21,17,166,5,25,27,37,12,20,32,35,120,241,200,38,240,187,53,42,37,31,40,8,14,42,21,32,44,45,43,37,41,56,61,221,45,10,52,80,82,80,138],
      "delta_lng":[0,60,138,24,24,121,136,13,142,87,112,79,226,28,202,306,68,111,14,21,27,1,214,290,73,273,117,40,63,33,35,75,47,21,131,91,179,199,43,85,37,4,23,44,106,20,39,8,125,119,85,39,19,130,71,53,64,121,71,88,69,51,50,52,12,44,49,20,5,63,52,44,39,23,15,9,9,10,6,0,-7,-6,-20,-19,-11,-15,-18,-54,-81,-30,-66,-49,-129,-137,-16,-128,-27,-117,-38,-107,-25,-119,-70,-16,-39,-78,-100,-19,-20,-14,-8,-3,-2,1,1,28,1,8,12,24,10,14,28,36,145,300,247,46,293,227,59,41,27,20,20,2,3,3,1,-4,-11,-15,-22,-23,-30,-49,-54,-188,-29,-12,-60,-115,-106,-104,-172]
    }
  ]
}