{
  "code":99626,
  "name":"大阪モノレール線",
  "color":"#111986",
  "station_list":[
    {"code":9962601,"id":"ac5027","name":"大阪空港","name_kana":"おおさかくうこう","lat":34.791598,"lng":135.441821,"prefecture":27,"numbering":[{"index":"11"}],"lines":[99626],"attr":"cool","postal_code":"560-0036","address":"豊中市蛍池西町３-５５１"},
    {"code":3400210,"id":"4054bf","name":"蛍池","name_kana":"ほたるがいけ","lat":34.794365,"lng":135.449238,"prefecture":27,"numbering":[{"index":"12"}],"lines":[34002,99626],"attr":"heat","postal_code":"560-0033","address":"豊中市蛍池中町３-１"},
    {"code":9962603,"id":"a98b3f","name":"柴原阪大前","name_kana":"しばはらはんだいまえ","lat":34.800266,"lng":135.458734,"prefecture":27,"numbering":[{"index":"13"}],"lines":[99626],"attr":"cool","postal_code":"560-0055","address":"豊中市柴原町４-１１５-１"},
    {"code":9962604,"id":"8cc092","name":"少路","name_kana":"しょうじ","lat":34.804246,"lng":135.47551,"prefecture":27,"numbering":[{"index":"14"}],"lines":[99626],"attr":"cool","postal_code":"560-0004","address":"豊中市少路１"},
    {"code":9961401,"id":"eb2a5f","name":"千里中央","name_kana":"せんりちゅうおう","lat":34.808655,"lng":135.495067,"prefecture":27,"numbering":[{"index":"15"}],"lines":[99614,99626],"attr":"eco","postal_code":"560-0082","address":"豊中市新千里東町１-５-４"},
    {"code":3400802,"id":"2dd501","name":"山田(大阪)","name_kana":"やまだ","lat":34.804237,"lng":135.515692,"prefecture":27,"numbering":[{"index":"16"}],"lines":[34008,99626],"attr":"eco","postal_code":"565-0824","address":"吹田市山田西４-５５７"},
    {"code":9962607,"id":"80eacc","name":"万博記念公園(大阪)","name_kana":"ばんぱくきねんこうえん","lat":34.806692,"lng":135.530228,"prefecture":27,"numbering":[{"index":"17"}],"lines":[99626,99627],"attr":"cool","postal_code":"565-0826","address":"吹田市千里万博公園内"},
    {"code":9962608,"id":"4feeb2","name":"宇野辺","name_kana":"うのべ","lat":34.808,"lng":135.554406,"prefecture":27,"numbering":[{"index":"18"}],"lines":[99626],"attr":"eco","postal_code":"567-0042","address":"茨木市宇野辺１"},
    {"code":3400318,"id":"d8f660","name":"南茨木","name_kana":"みなみいばらき","lat":34.802351,"lng":135.565152,"prefecture":27,"numbering":[{"index":"19"}],"lines":[34003,99626],"attr":"cool","postal_code":"567-0876","address":"茨木市天王２-１-１３"},
    {"code":9962610,"id":"45fb0d","name":"沢良宜","name_kana":"さわらぎ","lat":34.793902,"lng":135.566166,"prefecture":27,"numbering":[{"index":"20"}],"lines":[99626],"attr":"eco","postal_code":"567-0866","address":"茨木市高浜町１９４-４"},
    {"code":9962611,"id":"a01c28","name":"摂津","name_kana":"せっつ","lat":34.779842,"lng":135.561483,"prefecture":27,"numbering":[{"index":"21"}],"lines":[99626],"attr":"heat","postal_code":"566-0035","address":"摂津市鶴野１-１１６-１"},
    {"code":9962612,"id":"9c873c","name":"南摂津","name_kana":"みなみせっつ","lat":34.765394,"lng":135.568572,"prefecture":27,"numbering":[{"index":"22"}],"lines":[99626],"attr":"heat","postal_code":"566-0074","address":"摂津市東一津屋１２０１-３"},
    {"code":9961901,"id":"28017e","name":"大日","name_kana":"だいにち","lat":34.749476,"lng":135.578241,"prefecture":27,"numbering":[{"index":"23"}],"lines":[99619,99626],"attr":"heat","postal_code":"570-0003","address":"守口市大日町２-１"},
    {"code":3300128,"id":"a34b5a","name":"門真市","name_kana":"かどまし","lat":34.73809,"lng":135.583224,"prefecture":27,"numbering":[{"index":"24"}],"lines":[33001,99626],"attr":"heat","postal_code":"571-0048","address":"門真市新橋町３６-７"}
  ],
  "north":34.80804,
  "south":34.73686,
  "east":135.58262,
  "west":135.44162,
  "polyline_list":[
    {
      "start":"大阪空港",
      "end":"真門市",
      "lat":34.79162,
      "lng":135.44162,
      "delta_lat":[0,-61,-2,-5,-121,-9,-1,-10,-4,-3,-3,-1,-2,0,0,-6,-5,5,8,10,19,56,47,1,17,16,27,14,12,17,169,90,96,43,17,18,12,0,31,32,33,56,31,59,31,13,19,17,16,13,5,23,5,5,4,12,4,10,8,10,17,19,19,9,7,3,1,0,-1,-3,-5,-6,-14,-9,-33,-4,-28,-6,-13,-19,-7,-8,-2,-1,2,8,4,3,10,23,19,24,18,3,40,24,38,112,98,49,35,24,27,8,18,2,7,4,2,8,20,7,23,3,22,11,0,5,5,8,21,5,6,11,4,5,2,3,0,-2,-3,-8,-7,-3,-6,-7,-1,-2,-20,-4,-9,-3,-10,-9,-7,-11,-7,-4,-16,-11,-5,-27,-2,0,0,2,2,1,9,7,20,33,6,12,4,4,3,0,5,1,2,1,0,4,-2,1,3,7,1,2,2,5,18,8,10,2,3,-1,-1,-3,-12,0,2,4,10,6,21,8,4,7,5,0,4,3,7,1,0,0,-6,0,3,0,-3,-3,-1,-17,-14,-25,-23,-47,-69,-97,-44,-31,-5,-67,-72,-31,-19,-8,-38,-25,-52,-37,-47,-49,-35,-66,-25,-38,-68,-95,-40,-26,-62,-25,-33,-20,-85,-8,-682,-141,-457,-26,-85,-46,-49,-51,-49,-31,-48,-46,-101,-54,-125,-166,-72,-269,-93,-121,-92,-77,-169,-119,-31,-36,-76,-20,-28,-165,-33,-172,-37,-20,-18,-27,-58,-48,-88,-245,-112,-35,-79,-44,-141,-136,-90,-113,-22,-49,-46,-46,-75,-61,-59,-59,-67,-70,-90],
      "delta_lng":[0,74,2,7,150,13,0,20,15,21,39,197,16,28,19,33,60,51,36,17,21,45,31,0,10,6,0,-3,-3,-8,-102,-52,-53,-20,-6,-4,-2,0,-4,-7,-9,-19,-9,-16,-8,0,-2,2,6,12,6,26,11,13,21,67,30,58,32,32,56,62,57,36,57,59,9,25,31,31,24,42,65,36,139,20,105,23,54,88,43,59,77,62,36,94,38,9,55,91,60,65,43,10,95,56,78,232,197,105,90,75,85,37,78,11,39,24,10,62,193,74,300,29,244,109,12,44,27,25,60,20,24,53,30,81,39,114,44,68,31,78,113,26,100,85,17,26,214,36,88,30,117,113,63,100,51,50,140,83,37,152,9,27,30,103,86,22,58,41,98,164,23,73,40,54,21,19,71,78,87,159,127,135,108,86,132,208,33,56,70,70,179,97,104,22,71,28,62,41,128,57,24,21,50,21,87,30,19,26,29,18,26,64,210,138,117,107,204,62,106,74,19,9,8,54,37,41,29,42,56,82,36,26,2,55,65,24,17,6,29,17,29,15,14,9,2,0,-4,-9,-18,-27,-10,0,9,1,0,-3,-26,-2,-224,-46,-151,-8,-19,-10,-5,-1,2,6,13,17,50,31,79,108,45,168,62,82,67,58,122,83,22,32,78,18,21,117,23,119,29,11,8,10,15,19,45,118,56,20,45,22,78,74,51,60,10,15,10,6,11,4,1,0,2,0,2]
    }
  ]
}