{
  "code":99624,
  "name":"OsakaMetro長堀鶴見緑地線",
  "color":"#A9CC51",
  "symbol":"N",
  "station_list":[
    {"code":1162305,"id":"15780f","name":"大正(大阪)","name_kana":"たいしょう","lat":34.665582,"lng":135.479932,"prefecture":27,"numbering":[{"index":"11"}],"lines":[11623,99624],"attr":"heat","postal_code":"551-0002","address":"大阪市大正区三軒家東１丁目"},
    {"code":9962402,"id":"5a86d9","name":"ドーム前千代崎","name_kana":"どーむまえちよざき","lat":34.670757,"lng":135.479415,"prefecture":27,"numbering":[{"index":"12"}],"lines":[99624],"attr":"cool","postal_code":"550-0023","address":"大阪市西区千代崎３-北２-８"},
    {"code":9962204,"id":"e50668","name":"西長堀","name_kana":"にしながほり","lat":34.675256,"lng":135.487223,"prefecture":27,"numbering":[{"index":"13"}],"lines":[99622,99624],"attr":"cool","postal_code":"550-0014","address":"大阪市西区北堀江３-１２-２０"},
    {"code":9962404,"id":"d52357","name":"西大橋","name_kana":"にしおおはし","lat":34.675442,"lng":135.493575,"prefecture":27,"numbering":[{"index":"14"}],"lines":[99624],"attr":"cool","postal_code":"550-0013","address":"大阪市西区新町１-２８-１１"},
    {"code":9961809,"id":"dbd674","name":"心斎橋","name_kana":"しんさいばし","lat":34.675012,"lng":135.50033,"prefecture":27,"numbering":[{"index":"15"}],"lines":[99618,99624],"attr":"eco","postal_code":"542-0085","address":"大阪市中央区心斎橋筋１-８-１６"},
    {"code":9962306,"id":"24f1be","name":"長堀橋","name_kana":"ながほりばし","lat":34.674645,"lng":135.506357,"prefecture":27,"numbering":[{"index":"16"}],"lines":[99623,99624],"attr":"cool","postal_code":"542-0082","address":"大阪市中央区島之内１-１８-９"},
    {"code":9962407,"id":"f50ab6","name":"松屋町","name_kana":"まつやまち","lat":34.675479,"lng":135.512467,"prefecture":27,"numbering":[{"index":"17"}],"lines":[99624],"attr":"cool","postal_code":"542-0067","address":"大阪市中央区松屋町３-２７"},
    {"code":9961914,"id":"9f3929","name":"谷町六丁目","name_kana":"たにまちろくちょうめ","lat":34.674923,"lng":135.516912,"prefecture":27,"numbering":[{"index":"18"}],"lines":[99619,99624],"attr":"heat","postal_code":"542-0012","address":"大阪市中央区谷町６-９-１"},
    {"code":1162316,"id":"be305d","name":"玉造","name_kana":"たまつくり","lat":34.673559,"lng":135.532901,"prefecture":27,"numbering":[{"index":"19"}],"lines":[11623,99624],"attr":"cool","postal_code":"543-0014","address":"大阪市天王寺区玉造元町"},
    {"code":1162315,"id":"f4f805","name":"森ノ宮","name_kana":"もりのみや","lat":34.680412,"lng":135.533996,"prefecture":27,"numbering":[{"index":"20"}],"lines":[11623,99621,99624],"attr":"heat","postal_code":"540-0003","address":"大阪市中央区森ノ宮中央１丁目"},
    {"code":9962411,"id":"2fe2f8","name":"大阪ビジネスパーク","name_kana":"おおさかびじねすぱーく","lat":34.692144,"lng":135.529688,"prefecture":27,"numbering":[{"index":"21"}],"lines":[99624],"attr":"eco","postal_code":"540-0001","address":"大阪市中央区城見１-３-１３"},
    {"code":1161724,"id":"d1f089","name":"京橋(大阪)","name_kana":"きょうばし","lat":34.696047,"lng":135.534253,"prefecture":27,"numbering":[{"index":"22"}],"lines":[11617,11623,11625,33001,99624],"attr":"cool","postal_code":"536-0015","address":"大阪市城東区新喜多一丁目2-31"},
    {"code":9962413,"id":"71febe","name":"蒲生四丁目","name_kana":"がもうよんちょうめ","lat":34.700368,"lng":135.547709,"prefecture":27,"numbering":[{"index":"23"}],"lines":[99624,99652],"attr":"heat","postal_code":"536-0004","address":"大阪市城東区今福西３-１-３５"},
    {"code":9962414,"id":"26f1f0","name":"今福鶴見","name_kana":"いまふくつるみ","lat":34.701913,"lng":135.560044,"prefecture":27,"numbering":[{"index":"24"}],"lines":[99624],"attr":"heat","postal_code":"536-0002","address":"大阪市城東区今福東２-１４-１５"},
    {"code":9962415,"id":"57751d","name":"横堤","name_kana":"よこづつみ","lat":34.703532,"lng":135.57274,"prefecture":27,"numbering":[{"index":"25"}],"lines":[99624],"attr":"heat","postal_code":"538-0052","address":"大阪市鶴見区横堤５-３-３１"},
    {"code":9962416,"id":"d3d0d4","name":"鶴見緑地","name_kana":"つるみりょくち","lat":34.710754,"lng":135.580239,"prefecture":27,"numbering":[{"index":"26"}],"lines":[99624],"attr":"heat","postal_code":"538-0036","address":"大阪市鶴見区緑地公園１-５５"},
    {"code":9962417,"id":"a1ab3e","name":"門真南","name_kana":"かどまみなみ","lat":34.716865,"lng":135.59246,"prefecture":27,"numbering":[{"index":"27"}],"lines":[99624],"attr":"heat","postal_code":"571-0015","address":"門真市大字三ツ島５２２-３"}
  ],
  "north":34.71706,
  "south":34.66532,
  "east":135.5931,
  "west":135.47845,
  "polyline_list":[
    {
      "start":"大正",
      "end":"真門南",
      "lat":34.66532,
      "lng":135.47845,
      "delta_lat":[0,103,43,26,20,31,15,6,22,88,30,24,51,16,18,121,53,250,30,31,27,25,13,9,4,-2,-9,-4,-2,0,0,-5,-9,-7,-14,0,0,1,0,-2,-7,3,-1,1,-1,1,2,1,1,1,1,5,7,21,22,6,3,1,2,0,-2,0,-1,-13,-4,-11,-9,-38,-18,-29,-7,-4,-7,-1,0,1,11,7,4,20,40,39,27,18,47,89,78,149,44,46,41,51,129,68,106,114,56,291,197,108,98,43,33,9,29,45,33,52,73,100,19,27,13,21,20,20,33,18,63,11,9,1,22,9,14,42,29,63,1,5,1,28,32,11,8,1,11,14,20,17,5,20,18,22,26,31,20,223,34,17,23,16,36,120,26,46,20,22,66,17,34,18,166,58,30,23,21,20,31,31,20,21,23,62],
      "delta_lng":[0,64,27,9,5,-1,-1,-3,-3,-24,-6,0,6,0,2,29,19,117,25,32,44,52,47,54,44,45,67,58,68,150,67,210,249,150,271,12,38,43,22,149,110,322,161,58,87,285,106,19,29,22,19,22,25,73,74,41,41,30,217,33,57,35,19,199,50,149,73,216,109,157,54,48,125,24,25,29,25,13,8,19,25,21,12,5,10,18,17,28,9,7,0,-2,-5,-6,-13,-29,-25,-151,-105,-59,-59,-23,-22,-1,-11,2,14,45,66,94,20,44,22,60,71,99,159,93,330,56,49,55,492,100,146,349,274,473,10,30,5,112,124,40,76,82,183,215,167,161,45,147,56,25,20,16,4,1,0,4,8,13,45,240,50,96,42,44,132,19,32,27,350,124,63,48,47,48,75,71,47,48,49,125]
    }
  ]
}