{
  "code":99628,
  "name":"阪堺電軌上町線",
  "symbol":"HN",
  "station_list":[
    {"code":9962801,"id":"e0d026","name":"天王寺駅前","name_kana":"てんのうじえきまえ","lat":34.646202,"lng":135.512929,"prefecture":27,"numbering":[{"index":"01"}],"lines":[99628],"attr":"cool","postal_code":"545-0052","address":"大阪市阿倍野区阿倍野筋１"},
    {"code":9961918,"id":"cb3740","name":"阿倍野","name_kana":"あべの","lat":34.642374,"lng":135.51198,"prefecture":27,"numbering":[{"index":"02"}],"lines":[99619,99628],"attr":"heat","postal_code":"545-0052","address":"大阪市阿倍野区阿倍野筋２-４"},
    {"code":9962803,"id":"e56c9e","name":"松虫","name_kana":"まつむし","lat":34.635458,"lng":135.509852,"prefecture":27,"numbering":[{"index":"03"}],"lines":[99628],"attr":"cool","postal_code":"545-0052","address":"大阪市阿倍野区阿倍野筋６"},
    {"code":9962804,"id":"e4123b","name":"東天下茶屋","name_kana":"ひがしてんがちゃや","lat":34.632539,"lng":135.508475,"prefecture":27,"numbering":[{"index":"04"}],"lines":[99628],"attr":"cool","postal_code":"545-0052","address":"大阪市阿倍野区阿倍野筋７"},
    {"code":9962805,"id":"533982","name":"北畠","name_kana":"きたばたけ","lat":34.627245,"lng":135.505408,"prefecture":27,"numbering":[{"index":"05"}],"lines":[99628],"attr":"cool","postal_code":"545-0035","address":"大阪市阿倍野区北畠中１"},
    {"code":9962806,"id":"2e9f5c","name":"姫松","name_kana":"ひめまつ","lat":34.624162,"lng":135.503203,"prefecture":27,"numbering":[{"index":"06"}],"lines":[99628],"attr":"cool","postal_code":"545-0037","address":"大阪市阿倍野区帝塚山１"},
    {"code":9962807,"id":"a3efbd","name":"帝塚山三丁目","name_kana":"てづかやまさんちょうめ","lat":34.620568,"lng":135.500709,"prefecture":27,"numbering":[{"index":"07"}],"lines":[99628],"attr":"heat","postal_code":"558-0053","address":"大阪市住吉区帝塚山中３"},
    {"code":9962808,"id":"c1f198","name":"帝塚山四丁目","name_kana":"てづかやまよんちょうめ","lat":34.617649,"lng":135.499051,"prefecture":27,"numbering":[{"index":"08"}],"lines":[99628],"attr":"heat","postal_code":"558-0053","address":"大阪市住吉区帝塚山中５-２９"},
    {"code":9962809,"id":"60584d","name":"神ノ木","name_kana":"かみのき","lat":34.615844,"lng":135.496957,"prefecture":27,"numbering":[{"index":"09"}],"lines":[99628],"attr":"heat","postal_code":"558-0045","address":"大阪市住吉区住吉１"},
    {"code":9962810,"id":"cf6ec9","name":"住吉(大阪)","name_kana":"すみよし","lat":34.61448,"lng":135.491846,"prefecture":27,"numbering":[{"index":"10"}],"lines":[99628,99629],"attr":"cool","postal_code":"558-0045","address":"大阪市住吉区住吉２"},
    {"code":9962811,"id":"c9912d","name":"住吉公園","name_kana":"すみよしこうえん","closed":true,"lat":34.613086,"lng":135.490541,"prefecture":27,"numbering":[{"index":"11"}],"lines":[99628],"attr":"unknown","postal_code":"558-0044","address":"大阪市住吉区長峡町１００"}
  ],
  "north":34.64644,
  "south":34.61292,
  "east":135.51306,
  "west":135.4906,
  "polyline_list":[
    {
      "start":"住吉",
      "end":"天王寺駅前",
      "lat":34.61292,
      "lng":135.4906,
      "delta_lat":[0,58,11,19,3,11,16,2,2,3,4,36,56,5,26,21,7,2,13,6,3,8,3,0,-2,-1,-8,0,-3,0,-1,0,-5,-6,-1,-2,0,3,4,1,1,6,9,14,15,17,8,13,29,29,77,34,186,13,38,49,88,178,3,34,154,132,34,24,63,16,16,20,71,186,92,31,29,36,70,23,21,73,11,39,72,116,121,138,48,96,36,8,19,27,112,51,24,164,38,6],
      "delta_lng":[0,17,5,18,7,18,38,8,9,10,7,20,35,3,19,19,10,3,21,17,9,28,18,32,20,6,39,9,6,7,1,1,13,21,7,4,30,41,76,6,9,24,34,31,15,14,4,8,10,14,47,22,107,8,20,32,62,124,2,24,112,95,24,18,44,13,9,13,36,102,46,16,15,19,35,10,9,27,5,15,27,36,33,44,14,29,11,2,6,9,30,14,5,42,9,3]
    }
  ]
}