{
  "code":99621,
  "name":"OsakaMetro中央線",
  "color":"#019A66",
  "symbol":"C",
  "station_list":[
    {"code":9962101,"id":"fdd04a","name":"コスモスクエア","name_kana":"こすもすくえあ","lat":34.642888,"lng":135.412472,"prefecture":27,"numbering":[{"index":"10"}],"lines":[99621,99625],"attr":"cool","postal_code":"559-0034","address":"大阪市住之江区南港北１-３０-２１"},
    {"code":9962102,"id":"c8d7e7","name":"大阪港","name_kana":"おおさかこう","lat":34.65388,"lng":135.434336,"prefecture":27,"numbering":[{"index":"11"}],"lines":[99621],"attr":"cool","postal_code":"552-0021","address":"大阪市港区築港３-５-９"},
    {"code":9962103,"id":"5de5b8","name":"朝潮橋","name_kana":"あさしおばし","lat":34.661035,"lng":135.448863,"prefecture":27,"numbering":[{"index":"12"}],"lines":[99621],"attr":"cool","postal_code":"552-0005","address":"大阪市港区田中３-１-４"},
    {"code":1162306,"id":"c54e71","name":"弁天町","name_kana":"べんてんちょう","lat":34.669403,"lng":135.462348,"prefecture":27,"numbering":[{"index":"13"}],"lines":[11623,99621],"attr":"heat","postal_code":"552-0001","address":"大阪市港区波除３丁目"},
    {"code":3500208,"id":"489ddb","name":"九条(大阪)","name_kana":"くじょう","lat":34.673412,"lng":135.474483,"prefecture":27,"numbering":[{"index":"14"}],"lines":[35002,99621],"attr":"eco","postal_code":"550-0027","address":"大阪市西区九条２-３-２"},
    {"code":9962106,"id":"815913","name":"阿波座","name_kana":"あわざ","lat":34.681483,"lng":135.486297,"prefecture":27,"numbering":[{"index":"15"}],"lines":[99621,99622],"attr":"cool","postal_code":"550-0005","address":"大阪市西区西本町３-１-２３"},
    {"code":9961808,"id":"8a0ae5","name":"本町","name_kana":"ほんまち","lat":34.681936,"lng":135.498982,"prefecture":27,"numbering":[{"index":"16"}],"lines":[99618,99620,99621],"attr":"eco","postal_code":"541-0055","address":"大阪市中央区船場中央４-１-６"},
    {"code":9962108,"id":"2f44e2","name":"堺筋本町","name_kana":"さかいすじほんまち","lat":34.681867,"lng":135.506912,"prefecture":27,"numbering":[{"index":"17"}],"lines":[99621,99623],"attr":"eco","postal_code":"541-0055","address":"大阪市中央区船場中央１-４-１６"},
    {"code":9961913,"id":"2bf5f4","name":"谷町四丁目","name_kana":"たにまちよんちょうめ","lat":34.681914,"lng":135.517253,"prefecture":27,"numbering":[{"index":"18"}],"lines":[99619,99621],"attr":"eco","postal_code":"540-0012","address":"大阪市中央区谷町４-４-２１"},
    {"code":1162315,"id":"f4f805","name":"森ノ宮","name_kana":"もりのみや","lat":34.680412,"lng":135.533996,"prefecture":27,"numbering":[{"index":"19"}],"lines":[11623,99621,99624],"attr":"heat","postal_code":"540-0003","address":"大阪市中央区森ノ宮中央１丁目"},
    {"code":9962111,"id":"4f9f6c","name":"緑橋","name_kana":"みどりばし","lat":34.680756,"lng":135.545242,"prefecture":27,"numbering":[{"index":"20"}],"lines":[99621,99652],"attr":"eco","postal_code":"537-0021","address":"大阪市東成区東中本１-１４-１７"},
    {"code":9962112,"id":"94fb94","name":"深江橋","name_kana":"ふかえばし","lat":34.67909,"lng":135.557186,"prefecture":27,"numbering":[{"index":"21"}],"lines":[99621],"attr":"eco","postal_code":"537-0001","address":"大阪市東成区深江北１-１-２１"},
    {"code":9962113,"id":"d4d21a","name":"高井田(OsakaMetro)","name_kana":"たかいだ","lat":34.678747,"lng":135.573113,"prefecture":27,"numbering":[{"index":"22"}],"lines":[99621],"attr":"eco","postal_code":"582-0015","address":"大阪府柏原市高井田687-3"},
    {"code":3102301,"id":"72cb52","name":"長田(大阪)","name_kana":"ながた","lat":34.678747,"lng":135.591919,"prefecture":27,"numbering":[{"index":"23"}],"lines":[31023,99621],"attr":"heat","postal_code":"577-0013","address":"東大阪市長田中２-２１-２"}
  ],
  "north":34.68202,
  "south":34.64243,
  "east":135.59282,
  "west":135.41182,
  "polyline_list":[
    {
      "start":"コスモスクエア",
      "end":"長田",
      "lat":34.64243,
      "lng":135.41182,
      "delta_lat":[0,29,52,29,30,16,18,21,24,72,85,90,59,151,6,125,88,27,80,5,116,1,19,15,8,39,31,42,123,44,10,2,23,33,31,16,18,25,40,9,15,38,21,33,16,119,11,25,83,4,159,27,24,20,13,17,104,32,20,16,34,37,5,8,47,19,29,26,5,6,10,2,44,28,37,26,103,8,93,55,63,9,94,4,100,4,150,73,52,37,18,20,11,12,22,25,79,24,11,5,4,9,18,27,5,-3,3,6,7,-1,-1,-9,-2,-5,-2,-7,-20,-9,0,-14,-2,-2,0,4,4,7,3,2,4,-4,-2,-1,-2,-2,-2,-7,-8,-16,-14,-8,-28,-34,-58,-35,-20,-5,-56,-6,-2,-1,0,-8,-3,-2,6,1,5,26,18,8,7,3,-3,-6,-2,-2,-3,-3,0,-5,-3,0,0],
      "delta_lng":[0,80,142,85,74,40,38,36,44,111,140,146,91,238,11,199,144,53,208,10,304,5,49,36,23,97,76,108,310,111,25,8,58,87,74,43,47,61,101,21,20,42,19,23,11,77,7,16,56,1,101,26,25,34,31,50,306,100,61,43,102,102,18,19,138,55,89,76,14,16,27,5,115,57,57,41,115,11,120,84,99,13,144,6,140,5,188,90,68,54,29,37,22,36,77,98,310,116,63,47,51,147,255,421,49,68,59,39,32,241,63,506,45,177,165,151,415,166,12,198,60,24,84,196,30,291,89,53,108,257,220,84,173,260,91,76,70,125,117,54,225,246,460,266,160,37,434,54,54,18,63,297,220,163,69,20,27,140,101,44,51,65,155,172,72,90,160,188,29,225,169,246,171]
    }
  ]
}