{
  "code":99629,
  "name":"阪堺電軌阪堺線",
  "symbol":"HN",
  "station_list":[
    {"code":9962308,"id":"c3a4ad","name":"恵美須町","name_kana":"えびすちょう","lat":34.65508,"lng":135.505575,"prefecture":27,"numbering":[{"index":"51"}],"lines":[99623,99629],"attr":"cool","postal_code":"556-0005","address":"大阪市浪速区日本橋５-５-１５"},
    {"code":9962902,"id":"84d9c0","name":"新今宮駅前","name_kana":"しんいまみやえきまえ","lat":34.649529,"lng":135.503333,"prefecture":27,"numbering":[{"index":"52"}],"lines":[99629],"attr":"cool","postal_code":"557-0004","address":"大阪市西成区萩之茶屋１-１-６"},
    {"code":9962903,"id":"362d51","name":"今池(大阪)","name_kana":"いまいけ","lat":34.645704,"lng":135.502339,"prefecture":27,"numbering":[{"index":"53"}],"lines":[99629],"attr":"cool","postal_code":"557-0004","address":"大阪市西成区萩之茶屋２-２-７"},
    {"code":9962904,"id":"4c2876","name":"今船","name_kana":"いまふね","lat":34.642702,"lng":135.501611,"prefecture":27,"numbering":[{"index":"54"}],"lines":[99629],"attr":"cool","postal_code":"557-0003","address":"大阪市西成区天下茶屋北２"},
    {"code":9962905,"id":"9e0b15","name":"松田町","name_kana":"まつだちょう","lat":34.639197,"lng":135.500895,"prefecture":27,"numbering":[{"index":"55"}],"lines":[99629],"attr":"cool","postal_code":"557-0003","address":"大阪市西成区天下茶屋北２-１"},
    {"code":9962906,"id":"c82dba","name":"北天下茶屋","name_kana":"きたてんがちゃや","lat":34.636511,"lng":135.500234,"prefecture":27,"numbering":[{"index":"56"}],"lines":[99629],"attr":"cool","postal_code":"557-0014","address":"大阪市西成区天下茶屋３-３-２１"},
    {"code":9962907,"id":"73e19a","name":"聖天坂","name_kana":"しょうてんさか","lat":34.632909,"lng":135.499423,"prefecture":27,"numbering":[{"index":"57"}],"lines":[99629],"attr":"cool","postal_code":"557-0042","address":"大阪市西成区岸里東１-５-２５"},
    {"code":9962908,"id":"3cc117","name":"天神ノ森","name_kana":"てんじんのもり","lat":34.629603,"lng":135.49799,"prefecture":27,"numbering":[{"index":"58"}],"lines":[99629],"attr":"cool","postal_code":"557-0042","address":"大阪市西成区岸里東２-４-２０"},
    {"code":9962909,"id":"4dbdf2","name":"東玉出","name_kana":"ひがしたまで","lat":34.626784,"lng":135.495926,"prefecture":27,"numbering":[{"index":"59"}],"lines":[99629],"attr":"cool","postal_code":"557-0043","address":"大阪市西成区玉出東２-２-３３"},
    {"code":9962910,"id":"d6b384","name":"塚西","name_kana":"つかにし","lat":34.623524,"lng":135.494651,"prefecture":27,"numbering":[{"index":"60"}],"lines":[99629],"attr":"cool","postal_code":"558-0051","address":"大阪市住吉区東粉浜１"},
    {"code":9962911,"id":"83726e","name":"東粉浜","name_kana":"ひがしこはま","lat":34.618133,"lng":135.492588,"prefecture":27,"numbering":[{"index":"61"}],"lines":[99629],"attr":"cool","postal_code":"558-0051","address":"大阪市住吉区東粉浜２"},
    {"code":9962810,"id":"cf6ec9","name":"住吉(大阪)","name_kana":"すみよし","lat":34.61448,"lng":135.491846,"prefecture":27,"numbering":[{"index":"10"}],"lines":[99628,99629],"attr":"cool","postal_code":"558-0045","address":"大阪市住吉区住吉２"},
    {"code":9962913,"id":"2287f1","name":"住吉鳥居前","name_kana":"すみよしとりいまえ","lat":34.612139,"lng":135.491093,"prefecture":27,"numbering":[{"index":"12"}],"lines":[99629],"attr":"cool","postal_code":"558-0045","address":"大阪市住吉区住吉２"},
    {"code":9962914,"id":"2c3cd6","name":"細井川","name_kana":"ほそいがわ","lat":34.609978,"lng":135.491221,"prefecture":27,"numbering":[{"index":"13"}],"lines":[99629],"attr":"cool","postal_code":"558-0043","address":"大阪市住吉区墨江１"},
    {"code":9962915,"id":"2efeab","name":"安立町","name_kana":"あんりゅうまち","lat":34.605706,"lng":135.490188,"prefecture":27,"numbering":[{"index":"14"}],"lines":[99629],"attr":"cool","postal_code":"558-0043","address":"大阪市住吉区墨江３-１１５"},
    {"code":9962916,"id":"0f4dd6","name":"我孫子道","name_kana":"あびこみち","lat":34.600379,"lng":135.488833,"prefecture":27,"numbering":[{"index":"15"}],"lines":[99629],"attr":"cool","postal_code":"558-0033","address":"大阪市住吉区清水丘３-８２"},
    {"code":9962917,"id":"947cd3","name":"大和川","name_kana":"やまとがわ","lat":34.594721,"lng":135.486764,"prefecture":27,"numbering":[{"index":"16"}],"lines":[99629],"attr":"heat","postal_code":"590-0001","address":"堺市堺区遠里小野町１丁"},
    {"code":9962918,"id":"d4b832","name":"高須神社","name_kana":"たかすじんしゃ","lat":34.590488,"lng":135.485184,"prefecture":27,"numbering":[{"index":"17"}],"lines":[99629],"attr":"heat","postal_code":"590-0003","address":"堺市堺区高須町１丁"},
    {"code":9962919,"id":"0b88c2","name":"綾ノ町","name_kana":"あやのちょう","lat":34.587941,"lng":135.48315,"prefecture":27,"numbering":[{"index":"18"}],"lines":[99629],"attr":"heat","postal_code":"590-0931","address":"堺市堺区錦之町西１丁"},
    {"code":9962920,"id":"7ce02e","name":"神明町","name_kana":"しんめいちょう","lat":34.585277,"lng":135.48012,"prefecture":27,"numbering":[{"index":"19"}],"lines":[99629],"attr":"heat","postal_code":"590-0000","address":"堺市堺区神明町西１丁"},
    {"code":9962921,"id":"59dc4d","name":"妙国寺前","name_kana":"みょうこくじまえ","lat":34.583444,"lng":135.478426,"prefecture":27,"numbering":[{"index":"20"}],"lines":[99629],"attr":"heat","postal_code":"590-0936","address":"堺市堺区宿屋町東１丁"},
    {"code":9962922,"id":"6c2af4","name":"花田口","name_kana":"はなたぐち","lat":34.581519,"lng":135.476651,"prefecture":27,"numbering":[{"index":"21"}],"lines":[99629],"attr":"heat","postal_code":"590-0943","address":"堺市堺区車之町東１丁"},
    {"code":9962923,"id":"0cb3e3","name":"大小路","name_kana":"おおしょうじ","lat":34.579158,"lng":135.474448,"prefecture":27,"numbering":[{"index":"22"}],"lines":[99629],"attr":"heat","postal_code":"590-0946","address":"堺市堺区熊野町東１丁"},
    {"code":9962924,"id":"ffcd4e","name":"宿院","name_kana":"しゅくいん","lat":34.576439,"lng":135.47196,"prefecture":27,"numbering":[{"index":"23"}],"lines":[99629],"attr":"heat","postal_code":"590-0954","address":"堺市堺区大町東１丁"},
    {"code":9962925,"id":"cdd97d","name":"寺地町","name_kana":"てらぢちょう","lat":34.573637,"lng":135.469335,"prefecture":27,"numbering":[{"index":"24"}],"lines":[99629],"attr":"heat","postal_code":"590-0962","address":"堺市堺区寺地町東１丁"},
    {"code":9962926,"id":"ba418c","name":"御陵前","name_kana":"ごりょうまえ","lat":34.570639,"lng":135.466605,"prefecture":27,"numbering":[{"index":"25"}],"lines":[99629],"attr":"heat","postal_code":"590-0965","address":"堺市堺区南旅篭町東１丁"},
    {"code":9962927,"id":"ba6f90","name":"東湊","name_kana":"ひがしみなと","lat":34.564737,"lng":135.462522,"prefecture":27,"numbering":[{"index":"26"}],"lines":[99629],"attr":"eco","postal_code":"590-0827","address":"堺市堺区春日通１丁２"},
    {"code":9962931,"id":"67d0f7","name":"石津北","name_kana":"いしづきた","lat":34.560111,"lng":135.458806,"prefecture":27,"numbering":[{"index":"27"}],"lines":[99629],"attr":"eco","postal_code":"592-8334","address":"大阪府堺市西区浜寺石津町中1丁"},
    {"code":9962928,"id":"f2775f","name":"石津(大阪)","name_kana":"いしづ","lat":34.555444,"lng":135.455075,"prefecture":27,"numbering":[{"index":"28"}],"lines":[99629],"attr":"eco","postal_code":"592-8334","address":"堺市西区浜寺石津町中４丁１-１４"},
    {"code":9962929,"id":"756a8e","name":"船尾(大阪)","name_kana":"ふなお","lat":34.549914,"lng":135.450565,"prefecture":27,"numbering":[{"index":"29"}],"lines":[99629],"attr":"eco","postal_code":"592-8348","address":"堺市西区浜寺諏訪森町中２丁"},
    {"code":9962930,"id":"b22a44","name":"浜寺駅前","name_kana":"はまでらえきまえ","lat":34.541418,"lng":135.44316,"prefecture":27,"numbering":[{"index":"31"}],"lines":[99629],"attr":"eco","postal_code":"592-8346","address":"堺市西区浜寺公園町２丁"}
  ],
  "north":34.65388,
  "south":34.54132,
  "east":135.50503,
  "west":135.44338,
  "polyline_list":[
    {
      "start":"浜寺駅前",
      "end":"恵美須町",
      "lat":34.54132,
      "lng":135.44338,
      "delta_lat":[0,47,50,67,62,21,17,79,36,6,3,20,14,19,26,35,18,9,5,49,63,33,29,20,6,44,64,2,34,15,41,63,60,13,55,13,111,30,13,15,10,4,49,20,36,23,20,103,12,21,2,63,14,9,16,30,9,18,41,54,6,22,68,31,157,7,26,37,4,54,15,23,16,4,37,5,55,3,117,36,11,21,22,11,164,26,31,54,38,249,39,239,40,234,36,230,30,159,36,150,32,91,87,21,10,7,15,10,11,16,18,29,134,61,2,7,31,32,26,45,56,15,16,73,5,9,38,66,24,74,5,1,72,12,21,54,34,56,18,56,71,63,78,67,53,88,44,14,75,18,5,12,64,57,52,54,19,14,11,34,16,26,35,14,23,7,62,14,18,20,25,26,18,18,28,23,19,18,100,50,15,20,12,40,338,38,4,314,172,1,44,289,40,7,6,3,6,46,53,30,38,48,72,24,17,26,28,38,132,51,96,42,13,129,40,202,73,40,70,187,52,43,87,89,35,11,51,145,39,47,63,44,47,168,174,28,42],
      "delta_lng":[0,30,31,46,48,15,12,59,33,8,6,31,20,27,33,38,16,7,4,40,51,26,24,16,5,35,52,2,27,13,31,49,48,11,43,11,90,24,10,14,6,4,40,15,30,21,15,84,10,14,4,49,14,6,12,26,7,13,36,42,4,19,56,25,126,7,22,29,4,44,12,18,14,2,33,2,44,1,95,28,9,11,9,6,73,16,24,51,34,233,35,226,35,216,34,210,31,147,32,143,30,81,80,18,16,29,70,37,19,23,12,16,52,21,0,3,12,11,10,16,20,5,7,26,0,4,14,24,9,25,1,2,25,5,6,21,11,21,8,19,25,20,20,16,14,22,12,3,20,5,1,3,16,14,13,14,5,4,2,9,4,8,8,2,7,2,14,3,1,-1,-8,-13,-7,-3,4,6,6,6,35,17,5,6,5,11,56,13,1,116,69,1,18,118,17,3,3,4,4,36,42,21,31,41,61,17,8,12,9,11,33,9,24,10,2,30,8,46,17,10,14,43,11,9,21,19,7,3,10,34,8,15,22,16,16,66,66,10,16]
    }
  ]
}