{
  "code":99623,
  "name":"OsakaMetro堺筋線",
  "color":"#814721",
  "symbol":"K",
  "station_list":[
    {"code":3400811,"id":"217d16","name":"天神橋筋六丁目","name_kana":"てんじんばしすじろくちょうめ","lat":34.710265,"lng":135.510757,"prefecture":27,"numbering":[{"index":"11"}],"lines":[34008,99619,99623],"attr":"cool","postal_code":"530-0022","address":"大阪市北区浪花町１４-２８"},
    {"code":9962302,"id":"764e08","name":"扇町(大阪)","name_kana":"おうぎまち","lat":34.703809,"lng":135.5108,"prefecture":27,"numbering":[{"index":"12"}],"lines":[99623],"attr":"heat","postal_code":"530-0041","address":"大阪市北区天神橋４-８-３"},
    {"code":9961911,"id":"ba73ad","name":"南森町","name_kana":"みなみもりまち","lat":34.697699,"lng":135.511078,"prefecture":27,"numbering":[{"index":"13"}],"lines":[99619,99623],"attr":"heat","postal_code":"530-0054","address":"大阪市北区南森町２-１-４"},
    {"code":3300139,"id":"41d964","name":"北浜(大阪)","name_kana":"きたはま","lat":34.691799,"lng":135.50683,"prefecture":27,"numbering":[{"index":"14"}],"lines":[33001,99623],"attr":"cool","postal_code":"541-0041","address":"大阪市中央区北浜１-８-１６"},
    {"code":9962108,"id":"2f44e2","name":"堺筋本町","name_kana":"さかいすじほんまち","lat":34.681867,"lng":135.506912,"prefecture":27,"numbering":[{"index":"15"}],"lines":[99621,99623],"attr":"eco","postal_code":"541-0055","address":"大阪市中央区船場中央１-４-１６"},
    {"code":9962306,"id":"24f1be","name":"長堀橋","name_kana":"ながほりばし","lat":34.674645,"lng":135.506357,"prefecture":27,"numbering":[{"index":"16"}],"lines":[99623,99624],"attr":"cool","postal_code":"542-0082","address":"大阪市中央区島之内１-１８-９"},
    {"code":9962207,"id":"d74337","name":"日本橋(大阪)","name_kana":"にっぽんばし","lat":34.667146,"lng":135.506635,"prefecture":27,"numbering":[{"index":"17"}],"lines":[99622,99623],"attr":"cool","postal_code":"542-0073","address":"大阪市中央区日本橋１-５-１２"},
    {"code":9962308,"id":"c3a4ad","name":"恵美須町","name_kana":"えびすちょう","lat":34.65508,"lng":135.505575,"prefecture":27,"numbering":[{"index":"18"}],"lines":[99623,99629],"attr":"cool","postal_code":"556-0005","address":"大阪市浪速区日本橋５-５-１５"},
    {"code":9961812,"id":"422405","name":"動物園前","name_kana":"どうぶつえんまえ","lat":34.648815,"lng":135.504413,"prefecture":27,"numbering":[{"index":"19"}],"lines":[99618,99623],"attr":"cool","postal_code":"557-0002","address":"大阪市西成区太子１-６-１２"},
    {"code":3200103,"id":"0d8697","name":"天下茶屋","name_kana":"てんがちゃや","lat":34.636847,"lng":135.496673,"prefecture":27,"numbering":[{"index":"20"}],"lines":[32001,32007,99623],"attr":"cool","postal_code":"557-0041","address":"大阪市西成区岸里１-１-１０"}
  ],
  "north":34.71094,
  "south":34.63638,
  "east":135.51103,
  "west":135.4968,
  "polyline_list":[
    {
      "start":"天下茶屋",
      "end":"天神橋筋六丁目",
      "lat":34.63638,
      "lng":135.4968,
      "delta_lat":[0,131,18,271,104,28,24,28,75,36,30,29,18,75,28,2,16,16,48,79,179,7,78,184,188,109,32,35,49,34,117,170,188,191,55,132,119,137,51,61,181,363,177,44,551,33,30,163,414,194,101,56,31,29,30,16,17,19,13,19,44,27,31,35,47,31,48,43,40,73,47,123,196,228,157,286,132,204,11],
      "delta_lng":[0,35,3,76,30,13,14,22,64,38,36,44,30,120,41,3,14,5,12,19,58,2,26,60,60,37,9,8,7,2,5,9,8,9,2,3,8,5,1,0,1,11,3,1,11,-1,0,4,4,3,1,2,4,10,18,13,15,20,18,47,108,51,36,34,33,10,22,5,1,-2,-1,-1,-5,-8,-2,-6,-1,-3,0]
    }
  ]
}