{
  "code":99620,
  "name":"OsakaMetro四つ橋線",
  "color":"#0078BA",
  "symbol":"Y",
  "station_list":[
    {"code":9962001,"id":"70f174","name":"西梅田","name_kana":"にしうめだ","lat":34.699642,"lng":135.495802,"prefecture":27,"numbering":[{"index":"11"}],"lines":[99620],"attr":"eco","postal_code":"530-0001","address":"大阪市北区梅田２-２-２５"},
    {"code":9962002,"id":"a67fb9","name":"肥後橋","name_kana":"ひごばし","lat":34.691355,"lng":135.496388,"prefecture":27,"numbering":[{"index":"12"}],"lines":[99620],"attr":"eco","postal_code":"550-0002","address":"大阪市西区江戸堀１-１３-１８"},
    {"code":9961808,"id":"8a0ae5","name":"本町","name_kana":"ほんまち","lat":34.681936,"lng":135.498982,"prefecture":27,"numbering":[{"index":"13"}],"lines":[99618,99620,99621],"attr":"eco","postal_code":"541-0055","address":"大阪市中央区船場中央４-１-６"},
    {"code":9962004,"id":"e26190","name":"四ツ橋","name_kana":"よつばし","lat":34.674112,"lng":135.496783,"prefecture":27,"numbering":[{"index":"14"}],"lines":[99620],"attr":"eco","postal_code":"550-0014","address":"大阪市西区北堀江１-１-２９"},
    {"code":9961810,"id":"b02e7f","name":"なんば","name_kana":"なんば","lat":34.666316,"lng":135.500277,"prefecture":27,"numbering":[{"index":"15"}],"lines":[99618,99620,99622],"attr":"eco","postal_code":"542-0076","address":"大阪市中央区難波１-９-７"},
    {"code":9961811,"id":"01b198","name":"大国町","name_kana":"だいこくちょう","lat":34.656075,"lng":135.4978,"prefecture":27,"numbering":[{"index":"16"}],"lines":[99618,99620],"attr":"eco","postal_code":"556-0012","address":"大阪市浪速区敷津東３-１１-１０"},
    {"code":9962007,"id":"cef0b6","name":"花園町","name_kana":"はなぞのちょう","lat":34.644371,"lng":135.496636,"prefecture":27,"numbering":[{"index":"17"}],"lines":[99620],"attr":"heat","postal_code":"557-0032","address":"大阪市西成区旭１-５-２"},
    {"code":9962008,"id":"35043b","name":"岸里","name_kana":"きしのさと","lat":34.634372,"lng":135.493859,"prefecture":27,"numbering":[{"index":"18"}],"lines":[99620],"attr":"heat","postal_code":"557-0041","address":"大阪市西成区岸里１-５-１５"},
    {"code":9962009,"id":"e2881c","name":"玉出","name_kana":"たまで","lat":34.624096,"lng":135.490527,"prefecture":27,"numbering":[{"index":"19"}],"lines":[99620],"attr":"heat","postal_code":"559-0007","address":"大阪市住之江区粉浜西１-１-１"},
    {"code":9962010,"id":"1ce34f","name":"北加賀屋","name_kana":"きたかがや","lat":34.621318,"lng":135.478861,"prefecture":27,"numbering":[{"index":"20"}],"lines":[99620],"attr":"cool","postal_code":"559-0011","address":"大阪市住之江区北加賀屋２-１１-２"},
    {"code":9962011,"id":"127011","name":"住之江公園","name_kana":"すみのえこうえん","lat":34.609269,"lng":135.471879,"prefecture":27,"numbering":[{"index":"21"}],"lines":[99620,99625],"attr":"cool","postal_code":"559-0023","address":"大阪市住之江区泉１-１"}
  ],
  "north":34.70032,
  "south":34.60816,
  "east":135.49802,
  "west":135.47307,
  "polyline_list":[
    {
      "start":"住ノ江公園",
      "end":"西梅田",
      "lat":34.60816,
      "lng":135.47307,
      "delta_lat":[0,141,5,163,103,135,145,43,53,39,37,86,130,79,52,21,26,39,2,29,37,33,2,0,-2,-2,6,16,24,23,23,5,36,127,11,94,60,49,58,135,230,242,137,176,98,140,83,210,155,141,4,230,56,61,172,58,78,48,189,137,211,206,177,35,104,40,186,48,12,12,161,3,43,108,29,41,51,137,179,174,103,101,131,63,68,91,110,47,159,109,243,76,53,227,118,94,130,45,185,32,22,168,176],
      "delta_lng":[0,8,0,11,5,5,8,6,12,12,18,45,64,40,28,25,37,214,9,162,212,187,36,85,195,124,39,30,37,31,19,3,18,34,3,25,13,14,15,47,90,86,41,49,26,42,21,63,38,32,1,46,16,10,19,5,4,4,8,4,-4,0,6,4,5,3,-1,1,0,-4,-80,-1,-19,-39,-8,-11,-10,13,23,16,9,4,0,-2,-7,-2,2,5,-2,2,-7,-4,-7,-30,-13,-17,-24,-10,-35,-5,2,16,14]
    }
  ]
}