{
  "code":99622,
  "name":"OsakaMetro千日前線",
  "color":"#E44D93",
  "symbol":"S",
  "station_list":[
    {"code":9962201,"id":"3812a8","name":"野田阪神","name_kana":"のだはんしん","lat":34.694384,"lng":135.476031,"prefecture":27,"numbering":[{"index":"11"}],"lines":[99622],"attr":"cool","postal_code":"553-0007","address":"大阪市福島区大開１-１４-１８","next":[9962202,3500103,1162308,1162506],"voronoi":{"lat":34.69214,"lng":135.473591,"delta_lat":[0,-198,175,3068],"delta_lng":[0,883,5363,-5079]}},
    {"code":9962202,"id":"a9e67d","name":"玉川(大阪)","name_kana":"たまがわ","lat":34.689607,"lng":135.476187,"prefecture":27,"numbering":[{"index":"12"}],"lines":[99622],"attr":"cool","postal_code":"553-0006","address":"大阪市福島区吉野３-１-５","next":[3300805,9962201,1162308,1162505,3500103,9962106],"voronoi":{"lat":34.682036,"lng":135.478422,"delta_lat":[0,9907,175,35,-862,-4319],"delta_lng":[0,-3948,5363,1333,485,732]}},
    {"code":9962106,"id":"815913","name":"阿波座","name_kana":"あわざ","lat":34.681483,"lng":135.486297,"prefecture":27,"numbering":[{"index":"13"}],"lines":[99621,99622],"attr":"cool","postal_code":"550-0005","address":"大阪市西区西本町３-１-２３","next":[9962002,9962404,1162308,3300805,3500208,9961808,9962202,9962402,9962204],"voronoi":{"lat":34.677475,"lng":135.480744,"delta_lat":[0,427,3267,867,4936,-1010,-740,-3502,-2824],"delta_lng":[0,-664,-2233,575,3965,9403,724,125,-2344]}},
    {"code":9962204,"id":"e50668","name":"西長堀","name_kana":"にしながほり","lat":34.675256,"lng":135.487223,"prefecture":27,"numbering":[{"index":"14"}],"lines":[99622,99624],"attr":"cool","postal_code":"550-0014","address":"大阪市西区北堀江３-１２-２０","next":[9962404,9962402,9962106,3500210],"voronoi":{"lat":34.672193,"lng":135.483788,"delta_lat":[0,5281,1421,-7316],"delta_lng":[0,-3043,9551,214]}},
    {"code":3500210,"id":"5fff2f","name":"桜川(大阪)","name_kana":"さくらがわ","lat":34.668559,"lng":135.486612,"prefecture":27,"numbering":[{"index":"15"}],"lines":[35002,99622],"attr":"cool","postal_code":"556-0021","address":"大阪市浪速区幸町２-３-７","next":[1160722,9962404,9962402,3200901,9962204],"voronoi":{"lat":34.672193,"lng":135.483788,"delta_lat":[0,-2467,-3665,4359,1159],"delta_lng":[0,-753,7552,1068,-1145]}},
    {"code":9961810,"id":"b02e7f","name":"なんば","name_kana":"なんば","lat":34.666316,"lng":135.500277,"prefecture":27,"numbering":[{"index":"16"}],"lines":[99618,99620,99622],"attr":"eco","postal_code":"542-0076","address":"大阪市中央区難波１-９-７","next":[3100101,1160722,9961809,3100102,3200101],"voronoi":{"lat":34.662856,"lng":135.497685,"delta_lat":[0,1015,6780,0,-4496],"delta_lng":[0,24,4770,109,514]}},
    {"code":9962207,"id":"d74337","name":"日本橋(大阪)","name_kana":"にっぽんばし","lat":34.667146,"lng":135.506635,"prefecture":27,"numbering":[{"index":"17"}],"lines":[99622,99623],"attr":"cool","postal_code":"542-0073","address":"大阪市中央区日本橋１-５-１２","next":[9962306,3100102,9961915,9962407,9962308,9961916],"voronoi":{"lat":34.66093,"lng":135.50819,"delta_lat":[0,44,9878,173,-879,-6579],"delta_lng":[0,-499,-2382,4654,1255,0]}},
    {"code":9961915,"id":"5d963a","name":"谷町九丁目","name_kana":"たにまちきゅうちょうめ","lat":34.667146,"lng":135.515801,"prefecture":27,"numbering":[{"index":"18"}],"lines":[99619,99622],"attr":"heat","postal_code":"543-0072","address":"大阪市天王寺区生玉前町１-２４","next":[9962207,9961916,9962407,3100103,9961914],"voronoi":{"lat":34.662263,"lng":135.517955,"delta_lat":[0,1304,6579,1196,-836],"delta_lng":[0,-6737,0,2988,5856]}},
    {"code":1162317,"id":"14945a","name":"鶴橋","name_kana":"つるはし","lat":34.665264,"lng":135.530133,"prefecture":27,"numbering":[{"index":"19"}],"lines":[11623,31005,99622],"attr":"cool","postal_code":"543-0025","address":"大阪市天王寺区下味原町","next":[1162318,1162316,3100103,9962210],"voronoi":{"lat":34.667563,"lng":135.537056,"delta_lat":[0,3575,-8320,-4284],"delta_lng":[0,-10714,-261,13116]}},
    {"code":9962210,"id":"84c8ba","name":"今里(OsakaMetro)","name_kana":"いまざと","lat":34.668617,"lng":135.544274,"prefecture":27,"numbering":[{"index":"20"}],"lines":[99622,99652],"attr":"heat","postal_code":"537-0012","address":"大阪市東成区大今里三丁目15-18","next":[9962211,3100105,1162318,1162316,1162317,9962111],"voronoi":{"lat":34.675042,"lng":135.540305,"delta_lat":[0,-7478,-9029,-1813,12960,4640],"delta_lng":[0,-3250,2141,1126,8795,222]}},
    {"code":9962211,"id":"a02501","name":"新深江","name_kana":"しんふかえ","lat":34.668158,"lng":135.553836,"prefecture":27,"numbering":[{"index":"21"}],"lines":[99622],"attr":"heat","postal_code":"537-0003","address":"大阪市東成区神路４-１２-１６","next":[9962210,9962212,9962112,3100105,3100106,9962111],"voronoi":{"lat":34.67191,"lng":135.561106,"delta_lat":[0,-5736,-1817,5325,4640,824],"delta_lng":[0,-2409,-5000,-4579,222,1208]}},
    {"code":9962212,"id":"11c34f","name":"小路","name_kana":"しょうじ","lat":34.661531,"lng":135.556245,"prefecture":27,"numbering":[{"index":"22"}],"lines":[99622],"attr":"heat","postal_code":"544-0003","address":"大阪市生野区小路東２-１１-１４","next":[9962211,9962213,3100106,3100105],"voronoi":{"lat":34.666173,"lng":135.558696,"delta_lat":[0,-9903,1760,6326],"delta_lng":[0,3488,-11744,3256]}},
    {"code":9962213,"id":"6174fb","name":"北巽","name_kana":"きたたつみ","lat":34.652982,"lng":135.554964,"prefecture":27,"numbering":[{"index":"23"}],"lines":[99622],"attr":"heat","postal_code":"544-0014","address":"大阪市生野区巽東１-１-３９","next":[3100105,1160718,9962214,9962212,3100106,1162318,1164105,3100505],"voronoi":{"lat":34.646848,"lng":135.561563,"delta_lat":[0,3290,1920,1978,3995,-1760,-991,-25],"delta_lng":[0,-19197,-1669,399,9345,11744,1287,8]}},
    {"code":9962214,"id":"be557e","name":"南巽","name_kana":"みなみたつみ","lat":34.643261,"lng":135.553298,"prefecture":27,"numbering":[{"index":"24"}],"lines":[99622],"attr":"heat","postal_code":"544-0014","address":"大阪市生野区巽東２-１９-２７","next":[9962213,1164105,1164108,1160717,1160718],"voronoi":{"lat":34.650138,"lng":135.542366,"delta_lat":[0,-3290,-1058,-9562,1634],"delta_lng":[0,19197,393,-3433,-12033]}}
  ],
  "north":34.6949,
  "south":34.64184,
  "east":135.55684,
  "west":135.47486,
  "polyline_list":[
    {
      "start":"南巽",
      "end":"野田阪神",
      "lat":34.64184,
      "lng":135.55289,
      "delta_lat":[0,60,43,94,184,220,220,195,253,226,76,150,116,226,106,47,31,130,117,35,38,36,22,7,5,2,-10,-8,-43,-9,3,10,57,49,16,4,-4,-5,-33,-56,-126,-35,-7,-4,-14,-5,-6,0,0,4,2,0,-4,-2,2,6,18,3,34,4,11,3,3,12,5,4,5,8,2,3,5,4,0,7,6,36,18,18,8,16,3,0,2,2,5,18,18,22,40,43,10,27,57,172,56,159,144,51,49,45,187,138,159,96,87,45,17,7,7,12,28,34,7,22,13,23,129,44,11,15,14,154,123,18,15,31,136,156],
      "delta_lng":[0,21,10,16,30,40,39,35,40,45,16,19,15,24,7,4,3,13,15,3,-5,-22,-25,-27,-29,-38,-234,-79,-294,-47,-26,-48,-228,-182,-75,-26,-27,-30,-101,-166,-400,-106,-36,-100,-179,-69,-78,-236,-25,-184,-97,-57,-136,-61,-75,-58,-176,-45,-284,-38,-146,-69,-196,-344,-163,-109,-192,-252,-38,-79,-60,-40,-2,-58,-69,-201,-159,-174,-72,-165,-50,-46,-31,-34,-29,-37,-26,-20,-14,-8,0,0,7,24,8,20,21,1,2,-7,-49,-30,-53,-34,-36,-22,-10,-8,-13,-25,-105,-135,-21,-68,-31,-47,-225,-80,-16,-17,-14,-107,-87,-8,-1,2,-2,2]
    }
  ]
}