{
  "code":99625,
  "name":"OsakaMetro南港ポートタウン線",
  "color":"#00A0DE",
  "symbol":"P",
  "station_list":[
    {"code":9962101,"id":"fdd04a","name":"コスモスクエア","name_kana":"こすもすくえあ","lat":34.642888,"lng":135.412472,"prefecture":27,"numbering":[{"index":"09"}],"lines":[99621,99625],"attr":"cool","postal_code":"559-0034","address":"大阪市住之江区南港北１-３０-２１"},
    {"code":9962502,"id":"b1193d","name":"トレードセンター前","name_kana":"とれーどせんたーまえ","lat":34.63865,"lng":135.412336,"prefecture":27,"numbering":[{"index":"10"}],"lines":[99625],"attr":"cool","postal_code":"559-0034","address":"大阪市住之江区南港北１-１４-７２"},
    {"code":9962503,"id":"4ad39e","name":"中ふ頭","name_kana":"なかふとう","lat":34.634091,"lng":135.417416,"prefecture":27,"numbering":[{"index":"11"}],"lines":[99625],"attr":"cool","postal_code":"559-0033","address":"大阪市住之江区南港中５-３-４８"},
    {"code":9962504,"id":"ecf13b","name":"ポートタウン西","name_kana":"ぽーとたうんにし","lat":34.630899,"lng":135.422777,"prefecture":27,"numbering":[{"index":"12"}],"lines":[99625],"attr":"cool","postal_code":"559-0033","address":"大阪市住之江区南港中３-２-６８"},
    {"code":9962505,"id":"d82372","name":"ポートタウン東","name_kana":"ぽーとたうんひがし","lat":34.630882,"lng":135.429085,"prefecture":27,"numbering":[{"index":"13"}],"lines":[99625],"attr":"cool","postal_code":"559-0033","address":"大阪市住之江区南港中２-１-１４"},
    {"code":9962506,"id":"8b1b53","name":"フェリーターミナル","name_kana":"ふぇりーたーみなる","lat":34.619253,"lng":135.434962,"prefecture":27,"numbering":[{"index":"14"}],"lines":[99625],"attr":"heat","postal_code":"559-0031","address":"大阪市住之江区南港東４-８-５２"},
    {"code":9962507,"id":"aa910c","name":"南港東","name_kana":"なんこうひがし","lat":34.613826,"lng":135.438607,"prefecture":27,"numbering":[{"index":"15"}],"lines":[99625],"attr":"heat","postal_code":"559-0031","address":"大阪市住之江区南港東２-４-５２"},
    {"code":9962508,"id":"3d57de","name":"南港口","name_kana":"なんこうぐち","lat":34.613826,"lng":135.445959,"prefecture":27,"numbering":[{"index":"16"}],"lines":[99625],"attr":"heat","postal_code":"559-0031","address":"大阪市住之江区南港東１-７-６９"},
    {"code":9962509,"id":"3d6460","name":"平林(大阪)","name_kana":"ひらばやし","lat":34.610683,"lng":135.458585,"prefecture":27,"numbering":[{"index":"17"}],"lines":[99625],"attr":"eco","postal_code":"559-0025","address":"大阪市住之江区平林南１-２"},
    {"code":9962011,"id":"127011","name":"住之江公園","name_kana":"すみのえこうえん","lat":34.609269,"lng":135.471879,"prefecture":27,"numbering":[{"index":"18"}],"lines":[99620,99625],"attr":"cool","postal_code":"559-0023","address":"大阪市住之江区泉１-１"}
  ],
  "north":34.64272,
  "south":34.60919,
  "east":135.47267,
  "west":135.40971,
  "polyline_list":[
    {
      "start":"住ノ江公園",
      "end":"コスモスクエア",
      "lat":34.60919,
      "lng":135.47267,
      "delta_lat":[0,14,1,3,8,3,12,2,1,4,16,1,1,6,12,2,5,11,1,6,4,2,9,4,2,6,8,7,4,7,4,5,16,2,6,5,0,11,34,11,16,8,5,4,25,1,22,8,16,2,7,1,2,3,1,6,20,17,26,13,2,3,-2,-1,0,1,7,7,6,7,26,32,432,63,729,52,4,106,31,94,43,15,16,9,9,9,8,3,-2,0,2,0,-2,0,-4,-5,0,4,9,18,25,28,42,20,50,93,51,9,14,13,94,24,101,104,73,51,56,73,17,18,16,13,22,12,16,18,18,13,28,21,29],
      "delta_lng":[0,-122,-9,-25,-82,-34,-125,-26,-5,-52,-156,-11,-20,-43,-138,-12,-60,-105,-17,-53,-50,-18,-98,-22,-27,-62,-82,-46,-26,-35,-17,-16,-52,-8,-17,-16,-8,-30,-114,-32,-57,-24,-20,-9,-81,0,-70,-25,-53,-4,-20,-2,-7,-10,-3,-17,-69,-54,-90,-51,-17,-82,-87,-673,-79,-14,-29,-17,-11,-8,-24,-17,-166,-25,-282,-20,-2,-36,-10,-31,-17,-4,-10,-7,-15,-22,-32,-53,-76,-525,-27,-6,-74,-12,-74,-53,-31,-12,-20,-22,-22,-22,-28,-20,-51,-114,-56,-9,-15,-18,-104,-27,-114,-114,-82,-57,-60,-77,-18,-13,-10,-7,3,5,9,12,19,22,79,63,80]
    }
  ]
}