{
  "code":99630,
  "id":"36e304",
  "name":"神戸高速東西線",
  "name_kana":"こうべこうそくとうざいせん",
  "station_size":9,
  "company_code":203,
  "station_list":[
    {"code":9963001,"id":"3b382f","name":"三宮(神戸三宮)","name_kana":"さんのみや(こうべさんのみや)","lat":34.693507,"lng":135.195106,"prefecture":28,"numbering":[{"symbol":"HK","color":"#0000FF","index":"16"},{"symbol":"HS","color":"#0000FF","index":"32"}],"lines":[34001,35001,99630,99646,99648],"attr":"heat","postal_code":"650-0001","address":"神戸市中央区加納町４-２-１","next":[9964802,9964709,9964710,1160313],"voronoi":{"lat":34.693961,"lng":135.19049,"delta_lat":[0,-2123,1618,870],"delta_lng":[0,1667,7073,832]}},
    {"code":9963002,"id":"de216a","name":"花隈","name_kana":"はなくま","lat":34.686117,"lng":135.181524,"prefecture":28,"numbering":[{"symbol":"HK","color":"#0000FF","index":"17"}],"lines":[99630],"attr":"cool","postal_code":"650-0012","address":"神戸市中央区北長狭通６-３-５","next":[9964603,9964604,9964708,9963004],"voronoi":{"lat":34.687638,"lng":135.177537,"delta_lat":[0,3782,-3045,-5047],"delta_lng":[0,-812,6258,-499]}},
    {"code":1160314,"id":"ffc8f3","name":"元町(兵庫)","name_kana":"もとまち","lat":34.689602,"lng":135.187401,"prefecture":28,"numbering":[{"symbol":"HS","color":"#0000FF","index":"33"}],"lines":[11603,35001,99630],"attr":"eco","postal_code":"650-0014","address":"神戸市中央区元町高架通り","next":[1160313,9964709,9964708,9964603],"voronoi":{"lat":34.695239,"lng":135.189169,"delta_lat":[0,-9838,3017,8439],"delta_lng":[0,-942,-3280,3130]}},
    {"code":9963004,"id":"0e9006","name":"西元町","name_kana":"にしもとまち","lat":34.683897,"lng":135.17959,"prefecture":28,"numbering":[{"symbol":"HS","color":"#0000FF","index":"34"}],"lines":[99630],"attr":"cool","postal_code":"650-0022","address":"神戸市中央区元町通６-７-１１","next":[1160315,9964708,9964604,9963002,9964707],"voronoi":{"lat":34.683328,"lng":135.182485,"delta_lat":[0,4310,-5309,-1603,-317],"delta_lng":[0,-4947,-752,5203,1814]}},
    {"code":9963005,"id":"a00dff","name":"高速神戸","name_kana":"こうそくこうべ","lat":34.679362,"lng":135.174441,"prefecture":28,"numbering":[{"symbol":"HS","color":"#0000FF","index":"35"}],"lines":[99630],"attr":"eco","postal_code":"650-0015","address":"神戸市中央区多聞通３-３-１３","next":[9964706,9964605,9963006,9964604,1160315,9964707],"voronoi":{"lat":34.681959,"lng":135.17627,"delta_lat":[0,92,-2675,-6603,31,5194],"delta_lng":[0,-5585,63,4335,287,995]}},
    {"code":9963006,"id":"d9aa1c","name":"新開地","name_kana":"しんかいち","lat":34.675981,"lng":135.169291,"prefecture":28,"numbering":[{"symbol":"HS","color":"#0000FF","index":"36"}],"lines":[99630,99631],"attr":"eco","postal_code":"652-0811","address":"神戸市兵庫区新開地２-３","next":[9963007,9964605,9963102,9963005,9964706,1160802],"voronoi":{"lat":34.672773,"lng":135.175082,"delta_lat":[0,6603,-2692,-1922,-2018,-2857],"delta_lng":[0,-4335,-3867,-2129,1278,4759]}},
    {"code":9963007,"id":"dc1dc4","name":"大開","name_kana":"だいかい","lat":34.671179,"lng":135.161709,"prefecture":28,"numbering":[{"symbol":"HS","color":"#0000FF","index":"37"}],"lines":[99630],"attr":"eco","postal_code":"652-0802","address":"神戸市兵庫区水木通７-１","next":[9963006,9963008,9963102,9964606,1160802],"voronoi":{"lat":34.664668,"lng":135.158388,"delta_lat":[0,2998,8472,-1376,-2018],"delta_lng":[0,-1158,5196,2326,1278]}},
    {"code":9963008,"id":"d4587d","name":"高速長田","name_kana":"こうそくながた","lat":34.667254,"lng":135.151551,"prefecture":28,"numbering":[{"symbol":"HS","color":"#0000FF","index":"38"}],"lines":[99630],"attr":"heat","postal_code":"653-0016","address":"神戸市長田区北町１-２","next":[1160803,1160802,9964606,9963007,9964703,9963009,9964607],"voronoi":{"lat":34.66766,"lng":135.145958,"delta_lat":[0,-6447,-1409,2326,2537,2998,422],"delta_lng":[0,4214,2157,6269,-210,-1158,-374]}},
    {"code":9963009,"id":"9cdbe5","name":"西代","name_kana":"にしだい","lat":34.662374,"lng":135.144085,"prefecture":28,"numbering":[{"symbol":"HS","color":"#0000FF","index":"39"},{"symbol":"SY","color":"#FA2B08","index":"01"}],"lines":[99630,99637],"attr":"heat","postal_code":"653-0843","address":"神戸市長田区御屋敷通２-１１","next":[9963202,1160803,9964607,9963702,9963008,9963203],"voronoi":{"lat":34.673662,"lng":135.140998,"delta_lat":[0,-6001,-6447,-2488,15386,14],"delta_lng":[0,4959,4214,-10888,-3333,3430]}}
  ],
  "north":34.69359,
  "south":34.6621,
  "east":135.19342,
  "west":135.14356,
  "polyline_list":[
    {
      "start":"高速神戸",
      "end":"神戸三宮",
      "lat":34.68139,
      "lng":135.17792,
      "delta_lat":[0,52,31,45,51,56,33,23,42,49,98,5,45,46,87,76,26,18,14,13,40,58,77,72,67,7,89],
      "delta_lng":[0,15,2,5,13,18,16,16,41,57,114,7,57,58,112,98,50,59,59,66,94,118,140,117,96,9,113]
    },
    {
      "start":"高速神戸",
      "end":"元町",
      "lat":34.68139,
      "lng":135.17792,
      "delta_lat":[0,3,42,37,26,42,45,29,5,66,38,159,115,29,26,30,44,29],
      "delta_lng":[0,4,53,50,25,15,6,4,3,30,43,197,145,44,53,82,114,67]
    },
    {
      "start":"西代",
      "end":"高速神戸",
      "lat":34.6621,
      "lng":135.14356,
      "delta_lat":[0,60,60,334,18,11,12,6,25,9,8,5,5,9,18,3,3,6,6,6,8,65,104,141,40,150,112,141,52,37,18,11,26,35,163,5,49,38,130],
      "delta_lng":[0,86,86,513,26,23,20,15,54,23,24,32,35,101,222,25,22,20,22,18,12,91,149,209,62,232,169,222,93,62,29,16,26,37,294,10,79,63,214]
    }
  ]
}