{
  "code":99638,
  "name":"山陽電鉄網干線",
  "color":"#FA2B08",
  "symbol":"SY",
  "station_list":[
    {"code":9963740,"id":"3df978","name":"飾磨","name_kana":"しかま","lat":34.799748,"lng":134.675401,"prefecture":28,"numbering":[{"index":"40"}],"lines":[99637,99638],"attr":"cool","postal_code":"672-8051","address":"兵庫県姫路市飾磨区清水"},
    {"code":9963802,"id":"580272","name":"西飾磨","name_kana":"にししかま","lat":34.803045,"lng":134.651176,"prefecture":28,"numbering":[{"index":"51"}],"lines":[99638],"attr":"heat","postal_code":"672-8079","address":"姫路市飾磨区今在家４"},
    {"code":9963803,"id":"a911a1","name":"夢前川","name_kana":"ゆめさきがわ","lat":34.798695,"lng":134.639457,"prefecture":28,"numbering":[{"index":"52"}],"lines":[99638],"attr":"heat","postal_code":"671-1121","address":"姫路市広畑区東新町３"},
    {"code":9963804,"id":"2a3104","name":"広畑","name_kana":"ひろはた","lat":34.797736,"lng":134.62815,"prefecture":28,"numbering":[{"index":"53"}],"lines":[99638],"attr":"heat","postal_code":"671-1153","address":"姫路市広畑区高浜町１"},
    {"code":9963805,"id":"47d3d6","name":"山陽天満","name_kana":"さんようてんま","lat":34.796378,"lng":134.61741,"prefecture":28,"numbering":[{"index":"54"}],"lines":[99638],"attr":"eco","postal_code":"671-1131","address":"姫路市大津区天神町１"},
    {"code":9963806,"id":"479fe6","name":"平松","name_kana":"ひらまつ","lat":34.790751,"lng":134.601001,"prefecture":28,"numbering":[{"index":"55"}],"lines":[99638],"attr":"eco","postal_code":"671-1145","address":"姫路市大津区平松外開"},
    {"code":9963807,"id":"183a85","name":"山陽網干","name_kana":"さんようあぼし","lat":34.787002,"lng":134.587953,"prefecture":28,"numbering":[{"index":"56"}],"lines":[99638],"attr":"cool","postal_code":"671-1253","address":"姫路市網干区垣内中町１２-５"}
  ],
  "north":34.80477,
  "south":34.78674,
  "east":134.67581,
  "west":134.58778,
  "polyline_list":[
    {
      "start":"山陽網干",
      "end":"飾磨",
      "lat":34.78674,
      "lng":134.58778,
      "delta_lat":[0,37,41,128,7,22,57,13,24,57,28,32,10,144,351,25,11,17,55,21,21,7,2,3,4,0,-1,0,1,0,1,3,10,3,1,0,20,24,1,6,15,3,29,39,64,278,33,47,19,10,9,14,11,2,10,1,30,3,-1,-2,-11,-12,-11,-9,-4,-16,-1,-2,-25,-8,-14,-15,0,-5,-24,-12,-1,-1,-20,-2,-11,-9,-23,-7,0,-6,-6,-3,-20,-7,-5,-9,-13,-4,-114,-4,-27,-28,-2,-24],
      "delta_lng":[0,81,93,513,24,95,198,43,82,159,83,92,31,414,1021,74,34,48,163,66,93,41,16,34,44,395,83,113,2,514,248,56,65,14,1,7,76,73,4,14,39,11,70,95,166,713,85,134,59,42,46,120,115,12,114,12,343,65,65,30,69,42,33,24,15,36,6,1,56,20,27,34,2,9,53,28,4,3,44,5,22,22,52,15,2,14,10,6,47,15,11,20,30,8,257,10,60,74,5,69]
    }
  ]
}