{
  "code":99634,
  "name":"神鉄公園都市線",
  "color":"#CCCC33",
  "symbol":"KB",
  "station_list":[
    {"code":1162915,"id":"2a618f","name":"三田(兵庫)","name_kana":"さんだ","lat":34.888787,"lng":135.22979,"prefecture":28,"numbering":[{"index":"29"}],"lines":[11629,99633,99634],"attr":"heat","postal_code":"669-1528","address":"三田市駅前町１丁目"},
    {"code":9963309,"id":"dffb49","name":"三田本町","name_kana":"さんだほんまち","lat":34.881805,"lng":135.229606,"prefecture":28,"numbering":[{"index":"28"}],"lines":[99633,99634],"attr":"heat","postal_code":"669-1526","address":"三田市相生町１２-５"},
    {"code":9963308,"id":"8a240b","name":"横山(兵庫)","name_kana":"よこやま","lat":34.876633,"lng":135.219696,"prefecture":28,"numbering":[{"index":"27"}],"lines":[99633,99634],"attr":"heat","postal_code":"669-1535","address":"三田市南が丘２-９-１３"},
    {"code":9963404,"id":"2e76bf","name":"フラワータウン","name_kana":"ふらわーたうん","lat":34.88546,"lng":135.202334,"prefecture":28,"numbering":[{"index":"31"}],"lines":[99634],"attr":"eco","postal_code":"669-1546","address":"三田市弥生が丘１-１１"},
    {"code":9963405,"id":"fce311","name":"南ウッディタウン","name_kana":"みなみうっでぃたうん","lat":34.901729,"lng":135.189612,"prefecture":28,"numbering":[{"index":"32"}],"lines":[99634],"attr":"eco","postal_code":"669-1323","address":"三田市あかしあ台５-１０１-５"},
    {"code":9963406,"id":"83d5a7","name":"ウッディタウン中央","name_kana":"うっでぃたうんちゅうおう","lat":34.909767,"lng":135.183707,"prefecture":28,"numbering":[{"index":"33"}],"lines":[99634],"attr":"cool","postal_code":"669-1324","address":"三田市ゆりのき台１-１０２"}
  ],
  "north":34.91006,
  "south":34.8745,
  "east":135.22042,
  "west":135.18353,
  "polyline_list":[
    {
      "start":"ウッディタウン中央",
      "end":"横山",
      "lat":34.91006,
      "lng":135.18353,
      "delta_lat":[0,-78,-88,-47,-154,-1,-8,-77,-150,0,-2,-111,-27,-2,-46,-2,-78,-5,-20,-98,-5,-54,-118,-61,-11,-24,-159,-291,-70,-46,-70,-36,-26,-29,-24,-20,-30,-25,-18,-11,-22,-18,-23,-23,-1,-46,-22,-11,-11,-24,-23,-11,-28,-39,-46,-3,-68,-20,-52,-18,-42,-67,-32,-38,-36,-123,-64,-182,-7,-63,-1,-21,-28,-43,-38,-2,-5,-27,-2,-25,-5,-6,-9,-4,-2,-29,-11,-9,-5,2,8,18,26,36,2,21,12,7,6,23,2,42,10,76],
      "delta_lng":[0,59,65,34,114,2,5,58,110,2,0,83,21,1,34,2,54,6,14,69,6,37,73,32,5,12,69,130,30,21,29,18,12,18,19,21,32,33,24,19,38,33,41,42,2,87,40,18,22,44,33,17,34,37,42,2,58,15,50,17,45,55,30,41,33,112,54,159,6,55,3,19,26,43,54,7,6,45,6,54,14,19,29,16,12,150,72,39,45,33,23,54,47,46,1,20,12,8,5,25,1,39,12,69]
    }
  ]
}