{
  "code":99630,
  "name":"神戸高速東西線",
  "station_list":[
    {"code":9963001,"id":"3b382f","name":"三宮(神戸三宮)","name_kana":"さんのみや(こうべさんのみや)","lat":34.693507,"lng":135.195106,"prefecture":28,"numbering":[{"symbol":"HK","color":"#0000FF","index":"16"},{"symbol":"HS","color":"#0000FF","index":"32"}],"lines":[99630,99646,99648,34001,35001],"attr":"heat","postal_code":"650-0001","address":"神戸市中央区加納町４-２-１"},
    {"code":9963002,"id":"de216a","name":"花隈","name_kana":"はなくま","lat":34.686117,"lng":135.181524,"prefecture":28,"numbering":[{"symbol":"HK","color":"#0000FF","index":"17"}],"lines":[99630],"attr":"cool","postal_code":"650-0012","address":"神戸市中央区北長狭通６-３-５"},
    {"code":1160314,"id":"ffc8f3","name":"元町(兵庫)","name_kana":"もとまち","lat":34.689602,"lng":135.187401,"prefecture":28,"numbering":[{"symbol":"HS","color":"#0000FF","index":"33"}],"lines":[11603,35001,99630],"attr":"eco","postal_code":"650-0014","address":"神戸市中央区元町高架通り"},
    {"code":9963004,"id":"0e9006","name":"西元町","name_kana":"にしもとまち","lat":34.683897,"lng":135.17959,"prefecture":28,"numbering":[{"symbol":"HS","color":"#0000FF","index":"34"}],"lines":[99630],"attr":"cool","postal_code":"650-0022","address":"神戸市中央区元町通６-７-１１"},
    {"code":9963005,"id":"a00dff","name":"高速神戸","name_kana":"こうそくこうべ","lat":34.679362,"lng":135.174441,"prefecture":28,"numbering":[{"symbol":"HS","color":"#0000FF","index":"35"}],"lines":[99630],"attr":"eco","postal_code":"650-0015","address":"神戸市中央区多聞通３-３-１３"},
    {"code":9963006,"id":"d9aa1c","name":"新開地","name_kana":"しんかいち","lat":34.675981,"lng":135.169291,"prefecture":28,"numbering":[{"symbol":"HS","color":"#0000FF","index":"36"}],"lines":[99630,99631],"attr":"eco","postal_code":"652-0811","address":"神戸市兵庫区新開地２-３"},
    {"code":9963007,"id":"dc1dc4","name":"大開","name_kana":"だいかい","lat":34.671179,"lng":135.161709,"prefecture":28,"numbering":[{"symbol":"HS","color":"#0000FF","index":"37"}],"lines":[99630],"attr":"eco","postal_code":"652-0802","address":"神戸市兵庫区水木通７-１"},
    {"code":9963008,"id":"d4587d","name":"高速長田","name_kana":"こうそくながた","lat":34.667254,"lng":135.151551,"prefecture":28,"numbering":[{"symbol":"HS","color":"#0000FF","index":"38"}],"lines":[99630],"attr":"heat","postal_code":"653-0016","address":"神戸市長田区北町１-２"},
    {"code":9963009,"id":"9cdbe5","name":"西代","name_kana":"にしだい","lat":34.662374,"lng":135.144085,"prefecture":28,"numbering":[{"symbol":"HS","color":"#0000FF","index":"39"},{"symbol":"SY","color":"#FA2B08","index":"01"}],"lines":[99630,99637],"attr":"heat","postal_code":"653-0843","address":"神戸市長田区御屋敷通２-１１"}
  ],
  "north":34.69359,
  "south":34.6621,
  "east":135.19342,
  "west":135.14356,
  "polyline_list":[
    {
      "start":"高速神戸",
      "end":"神戸三宮",
      "lat":34.68139,
      "lng":135.17792,
      "delta_lat":[0,52,31,45,51,56,33,23,42,49,98,5,45,46,87,76,26,18,14,13,40,58,77,72,67,7,89],
      "delta_lng":[0,15,2,5,13,18,16,16,41,57,114,7,57,58,112,98,50,59,59,66,94,118,140,117,96,9,113]
    },
    {
      "start":"高速神戸",
      "end":"元町",
      "lat":34.68139,
      "lng":135.17792,
      "delta_lat":[0,3,42,37,26,42,45,29,5,66,38,159,115,29,26,30,44,29],
      "delta_lng":[0,4,53,50,25,15,6,4,3,30,43,197,145,44,53,82,114,67]
    },
    {
      "start":"西代",
      "end":"高速神戸",
      "lat":34.6621,
      "lng":135.14356,
      "delta_lat":[0,60,60,334,18,11,12,6,25,9,8,5,5,9,18,3,3,6,6,6,8,65,104,141,40,150,112,141,52,37,18,11,26,35,163,5,49,38,130],
      "delta_lng":[0,86,86,513,26,23,20,15,54,23,24,32,35,101,222,25,22,20,22,18,12,91,149,209,62,232,169,222,93,62,29,16,26,37,294,10,79,63,214]
    }
  ]
}