{
  "code":99632,
  "name":"神鉄有馬線",
  "color":"#FF0000",
  "symbol":"KB",
  "station_list":[
    {"code":9963102,"id":"ea4429","name":"湊川","name_kana":"みなとがわ","lat":34.679153,"lng":135.166426,"prefecture":28,"numbering":[{"index":"02"}],"lines":[99631,99632],"attr":"cool","postal_code":"652-0032","address":"神戸市兵庫区荒田町１-２０-３"},
    {"code":9963202,"id":"36846e","name":"長田(神戸電鉄)","name_kana":"ながた","lat":34.681605,"lng":135.149592,"prefecture":28,"numbering":[{"index":"03"}],"lines":[99632],"attr":"cool","postal_code":"653-0882","address":"神戸市長田区長田天神町二丁目10-1"},
    {"code":9963203,"id":"b049d5","name":"丸山(兵庫)","name_kana":"まるやま","lat":34.685913,"lng":135.143993,"prefecture":28,"numbering":[{"index":"04"}],"lines":[99632],"attr":"cool","postal_code":"653-0881","address":"神戸市長田区滝谷町３-９-２"},
    {"code":9963204,"id":"b6341b","name":"鵯越","name_kana":"ひよどりごえ","lat":34.692576,"lng":135.142232,"prefecture":28,"numbering":[{"index":"05"}],"lines":[99632],"attr":"cool","postal_code":"652-0051","address":"神戸市兵庫区里山町６５１-３"},
    {"code":9963206,"id":"e68f65","name":"鈴蘭台","name_kana":"すずらんだい","lat":34.723662,"lng":135.145867,"prefecture":28,"numbering":[{"index":"06"}],"lines":[99632,99635],"attr":"cool","postal_code":"651-1111","address":"神戸市北区鈴蘭台北町１-７-１７"},
    {"code":9963207,"id":"2c6c3c","name":"北鈴蘭台","name_kana":"きたすずらんだい","lat":34.739549,"lng":135.151917,"prefecture":28,"numbering":[{"index":"07"}],"lines":[99632],"attr":"cool","postal_code":"651-1142","address":"神戸市北区甲栄台４-１-１３"},
    {"code":9963208,"id":"44694b","name":"山の街","name_kana":"やまのまち","lat":34.746171,"lng":135.153211,"prefecture":28,"numbering":[{"index":"08"}],"lines":[99632],"attr":"cool","postal_code":"651-1221","address":"神戸市北区緑町１-１-１"},
    {"code":9963209,"id":"6ed083","name":"箕谷","name_kana":"みのたに","lat":34.756969,"lng":135.155597,"prefecture":28,"numbering":[{"index":"09"}],"lines":[99632],"attr":"cool","postal_code":"651-1102","address":"神戸市北区山田町下谷上字箕谷２７-２"},
    {"code":9963210,"id":"3c861b","name":"谷上","name_kana":"たにがみ","lat":34.761691,"lng":135.17142,"prefecture":28,"numbering":[{"index":"10"}],"lines":[99632,99636],"attr":"eco","postal_code":"651-1102","address":"神戸市北区山田町下谷上字明田８-１"},
    {"code":9963211,"id":"9a3f1e","name":"花山","name_kana":"はなやま","lat":34.769648,"lng":135.187308,"prefecture":28,"numbering":[{"index":"11"}],"lines":[99632],"attr":"eco","postal_code":"651-1205","address":"神戸市北区花山台１-１"},
    {"code":9963212,"id":"8b2aa8","name":"大池","name_kana":"おおいけ","lat":34.780978,"lng":135.198693,"prefecture":28,"numbering":[{"index":"12"}],"lines":[99632],"attr":"eco","postal_code":"651-1201","address":"神戸市北区西大池１-２-５"},
    {"code":9963213,"id":"c0ad50","name":"神鉄六甲","name_kana":"しんてつろっこう","lat":34.785205,"lng":135.206036,"prefecture":28,"numbering":[{"index":"13"}],"lines":[99632],"attr":"eco","postal_code":"651-1331","address":"神戸市北区有野町唐櫃字種池３０３９-２"},
    {"code":9963214,"id":"08f05e","name":"唐櫃台","name_kana":"からとだい","lat":34.790297,"lng":135.211461,"prefecture":28,"numbering":[{"index":"14"}],"lines":[99632],"attr":"heat","postal_code":"651-1332","address":"神戸市北区唐櫃台２-１-１"},
    {"code":9963215,"id":"17e8cc","name":"有馬口","name_kana":"ありまぐち","lat":34.796477,"lng":135.221018,"prefecture":28,"numbering":[{"index":"15"}],"lines":[99632,99633],"attr":"heat","postal_code":"651-1331","address":"神戸市北区有野町唐櫃字フチネ垣１２７-２"},
    {"code":9963217,"id":"e11b1e","name":"有馬温泉","name_kana":"ありまおんせん","lat":34.799385,"lng":135.245868,"prefecture":28,"numbering":[{"index":"16"}],"lines":[99632],"attr":"heat","postal_code":"651-1401","address":"神戸市北区有馬町字ウツギ谷２６６-２"}
  ],
  "north":34.79972,
  "south":34.67897,
  "east":135.24604,
  "west":135.14003,
  "polyline_list":[
    {
      "start":"湊川",
      "end":"有馬温泉",
      "lat":34.67897,
      "lng":135.16644,
      "delta_lat":[0,61,36,11,18,35,25,15,6,4,4,-2,-9,-2,-11,0,-8,-4,-13,-49,-13,-5,-7,-5,-13,-15,-27,-3,-11,-2,-2,-2,-3,-2,0,2,3,10,12,12,23,29,19,18,20,24,8,31,3,10,70,4,23,26,30,28,29,18,18,25,18,6,12,22,65,29,18,2,41,11,16,27,48,39,60,61,60,33,30,39,29,30,25,18,19,7,34,9,5,19,14,5,9,22,29,17,3,47,68,21,19,17,25,20,43,54,42,8,28,36,26,25,26,36,16,25,2,33,28,25,29,27,49,51,11,33,41,18,13,11,3,14,30,37,284,85,67,45,37,36,55,31,29,35,45,10,19,9,34,3,1,10,10,5,2,9,7,12,39,28,22,34,27,22,30,30,34,16,11,11,13,6,7,12,51,9,20,18,30,19,13,24,18,23,20,18,28,27,20,172,194,24,93,21,17,188,145,9,23,5,39,39,38,47,21,15,7,40,36,35,55,24,4,22,6,24,29,29,42,79,70,39,41,47,70,86,14,25,45,22,58,58,16,73,29,26,200,65,23,25,27,27,22,27,4,20,31,8,9,19,21,19,28,28,17,18,27,30,36,32,23,17,29,25,29,32,26,20,32,13,35,18,17,26,38,13,91,24,38,25,52,70,6,24,9,55,104,54,20,33,16,13,16,15,20,8,10,6,2,1,3,29,14,17,4,12,12,3,8,10,3,29,11,0,25,29,2,14,2,22,18,20,29,32,39,8,15,20,13,24,22,31,21,33,51,13,25,40,43,81,58,17,47,56,26,12,45,23,12,11,8,1,2,1,1,0,5,1,9,22,17,8,17,28,23,116,47,106,35,45,31,51,49,45,57,60,63,40,24,39,13,4,17,11,22,36,20,20,27,94,94,20,9,33,11,9,23,2,14,18,15,25,31,47,63,98,103,66,60,15,17,9,15,41,24,159,64,23,8,13,26,11,1,32,23,13,55,18,30,25,15,9,5,0,-4,-3,-2,-8,-17,-87,-16,-8,0,2,15,38,20,9,19,16,11,22,60,25,17,5,11,5,3,6,6,8,7,10,25,0,-6,-7,-27],
      "delta_lng":[0,-66,-35,-11,-28,-62,-52,-37,-16,-19,-19,-58,-94,-21,-83,-4,-36,-21,-31,-100,-27,-11,-19,-18,-57,-104,-182,-20,-77,-11,-41,-24,-42,-19,-15,-20,-29,-43,-29,-24,-27,-28,-12,-9,-7,-3,-2,-2,0,2,7,2,0,-5,-15,-24,-35,-35,-50,-89,-62,-20,-23,-29,-75,-36,-27,-5,-69,-18,-30,-36,-62,-37,-55,-48,-41,-20,-8,-3,3,10,15,17,25,12,49,14,8,34,24,5,13,27,22,10,3,16,20,9,10,16,27,28,58,79,56,5,27,28,16,11,7,3,1,2,0,5,9,14,20,25,45,44,8,29,30,11,8,5,1,7,7,3,7,-1,-5,-5,-9,-11,-25,-19,-25,-41,-55,-19,-34,-30,-98,-8,-2,-28,-28,-16,-4,-18,-12,-21,-54,-29,-15,-14,-4,-3,0,6,12,9,8,9,15,6,9,15,63,12,24,21,28,13,8,11,8,5,3,-1,-3,-4,-2,-18,-19,-3,-11,-1,-2,-16,-12,0,0,0,2,10,13,23,15,9,6,37,37,49,78,32,3,23,6,19,20,15,13,18,20,12,18,26,44,53,7,8,14,7,11,9,4,13,7,8,82,25,7,4,0,-2,-6,-8,-2,-10,-20,-8,-9,-27,-58,-63,-125,-103,-50,-31,-27,-22,-17,-5,-1,3,9,11,26,34,39,49,63,25,68,28,21,20,21,8,28,15,26,25,82,123,10,40,13,49,29,23,13,41,28,36,57,85,147,80,150,221,39,39,53,159,58,46,10,31,36,9,22,34,10,142,46,3,109,124,3,62,10,85,45,38,40,36,29,4,13,17,10,26,30,52,38,87,156,36,50,63,65,112,83,21,63,80,39,16,67,38,29,38,37,14,18,30,24,31,35,4,28,44,24,9,16,19,9,23,11,31,14,24,16,33,34,36,48,55,59,45,27,60,26,8,42,30,61,100,46,35,40,107,113,32,18,79,39,47,80,8,44,40,29,32,26,35,34,39,40,22,26,10,15,11,16,57,36,222,89,43,22,50,98,37,3,84,48,24,73,21,30,43,41,45,38,37,34,18,11,28,65,272,60,40,41,26,46,93,48,21,50,38,22,35,85,37,30,13,31,18,16,43,56,153,136,139,344,8,46,30,81]
    }
  ]
}