{
  "code":99632,
  "id":"8baaea",
  "name":"神鉄有馬線",
  "name_kana":"しんてつありません",
  "station_size":15,
  "company_code":204,
  "color":"#FF0000",
  "symbol":"KB",
  "station_list":[
    {"code":9963102,"id":"ea4429","name":"湊川","name_kana":"みなとがわ","lat":34.679153,"lng":135.166426,"prefecture":28,"numbering":[{"index":"02"}],"lines":[99631,99632],"attr":"cool","postal_code":"652-0032","address":"神戸市兵庫区荒田町１-２０-３","next":[9964604,9963006,9963007,9964606,9963202,9964605,9963204],"voronoi":{"lat":34.68816,"lng":135.166245,"delta_lat":[0,-11476,-1922,1376,5755,14919,9],"delta_lng":[0,635,-2129,-2326,-4196,2173,5]}},
    {"code":9963202,"id":"36846e","name":"長田(神戸電鉄)","original_name":"長田","name_kana":"ながた","lat":34.681605,"lng":135.149592,"prefecture":28,"numbering":[{"index":"03"}],"lines":[99632],"attr":"cool","postal_code":"653-0882","address":"神戸市長田区長田天神町二丁目10-1","next":[9963009,9964607,9963102,9964606,9963203,9963204],"voronoi":{"lat":34.691866,"lng":135.15303,"delta_lat":[0,-17740,-464,1586,6645,14919],"delta_lng":[0,-13649,1618,10879,6352,2173]}},
    {"code":9963203,"id":"b049d5","name":"丸山(兵庫)","original_name":"丸山","name_kana":"まるやま","lat":34.685913,"lng":135.143993,"prefecture":28,"numbering":[{"index":"04"}],"lines":[99632],"attr":"cool","postal_code":"653-0881","address":"神戸市長田区滝谷町３-９-２","next":[9963702,9963204,9964503,9963009,9963202],"voronoi":{"lat":34.684644,"lng":135.125707,"delta_lat":[0,-7277,-3256,14,17740],"delta_lng":[0,2295,7948,3430,13649]}},
    {"code":9963204,"id":"b6341b","name":"鵯越","name_kana":"ひよどりごえ","lat":34.692576,"lng":135.142232,"prefecture":28,"numbering":[{"index":"05"}],"lines":[99632],"attr":"cool","postal_code":"652-0051","address":"神戸市兵庫区里山町６５１-３","next":[9963504,9963206,9963203,9964604,9963503,9964503,9963102,9963202],"voronoi":{"lat":34.691866,"lng":135.15303,"delta_lat":[0,-7221,18963,896,4408,-2968,-9123,-9],"delta_lng":[0,-27322,-10227,1474,20313,25389,-2249,-5]}},
    {"code":9963206,"id":"e68f65","name":"鈴蘭台","name_kana":"すずらんだい","lat":34.723662,"lng":135.145867,"prefecture":28,"numbering":[{"index":"06"}],"lines":[99632,99635],"attr":"cool","postal_code":"651-1111","address":"神戸市北区鈴蘭台北町１-７-１７","next":[9963207,9963503,9963204,100302,9964603,9964604,9963502],"voronoi":{"lat":34.722302,"lng":135.173323,"delta_lat":[0,-8678,-5590,-2090,2968,7268,16161],"delta_lng":[0,-2999,-4818,-2849,-25389,1456,8238]}},
    {"code":9963207,"id":"2c6c3c","name":"北鈴蘭台","name_kana":"きたすずらんだい","lat":34.739549,"lng":135.151917,"prefecture":28,"numbering":[{"index":"07"}],"lines":[99632],"attr":"cool","postal_code":"651-1142","address":"神戸市北区甲栄台４-１-１３","next":[9963206,9963504,9963210,9963208,100302,9963503,9963502],"voronoi":{"lat":34.722302,"lng":135.173323,"delta_lat":[0,10839,5221,8377,-1076,-4217,-9105],"delta_lng":[0,8191,-5928,-42868,226,3421,10597]}},
    {"code":9963208,"id":"44694b","name":"山の街","name_kana":"やまのまち","lat":34.746171,"lng":135.153211,"prefecture":28,"numbering":[{"index":"08"}],"lines":[99632],"attr":"cool","postal_code":"651-1221","address":"神戸市北区緑町１-１-１","next":[9963207,9963210,9963209,9963504],"voronoi":{"lat":34.738361,"lng":135.175586,"delta_lat":[0,10507,8402,-10532],"delta_lng":[0,-8955,-38027,4114]}},
    {"code":9963209,"id":"6ed083","name":"箕谷","name_kana":"みのたに","lat":34.756969,"lng":135.155597,"prefecture":28,"numbering":[{"index":"09"}],"lines":[99632],"attr":"cool","postal_code":"651-1102","address":"神戸市北区山田町下谷上字箕谷２７-２","next":[9963212,9963405,9963507,9963404,9963504,9963208,9963210,9963505],"voronoi":{"lat":34.841545,"lng":135.104579,"delta_lat":[0,3804,-5377,-4650,-2507,-83946,8402,17090],"delta_lng":[0,-67,22887,12783,1396,25052,-38027,-11163]}},
    {"code":9963210,"id":"3c861b","name":"谷上","name_kana":"たにがみ","lat":34.761691,"lng":135.17142,"prefecture":28,"numbering":[{"index":"10"}],"lines":[99632,99636],"attr":"eco","postal_code":"651-1102","address":"神戸市北区山田町下谷上字明田８-１","next":[9963207,9963208,9963212,9963209,9963211,100302],"voronoi":{"lat":34.812667,"lng":135.155827,"delta_lat":[0,20147,-83946,-10507,-5221,5101],"delta_lng":[0,-14248,25052,8955,5928,11587]}},
    {"code":9963211,"id":"9a3f1e","name":"花山","name_kana":"はなやま","lat":34.769648,"lng":135.187308,"prefecture":28,"numbering":[{"index":"11"}],"lines":[99632],"attr":"eco","postal_code":"651-1205","address":"神戸市北区花山台１-１","next":[100302,3400113,9963212,3400114,9963210],"voronoi":{"lat":34.739404,"lng":135.201798,"delta_lat":[0,4008,7475,61780,-74426],"delta_lng":[0,7607,7902,-61481,37274]}},
    {"code":9963212,"id":"8b2aa8","name":"大池","name_kana":"おおいけ","lat":34.780978,"lng":135.198693,"prefecture":28,"numbering":[{"index":"12"}],"lines":[99632],"attr":"eco","postal_code":"651-1201","address":"神戸市北区西大池１-２-５","next":[9963213,9963209,9963211,9963210,9963404,9963302,3400113],"voronoi":{"lat":34.750888,"lng":135.217308,"delta_lat":[0,61780,20147,2507,-265,-28530,-54068],"delta_lng":[0,-61481,-14248,-1396,7603,41089,31124]}},
    {"code":9963213,"id":"c0ad50","name":"神鉄六甲","name_kana":"しんてつろっこう","lat":34.785205,"lng":135.206036,"prefecture":28,"numbering":[{"index":"13"}],"lines":[99632],"attr":"eco","postal_code":"651-1331","address":"神戸市北区有野町唐櫃字種池３０３９-２","next":[9963212,9963302,3400112,3400113,9963214],"voronoi":{"lat":34.804522,"lng":135.193007,"delta_lat":[0,2004,-54068,5866,1258],"delta_lng":[0,-4132,31124,13520,1669]}},
    {"code":9963214,"id":"08f05e","name":"唐櫃台","name_kana":"からとだい","lat":34.790297,"lng":135.211461,"prefecture":28,"numbering":[{"index":"14"}],"lines":[99632],"attr":"heat","postal_code":"651-1332","address":"神戸市北区唐櫃台２-１-１","next":[9963215,3400112,9963302,9963213],"voronoi":{"lat":34.804522,"lng":135.193007,"delta_lat":[0,-5960,-37701,-1279],"delta_lng":[0,19886,24380,-2085]}},
    {"code":9963215,"id":"17e8cc","name":"有馬口","name_kana":"ありまぐち","lat":34.796477,"lng":135.221018,"prefecture":28,"numbering":[{"index":"15"}],"lines":[99632,99633],"attr":"heat","postal_code":"651-1331","address":"神戸市北区有野町唐櫃字フチネ垣１２７-２","next":[9963302,9963214,9963217,3400112],"voronoi":{"lat":34.760861,"lng":135.237272,"delta_lat":[0,37701,9461,-46955],"delta_lng":[0,-24380,19369,5495]}},
    {"code":9963217,"id":"e11b1e","name":"有馬温泉","name_kana":"ありまおんせん","lat":34.799385,"lng":135.245868,"prefecture":28,"numbering":[{"index":"16"}],"lines":[99632],"attr":"heat","postal_code":"651-1401","address":"神戸市北区有馬町字ウツギ谷２６６-２","next":[1162914,3400110,3400111,3400503,9963303,9963215,9963304,1162912,3400112,9963302],"voronoi":{"lat":34.822929,"lng":135.245955,"delta_lat":[0,8790,-1079,-46000,-3748,-9661,-8640,-1522,46955,708],"delta_lng":[0,16174,7586,20253,-1714,-11118,-20174,-19206,-5495,165]}}
  ],
  "north":34.79972,
  "south":34.67897,
  "east":135.24604,
  "west":135.14003,
  "polyline_list":[
    {
      "start":"湊川",
      "end":"有馬温泉",
      "lat":34.67897,
      "lng":135.16644,
      "delta_lat":[0,61,36,11,18,35,25,15,6,4,4,-2,-9,-2,-11,0,-8,-4,-13,-49,-13,-5,-7,-5,-13,-15,-27,-3,-11,-2,-2,-2,-3,-2,0,2,3,10,12,12,23,29,19,18,20,24,8,31,3,10,70,4,23,26,30,28,29,18,18,25,18,6,12,22,65,29,18,2,41,11,16,27,48,39,60,61,60,33,30,39,29,30,25,18,19,7,34,9,5,19,14,5,9,22,29,17,3,47,68,21,19,17,25,20,43,54,42,8,28,36,26,25,26,36,16,25,2,33,28,25,29,27,49,51,11,33,41,18,13,11,3,14,30,37,284,85,67,45,37,36,55,31,29,35,45,10,19,9,34,3,1,10,10,5,2,9,7,12,39,28,22,34,27,22,30,30,34,16,11,11,13,6,7,12,51,9,20,18,30,19,13,24,18,23,20,18,28,27,20,172,194,24,93,21,17,188,145,9,23,5,39,39,38,47,21,15,7,40,36,35,55,24,4,22,6,24,29,29,42,79,70,39,41,47,70,86,14,25,45,22,58,58,16,73,29,26,200,65,23,25,27,27,22,27,4,20,31,8,9,19,21,19,28,28,17,18,27,30,36,32,23,17,29,25,29,32,26,20,32,13,35,18,17,26,38,13,91,24,38,25,52,70,6,24,9,55,104,54,20,33,16,13,16,15,20,8,10,6,2,1,3,29,14,17,4,12,12,3,8,10,3,29,11,0,25,29,2,14,2,22,18,20,29,32,39,8,15,20,13,24,22,31,21,33,51,13,25,40,43,81,58,17,47,56,26,12,45,23,12,11,8,1,2,1,1,0,5,1,9,22,17,8,17,28,23,116,47,106,35,45,31,51,49,45,57,60,63,40,24,39,13,4,17,11,22,36,20,20,27,94,94,20,9,33,11,9,23,2,14,18,15,25,31,47,63,98,103,66,60,15,17,9,15,41,24,159,64,23,8,13,26,11,1,32,23,13,55,18,30,25,15,9,5,0,-4,-3,-2,-8,-17,-87,-16,-8,0,2,15,38,20,9,19,16,11,22,60,25,17,5,11,5,3,6,6,8,7,10,25,0,-6,-7,-27],
      "delta_lng":[0,-66,-35,-11,-28,-62,-52,-37,-16,-19,-19,-58,-94,-21,-83,-4,-36,-21,-31,-100,-27,-11,-19,-18,-57,-104,-182,-20,-77,-11,-41,-24,-42,-19,-15,-20,-29,-43,-29,-24,-27,-28,-12,-9,-7,-3,-2,-2,0,2,7,2,0,-5,-15,-24,-35,-35,-50,-89,-62,-20,-23,-29,-75,-36,-27,-5,-69,-18,-30,-36,-62,-37,-55,-48,-41,-20,-8,-3,3,10,15,17,25,12,49,14,8,34,24,5,13,27,22,10,3,16,20,9,10,16,27,28,58,79,56,5,27,28,16,11,7,3,1,2,0,5,9,14,20,25,45,44,8,29,30,11,8,5,1,7,7,3,7,-1,-5,-5,-9,-11,-25,-19,-25,-41,-55,-19,-34,-30,-98,-8,-2,-28,-28,-16,-4,-18,-12,-21,-54,-29,-15,-14,-4,-3,0,6,12,9,8,9,15,6,9,15,63,12,24,21,28,13,8,11,8,5,3,-1,-3,-4,-2,-18,-19,-3,-11,-1,-2,-16,-12,0,0,0,2,10,13,23,15,9,6,37,37,49,78,32,3,23,6,19,20,15,13,18,20,12,18,26,44,53,7,8,14,7,11,9,4,13,7,8,82,25,7,4,0,-2,-6,-8,-2,-10,-20,-8,-9,-27,-58,-63,-125,-103,-50,-31,-27,-22,-17,-5,-1,3,9,11,26,34,39,49,63,25,68,28,21,20,21,8,28,15,26,25,82,123,10,40,13,49,29,23,13,41,28,36,57,85,147,80,150,221,39,39,53,159,58,46,10,31,36,9,22,34,10,142,46,3,109,124,3,62,10,85,45,38,40,36,29,4,13,17,10,26,30,52,38,87,156,36,50,63,65,112,83,21,63,80,39,16,67,38,29,38,37,14,18,30,24,31,35,4,28,44,24,9,16,19,9,23,11,31,14,24,16,33,34,36,48,55,59,45,27,60,26,8,42,30,61,100,46,35,40,107,113,32,18,79,39,47,80,8,44,40,29,32,26,35,34,39,40,22,26,10,15,11,16,57,36,222,89,43,22,50,98,37,3,84,48,24,73,21,30,43,41,45,38,37,34,18,11,28,65,272,60,40,41,26,46,93,48,21,50,38,22,35,85,37,30,13,31,18,16,43,56,153,136,139,344,8,46,30,81]
    }
  ]
}