{
  "code":99647,
  "name":"神戸市営地下鉄海岸線(夢かもめ)",
  "name_formal":"神戸市営地下鉄海岸線",
  "color":"#00469C",
  "symbol":"K",
  "station_list":[
    {"code":9964710,"id":"c46914","name":"三宮・花時計前","name_kana":"さんのみや・はなどけいまえ","lat":34.691618,"lng":135.195538,"prefecture":28,"numbering":[{"index":"01"}],"lines":[99647],"attr":"heat","postal_code":"651-0087","address":"神戸市中央区御幸通８","next":[9964802,9963001,9964709],"voronoi":{"lat":34.693456,"lng":135.19923,"delta_lat":[0,-1618,-6298],"delta_lng":[0,-7073,2484]}},
    {"code":9964709,"id":"74b684","name":"旧居留地・大丸前","name_kana":"きゅうきょりゅうち・だいまるまえ","lat":34.689369,"lng":135.189836,"prefecture":28,"numbering":[{"index":"02"}],"lines":[99647],"attr":"heat","postal_code":"650-0021","address":"神戸市中央区三宮町２","next":[9964803,9964802,1160313,9964708,9963001,1160314,9964710],"voronoi":{"lat":34.691839,"lng":135.192156,"delta_lat":[0,2123,1278,-9838,-6308,4161,2286],"delta_lng":[0,-1667,-1320,-942,3759,2647,7]}},
    {"code":9964708,"id":"435cc4","name":"みなと元町","name_kana":"みなともとまち","lat":34.685875,"lng":135.183973,"prefecture":28,"numbering":[{"index":"03"}],"lines":[99647],"attr":"heat","postal_code":"650-0023","address":"神戸市中央区栄町通４","next":[9963004,9964709,9964603,9964803,9963002,9964707,1160314],"voronoi":{"lat":34.688419,"lng":135.184947,"delta_lat":[0,-44,-5047,-2919,-5256,3941,6308],"delta_lng":[0,-1964,-499,1318,7239,945,-3759]}},
    {"code":9964707,"id":"8ea940","name":"ハーバーランド","name_kana":"はーばーらんど","lat":34.678554,"lng":135.178657,"prefecture":28,"numbering":[{"index":"04"}],"lines":[99647],"attr":"heat","postal_code":"650-0044","address":"神戸市中央区東川崎町１","next":[9964706,9964803,9964804,9964708,1160315,9963005,9963004],"voronoi":{"lat":34.680725,"lng":135.181989,"delta_lat":[0,-2728,-5194,-3711,1,6059,5256],"delta_lng":[0,-5624,-995,16430,0,-758,-7239]}},
    {"code":9964706,"id":"41f726","name":"中央市場前","name_kana":"ちゅうおういちばまえ","lat":34.666199,"lng":135.175866,"prefecture":28,"numbering":[{"index":"05"}],"lines":[99647],"attr":"heat","postal_code":"652-0844","address":"神戸市兵庫区中之島１","next":[9963005,1161302,9964707,9963006,9964804,1160802,9964805],"voronoi":{"lat":34.66275,"lng":135.169418,"delta_lat":[0,7136,2886,31,-3711,-7540,-3151],"delta_lng":[0,1371,4294,287,16430,1651,245]}},
    {"code":1161302,"id":"c5f87f","name":"和田岬","name_kana":"わだみさき","lat":34.657278,"lng":135.174268,"prefecture":28,"numbering":[{"index":"06"}],"lines":[11613,99647],"attr":"eco","postal_code":"652-0863","address":"神戸市兵庫区和田宮通４丁目","next":[9964704,9964706,9964809,9964806,1160802,9964805,9964807],"voronoi":{"lat":34.650138,"lng":135.195546,"delta_lat":[0,6635,1629,4349,-1191,-59691,30228],"delta_lng":[0,-1324,-527,-24278,-1378,16981,11083]}},
    {"code":9964704,"id":"b2fd5c","name":"御崎公園","name_kana":"みさきこうえん","lat":34.654641,"lng":135.164998,"prefecture":28,"numbering":[{"index":"07"}],"lines":[99647],"attr":"eco","postal_code":"652-0875","address":"神戸市兵庫区浜中町１","next":[9964703,1161302,9964702,1160802,9964809],"voronoi":{"lat":34.66156,"lng":135.16804,"delta_lat":[0,-172,-86495,-17238,44214],"delta_lng":[0,-8096,10204,2828,12045]}},
    {"code":9964703,"id":"adf5e0","name":"苅藻","name_kana":"かるも","lat":34.65365,"lng":135.156598,"prefecture":28,"numbering":[{"index":"08"}],"lines":[99647],"attr":"eco","postal_code":"653-0024","address":"神戸市長田区浜添通５","next":[9964704,1160803,9964702,9963008,1160802],"voronoi":{"lat":34.574893,"lng":135.170148,"delta_lat":[0,83537,1375,2326,-743],"delta_lng":[0,-18286,467,6269,1346]}},
    {"code":9964702,"id":"0cb9de","name":"駒ヶ林","name_kana":"こまがばやし","lat":34.652108,"lng":135.149554,"prefecture":28,"numbering":[{"index":"09"}],"lines":[99647],"attr":"cool","postal_code":"653-0043","address":"神戸市長田区駒ヶ林町一丁目","next":[1160804,9964703,9964704,1160822,1162803,1160803,9964809],"voronoi":{"lat":34.574893,"lng":135.170148,"delta_lat":[0,83537,-7579,-24912,-96046,1837,25925],"delta_lng":[0,-18286,-9415,769,20667,4228,4865]}},
    {"code":1160803,"id":"aa210e","name":"新長田","name_kana":"しんながた","lat":34.657525,"lng":135.145193,"prefecture":28,"numbering":[{"index":"10"}],"lines":[11608,99645,99646,99647],"attr":"cool","postal_code":"653-0841","address":"神戸市長田区松野通１丁目","next":[1160804,9963702,9964703,9963008,9963009,9964702],"voronoi":{"lat":34.659804,"lng":135.152328,"delta_lat":[0,1409,-2488,-1848,-6027,7579],"delta_lng":[0,-2157,-10888,-397,3560,9415]}}
  ],
  "north":34.69195,
  "south":34.65122,
  "east":135.19634,
  "west":135.14482,
  "polyline_list":[
    {
      "start":"新長田",
      "end":"三宮・花時計前",
      "lat":34.65696,
      "lng":135.14482,
      "delta_lat":[0,-98,-51,-124,-39,-61,-49,-103,-12,-15,-11,-7,-3,-1,1,1,9,13,25,87,34,22,21,9,55,20,4,1,0,0,0,0,4,3,3,6,17,30,7,5,1,2,4,3,5,4,8,63,10,11,13,17,37,19,18,159,21,14,12,11,12,25,104,138,39,17,33,33,31,21,130,18,135,104,81,139,33,56,47,49,123,81,124,27,69,73,73,29,66,2,177,55,37,33,35,189,36,41,40,45,31,1,44,0,27,24,78,14,11,18,33,82,24,11,1,30,7,20,58,55,66,29],
      "delta_lng":[0,97,48,131,38,59,47,94,12,19,23,22,20,24,19,17,21,26,48,153,61,51,48,23,167,64,19,20,41,72,79,110,104,41,30,33,74,179,83,88,60,53,61,58,52,29,33,230,30,22,20,19,38,20,18,150,15,5,2,0,-4,-9,-41,-54,-13,-4,-5,-1,0,1,12,2,4,8,4,5,4,8,9,14,37,32,49,9,23,20,20,11,23,1,68,21,19,20,27,137,26,34,41,50,42,3,72,1,56,68,247,44,25,29,27,50,18,12,1,53,16,41,121,143,181,74]
    }
  ]
}