{
  "code":99646,
  "name":"神戸市営地下鉄山手線",
  "color":"#01AF98",
  "symbol":"S",
  "station_list":[
    {"code":100302,"id":"27f8fc","name":"新神戸","name_kana":"しんこうべ","lat":34.706417,"lng":135.195758,"prefecture":28,"numbering":[{"index":"02"}],"lines":[99636,99646,1003],"attr":"heat","postal_code":"650-0001","address":"神戸市中央区加納町１丁目"},
    {"code":9963001,"id":"3b382f","name":"三宮(神戸三宮)","name_kana":"さんのみや(こうべさんのみや)","lat":34.693507,"lng":135.195106,"prefecture":28,"numbering":[{"index":"03"}],"lines":[99630,99646,99648,34001,35001],"attr":"heat","postal_code":"650-0001","address":"神戸市中央区加納町４-２-１"},
    {"code":9964603,"id":"7603d9","name":"県庁前(兵庫)","name_kana":"けんちょうまえ","lat":34.690916,"lng":135.183859,"prefecture":28,"numbering":[{"index":"04"}],"lines":[99646],"attr":"heat","postal_code":"650-0011","address":"神戸市中央区下山手通５"},
    {"code":9964604,"id":"c2e12a","name":"大倉山(兵庫)","name_kana":"おおくらやま","lat":34.684614,"lng":135.174527,"prefecture":28,"numbering":[{"index":"05"}],"lines":[99646],"attr":"heat","postal_code":"650-0017","address":"神戸市中央区楠町３"},
    {"code":9964605,"id":"6565db","name":"湊川公園","name_kana":"みなとがわこうえん","lat":34.679188,"lng":135.167059,"prefecture":28,"numbering":[{"index":"06"}],"lines":[99646],"attr":"eco","postal_code":"652-0047","address":"神戸市兵庫区下沢通１"},
    {"code":9964606,"id":"238247","name":"上沢","name_kana":"かみさわ","lat":34.673251,"lng":135.158331,"prefecture":28,"numbering":[{"index":"07"}],"lines":[99646],"attr":"eco","postal_code":"652-0047","address":"神戸市兵庫区下沢通８"},
    {"code":9964607,"id":"0846e8","name":"長田(神戸市交通局)","name_kana":"ながた","lat":34.668503,"lng":135.151502,"prefecture":28,"numbering":[{"index":"08"}],"lines":[99646],"attr":"cool","postal_code":"653-0004","address":"神戸市長田区四番町7丁目"},
    {"code":1160803,"id":"aa210e","name":"新長田","name_kana":"しんながた","lat":34.657525,"lng":135.145193,"prefecture":28,"numbering":[{"index":"09"}],"lines":[11608,99645,99646,99647],"attr":"cool","postal_code":"653-0841","address":"神戸市長田区松野通１丁目"}
  ],
  "north":34.70498,
  "south":34.65814,
  "east":135.19571,
  "west":135.1453,
  "polyline_list":[
    {
      "start":"新長田",
      "end":"新神戸",
      "lat":34.65814,
      "lng":135.1453,
      "delta_lat":[0,35,121,74,16,30,27,26,15,15,20,18,15,19,50,53,60,17,13,14,21,34,63,15,17,22,22,20,16,24,20,23,17,14,20,20,39,132,192,90,58,38,153,283,56,40,16,61,20,16,35,166,40,41,26,52,41,30,50,152,119,31,20,13,12,7,26,41,47,63,15,2,9,9,13,17,10,12,5,80,38,8,7,30,38,9,13,32,31,11,18,16,13,14,24,190,222,42,32,47,107,107,70,25,46,29,21,60],
      "delta_lng":[0,70,238,147,26,45,33,28,11,9,9,7,2,2,0,-2,-2,-3,-8,-9,-17,-30,-57,-11,-9,-9,-6,-1,1,8,8,11,12,14,26,26,62,187,281,134,86,57,224,419,83,60,16,56,20,21,55,291,69,72,38,54,38,25,41,128,98,27,19,18,21,18,68,130,112,157,38,3,15,11,13,21,15,23,9,169,81,18,30,157,206,25,30,62,63,21,42,27,13,5,0,3,14,6,6,15,40,41,27,8,12,5,2,11]
    }
  ]
}