{
  "code":99648,
  "name":"神戸新交通ポートアイランド線",
  "station_list":[
    {"code":9963001,"id":"3b382f","name":"三宮(神戸三宮)","name_kana":"さんのみや(こうべさんのみや)","lat":34.693507,"lng":135.195106,"prefecture":28,"numbering":[{"symbol":"P","index":"01"}],"lines":[99630,99646,99648,34001,35001],"attr":"heat","postal_code":"650-0001","address":"神戸市中央区加納町４-２-１"},
    {"code":9964802,"id":"6e49b8","name":"貿易センター","name_kana":"ぼうえきせんたー","lat":34.689339,"lng":135.199469,"prefecture":28,"numbering":[{"symbol":"P","index":"02"}],"lines":[99648],"attr":"heat","postal_code":"651-0084","address":"神戸市中央区磯辺通３"},
    {"code":9964803,"id":"ef3b0a","name":"ポートターミナル","name_kana":"ぽーとたーみなる","lat":34.681501,"lng":135.202205,"prefecture":28,"numbering":[{"symbol":"P","index":"03"}],"lines":[99648],"attr":"heat","postal_code":"650-0041","address":"神戸市中央区新港町新港第四突堤"},
    {"code":9964804,"id":"15a08f","name":"中公園","name_kana":"なかこうえん","lat":34.673124,"lng":135.207483,"prefecture":28,"numbering":[{"symbol":"P","index":"04"}],"lines":[99648],"attr":"heat","postal_code":"650-0046","address":"神戸市中央区港島中町４"},
    {"code":9964805,"id":"116e7c","name":"みなとじま","name_kana":"みなとじま","lat":34.668863,"lng":135.210105,"prefecture":28,"numbering":[{"symbol":"P","index":"05"}],"lines":[99648],"attr":"heat","postal_code":"650-0046","address":"神戸市中央区港島中町４"},
    {"code":9964806,"id":"459836","name":"市民広場","name_kana":"しみんひろば","lat":34.664897,"lng":135.212455,"prefecture":28,"numbering":[{"symbol":"P","index":"06"}],"lines":[99648],"attr":"heat","postal_code":"650-0046","address":"神戸市中央区港島中町６"},
    {"code":9964807,"id":"192b5e","name":"医療センター","name_kana":"いりょうせんたー","lat":34.658578,"lng":135.216343,"prefecture":28,"numbering":[{"symbol":"P","index":"07"}],"lines":[99648],"attr":"eco","postal_code":"650-0047","address":"神戸市中央区港島南町１丁目"},
    {"code":9964808,"id":"34f998","name":"京コンピュータ前","name_kana":"けいこんぴゅーたまえ","lat":34.654892,"lng":135.221865,"prefecture":28,"numbering":[{"symbol":"P","index":"08"}],"lines":[99648],"attr":"eco","postal_code":"650-0047","address":"神戸市中央区港島南町７丁目"},
    {"code":9964809,"id":"d001c1","name":"神戸空港","name_kana":"こうべくうこう","lat":34.637194,"lng":135.229042,"prefecture":28,"numbering":[{"symbol":"P","index":"09"}],"lines":[99648],"attr":"eco","postal_code":"650-0048","address":"神戸市中央区神戸空港１番"},
    {"code":9964810,"id":"100d98","name":"南公園","name_kana":"みなみこうえん","lat":34.664666,"lng":135.217007,"prefecture":28,"numbering":[{"symbol":"PL","index":"07"}],"lines":[99648],"attr":"eco","postal_code":"650-0046","address":"神戸市中央区港島中町８"},
    {"code":9964811,"id":"a91c5c","name":"中埠頭","name_kana":"なかふとう","lat":34.669266,"lng":135.217096,"prefecture":28,"numbering":[{"symbol":"PL","index":"08"}],"lines":[99648],"attr":"cool","postal_code":"650-0046","address":"神戸市中央区港島中町７"},
    {"code":9964812,"id":"aee505","name":"北埠頭","name_kana":"きたふとう","lat":34.673566,"lng":135.214632,"prefecture":28,"numbering":[{"symbol":"PL","index":"09"}],"lines":[99648],"attr":"cool","postal_code":"650-0046","address":"神戸市中央区港島中町２"}
  ],
  "north":34.69489,
  "south":34.63733,
  "east":135.23277,
  "west":135.1951,
  "polyline_list":[
    {
      "start":"市民広場",
      "end":"三宮",
      "lat":34.6646,
      "lng":135.21262,
      "delta_lat":[0,-25,-28,-16,-12,-8,-4,-3,-4,-3,0,3,7,6,81,26,32,16,12,12,17,6,12,16,14,14,13,27,185,12,31,2,54,36,192,146,55,48,15,9,4,1,-3,-9,-15,-65,-90,-15,-4,-2,0,2,4,9,8,57,58,13,13,20,26,31,20,18,2,15,15,12,15,47,15,43,255,24,13,12,16,33,60,63,188,56,20,32,20,9,8,19,24,16,13,14,11,18,15,14,17,14,25,27,13,9,12,12,24,33,32,38,53,231,241,13,18,11,7,4,1,-1,-6,-11,-41],
      "delta_lng":[0,16,19,14,14,16,9,7,19,17,22,21,20,21,200,62,77,34,17,12,12,2,5,4,0,-4,-6,-13,-116,-8,-19,-1,-34,-26,-117,-90,-33,-30,-12,-12,-14,-16,-20,-25,-36,-160,-224,-35,-19,-11,-10,-14,-9,-14,-4,-34,-34,-6,-4,-3,-2,-3,-5,-8,0,-9,-9,-12,-16,-54,-16,-39,-222,-17,-8,-5,-5,-10,-17,-18,-53,-18,-4,-7,-4,-6,-7,-29,-33,-22,-13,-11,-7,-4,-2,0,3,5,13,9,2,0,-2,-4,-9,-14,-15,-19,-32,-141,-141,-8,-12,-10,-13,-11,-14,-8,-12,-11,-39]
    },
    {
      "start":"市民広場",
      "end":"中公園",
      "lat":34.6646,
      "lng":135.21262,
      "delta_lat":[0,61,355,61,14,40,167,115],
      "delta_lng":[0,-36,-207,-37,-7,-26,-101,-74]
    },
    {
      "start":"市民広場",
      "end":"神戸空港",
      "lat":34.6646,
      "lng":135.21262,
      "delta_lat":[0,-586,-45,-353,-24,-13,-6,-7,0,0,4,38,26,59,2,1,-5,-24,-40,-94,-873,-94,-135,-280,-156,-34,-23,-17,-20,-5,-20,-3],
      "delta_lng":[0,366,28,219,27,19,16,26,20,35,17,90,59,151,20,52,50,57,42,61,525,44,38,39,13,1,-12,-23,-28,-30,-234,-103]
    }
  ]
}