{
  "code":99649,
  "name":"神戸新交通六甲アイランド線",
  "symbol":"R",
  "station_list":[
    {"code":1160310,"id":"e9e90a","name":"住吉(JR)","name_kana":"すみよし","lat":34.719595,"lng":135.261859,"prefecture":28,"numbering":[{"index":"01"}],"lines":[11603,99649],"attr":"eco","postal_code":"658-0051","address":"神戸市東灘区住吉本町一丁目2-9"},
    {"code":3500123,"id":"47308c","name":"魚崎","name_kana":"うおざき","lat":34.71262,"lng":135.26924,"prefecture":28,"numbering":[{"index":"02"}],"lines":[35001,99649],"attr":"eco","postal_code":"658-0026","address":"神戸市東灘区魚崎西町４"},
    {"code":9964903,"id":"a0110e","name":"南魚崎","name_kana":"みなみうおざき","lat":34.706751,"lng":135.267661,"prefecture":28,"numbering":[{"index":"03"}],"lines":[99649],"attr":"eco","postal_code":"658-0026","address":"神戸市東灘区魚崎西町１"},
    {"code":9964904,"id":"9bc5e7","name":"アイランド北口","name_kana":"あいらんどきたぐち","lat":34.692853,"lng":135.26875,"prefecture":28,"numbering":[{"index":"04"}],"lines":[99649],"attr":"eco","postal_code":"658-0032","address":"神戸市東灘区向洋町中１"},
    {"code":9964905,"id":"53a84a","name":"アイランドセンター","name_kana":"あいらんどせんたー","lat":34.689103,"lng":135.269347,"prefecture":28,"numbering":[{"index":"05"}],"lines":[99649],"attr":"cool","postal_code":"658-0032","address":"神戸市東灘区向洋町中２"},
    {"code":9964906,"id":"75f97f","name":"マリンパーク","name_kana":"まりんぱーく","lat":34.684176,"lng":135.270077,"prefecture":28,"numbering":[{"index":"06"}],"lines":[99649],"attr":"cool","postal_code":"658-0032","address":"神戸市東灘区向洋町中４"}
  ],
  "north":34.72068,
  "south":34.68388,
  "east":135.27015,
  "west":135.26177,
  "polyline_list":[
    {
      "start":"アイランド北口",
      "end":"南魚崎",
      "lat":34.6932,
      "lng":135.26872,
      "delta_lat":[0,27,24,30,45,30,20,20,39,23,535,100,32,27,42,42,14],
      "delta_lng":[0,-20,-14,-12,-8,-5,-3,0,3,2,-87,-15,-1,2,9,10,2]
    },
    {
      "start":"マリンパーク",
      "end":"アイランド北口",
      "lat":34.68388,
      "lng":135.27015,
      "delta_lat":[0,67,147,278,67,197,83,36,34,22],
      "delta_lng":[0,-11,-23,-46,-11,-32,-13,-6,-1,0]
    },
    {
      "start":"アイランド北口",
      "end":"南魚崎",
      "lat":34.6932,
      "lng":135.26872,
      "delta_lat":[0,27,60,12,94,15,38,18,626,17,143],
      "delta_lng":[0,10,18,2,-14,-5,-13,-6,-104,-2,-23]
    },
    {
      "start":"南魚崎",
      "end":"住吉",
      "lat":34.70369,
      "lng":135.26735,
      "delta_lat":[0,84,48,34,11,31,18,26,26,57,23,29,45,71,84,71,61,68,155,22,64,62,41,17,52,31,62,265,87,33,12,9,0,-7,-29,-22,-21,-19,-16,-25],
      "delta_lng":[0,-13,-7,2,1,3,3,8,10,39,16,14,13,16,17,12,5,1,-8,-2,-4,-9,-4,-2,-9,-8,-25,-112,-40,-18,-14,-24,-17,-21,-51,-44,-53,-72,-63,-98]
    }
  ]
}