{
  "code":99650,
  "name":"紀州鉄道",
  "station_list":[
    {"code":1163938,"id":"4cb64a","name":"御坊","name_kana":"ごぼう","lat":33.907842,"lng":135.158773,"prefecture":30,"lines":[11639,99650],"attr":"heat","postal_code":"644-0012","address":"御坊市湯川町小松原"},
    {"code":9965002,"id":"6c3790","name":"学門","name_kana":"がくもん","lat":33.89627,"lng":135.156604,"prefecture":30,"lines":[99650],"attr":"cool","postal_code":"644-0011","address":"御坊市湯川町財部７５０-２"},
    {"code":9965003,"id":"e1c35a","name":"紀伊御坊","name_kana":"きいごぼう","lat":33.894292,"lng":135.154655,"prefecture":30,"lines":[99650],"attr":"cool","postal_code":"644-0002","address":"御坊市薗２７５"},
    {"code":9965004,"id":"75aff9","name":"市役所前(和歌山)","name_kana":"しやくしょまえ","lat":33.889565,"lng":135.152905,"prefecture":30,"lines":[99650],"attr":"cool","postal_code":"644-0002","address":"御坊市薗３５１-２"},
    {"code":9965005,"id":"e531f9","name":"西御坊","name_kana":"にしごぼう","lat":33.886796,"lng":135.152991,"prefecture":30,"lines":[99650],"attr":"cool","postal_code":"644-0002","address":"御坊市薗５６３"}
  ],
  "north":33.90791,
  "south":33.88607,
  "east":135.15975,
  "west":135.15293,
  "polyline_list":[
    {
      "start":"西御坊",
      "end":"御坊",
      "lat":33.88607,
      "lng":135.15293,
      "delta_lat":[0,56,16,16,104,99,31,65,13,93,89,6,7,16,33,44,20,40,33,21,53,18,18,16,11,40,0,32,57,21,11,20,31,49,119,77,69,27,26,25,21,15,7,31,32,44,5,2,72,10,3,0,43,8,5,24,10,39,41,7,18,13,5,19,14,22,35,6,9,45,58],
      "delta_lng":[0,3,0,1,0,1,0,0,0,0,2,1,1,4,10,22,14,39,33,24,56,20,19,14,12,42,0,33,44,8,4,6,7,1,-5,-4,-4,-2,-1,-1,-1,-2,0,-4,-7,-11,-1,-2,-31,-5,-1,-2,-18,-3,-2,-11,-3,-18,-19,-1,-2,1,1,2,8,14,26,11,16,147,196]
    }
  ]
}