{
  "code":99707,
  "name":"岡山電軌清輝橋線",
  "color":"#942B9D",
  "station_list":[
    {"code":9970601,"id":"bba0b3","name":"岡山駅前","name_kana":"おかやまえきまえ","lat":34.665458,"lng":133.9201,"prefecture":33,"lines":[99706,99707],"attr":"eco","postal_code":"700-0023","address":"岡山市駅前町１-１"},
    {"code":9970602,"id":"255fc1","name":"西川緑道公園","name_kana":"にしがわりょくどうこうえん","lat":34.665599,"lng":133.923018,"prefecture":33,"lines":[99706,99707],"attr":"eco","postal_code":"700-0815","address":"岡山市野田屋町１-１"},
    {"code":9970603,"id":"cef8e7","name":"柳川","name_kana":"やながわ","lat":34.665635,"lng":133.925507,"prefecture":33,"lines":[99706,99707],"attr":"eco","postal_code":"700-0826","address":"岡山市磨屋町２-１"},
    {"code":9970704,"id":"0d4329","name":"郵便局前","name_kana":"ゆうびんきょくまえ","lat":34.662634,"lng":133.92628,"prefecture":33,"lines":[99707],"attr":"eco","postal_code":"700-0821","address":"岡山市中山下１-３"},
    {"code":9970705,"id":"8422b8","name":"田町(岡山)","name_kana":"たまち","lat":34.660658,"lng":133.926322,"prefecture":33,"lines":[99707],"attr":"eco","postal_code":"700-0825","address":"岡山市田町１-１３"},
    {"code":9970706,"id":"ca0c68","name":"新西大寺町筋","name_kana":"しんさいだいじちょうすじ","lat":34.658504,"lng":133.92628,"prefecture":33,"lines":[99707],"attr":"heat","postal_code":"700-0825","address":"岡山市田町２-１０"},
    {"code":9970707,"id":"71e3b4","name":"大雲寺前","name_kana":"だいうんじまえ","lat":34.656492,"lng":133.926237,"prefecture":33,"lines":[99707],"attr":"heat","postal_code":"700-0836","address":"岡山市中央町３番地"},
    {"code":9970709,"id":"e6680e","name":"東中央町","name_kana":"ひがしちゅうおうちょう","lat":34.654445,"lng":133.926183,"prefecture":33,"lines":[99707],"attr":"cool","postal_code":"700-0835","address":"岡山市東中央町地先"},
    {"code":9970708,"id":"94b65c","name":"清輝橋","name_kana":"せいきばし","lat":34.651691,"lng":133.925807,"prefecture":33,"lines":[99707],"attr":"cool","postal_code":"700-0861","address":"岡山市清輝橋１-４"}
  ],
  "north":34.66555,
  "south":34.65152,
  "east":133.92633,
  "west":133.9194,
  "polyline_list":[
    {
      "start":"清輝橋",
      "end":"岡山駅前",
      "lat":34.65152,
      "lng":133.92577,
      "delta_lat":[0,43,32,29,11,126,57,32,14,94,51,41,109,60,42,88,76,40,78,79,41,85,72,65,17,12,9,-1,0,0,0,0,0,0,0,-2,-2,0],
      "delta_lng":[0,17,14,9,0,6,2,1,0,4,2,0,1,0,0,0,0,0,0,-1,1,-1,0,-1,-3,-6,-6,-32,-24,-54,-37,-103,-10,-55,-75,-92,-138,-56]
    }
  ]
}