{
  "code":99704,
  "name":"水島臨海鉄道",
  "symbol":"MR",
  "station_list":[
    {"code":9970401,"id":"08c482","name":"倉敷市","name_kana":"くらしきし","lat":34.600998,"lng":133.765076,"prefecture":33,"lines":[99704],"attr":"eco","postal_code":"710-0055","address":"倉敷市阿知１-１-２"},
    {"code":9970402,"id":"ae875f","name":"球場前(岡山)","name_kana":"きゅうじょうまえ","lat":34.591143,"lng":133.747177,"prefecture":33,"lines":[99704],"attr":"eco","postal_code":"710-0835","address":"倉敷市四十瀬西堤外４-４"},
    {"code":9970403,"id":"098d32","name":"西富井","name_kana":"にしとみい","lat":34.577809,"lng":133.743361,"prefecture":33,"lines":[99704],"attr":"heat","postal_code":"710-0846","address":"倉敷市上富井大西６２８-２０"},
    {"code":9970404,"id":"99b16a","name":"福井(岡山)","name_kana":"ふくい","lat":34.569804,"lng":133.744495,"prefecture":33,"lines":[99704],"attr":"heat","postal_code":"710-0844","address":"倉敷市福井３９８-１"},
    {"code":9970405,"id":"22a475","name":"浦田(岡山)","name_kana":"うらだ","lat":34.561271,"lng":133.749761,"prefecture":33,"lines":[99704],"attr":"heat","postal_code":"712-8031","address":"倉敷市福田町浦田２４６５-９"},
    {"code":9970406,"id":"8aee74","name":"弥生","name_kana":"やよい","lat":34.544359,"lng":133.747534,"prefecture":33,"lines":[99704],"attr":"heat","postal_code":"712-8035","address":"倉敷市水島東弥生町７８"},
    {"code":9970407,"id":"3a220a","name":"栄(岡山)","name_kana":"さかえ","lat":34.53791,"lng":133.744915,"prefecture":33,"lines":[99704],"attr":"heat","postal_code":"712-8033","address":"倉敷市水島東栄町７９-１"},
    {"code":9970408,"id":"da061f","name":"常盤(岡山)","name_kana":"ときわ","lat":34.53401,"lng":133.743246,"prefecture":33,"lines":[99704],"attr":"heat","postal_code":"712-8058","address":"倉敷市水島東常盤町７０"},
    {"code":9970409,"id":"2ed891","name":"水島","name_kana":"みずしま","lat":34.529169,"lng":133.741235,"prefecture":33,"lines":[99704],"attr":"cool","postal_code":"712-8057","address":"倉敷市水島東千鳥町１０-１"},
    {"code":9970410,"id":"9d5674","name":"三菱自工前","name_kana":"みつびしじこうまえ","lat":34.522906,"lng":133.734197,"prefecture":33,"lines":[99704],"attr":"cool","postal_code":"712-8071","address":"倉敷市水島海岸通２-１-１"}
  ],
  "north":34.60079,
  "south":34.52281,
  "east":133.76492,
  "west":133.73376,
  "polyline_list":[
    {
      "start":"三菱自工前",
      "end":"倉敷市",
      "lat":34.52281,
      "lng":133.73376,
      "delta_lat":[0,1,-1,3,11,5,26,24,28,28,28,25,40,35,38,49,36,46,32,46,102,7,83,8,177,205,9,66,11,305,7,83,9,269,218,32,65,11,147,299,108,41,47,32,62,110,124,51,27,84,28,504,80,72,25,35,45,164,47,28,22,21,46,3,27,15,12,25,27,12,21,45,63,18,70,21,56,54,83,44,61,134,44,95,47,65,8,63,5,38,22,102,40,33,72,27,145,64,95,38,74,52,40,16,26,63,36,67,49,44,53,42,29,18,26,5,186,120,136,50,47,23,27,18,49,126,124,42],
      "delta_lng":[0,78,73,28,30,9,44,36,29,24,16,13,26,32,48,78,47,37,21,20,49,3,37,4,75,86,3,26,6,127,4,40,4,114,93,13,27,4,60,120,46,17,12,6,8,8,6,0,0,-6,-4,-76,-12,-15,-12,-22,-30,-150,-44,-27,-20,-22,-44,-4,-27,-11,-12,-16,-15,-6,-8,-13,-11,-3,-10,-3,-8,-9,-12,-6,-9,-19,-8,-10,-7,-6,0,-7,-1,-4,-2,-10,0,2,6,1,9,3,8,4,5,6,3,4,4,13,13,33,28,37,54,56,45,30,50,13,413,257,296,109,90,39,36,25,70,177,174,57]
    }
  ]
}