{
  "code":99703,
  "name":"一畑電車大社線",
  "station_list":[
    {"code":9970205,"id":"edd354","name":"川跡","name_kana":"かわと","lat":35.395127,"lng":132.776411,"prefecture":32,"numbering":[{"index":"5"}],"lines":[99702,99703],"attr":"eco","postal_code":"693-0014","address":"出雲市武志町１０２７-１"},
    {"code":9970302,"id":"38aad3","name":"高浜(島根)","name_kana":"たかはま","lat":35.390677,"lng":132.746684,"prefecture":32,"numbering":[{"index":"23"}],"lines":[99703],"attr":"heat","postal_code":"693-0064","address":"出雲市里方町７９３-３"},
    {"code":9970303,"id":"1a4cc9","name":"遙堪","name_kana":"ようかん","lat":35.389312,"lng":132.725637,"prefecture":32,"numbering":[{"index":"24"}],"lines":[99703],"attr":"heat","postal_code":"693-0057","address":"島根県出雲市常松町"},
    {"code":9970304,"id":"fe044a","name":"浜山公園北口","name_kana":"はまやまこうえんきたぐち","lat":35.38926,"lng":132.70829,"prefecture":32,"numbering":[{"index":"25"}],"lines":[99703],"attr":"eco","postal_code":"699-0732","address":"出雲市大社町入南"},
    {"code":9970305,"id":"1921d4","name":"出雲大社前","name_kana":"いずもたいしゃまえ","lat":35.393245,"lng":132.687531,"prefecture":32,"numbering":[{"index":"26"}],"lines":[99703],"attr":"eco","postal_code":"699-0711","address":"出雲市大社町杵築南"}
  ],
  "north":35.39541,
  "south":35.38894,
  "east":132.77669,
  "west":132.68727,
  "polyline_list":[
    {
      "start":"出雲大社前",
      "end":"川跡",
      "lat":35.39336,
      "lng":132.68727,
      "delta_lat":[0,-19,-17,-13,-88,-69,-65,-12,-22,-6,-7,-89,-14,-6,-3,2,-2,-5,-4,-2,-1,3,13,5,4,1,4,12,13,8,3,4,4,20,80,4,4,1,-3,-5,-6,-3,-2,-4,-7,-5,0,2,3,14,0,12,15,19,19,28,23,32,42,5,136,96,53],
      "delta_lng":[0,78,65,49,333,261,251,64,120,31,46,491,76,51,34,96,81,284,123,212,101,124,467,205,163,54,83,355,438,255,59,46,41,146,617,37,50,28,134,406,337,231,101,334,335,139,36,43,45,73,1,53,49,54,47,56,38,45,51,6,152,105,56]
    }
  ]
}