{
  "code":99702,
  "id":"5068b9",
  "name":"一畑電車北松江線",
  "name_kana":"いちばたでんしゃきたまつえせん",
  "station_size":22,
  "company_code":216,
  "station_list":[
    {"code":9970201,"id":"d091f4","name":"電鉄出雲市","name_kana":"でんてついずもし","lat":35.36113,"lng":132.75777,"prefecture":32,"numbering":[{"index":"1"}],"lines":[99702],"attr":"eco","postal_code":"693-0001","address":"出雲市今市町１２５９-３８","next":[9970202,1170113,9970302],"voronoi":{"lat":35.325964,"lng":132.769314,"delta_lat":[0,49839,2512],"delta_lng":[0,-17356,6694]}},
    {"code":9970202,"id":"dda19f","name":"出雲科学館パークタウン前","name_kana":"いずもかがくかんぱーくたうんまえ","lat":35.362844,"lng":132.766186,"prefecture":32,"numbering":[{"index":"2"}],"lines":[99702],"attr":"eco","postal_code":"693-0001","address":"出雲市今市町１９０５-４","next":[1170607,1170114,9970302,9970201,1170113,9970203,9970204],"voronoi":{"lat":35.378469,"lng":132.758873,"delta_lat":[0,-154,-52351,-26424,-38960,40931,76351],"delta_lng":[0,-221,10662,5876,24608,20560,-59323]}},
    {"code":9970203,"id":"838205","name":"大津町","name_kana":"おおつまち","lat":35.36916,"lng":132.774315,"prefecture":32,"numbering":[{"index":"3"}],"lines":[99702],"attr":"eco","postal_code":"693-0011","address":"出雲市大津町１３９８-６","next":[9970204,9970202,1170112,1170607],"voronoi":{"lat":35.30151,"lng":132.820359,"delta_lat":[0,76351,1614,-74572],"delta_lng":[0,-59323,28586,32719]}},
    {"code":9970204,"id":"d09203","name":"武志","name_kana":"たけし","lat":35.388003,"lng":132.773251,"prefecture":32,"numbering":[{"index":"4"}],"lines":[99702],"attr":"eco","postal_code":"693-0014","address":"出雲市武志町４２-２","next":[9970302,9970205,1170112,9970203,9970202],"voronoi":{"lat":35.378469,"lng":132.758873,"delta_lat":[0,19313,-13065,-5241,-1614],"delta_lng":[0,1944,29453,-649,-28586]}},
    {"code":9970205,"id":"edd354","name":"川跡","name_kana":"かわと","lat":35.395127,"lng":132.776411,"prefecture":32,"numbering":[{"index":"5"}],"lines":[99702,99703],"attr":"eco","postal_code":"693-0014","address":"出雲市武志町１０２７-１","next":[9970204,9970302,1170112,9970206],"voronoi":{"lat":35.430189,"lng":132.755966,"delta_lat":[0,-32407,-13065,3635],"delta_lng":[0,4852,29453,1327]}},
    {"code":9970206,"id":"50c616","name":"大寺","name_kana":"おおてら","lat":35.404423,"lng":132.787326,"prefecture":32,"numbering":[{"index":"6"}],"lines":[99702],"attr":"eco","postal_code":"693-0074","address":"出雲市東林木町３０２-５","next":[9970302,1170112,9970205,9970207],"voronoi":{"lat":35.477622,"lng":132.739923,"delta_lat":[0,-47434,-41837,9218],"delta_lng":[0,16043,35632,9407]}},
    {"code":9970207,"id":"604cac","name":"美談","name_kana":"みだみ","lat":35.412572,"lng":132.798006,"prefecture":32,"numbering":[{"index":"7"}],"lines":[99702],"attr":"eco","postal_code":"691-0013","address":"出雲市美談町５１４-６","next":[9970208,9970302,9970206,1170112],"voronoi":{"lat":35.397569,"lng":132.801004,"delta_lat":[0,80053,7155,-82158],"delta_lng":[0,-61082,-3052,79340]}},
    {"code":9970208,"id":"283065","name":"旅伏","name_kana":"たぶし","lat":35.42116,"lng":132.806899,"prefecture":32,"numbering":[{"index":"8"}],"lines":[99702],"attr":"eco","postal_code":"691-0012","address":"出雲市西代町５８５-６","next":[9970207,9970302,9970209,9970303,9970305,1170112],"voronoi":{"lat":35.595479,"lng":132.703185,"delta_lat":[0,-72611,-22556,-15535,-82158,271],"delta_lng":[0,16980,8840,7865,79340,14923]}},
    {"code":9970209,"id":"504bb4","name":"雲州平田","name_kana":"うんしゅうひらた","lat":35.432312,"lng":132.823685,"prefecture":32,"numbering":[{"index":"9"}],"lines":[99702],"attr":"eco","postal_code":"691-0001","address":"出雲市平田町２２２６","next":[1170111,1170112,9970208,9970210,9970305],"voronoi":{"lat":35.402891,"lng":132.831134,"delta_lat":[0,-1547,18323,343330,-167517],"delta_lng":[0,4665,15955,-196634,48066]}},
    {"code":9970210,"id":"2d7064","name":"布崎","name_kana":"ぬのざき","lat":35.450275,"lng":132.855049,"prefecture":32,"numbering":[{"index":"10"}],"lines":[99702],"attr":"eco","postal_code":"691-0076","address":"出雲市園町１２９５-５","next":[1170111,9970212,9970305,9970211,9970209,9970213],"voronoi":{"lat":36.082732,"lng":132.546268,"delta_lat":[0,-319736,-343330,3733,61423,111578],"delta_lng":[0,108851,196634,16164,-20533,-50157]}},
    {"code":9970211,"id":"140316","name":"湖遊館新駅","name_kana":"こゆうかんしんえき","lat":35.452611,"lng":132.862037,"prefecture":32,"numbering":[{"index":"11"}],"lines":[99702],"attr":"eco","postal_code":"691-0076","address":"出雲市園町５５-１","next":[1170111,9970212,9970210,1170110],"voronoi":{"lat":35.484822,"lng":132.847385,"delta_lat":[0,-61423,1327,1023],"delta_lng":[0,20533,12832,990]}},
    {"code":9970212,"id":"fb2038","name":"園","name_kana":"その","lat":35.456158,"lng":132.868136,"prefecture":32,"numbering":[{"index":"12"}],"lines":[99702],"attr":"heat","postal_code":"691-0076","address":"出雲市園町１６８-５","next":[9970210,9970211,9970214,1170110,9970213],"voronoi":{"lat":35.5964,"lng":132.797227,"delta_lat":[0,-111578,-59073,5864,7802],"delta_lng":[0,50157,34355,7027,-1228]}},
    {"code":9970213,"id":"8d5e71","name":"一畑口","name_kana":"いちばたぐち","lat":35.464605,"lng":132.882819,"prefecture":32,"numbering":[{"index":"13"}],"lines":[99702],"attr":"heat","postal_code":"691-0074","address":"出雲市小境町３７５-２","next":[9970305,9970214,1170516,9970217,9970212,9970215,1110204,9970216,9970210],"voronoi":{"lat":35.439416,"lng":132.887539,"delta_lat":[0,63217,22719,304718,1868629,7339920,2518551,-11474437,-486332],"delta_lng":[0,11552,-1113,-46026,-318020,-1735902,-2444625,4192864,250959]}},
    {"code":9970214,"id":"0ab524","name":"伊野灘","name_kana":"いのなだ","lat":35.461308,"lng":132.900862,"prefecture":32,"numbering":[{"index":"14"}],"lines":[99702],"attr":"heat","postal_code":"691-0074","address":"出雲市小境町３７９-３","next":[9970213,9970212,9970215,1170110],"voronoi":{"lat":35.431614,"lng":132.888767,"delta_lat":[0,7802,63217,-66570],"delta_lng":[0,-1228,11552,18606]}},
    {"code":9970215,"id":"09e736","name":"津ノ森","name_kana":"つのもり","lat":35.466378,"lng":132.919002,"prefecture":32,"numbering":[{"index":"15"}],"lines":[99702],"attr":"heat","postal_code":"690-0264","address":"松江市大野町１１７-３","next":[1170110,9970216,1170109,9970213,9970214],"voronoi":{"lat":35.435097,"lng":132.923565,"delta_lat":[0,9238,81016,-22719,-66570],"delta_lng":[0,12892,-38479,1113,18606]}},
    {"code":9970216,"id":"db7590","name":"高ノ宮","name_kana":"たかのみや","lat":35.471792,"lng":132.930401,"prefecture":32,"numbering":[{"index":"16"}],"lines":[99702],"attr":"heat","postal_code":"690-0263","address":"松江市大垣町１１４５-５","next":[9970217,9970215,1170109,9970213],"voronoi":{"lat":35.83007,"lng":132.851951,"delta_lat":[0,-382875,-2859,81016],"delta_lng":[0,91355,-6850,-38479]}},
    {"code":9970217,"id":"b1428c","name":"松江フォーゲルパーク","name_kana":"まつえふぉーげるぱーく","lat":35.474969,"lng":132.943716,"prefecture":32,"numbering":[{"index":"17"}],"lines":[99702],"attr":"heat","postal_code":"690-0263","address":"松江市大垣町２８-３","next":[9970216,9970218,9970213,1170516,1170109],"voronoi":{"lat":37.31346,"lng":132.630616,"delta_lat":[0,385239,-1868629,-382875,1718],"delta_lng":[0,-96684,318020,91355,11641]}},
    {"code":9970218,"id":"15e878","name":"秋鹿町","name_kana":"あいかまち","lat":35.477231,"lng":132.95672,"prefecture":32,"numbering":[{"index":"18"}],"lines":[99702],"attr":"cool","postal_code":"690-0261","address":"松江市秋鹿町３３４２-２","next":[9970217,1170109,9970219,1170516],"voronoi":{"lat":37.31346,"lng":132.630616,"delta_lat":[0,-1864547,-1336,1236714],"delta_lng":[0,324332,15093,-179152]}},
    {"code":9970219,"id":"565112","name":"長江","name_kana":"ながえ","lat":35.479792,"lng":132.974399,"prefecture":32,"numbering":[{"index":"19"}],"lines":[99702],"attr":"cool","postal_code":"690-0133","address":"松江市東長江町１６２０-３","next":[9970218,1170516,1170108,9970220,1170109],"voronoi":{"lat":35.448156,"lng":132.983723,"delta_lat":[0,718235,517900,-1236714,-3305],"delta_lng":[0,-56855,-135980,179152,8607]}},
    {"code":9970220,"id":"97e95a","name":"朝日ヶ丘","name_kana":"あさひがおか","lat":35.480865,"lng":132.987954,"prefecture":32,"numbering":[{"index":"20"}],"lines":[99702],"attr":"cool","postal_code":"690-0151","address":"島根県松江市古曽志町","next":[1170108,1170516,9970219,9970221],"voronoi":{"lat":36.16639,"lng":132.926869,"delta_lat":[0,-718235,2790,268469],"delta_lng":[0,56855,5840,59395]}},
    {"code":9970221,"id":"0f0dd7","name":"松江イングリッシュガーデン前","name_kana":"まつえいんぐりっしゅがーでんまえ","lat":35.477394,"lng":133.003643,"prefecture":32,"numbering":[{"index":"21"}],"lines":[99702],"attr":"cool","postal_code":"690-0122","address":"松江市西浜佐陀町２６４-６","next":[9970222,1170516,1170108,9970220],"voronoi":{"lat":35.450945,"lng":132.989563,"delta_lat":[0,5543,199516,63410],"delta_lng":[0,31504,47456,-19565]}},
    {"code":9970222,"id":"014784","name":"松江しんじ湖温泉","name_kana":"まつえしんじこおんせん","lat":35.46731,"lng":133.046039,"prefecture":32,"numbering":[{"index":"22"}],"lines":[99702],"attr":"cool","postal_code":"690-0874","address":"松江市中原町３１","next":[1170516,9970221,1170108,1170106,1170107],"voronoi":{"lat":35.453769,"lng":133.023963,"delta_lat":[0,2719,199516,-35554,-163055],"delta_lng":[0,-2895,47456,15630,-30751]}}
  ],
  "north":35.48161,
  "south":35.36108,
  "east":133.04583,
  "west":132.75714,
  "polyline_list":[
    {
      "start":"電鉄出雲市",
      "end":"一畑口",
      "lat":35.36108,
      "lng":132.75714,
      "delta_lat":[0,13,4,11,21,24,17,18,31,29,20,20,38,32,19,76,27,41,20,53,32,22,38,32,23,23,44,41,65,28,155,194,186,120,72,62,21,68,23,18,189,190,186,188,125,66,129,58,48,44,27,32,21,19,45,136,96,53,43,150,43,72,111,110,83,49,118,29,72,41,81,191,5,184,188,121,47,27,194,195,193,91,23,9,23,10,52,46,10,58,20,27,14,2,16,12,12,11,15,23,11,3,19,30,0,24,23,69,31,11,21,16,26,100,24,19,21,16,11,36,31,206,80,14,53,149,12,57,17,70,10,60,145,18,24,25,10,3,23,14,10,1,57,19,6,29,14,6,1,64,9,44,21,34,34,2,16,24,13,23,9,27,9,26,1,11,9,17,15,17,5,31,13,89,15,12,12,65,5,60,90,58,63,9,17,9,2,13,3,6,3,0,0,0,-2,-3,1,4,7,13,6,7,2,14,6,8,21,13,1,5,49,2,50,2,40,49,16,7,7,9,9,41,21,27,103,17,39,20,18,15,56,2,41,11,39,18,9,8,15,1,18,1,1,9,9,11,2,9,3,0,16,3,18,19,6,2,11,2,3,2,3,0,11,2,7,4,6,1,7,6,1,2,2,2,2,1,6,2,0,3,3,1,8,3,2,7,5,4,14,11,2,8,7,32,6,14,14,13,7,37,41,25,48],
      "delta_lng":[0,132,21,87,128,125,75,61,109,93,66,80,113,84,46,166,58,71,31,67,35,18,24,11,6,4,5,1,2,1,5,7,5,5,1,1,-1,-4,-5,-1,-26,-26,-25,-24,-15,-8,-14,-6,-1,1,2,8,7,9,27,152,105,56,48,165,47,75,122,128,104,64,158,37,98,57,107,258,6,248,246,145,57,28,195,189,180,85,22,12,27,12,68,58,14,74,27,37,18,4,23,22,24,25,29,46,22,8,38,59,1,45,50,134,63,18,43,35,51,200,50,32,35,24,16,42,32,198,74,16,47,143,12,52,17,68,9,58,140,20,33,45,18,7,58,36,33,1,173,58,20,86,44,20,5,188,27,134,66,103,102,6,50,70,39,74,23,84,27,78,1,37,24,30,27,25,6,41,16,109,19,16,15,79,6,75,110,70,76,14,25,15,6,81,14,28,30,15,25,33,22,20,20,30,23,37,14,19,4,27,14,13,37,23,4,9,83,4,85,5,70,83,32,12,9,17,14,72,37,46,181,27,67,34,27,24,89,6,66,18,66,41,24,25,46,9,52,2,13,27,31,32,9,30,5,5,53,9,58,46,13,6,23,2,6,6,5,3,28,11,21,12,27,6,37,46,5,20,16,8,5,16,38,2,5,11,12,6,24,7,7,18,6,11,23,14,3,7,8,21,5,9,4,5,4,9,6,2,-2]
    },
    {
      "start":"一畑口",
      "end":"松江しんじ湖温泉",
      "lat":35.46411,
      "lng":132.8828,
      "delta_lat":[0,-38,-13,-22,-2,-16,-12,-30,-11,-5,-24,-5,-10,-4,-10,-5,-5,-5,-1,-3,-2,-3,-1,-1,-4,-9,-3,-1,-1,-1,-1,2,3,4,4,1,-1,0,5,3,1,1,0,9,0,-4,-14,-9,-1,-3,-20,-1,-9,-2,-16,-1,-3,-2,-4,-3,-1,1,2,6,1,5,4,2,13,2,3,4,13,3,3,6,2,1,4,7,4,4,14,16,21,1,0,27,2,3,24,0,45,27,22,3,2,0,6,2,16,0,2,14,16,6,3,1,11,16,1,1,2,4,3,0,0,1,2,0,2,0,21,2,8,1,3,7,12,5,11,7,9,1,8,0,1,0,9,9,1,4,16,0,22,4,1,1,2,7,0,1,6,0,10,13,2,5,8,14,15,3,2,9,33,28,33,19,16,1,4,13,14,12,8,2,9,2,2,17,4,3,15,2,2,3,2,2,6,3,27,0,2,9,32,37,3,7,9,8,12,22,11,9,9,12,11,1,5,7,2,0,-7,0,2,3,7,15,15,24,14,21,14,22,14,4,0,7,13,15,14,22,10,1,1,6,4,1,2,-4,-16,-1,-2,2,8,2,4,5,2,5,2,19,3,-3,-3,-8,-4,-4,-5,-2,-2,0,-1,5,1,9,4,4,1,1,7,1,5,12,2,3,0,4,26,1,2,2,11,7,16,15,3,16,10,17,21,1,33,14,0,2,20,2,81,12,1,2,16,18,3,1,9,2,10,2,2,7,7,0,33,0,3,4,9,4,4,19,7,2,9,0,25,4,5,1,1,16,-1,-2,0,0,-2,0,-2,-9,-7,-9,-12,-18,-13,-15,-45,-13,-16,-9,-6,-4,-2,1,7,4,2,3,2,19,5,15,1,23,1,7,6,21,7,2,6,8,4,6,1,2,3,1,7,7,14,0,1,7,18,0,16,10,3,5,5,0,-3,-4,-8,-9,-12,-16,-3,-34,-9,-32,-32,-34,-43,-46,-29,-30,-35,-19,-19,-9,-6,-4,0,1,4,2,3,0,2,2,1,3,0,1,-1,-3,-5,-4,-3,1,2,6,7,13,2,10,4,0,0,-5,-7,-8,-12,-12,-6,-2,-2,-2,-3,-3,-10,-11,-20,-9,-2,-9,0,-16,-5,-6,-11,-16,-20,-13,-14,-6,-21,-29,-25,-6,-10,-3,-5,-5,-8,-7,-5,-2,-2,-10,-6,-4,-5,-4,-7,-9,-9,-15,-19,-16,-26,-45,-56,-29,-38,-22,-28,-26,-9,-4,-21,-14,-11,-8,-10,-10,-21,-33,-20,-41,-47,-35,-45,-51,-10,-11,-27,-23,-19,-33,-23,-4,-3,-2,-1,0,1,2,6,14,5,8,12,18,18,13,22,27,25,18,27],
      "delta_lng":[0,4,6,9,2,8,10,27,14,4,41,9,29,10,49,34,70,61,14,25,21,39,14,4,28,80,50,13,21,32,27,86,60,47,48,69,67,77,72,45,12,8,13,61,50,38,62,40,10,10,92,6,39,5,73,3,8,9,26,8,51,53,3,42,4,24,13,7,39,11,12,11,49,10,11,28,1,4,13,28,12,13,50,37,40,1,6,43,0,5,34,1,54,29,28,1,4,3,5,6,27,4,1,32,41,25,5,4,35,55,11,0,11,12,16,6,2,0,7,10,1,9,84,12,31,9,11,32,56,22,51,41,53,2,42,5,1,4,50,48,12,20,80,4,104,16,8,2,13,29,4,7,24,7,45,62,19,14,22,23,19,0,6,11,22,16,14,14,14,1,5,12,19,21,18,3,19,1,8,36,10,4,36,0,8,1,9,3,11,9,56,1,5,16,70,78,4,16,19,19,24,75,44,27,36,29,36,8,27,62,11,65,117,21,24,27,31,49,41,58,32,51,29,43,29,5,4,16,25,31,33,47,32,6,0,18,27,12,22,65,98,21,44,58,59,13,13,20,11,27,10,93,40,27,15,25,14,5,28,18,2,22,38,30,7,38,13,14,4,3,23,8,16,49,8,5,8,19,89,9,4,11,30,14,32,30,5,26,22,39,47,7,82,33,4,2,51,8,204,27,6,3,43,43,11,1,22,5,26,9,2,17,16,3,80,2,10,9,23,13,9,67,25,19,35,6,191,24,35,3,15,116,66,28,5,1,9,17,19,95,39,48,32,52,29,26,66,22,34,28,38,33,28,20,22,13,10,5,2,46,16,38,1,58,3,17,13,57,21,4,17,21,16,13,6,8,9,2,25,19,53,4,1,27,70,6,61,50,17,36,68,50,25,20,34,30,34,35,8,67,15,57,50,48,56,55,29,42,48,36,40,27,29,28,18,26,18,15,14,14,13,17,13,35,31,5,68,33,35,21,26,35,21,27,32,46,12,59,27,20,45,41,58,62,87,79,49,12,18,14,26,27,79,89,174,66,31,58,16,122,50,31,65,69,66,49,48,18,64,91,73,22,38,17,31,67,71,70,39,8,52,119,79,42,53,37,25,20,20,19,22,13,16,28,34,17,23,15,28,34,12,10,53,34,28,15,20,22,41,51,27,48,54,39,51,61,15,21,54,46,41,72,46,14,11,13,13,22,13,17,21,48,16,29,49,59,59,42,75,87,80,65,87]
    }
  ]
}