{
  "code":99706,
  "name":"岡山電軌東山本線",
  "color":"#0000FF",
  "station_list":[
    {"code":9970601,"id":"bba0b3","name":"岡山駅前","name_kana":"おかやまえきまえ","lat":34.665458,"lng":133.9201,"prefecture":33,"lines":[99706,99707],"attr":"eco","postal_code":"700-0023","address":"岡山市駅前町１-１"},
    {"code":9970602,"id":"255fc1","name":"西川緑道公園","name_kana":"にしがわりょくどうこうえん","lat":34.665599,"lng":133.923018,"prefecture":33,"lines":[99706,99707],"attr":"eco","postal_code":"700-0815","address":"岡山市野田屋町１-１"},
    {"code":9970603,"id":"cef8e7","name":"柳川","name_kana":"やながわ","lat":34.665635,"lng":133.925507,"prefecture":33,"lines":[99706,99707],"attr":"eco","postal_code":"700-0826","address":"岡山市磨屋町２-１"},
    {"code":9970604,"id":"badf4b","name":"城下(岡山)","name_kana":"しろした","lat":34.665599,"lng":133.929756,"prefecture":33,"lines":[99706],"attr":"eco","postal_code":"700-0822","address":"岡山市表町１-３"},
    {"code":9970605,"id":"48dcb1","name":"県庁通り","name_kana":"けんちょうどおり","lat":34.662599,"lng":133.930485,"prefecture":33,"lines":[99706],"attr":"eco","postal_code":"700-0823","address":"岡山市丸の内１-１５"},
    {"code":9970606,"id":"c57307","name":"西大寺町","name_kana":"さいだいじちょう","lat":34.658469,"lng":133.930528,"prefecture":33,"lines":[99706],"attr":"heat","postal_code":"700-0822","address":"岡山市表町３-９"},
    {"code":9970607,"id":"dec828","name":"小橋","name_kana":"こばし","lat":34.657657,"lng":133.936236,"prefecture":33,"lines":[99706],"attr":"heat","postal_code":"703-8293","address":"岡山市小橋町１-１"},
    {"code":9970608,"id":"344be8","name":"中納言","name_kana":"ちゅうなごん","lat":34.657516,"lng":133.937824,"prefecture":33,"lines":[99706],"attr":"heat","postal_code":"703-8293","address":"岡山市小橋町１-２"},
    {"code":9970609,"id":"3c2c81","name":"門田屋敷","name_kana":"かどたやしき","lat":34.65621,"lng":133.938811,"prefecture":33,"lines":[99706],"attr":"cool","postal_code":"703-8275","address":"岡山市門田屋敷２-１"},
    {"code":9970610,"id":"d550d1","name":"東山・おかでんミュージアム駅","name_kana":"ひがしやま・おかでんみゅーじあむえき","lat":34.656245,"lng":133.942759,"prefecture":33,"lines":[99706],"attr":"cool","postal_code":"703-8291","address":"岡山市徳吉町２-１０"}
  ],
  "north":34.66557,
  "south":34.65617,
  "east":133.94325,
  "west":133.9194,
  "polyline_list":[
    {
      "start":"東山",
      "end":"岡山駅前",
      "lat":34.65618,
      "lng":133.94325,
      "delta_lat":[0,0,1,-1,-1,0,3,5,9,9,7,13,21,17,13,10,9,6,4,3,9,5,6,3,6,18,18,7,4,5,1,1,5,8,46,149,175,31,47,128,119,8,7,4,1,0,-1,0,0,-1,0,-1,0,0,0,0,0,0,0,-2,-2,0],
      "delta_lng":[0,-54,-196,-148,-57,-78,-8,-5,-5,-2,0,5,12,8,5,3,-1,-6,-6,-7,-58,-44,-49,-32,-42,-156,-160,-57,-55,-59,-8,-3,-3,-1,-2,-2,-4,0,1,-4,-5,-1,-3,-5,-13,-16,-56,-27,-96,-115,-94,-32,-24,-54,-37,-103,-10,-55,-75,-92,-138,-56]
    }
  ]
}