{
  "code":99709,
  "name":"アストラムライン",
  "color":"#FFD400",
  "station_list":[
    {"code":9970901,"id":"fafc81","name":"本通","name_kana":"ほんどおり","lat":34.393377,"lng":132.457003,"prefecture":34,"lines":[99709,99710,99712,99715],"attr":"heat","postal_code":"730-0035","address":"広島市中区本通６-３０"},
    {"code":9970902,"id":"90fc64","name":"県庁前(広島)","name_kana":"けんちょうまえ","lat":34.396863,"lng":132.458231,"prefecture":34,"lines":[99709],"attr":"heat","postal_code":"730-0011","address":"広島市中区基町１０-９０"},
    {"code":9970903,"id":"0d99a7","name":"城北","name_kana":"じょうほく","lat":34.405407,"lng":132.458914,"prefecture":34,"lines":[99709],"attr":"heat","postal_code":"730-0005","address":"広島市中区西白島町２５-８０"},
    {"code":1161130,"id":"454a78","name":"新白島","name_kana":"しんはくしま","lat":34.408361,"lng":132.461528,"prefecture":34,"lines":[11611,11717,99709],"attr":"cool","postal_code":"730-0005","address":"広島市中区西白島町154-1"},
    {"code":9970904,"id":"bd958b","name":"白島(広島高速交通)","name_kana":"はくしま","lat":34.411045,"lng":132.462674,"prefecture":34,"lines":[99709],"attr":"heat","postal_code":"730-0001","address":"広島県広島市中区白島北町2"},
    {"code":9970905,"id":"4a7e80","name":"牛田(広島)","name_kana":"うした","lat":34.417142,"lng":132.464585,"prefecture":34,"lines":[99709],"attr":"heat","postal_code":"732-0068","address":"広島市東区牛田新町２-４-４４"},
    {"code":9970906,"id":"242ab5","name":"不動院前","name_kana":"ふどういんまえ","lat":34.426921,"lng":132.469306,"prefecture":34,"lines":[99709],"attr":"heat","postal_code":"732-0068","address":"広島市東区牛田新町３-３-１２"},
    {"code":9970907,"id":"7bb208","name":"祇園新橋北","name_kana":"ぎおんしんばしきた","lat":34.435148,"lng":132.47075,"prefecture":34,"lines":[99709],"attr":"heat","postal_code":"731-0113","address":"広島市安佐南区西原４-４３-２８"},
    {"code":9970908,"id":"e875eb","name":"西原(広島)","name_kana":"にしはら","lat":34.44327,"lng":132.47478,"prefecture":34,"lines":[99709],"attr":"heat","postal_code":"731-0113","address":"広島市安佐南区西原８-３４-１"},
    {"code":9970909,"id":"d0564c","name":"中筋","name_kana":"なかすじ","lat":34.451869,"lng":132.477049,"prefecture":34,"lines":[99709],"attr":"heat","postal_code":"731-0122","address":"広島市安佐南区中筋２-６-１７"},
    {"code":9970910,"id":"59085f","name":"古市(広島)","name_kana":"ふるいち","lat":34.457863,"lng":132.47508,"prefecture":34,"lines":[99709],"attr":"heat","postal_code":"731-0121","address":"広島市安佐南区中須１-１-１６"},
    {"code":1171707,"id":"f9226d","name":"大町(広島)","name_kana":"おおまち","lat":34.461136,"lng":132.470655,"prefecture":34,"lines":[11717,99709],"attr":"heat","postal_code":"731-0124","address":"広島市安佐南区大町東２丁目"},
    {"code":9970912,"id":"85c50d","name":"毘沙門台","name_kana":"びしゃもんだい","lat":34.469417,"lng":132.462827,"prefecture":34,"lines":[99709],"attr":"cool","postal_code":"731-0152","address":"広島市安佐南区毘沙門台１-７-４５"},
    {"code":9970913,"id":"6d0bcb","name":"安東","name_kana":"やすひがし","lat":34.475169,"lng":132.453067,"prefecture":34,"lines":[99709],"attr":"cool","postal_code":"731-0153","address":"広島市安佐南区安東２-１０-１"},
    {"code":9970914,"id":"17ffac","name":"上安","name_kana":"かみやす","lat":34.475735,"lng":132.444662,"prefecture":34,"lines":[99709],"attr":"cool","postal_code":"731-0154","address":"広島市安佐南区上安２-３０-１０"},
    {"code":9970915,"id":"3e5bb6","name":"高取","name_kana":"たかとり","lat":34.475132,"lng":132.438102,"prefecture":34,"lines":[99709],"attr":"cool","postal_code":"731-0144","address":"広島市安佐南区高取北１-４-２８"},
    {"code":9970916,"id":"c15f95","name":"長楽寺","name_kana":"ちょうらくじ","lat":34.472782,"lng":132.4306,"prefecture":34,"lines":[99709],"attr":"cool","postal_code":"731-0143","address":"広島市安佐南区長楽寺１-２８-３７"},
    {"code":9970917,"id":"8b4857","name":"伴","name_kana":"とも","lat":34.469996,"lng":132.419667,"prefecture":34,"lines":[99709],"attr":"cool","postal_code":"731-3161","address":"広島市安佐南区沼田町大字伴８６６９-４"},
    {"code":9970918,"id":"176e70","name":"大原(広島)","name_kana":"おおはら","lat":34.462852,"lng":132.412354,"prefecture":34,"lines":[99709],"attr":"eco","postal_code":"731-3161","address":"広島市安佐南区沼田町大字伴５８１５-１１"},
    {"code":9970919,"id":"87c607","name":"伴中央","name_kana":"ともちゅうおう","lat":34.455514,"lng":132.405038,"prefecture":34,"lines":[99709],"attr":"eco","postal_code":"731-3161","address":"広島市安佐南区沼田町大字伴４２１９-１１"},
    {"code":9970920,"id":"877928","name":"大塚(広島)","name_kana":"おおづか","lat":34.441466,"lng":132.402702,"prefecture":34,"lines":[99709],"attr":"eco","postal_code":"731-3167","address":"広島市安佐南区大塚西三丁目21"},
    {"code":9970921,"id":"738542","name":"広域公園前","name_kana":"こういきこうえんまえ","lat":34.43538,"lng":132.400089,"prefecture":34,"lines":[99709],"attr":"eco","postal_code":"731-3167","address":"広島市安佐南区大塚西４-４-８"}
  ],
  "north":34.47601,
  "south":34.39316,
  "east":132.47788,
  "west":132.39991,
  "polyline_list":[
    {
      "start":"広域公園前",
      "end":"本通",
      "lat":34.43516,
      "lng":132.39991,
      "delta_lat":[0,56,38,37,66,55,21,14,19,18,33,47,54,45,31,14,34,49,67,22,32,154,51,67,32,29,40,63,34,17,90,159,94,47,103,34,33,29,21,15,9,23,117,65,67,52,40,27,25,16,18,26,36,29,20,49,52,66,71,72,48,14,20,27,23,33,32,16,49,42,18,12,20,13,11,20,34,82,90,14,19,19,18,13,8,9,8,6,5,11,14,23,19,8,10,13,40,40,32,14,7,9,11,4,0,7,4,4,8,13,37,26,66,22,19,22,12,7,31,16,4,1,1,7,9,13,7,2,11,3,6,4,1,0,-5,-9,-7,-14,-28,-31,-38,-108,-24,-59,-42,-43,-47,-27,-65,-87,-21,-24,-15,-10,-18,-19,-31,-47,-64,-56,-33,-44,-34,-27,-34,-14,-8,-20,-4,-51,-217,-49,-29,-22,-23,-30,-9,-52,-184,-51,-49,-58,-76,-29,-7,-11,-6,-12,-26,-37,-34,-60,-114,-63,-168,-68,-151,-92,-71,-79,-150,-67,-37,-73,-78,-20,-40,-62,-53,-40,-45,-38,-79,-58,-51,-57,-56,-70,-34,-33,-26,-31,-26,-19,-25,-30,-30,-28,-23,-148,-5,-96,-57,-14,-7,-16,-13,-7,-13,-32,-39,-50,-50,-65,-55,-19,-44,-41,-32,-39,-101,-56,-51,-52,-44,-18,-47,-19,-42,-13,-4,-59,-45,-6,-68,-157,-26,-14,-26,-16,-27,-82,-188,-70,-99,-22,-16,-11,-37,-24,-46,-54,-11,-67,-21,-17,-69,-64,-26,-290,-14,-84,-22,-21,-131,-13,-14,-22,-23,-60,-81,-54,-15,-259,-61],
      "delta_lng":[0,42,30,27,51,41,14,6,4,3,4,3,5,5,4,4,14,28,36,10,10,53,16,23,7,-1,-10,-16,-8,-1,2,8,4,2,4,2,5,5,2,4,3,9,46,26,27,21,19,16,17,13,19,32,52,42,27,71,69,80,91,90,60,16,19,16,12,9,8,2,10,9,5,4,8,8,9,22,37,91,102,15,23,22,25,22,15,18,28,27,32,83,95,166,123,31,24,30,76,73,62,30,17,25,39,32,18,61,56,40,49,42,84,66,157,57,59,100,50,34,145,79,29,33,34,91,125,267,83,56,159,50,129,54,29,56,43,46,23,35,50,48,58,164,37,88,66,80,89,54,123,168,40,39,16,9,11,7,9,15,19,19,17,31,23,17,28,14,7,29,5,80,352,76,49,32,28,35,10,53,194,51,51,62,76,28,4,3,2,-1,-7,-11,-14,-21,-31,-18,-45,-20,-40,-26,-21,-18,-32,-13,-5,-14,-16,-1,-10,-18,-25,-19,-24,-24,-56,-47,-37,-44,-47,-52,-27,-27,-18,-13,-9,-4,-3,1,0,5,4,37,0,24,13,4,1,2,0,-2,-9,-33,-44,-54,-56,-71,-49,-16,-35,-26,-18,-18,-38,-18,-5,-5,1,0,-1,-3,-4,-5,-1,-20,-15,0,-23,-51,-7,-4,-4,-3,-7,-26,-59,-22,-31,-9,-9,-10,-39,-25,-51,-63,-11,-66,-17,-7,-25,-24,-9,-130,-5,-8,1,9,122,11,6,1,-6,-17,-29,-19,-6,-86,-21]
    }
  ]
}