{
  "code":99711,
  "name":"広電２系統(宮島線)",
  "name_formal":"広電２号線(宮島線)",
  "color":"#EE0000",
  "station_list":[
    {"code":9971001,"id":"da83b7","name":"広島駅","name_kana":"ひろしまえき","lat":34.396296,"lng":132.475403,"prefecture":34,"numbering":[{"symbol":"M","index":"1"}],"lines":[99710,99711,99713,99714],"attr":"heat","postal_code":"732-0822","address":"広島市南区松原町","next":[9971004,100312,9971002,9971003,9971005],"voronoi":{"lat":34.395034,"lng":132.472956,"delta_lat":[0,-118,1615,1187,-238],"delta_lng":[0,1090,3514,-7184,100]}},
    {"code":9971002,"id":"99731b","name":"猿猴橋町","name_kana":"えんこうばしちょう","lat":34.395047,"lng":132.475977,"prefecture":34,"numbering":[{"symbol":"M","index":"2"}],"lines":[99710,99711,99713,99714],"attr":"cool","postal_code":"732-0823","address":"広島市南区猿猴橋町","next":[100312,9971003,1171445,9971001,1161114],"voronoi":{"lat":34.38869,"lng":132.486275,"delta_lat":[0,6225,1615,1465,-3967],"delta_lng":[0,-12230,3514,9154,778]}},
    {"code":9971003,"id":"500f85","name":"的場町","name_kana":"まとばちょう","lat":34.393277,"lng":132.475076,"prefecture":34,"numbering":[{"symbol":"M","index":"3"}],"lines":[99710,99711,99713,99714],"attr":"cool","postal_code":"732-0824","address":"広島市南区的場町１","next":[9971004,1161114,9971002,9971001,9971304],"voronoi":{"lat":34.38869,"lng":132.486275,"delta_lat":[0,6225,118,-2902,-4259],"delta_lng":[0,-12230,-1090,614,12589]}},
    {"code":9971004,"id":"26f8c7","name":"稲荷町(広島)","name_kana":"いなりまち","lat":34.392569,"lng":132.471728,"prefecture":34,"numbering":[{"symbol":"M","index":"4"}],"lines":[99710,99711,99714],"attr":"cool","postal_code":"732-0827","address":"広島市南区稲荷町","next":[9971005,9971001,9971003,9971305,9971304],"voronoi":{"lat":34.389775,"lng":132.471294,"delta_lat":[0,246,7458,-2446,-2902],"delta_lng":[0,-1912,1093,2480,614]}},
    {"code":9971005,"id":"799db5","name":"銀山町","name_kana":"かなやまちょう","lat":34.393135,"lng":132.467866,"prefecture":34,"numbering":[{"symbol":"M","index":"5"}],"lines":[99710,99711,99714],"attr":"cool","postal_code":"730-0022","address":"広島市中区銀山町","next":[9971006,9971004,9971702,100312,9971305,9971703,9971001],"voronoi":{"lat":34.390022,"lng":132.469382,"delta_lat":[0,-1721,7434,1891,264,-172,-238],"delta_lng":[0,-3385,709,2871,702,96,100]}},
    {"code":9971006,"id":"c74e14","name":"胡町","name_kana":"えびすちょう","lat":34.393401,"lng":132.465076,"prefecture":34,"numbering":[{"symbol":"M","index":"6"}],"lines":[99710,99711,99714],"attr":"cool","postal_code":"730-0021","address":"広島市中区胡町","next":[9971005,9971007,9971305,9971012,9971702,9971306],"voronoi":{"lat":34.3883,"lng":132.465997,"delta_lat":[0,7434,-128,-8706,-184,1132],"delta_lng":[0,709,-1887,-2581,88,3180]}},
    {"code":9971007,"id":"e0dfd4","name":"八丁堀(広島)","name_kana":"はっちょうぼり","lat":34.393897,"lng":132.463403,"prefecture":34,"numbering":[{"symbol":"M","index":"7"}],"lines":[99710,99711,99714,99717],"attr":"cool","postal_code":"730-0021","address":"広島市中区胡町","next":[9971011,9971012,9971006,9971702,9971008],"voronoi":{"lat":34.389616,"lng":132.460912,"delta_lat":[0,-1559,-1156,8706,742],"delta_lng":[0,588,739,2581,-2121]}},
    {"code":9971008,"id":"e4a8ad","name":"立町","name_kana":"たてまち","lat":34.394569,"lng":132.460871,"prefecture":34,"numbering":[{"symbol":"M","index":"8"}],"lines":[99710,99711,99714],"attr":"cool","postal_code":"730-0032","address":"広島市中区立町","next":[9971011,9971009,9971702,9970902,9971007,9970901],"voronoi":{"lat":34.389616,"lng":132.460912,"delta_lat":[0,6733,1525,-1947,-2770,-2029],"delta_lng":[0,1787,-1273,-1692,-545,626]}},
    {"code":9971009,"id":"db8f16","name":"紙屋町東","name_kana":"かみやちょうひがし","lat":34.395101,"lng":132.458167,"prefecture":34,"numbering":[{"symbol":"M","index":"9"}],"lines":[99710,99711,99714],"attr":"cool","postal_code":"730-0031","address":"広島市中区紙屋町","next":[9971110,9970901,9971008,9970902],"voronoi":{"lat":34.393156,"lng":132.459189,"delta_lat":[0,1266,1575,-71],"delta_lng":[0,-1875,464,1956]}},
    {"code":9971110,"id":"27ea6b","name":"紙屋町西","name_kana":"かみやちょうにし","lat":34.395455,"lng":132.456965,"prefecture":34,"numbering":[{"symbol":"M","index":"9"}],"lines":[99711,99712,99714,99715],"attr":"cool","postal_code":"730-0031","address":"広島市中区紙屋町","next":[9971009,9970902,9971111,9970901],"voronoi":{"lat":34.395997,"lng":132.457778,"delta_lat":[0,1705,-3321,41],"delta_lng":[0,-1896,-772,2204]}},
    {"code":9971111,"id":"9ca2ba","name":"原爆ドーム前","name_kana":"げんばくどーむまえ","lat":34.396163,"lng":132.453918,"prefecture":34,"numbering":[{"symbol":"M","index":"10"}],"lines":[99711,99712,99714,99715],"attr":"cool","postal_code":"730-0051","address":"広島市中区大手町１","next":[9971503,9970902,9971112,9970901,9971110,9971011,9970903],"voronoi":{"lat":34.397702,"lng":132.455881,"delta_lat":[0,-3321,-1177,-1342,9308,686,-458],"delta_lng":[0,-772,-1062,-2910,2112,1185,847]}},
    {"code":9971112,"id":"c76b9e","name":"本川町","name_kana":"ほんかわちょう","lat":34.396942,"lng":132.450485,"prefecture":34,"numbering":[{"symbol":"M","index":"11"}],"lines":[99711,99712,99714,99715],"attr":"cool","postal_code":"730-0802","address":"広島市中区本川町１","next":[9971503,9971011,9971113,9971012,9971111,9971114,9971504],"voronoi":{"lat":34.40117,"lng":132.453249,"delta_lat":[0,-9308,-223,-153,4064,3350,2232],"delta_lng":[0,-2112,-224,-254,-2091,496,3960]}},
    {"code":9971113,"id":"b08eac","name":"十日市町","name_kana":"とうかいちまち","lat":34.397438,"lng":132.447138,"prefecture":34,"numbering":[{"symbol":"M","index":"12"}],"lines":[99711,99712,99714,99715,99716],"attr":"cool","postal_code":"730-0805","address":"広島市中区十日市町１","next":[9971112,9971114,9971504,9971115,9971116],"voronoi":{"lat":34.396645,"lng":132.44503,"delta_lat":[0,-1094,3350,1788,-2082],"delta_lng":[0,3539,496,-6685,704]}},
    {"code":9971114,"id":"41e3ec","name":"土橋(広島)","name_kana":"どばし","lat":34.3948,"lng":132.446322,"prefecture":34,"numbering":[{"symbol":"M","index":"13"}],"lines":[99711,99712,99714,99716],"attr":"cool","postal_code":"730-0853","address":"広島市中区堺町２","next":[9971113,9971012,9971112,9971415,9971115],"voronoi":{"lat":34.396645,"lng":132.44503,"delta_lat":[0,-1094,-4064,-629,1161],"delta_lng":[0,3539,2091,-417,-4647]}},
    {"code":9971115,"id":"46f23f","name":"小網町","name_kana":"こあみちょう","lat":34.394543,"lng":132.44422,"prefecture":34,"numbering":[{"symbol":"M","index":"14"}],"lines":[99711,99712],"attr":"cool","postal_code":"730-0855","address":"広島市中区小網町","next":[9971415,9971116,9971113,9971114],"voronoi":{"lat":34.396645,"lng":132.44503,"delta_lat":[0,1962,-7097,509],"delta_lng":[0,-1946,-1309,3821]}},
    {"code":9971116,"id":"b11c25","name":"天満町","name_kana":"てんまちょう","lat":34.395216,"lng":132.440572,"prefecture":34,"numbering":[{"symbol":"M","index":"15"}],"lines":[99711,99712],"attr":"cool","postal_code":"733-0031","address":"広島市西区観音町","next":[9971115,9971504,9971113,9971118,9971415,9971117],"voronoi":{"lat":34.393227,"lng":132.439173,"delta_lat":[0,-2903,1185,7097,2082,2270],"delta_lng":[0,969,1632,1309,-704,-1778]}},
    {"code":9971117,"id":"045a08","name":"観音町(広島)","name_kana":"かんおんまち","lat":34.395534,"lng":132.438405,"prefecture":34,"numbering":[{"symbol":"M","index":"16"}],"lines":[99711,99712],"attr":"heat","postal_code":"733-0031","address":"広島市西区観音町","next":[1171703,9971119,9971503,1161117,9971504,9971116,9971118],"voronoi":{"lat":34.396356,"lng":132.436018,"delta_lat":[0,8468,4449,-193,-2818,-3304,-9731],"delta_lng":[0,-1031,981,467,2265,1902,-1428]}},
    {"code":9971118,"id":"c6d365","name":"西観音町","name_kana":"にしかんおんまち","lat":34.393976,"lng":132.43686,"prefecture":34,"numbering":[{"symbol":"M","index":"17"}],"lines":[99711,99712],"attr":"heat","postal_code":"733-0037","address":"広島市西区西観音町","next":[9971418,9971415,9971116,9971417,9971416,9971119,9971117],"voronoi":{"lat":34.396356,"lng":132.436018,"delta_lat":[0,-10295,72,1466,2245,480,2903],"delta_lng":[0,-3506,372,3701,3275,283,-969]}},
    {"code":9971119,"id":"3445d8","name":"福島町","name_kana":"ふくしまちょう","lat":34.394985,"lng":132.433898,"prefecture":34,"numbering":[{"symbol":"M","index":"18"}],"lines":[99711,99712],"attr":"heat","postal_code":"733-0024","address":"広島市西区福島町２","next":[9971117,9971418,1161117,9971120,9971118,9971121],"voronoi":{"lat":34.388769,"lng":132.42811,"delta_lat":[0,10900,5156,-8468,-10295,-1337],"delta_lng":[0,4396,2480,1031,-3506,-3495]}},
    {"code":9971120,"id":"269fb2","name":"広電西広島（己斐）","name_kana":"ひろでんにしひろしま(こい)","lat":34.397261,"lng":132.428255,"prefecture":34,"numbering":[{"symbol":"M","index":"19"}],"lines":[99711,99712],"attr":"eco","postal_code":"733-0812","address":"広島市西区己斐本町一丁目","next":[9971121,1161117,9971119],"voronoi":{"lat":34.395409,"lng":132.423696,"delta_lat":[0,-6641,10900],"delta_lng":[0,4415,4396]}},
    {"code":9971121,"id":"352e05","name":"東高須","name_kana":"ひがしたかす","lat":34.391922,"lng":132.420224,"prefecture":34,"numbering":[{"symbol":"M","index":"20"}],"lines":[99711],"attr":"heat","postal_code":"733-0871","address":"広島市西区高須１-５３４-４","next":[9971120,1161117,9971419,9970921,9971418,9971122,9971119],"voronoi":{"lat":34.382386,"lng":132.427611,"delta_lat":[0,-2117,31159,2099,-18117,-6641,-4044],"delta_lng":[0,-2095,-20157,4530,13807,4415,906]}},
    {"code":9971122,"id":"911f4a","name":"高須(広島)","name_kana":"たかす","lat":34.389872,"lng":132.417055,"prefecture":34,"numbering":[{"symbol":"M","index":"21"}],"lines":[99711],"attr":"heat","postal_code":"733-0871","address":"広島市西区高須１-４５０-１０","next":[9971419,9971123,9970921,9971420,9971121],"voronoi":{"lat":34.411428,"lng":132.405358,"delta_lat":[0,-1749,-33676,3192,1074],"delta_lng":[0,-4692,21142,2920,787]}},
    {"code":9971123,"id":"beb257","name":"古江","name_kana":"ふるえ","lat":34.386311,"lng":132.411383,"prefecture":34,"numbering":[{"symbol":"M","index":"22"}],"lines":[99711],"attr":"heat","postal_code":"733-0872","address":"広島市西区古江東町９７７-６","next":[9971124,9971122,9970921,9971420],"voronoi":{"lat":34.409679,"lng":132.400666,"delta_lat":[0,-1858,-39494,7676],"delta_lng":[0,-8072,24914,4300]}},
    {"code":9971124,"id":"342886","name":"草津(広島)","name_kana":"くさつ","lat":34.3816,"lng":132.403915,"prefecture":34,"numbering":[{"symbol":"M","index":"23"}],"lines":[99711],"attr":"heat","postal_code":"733-0861","address":"広島市西区草津東３-２４３-１","next":[9970921,9971123,9971125,1161118,9971420],"voronoi":{"lat":34.358767,"lng":132.4148,"delta_lat":[0,47973,442,638,-39494],"delta_lng":[0,-30958,-221,8974,24914]}},
    {"code":9971125,"id":"6fdf2b","name":"草津南","name_kana":"くさつみなみ","lat":34.378092,"lng":132.398479,"prefecture":34,"numbering":[{"symbol":"M","index":"24"}],"lines":[99711],"attr":"heat","postal_code":"733-0863","address":"広島市西区草津南３-１８４８","next":[9971126,9971124,9971420,1161118],"voronoi":{"lat":34.337103,"lng":132.411572,"delta_lat":[0,21665,47973,-29868],"delta_lng":[0,3227,-30958,11350]}},
    {"code":9971126,"id":"6ba663","name":"商工センター入口","name_kana":"しょうこうせんたーいりぐち","lat":34.375423,"lng":132.391999,"prefecture":34,"numbering":[{"symbol":"M","index":"25"}],"lines":[99711],"attr":"heat","postal_code":"733-0842","address":"広島市西区井口１-８２６-３３","next":[9971125,1161118,9971420,9971127],"voronoi":{"lat":34.374096,"lng":132.3886,"delta_lat":[0,2777,-39770,-1579],"delta_lng":[0,6591,16381,-105]}},
    {"code":9971127,"id":"994226","name":"井口(広島)","name_kana":"いのくち","lat":34.371751,"lng":132.385805,"prefecture":34,"numbering":[{"symbol":"M","index":"26"}],"lines":[99711],"attr":"heat","postal_code":"733-0842","address":"広島市西区井口２-７９９-１４","next":[9971420,9971128,9971126,9971027,1161118],"voronoi":{"lat":34.335524,"lng":132.411467,"delta_lat":[0,-5920,-31655,107015,-30868],"delta_lng":[0,88,-8668,-33709,19422]}},
    {"code":9971128,"id":"fb7594","name":"修大協創中高前","name_kana":"しゅうだいきょうそうちゅうこうまえ","lat":34.368218,"lng":132.374589,"prefecture":34,"numbering":[{"symbol":"M","index":"27"}],"lines":[99711],"attr":"heat","postal_code":"733-0842","address":"広島市西区井口４-２３-１","next":[1161119,9970921,9971127,9971027,1161118,9971138,9971129],"voronoi":{"lat":34.27714,"lng":132.398896,"delta_lat":[0,20808,107015,4450,1974,-43653,-83772],"delta_lng":[0,3992,-33709,-1895,-5197,9020,22706]}},
    {"code":9971129,"id":"9dfbec","name":"広電五日市","name_kana":"ひろでんいつかいち","lat":34.366393,"lng":132.367856,"prefecture":34,"numbering":[{"symbol":"M","index":"28"}],"lines":[99711],"attr":"eco","postal_code":"731-5133","address":"広島市佐伯区旭園２-７２０-９","next":[1161119,9971138,9971128,9971130],"voronoi":{"lat":34.365582,"lng":132.364834,"delta_lat":[0,2152,-83772,24974],"delta_lng":[0,6272,22706,-20224]}},
    {"code":9971130,"id":"21e3a8","name":"佐伯区役所前","name_kana":"さえきくやくしょまえ","lat":34.365443,"lng":132.361709,"prefecture":34,"numbering":[{"symbol":"M","index":"29"}],"lines":[99711],"attr":"eco","postal_code":"731-5135","address":"広島市佐伯区海老園２-４-６","next":[1161119,9971131,9971133,9971138,9970921,9971129],"voronoi":{"lat":34.320849,"lng":132.36283,"delta_lat":[0,3204,92977,-1637,-49810,-56646],"delta_lng":[0,-1107,-11104,2982,11234,8754]}},
    {"code":9971131,"id":"3ca3ab","name":"楽々園","name_kana":"らくらくえん","lat":34.364282,"lng":132.351988,"prefecture":34,"numbering":[{"symbol":"M","index":"30"}],"lines":[99711],"attr":"eco","postal_code":"731-5136","address":"広島市佐伯区楽々園２-５４７-３","next":[9971132,9971130,9970921,9971133],"voronoi":{"lat":34.417029,"lng":132.350618,"delta_lat":[0,12467,-80702,-24742],"delta_lng":[0,-18429,17543,11990]}},
    {"code":9971132,"id":"54144e","name":"山陽女学園前","name_kana":"さんようじょがくえんまえ","lat":34.361948,"lng":132.341251,"prefecture":34,"numbering":[{"symbol":"M","index":"31"}],"lines":[99711],"attr":"eco","postal_code":"738-0001","address":"廿日市市佐方岩戸山１４００-４","next":[9970921,9970919,9971131,9971133,1161120],"voronoi":{"lat":34.50516,"lng":132.231698,"delta_lat":[0,-27701,-47962,-80702,9901],"delta_lng":[0,40634,59858,17543,-10399]}},
    {"code":9971133,"id":"38e23a","name":"広電廿日市","name_kana":"ひろでんはつかいち","lat":34.356621,"lng":132.336179,"prefecture":34,"numbering":[{"symbol":"M","index":"32"}],"lines":[99711],"attr":"eco","postal_code":"738-0013","address":"廿日市市廿日市２-１-２５","next":[9971134,9971132,9971135,9971130,9971138,1161120,9971131],"voronoi":{"lat":34.348794,"lng":132.349732,"delta_lat":[0,9901,-2990,-19197,-8740,-6920,3204],"delta_lng":[0,-10399,-6965,11313,7300,11848,-1107]}},
    {"code":9971134,"id":"0f7a68","name":"廿日市市役所前（平良）","name_kana":"はつかいちしやくしょまえ(へら)","lat":34.352816,"lng":132.329722,"prefecture":34,"numbering":[{"symbol":"M","index":"33"}],"lines":[99711],"attr":"eco","postal_code":"738-0024","address":"廿日市市新宮一丁目","next":[9970919,9971133,1161121,9971135,1161120],"voronoi":{"lat":34.336508,"lng":132.343681,"delta_lat":[0,15107,203472,-4065,-195317],"delta_lng":[0,-17956,-164138,5544,165237]}},
    {"code":9971135,"id":"09f79d","name":"宮内(広島)","name_kana":"みやうち","lat":34.347472,"lng":132.325226,"prefecture":34,"numbering":[{"symbol":"M","index":"34"}],"lines":[99711],"attr":"eco","postal_code":"738-0033","address":"廿日市市串戸２-２３０-３","next":[1161121,9971136,9971138,9971134,9971133],"voronoi":{"lat":34.330292,"lng":132.343015,"delta_lat":[0,15420,5903,-15107,-8740],"delta_lng":[0,-19196,1907,17956,7300]}},
    {"code":9971136,"id":"969130","name":"ＪＡ広島病院前","name_kana":"じぇいえいひろしまびょういんまえ","lat":34.343959,"lng":132.322404,"prefecture":34,"numbering":[{"symbol":"M","index":"35"}],"lines":[99711],"attr":"eco","postal_code":"738-0042","address":"廿日市市地御前１-９９６４","next":[9971137,9971135,1161121,9971138],"voronoi":{"lat":34.345713,"lng":132.323818,"delta_lat":[0,3774,-17304,-1890],"delta_lng":[0,-11606,22168,8634]}},
    {"code":9971137,"id":"842dfa","name":"地御前","name_kana":"じごぜん","lat":34.340942,"lng":132.320049,"prefecture":34,"numbering":[{"symbol":"M","index":"36"}],"lines":[99711],"attr":"eco","postal_code":"738-0042","address":"廿日市市地御前５-２５７９-２","next":[9971140,9971138,1161124,1161121,9971136,1161122,1161125,1161123],"voronoi":{"lat":34.341601,"lng":132.287995,"delta_lat":[0,-6814,-2604,17304,66555,-13961,-37534,-5870],"delta_lng":[0,20781,25604,-22168,-127777,14571,49129,9759]}},
    {"code":9971138,"id":"fffd97","name":"阿品東","name_kana":"あじなひがし","lat":34.326488,"lng":132.318579,"prefecture":34,"numbering":[{"symbol":"M","index":"37"}],"lines":[99711],"attr":"eco","postal_code":"738-0054","address":"廿日市市阿品１-２０７０-１１","next":[9971137,9971135,9971133,9971130,1161122,9971027,9971139,9971128,9971129,9971136],"voronoi":{"lat":34.327769,"lng":132.350982,"delta_lat":[0,-6920,-11912,-24974,-6822,-24446,71163,10929,-2604,-1890],"delta_lng":[0,11848,10759,20224,5083,4701,-86463,-8357,25604,8634]}},
    {"code":9971139,"id":"6f0266","name":"広電阿品","name_kana":"ひろでんあじな","lat":34.321933,"lng":132.31483,"prefecture":34,"numbering":[{"symbol":"M","index":"38"}],"lines":[99711],"attr":"eco","postal_code":"738-0054","address":"廿日市市阿品３-２５３３-３","next":[9971027,9971141,1161122,1171622,9971138,9971140],"voronoi":{"lat":34.319655,"lng":132.30879,"delta_lat":[0,4203,-71163,-2102,-27406,86090],"delta_lng":[0,8343,86463,461,-7848,-79487]}},
    {"code":9971140,"id":"276a04","name":"宮島ボートレース場","name_kana":"みやじまぼーとれーすじょう","lat":34.314425,"lng":132.305006,"prefecture":34,"lines":[99711],"attr":"eco","postal_code":"739-0411","address":"廿日市市宮島口一丁目","next":[1161122,9971137,9971141,1161123,9971139],"voronoi":{"lat":34.313713,"lng":132.303382,"delta_lat":[0,44964,-17076,-21946,-10378],"delta_lng":[0,-45488,30101,20795,7932]}},
    {"code":9971141,"id":"0b3db7","name":"広電宮島口","name_kana":"ひろでんみやじまぐち","lat":34.31217,"lng":132.304256,"prefecture":34,"numbering":[{"symbol":"M","index":"39"}],"lines":[99711],"attr":"eco","postal_code":"739-0411","address":"廿日市市宮島口１-１２-３４","next":[1161124,9971139,9971140,1161123,1171622],"voronoi":{"lat":34.309276,"lng":132.316722,"delta_lat":[0,4436,-16696,-111445,37615],"delta_lng":[0,-13340,948,83362,8517]}}
  ],
  "north":34.39734,
  "south":34.31191,
  "east":132.47627,
  "west":132.30417,
  "polyline_list":[
    {
      "start":"広電西広島",
      "end":"広島",
      "lat":34.39628,
      "lng":132.42701,
      "delta_lat":[0,4,11,25,16,24,7,4,1,-4,-154,-68,-20,-20,-27,-15,-12,-10,-4,2,5,11,20,21,82,25,6,2,-1,-7,-7,-26,-6,-15,-26,-7,-14,-11,-27,0,3,3,8,50,38,56,90,52,18,4,-2,-9,-40,-9,-19,-17,-23,-15,-61,-15,-7,-9,-4,-13,-43,-9,-14,-37,-14,-36,-4,-3,-7,-4,-3,0,-1,0,-31,-10,-7,-1,-9,-2,-1,14,28,17,16,13,19,9,14,7,9,49,56,38,72,5,24],
      "delta_lng":[0,28,31,41,22,33,10,10,8,11,340,150,42,41,63,65,65,49,17,9,5,9,15,11,38,11,6,10,10,40,48,144,42,70,123,40,66,51,121,13,7,7,8,5,4,16,29,16,11,12,18,56,224,55,105,76,99,54,253,56,31,36,17,53,176,34,60,156,54,140,21,12,42,53,65,28,24,28,207,65,59,8,48,9,17,77,154,46,46,35,53,24,19,6,4,-13,-13,-10,-19,-7,-43]
    },
    {
      "start":"広電宮島口",
      "end":"広電西広島",
      "lat":34.31191,
      "lng":132.30417,
      "delta_lat":[0,64,41,33,78,32,23,11,15,30,20,23,23,62,60,78,45,38,20,56,27,94,11,38,21,47,4,146,39,90,21,22,27,22,32,30,43,44,36,11,27,32,9,22,28,21,149,15,17,21,31,34,25,13,9,24,17,17,22,21,167,52,138,27,77,31,27,13,36,11,14,9,91,20,24,22,57,33,117,30,108,56,53,54,33,7,121,58,16,27,22,38,16,16,17,23,20,16,24,16,24,40,23,41,8,29,22,62,56,33,13,4,12,15,21,14,29,30,20,10,13,11,43,17,19,29,42,22,28,9,20,24,21,21,68,70,69,27,11,51,18,52,27,35,21,13,7,16,10,5,5,2,11,5,3,7,3,7,6,9,7,9,54,8,5,12,19,7,3,6,14,2,18,6,12,10,27,21,20,18,2,14,17,9,21,13,7,2,5,9,12,1,15,1,4,11,16,6,11,10,20,8,25,5,2,9,2,9,4,6,3,3,34,10,10,13,0,22,13,6,15,18,11,16,36,7,41,7,48,98,27,7,43,17,31,5,11,41,10,41,31,70,13,9,12,3,8,0,4,9,2,16,2,2,18,5,15,13,19,20,40,9,56,23,39,54,19,39,36,16,20,29,54,9,13,28,35,27,8,68,36,37,5,10,26,12,15,5,33,6,97,27,22,104,8,13,25,13,47,48,9,62,28,49,10,50,18,2,22,64,46,18,0,21,24,5,1,2,35,46,14],
      "delta_lng":[0,20,11,10,32,16,13,7,12,29,24,31,33,102,107,140,79,54,25,57,27,82,12,42,23,66,5,170,42,85,18,16,14,7,8,6,1,1,1,0,4,5,0,8,13,12,111,11,9,5,5,-3,-3,-7,-6,-24,-14,-7,-7,-2,-4,-1,-11,-5,-10,-4,-1,-2,3,1,3,2,22,8,12,15,44,26,91,23,84,44,42,39,25,7,93,46,15,23,21,39,15,13,12,15,14,9,15,12,22,40,26,41,7,22,17,46,42,27,11,3,14,16,30,19,44,49,43,29,34,34,124,41,41,43,64,32,40,13,21,23,19,17,58,56,60,23,11,41,17,43,25,38,26,19,13,29,26,20,26,61,237,101,53,60,25,57,50,79,61,78,331,44,46,136,239,79,30,73,151,26,152,29,42,38,97,77,75,61,11,45,58,30,83,59,27,11,17,34,49,4,65,6,19,41,65,24,45,43,81,28,107,19,11,36,7,35,21,24,9,21,128,47,39,37,8,51,24,11,27,27,19,26,59,11,69,12,78,163,41,13,72,27,50,8,21,70,17,69,54,124,36,27,33,17,31,6,21,45,12,60,12,5,83,20,40,27,27,28,50,11,69,28,60,81,31,63,60,27,30,47,87,14,19,46,54,44,13,106,59,57,9,15,43,21,25,8,53,9,157,45,34,163,13,19,38,19,70,73,14,92,43,73,12,78,28,1,33,97,67,26,4,30,42,5,3,1,57,71,24]
    }
  ]
}