{
  "code":99714,
  "name":"広電６系統(江波線)",
  "color":"#FFD700",
  "station_list":[
    {"code":9971001,"id":"da83b7","name":"広島駅","name_kana":"ひろしまえき","lat":34.396296,"lng":132.475403,"prefecture":34,"numbering":[{"symbol":"M","color":"#008000","index":"1"}],"lines":[99710,99711,99713,99714],"attr":"heat","postal_code":"732-0822","address":"広島市南区松原町"},
    {"code":9971002,"id":"99731b","name":"猿猴橋町","name_kana":"えんこうばしちょう","lat":34.395047,"lng":132.475977,"prefecture":34,"numbering":[{"symbol":"M","color":"#008000","index":"2"}],"lines":[99710,99711,99713,99714],"attr":"cool","postal_code":"732-0823","address":"広島市南区猿猴橋町"},
    {"code":9971003,"id":"500f85","name":"的場町","name_kana":"まとばちょう","lat":34.393277,"lng":132.475076,"prefecture":34,"numbering":[{"symbol":"M","color":"#008000","index":"3"}],"lines":[99710,99711,99713,99714],"attr":"cool","postal_code":"732-0824","address":"広島市南区的場町１"},
    {"code":9971004,"id":"26f8c7","name":"稲荷町(広島)","name_kana":"いなりまち","lat":34.392569,"lng":132.471728,"prefecture":34,"numbering":[{"symbol":"M","color":"#008000","index":"4"}],"lines":[99710,99711,99714],"attr":"cool","postal_code":"732-0827","address":"広島市南区稲荷町"},
    {"code":9971005,"id":"799db5","name":"銀山町","name_kana":"かなやまちょう","lat":34.393135,"lng":132.467866,"prefecture":34,"numbering":[{"symbol":"M","color":"#008000","index":"5"}],"lines":[99710,99711,99714],"attr":"cool","postal_code":"730-0022","address":"広島市中区銀山町"},
    {"code":9971006,"id":"c74e14","name":"胡町","name_kana":"えびすちょう","lat":34.393401,"lng":132.465076,"prefecture":34,"numbering":[{"symbol":"M","color":"#008000","index":"6"}],"lines":[99710,99711,99714],"attr":"cool","postal_code":"730-0021","address":"広島市中区胡町"},
    {"code":9971007,"id":"e0dfd4","name":"八丁堀(広島)","name_kana":"はっちょうぼり","lat":34.393897,"lng":132.463403,"prefecture":34,"numbering":[{"symbol":"M","color":"#008000","index":"7"}],"lines":[99710,99711,99714,99717],"attr":"cool","postal_code":"730-0021","address":"広島市中区胡町"},
    {"code":9971008,"id":"e4a8ad","name":"立町","name_kana":"たてまち","lat":34.394569,"lng":132.460871,"prefecture":34,"numbering":[{"symbol":"M","color":"#008000","index":"8"}],"lines":[99710,99711,99714],"attr":"cool","postal_code":"730-0032","address":"広島市中区立町"},
    {"code":9971009,"id":"db8f16","name":"紙屋町東","name_kana":"かみやちょうひがし","lat":34.395101,"lng":132.458167,"prefecture":34,"numbering":[{"symbol":"M","color":"#008000","index":"9"}],"lines":[99710,99711,99714],"attr":"cool","postal_code":"730-0031","address":"広島市中区紙屋町"},
    {"code":9971110,"id":"27ea6b","name":"紙屋町西","name_kana":"かみやちょうにし","lat":34.395455,"lng":132.456965,"prefecture":34,"numbering":[{"symbol":"M","color":"#008000","index":"9"}],"lines":[99711,99712,99714,99715],"attr":"cool","postal_code":"730-0031","address":"広島市中区紙屋町"},
    {"code":9971111,"id":"9ca2ba","name":"原爆ドーム前","name_kana":"げんばくどーむまえ","lat":34.396163,"lng":132.453918,"prefecture":34,"numbering":[{"symbol":"M","color":"#008000","index":"10"}],"lines":[99711,99712,99714,99715],"attr":"cool","postal_code":"730-0051","address":"広島市中区大手町１"},
    {"code":9971112,"id":"c76b9e","name":"本川町","name_kana":"ほんかわちょう","lat":34.396942,"lng":132.450485,"prefecture":34,"numbering":[{"symbol":"M","color":"#008000","index":"11"}],"lines":[99711,99712,99714,99715],"attr":"cool","postal_code":"730-0802","address":"広島市中区本川町１"},
    {"code":9971113,"id":"b08eac","name":"十日市町","name_kana":"とうかいちまち","lat":34.397438,"lng":132.447138,"prefecture":34,"numbering":[{"symbol":"M","color":"#008000","index":"12"}],"lines":[99711,99712,99714,99715,99716],"attr":"cool","postal_code":"730-0805","address":"広島市中区十日市町１"},
    {"code":9971114,"id":"41e3ec","name":"土橋(広島)","name_kana":"どばし","lat":34.3948,"lng":132.446322,"prefecture":34,"numbering":[{"symbol":"M","color":"#008000","index":"13"}],"lines":[99711,99712,99714,99716],"attr":"cool","postal_code":"730-0853","address":"広島市中区堺町２"},
    {"code":9971415,"id":"1a9f68","name":"舟入町","name_kana":"ふないりまち","lat":34.389222,"lng":132.444928,"prefecture":34,"numbering":[{"symbol":"E","index":"1"}],"lines":[99714,99716],"attr":"heat","postal_code":"730-0841","address":"広島市中区舟入町"},
    {"code":9971416,"id":"69c076","name":"舟入本町","name_kana":"ふないりほんまち","lat":34.385556,"lng":132.442632,"prefecture":34,"numbering":[{"symbol":"E","index":"2"}],"lines":[99714,99716],"attr":"heat","postal_code":"730-0843","address":"広島市中区舟入本町"},
    {"code":9971417,"id":"814450","name":"舟入幸町","name_kana":"ふないりさいわいちょう","lat":34.383139,"lng":132.441151,"prefecture":34,"numbering":[{"symbol":"E","index":"3"}],"lines":[99714,99716],"attr":"heat","postal_code":"730-0844","address":"広島市中区舟入幸町"},
    {"code":9971418,"id":"28f5ef","name":"舟入川口町","name_kana":"ふないりかわぐちちょう","lat":34.380341,"lng":132.439499,"prefecture":34,"numbering":[{"symbol":"E","index":"4"}],"lines":[99714,99716],"attr":"heat","postal_code":"730-0847","address":"広島市中区舟入南１"},
    {"code":9971419,"id":"f81345","name":"舟入南","name_kana":"ふないりみなみ","lat":34.375099,"lng":132.437224,"prefecture":34,"numbering":[{"symbol":"E","index":"5"}],"lines":[99714,99716],"attr":"cool","postal_code":"730-0847","address":"広島市中区舟入南５"},
    {"code":9971420,"id":"601545","name":"江波(広島)","name_kana":"えば","lat":34.372496,"lng":132.436044,"prefecture":34,"numbering":[{"symbol":"E","index":"6"}],"lines":[99714,99716],"attr":"cool","postal_code":"730-0832","address":"広島市中区江波東１"}
  ],
  "north":34.39734,
  "south":34.37208,
  "east":132.47627,
  "west":132.4356,
  "polyline_list":[
    {
      "start":"江波",
      "end":"広島",
      "lat":34.37208,
      "lng":132.4356,
      "delta_lat":[0,27,14,230,37,23,247,119,43,39,248,52,32,35,206,42,87,86,67,82,9,34,12,55,67,39,287,50,38,56,90,52,18,4,-2,-9,-40,-9,-19,-17,-23,-15,-61,-15,-7,-9,-4,-13,-43,-9,-14,-37,-14,-36,-4,-3,-7,-4,-3,0,-1,0,-31,-10,-7,-1,-9,-2,-1,14,28,17,16,13,19,9,14,7,9,49,56,38,72,5,24],
      "delta_lng":[0,42,24,89,13,9,98,52,20,23,137,31,19,22,126,26,54,54,42,51,5,22,6,30,29,10,37,5,4,16,29,16,11,12,18,56,224,55,105,76,99,54,253,56,31,36,17,53,176,34,60,156,54,140,21,12,42,53,65,28,24,28,207,65,59,8,48,9,17,77,154,46,46,35,53,24,19,6,4,-13,-13,-10,-19,-7,-43]
    }
  ]
}