{
  "code":99719,
  "name":"下津井電鉄",
  "closed":true,
  "station_list":[
    {"code":9971901,"id":"be42a8","name":"下津井","name_kana":"しもつい","closed":true,"lat":34.439004,"lng":133.789556,"prefecture":33,"lines":[99719],"attr":"unknown","postal_code":"711-0927","address":"日本岡山県倉敷市下津井４丁目４-２４"},
    {"code":9971902,"id":"0a37a1","name":"東下津井","name_kana":"ひがししもつい","closed":true,"lat":34.441532,"lng":133.802223,"prefecture":33,"lines":[99719],"attr":"unknown","postal_code":"711-0926","address":"日本岡山県倉敷市下津井吹上１丁目９-７"},
    {"code":9971903,"id":"e2a5ab","name":"鷲羽山","name_kana":"わしゅうざん","closed":true,"lat":34.440034,"lng":133.806559,"prefecture":33,"lines":[99719],"attr":"unknown","postal_code":"711-0925","address":"日本岡山県倉敷市下津井田之浦２丁目１１"},
    {"code":9971904,"id":"660b85","name":"琴海","name_kana":"きんかい","closed":true,"lat":34.447828,"lng":133.808254,"prefecture":33,"lines":[99719],"attr":"unknown","postal_code":"711-0923","address":"日本岡山県倉敷市児島阿津２丁目１２-７"},
    {"code":9971905,"id":"a95eb7","name":"阿津","name_kana":"あつ","closed":true,"lat":34.455464,"lng":133.803697,"prefecture":33,"lines":[99719],"attr":"unknown","postal_code":"711-0923","address":"日本岡山県倉敷市児島阿津２丁目２-１５"},
    {"code":9971906,"id":"7e7ac5","name":"備前赤崎","name_kana":"びぜんあかさき","closed":true,"lat":34.458761,"lng":133.799838,"prefecture":33,"lines":[99719],"attr":"unknown","postal_code":"711-0931","address":"日本岡山県倉敷市児島赤崎１丁目１０-１０"},
    {"code":9971907,"id":"653f4b","name":"児島(下津井電鉄)","name_kana":"こじま","closed":true,"lat":34.4672,"lng":133.802171,"prefecture":33,"lines":[99719],"attr":"unknown","postal_code":"711-0913","address":"日本岡山県倉敷市児島味野３丁目３-６８"},
    {"code":9971908,"id":"afc007","name":"児島小川","name_kana":"こじまおがわ","closed":true,"lat":34.481002,"lng":133.799912,"prefecture":33,"lines":[99719],"attr":"unknown","postal_code":"711-0911","address":"日本岡山県倉敷市児島小川７丁目１-３４"},
    {"code":9971909,"id":"584a28","name":"柳田(岡山)","name_kana":"やないだ","closed":true,"lat":34.488197,"lng":133.798701,"prefecture":33,"lines":[99719],"attr":"unknown","postal_code":"711-0936","address":"日本岡山県倉敷市児島柳田町８７３−２"},
    {"code":9971910,"id":"3c4937","name":"稗田","name_kana":"ひえだ","closed":true,"lat":34.499198,"lng":133.804301,"prefecture":33,"lines":[99719],"attr":"unknown","postal_code":"711-0937","address":"日本岡山県倉敷市児島稗田町４０１４−５"},
    {"code":9971911,"id":"fcc226","name":"福田","name_kana":"ふくだ","closed":true,"lat":34.527062,"lng":133.797964,"prefecture":33,"lines":[99719],"attr":"unknown","postal_code":"710-0145","address":"日本岡山県倉敷市福江８１７−１"},
    {"code":9971912,"id":"4b7a8c","name":"林(岡山)","name_kana":"はやし","closed":true,"lat":34.542705,"lng":133.814748,"prefecture":33,"lines":[99719],"attr":"unknown","postal_code":"710-0142","address":"日本岡山県倉敷市林４６３"},
    {"code":9971913,"id":"12fcb3","name":"藤戸","name_kana":"ふじと","closed":true,"lat":34.557524,"lng":133.819731,"prefecture":33,"lines":[99719],"attr":"unknown","postal_code":"710-0133","address":"日本岡山県倉敷市藤戸町藤戸１０８８−３"},
    {"code":9971914,"id":"c21438","name":"天城","name_kana":"あまき","closed":true,"lat":34.562227,"lng":133.816706,"prefecture":33,"lines":[99719],"attr":"unknown","postal_code":"710-0132","address":"日本岡山県倉敷市藤戸町天城２３９３−９"},
    {"code":1170908,"id":"690535","name":"茶屋町","name_kana":"ちゃやまち","lat":34.57694,"lng":133.825906,"prefecture":33,"lines":[11709,11710,99719],"attr":"eco","postal_code":"710-1101","address":"倉敷市茶屋町"}
  ]
}