{
  "code":99715,
  "name":"広電７系統(都心線)",
  "color":"#00594C",
  "station_list":[
    {"code":9971501,"id":"3be35a","name":"横川駅","name_kana":"よこがわえき","lat":34.409512,"lng":132.450496,"prefecture":34,"numbering":[{"symbol":"Y","color":"#FF69B4","index":"5"}],"lines":[99715,99716],"attr":"eco","postal_code":"733-0011","address":"広島市西区横川町３"},
    {"code":9971502,"id":"0af1ff","name":"横川一丁目","name_kana":"よこがわいっちょうめ","lat":34.406848,"lng":132.449949,"prefecture":34,"numbering":[{"symbol":"Y","color":"#FF69B4","index":"4"}],"lines":[99715,99716],"attr":"eco","postal_code":"733-0011","address":"広島市西区横川町１"},
    {"code":9971503,"id":"ef136d","name":"別院前","name_kana":"べついんまえ","lat":34.404245,"lng":132.449241,"prefecture":34,"numbering":[{"symbol":"Y","color":"#FF69B4","index":"3"}],"lines":[99715,99716],"attr":"eco","postal_code":"730-0803","address":"広島市中区広瀬北町"},
    {"code":9971504,"id":"62a4fe","name":"寺町","name_kana":"てらまち","lat":34.401129,"lng":132.448125,"prefecture":34,"numbering":[{"symbol":"Y","color":"#FF69B4","index":"2"}],"lines":[99715,99716],"attr":"eco","postal_code":"730-0804","address":"広島市中区広瀬町"},
    {"code":9971113,"id":"b08eac","name":"十日市町","name_kana":"とうかいちまち","lat":34.397438,"lng":132.447138,"prefecture":34,"numbering":[{"symbol":"Y","color":"#FF69B4","index":"1"},{"symbol":"M","color":"#008000","index":"12"}],"lines":[99711,99712,99714,99715,99716],"attr":"cool","postal_code":"730-0805","address":"広島市中区十日市町１"},
    {"code":9971112,"id":"c76b9e","name":"本川町","name_kana":"ほんかわちょう","lat":34.396942,"lng":132.450485,"prefecture":34,"numbering":[{"symbol":"M","color":"#008000","index":"11"}],"lines":[99711,99712,99714,99715],"attr":"cool","postal_code":"730-0802","address":"広島市中区本川町１"},
    {"code":9971111,"id":"9ca2ba","name":"原爆ドーム前","name_kana":"げんばくどーむまえ","lat":34.396163,"lng":132.453918,"prefecture":34,"numbering":[{"symbol":"M","color":"#008000","index":"10"}],"lines":[99711,99712,99714,99715],"attr":"cool","postal_code":"730-0051","address":"広島市中区大手町１"},
    {"code":9971110,"id":"27ea6b","name":"紙屋町西","name_kana":"かみやちょうにし","lat":34.395455,"lng":132.456965,"prefecture":34,"numbering":[{"symbol":"M","color":"#008000","index":"9"}],"lines":[99711,99712,99714,99715],"attr":"cool","postal_code":"730-0031","address":"広島市中区紙屋町"},
    {"code":9970901,"id":"fafc81","name":"本通","name_kana":"ほんどおり","lat":34.393377,"lng":132.457003,"prefecture":34,"numbering":[{"symbol":"U","color":"#00CCCC","index":"1"}],"lines":[99709,99710,99712,99715],"attr":"heat","postal_code":"730-0035","address":"広島市中区本通６-３０"},
    {"code":9971011,"id":"3f3a08","name":"袋町","name_kana":"ふくろまち","lat":34.391187,"lng":132.456214,"prefecture":34,"numbering":[{"symbol":"U","color":"#00CCCC","index":"2"}],"lines":[99710,99712,99715],"attr":"cool","postal_code":"730-0051","address":"広島市中区大手町２"},
    {"code":9971012,"id":"ae895e","name":"中電前","name_kana":"ちゅうでんまえ","lat":34.388779,"lng":132.455399,"prefecture":34,"numbering":[{"symbol":"U","color":"#00CCCC","index":"3"}],"lines":[99710,99712,99715],"attr":"cool","postal_code":"730-0051","address":"広島市中区大手町３"},
    {"code":9971013,"id":"8fddb4","name":"市役所前(広島)","name_kana":"しやくしょまえ","lat":34.385875,"lng":132.454455,"prefecture":34,"numbering":[{"symbol":"U","color":"#00CCCC","index":"4"}],"lines":[99710,99712,99715],"attr":"cool","postal_code":"730-0051","address":"広島市中区大手町４"},
    {"code":9971014,"id":"116a82","name":"鷹野橋","name_kana":"たかのばし","lat":34.383431,"lng":132.453918,"prefecture":34,"numbering":[{"symbol":"U","color":"#00CCCC","index":"5"}],"lines":[99710,99712,99715],"attr":"cool","postal_code":"730-0052","address":"広島市中区千田町１"},
    {"code":9971015,"id":"5cb433","name":"日赤病院前","name_kana":"にっせきびょういんまえ","lat":34.380952,"lng":132.455871,"prefecture":34,"numbering":[{"symbol":"U","color":"#00CCCC","index":"6"}],"lines":[99710,99712,99715],"attr":"heat","postal_code":"730-0052","address":"広島市中区千田町１"},
    {"code":9971016,"id":"85fad4","name":"広電本社前","name_kana":"ひろでんほんしゃまえ","lat":34.377375,"lng":132.45821,"prefecture":34,"numbering":[{"symbol":"U","color":"#00CCCC","index":"7"}],"lines":[99710,99712,99715],"attr":"heat","postal_code":"730-0052","address":"広島市中区千田町３"}
  ],
  "north":34.40972,
  "south":34.37757,
  "east":132.45818,
  "west":132.44742,
  "polyline_list":[
    {
      "start":"広電本社前",
      "end":"横川",
      "lat":34.37757,
      "lng":132.45818,
      "delta_lat":[0,25,117,152,45,202,26,42,5,9,13,23,141,40,85,209,46,132,16,51,173,40,103,47,10,8,7,15,61,15,23,17,19,9,40,9,114,204,9,44,117,94,87,39,40,49,31,3,119,6,44,171,11,9,6,20,23],
      "delta_lng":[0,-17,-84,-109,-30,-143,-19,-26,-4,-4,-1,7,49,15,30,72,16,46,6,17,58,15,35,18,-5,-9,-31,-56,-253,-54,-99,-76,-105,-55,-224,-56,0,63,2,13,36,31,32,16,17,15,8,1,25,2,8,19,3,4,5,14,18]
    }
  ]
}