{
  "code":99717,
  "name":"広電９系統(白島線)",
  "color":"#696969",
  "symbol":"W",
  "station_list":[
    {"code":9971007,"id":"e0dfd4","name":"八丁堀(広島)","name_kana":"はっちょうぼり","lat":34.393897,"lng":132.463403,"prefecture":34,"numbering":[{"index":"1"}],"lines":[99710,99711,99714,99717],"attr":"cool","postal_code":"730-0021","address":"広島市中区胡町"},
    {"code":9971702,"id":"2a6c37","name":"女学院前","name_kana":"じょがくいんまえ","lat":34.397827,"lng":132.464776,"prefecture":34,"numbering":[{"index":"2"}],"lines":[99717],"attr":"eco","postal_code":"730-0012","address":"広島市中区上八丁堀"},
    {"code":9971703,"id":"615146","name":"縮景園前","name_kana":"しゅっけいえんまえ","lat":34.399881,"lng":132.465334,"prefecture":34,"numbering":[{"index":"3"}],"lines":[99717],"attr":"eco","postal_code":"730-0012","address":"広島市中区上八丁堀"},
    {"code":9971704,"id":"1903bf","name":"家庭裁判所前","name_kana":"かていさいばんしょまえ","lat":34.402289,"lng":132.466106,"prefecture":34,"numbering":[{"index":"4"}],"lines":[99717],"attr":"cool","postal_code":"730-0012","address":"広島市中区上八丁堀"},
    {"code":9971705,"id":"82c7f4","name":"白島(広島電鉄)","name_kana":"はくしま","lat":34.404484,"lng":132.465506,"prefecture":34,"numbering":[{"index":"5"}],"lines":[99717],"attr":"cool","postal_code":"730-0012","address":"広島市中区東白島町"}
  ],
  "north":34.40426,
  "south":34.37208,
  "east":132.46605,
  "west":132.4356,
  "polyline_list":[
    {
      "start":"八丁堀",
      "end":"白鳥",
      "lat":34.39388,
      "lng":132.46283,
      "delta_lat":[0,-14,4,5,14,57,52,40,247,45,84,43,7,80,58,43,31,45,38,47,41,32,39],
      "delta_lng":[0,54,9,10,7,17,15,13,76,13,27,13,2,24,18,12,8,4,-3,-5,-11,-11,-12]
    },
    {
      "start":"江波",
      "end":"八丁堀",
      "lat":34.37208,
      "lng":132.4356,
      "delta_lat":[0,27,14,230,37,23,247,119,43,39,248,52,32,35,206,42,87,86,67,82,9,34,12,55,67,39,287,50,38,56,90,52,18,4,-2,-9,-40,-9,-19,-17,-23,-15,-61,-15,-7,-9,-4,-13,-43,-9,-14,-37],
      "delta_lng":[0,42,24,89,13,9,98,52,20,23,137,31,19,22,126,26,54,54,42,51,5,22,6,30,29,10,37,5,4,16,29,16,11,12,18,56,224,55,105,76,99,54,253,56,31,36,17,53,176,34,60,156]
    }
  ]
}