{
  "code":99716,
  "name":"広電８系統(横川線)",
  "color":"#FF69B4",
  "station_list":[
    {"code":9971501,"id":"3be35a","name":"横川駅","name_kana":"よこがわえき","lat":34.409512,"lng":132.450496,"prefecture":34,"numbering":[{"symbol":"Y","index":"5"}],"lines":[99715,99716],"attr":"eco","postal_code":"733-0011","address":"広島市西区横川町３"},
    {"code":9971502,"id":"0af1ff","name":"横川一丁目","name_kana":"よこがわいっちょうめ","lat":34.406848,"lng":132.449949,"prefecture":34,"numbering":[{"symbol":"Y","index":"4"}],"lines":[99715,99716],"attr":"eco","postal_code":"733-0011","address":"広島市西区横川町１"},
    {"code":9971503,"id":"ef136d","name":"別院前","name_kana":"べついんまえ","lat":34.404245,"lng":132.449241,"prefecture":34,"numbering":[{"symbol":"Y","index":"3"}],"lines":[99715,99716],"attr":"eco","postal_code":"730-0803","address":"広島市中区広瀬北町"},
    {"code":9971504,"id":"62a4fe","name":"寺町","name_kana":"てらまち","lat":34.401129,"lng":132.448125,"prefecture":34,"numbering":[{"symbol":"Y","index":"2"}],"lines":[99715,99716],"attr":"eco","postal_code":"730-0804","address":"広島市中区広瀬町"},
    {"code":9971113,"id":"b08eac","name":"十日市町","name_kana":"とうかいちまち","lat":34.397438,"lng":132.447138,"prefecture":34,"numbering":[{"symbol":"Y","index":"1"},{"symbol":"M","color":"#008000","index":"12"}],"lines":[99711,99712,99714,99715,99716],"attr":"cool","postal_code":"730-0805","address":"広島市中区十日市町１"},
    {"code":9971114,"id":"41e3ec","name":"土橋(広島)","name_kana":"どばし","lat":34.3948,"lng":132.446322,"prefecture":34,"numbering":[{"symbol":"M","color":"#008000","index":"13"}],"lines":[99711,99712,99714,99716],"attr":"cool","postal_code":"730-0853","address":"広島市中区堺町２"},
    {"code":9971415,"id":"1a9f68","name":"舟入町","name_kana":"ふないりまち","lat":34.389222,"lng":132.444928,"prefecture":34,"numbering":[{"symbol":"E","color":"#FFD700","index":"1"}],"lines":[99714,99716],"attr":"heat","postal_code":"730-0841","address":"広島市中区舟入町"},
    {"code":9971416,"id":"69c076","name":"舟入本町","name_kana":"ふないりほんまち","lat":34.385556,"lng":132.442632,"prefecture":34,"numbering":[{"symbol":"E","color":"#FFD700","index":"2"}],"lines":[99714,99716],"attr":"heat","postal_code":"730-0843","address":"広島市中区舟入本町"},
    {"code":9971417,"id":"814450","name":"舟入幸町","name_kana":"ふないりさいわいちょう","lat":34.383139,"lng":132.441151,"prefecture":34,"numbering":[{"symbol":"E","color":"#FFD700","index":"3"}],"lines":[99714,99716],"attr":"heat","postal_code":"730-0844","address":"広島市中区舟入幸町"},
    {"code":9971418,"id":"28f5ef","name":"舟入川口町","name_kana":"ふないりかわぐちちょう","lat":34.380341,"lng":132.439499,"prefecture":34,"numbering":[{"symbol":"E","color":"#FFD700","index":"4"}],"lines":[99714,99716],"attr":"heat","postal_code":"730-0847","address":"広島市中区舟入南１"},
    {"code":9971419,"id":"f81345","name":"舟入南","name_kana":"ふないりみなみ","lat":34.375099,"lng":132.437224,"prefecture":34,"numbering":[{"symbol":"E","color":"#FFD700","index":"5"}],"lines":[99714,99716],"attr":"cool","postal_code":"730-0847","address":"広島市中区舟入南５"},
    {"code":9971420,"id":"601545","name":"江波(広島)","name_kana":"えば","lat":34.372496,"lng":132.436044,"prefecture":34,"numbering":[{"symbol":"E","color":"#FFD700","index":"6"}],"lines":[99714,99716],"attr":"cool","postal_code":"730-0832","address":"広島市中区江波東１"}
  ],
  "north":34.40972,
  "south":34.37208,
  "east":132.45074,
  "west":132.4356,
  "polyline_list":[
    {
      "start":"十日市町",
      "end":"横川",
      "lat":34.3966,
      "lng":132.44685,
      "delta_lat":[0,52,134,204,9,44,117,94,87,39,40,49,31,3,119,6,44,171,11,9,6,20,23],
      "delta_lng":[0,16,41,63,2,13,36,31,32,16,17,15,8,1,25,2,8,19,3,4,5,14,18]
    },
    {
      "start":"江波",
      "end":"十日市町",
      "lat":34.37208,
      "lng":132.4356,
      "delta_lat":[0,27,14,230,37,23,247,119,43,39,248,52,32,35,206,42,87,86,67,82,9,34,12,55,67,39,287,50,38,56,90],
      "delta_lng":[0,42,24,89,13,9,98,52,20,23,137,31,19,22,126,26,54,54,42,51,5,22,6,30,29,10,37,5,4,16,29]
    }
  ]
}