{
  "code":99719,
  "id":"ea8b6b",
  "name":"下津井電鉄",
  "name_kana":"しもついでんてつ",
  "station_size":15,
  "closed":true,
  "station_list":[
    {"code":9971901,"id":"be42a8","name":"下津井","name_kana":"しもつい","closed":true,"lat":34.439004,"lng":133.789556,"prefecture":33,"lines":[99719],"attr":"unknown","postal_code":"711-0927","address":"岡山県倉敷市下津井４丁目４-２４","next":[9971908,1161008,9970410,1171006,1161009,1180101,1180614,1180612,9971906,1180611,9971903,9971902],"voronoi":{"lat":34.372725,"lng":133.802104,"delta_lat":[0,-7992,-157,3567,6465,8805,24968,4431,58788,-1567,-20845,-24192],"delta_lng":[0,-43962,-6856,-45485,-33558,-27241,10922,2676,89100,6355,40055,4828]}},
    {"code":9971902,"id":"0a37a1","name":"東下津井","name_kana":"ひがししもつい","closed":true,"lat":34.441532,"lng":133.802223,"prefecture":33,"lines":[99719],"attr":"unknown","postal_code":"711-0926","address":"岡山県倉敷市下津井吹上１丁目９-７","next":[9971904,9971905,9971903,9971906,9971901],"voronoi":{"lat":34.449188,"lng":133.794109,"delta_lat":[0,139,-626,-4381,-19324],"delta_lng":[0,1007,5924,4573,-6676]}},
    {"code":9971903,"id":"e2a5ab","name":"鷲羽山","name_kana":"わしゅうざん","closed":true,"lat":34.440034,"lng":133.806559,"prefecture":33,"lines":[99719],"attr":"unknown","postal_code":"711-0925","address":"岡山県倉敷市下津井田之浦２丁目１１","next":[9971904,1171006,1180608,1180609,9971902,1170915,9971901],"voronoi":{"lat":34.424997,"lng":133.798937,"delta_lat":[0,19324,-19693,-13899,-18089,-18697,-1217],"delta_lng":[0,6676,90557,5195,-29227,-47185,-22850]}},
    {"code":9971904,"id":"660b85","name":"琴海","name_kana":"きんかい","closed":true,"lat":34.447828,"lng":133.808254,"prefecture":33,"lines":[99719],"attr":"unknown","postal_code":"711-0923","address":"岡山県倉敷市児島阿津２丁目１２-７","next":[1170912,9971903,9971902,9971905,1171005,1170915],"voronoi":{"lat":34.444321,"lng":133.805613,"delta_lat":[0,4381,6775,2434,-5282,-28001],"delta_lng":[0,-4573,11354,69487,5201,9088]}},
    {"code":9971905,"id":"a95eb7","name":"阿津","name_kana":"あつ","closed":true,"lat":34.455464,"lng":133.803697,"prefecture":33,"lines":[99719],"attr":"unknown","postal_code":"711-0923","address":"岡山県倉敷市児島阿津２丁目２-１５","next":[9971906,1171005,9971902,9971904],"voronoi":{"lat":34.448701,"lng":133.801041,"delta_lat":[0,626,10639,-4490],"delta_lng":[0,-5924,9090,8188]}},
    {"code":9971906,"id":"7e7ac5","name":"備前赤崎","name_kana":"びぜんあかさき","closed":true,"lat":34.458761,"lng":133.799838,"prefecture":33,"lines":[99719],"attr":"unknown","postal_code":"711-0931","address":"岡山県倉敷市児島赤崎１丁目１０-１０","next":[9971907,9971905,9971908,9971901,1171005,9971902],"voronoi":{"lat":34.449188,"lng":133.794109,"delta_lat":[0,20845,-72,-7514,-2481,-10639],"delta_lng":[0,-40055,21697,27179,1276,-9090]}},
    {"code":9971907,"id":"653f4b","name":"児島(下津井電鉄)","name_kana":"こじま","closed":true,"lat":34.4672,"lng":133.802171,"prefecture":33,"lines":[99719],"attr":"unknown","postal_code":"711-0913","address":"岡山県倉敷市児島味野３丁目３-６８","next":[9971906,1171005,9971908],"voronoi":{"lat":34.469962,"lng":133.775752,"delta_lat":[0,-7514,13736],"delta_lng":[0,27179,10832]}},
    {"code":9971908,"id":"afc007","name":"児島小川","name_kana":"こじまおがわ","closed":true,"lat":34.481002,"lng":133.799912,"prefecture":33,"lines":[99719],"attr":"unknown","postal_code":"711-0911","address":"岡山県倉敷市児島小川７丁目１-３４","next":[1171005,9971901,9970410,9971906,9971909,9971907,1171004],"voronoi":{"lat":34.485989,"lng":133.807562,"delta_lat":[0,-9558,-4831,-1567,-72,6222,54],"delta_lng":[0,-56782,-3081,6355,21697,38011,127]}},
    {"code":9971909,"id":"584a28","name":"柳田(岡山)","name_kana":"やないだ","closed":true,"lat":34.488197,"lng":133.798701,"prefecture":33,"lines":[99719],"attr":"unknown","postal_code":"711-0936","address":"岡山県倉敷市児島柳田町８７３−２","next":[1171004,9971911,9970410,9971908,9970409,9971910],"voronoi":{"lat":34.485989,"lng":133.807562,"delta_lat":[0,-9558,21765,8873,118,-16148],"delta_lng":[0,-56782,11711,6326,6184,31721]}},
    {"code":9971910,"id":"3c4937","name":"稗田","name_kana":"ひえだ","closed":true,"lat":34.499198,"lng":133.804301,"prefecture":33,"lines":[99719],"attr":"unknown","postal_code":"711-0937","address":"岡山県倉敷市児島稗田町４０１４−５","next":[9971911,9971909,1171004,1171003],"voronoi":{"lat":34.491039,"lng":133.806723,"delta_lat":[0,16148,8229,-6283],"delta_lng":[0,-31721,36183,9200]}},
    {"code":9971911,"id":"fcc226","name":"福田","name_kana":"ふくだ","closed":true,"lat":34.527062,"lng":133.797964,"prefecture":33,"lines":[99719],"attr":"unknown","postal_code":"710-0145","address":"岡山県倉敷市福江８１７−１","next":[9970405,9971914,9971912,9971909,9970409,9971910,9970406,1171003,9970408,9970407],"voronoi":{"lat":34.549039,"lng":133.777321,"delta_lat":[0,8418,-2142,-25205,-14694,-8229,-118,13275,4570,6102],"delta_lng":[0,5974,4018,23492,380,-36183,-6184,493,581,1247]}},
    {"code":9971912,"id":"4b7a8c","name":"林(岡山)","name_kana":"はやし","closed":true,"lat":34.542705,"lng":133.814748,"prefecture":33,"lines":[99719],"attr":"unknown","postal_code":"710-0142","address":"岡山県倉敷市林４６３","next":[9971914,9971911,9971913,1171003,1171002],"voronoi":{"lat":34.530111,"lng":133.810804,"delta_lat":[0,25205,-2066,-4030,-9829],"delta_lng":[0,-23492,20604,11985,6280]}},
    {"code":9971913,"id":"12fcb3","name":"藤戸","name_kana":"ふじと","closed":true,"lat":34.557524,"lng":133.819731,"prefecture":33,"lines":[99719],"attr":"unknown","postal_code":"710-0133","address":"岡山県倉敷市藤戸町藤戸１０８８−３","next":[9971914,1171002,1170909,9971912,1170908],"voronoi":{"lat":34.562507,"lng":133.830158,"delta_lat":[0,-13288,4030,12527,-1123],"delta_lng":[0,-10256,-11985,19477,3534]}},
    {"code":9971914,"id":"c21438","name":"天城","name_kana":"あまき","closed":true,"lat":34.562227,"lng":133.816706,"prefecture":33,"lines":[99719],"attr":"unknown","postal_code":"710-0132","address":"岡山県倉敷市藤戸町天城２３９３−９","next":[9970405,9971913,9971911,9971912,9970401,1161005,1170908],"voronoi":{"lat":34.586359,"lng":133.794478,"delta_lat":[0,-754,-14371,-13777,-2142,-2066,12527],"delta_lng":[0,-588,-10791,196,4018,20604,19477]}},
    {"code":1170908,"id":"690535","name":"茶屋町","name_kana":"ちゃやまち","lat":34.57694,"lng":133.825906,"prefecture":33,"lines":[11709,11710,99719],"attr":"eco","postal_code":"710-1101","address":"倉敷市茶屋町","next":[1161005,1170907,1170905,1170910,9971914,1170909,9971913],"voronoi":{"lat":34.565777,"lng":133.827394,"delta_lat":[0,20583,2433,-7321,-6556,-896,-9366],"delta_lng":[0,-32916,1016,54238,7547,-826,-25525]}}
  ],
  "closed_date":"1991-01-01"
}