{
  "code":99713,
  "name":"広電５系統(比治山線)",
  "name_formal":"広電５号線(皆実線)",
  "color":"#00CC00",
  "station_list":[
    {"code":9971001,"id":"da83b7","name":"広島駅","name_kana":"ひろしまえき","lat":34.396296,"lng":132.475403,"prefecture":34,"numbering":[{"symbol":"M","index":"1"}],"lines":[99710,99711,99713,99714],"attr":"heat","postal_code":"732-0822","address":"広島市南区松原町","next":[9971004,100312,9971002,9971003,9971005],"voronoi":{"lat":34.395034,"lng":132.472956,"delta_lat":[0,-118,1615,1187,-238],"delta_lng":[0,1090,3514,-7184,100]}},
    {"code":9971002,"id":"99731b","name":"猿猴橋町","name_kana":"えんこうばしちょう","lat":34.395047,"lng":132.475977,"prefecture":34,"numbering":[{"symbol":"M","index":"2"}],"lines":[99710,99711,99713,99714],"attr":"cool","postal_code":"732-0823","address":"広島市南区猿猴橋町","next":[100312,9971003,1171445,9971001,1161114],"voronoi":{"lat":34.38869,"lng":132.486275,"delta_lat":[0,6225,1615,1465,-3967],"delta_lng":[0,-12230,3514,9154,778]}},
    {"code":9971003,"id":"500f85","name":"的場町","name_kana":"まとばちょう","lat":34.393277,"lng":132.475076,"prefecture":34,"numbering":[{"symbol":"H","index":"3"}],"lines":[99710,99711,99713,99714],"attr":"cool","postal_code":"732-0824","address":"広島市南区的場町１","next":[9971004,1161114,9971002,9971001,9971304],"voronoi":{"lat":34.38869,"lng":132.486275,"delta_lat":[0,6225,118,-2902,-4259],"delta_lng":[0,-12230,-1090,614,12589]}},
    {"code":9971304,"id":"755614","name":"段原一丁目","name_kana":"だんばらいっちょうめ","lat":34.390306,"lng":132.474071,"prefecture":34,"numbering":[{"symbol":"H","index":"4"}],"lines":[99713],"attr":"eco","postal_code":"732-0811","address":"広島市南区段原１","next":[1161114,9971305,9971004,9971003],"voronoi":{"lat":34.392131,"lng":132.473569,"delta_lat":[0,-2356,-13481,11578],"delta_lng":[0,-2275,14698,166]}},
    {"code":9971305,"id":"e77b5c","name":"比治山下","name_kana":"ひじやました","lat":34.386963,"lng":132.471005,"prefecture":34,"numbering":[{"symbol":"H","index":"5"}],"lines":[99713],"attr":"eco","postal_code":"732-0817","address":"広島市南区比治山町","next":[9971006,9971304,9971004,9971306,1161114,9971005],"voronoi":{"lat":34.389775,"lng":132.471294,"delta_lat":[0,-13481,-1445,12999,452,1721],"delta_lng":[0,14698,159,-20645,491,3385]}},
    {"code":9971306,"id":"721266","name":"比治山橋","name_kana":"ひじやまばし","lat":34.383272,"lng":132.468681,"prefecture":34,"numbering":[{"symbol":"H","index":"6"}],"lines":[99713],"attr":"eco","postal_code":"732-0816","address":"広島市南区比治山本町","next":[9971307,9971012,1161114,1161113,9971305,9971015,9971006],"voronoi":{"lat":34.386716,"lng":132.462326,"delta_lat":[0,-1485,-125,-13137,1932,948,12999],"delta_lng":[0,-616,23,24290,342,-214,-20645]}},
    {"code":9971307,"id":"0660a4","name":"南区役所前","name_kana":"みなみくやくしょまえ","lat":34.380297,"lng":132.467072,"prefecture":34,"numbering":[{"symbol":"H","index":"7"}],"lines":[99713],"attr":"eco","postal_code":"732-0816","address":"広島市南区比治山本町","next":[1161113,9971015,9971306,9971308,9971016],"voronoi":{"lat":34.370698,"lng":132.485904,"delta_lat":[0,1272,13137,-2988,-1428],"delta_lng":[0,119,-24290,-175,471]}},
    {"code":9971308,"id":"16b355","name":"皆実町二丁目","name_kana":"みなみまちにちょうめ","lat":34.377375,"lng":132.465849,"prefecture":34,"numbering":[{"symbol":"H","index":"8"}],"lines":[99713],"attr":"eco","postal_code":"734-0007","address":"広島市南区皆実町２","next":[9971020,9971019,1161113,9971018,9971016,9971307,9971017],"voronoi":{"lat":34.373242,"lng":132.470966,"delta_lat":[0,-1934,-756,145,9993,-2222,-1562],"delta_lng":[0,8739,6197,3,-23875,0,514]}},
    {"code":9971018,"id":"9171e7","name":"皆実町六丁目","name_kana":"みなみまちろくちょうめ","lat":34.374169,"lng":132.464454,"prefecture":34,"numbering":[{"symbol":"H","index":"9"}],"lines":[99710,99712,99713],"attr":"heat","postal_code":"734-0007","address":"広島市南区皆実町６","next":[9971017,9971308,9971019],"voronoi":{"lat":34.37276,"lng":132.461558,"delta_lat":[0,4147,-3664],"delta_lng":[0,986,8422]}},
    {"code":9971019,"id":"9bbb73","name":"広大附属学校前","name_kana":"ひろだいふぞくがっこうまえ","lat":34.371654,"lng":132.464583,"prefecture":34,"numbering":[{"symbol":"U","index":"10"}],"lines":[99710,99712,99713],"attr":"heat","postal_code":"734-0007","address":"広島市南区皆実町６","next":[9971017,9971308,9971020,9971018],"voronoi":{"lat":34.371308,"lng":132.479704,"delta_lat":[0,-1497,2948,483],"delta_lng":[0,-20319,2172,9408]}},
    {"code":9971020,"id":"e0fe8b","name":"県病院前","name_kana":"けんびょういんまえ","lat":34.36875,"lng":132.464797,"prefecture":34,"numbering":[{"symbol":"U","index":"11"}],"lines":[99710,99712,99713],"attr":"heat","postal_code":"734-0004","address":"広島市南区宇品神田１","next":[1161113,9971021,9971017,9971308,9971019],"voronoi":{"lat":34.370552,"lng":132.485902,"delta_lat":[0,-5492,3177,1574,1497],"delta_lng":[0,1047,-29554,1991,20319]}},
    {"code":9971021,"id":"12da79","name":"宇品二丁目","name_kana":"うじなにちょうめ","lat":34.366164,"lng":132.464519,"prefecture":34,"numbering":[{"symbol":"U","index":"12"}],"lines":[99710,99712,99713],"attr":"heat","postal_code":"734-0004","address":"広島市南区宇品神田２","next":[9971020,9971022,1161113,9971017],"voronoi":{"lat":34.365061,"lng":132.486948,"delta_lat":[0,-1133,1903,2407],"delta_lng":[0,284,-34323,4485]}},
    {"code":9971022,"id":"d1cffc","name":"宇品三丁目","name_kana":"うじなさんちょうめ","lat":34.364216,"lng":132.464411,"prefecture":34,"numbering":[{"symbol":"U","index":"13"}],"lines":[99710,99712,99713],"attr":"heat","postal_code":"734-0004","address":"広島市南区宇品神田３","next":[9971023,9971017,1161113,9971021,9971027],"voronoi":{"lat":34.359275,"lng":132.488616,"delta_lat":[0,4652,1903,-629,-1827],"delta_lng":[0,-1383,-34323,-1454,2270]}},
    {"code":9971023,"id":"4b6d16","name":"宇品四丁目","name_kana":"うじなよんちょうめ","lat":34.360079,"lng":132.463925,"prefecture":34,"numbering":[{"symbol":"U","index":"14"}],"lines":[99710,99712,99713],"attr":"eco","postal_code":"734-0004","address":"広島市南区宇品神田５","next":[9971026,9971022,1161113,9971027,9971024],"voronoi":{"lat":34.359275,"lng":132.488616,"delta_lat":[0,4099,-983,-2899,-2210],"delta_lng":[0,-34890,823,3874,30974]}},
    {"code":9971024,"id":"2cabb5","name":"宇品五丁目","name_kana":"うじなごちょうめ","lat":34.358131,"lng":132.463786,"prefecture":34,"numbering":[{"symbol":"U","index":"15"}],"lines":[99710,99712,99713],"attr":"eco","postal_code":"734-0004","address":"広島市南区宇品神田５","next":[9971026,1161113,9971025,1171627,9971023],"voronoi":{"lat":34.359493,"lng":132.458422,"delta_lat":[0,-2367,-6051,4376,1832],"delta_lng":[0,2210,27746,1817,-799]}},
    {"code":9971025,"id":"de9100","name":"海岸通","name_kana":"かいがんどおり","lat":34.354898,"lng":132.463081,"prefecture":34,"numbering":[{"symbol":"U","index":"16"}],"lines":[99710,99712,99713],"attr":"eco","postal_code":"734-0011","address":"広島市南区宇品海岸３","next":[9971026,9971024,1171627,1171626],"voronoi":{"lat":34.351075,"lng":132.488379,"delta_lat":[0,6051,-32742,16934],"delta_lng":[0,-27746,7585,16832]}},
    {"code":9971026,"id":"182e47","name":"元宇品口","name_kana":"もとうじなぐち","lat":34.354048,"lng":132.459412,"prefecture":34,"numbering":[{"symbol":"U","index":"17"}],"lines":[99710,99712,99713],"attr":"eco","postal_code":"734-0011","address":"広島市南区宇品海岸１","next":[9971023,9971024,9971025,1171626,9971027],"voronoi":{"lat":34.362391,"lng":132.454549,"delta_lat":[0,-2899,-2367,-32742,-1725],"delta_lng":[0,3874,2210,7585,-1518]}},
    {"code":9971027,"id":"7fd37a","name":"広島港（宇品）","name_kana":"ひろしまこう(うじな)","lat":34.352755,"lng":132.455184,"prefecture":34,"numbering":[{"symbol":"U","index":"18"}],"lines":[99710,99712,99713],"attr":"eco","postal_code":"734-0011","address":"広島市南区宇品海岸一丁目","next":[1171625,9971139,9971420,9971017,1171622,1171626,9971026,9971023,9971128,9971138,9971127,9971022],"voronoi":{"lat":34.365202,"lng":132.451455,"delta_lat":[0,519,-36117,-31655,-20808,-24446,-2102,2479,27015,42572,39733,983],"delta_lng":[0,-2649,-37251,-8668,-3992,4701,461,3534,26557,32551,-12151,-823]}}
  ],
  "north":34.39645,
  "south":34.35238,
  "east":132.47627,
  "west":132.45543,
  "polyline_list":[
    {
      "start":"広電広島",
      "end":"広島港",
      "lat":34.35279,
      "lng":132.45543,
      "delta_lat":[0,-19,-23,12,144,9,5,-11,-4,-2,-8,-4,0,3,8,16,31,24,37,35,20,26,33,49,59,19,17,26,34,181,38,360,40,182,36,172,7,37,14,32,225,34,9,68,65,58,47,25,37,119,96,25,35,9,164,47,47,34,18,107,61,13,31,27,29,6,33,62,94,146,19,20,64,64,50,54,26,9,24,12,41,68,9,5,139,27,9,6,12,19,9,14,7,9,49,56,38,72,5,24],
      "delta_lng":[0,69,85,23,49,8,12,155,54,24,152,83,32,8,4,1,2,2,2,3,1,6,15,21,24,8,1,3,3,16,3,32,4,15,4,16,1,4,2,-4,-24,-4,-1,-3,2,6,6,8,18,51,42,8,13,2,54,19,23,14,7,50,29,8,32,27,27,5,27,36,49,85,12,13,52,57,43,46,23,8,22,11,73,142,5,1,-75,-15,-2,0,3,53,24,19,6,4,-13,-13,-10,-19,-7,-43]
    }
  ]
}