{
  "code":99806,
  "name":"伊予鉄道高浜線",
  "color":"#9ACD32",
  "symbol":"IY",
  "station_list":[
    {"code":9980601,"id":"b4bcca","name":"高浜(愛媛)","name_kana":"たかはま","lat":33.883417,"lng":132.702177,"prefecture":38,"numbering":[{"index":"01"}],"lines":[99806],"attr":"heat","postal_code":"791-8081","address":"松山市高浜町１"},
    {"code":9980602,"id":"17c855","name":"梅津寺","name_kana":"ばいしんじ","lat":33.874637,"lng":132.707595,"prefecture":38,"numbering":[{"index":"02"}],"lines":[99806],"attr":"heat","postal_code":"791-8082","address":"松山市梅津寺町"},
    {"code":9980603,"id":"87f6d7","name":"港山","name_kana":"みなとやま","lat":33.869533,"lng":132.713405,"prefecture":38,"numbering":[{"index":"03"}],"lines":[99806],"attr":"heat","postal_code":"791-8085","address":"松山市港山町"},
    {"code":9980604,"id":"539642","name":"三津","name_kana":"みつ","lat":33.863864,"lng":132.720002,"prefecture":38,"numbering":[{"index":"04"}],"lines":[99806],"attr":"heat","postal_code":"791-8065","address":"松山市三杉町"},
    {"code":9980605,"id":"b01da0","name":"山西","name_kana":"やまにし","lat":33.855301,"lng":132.724326,"prefecture":38,"numbering":[{"index":"05"}],"lines":[99806],"attr":"heat","postal_code":"791-8067","address":"松山市古三津町６"},
    {"code":9980606,"id":"fde41f","name":"西衣山","name_kana":"にしきぬやま","lat":33.850152,"lng":132.733989,"prefecture":38,"numbering":[{"index":"06"}],"lines":[99806],"attr":"cool","postal_code":"791-8025","address":"松山市衣山４"},
    {"code":9980607,"id":"a5d8f3","name":"衣山","name_kana":"きぬやま","lat":33.8522,"lng":132.743997,"prefecture":38,"numbering":[{"index":"07"}],"lines":[99806],"attr":"cool","postal_code":"791-8025","address":"松山市衣山２"},
    {"code":9980608,"id":"9e01b0","name":"古町","name_kana":"こまち","lat":33.846978,"lng":132.754998,"prefecture":38,"numbering":[{"index":"08"}],"lines":[99806,99808,99809],"attr":"cool","postal_code":"790-0807","address":"松山市平和通６"},
    {"code":9980609,"id":"015dd9","name":"大手町(愛媛)","name_kana":"おおてまち","lat":33.839726,"lng":132.755384,"prefecture":38,"numbering":[{"index":"09"}],"lines":[99806,99808,99809,99811],"attr":"cool","postal_code":"790-0067","address":"松山市大手町２"},
    {"code":9980501,"id":"341a64","name":"松山市","name_kana":"まつやまし","lat":33.835656,"lng":132.762281,"prefecture":38,"numbering":[{"index":"10"}],"lines":[99805,99806,99807],"attr":"heat","postal_code":"790-0012","address":"松山市湊町５"}
  ],
  "north":33.88377,
  "south":33.83556,
  "east":132.76227,
  "west":132.70217,
  "polyline_list":[
    {
      "start":"高浜",
      "end":"松山市",
      "lat":33.88377,
      "lng":132.70217,
      "delta_lat":[0,-65,-61,-73,-47,-45,-45,-60,-100,-69,-67,-37,-22,-26,-27,-27,-44,-14,-25,-32,-58,-137,-128,-75,-36,-29,-34,-22,-12,-8,-4,4,11,9,6,0,-7,-14,-14,-15,-26,-36,-41,-42,-73,-114,-188,-61,-156,-143,-194,-200,-32,-32,-55,-89,-115,-76,-23,-26,-30,-24,-22,-18,-9,-49,-3,-7,-12,-3,0,4,11,28,45,64,21,21,12,7,6,1,1,0,-4,-6,-5,-2,-3,-2,-4,-5,-7,-13,-11,-15,-23,-18,-20,-20,-30,-24,-18,-18,-42,-25,-63,-17,-81,-46,-62,-46,-19,-55,-43,-34,-166,-195,-76,-24,-67,-53,-47,-19,-24,-25,-30,-40,-38,-26,-45,-18,-6,-14],
      "delta_lng":[0,4,4,-3,0,14,17,32,57,51,62,41,36,54,42,32,37,9,18,21,36,93,86,49,28,32,45,43,38,28,42,37,76,57,59,31,47,50,25,30,35,33,30,21,35,59,92,27,78,70,97,100,17,22,47,88,112,77,28,32,47,46,60,55,36,278,19,47,72,32,46,42,68,99,160,216,70,77,66,47,76,26,100,111,74,163,130,140,65,33,31,29,30,33,24,27,27,22,19,15,18,14,7,3,6,0,-9,-6,-32,-18,-35,-29,-12,-19,-8,1,35,42,16,5,17,13,15,9,23,31,60,97,110,60,117,48,28,85]
    }
  ]
}