{
  "code":99803,
  "name":"琴電長尾線",
  "color":"#66CC66",
  "symbol":"N",
  "station_list":[
    {"code":9980201,"id":"6e6c73","name":"高松築港","name_kana":"たかまつちっこう","lat":34.35079,"lng":134.049507,"prefecture":37,"numbering":[{"index":"00"}],"lines":[99802,99803],"attr":"cool","postal_code":"760-0000","address":"高松市多玉藻町９７-２"},
    {"code":9980202,"id":"ae7727","name":"片原町(香川)","name_kana":"かたはらまち","lat":34.346138,"lng":134.054368,"prefecture":37,"numbering":[{"index":"01"}],"lines":[99802,99803],"attr":"cool","postal_code":"760-0035","address":"高松市鶴屋町９-１"},
    {"code":9980203,"id":"f7d4e0","name":"瓦町","name_kana":"かわらまち","lat":34.338827,"lng":134.052529,"prefecture":37,"numbering":[{"index":"02"}],"lines":[99802,99803,99804],"attr":"cool","postal_code":"760-0054","address":"高松市常磐町１-３-１"},
    {"code":9980304,"id":"0a7754","name":"花園(香川)","name_kana":"はなぞの","lat":34.334206,"lng":134.059463,"prefecture":37,"numbering":[{"index":"03"}],"lines":[99803],"attr":"cool","postal_code":"760-0072","address":"高松市花園町１-１３１１-１０"},
    {"code":9980305,"id":"54a939","name":"林道","name_kana":"はやしみち","lat":34.32344,"lng":134.073106,"prefecture":37,"numbering":[{"index":"04"}],"lines":[99803],"attr":"cool","postal_code":"760-0080","address":"高松市木太町１６０９-２"},
    {"code":9980306,"id":"85c958","name":"木太東口","name_kana":"きたひがしぐち","lat":34.319718,"lng":134.07957,"prefecture":37,"numbering":[{"index":"05"}],"lines":[99803],"attr":"heat","postal_code":"760-0080","address":"高松市木太町４００７-７"},
    {"code":9980307,"id":"c6c229","name":"元山(香川)","name_kana":"もとやま","lat":34.310424,"lng":134.083742,"prefecture":37,"numbering":[{"index":"06"}],"lines":[99803],"attr":"heat","postal_code":"761-0311","address":"高松市元山町９７４-２"},
    {"code":9980308,"id":"54da35","name":"水田","name_kana":"みずた","lat":34.303056,"lng":134.092699,"prefecture":37,"numbering":[{"index":"07"}],"lines":[99803],"attr":"heat","postal_code":"761-0312","address":"高松市東山崎町５８-２"},
    {"code":9980309,"id":"7a828f","name":"西前田","name_kana":"にしまえだ","lat":34.296004,"lng":134.104675,"prefecture":37,"numbering":[{"index":"08"}],"lines":[99803],"attr":"heat","postal_code":"761-0322","address":"高松市前田東町１０４７-２"},
    {"code":9980310,"id":"3bf8f5","name":"高田(香川)","name_kana":"たかた","lat":34.288506,"lng":134.112155,"prefecture":37,"numbering":[{"index":"09"}],"lines":[99803],"attr":"eco","postal_code":"761-0323","address":"高松市亀田町３８１-３"},
    {"code":9980311,"id":"e1e28c","name":"池戸","name_kana":"いけのべ","lat":34.27866,"lng":134.119706,"prefecture":37,"numbering":[{"index":"10"}],"lines":[99803],"attr":"eco","postal_code":"761-0701","address":"木田郡三木町池戸３３６２-３"},
    {"code":9980312,"id":"e82313","name":"農学部前","name_kana":"のうがくぶまえ","lat":34.273814,"lng":134.125739,"prefecture":37,"numbering":[{"index":"11"}],"lines":[99803],"attr":"eco","postal_code":"761-0701","address":"木田郡三木町池戸２８５２-６"},
    {"code":9980313,"id":"59f4f0","name":"平木","name_kana":"ひらぎ","lat":34.272134,"lng":134.131327,"prefecture":37,"numbering":[{"index":"12"}],"lines":[99803],"attr":"eco","postal_code":"761-0702","address":"木田郡三木町平木１１３-２"},
    {"code":9980314,"id":"3defe2","name":"学園通り","name_kana":"がくえんどおり","lat":34.270576,"lng":134.136998,"prefecture":37,"numbering":[{"index":"13"}],"lines":[99803],"attr":"eco","postal_code":"761-0703","address":"木田郡三木町鹿伏２０８-２"},
    {"code":9980315,"id":"f62a3e","name":"白山(香川)","name_kana":"しらやま","lat":34.266707,"lng":134.150461,"prefecture":37,"numbering":[{"index":"14"}],"lines":[99803],"attr":"eco","postal_code":"761-0700","address":"木田郡三木町白山９６７-５"},
    {"code":9980316,"id":"745e7f","name":"井戸","name_kana":"いど","lat":34.266669,"lng":134.156127,"prefecture":37,"numbering":[{"index":"15"}],"lines":[99803],"attr":"eco","postal_code":"761-0823","address":"木田郡三木町井戸４２１７-２"},
    {"code":9980317,"id":"5e7f4d","name":"公文明","name_kana":"くもんみょう","lat":34.266688,"lng":134.161929,"prefecture":37,"numbering":[{"index":"16"}],"lines":[99803],"attr":"eco","postal_code":"761-0823","address":"木田郡三木町井戸４１２５-２"},
    {"code":9980318,"id":"ddd69a","name":"長尾(香川)","name_kana":"ながお","lat":34.266675,"lng":134.169184,"prefecture":37,"numbering":[{"index":"17"}],"lines":[99803],"attr":"eco","postal_code":"769-2302","address":"さぬき市長尾西５５９-２"}
  ],
  "north":34.33941,
  "south":34.26662,
  "east":134.16956,
  "west":134.05246,
  "polyline_list":[
    {
      "start":"瓦町",
      "end":"長尾",
      "lat":34.33941,
      "lng":134.0527,
      "delta_lat":[0,-118,-25,-76,-18,-12,-9,-22,-16,-15,-18,-21,-102,-56,-119,-18,-22,-47,-40,-204,-76,-14,-33,-5,-69,-170,-271,-27,-87,-33,-51,-91,-17,-21,-24,-44,-11,-15,-2,-14,-71,-313,-455,-65,-29,-239,-133,-49,-44,-34,-28,-10,-7,-4,-7,-4,-5,-3,-7,-86,-20,-12,-56,-45,-10,-17,-39,-97,-188,-50,-8,-4,0,1,-1,-8,-9,-10,-18,-97,-49,-94,-170,-60,-74,-117,-11,-90,-80,-41,-80,-18,-291,-242,-51,-20,-83,-124,-58,-31,-60,-51,-42,-37,-45,-49,-43,-22,-27,-21,-22,-31,-22,-49,-27,-30,-35,-24,-42,-26,-9,-9,-43,-8,-20,-23,-38,-61,-74,-24,-9,-13,-54,-29,-25,-11,-7,-4,-10,-5,0,0,2,-2,0,1,1,-2,2,0,0,0,1,0],
      "delta_lng":[0,-23,10,70,30,46,65,205,48,37,28,27,77,45,78,12,14,33,28,140,66,15,51,12,118,302,495,52,165,60,91,162,35,30,39,53,10,8,1,9,29,133,189,25,12,59,33,16,23,28,31,21,18,22,70,72,54,29,34,305,74,44,203,161,29,36,52,92,188,59,13,14,16,51,21,38,30,19,17,81,44,77,148,50,62,99,11,118,107,54,96,18,211,173,37,14,59,90,44,24,37,39,34,34,46,53,47,30,36,40,59,93,80,164,92,99,117,80,140,89,31,36,154,28,71,80,138,226,267,85,31,43,147,74,81,33,42,45,68,49,61,144,218,78,180,257,127,81,140,24,29,186,223,79]
    }
  ]
}