{
  "code":99802,
  "name":"琴電琴平線",
  "color":"#FFCC33",
  "symbol":"K",
  "station_list":[
    {"code":9980201,"id":"6e6c73","name":"高松築港","name_kana":"たかまつちっこう","lat":34.35079,"lng":134.049507,"prefecture":37,"numbering":[{"index":"00"}],"lines":[99802,99803],"attr":"cool","postal_code":"760-0000","address":"高松市多玉藻町９７-２"},
    {"code":9980202,"id":"ae7727","name":"片原町(香川)","name_kana":"かたはらまち","lat":34.346138,"lng":134.054368,"prefecture":37,"numbering":[{"index":"01"}],"lines":[99802,99803],"attr":"cool","postal_code":"760-0035","address":"高松市鶴屋町９-１"},
    {"code":9980203,"id":"f7d4e0","name":"瓦町","name_kana":"かわらまち","lat":34.338827,"lng":134.052529,"prefecture":37,"numbering":[{"index":"02"}],"lines":[99802,99803,99804],"attr":"cool","postal_code":"760-0054","address":"高松市常磐町１-３-１"},
    {"code":9980204,"id":"96bc75","name":"栗林公園","name_kana":"りつりんこうえん","lat":34.328586,"lng":134.051063,"prefecture":37,"numbering":[{"index":"03"}],"lines":[99802],"attr":"heat","postal_code":"760-0073","address":"高松市栗林町３-８３０"},
    {"code":9980205,"id":"b1828f","name":"三条(香川)","name_kana":"さんじょう","lat":34.319718,"lng":134.049478,"prefecture":37,"numbering":[{"index":"04"}],"lines":[99802],"attr":"heat","postal_code":"761-8064","address":"高松市上之町２-１２４４-３"},
    {"code":9980206,"id":"5586f0","name":"太田(香川)","name_kana":"おおた","lat":34.298989,"lng":134.045965,"prefecture":37,"numbering":[{"index":"05"}],"lines":[99802],"attr":"heat","postal_code":"761-8074","address":"高松市太田上町７０５-６"},
    {"code":9980207,"id":"c7b02d","name":"仏生山","name_kana":"ぶっしょうざん","lat":34.283213,"lng":134.042605,"prefecture":37,"numbering":[{"index":"06"}],"lines":[99802],"attr":"heat","postal_code":"760-0000","address":"高松市仏生山町３０２-１"},
    {"code":9980208,"id":"9f99f2","name":"空港通り","name_kana":"くうこうどおり","lat":34.28112,"lng":134.033096,"prefecture":37,"numbering":[{"index":"07"}],"lines":[99802],"attr":"heat","postal_code":"761-8085","address":"高松市寺井町２７７番地３"},
    {"code":9980209,"id":"dbecbd","name":"一宮","name_kana":"いちのみや","lat":34.283027,"lng":134.022561,"prefecture":37,"numbering":[{"index":"08"}],"lines":[99802],"attr":"heat","postal_code":"761-8084","address":"高松市一宮町５０４-５"},
    {"code":9980210,"id":"442afb","name":"円座","name_kana":"えんざ","lat":34.284479,"lng":134.009285,"prefecture":37,"numbering":[{"index":"09"}],"lines":[99802],"attr":"heat","postal_code":"761-8044","address":"高松市円座町１４６９-２"},
    {"code":9980211,"id":"406047","name":"岡本(香川)","name_kana":"おかもと","lat":34.270261,"lng":133.989265,"prefecture":37,"numbering":[{"index":"10"}],"lines":[99802],"attr":"heat","postal_code":"761-8047","address":"高松市岡本町１５５４-３"},
    {"code":9980212,"id":"ea336d","name":"挿頭丘","name_kana":"かざしがおか","lat":34.262007,"lng":133.979358,"prefecture":37,"numbering":[{"index":"11"}],"lines":[99802],"attr":"cool","postal_code":"761-2101","address":"綾歌郡綾川町畑田５６２-３"},
    {"code":9980213,"id":"c5f30a","name":"畑田","name_kana":"はただ","lat":34.25901,"lng":133.97157,"prefecture":37,"numbering":[{"index":"12"}],"lines":[99802],"attr":"cool","postal_code":"761-2101","address":"綾歌郡綾川町畑田１０５９-３"},
    {"code":9980214,"id":"7c349b","name":"陶","name_kana":"すえ","lat":34.250394,"lng":133.947778,"prefecture":37,"numbering":[{"index":"13"}],"lines":[99802],"attr":"cool","postal_code":"761-2103","address":"綾歌郡綾川町陶５６９２-４"},
    {"code":9980222,"id":"a3ea2c","name":"綾川","name_kana":"あやがわ","lat":34.249528,"lng":133.931667,"prefecture":37,"numbering":[{"index":"14"}],"lines":[99802],"attr":"cool","postal_code":"761-2304","address":"香川県綾歌郡綾川町萱原744番地3"},
    {"code":9980215,"id":"44912a","name":"滝宮","name_kana":"たきのみや","lat":34.248152,"lng":133.922302,"prefecture":37,"numbering":[{"index":"15"}],"lines":[99802],"attr":"cool","postal_code":"761-2305","address":"綾歌郡綾川町滝宮５１５-３"},
    {"code":9980216,"id":"29ad1f","name":"羽床","name_kana":"はゆか","lat":34.241078,"lng":133.901782,"prefecture":37,"numbering":[{"index":"16"}],"lines":[99802],"attr":"cool","postal_code":"761-2300","address":"綾歌郡綾川町羽床１１１５-３"},
    {"code":9980217,"id":"bdf95a","name":"栗熊","name_kana":"くりくま","lat":34.233905,"lng":133.884133,"prefecture":37,"numbering":[{"index":"17"}],"lines":[99802],"attr":"cool","postal_code":"761-2406","address":"丸亀市綾歌町栗熊東４８０-２"},
    {"code":9980218,"id":"1d2651","name":"岡田(香川)","name_kana":"おかだ","lat":34.220859,"lng":133.860902,"prefecture":37,"numbering":[{"index":"18"}],"lines":[99802],"attr":"eco","postal_code":"761-2402","address":"丸亀市綾歌町岡田下４７３-３"},
    {"code":9980219,"id":"3bb4a0","name":"羽間","name_kana":"はざま","lat":34.209571,"lng":133.847345,"prefecture":37,"numbering":[{"index":"19"}],"lines":[99802],"attr":"eco","postal_code":"766-0013","address":"仲多度郡まんのう町東高篠２３８６"},
    {"code":9980220,"id":"ac7408","name":"榎井","name_kana":"えない","lat":34.194317,"lng":133.829511,"prefecture":37,"numbering":[{"index":"20"}],"lines":[99802],"attr":"eco","postal_code":"766-0004","address":"仲多度郡琴平町榎井４００-３"},
    {"code":9980221,"id":"02c36a","name":"琴電琴平","name_kana":"ことでんことひら","lat":34.190906,"lng":133.819236,"prefecture":37,"numbering":[{"index":"21"}],"lines":[99802],"attr":"eco","postal_code":"766-0000","address":"仲多度郡琴平町３６０-２２"}
  ],
  "north":34.35108,
  "south":34.19117,
  "east":134.05452,
  "west":133.81823,
  "polyline_list":[
    {
      "start":"琴電琴平",
      "end":"高松築港",
      "lat":34.19117,
      "lng":133.8192,
      "delta_lat":[0,49,19,12,10,18,19,35,25,29,39,32,20,25,8,8,10,3,0,-1,-12,-45,-22,-12,-6,-9,-3,-2,4,5,5,11,29,26,34,5,40,44,50,15,10,11,15,36,43,47,52,91,72,45,6,7,76,32,50,36,41,67,74,42,133,41,23,69,52,66,40,12,68,41,9,41,85,83,97,83,72,107,52,17,13,17,42,14,11,18,15,23,22,22,16,16,19,43,28,42,71,34,47,37,25,16,12,46,25,24,32,36,46,52,49,76,49,1,45,29,31,47,18,11,16,190,39,18,14,15,6,3,2,8,3,5,10,10,11,51,7,90,31,105,87,72,94,40,83,78,57,20,33,27,82,122,150,39,59,9,9,2,0,0,-9,-3,-9,-3,2,6,5,8,26,22,67,78,63,58,27,23,13,11,5,-1,-9,-17,-16,-9,-20,-20,0,5,23,7,11,7,11,30,33,39,83,2,13,0,69,16,16,8,10,4,-2,-2,2,5,12,11,21,177,50,156,80,97,27,95,177,27,70,31,22,26,40,157,58,28,202,163,43,311,141,137,28,252,283,109,32,19,11,2,18,14,15,10,4,4,5,2,0,-4,-5,-38,2,9,2,-4,-13,-61,-15,-32,-45,-116,-3,-18,-2,-34,-13,-6,-1,-2,4,9,10,16,11,13,21,26,21,13,34,44,60,60,41,63,52,33,417,473,403,67,204,688,9,401,354,123,6,127,14,15,34,34,65,235,316,145,109,62,48,33,23,112,30,62,29,12,10,21,25,18,19,57,24,186,16,53,52,85,25,118,87,264,280,61,29,29,29,40,31,39,13,7,4,7,9,17,26,33,35,57,70],
      "delta_lng":[0,-57,-19,-9,-5,-6,-1,1,3,15,21,25,20,33,16,16,42,22,30,32,50,202,96,52,47,83,13,48,40,44,24,37,84,76,103,12,119,126,146,36,17,15,18,49,57,58,64,113,88,55,7,11,89,37,52,31,31,41,42,21,74,23,14,45,36,46,28,8,55,37,8,35,73,73,81,69,56,85,44,19,12,19,50,20,13,25,23,36,39,38,30,33,43,97,62,93,157,78,106,78,53,33,21,76,32,29,34,40,53,63,59,98,65,4,47,31,23,38,16,13,13,192,54,27,30,42,43,55,92,114,26,29,39,32,29,136,15,218,81,260,218,185,230,101,206,188,134,50,87,69,205,314,382,97,153,28,30,36,39,27,137,32,100,38,30,25,31,21,44,36,84,96,75,77,37,54,43,61,47,89,158,260,230,124,280,315,55,45,217,65,80,43,39,74,85,70,127,2,20,2,110,33,49,37,65,58,53,45,46,37,52,32,49,474,136,394,213,260,74,250,461,67,183,66,36,35,43,156,57,27,198,161,50,384,176,169,22,235,268,106,33,23,22,4,36,35,49,47,43,232,80,103,59,32,31,211,85,222,72,32,78,311,76,160,216,581,15,95,9,175,70,40,28,40,50,67,65,71,46,37,63,48,28,14,26,27,30,24,14,17,12,9,92,87,74,12,35,123,0,69,56,23,1,23,3,2,5,5,10,44,55,27,21,10,8,4,-2,-16,-5,-12,-3,0,0,1,7,6,9,40,19,129,5,8,-24,-31,-10,23,26,67,69,16,5,-3,-9,-21,-26,-49,-41,-46,-109,-76,-50,-37,-29,-20,-8,3,10]
    }
  ]
}