{
  "code":99807,
  "name":"伊予鉄道横河原線",
  "color":"#00BBEE",
  "symbol":"IY",
  "station_list":[
    {"code":9980501,"id":"341a64","name":"松山市","name_kana":"まつやまし","lat":33.835656,"lng":132.762281,"prefecture":38,"numbering":[{"index":"10"}],"lines":[99805,99806,99807],"attr":"heat","postal_code":"790-0012","address":"松山市湊町５"},
    {"code":9980702,"id":"a4a650","name":"石手川公園","name_kana":"いしてがわこうえん","lat":33.831311,"lng":132.76935,"prefecture":38,"numbering":[{"index":"11"}],"lines":[99807],"attr":"eco","postal_code":"790-0966","address":"松山市立花町１"},
    {"code":9980703,"id":"9ac51a","name":"いよ立花","name_kana":"いよたちばな","lat":33.827784,"lng":132.772944,"prefecture":38,"numbering":[{"index":"12"}],"lines":[99807],"attr":"eco","postal_code":"790-0966","address":"松山市立花町２"},
    {"code":9980704,"id":"920e04","name":"福音寺","name_kana":"ふくおんじ","lat":33.82261,"lng":132.788931,"prefecture":38,"numbering":[{"index":"13"}],"lines":[99807],"attr":"eco","postal_code":"790-0921","address":"松山市福音寺町"},
    {"code":9980705,"id":"1f6afe","name":"北久米","name_kana":"きたくめ","lat":33.819277,"lng":132.798664,"prefecture":38,"numbering":[{"index":"14"}],"lines":[99807],"attr":"eco","postal_code":"790-0923","address":"松山市北久米町"},
    {"code":9980706,"id":"b86e1b","name":"久米","name_kana":"くめ","lat":33.816036,"lng":132.804555,"prefecture":38,"numbering":[{"index":"15"}],"lines":[99807],"attr":"eco","postal_code":"790-0924","address":"松山市南久米町"},
    {"code":9980707,"id":"7bc1fc","name":"鷹ノ子","name_kana":"たかのこ","lat":33.812542,"lng":132.815301,"prefecture":38,"numbering":[{"index":"16"}],"lines":[99807],"attr":"eco","postal_code":"790-0925","address":"松山市鷹子町"},
    {"code":9980708,"id":"c62f15","name":"平井(愛媛)","name_kana":"ひらい","lat":33.808687,"lng":132.828617,"prefecture":38,"numbering":[{"index":"17"}],"lines":[99807],"attr":"eco","postal_code":"791-0243","address":"松山市平井町甲"},
    {"code":9980709,"id":"c07779","name":"梅本","name_kana":"うめのもと","lat":33.800944,"lng":132.839307,"prefecture":38,"numbering":[{"index":"18"}],"lines":[99807],"attr":"heat","postal_code":"791-0245","address":"松山市南梅本町甲"},
    {"code":9980710,"id":"f1eed2","name":"牛渕団地前","name_kana":"うしぶちだんちまえ","lat":33.797739,"lng":132.846051,"prefecture":38,"numbering":[{"index":"19"}],"lines":[99807],"attr":"heat","postal_code":"791-0213","address":"東温市牛渕"},
    {"code":9980711,"id":"3fd407","name":"牛渕","name_kana":"うしぶち","lat":33.795212,"lng":132.856112,"prefecture":38,"numbering":[{"index":"20"}],"lines":[99807],"attr":"heat","postal_code":"791-0213","address":"東温市牛渕"},
    {"code":9980712,"id":"457c7b","name":"田窪","name_kana":"たのくぼ","lat":33.792948,"lng":132.865413,"prefecture":38,"numbering":[{"index":"21"}],"lines":[99807],"attr":"heat","postal_code":"791-0212","address":"東温市田窪"},
    {"code":9980713,"id":"1a44f0","name":"見奈良","name_kana":"みなら","lat":33.792721,"lng":132.873374,"prefecture":38,"numbering":[{"index":"22"}],"lines":[99807],"attr":"cool","postal_code":"791-0211","address":"東温市見奈良"},
    {"code":9980714,"id":"7e591a","name":"愛大医学部南口","name_kana":"あいだいいがくぶみなみぐち","lat":33.797831,"lng":132.878659,"prefecture":38,"numbering":[{"index":"23"}],"lines":[99807],"attr":"cool","postal_code":"791-0204","address":"東温市志津川甲"},
    {"code":9980715,"id":"ceb81d","name":"横河原","name_kana":"よこがわら","lat":33.803353,"lng":132.88434,"prefecture":38,"numbering":[{"index":"24"}],"lines":[99807],"attr":"cool","postal_code":"791-0203","address":"東温市横河原"}
  ],
  "north":33.8357,
  "south":33.79192,
  "east":132.88448,
  "west":132.76143,
  "polyline_list":[
    {
      "start":"松山市",
      "end":"横河原",
      "lat":33.8357,
      "lng":132.76143,
      "delta_lat":[0,-14,-9,-38,-18,-22,-57,-45,-19,-24,-50,-68,-44,-62,-6,-250,-20,-25,-33,-41,-181,-118,-39,-27,-13,-81,-25,-113,-113,-46,-28,-28,-60,-16,-80,-23,-66,-21,-48,-35,-16,-12,-124,-85,-52,-12,-21,-195,-104,-60,-24,-48,-16,-29,-30,-17,-12,-36,-61,-94,-90,-37,-25,-32,-132,-60,-36,-230,-34,-11,-11,-20,-17,-20,-86,-118,-26,-21,-93,-85,-45,-24,-49,-14,-5,-4,4,5,10,21,23,27,24,23,36,60,360,51,78,403,52],
      "delta_lng":[0,85,66,53,31,66,162,92,33,28,51,61,35,56,4,221,19,53,74,115,551,361,119,81,42,250,78,328,350,132,88,83,172,30,135,25,72,28,57,45,28,39,435,303,177,40,77,684,362,208,82,156,46,62,49,20,9,15,38,66,69,34,26,43,224,103,67,401,60,22,35,73,61,75,356,452,104,84,392,333,147,85,184,58,49,41,78,60,62,96,43,46,37,30,42,67,360,52,73,402,52]
    }
  ]
}