{
  "code":99804,
  "name":"琴電志度線",
  "color":"#FF3366",
  "symbol":"S",
  "station_list":[
    {"code":9980203,"id":"f7d4e0","name":"瓦町","name_kana":"かわらまち","lat":34.338827,"lng":134.052529,"prefecture":37,"numbering":[{"index":"00"}],"lines":[99802,99803,99804],"attr":"cool","postal_code":"760-0054","address":"高松市常磐町１-３-１"},
    {"code":9980402,"id":"9ae8ee","name":"今橋","name_kana":"いまばし","lat":34.341577,"lng":134.058782,"prefecture":37,"numbering":[{"index":"01"}],"lines":[99804],"attr":"eco","postal_code":"760-0068","address":"高松市松島町１-３-２１"},
    {"code":9980403,"id":"81ab41","name":"松島二丁目","name_kana":"まつしまにちょうめ","lat":34.339986,"lng":134.064626,"prefecture":37,"numbering":[{"index":"02"}],"lines":[99804],"attr":"eco","postal_code":"760-0067","address":"高松市松福町２-１５-２"},
    {"code":9980404,"id":"1ec8a1","name":"沖松島","name_kana":"おきまつしま","lat":34.341219,"lng":134.072253,"prefecture":37,"numbering":[{"index":"03"}],"lines":[99804],"attr":"eco","postal_code":"760-0066","address":"高松市福岡町４-３２-１"},
    {"code":9980405,"id":"d5f984","name":"春日川","name_kana":"かすががわ","lat":34.340969,"lng":134.083566,"prefecture":37,"numbering":[{"index":"04"}],"lines":[99804],"attr":"eco","postal_code":"760-0080","address":"高松市木太町２７０８"},
    {"code":9980406,"id":"01ffc9","name":"潟元","name_kana":"かたもと","lat":34.341363,"lng":134.098231,"prefecture":37,"numbering":[{"index":"05"}],"lines":[99804],"attr":"eco","postal_code":"761-0113","address":"高松市屋島西町１７２３-５"},
    {"code":9980407,"id":"79f436","name":"琴電屋島","name_kana":"ことでんやしま","lat":34.341624,"lng":134.105763,"prefecture":37,"numbering":[{"index":"06"}],"lines":[99804],"attr":"cool","postal_code":"761-0112","address":"高松市屋島中町２７０-１"},
    {"code":9980408,"id":"715601","name":"古高松","name_kana":"ふるたかまつ","lat":34.340844,"lng":134.11244,"prefecture":37,"numbering":[{"index":"07"}],"lines":[99804],"attr":"cool","postal_code":"761-0104","address":"高松市高松町１５-２"},
    {"code":9980409,"id":"79097f","name":"八栗","name_kana":"やくり","lat":34.344582,"lng":134.122439,"prefecture":37,"numbering":[{"index":"08"}],"lines":[99804],"attr":"cool","postal_code":"761-0121","address":"高松市牟礼町牟礼２２１６-２"},
    {"code":9980410,"id":"a83b5e","name":"六万寺","name_kana":"ろくまんじ","lat":34.342655,"lng":134.134088,"prefecture":37,"numbering":[{"index":"09"}],"lines":[99804],"attr":"cool","postal_code":"761-0121","address":"高松市牟礼町牟礼１０９７-２"},
    {"code":9980411,"id":"e4d9a2","name":"大町(香川)","name_kana":"おおまち","lat":34.337333,"lng":134.141354,"prefecture":37,"numbering":[{"index":"10"}],"lines":[99804],"attr":"cool","postal_code":"761-0122","address":"高松市牟礼町大町１５３２-５"},
    {"code":9980412,"id":"419cba","name":"八栗新道","name_kana":"やくりしんみち","lat":34.336705,"lng":134.147295,"prefecture":37,"numbering":[{"index":"11"}],"lines":[99804],"attr":"cool","postal_code":"761-0122","address":"高松市牟礼町大町１３８９-７"},
    {"code":9980413,"id":"e2286c","name":"塩屋(香川)","name_kana":"しおや","lat":34.335583,"lng":134.155142,"prefecture":37,"numbering":[{"index":"12"}],"lines":[99804],"attr":"cool","postal_code":"761-0122","address":"高松市牟礼町大町１５０２-５"},
    {"code":9980414,"id":"7b328e","name":"房前","name_kana":"ふさざき","lat":34.332367,"lng":134.158483,"prefecture":37,"numbering":[{"index":"13"}],"lines":[99804],"attr":"heat","postal_code":"761-0123","address":"高松市牟礼町原６２２-１"},
    {"code":9980415,"id":"7d7f37","name":"原(香川)","name_kana":"はら","lat":34.32641,"lng":134.163654,"prefecture":37,"numbering":[{"index":"14"}],"lines":[99804],"attr":"heat","postal_code":"761-0123","address":"高松市牟礼町原３５５-２"},
    {"code":9980416,"id":"8620f6","name":"琴電志度","name_kana":"ことでんしど","lat":34.32246,"lng":134.172528,"prefecture":37,"numbering":[{"index":"15"}],"lines":[99804],"attr":"heat","postal_code":"769-2101","address":"さぬき市志度４９５-７"}
  ],
  "north":34.34465,
  "south":34.32245,
  "east":134.17293,
  "west":134.05325,
  "polyline_list":[
    {
      "start":"瓦町",
      "end":"琴電志度",
      "lat":34.33953,
      "lng":134.05325,
      "delta_lat":[0,11,8,7,14,80,30,23,21,9,6,5,-2,-7,-13,-18,-11,-34,-29,-13,-28,-21,-15,-11,-1,4,11,22,40,41,26,12,4,1,1,1,0,0,-1,-17,-7,-2,-3,-13,-5,-8,-38,-27,0,0,11,56,53,23,45,11,4,-1,-14,-29,-16,-63,-10,-3,0,15,2,4,6,7,8,16,22,39,103,123,20,2,7,9,6,2,-1,0,2,0,-9,-39,-55,-27,-2,-3,-6,-21,-21,-44,-151,-155,-141,-15,-5,-9,-13,-14,-14,-2,-4,-9,-2,-2,-5,-21,-15,-20,-15,-12,-8,-5,-9,-9,-10,-8,-10,-12,-5,-15,-24,-28,-9,-13,-16,-12,-54,-32,-24,-19,-16,-13,-56,-9,-25,-123,-141,-67,-19,-43,-33,-31,-16,-26,-47,-77,-17,-18,-47,-36,-50,-66,-54,-7,-6,-2,-2],
      "delta_lng":[0,81,51,14,11,52,26,31,54,48,98,96,78,62,83,73,24,55,50,31,88,85,108,122,39,23,25,36,55,68,62,49,34,45,83,216,87,86,64,317,305,85,55,204,50,95,333,209,16,13,47,173,161,76,154,51,28,42,149,261,81,207,36,11,19,268,41,76,41,36,31,53,59,90,206,255,43,3,19,29,30,33,24,57,32,21,65,284,403,206,21,12,11,27,27,53,181,187,170,23,9,37,53,69,70,28,79,275,50,15,15,66,49,58,57,36,27,47,106,110,103,82,94,160,20,45,57,50,9,8,1,-2,-25,-23,-11,-7,-3,4,28,5,21,115,147,65,15,23,20,18,16,33,59,96,21,25,74,71,119,161,134,33,38,41,84]
    }
  ]
}