{
  "code":99805,
  "name":"伊予鉄道郡中線",
  "color":"#F15A22",
  "symbol":"IY",
  "station_list":[
    {"code":9980501,"id":"341a64","name":"松山市","name_kana":"まつやまし","lat":33.835656,"lng":132.762281,"prefecture":38,"numbering":[{"index":"10"}],"lines":[99805,99806,99807],"attr":"heat","postal_code":"790-0012","address":"松山市湊町５"},
    {"code":9980502,"id":"522d74","name":"土橋(愛媛)","name_kana":"どばし","lat":33.832738,"lng":132.756487,"prefecture":38,"numbering":[{"index":"25"}],"lines":[99805],"attr":"heat","postal_code":"790-0032","address":"松山市土橋町"},
    {"code":9980503,"id":"e0c9c3","name":"土居田","name_kana":"どいだ","lat":33.8241,"lng":132.744094,"prefecture":38,"numbering":[{"index":"26"}],"lines":[99805],"attr":"heat","postal_code":"790-0056","address":"松山市土居田町"},
    {"code":9980504,"id":"0787a2","name":"余戸","name_kana":"ようご","lat":33.816173,"lng":132.733887,"prefecture":38,"numbering":[{"index":"27"}],"lines":[99805],"attr":"heat","postal_code":"790-0045","address":"松山市余戸中６"},
    {"code":9980505,"id":"c5e88d","name":"鎌田","name_kana":"かまた","lat":33.810115,"lng":132.729784,"prefecture":38,"numbering":[{"index":"28"}],"lines":[99805],"attr":"heat","postal_code":"790-0047","address":"松山市余戸南４"},
    {"code":9980506,"id":"cd6042","name":"岡田(愛媛)","name_kana":"おかだ","lat":33.799083,"lng":132.724271,"prefecture":38,"numbering":[{"index":"29"}],"lines":[99805],"attr":"heat","postal_code":"791-3133","address":"伊予郡松前町大字昌農内"},
    {"code":9980507,"id":"62df9d","name":"古泉","name_kana":"こいずみ","lat":33.792539,"lng":132.717136,"prefecture":38,"numbering":[{"index":"30"}],"lines":[99805],"attr":"cool","postal_code":"791-3134","address":"伊予郡松前町大字西古泉"},
    {"code":9980508,"id":"62c39f","name":"松前","name_kana":"まさき","lat":33.785965,"lng":132.705051,"prefecture":38,"numbering":[{"index":"31"}],"lines":[99805],"attr":"cool","postal_code":"791-3110","address":"伊予郡松前町大字浜"},
    {"code":9980509,"id":"4eaec9","name":"地蔵町","name_kana":"じぞうまち","lat":33.779907,"lng":132.70429,"prefecture":38,"numbering":[{"index":"32"}],"lines":[99805],"attr":"cool","postal_code":"791-3102","address":"伊予郡松前町大字北黒田"},
    {"code":9980510,"id":"f36420","name":"新川(愛媛)","name_kana":"しんかわ","lat":33.772178,"lng":132.704148,"prefecture":38,"numbering":[{"index":"33"}],"lines":[99805],"attr":"cool","postal_code":"799-3111","address":"伊予市下吾川"},
    {"code":9980511,"id":"932c01","name":"郡中","name_kana":"ぐんちゅう","lat":33.760734,"lng":132.70406,"prefecture":38,"numbering":[{"index":"34"}],"lines":[99805],"attr":"eco","postal_code":"799-3111","address":"伊予市下吾川"},
    {"code":9980512,"id":"5973f7","name":"郡中港","name_kana":"ぐんちゅうこう","lat":33.756302,"lng":132.702315,"prefecture":38,"numbering":[{"index":"35"}],"lines":[99805],"attr":"eco","postal_code":"799-3113","address":"伊予市米湊"}
  ],
  "north":33.8357,
  "south":33.75605,
  "east":132.76227,
  "west":132.70191,
  "polyline_list":[
    {
      "start":"郡中港",
      "end":"松山市",
      "lat":33.75605,
      "lng":132.70191,
      "delta_lat":[0,54,80,24,103,173,63,20,54,24,166,141,140,142,136,83,69,45,23,35,72,49,164,65,71,50,101,48,41,123,72,58,224,45,75,27,41,33,23,58,31,18,39,33,37,4,26,63,199,161,34,78,18,16,33,12,10,52,31,86,288,54,16,31,67,54,36,29,91,178,88,71,30,32,41,276,57,52,503,60,61,81,8,14,61,152,157,201,40,215,65,176,79,211,36,42,96,147,39,11,15,6,2,-14],
      "delta_lng":[0,47,60,12,36,59,19,3,-2,-1,-6,-3,2,2,8,5,5,5,2,0,-8,-3,-13,-3,-4,-2,9,8,3,2,1,-3,-9,2,11,7,13,15,11,37,22,17,47,47,55,9,49,130,434,348,71,170,39,26,37,12,12,56,26,67,223,42,11,22,51,40,20,13,35,62,28,23,11,14,23,162,35,33,331,39,45,74,7,17,87,220,227,293,60,307,91,273,117,292,47,60,138,197,60,29,36,30,25,85]
    }
  ]
}