{
  "code":99808,
  "name":"伊予鉄道１系統(環状線)",
  "color":"#006600",
  "station_list":[
    {"code":9980801,"id":"ebdcbd","name":"松山市駅","name_kana":"まつやましえき","lat":33.836148,"lng":132.762587,"prefecture":38,"numbering":[{"index":"01"}],"lines":[99808,99809,99810,99812],"attr":"eco","postal_code":"790-0012","address":"松山市湊町５"},
    {"code":9980802,"id":"81ccc2","name":"南堀端","name_kana":"みなみほりばた","lat":33.839213,"lng":132.761664,"prefecture":38,"numbering":[{"index":"02"}],"lines":[99808,99809,99810,99811,99812],"attr":"cool","postal_code":"790-0006","address":"松山市南堀端町"},
    {"code":9980803,"id":"29e264","name":"西堀端","name_kana":"にしほりばた","lat":33.840105,"lng":132.75866,"prefecture":38,"numbering":[{"index":"03"}],"lines":[99808,99809,99811],"attr":"cool","postal_code":"790-0067","address":"松山市大手町１"},
    {"code":9980609,"id":"015dd9","name":"大手町(愛媛)","name_kana":"おおてまち","lat":33.839726,"lng":132.755384,"prefecture":38,"numbering":[{"index":"04"}],"lines":[99806,99808,99809,99811],"attr":"cool","postal_code":"790-0067","address":"松山市大手町２"},
    {"code":9980805,"id":"fd4757","name":"JR松山駅前","name_kana":"じぇいあーるまつやまえきまえ","lat":33.840765,"lng":132.752326,"prefecture":38,"numbering":[{"index":"05"}],"lines":[99808,99809,99811],"attr":"cool","postal_code":"790-0067","address":"松山市大手町２"},
    {"code":9980806,"id":"682ac6","name":"宮田町","name_kana":"みやたちょう","lat":33.843948,"lng":132.752626,"prefecture":38,"numbering":[{"index":"06"}],"lines":[99808,99809],"attr":"cool","postal_code":"790-0066","address":"松山市宮田町"},
    {"code":9980608,"id":"9e01b0","name":"古町","name_kana":"こまち","lat":33.846978,"lng":132.754998,"prefecture":38,"numbering":[{"index":"07"}],"lines":[99806,99808,99809],"attr":"cool","postal_code":"790-0807","address":"松山市平和通６"},
    {"code":9980808,"id":"c16861","name":"萱町６丁目","name_kana":"かやまちろくちょうめ","lat":33.851756,"lng":132.756226,"prefecture":38,"numbering":[{"index":"08"}],"lines":[99808,99809],"attr":"eco","postal_code":"790-0813","address":"松山市萱町６"},
    {"code":9980809,"id":"7084ee","name":"本町６丁目","name_kana":"ほんまちろくちょうめ","lat":33.853472,"lng":132.758473,"prefecture":38,"numbering":[{"index":"09"}],"lines":[99808,99809,99812],"attr":"eco","postal_code":"790-0811","address":"松山市本町６"},
    {"code":9980810,"id":"5073d3","name":"木屋町","name_kana":"きやちょう","lat":33.853483,"lng":132.760776,"prefecture":38,"numbering":[{"index":"10"}],"lines":[99808,99809],"attr":"eco","postal_code":"790-0821","address":"松山市木屋町３"},
    {"code":9980811,"id":"a009bd","name":"高砂町","name_kana":"たかさごちょう","lat":33.851664,"lng":132.762464,"prefecture":38,"numbering":[{"index":"11"}],"lines":[99808,99809],"attr":"eco","postal_code":"790-0822","address":"松山市高砂町２"},
    {"code":9980812,"id":"c7f44f","name":"清水町","name_kana":"しみずまち","lat":33.849328,"lng":132.764281,"prefecture":38,"numbering":[{"index":"12"}],"lines":[99808,99809],"attr":"heat","postal_code":"790-0823","address":"松山市清水町２"},
    {"code":9980813,"id":"c5cf5f","name":"鉄砲町","name_kana":"てっぽうちょう","lat":33.84829,"lng":132.769011,"prefecture":38,"numbering":[{"index":"13"}],"lines":[99808,99809],"attr":"heat","postal_code":"790-0827","address":"松山市鉄砲町"},
    {"code":9980814,"id":"7d0110","name":"赤十字病院前","name_kana":"せきじゅうじびょういんまえ","lat":33.848115,"lng":132.772383,"prefecture":38,"numbering":[{"index":"14"}],"lines":[99808,99809],"attr":"heat","postal_code":"790-0826","address":"松山市文京町"},
    {"code":9980815,"id":"ac9998","name":"平和通１丁目","name_kana":"へいわどおりいっちょうめ","lat":33.847673,"lng":132.774452,"prefecture":38,"numbering":[{"index":"15"}],"lines":[99808,99809],"attr":"heat","postal_code":"790-0807","address":"松山市平和通１"},
    {"code":9980816,"id":"edbbd3","name":"上一万","name_kana":"かみいちまん","lat":33.846737,"lng":132.775502,"prefecture":38,"numbering":[{"index":"16"}],"lines":[99808,99809,99810,99811],"attr":"heat","postal_code":"790-0804","address":"松山市中一万町"},
    {"code":9980817,"id":"08078e","name":"警察署前","name_kana":"けいさつしょまえ","lat":33.844596,"lng":132.775354,"prefecture":38,"numbering":[{"index":"17"}],"lines":[99808,99809,99810,99811],"attr":"heat","postal_code":"790-0878","address":"松山市勝山町２"},
    {"code":9980818,"id":"c04691","name":"勝山町","name_kana":"かつやまちょう","lat":33.841709,"lng":132.774818,"prefecture":38,"numbering":[{"index":"18"}],"lines":[99808,99809,99810,99811],"attr":"heat","postal_code":"790-0878","address":"松山市勝山町２"},
    {"code":9980819,"id":"7359f8","name":"大街道","name_kana":"おおかいどう","lat":33.841103,"lng":132.769861,"prefecture":38,"numbering":[{"index":"19"}],"lines":[99808,99809,99810,99811],"attr":"cool","postal_code":"790-0004","address":"松山市大街道"},
    {"code":9980820,"id":"2cfdf2","name":"県庁前(愛媛)","name_kana":"けんちょうまえ","lat":33.841067,"lng":132.766364,"prefecture":38,"numbering":[{"index":"20"}],"lines":[99808,99809,99810,99811],"attr":"cool","postal_code":"790-0001","address":"松山市一番町"},
    {"code":9980821,"id":"6e67fe","name":"市役所前(愛媛)","name_kana":"しやくしょまえ","lat":33.839926,"lng":132.764819,"prefecture":38,"numbering":[{"index":"21"}],"lines":[99808,99809,99810,99811],"attr":"cool","postal_code":"790-0002","address":"松山市二番町"}
  ],
  "north":33.85362,
  "south":33.8361,
  "east":132.77545,
  "west":132.75228,
  "polyline_list":[
    {
      "start":"南堀端",
      "end":"古町",
      "lat":33.83943,
      "lng":132.76183,
      "delta_lat":[0,10,3,2,6,66,0,0,1,1,0,1,4,6,8,43,73,186,11,7,42,29,25,20,51,63,19,46],
      "delta_lng":[0,-275,-35,-6,-3,0,-27,-58,-210,-46,-14,-232,-23,-12,-7,-2,-1,-4,2,4,54,42,30,18,29,35,12,29]
    },
    {
      "start":"古町",
      "end":"上一万",
      "lat":33.84666,
      "lng":132.75483,
      "delta_lat":[0,62,46,81,17,36,103,29,20,20,34,29,69,14,17,30,29,22,9,4,6,6,13,-7,-26,-16,-9,-13,-20,-63,-67,-63,-51,-25,-12,-11,-8,-11,-14,-11,-4,-14,-7,-6,-8,-6,-21,-14,-20,-13,-4,-4,-2,-1,0,1,-5,-2,-14,-39,-3,-5,-2,-1,-1,-4,-12],
      "delta_lng":[0,35,18,32,6,13,40,9,1,-1,-9,-6,1,2,4,12,21,21,16,16,67,83,166,29,78,40,18,15,12,11,13,14,5,4,4,7,10,16,30,29,21,80,50,42,51,32,68,53,89,81,14,23,50,83,94,83,112,15,25,27,4,4,6,56,8,3,6]
    },
    {
      "start":"南堀端",
      "end":"上一万",
      "lat":33.83943,
      "lng":132.76183,
      "delta_lat":[0,-6,-1,2,5,11,18,45,81,7,4,2,3,2,2,6,2,5,5,7,13,15,8,4,9,19,47,115,63,52,118,55,39,24],
      "delta_lng":[0,170,73,14,6,7,7,4,12,5,6,9,27,83,57,275,56,92,74,54,118,123,54,10,7,3,1,4,2,1,4,2,1,1]
    },
    {
      "start":"松山市",
      "end":"南堀端",
      "lat":33.8361,
      "lng":132.76312,
      "delta_lat":[0,2,0,0,6,325],
      "delta_lng":[0,-51,-62,-10,-5,0]
    }
  ]
}