{
  "code":99817,
  "name":"とさでん交通後免線",
  "station_list":[
    {"code":9981602,"id":"93812f","name":"後免町","name_kana":"ごめんまち","lat":33.57454,"lng":133.651415,"prefecture":39,"lines":[99816,99817],"attr":"heat","postal_code":"783-0000","address":"南国市大よう甲１２１２-１"},
    {"code":9981702,"id":"a58924","name":"後免東町","name_kana":"ごめんひがしまち","lat":33.574526,"lng":133.648137,"prefecture":39,"lines":[99817],"attr":"eco","postal_code":"783-0011","address":"南国市後免町東町"},
    {"code":9981703,"id":"58855f","name":"後免中町","name_kana":"ごめんなかまち","lat":33.575548,"lng":133.645527,"prefecture":39,"lines":[99817],"attr":"eco","postal_code":"783-0011","address":"南国市後免町２"},
    {"code":9981704,"id":"a83666","name":"後免西町","name_kana":"ごめんにしまち","lat":33.575869,"lng":133.642652,"prefecture":39,"lines":[99817],"attr":"eco","postal_code":"783-0001","address":"南国市日吉町１"},
    {"code":9981705,"id":"fc98c9","name":"東工業前","name_kana":"ひがしこうぎょうまえ","lat":33.576442,"lng":133.638446,"prefecture":39,"lines":[99817],"attr":"eco","postal_code":"783-0006","address":"南国市篠原字北大窪"},
    {"code":9981706,"id":"0b7fcb","name":"住吉通","name_kana":"すみよしどおり","lat":33.576656,"lng":133.636515,"prefecture":39,"lines":[99817],"attr":"eco","postal_code":"783-0000","address":"南国市東野"},
    {"code":9981707,"id":"886911","name":"篠原(高知)","name_kana":"しのはら","lat":33.577228,"lng":133.631022,"prefecture":39,"lines":[99817],"attr":"eco","postal_code":"783-0000","address":"南国市若宮"},
    {"code":9981708,"id":"19275f","name":"小篭通","name_kana":"こごめどおり","lat":33.57637,"lng":133.625786,"prefecture":39,"lines":[99817],"attr":"eco","postal_code":"783-0000","address":"南国市南小籠"},
    {"code":9981709,"id":"9dce04","name":"長崎(高知)","name_kana":"ながさき","lat":33.575119,"lng":133.620722,"prefecture":39,"lines":[99817],"attr":"eco","postal_code":"780-0000","address":"高知市大津字長崎"},
    {"code":9981710,"id":"80f83b","name":"明見橋","name_kana":"みょうけんばし","lat":33.574582,"lng":133.617589,"prefecture":39,"lines":[99817],"attr":"eco","postal_code":"780-0000","address":"高知市大津字長崎"},
    {"code":9981711,"id":"f85081","name":"一条橋","name_kana":"いちじょうばし","lat":33.574833,"lng":133.613802,"prefecture":39,"lines":[99817],"attr":"eco","postal_code":"780-0000","address":"高知市大津字長崎"},
    {"code":9981712,"id":"dc678d","name":"清和学園前","name_kana":"せいわがくえんまえ","lat":33.57502,"lng":133.61244,"prefecture":39,"lines":[99817],"attr":"eco","postal_code":"780-0000","address":"高知市大津字長崎"},
    {"code":9981713,"id":"c3959f","name":"領石通","name_kana":"りょうせきどおり","lat":33.574332,"lng":133.607805,"prefecture":39,"lines":[99817],"attr":"eco","postal_code":"780-0000","address":"高知市大津字関"},
    {"code":9981714,"id":"29058b","name":"北浦(高知)","name_kana":"きたうら","lat":33.57376,"lng":133.603728,"prefecture":39,"lines":[99817],"attr":"eco","postal_code":"780-0000","address":"高知市大津字北浦"},
    {"code":9981715,"id":"79e658","name":"舟戸","name_kana":"ふなと","lat":33.570613,"lng":133.599522,"prefecture":39,"lines":[99817],"attr":"eco","postal_code":"780-0000","address":"高知市大津字舟戸"},
    {"code":9981716,"id":"21dcd4","name":"鹿児","name_kana":"かこ","lat":33.567216,"lng":133.597033,"prefecture":39,"lines":[99817],"attr":"eco","postal_code":"780-0000","address":"高知市大津字鹿児"},
    {"code":9981717,"id":"7e1bca","name":"田辺島通","name_kana":"たべしまどおり","lat":33.566644,"lng":133.593214,"prefecture":39,"lines":[99817],"attr":"heat","postal_code":"780-0000","address":"高知市大津字田辺島"},
    {"code":9981718,"id":"f55fdf","name":"東新木","name_kana":"ひがししんぎ","lat":33.564141,"lng":133.589609,"prefecture":39,"lines":[99817],"attr":"heat","postal_code":"781-8123","address":"高知市高須字六塩田"},
    {"code":9981719,"id":"aa896d","name":"新木(高知)","name_kana":"しんぎ","lat":33.562568,"lng":133.586948,"prefecture":39,"lines":[99817],"attr":"heat","postal_code":"781-8103","address":"高知市高須字新木"},
    {"code":9981720,"id":"faf34e","name":"介良通","name_kana":"けらどおり","lat":33.560243,"lng":133.583386,"prefecture":39,"lines":[99817],"attr":"heat","postal_code":"781-8123","address":"高知市高須字高須"},
    {"code":9981721,"id":"445795","name":"文珠通","name_kana":"もんじゅどおり","lat":33.559421,"lng":133.579524,"prefecture":39,"lines":[99817],"attr":"heat","postal_code":"781-8123","address":"高知市高須字高須"},
    {"code":9981722,"id":"04ffba","name":"高須(高知)","name_kana":"たかす","lat":33.559349,"lng":133.576691,"prefecture":39,"lines":[99817],"attr":"heat","postal_code":"781-8123","address":"高知市高須字高須"},
    {"code":9981723,"id":"c6e3f1","name":"県立美術館通","name_kana":"けんりつびじゅつかんどおり","lat":33.559134,"lng":133.575618,"prefecture":39,"lines":[99817],"attr":"heat","postal_code":"781-8122","address":"高知市高須新町１"},
    {"code":9981724,"id":"b6659a","name":"西高須","name_kana":"にしたかす","lat":33.558348,"lng":133.573129,"prefecture":39,"lines":[99817],"attr":"heat","postal_code":"781-8123","address":"高知市高須"},
    {"code":9981725,"id":"c1e9a4","name":"葛島橋東詰","name_kana":"かずらしまばしひがしづめ","lat":33.557024,"lng":133.569739,"prefecture":39,"lines":[99817],"attr":"cool","postal_code":"781-8123","address":"高知市高須字万島"},
    {"code":9981726,"id":"5d4fae","name":"知寄町三丁目","name_kana":"ちよりちょうさんちょうめ","lat":33.557597,"lng":133.565168,"prefecture":39,"lines":[99817],"attr":"cool","postal_code":"781-0806","address":"高知市知寄町三丁目"},
    {"code":9981727,"id":"762601","name":"知寄町","name_kana":"ちよりちょう","lat":33.557883,"lng":133.561757,"prefecture":39,"lines":[99817],"attr":"cool","postal_code":"781-0806","address":"高知市知寄町二丁目"},
    {"code":9981728,"id":"9eac31","name":"知寄町二丁目","name_kana":"ちよりちょうにちょうめ","lat":33.558097,"lng":133.55989,"prefecture":39,"lines":[99817],"attr":"cool","postal_code":"781-0806","address":"高知市知寄町二丁目"},
    {"code":9981729,"id":"0c93d3","name":"知寄町一丁目","name_kana":"ちよりちょういっちょうめ","lat":33.558419,"lng":133.556693,"prefecture":39,"lines":[99817],"attr":"cool","postal_code":"781-0806","address":"高知市知寄町一丁目"},
    {"code":9981730,"id":"737005","name":"宝永町","name_kana":"ほうえいちょう","lat":33.558777,"lng":133.55371,"prefecture":39,"lines":[99817],"attr":"cool","postal_code":"780-0818","address":"高知市宝永町"},
    {"code":9981731,"id":"62ff9f","name":"菜園場町","name_kana":"さえんばちょう","lat":33.559063,"lng":133.548625,"prefecture":39,"lines":[99817],"attr":"cool","postal_code":"780-0823","address":"高知市菜園場町"},
    {"code":9981732,"id":"a54479","name":"デンテツターミナルビル前","name_kana":"でんてつたーみなるびるまえ","lat":33.559332,"lng":133.544081,"prefecture":39,"lines":[99817],"attr":"cool","postal_code":"780-0822","address":"高知市はりまや町１"},
    {"code":9981733,"id":"7e4b0d","name":"はりまや橋","name_kana":"はりまやばし","lat":33.559617,"lng":133.542852,"prefecture":39,"lines":[99817,99818,99819],"attr":"cool","postal_code":"780-0822","address":"高知市はりまや町１"}
  ],
  "north":33.57699,
  "south":33.55689,
  "east":133.65064,
  "west":133.54259,
  "polyline_list":[
    {
      "start":"はりまや橋",
      "end":"後免町",
      "lat":33.55954,
      "lng":133.54259,
      "delta_lat":[0,-1,-2,-3,0,-9,-2,4,9,4,0,-2,-6,-24,-14,-5,-4,-3,-11,-11,-9,-4,-4,-12,-7,-5,-13,-10,-5,-12,-6,-24,-12,-7,-7,-6,-10,-8,-18,-3,-2,-1,1,21,27,16,21,27,22,38,14,21,13,4,-2,4,0,0,-4,-2,2,7,23,11,10,16,18,32,15,21,18,22,100,37,82,65,38,112,50,39,21,16,31,14,5,1,-2,-8,-11,0,3,11,33,137,60,32,18,65,13,14,76,31,15,23,22,19,16,13,46,21,15,14,9,0,-9,-7,-6,-5,0,0,7,8,9,23,29,9,4,2,1,2,0,0,-2,0,0,-1,-8,-2,0,1,3,4,10,6,1,1,2,3,8,17,19,10,17,22,3,10,8,9,7,10,3,5,10,8,10,19,13,5,0,-7,-1,-3,-5,-16,-7,-4,-15,-5,-3,-3,-3,-1,-5,-14,-25,-3,-2,-2,-19,-6,-1,-9,-4,-12,-42,-10,-6,-1,0,-4,-5,-2,-1,-1,-4,-10,-4],
      "delta_lng":[0,9,17,13,14,67,56,29,27,18,15,19,26,131,82,49,53,48,130,114,109,57,52,167,84,55,143,123,54,109,45,218,141,54,69,72,46,36,86,16,13,18,9,70,57,47,60,90,77,125,47,74,35,41,75,182,47,71,30,29,34,33,73,30,18,24,20,32,16,27,28,35,163,62,133,109,58,173,71,57,42,49,91,52,27,19,32,58,72,21,14,14,23,86,35,13,6,18,5,10,77,44,36,54,49,31,25,16,59,49,41,42,107,54,66,38,24,35,14,17,22,19,18,45,70,26,23,23,34,66,80,31,14,15,16,73,165,47,24,22,32,22,75,46,42,48,31,29,34,74,72,31,80,105,17,47,47,39,37,37,14,28,47,33,40,93,65,24,45,61,27,34,47,158,63,45,134,43,40,25,29,16,32,156,295,26,28,27,197,57,14,39,15,24,47,16,26,21,9,35,46,45,22,31,19,61,18]
    }
  ]
}