{
  "code":99818,
  "name":"とさでん交通伊野線",
  "station_list":[
    {"code":9981733,"id":"7e4b0d","name":"はりまや橋","name_kana":"はりまやばし","lat":33.559617,"lng":133.542852,"prefecture":39,"lines":[99817,99818,99819],"attr":"cool","postal_code":"780-0822","address":"高知市はりまや町１"},
    {"code":9981802,"id":"b3a928","name":"堀詰","name_kana":"ほりづめ","lat":33.559546,"lng":133.539441,"prefecture":39,"lines":[99818],"attr":"cool","postal_code":"780-0870","address":"高知市本町１"},
    {"code":9981803,"id":"c707a1","name":"大橋通","name_kana":"おおはしどおり","lat":33.558974,"lng":133.536415,"prefecture":39,"lines":[99818],"attr":"cool","postal_code":"780-0870","address":"高知市本町２"},
    {"code":9981804,"id":"e70b3d","name":"高知城前","name_kana":"こうちじょうまえ","lat":33.558491,"lng":133.534248,"prefecture":39,"lines":[99818],"attr":"cool","postal_code":"780-0870","address":"高知市本町４"},
    {"code":9981805,"id":"069804","name":"県庁前(高知)","name_kana":"けんちょうまえ","lat":33.55799,"lng":133.531222,"prefecture":39,"lines":[99818],"attr":"cool","postal_code":"780-0870","address":"高知市本町５"},
    {"code":9981806,"id":"7443e0","name":"グランド通","name_kana":"ぐらんどどおり","lat":33.55774,"lng":133.529356,"prefecture":39,"lines":[99818],"attr":"cool","postal_code":"780-0870","address":"高知市本町５"},
    {"code":9981807,"id":"e304dc","name":"枡形","name_kana":"ますがた","lat":33.557382,"lng":133.527145,"prefecture":39,"lines":[99818],"attr":"cool","postal_code":"780-0861","address":"高知市升形"},
    {"code":9981808,"id":"1749fa","name":"上町一丁目","name_kana":"かみまちいっちょうめ","lat":33.557489,"lng":133.525107,"prefecture":39,"lines":[99818],"attr":"cool","postal_code":"780-0901","address":"高知市上町１"},
    {"code":9981809,"id":"61565e","name":"上町二丁目","name_kana":"かみまちにちょうめ","lat":33.557382,"lng":133.522897,"prefecture":39,"lines":[99818],"attr":"cool","postal_code":"780-0901","address":"高知市上町２"},
    {"code":9981810,"id":"e1e948","name":"上町四丁目","name_kana":"かみまちよんちょうめ","lat":33.557382,"lng":133.519657,"prefecture":39,"lines":[99818],"attr":"cool","postal_code":"780-0901","address":"高知市上町４"},
    {"code":9981811,"id":"0537d7","name":"上町五丁目","name_kana":"かみまちごちょうめ","lat":33.557275,"lng":133.516674,"prefecture":39,"lines":[99818],"attr":"cool","postal_code":"780-0901","address":"高知市上町５"},
    {"code":9981812,"id":"d788a2","name":"旭町一丁目","name_kana":"あさひまちいっちょうめ","lat":33.556774,"lng":133.51352,"prefecture":39,"lines":[99818],"attr":"cool","postal_code":"780-0935","address":"高知市旭町１"},
    {"code":9981813,"id":"1d44b9","name":"旭駅前通","name_kana":"あさひえきまえどおり","lat":33.555987,"lng":133.509636,"prefecture":39,"lines":[99818],"attr":"cool","postal_code":"780-0935","address":"高知市旭町３"},
    {"code":9981814,"id":"05c1a0","name":"旭町三丁目","name_kana":"あさひまちさんちょうめ","lat":33.555701,"lng":133.506482,"prefecture":39,"lines":[99818],"attr":"cool","postal_code":"780-0935","address":"高知市旭町３"},
    {"code":9981815,"id":"a5df06","name":"蛍橋","name_kana":"ほたるばし","lat":33.555487,"lng":133.502641,"prefecture":39,"lines":[99818],"attr":"cool","postal_code":"780-0935","address":"高知市旭町３"},
    {"code":9981816,"id":"6f7a4a","name":"鏡川橋","name_kana":"かがみがわばし","lat":33.555665,"lng":133.498456,"prefecture":39,"lines":[99818],"attr":"cool","postal_code":"780-0945","address":"高知市本宮町字水神通"},
    {"code":9981817,"id":"49d53e","name":"鴨部","name_kana":"かもべ","lat":33.552232,"lng":133.497276,"prefecture":39,"lines":[99818],"attr":"cool","postal_code":"780-8071","address":"高知市鴨部高町"},
    {"code":9981818,"id":"26c6c5","name":"曙町東町","name_kana":"あけぼのちょうひがしまち","lat":33.551624,"lng":133.493307,"prefecture":39,"lines":[99818],"attr":"heat","postal_code":"780-8062","address":"高知市朝倉乙"},
    {"code":9981819,"id":"fb2513","name":"曙町","name_kana":"あけぼのちょう","lat":33.551159,"lng":133.490946,"prefecture":39,"lines":[99818],"attr":"heat","postal_code":"780-8062","address":"高知市朝倉乙"},
    {"code":9981820,"id":"543cfc","name":"朝倉(とさでん交通)","name_kana":"あさくら","lat":33.550712,"lng":133.488157,"prefecture":39,"lines":[99818],"attr":"heat","postal_code":"780-8063","address":"高知県高知市朝倉丙133-2"},
    {"code":9981821,"id":"ca615c","name":"朝倉駅前","name_kana":"あさくらえきまえ","lat":33.550828,"lng":133.485844,"prefecture":39,"lines":[99818],"attr":"heat","postal_code":"780-0000","address":"高知市朝倉字横田"},
    {"code":9981822,"id":"23ec40","name":"朝倉神社前","name_kana":"あさくらじんじゃまえ","lat":33.551892,"lng":133.481097,"prefecture":39,"lines":[99818],"attr":"heat","postal_code":"780-0000","address":"高知市朝倉字宮の前"},
    {"code":9981823,"id":"3205f7","name":"宮の奥","name_kana":"みやのおく","lat":33.552357,"lng":133.475883,"prefecture":39,"lines":[99818],"attr":"heat","postal_code":"780-0000","address":"高知市朝倉字宮の奥"},
    {"code":9981824,"id":"0eb2aa","name":"咥内","name_kana":"こうない","lat":33.552393,"lng":133.470454,"prefecture":39,"lines":[99818],"attr":"heat","postal_code":"780-0000","address":"高知市朝倉字咥内"},
    {"code":9981825,"id":"5ec58c","name":"宇治団地前","name_kana":"うじだんちまえ","lat":33.551928,"lng":133.461227,"prefecture":39,"lines":[99818],"attr":"heat","postal_code":"781-2120","address":"吾川郡いの町枝川"},
    {"code":9981826,"id":"223478","name":"八代通","name_kana":"やしろどおり","lat":33.552214,"lng":133.456399,"prefecture":39,"lines":[99818],"attr":"heat","postal_code":"781-2120","address":"吾川郡いの町枝川東浦"},
    {"code":9981827,"id":"5e348a","name":"中山(高知)","name_kana":"なかやま","lat":33.551857,"lng":133.452644,"prefecture":39,"lines":[99818],"attr":"heat","postal_code":"781-2120","address":"吾川郡いの町枝川西浦"},
    {"code":1180140,"id":"71e1bb","name":"枝川","name_kana":"えだがわ","lat":33.55073,"lng":133.44849,"prefecture":39,"lines":[11801,99818],"attr":"heat","postal_code":"781-2120","address":"吾川郡いの町枝川字スミ澤"},
    {"code":9981829,"id":"ae9852","name":"伊野商業前","name_kana":"いのしょうぎょうまえ","lat":33.550569,"lng":133.444362,"prefecture":39,"lines":[99818],"attr":"eco","postal_code":"781-2100","address":"吾川郡いの町字桑ノ木"},
    {"code":9981834,"id":"b13482","name":"北内","name_kana":"きたうち","lat":33.5498,"lng":133.442221,"prefecture":39,"lines":[99818],"attr":"eco","postal_code":"781-2100","address":"吾川郡いの町北大内４３２-３地先"},
    {"code":9981830,"id":"b9d1be","name":"北山(高知)","name_kana":"きたやま","lat":33.549425,"lng":133.438504,"prefecture":39,"lines":[99818],"attr":"eco","postal_code":"781-2100","address":"吾川郡いの町北山"},
    {"code":9981831,"id":"e969a7","name":"鳴谷","name_kana":"なるたに","lat":33.548852,"lng":133.433032,"prefecture":39,"lines":[99818],"attr":"eco","postal_code":"781-2108","address":"吾川郡いの町駅東町"},
    {"code":9981832,"id":"0b7b51","name":"伊野駅前","name_kana":"いのえきまえ","lat":33.548602,"lng":133.429663,"prefecture":39,"lines":[99818],"attr":"eco","postal_code":"781-2100","address":"吾川郡いの町和田前"},
    {"code":9981833,"id":"f29fad","name":"伊野(とさでん交通)","name_kana":"いの","lat":33.548602,"lng":133.428397,"prefecture":39,"lines":[99818],"attr":"eco","postal_code":"781-2100","address":"高知県吾川郡いの町1419-3"}
  ],
  "north":33.55963,
  "south":33.54849,
  "east":133.54311,
  "west":133.42828,
  "polyline_list":[
    {
      "start":"伊野",
      "end":"はりまや橋",
      "lat":33.54849,
      "lng":133.42828,
      "delta_lat":[0,2,2,3,6,16,5,11,9,11,15,13,19,26,5,13,26,14,12,31,9,13,27,17,10,10,7,3,12,25,9,-7,-11,-7,-4,-14,-2,1,5,16,5,2,-3,-1,0,2,2,7,16,4,7,9,-1,-2,-11,2,2,2,-1,-5,-5,-26,-14,-3,5,9,7,0,-6,-14,0,-10,-29,-8,-18,-5,5,0,-15,-26,-1,-8,-10,-12,-5,0,5,7,5,2,25,9,10,28,8,9,36,6,9,10,11,8,7,7,5,5,10,12,11,41,53,88,13,18,12,10,9,8,12,13,9,3,1,-3,-5,-23,-25,-4,-1,1,5,6,12,8,3,13,16,7,11,11,21,22,11,27,14,6,4,0,2,-2,1,1,1,2,0,0,0,0,3,11,6,7,16,8,16,11,27,12,37,10,40,11,8,3,5,0,1,-4,-5,-1,-2,-3,0],
      "delta_lng":[0,22,27,68,81,218,83,144,126,136,79,72,118,133,30,71,148,81,56,145,52,60,136,75,104,110,82,42,108,157,73,106,204,99,83,91,56,51,47,75,55,83,66,34,66,15,19,36,90,81,50,78,49,33,118,83,106,78,21,27,25,80,48,38,35,60,47,17,28,79,1,54,72,20,57,35,57,45,48,45,2,22,27,50,40,27,47,37,30,18,148,53,54,166,51,53,214,38,49,58,45,26,14,11,4,3,5,2,-1,-9,-20,-31,-5,-4,-2,2,9,16,46,48,50,41,32,22,28,60,65,24,20,20,55,55,158,80,49,134,146,53,65,65,99,112,55,135,67,50,66,50,199,56,173,95,54,27,125,53,78,75,54,123,45,54,90,55,88,55,139,50,170,52,188,61,51,45,54,45,44,60,45,9,17,13,14]
    }
  ]
}