{
  "code":99810,
  "name":"伊予鉄道３系統(市駅線)",
  "color":"#FF0000",
  "station_list":[
    {"code":9980801,"id":"ebdcbd","name":"松山市駅","name_kana":"まつやましえき","lat":33.836148,"lng":132.762587,"prefecture":38,"numbering":[{"index":"01"}],"lines":[99808,99809,99810,99812],"attr":"eco","postal_code":"790-0012","address":"松山市湊町５"},
    {"code":9980802,"id":"81ccc2","name":"南堀端","name_kana":"みなみほりばた","lat":33.839213,"lng":132.761664,"prefecture":38,"numbering":[{"index":"02"}],"lines":[99808,99809,99810,99811,99812],"attr":"cool","postal_code":"790-0006","address":"松山市南堀端町"},
    {"code":9980821,"id":"6e67fe","name":"市役所前(愛媛)","name_kana":"しやくしょまえ","lat":33.839926,"lng":132.764819,"prefecture":38,"numbering":[{"index":"21"}],"lines":[99808,99809,99810,99811],"attr":"cool","postal_code":"790-0002","address":"松山市二番町"},
    {"code":9980820,"id":"2cfdf2","name":"県庁前(愛媛)","name_kana":"けんちょうまえ","lat":33.841067,"lng":132.766364,"prefecture":38,"numbering":[{"index":"20"}],"lines":[99808,99809,99810,99811],"attr":"cool","postal_code":"790-0001","address":"松山市一番町"},
    {"code":9980819,"id":"7359f8","name":"大街道","name_kana":"おおかいどう","lat":33.841103,"lng":132.769861,"prefecture":38,"numbering":[{"index":"19"}],"lines":[99808,99809,99810,99811],"attr":"cool","postal_code":"790-0004","address":"松山市大街道"},
    {"code":9980818,"id":"c04691","name":"勝山町","name_kana":"かつやまちょう","lat":33.841709,"lng":132.774818,"prefecture":38,"numbering":[{"index":"18"}],"lines":[99808,99809,99810,99811],"attr":"heat","postal_code":"790-0878","address":"松山市勝山町２"},
    {"code":9980817,"id":"08078e","name":"警察署前","name_kana":"けいさつしょまえ","lat":33.844596,"lng":132.775354,"prefecture":38,"numbering":[{"index":"17"}],"lines":[99808,99809,99810,99811],"attr":"heat","postal_code":"790-0878","address":"松山市勝山町２"},
    {"code":9980816,"id":"edbbd3","name":"上一万","name_kana":"かみいちまん","lat":33.846737,"lng":132.775502,"prefecture":38,"numbering":[{"index":"16"}],"lines":[99808,99809,99810,99811],"attr":"heat","postal_code":"790-0804","address":"松山市中一万町"},
    {"code":9981009,"id":"666114","name":"南町","name_kana":"みなみまち","lat":33.847412,"lng":132.779839,"prefecture":38,"numbering":[{"index":"22"}],"lines":[99810,99811],"attr":"eco","postal_code":"790-0856","address":"松山市南町２"},
    {"code":9981010,"id":"39fcba","name":"道後公園","name_kana":"どうごこうえん","lat":33.848552,"lng":132.784989,"prefecture":38,"numbering":[{"index":"23"}],"lines":[99810,99811],"attr":"eco","postal_code":"790-0843","address":"松山市道後町１"},
    {"code":9981011,"id":"b431a2","name":"道後温泉","name_kana":"どうごおんせん","lat":33.850477,"lng":132.784817,"prefecture":38,"numbering":[{"index":"24"}],"lines":[99810,99811],"attr":"cool","postal_code":"790-0843","address":"松山市道後町１"}
  ],
  "north":33.85058,
  "south":33.8361,
  "east":132.78523,
  "west":132.76183,
  "polyline_list":[
    {
      "start":"南堀端",
      "end":"道後温泉",
      "lat":33.83943,
      "lng":132.76183,
      "delta_lat":[0,-6,-1,2,5,11,18,45,81,7,4,2,3,2,2,6,2,5,5,7,13,15,8,4,9,19,47,115,63,52,118,55,39,24,10,3,1,0,0,0,3,3,5,9,9,11,15,10,9,43,41,25,20,23,49,45],
      "delta_lng":[0,170,73,14,6,7,7,4,12,5,6,9,27,83,57,275,56,92,74,54,118,123,54,10,7,3,1,4,2,1,4,2,1,1,6,4,246,122,57,157,161,31,31,28,23,23,27,16,9,18,10,7,2,-2,-9,-16]
    },
    {
      "start":"松山市",
      "end":"南堀端",
      "lat":33.8361,
      "lng":132.76312,
      "delta_lat":[0,2,0,0,6,325],
      "delta_lng":[0,-51,-62,-10,-5,0]
    }
  ]
}