{
  "code":99819,
  "name":"とさでん交通桟橋線",
  "station_list":[
    {"code":9981901,"id":"3b833c","name":"高知駅前","name_kana":"こうちえきまえ","lat":33.56653,"lng":133.543606,"prefecture":39,"lines":[99819],"attr":"cool","postal_code":"780-0056","address":"高知市北本町２"},
    {"code":9981902,"id":"03e2d6","name":"高知橋","name_kana":"こうちばし","lat":33.564284,"lng":133.543442,"prefecture":39,"lines":[99819],"attr":"cool","postal_code":"780-0053","address":"高知市駅前町"},
    {"code":9981903,"id":"61684d","name":"蓮池町通","name_kana":"はすいけまちどおり","lat":33.561066,"lng":133.543035,"prefecture":39,"lines":[99819],"attr":"cool","postal_code":"780-0822","address":"高知市はりまや町３"},
    {"code":9981733,"id":"7e4b0d","name":"はりまや橋","name_kana":"はりまやばし","lat":33.559617,"lng":133.542852,"prefecture":39,"lines":[99817,99818,99819],"attr":"cool","postal_code":"780-0822","address":"高知市はりまや町１"},
    {"code":9981905,"id":"cc4157","name":"梅の辻","name_kana":"うめのつじ","lat":33.554181,"lng":133.543485,"prefecture":39,"lines":[99819],"attr":"cool","postal_code":"780-8011","address":"高知市梅ノ辻"},
    {"code":9981906,"id":"4cdc8c","name":"桟橋通一丁目","name_kana":"さんばしどおりいっちょうめ","lat":33.550108,"lng":133.546241,"prefecture":39,"lines":[99819],"attr":"cool","postal_code":"781-8010","address":"高知市桟橋通１"},
    {"code":9981907,"id":"1440c7","name":"桟橋通二丁目","name_kana":"さんばしどおりにちょうめ","lat":33.549156,"lng":133.546886,"prefecture":39,"lines":[99819],"attr":"heat","postal_code":"781-8010","address":"高知市桟橋通２"},
    {"code":9981908,"id":"827526","name":"桟橋通三丁目","name_kana":"さんばしどおりさんちょうめ","lat":33.547082,"lng":133.548303,"prefecture":39,"lines":[99819],"attr":"heat","postal_code":"781-8010","address":"高知市桟橋通３"},
    {"code":9981909,"id":"7fa12e","name":"桟橋通四丁目","name_kana":"さんばしどおりよんちょうめ","lat":33.544668,"lng":133.549933,"prefecture":39,"lines":[99819],"attr":"heat","postal_code":"781-8010","address":"高知市桟橋通４"},
    {"code":9981910,"id":"617c3a","name":"桟橋車庫前","name_kana":"さんばししゃこまえ","lat":33.541073,"lng":133.552315,"prefecture":39,"lines":[99819],"attr":"eco","postal_code":"781-8010","address":"高知市桟橋通四丁目"},
    {"code":9981911,"id":"1c9ad3","name":"桟橋通五丁目","name_kana":"さんばしどおりごちょうめ","lat":33.540286,"lng":133.552938,"prefecture":39,"lines":[99819],"attr":"eco","postal_code":"781-8010","address":"高知市桟橋通５"}
  ],
  "north":33.56674,
  "south":33.54026,
  "east":133.55289,
  "west":133.54259,
  "polyline_list":[
    {
      "start":"桟橋通五丁目",
      "end":"高知駅前",
      "lat":33.54026,
      "lng":133.55289,
      "delta_lat":[0,39,46,35,119,181,34,171,30,94,112,41,86,31,192,156,38,56,27,23,29,19,81,45,78,99,22,22,7,12,24,118,96,45,84,51,11,18,148,83,45],
      "delta_lng":[0,-24,-31,-22,-81,-125,-23,-117,-21,-65,-75,-28,-56,-23,-129,-106,-27,-33,-12,-8,-8,-4,-13,0,7,10,4,2,1,2,4,14,11,6,9,7,1,2,18,11,5]
    }
  ]
}