{
  "code":99812,
  "name":"伊予鉄道６系統(本町線)",
  "color":"#000000",
  "station_list":[
    {"code":9980809,"id":"7084ee","name":"本町６丁目","name_kana":"ほんまちろくちょうめ","lat":33.853472,"lng":132.758473,"prefecture":38,"numbering":[{"index":"29"}],"lines":[99808,99809,99812],"attr":"eco","postal_code":"790-0811","address":"松山市本町６"},
    {"code":9981202,"id":"07749a","name":"本町５丁目","name_kana":"ほんまちごちょうめ","lat":33.851047,"lng":132.758853,"prefecture":38,"numbering":[{"index":"28"}],"lines":[99812],"attr":"cool","postal_code":"790-0811","address":"松山市本町５"},
    {"code":9981203,"id":"e3c02a","name":"本町４丁目","name_kana":"ほんまちよんちょうめ","lat":33.847982,"lng":132.758789,"prefecture":38,"numbering":[{"index":"27"}],"lines":[99812],"attr":"cool","postal_code":"790-0811","address":"松山市本町４"},
    {"code":9981204,"id":"99fabc","name":"本町３丁目","name_kana":"ほんまちさんちょうめ","lat":33.84513,"lng":132.758853,"prefecture":38,"numbering":[{"index":"26"}],"lines":[99812],"attr":"cool","postal_code":"790-0811","address":"松山市本町３"},
    {"code":9981205,"id":"b75e93","name":"本町１丁目","name_kana":"ほんまちいっちょうめ","lat":33.84037679,"lng":132.75877,"prefecture":38,"numbering":[{"index":"25"}],"lines":[99812],"attr":"cool","postal_code":"790-0067","address":"松山市大手町１"},
    {"code":9980802,"id":"81ccc2","name":"南堀端","name_kana":"みなみほりばた","lat":33.839213,"lng":132.761664,"prefecture":38,"numbering":[{"index":"02"}],"lines":[99808,99809,99810,99811,99812],"attr":"cool","postal_code":"790-0006","address":"松山市南堀端町"},
    {"code":9980801,"id":"ebdcbd","name":"松山市駅","name_kana":"まつやましえき","lat":33.836148,"lng":132.762587,"prefecture":38,"numbering":[{"index":"01"}],"lines":[99808,99809,99810,99812],"attr":"eco","postal_code":"790-0012","address":"松山市湊町５"}
  ],
  "north":33.85334,
  "south":33.8361,
  "east":132.76312,
  "west":132.75865,
  "polyline_list":[
    {
      "start":"松山市",
      "end":"南堀端",
      "lat":33.8361,
      "lng":132.76312,
      "delta_lat":[0,2,0,0,6,325],
      "delta_lng":[0,-51,-62,-10,-5,0]
    },
    {
      "start":"南堀端",
      "end":"本町六丁目",
      "lat":33.83943,
      "lng":132.76183,
      "delta_lat":[0,10,3,2,6,66,19,53,385,51,245,45,230,44,189,43],
      "delta_lng":[0,-275,-35,-6,-3,0,0,0,4,3,2,0,0,3,6,3]
    }
  ]
}