{
  "code":99909,
  "name":"筑豊電気鉄道",
  "color":"#E30075",
  "symbol":"CK",
  "station_list":[
    {"code":9990901,"id":"2f8a66","name":"黒崎駅前","name_kana":"くろさきえきまえ","lat":33.86644,"lng":130.765459,"prefecture":40,"numbering":[{"index":"01"}],"lines":[99909],"attr":"eco","postal_code":"806-0021","address":"北九州市八幡西区黒崎３-５７-３"},
    {"code":9990902,"id":"91e2c0","name":"西黒崎","name_kana":"にしくろさき","lat":33.866309,"lng":130.761418,"prefecture":40,"numbering":[{"index":"02"}],"lines":[99909],"attr":"eco","postal_code":"806-0021","address":"北九州市八幡西区黒崎３-１４６"},
    {"code":9990903,"id":"e9b9b5","name":"熊西","name_kana":"くまにし","lat":33.866101,"lng":130.757902,"prefecture":40,"numbering":[{"index":"03"}],"lines":[99909],"attr":"eco","postal_code":"806-0031","address":"北九州市八幡西区熊西１-２８-１"},
    {"code":9990904,"id":"2b3079","name":"萩原(福岡)","name_kana":"はぎわら","lat":33.861173,"lng":130.749186,"prefecture":40,"numbering":[{"index":"04"}],"lines":[99909],"attr":"eco","postal_code":"806-0059","address":"北九州市八幡西区萩原１-１０-５"},
    {"code":9990905,"id":"6539ea","name":"穴生","name_kana":"あのお","lat":33.857352,"lng":130.744942,"prefecture":40,"numbering":[{"index":"05"}],"lines":[99909],"attr":"eco","postal_code":"806-0049","address":"北九州市八幡西区穴生１-８１"},
    {"code":9990906,"id":"2956fb","name":"森下(福岡)","name_kana":"もりした","lat":33.853885,"lng":130.741092,"prefecture":40,"numbering":[{"index":"06"}],"lines":[99909],"attr":"eco","postal_code":"806-0046","address":"北九州市八幡西区森下町１３"},
    {"code":9990907,"id":"620e1a","name":"今池(福岡)","name_kana":"いまいけ","lat":33.845258,"lng":130.739582,"prefecture":40,"numbering":[{"index":"07"}],"lines":[99909],"attr":"eco","postal_code":"807-0846","address":"北九州市八幡西区里中２-１４６８-１３"},
    {"code":9990908,"id":"d93317","name":"永犬丸","name_kana":"えいのまる","lat":33.838865,"lng":130.738071,"prefecture":40,"numbering":[{"index":"08"}],"lines":[99909],"attr":"heat","postal_code":"807-0846","address":"北九州市八幡西区里中２-１-１"},
    {"code":9990909,"id":"b5c727","name":"三ヶ森","name_kana":"さんがもり","lat":33.834776,"lng":130.735982,"prefecture":40,"numbering":[{"index":"09"}],"lines":[99909],"attr":"heat","postal_code":"807-0843","address":"福岡県北九州市八幡西区三ヶ森一丁目"},
    {"code":9990910,"id":"10b404","name":"西山(福岡)","name_kana":"にしやま","lat":33.829393,"lng":130.732274,"prefecture":40,"numbering":[{"index":"10"}],"lines":[99909],"attr":"heat","postal_code":"807-0844","address":"北九州市八幡西区春日台５-７９２-２"},
    {"code":9990911,"id":"fb1898","name":"通谷","name_kana":"とおりたに","lat":33.822994,"lng":130.726978,"prefecture":40,"numbering":[{"index":"11"}],"lines":[99909],"attr":"heat","postal_code":"809-0015","address":"中間市太賀１-２-１"},
    {"code":9990912,"id":"ce0378","name":"東中間","name_kana":"ひがしなかま","lat":33.820019,"lng":130.721317,"prefecture":40,"numbering":[{"index":"12"}],"lines":[99909],"attr":"heat","postal_code":"809-0034","address":"中間市大字中間字外扇２６０９-１"},
    {"code":9990913,"id":"911c4b","name":"筑豊中間","name_kana":"ちくほうなかま","lat":33.816647,"lng":130.716562,"prefecture":40,"numbering":[{"index":"13"}],"lines":[99909],"attr":"heat","postal_code":"809-0034","address":"中間市大字中間字小松ケ浦３３７２-３"},
    {"code":9990914,"id":"ebbef6","name":"希望が丘高校前","name_kana":"きぼうがおかこうこうまえ","lat":33.808681,"lng":130.71151,"prefecture":40,"numbering":[{"index":"14"}],"lines":[99909],"attr":"heat","postal_code":"809-0033","address":"福岡県中間市土手ノ内二丁目"},
    {"code":9990915,"id":"ffac77","name":"筑豊香月","name_kana":"ちくほうかつき","lat":33.799502,"lng":130.719099,"prefecture":40,"numbering":[{"index":"15"}],"lines":[99909],"attr":"heat","postal_code":"807-1152","address":"北九州市八幡西区高江２-２４９１-２"},
    {"code":9990916,"id":"e8c514","name":"楠橋","name_kana":"くすばし","lat":33.789259,"lng":130.724523,"prefecture":40,"numbering":[{"index":"16"}],"lines":[99909],"attr":"heat","postal_code":"807-1146","address":"北九州市八幡西区楠橋下方３-１９８５-３"},
    {"code":9990917,"id":"c7fa11","name":"新木屋瀬","name_kana":"しんこやのせ","lat":33.783468,"lng":130.724493,"prefecture":40,"numbering":[{"index":"17"}],"lines":[99909],"attr":"heat","postal_code":"807-1261","address":"北九州市八幡西区木屋瀬１-４６６-３"},
    {"code":9990918,"id":"670ec3","name":"木屋瀬","name_kana":"こやのせ","lat":33.778483,"lng":130.724957,"prefecture":40,"numbering":[{"index":"18"}],"lines":[99909],"attr":"cool","postal_code":"807-1261","address":"北九州市八幡西区木屋瀬５-２１０-１"},
    {"code":9990919,"id":"b8b2d2","name":"遠賀野","name_kana":"おんがの","lat":33.768628,"lng":130.730959,"prefecture":40,"numbering":[{"index":"19"}],"lines":[99909],"attr":"cool","postal_code":"822-0001","address":"直方市大字感田字若柳２２１１-２"},
    {"code":9990920,"id":"55345d","name":"感田","name_kana":"がんだ","lat":33.758799,"lng":130.733137,"prefecture":40,"numbering":[{"index":"20"}],"lines":[99909],"attr":"cool","postal_code":"822-0001","address":"直方市大字感田字渕尻２９７１-２"},
    {"code":9990921,"id":"8d847d","name":"筑豊直方","name_kana":"ちくほうのおがた","lat":33.753499,"lng":130.726299,"prefecture":40,"numbering":[{"index":"21"}],"lines":[99909],"attr":"cool","postal_code":"822-0022","address":"直方市知古１-１-５"}
  ],
  "north":33.86638,
  "south":33.75336,
  "east":130.76542,
  "west":130.71109,
  "polyline_list":[
    {
      "start":"筑豊直方",
      "end":"西黒崎",
      "lat":33.75336,
      "lng":130.72607,
      "delta_lat":[0,40,5,36,7,219,15,22,20,63,21,22,31,20,59,29,29,22,23,14,22,43,32,131,115,35,69,81,80,133,13,44,67,78,222,59,76,76,20,45,76,92,91,32,31,16,67,22,79,15,34,27,26,67,35,53,36,56,73,36,173,56,83,26,43,85,65,47,108,53,59,47,57,68,44,28,83,96,38,48,44,20,22,32,38,28,47,13,27,55,58,36,31,56,45,46,25,40,28,29,22,20,40,21,42,17,15,32,145,62,105,27,38,29,23,39,30,23,33,58,38,36,22,30,111,39,75,29,50,45,105,112,46,48,29,54,40,26,20,48,27,20,27,53,54,69,43,18,9,47,60,32,222,71,27,47,59,35,20,59,171,57,20,25,31,35,32,20,20,160,55,23,200,51,10,46,230,45,71,316,96,237,21,22,29,52,59,30,23,13,19,12,52,44,98,3,42,3,185,67,30,53,36,18,46,173,39,24,45,31,34,9,15,12,7,15,5,6,-4,-3,0,1,5,6,8,9,0,0,3,0,2,0],
      "delta_lng":[0,67,8,59,13,376,17,24,15,45,14,15,22,12,41,17,13,9,7,2,3,1,-4,-21,-20,-8,-29,-43,-46,-75,-6,-24,-35,-44,-124,-35,-40,-45,-14,-31,-55,-65,-66,-22,-18,-7,-29,-7,-22,-3,-7,-4,-4,-3,4,5,2,6,7,4,16,4,7,0,-3,-18,-27,-24,-65,-37,-40,-28,-33,-30,-15,-7,-16,-18,-10,-18,-23,-13,-15,-28,-41,-41,-66,-21,-55,-131,-142,-84,-57,-81,-51,-42,-17,-27,-13,-13,-9,-4,-8,-2,-4,0,0,8,28,13,26,9,14,16,16,28,27,26,44,63,37,26,13,18,57,18,33,25,60,62,160,162,59,60,32,78,75,57,54,148,80,57,60,86,63,63,33,11,6,22,25,9,55,21,8,22,32,25,17,53,172,56,20,19,21,24,20,4,6,52,22,9,73,18,3,10,27,6,9,34,10,26,4,7,8,22,29,18,19,13,16,12,68,61,133,4,56,4,239,64,31,46,26,10,27,109,26,18,39,31,42,14,24,26,17,43,39,75,52,34,29,102,76,74,116,98,90,53,121,50,134,43]
    }
  ]
}