{
  "code":99902,
  "name":"平成筑豊鉄道伊田線",
  "station_list":[
    {"code":1191108,"id":"4ede9b","name":"直方","name_kana":"のおがた","lat":33.748639,"lng":130.724339,"prefecture":40,"lines":[11911,99902],"attr":"cool","postal_code":"822-0034","address":"直方市大字山部"},
    {"code":9990202,"id":"0ed469","name":"南直方御殿口","name_kana":"みなみのおがたごてんぐち","lat":33.738729,"lng":130.724903,"prefecture":40,"lines":[99902],"attr":"eco","postal_code":"822-0016","address":"直方市大字直方１８３-２"},
    {"code":9990203,"id":"78a2e7","name":"あかぢ","name_kana":"あかぢ","lat":33.727366,"lng":130.72455,"prefecture":40,"lines":[99902],"attr":"eco","postal_code":"820-1102","address":"鞍手郡小竹町大字赤地"},
    {"code":9990204,"id":"48351d","name":"藤棚","name_kana":"ふじたな","lat":33.722017,"lng":130.735291,"prefecture":40,"lines":[99902],"attr":"eco","postal_code":"822-0007","address":"直方市大字下境"},
    {"code":9990205,"id":"281a32","name":"中泉","name_kana":"なかいずみ","lat":33.720992,"lng":130.742871,"prefecture":40,"lines":[99902],"attr":"eco","postal_code":"822-0011","address":"直方市大字中泉"},
    {"code":9990206,"id":"64decc","name":"市場(福岡)","name_kana":"いちば","lat":33.708074,"lng":130.759328,"prefecture":40,"lines":[99902],"attr":"eco","postal_code":"822-1103","address":"田川郡福智町市場"},
    {"code":9990207,"id":"521635","name":"ふれあい生力","name_kana":"ふれあいしょうりき","lat":33.700112,"lng":130.765567,"prefecture":40,"lines":[99902],"attr":"eco","postal_code":"822-1101","address":"田川郡福智町赤池"},
    {"code":9990208,"id":"ccc924","name":"赤池(福岡)","name_kana":"あかいけ","lat":33.69206,"lng":130.768675,"prefecture":40,"lines":[99902],"attr":"eco","postal_code":"822-1101","address":"田川郡福智町赤池"},
    {"code":9990209,"id":"020b62","name":"人見","name_kana":"ひとみ","lat":33.687316,"lng":130.771105,"prefecture":40,"lines":[99902],"attr":"heat","postal_code":"822-1201","address":"田川郡福智町金田"},
    {"code":9990210,"id":"943449","name":"金田","name_kana":"かなだ","lat":33.682805,"lng":130.776491,"prefecture":40,"lines":[99902,99903],"attr":"heat","postal_code":"822-1201","address":"田川郡福智町金田"},
    {"code":9990211,"id":"a1c326","name":"上金田","name_kana":"かみかなだ","lat":33.672435,"lng":130.789172,"prefecture":40,"lines":[99902],"attr":"heat","postal_code":"822-1201","address":"田川郡福智町金田"},
    {"code":9990212,"id":"9e2446","name":"糒","name_kana":"ほしい","lat":33.664744,"lng":130.799177,"prefecture":40,"lines":[99902],"attr":"heat","postal_code":"825-0005","address":"田川市大字糒"},
    {"code":9990213,"id":"ef77ff","name":"田川市立病院","name_kana":"たがわしりつびょういん","lat":33.660436,"lng":130.802697,"prefecture":40,"lines":[99902],"attr":"cool","postal_code":"825-0005","address":"田川市大字糒１７２２-３"},
    {"code":9990214,"id":"b8dcea","name":"下伊田","name_kana":"しもいた","lat":33.651965,"lng":130.807016,"prefecture":40,"lines":[99902],"attr":"cool","postal_code":"825-0002","address":"田川市伊田"},
    {"code":1191413,"id":"ba5347","name":"田川伊田","name_kana":"たがわいた","lat":33.642046,"lng":130.817688,"prefecture":40,"lines":[11914,99902,99904],"attr":"eco","postal_code":"825-0002","address":"田川市伊田"}
  ],
  "north":33.74791,
  "south":33.64206,
  "east":130.81916,
  "west":130.72293,
  "polyline_list":[
    {
      "start":"田川伊田",
      "end":"直方",
      "lat":33.64232,
      "lng":130.81916,
      "delta_lat":[0,-4,-5,-3,-6,-4,-2,-2,0,4,7,4,18,14,7,10,16,21,13,34,9,8,34,12,13,17,15,49,31,47,53,50,73,74,17,17,49,18,15,7,31,19,20,32,33,23,23,44,45,58,24,9,30,28,27,47,21,24,24,34,63,26,29,11,26,27,15,41,62,150,27,24,23,17,10,22,45,18,11,50,50,18,21,54,35,95,27,49,29,69,15,21,18,35,27,23,43,6,17,10,79,57,61,25,26,42,25,2,17,15,16,14,4,16,29,40,7,24,45,41,30,29,18,43,43,65,50,33,26,11,28,30,32,44,23,70,59,90,97,113,26,131,84,40,51,7,24,37,55,69,12,60,101,154,140,326,81,47,31,38,51,46,42,74,122,66,105,58,70,20,20,44,68,28,16,3,45,47,125,50,183,85,49,103,47,32,113,3,24,23,53,52,18,17,39,24,14,26,25,23,25,11,44,5,15,3,82,3,0,7,6,5,22,27,21,17,16,31,26,27,1,27,22,20,19,13,27,19,16,39,21,14,23,26,5,82,76,39,36,16,11,15,44,62,58,69,33,36,43,26,27,48,45,49,56,91,46,53,31,25,23,21,11,32,101,29,55,48,34,29,17,14,27,43,103,89,247,62],
      "delta_lng":[0,-21,-26,-15,-46,-36,-41,-27,-29,-37,-66,-27,-44,-36,-16,-24,-28,-31,-19,-44,-7,-6,-27,-8,-9,-7,-7,-20,-14,-21,-24,-24,-31,-32,-8,-10,-30,-14,-11,-7,-28,-18,-26,-36,-44,-33,-33,-60,-66,-80,-27,-13,-34,-27,-24,-34,-12,-12,-11,-12,-18,-8,-7,-1,-4,-5,-4,-6,-12,-28,-5,-3,-8,-5,-4,-11,-30,-13,-9,-50,-53,-19,-20,-51,-26,-78,-22,-37,-25,-53,-14,-20,-22,-51,-39,-43,-67,-9,-23,-12,-88,-78,-84,-32,-40,-74,-60,-8,-75,-119,-90,-63,-14,-57,-60,-57,-9,-26,-36,-23,-18,-13,-4,-15,-11,-15,-9,-6,-6,-6,-12,-19,-29,-49,-33,-115,-101,-154,-147,-165,-37,-141,-83,-40,-48,-6,-20,-29,-30,-33,-7,-26,-36,-41,-31,-73,-30,-22,-23,-43,-56,-49,-36,-53,-82,-45,-70,-39,-47,-17,-16,-36,-63,-30,-18,-5,-53,-56,-153,-61,-226,-103,-59,-120,-55,-34,-107,-3,-25,-19,-45,-47,-15,-16,-37,-22,-14,-31,-36,-40,-53,-25,-141,-42,-79,-17,-596,-20,-6,-46,-40,-37,-143,-206,-112,-75,-52,-86,-63,-59,-2,-55,-38,-32,-25,-13,-26,-12,-9,-15,-5,-1,0,0,0,15,9,2,-1,-4,-3,-6,-24,-37,-33,-40,-16,-12,-9,0,3,10,12,16,19,30,16,26,15,16,14,13,7,21,66,17,34,20,10,5,3,-1,-1,-11,-31,-27,-74,-19]
    }
  ]
}