{
  "code":99909,
  "id":"643708",
  "name":"筑豊電気鉄道",
  "name_kana":"ちくほうでんきてつどう",
  "name_formal":"筑豊電気鉄道線",
  "station_size":21,
  "company_code":233,
  "color":"#E30075",
  "symbol":"CK",
  "station_list":[
    {"code":9990901,"id":"2f8a66","name":"黒崎駅前","name_kana":"くろさきえきまえ","lat":33.86644,"lng":130.765459,"prefecture":40,"numbering":[{"index":"01"}],"lines":[99909],"attr":"eco","postal_code":"806-0021","address":"北九州市八幡西区黒崎３-５７-３","next":[1190211,1190212,9990902,9990907,9990904,9990908],"voronoi":{"lat":33.834741,"lng":130.769799,"delta_lat":[0,6200,1580,29337,-40977,-10510],"delta_lng":[0,-5076,-511,-951,20132,874]}},
    {"code":9990902,"id":"91e2c0","name":"西黒崎","name_kana":"にしくろさき","lat":33.866309,"lng":130.761418,"prefecture":40,"numbering":[{"index":"02"}],"lines":[99909],"attr":"eco","postal_code":"806-0021","address":"北九州市八幡西区黒崎３-１４６","next":[9990903,1190212,9990901,9990904,1191003],"voronoi":{"lat":33.878385,"lng":130.758939,"delta_lat":[0,-27130,-8734,29337,5959],"delta_lng":[0,1605,3667,-951,-620]}},
    {"code":9990903,"id":"e9b9b5","name":"熊西","name_kana":"くまにし","lat":33.866101,"lng":130.757902,"prefecture":40,"numbering":[{"index":"03"}],"lines":[99909],"attr":"eco","postal_code":"806-0031","address":"北九州市八幡西区熊西１-２８-１","next":[9990902,1191003,1190213,9990904,1191004],"voronoi":{"lat":33.878385,"lng":130.758939,"delta_lat":[0,-27130,17710,8343,1867],"delta_lng":[0,1605,-10013,1171,4640]}},
    {"code":9990904,"id":"2b3079","name":"萩原(福岡)","name_kana":"はぎわら","lat":33.861173,"lng":130.749186,"prefecture":40,"numbering":[{"index":"04"}],"lines":[99909],"attr":"eco","postal_code":"806-0059","address":"北九州市八幡西区萩原１-１０-５","next":[9990907,9990902,1190213,9990903,9990901,9990905],"voronoi":{"lat":33.840942,"lng":130.764723,"delta_lat":[0,1580,8734,17710,-6154,-20331],"delta_lng":[0,-511,-3667,-10013,-6663,18305]}},
    {"code":9990905,"id":"6539ea","name":"穴生","name_kana":"あのお","lat":33.857352,"lng":130.744942,"prefecture":40,"numbering":[{"index":"05"}],"lines":[99909],"attr":"eco","postal_code":"806-0049","address":"北九州市八幡西区穴生１-８１","next":[9990906,9990907,1190213,9990904],"voronoi":{"lat":33.862812,"lng":130.743869,"delta_lat":[0,-1294,-13634,-5403],"delta_lng":[0,-6164,12278,12191]}},
    {"code":9990906,"id":"2956fb","name":"森下(福岡)","name_kana":"もりした","lat":33.853885,"lng":130.741092,"prefecture":40,"numbering":[{"index":"06"}],"lines":[99909],"attr":"eco","postal_code":"806-0046","address":"北九州市八幡西区森下町１３","next":[9990905,1191005,1190213,9990907,1190214],"voronoi":{"lat":33.862407,"lng":130.729539,"delta_lat":[0,-890,-13634,4399,8700],"delta_lng":[0,8165,12278,-25136,3029]}},
    {"code":9990907,"id":"620e1a","name":"今池(福岡)","name_kana":"いまいけ","lat":33.845258,"lng":130.739582,"prefecture":40,"numbering":[{"index":"07"}],"lines":[99909],"attr":"eco","postal_code":"807-0846","address":"北九州市八幡西区里中２-１４６８-１３","next":[9990904,9990905,1190214,1191102,9990901,9990906,9990908],"voronoi":{"lat":33.845671,"lng":130.723553,"delta_lat":[0,3948,2663,-4399,-5403,-1539,-6200],"delta_lng":[0,-555,1849,25136,12191,2549,5076]}},
    {"code":9990908,"id":"d93317","name":"永犬丸","name_kana":"えいのまる","lat":33.838865,"lng":130.738071,"prefecture":40,"numbering":[{"index":"08"}],"lines":[99909],"attr":"heat","postal_code":"807-0846","address":"北九州市八幡西区里中２-１-１","next":[1190211,9990907,9990909,9990901,1191102],"voronoi":{"lat":33.834741,"lng":130.769799,"delta_lat":[0,-14370,-10508,33905,1903],"delta_lng":[0,14468,5526,-66366,126]}},
    {"code":9990909,"id":"b5c727","name":"三ヶ森","name_kana":"さんがもり","lat":33.834776,"lng":130.735982,"prefecture":40,"numbering":[{"index":"09"}],"lines":[99909],"attr":"heat","postal_code":"807-0843","address":"福岡県北九州市八幡西区三ヶ森一丁目","next":[1191102,1190211,9990910,1191408,9990919,9990916,9990908],"voronoi":{"lat":33.79821,"lng":130.796509,"delta_lat":[0,-1258,645,1325,41100,3747,-33905],"delta_lng":[0,-482,-8493,-5263,-59667,822,66366]}},
    {"code":9990910,"id":"10b404","name":"西山(福岡)","name_kana":"にしやま","lat":33.829393,"lng":130.732274,"prefecture":40,"numbering":[{"index":"10"}],"lines":[99909],"attr":"heat","postal_code":"807-0844","address":"北九州市八幡西区春日台５-７９２-２","next":[1191102,9990909,9990911,9990916,1191103],"voronoi":{"lat":33.835446,"lng":130.720421,"delta_lat":[0,4576,-41100,4961,29851],"delta_lng":[0,2183,59667,-25688,-36068]}},
    {"code":9990911,"id":"fb1898","name":"通谷","name_kana":"とおりたに","lat":33.822994,"lng":130.726978,"prefecture":40,"numbering":[{"index":"11"}],"lines":[99909],"attr":"heat","postal_code":"809-0015","address":"中間市太賀１-２-１","next":[9990912,1191103,9990910,9990916,9990915],"voronoi":{"lat":33.803883,"lng":130.756583,"delta_lat":[0,29851,-3422,-21710,-3642],"delta_lng":[0,-36068,-995,11409,10859]}},
    {"code":9990912,"id":"ce0378","name":"東中間","name_kana":"ひがしなかま","lat":33.820019,"lng":130.721317,"prefecture":40,"numbering":[{"index":"12"}],"lines":[99909],"attr":"heat","postal_code":"809-0034","address":"中間市大字中間字外扇２６０９-１","next":[9990911,9990915,9990913,1191103],"voronoi":{"lat":33.808601,"lng":130.730929,"delta_lat":[0,596,14559,6555],"delta_lng":[0,-5511,-10325,4427]}},
    {"code":9990913,"id":"911c4b","name":"筑豊中間","name_kana":"ちくほうなかま","lat":33.816647,"lng":130.716562,"prefecture":40,"numbering":[{"index":"13"}],"lines":[99909],"attr":"heat","postal_code":"809-0034","address":"中間市大字中間字小松ケ浦３３７２-３","next":[9990912,9990915,9990914,1191103,1191104],"voronoi":{"lat":33.823756,"lng":130.715094,"delta_lat":[0,-14559,-710,7244,4656],"delta_lng":[0,10325,-4797,-11423,566]}},
    {"code":9990914,"id":"ebbef6","name":"希望が丘高校前","name_kana":"きぼうがおかこうこうまえ","lat":33.808681,"lng":130.71151,"prefecture":40,"numbering":[{"index":"14"}],"lines":[99909],"attr":"heat","postal_code":"809-0033","address":"福岡県中間市土手ノ内二丁目","next":[1191105,9990915,9990913,1191104],"voronoi":{"lat":33.808008,"lng":130.701088,"delta_lat":[0,-8952,9432,7244],"delta_lng":[0,8126,11408,-11423]}},
    {"code":9990915,"id":"ffac77","name":"筑豊香月","name_kana":"ちくほうかつき","lat":33.799502,"lng":130.719099,"prefecture":40,"numbering":[{"index":"15"}],"lines":[99909],"attr":"heat","postal_code":"807-1152","address":"北九州市八幡西区高江２-２４９１-２","next":[9990916,1191105,9990912,9990914,9990911,1191106,9990913],"voronoi":{"lat":33.808487,"lng":130.720622,"delta_lat":[0,-9432,-8976,-939,15819,3642,596],"delta_lng":[0,-11408,822,1881,29872,-10859,-5511]}},
    {"code":9990916,"id":"e8c514","name":"楠橋","name_kana":"くすばし","lat":33.789259,"lng":130.724523,"prefecture":40,"numbering":[{"index":"16"}],"lines":[99909],"attr":"heat","postal_code":"807-1146","address":"北九州市八幡西区楠橋下方３-１９８５-３","next":[9990915,1191106,9990919,9990917,9990911,9990909,9990910],"voronoi":{"lat":33.797597,"lng":130.787535,"delta_lat":[0,-11371,193,2722,15819,-1077,-4961],"delta_lng":[0,-36450,-37183,-1985,29872,14795,25688]}},
    {"code":9990917,"id":"c7fa11","name":"新木屋瀬","name_kana":"しんこやのせ","lat":33.783468,"lng":130.724493,"prefecture":40,"numbering":[{"index":"17"}],"lines":[99909],"attr":"heat","postal_code":"807-1261","address":"北九州市八幡西区木屋瀬１-４６６-３","next":[9990918,9990919,9990916,1191106],"voronoi":{"lat":33.782669,"lng":130.742922,"delta_lat":[0,3556,193,-6230],"delta_lng":[0,8162,-37183,2370]}},
    {"code":9990918,"id":"670ec3","name":"木屋瀬","name_kana":"こやのせ","lat":33.778483,"lng":130.724957,"prefecture":40,"numbering":[{"index":"18"}],"lines":[99909],"attr":"cool","postal_code":"807-1261","address":"北九州市八幡西区木屋瀬５-２１０-１","next":[9990917,1191106,9990919,1191107],"voronoi":{"lat":33.772956,"lng":130.716829,"delta_lat":[0,7232,2481,-13063],"delta_lng":[0,-557,26651,-21449]}},
    {"code":9990919,"id":"b8b2d2","name":"遠賀野","name_kana":"おんがの","lat":33.768628,"lng":130.730959,"prefecture":40,"numbering":[{"index":"19"}],"lines":[99909],"attr":"cool","postal_code":"822-0001","address":"直方市大字感田字若柳２２１１-２","next":[1191408,9990921,9990917,9990916,9990909,9990918,1191107,1191409,9990920],"voronoi":{"lat":33.762164,"lng":130.725056,"delta_lat":[0,445,6997,13063,3556,11371,-645,-17856,-744],"delta_lng":[0,-1446,-2136,21449,8162,36450,8493,2159,-77]}},
    {"code":9990920,"id":"55345d","name":"感田","name_kana":"がんだ","lat":33.758799,"lng":130.733137,"prefecture":40,"numbering":[{"index":"20"}],"lines":[99909],"attr":"cool","postal_code":"822-0001","address":"直方市大字感田字渕尻２９７１-２","next":[1191108,9990205,1191409,9990921,9990206,9990202,9990919],"voronoi":{"lat":33.762164,"lng":130.725056,"delta_lat":[0,-15986,-1656,-2629,8652,9392,18414],"delta_lng":[0,12391,1911,6408,33602,18191,551]}},
    {"code":9990921,"id":"8d847d","name":"筑豊直方","name_kana":"ちくほうのおがた","lat":33.753499,"lng":130.726299,"prefecture":40,"numbering":[{"index":"21"}],"lines":[99909],"attr":"cool","postal_code":"822-0022","address":"直方市知古１-１-５","next":[9990919,1191107,9990920,1191108],"voronoi":{"lat":33.754463,"lng":130.716904,"delta_lat":[0,8147,-445,-15986],"delta_lng":[0,6706,1446,12391]}}
  ],
  "north":33.86638,
  "south":33.75336,
  "east":130.76542,
  "west":130.71109,
  "polyline_list":[
    {
      "start":"筑豊直方",
      "end":"西黒崎",
      "lat":33.75336,
      "lng":130.72607,
      "delta_lat":[0,40,5,36,7,219,15,22,20,63,21,22,31,20,59,29,29,22,23,14,22,43,32,131,115,35,69,81,80,133,13,44,67,78,222,59,76,76,20,45,76,92,91,32,31,16,67,22,79,15,34,27,26,67,35,53,36,56,73,36,173,56,83,26,43,85,65,47,108,53,59,47,57,68,44,28,83,96,38,48,44,20,22,32,38,28,47,13,27,55,58,36,31,56,45,46,25,40,28,29,22,20,40,21,42,17,15,32,145,62,105,27,38,29,23,39,30,23,33,58,38,36,22,30,111,39,75,29,50,45,105,112,46,48,29,54,40,26,20,48,27,20,27,53,54,69,43,18,9,47,60,32,222,71,27,47,59,35,20,59,171,57,20,25,31,35,32,20,20,160,55,23,200,51,10,46,230,45,71,316,96,237,21,22,29,52,59,30,23,13,19,12,52,44,98,3,42,3,185,67,30,53,36,18,46,173,39,24,45,31,34,9,15,12,7,15,5,6,-4,-3,0,1,5,6,8,9,0,0,3,0,2,0],
      "delta_lng":[0,67,8,59,13,376,17,24,15,45,14,15,22,12,41,17,13,9,7,2,3,1,-4,-21,-20,-8,-29,-43,-46,-75,-6,-24,-35,-44,-124,-35,-40,-45,-14,-31,-55,-65,-66,-22,-18,-7,-29,-7,-22,-3,-7,-4,-4,-3,4,5,2,6,7,4,16,4,7,0,-3,-18,-27,-24,-65,-37,-40,-28,-33,-30,-15,-7,-16,-18,-10,-18,-23,-13,-15,-28,-41,-41,-66,-21,-55,-131,-142,-84,-57,-81,-51,-42,-17,-27,-13,-13,-9,-4,-8,-2,-4,0,0,8,28,13,26,9,14,16,16,28,27,26,44,63,37,26,13,18,57,18,33,25,60,62,160,162,59,60,32,78,75,57,54,148,80,57,60,86,63,63,33,11,6,22,25,9,55,21,8,22,32,25,17,53,172,56,20,19,21,24,20,4,6,52,22,9,73,18,3,10,27,6,9,34,10,26,4,7,8,22,29,18,19,13,16,12,68,61,133,4,56,4,239,64,31,46,26,10,27,109,26,18,39,31,42,14,24,26,17,43,39,75,52,34,29,102,76,74,116,98,90,53,121,50,134,43]
    }
  ]
}