{
  "code":99907,
  "name":"福岡市営地下鉄七隈線",
  "color":"#00AA44",
  "symbol":"N",
  "station_list":[
    {"code":9990701,"id":"4c4570","name":"橋本(福岡)","name_kana":"はしもと","lat":33.555205,"lng":130.321064,"prefecture":40,"numbering":[{"index":"01"}],"lines":[99907],"attr":"eco","postal_code":"819-0031","address":"福岡市西区橋本２丁目","next":[1190906,1192105,9990702,1190505,1190903,1190910,1190905,1190506,1190901,1190902],"voronoi":{"lat":33.568491,"lng":130.329979,"delta_lat":[0,-147436,-1472,-756,786,3794,58028,43098,33392,12294],"delta_lng":[0,-47115,-6603,-12759,-1731,-519,5314,8905,17031,25574]}},
    {"code":9990702,"id":"064fd2","name":"次郎丸","name_kana":"じろうまる","lat":33.552497,"lng":130.329538,"prefecture":40,"numbering":[{"index":"02"}],"lines":[99907],"attr":"eco","postal_code":"814-0165","address":"福岡市早良区次郎丸","next":[9990701,9990512,9990703,1190505,1190901],"voronoi":{"lat":33.565912,"lng":130.337196,"delta_lat":[0,-141017,-3840,147436,29],"delta_lng":[0,-34101,-20231,47115,211]}},
    {"code":9990703,"id":"d70dd3","name":"賀茂","name_kana":"かも","lat":33.55048,"lng":130.337879,"prefecture":40,"numbering":[{"index":"03"}],"lines":[99907],"attr":"eco","postal_code":"814-0164","address":"福岡市早良区賀茂","next":[9990512,1190505,9990704,9990511,9990702,9990708],"voronoi":{"lat":33.426042,"lng":130.310455,"delta_lat":[0,-1146,141017,-568,-405,-855],"delta_lng":[0,-7359,34101,7554,1210,321]}},
    {"code":9990704,"id":"035ea9","name":"野芥","name_kana":"のけ","lat":33.548111,"lng":130.347007,"prefecture":40,"numbering":[{"index":"04"}],"lines":[99907],"attr":"eco","postal_code":"814-0171","address":"福岡市早良区野芥","next":[9990705,9990703,9990707,9990708,1190505],"voronoi":{"lat":33.554261,"lng":130.353095,"delta_lat":[0,1742,8082,-138043,659],"delta_lng":[0,-561,-6253,-35827,5577]}},
    {"code":9990705,"id":"ca4d9a","name":"梅林(福岡)","name_kana":"うめばやし","lat":33.545806,"lng":130.35494,"prefecture":40,"numbering":[{"index":"05"}],"lines":[99907],"attr":"eco","postal_code":"814-0172","address":"福岡市早良区梅林","next":[1190102,9990704,1190505,9990706,9990707,1190504],"voronoi":{"lat":33.471966,"lng":130.375633,"delta_lat":[0,77725,4569,-127560,2682,2935],"delta_lng":[0,-17747,-4791,-37064,31609,14535]}},
    {"code":9990706,"id":"b0e37f","name":"福大前","name_kana":"ふくだいまえ","lat":33.54747,"lng":130.362228,"prefecture":40,"numbering":[{"index":"06"}],"lines":[99907],"attr":"eco","postal_code":"814-0133","address":"福岡市城南区七隈","next":[9990712,3600103,3600104,9990705,9990707,1190102,3600105],"voronoi":{"lat":33.471966,"lng":130.375633,"delta_lat":[0,77725,3162,-4425,-1664,-16269,-367],"delta_lng":[0,-17747,28191,5367,988,6093,67]}},
    {"code":9990707,"id":"8899d6","name":"七隈","name_kana":"ななくま","lat":33.552819,"lng":130.361628,"prefecture":40,"numbering":[{"index":"07"}],"lines":[99907],"attr":"eco","postal_code":"814-0133","address":"福岡市城南区七隈","next":[9990708,9990712,9990709,9990705,9990706,9990704],"voronoi":{"lat":33.556002,"lng":130.352534,"delta_lat":[0,227,-3215,-161,-3162,4569],"delta_lng":[0,22188,11198,157,-28191,-4791]}},
    {"code":9990708,"id":"7e0d46","name":"金山(福岡)","name_kana":"かなやま","lat":33.559371,"lng":130.361561,"prefecture":40,"numbering":[{"index":"08"}],"lines":[99907],"attr":"eco","postal_code":"814-0114","address":"福岡市城南区金山団地","next":[9990707,9990709,9990704,9990703,9990511],"voronoi":{"lat":33.564939,"lng":130.345961,"delta_lat":[0,-855,-8082,227,12762],"delta_lng":[0,321,6253,22188,-22081]}},
    {"code":9990709,"id":"50c998","name":"茶山(福岡)","name_kana":"ちゃやま","lat":33.566065,"lng":130.36543,"prefecture":40,"numbering":[{"index":"09"}],"lines":[99907],"attr":"cool","postal_code":"814-0111","address":"福岡市城南区茶山","next":[9990707,9990711,9990511,9990710,9990708,9990510,9990712],"voronoi":{"lat":33.561609,"lng":130.38141,"delta_lat":[0,2675,9804,-1243,-3853,-12762,-3215],"delta_lng":[0,-2620,-18923,-3803,-3423,22081,11198]}},
    {"code":9990710,"id":"ef350e","name":"別府(福岡)","name_kana":"べふ","lat":33.57417,"lng":130.369629,"prefecture":40,"numbering":[{"index":"10"}],"lines":[99907],"attr":"cool","postal_code":"814-0104","address":"福岡市城南区別府","next":[9990509,9990711,9990510,9990709],"voronoi":{"lat":33.574087,"lng":130.359867,"delta_lat":[0,8229,-142,-17891],"delta_lng":[0,7954,2773,8196]}},
    {"code":9990711,"id":"125de2","name":"六本松","name_kana":"ろっぽんまつ","lat":33.577678,"lng":130.377287,"prefecture":40,"numbering":[{"index":"11"}],"lines":[99907],"attr":"cool","postal_code":"810-0044","address":"福岡市中央区六本松","next":[9990710,9990709,9990508,9990509,9990712],"voronoi":{"lat":33.584258,"lng":130.374423,"delta_lat":[0,-2083,-17891,-2675,21691],"delta_lng":[0,-3828,8196,2620,878]}},
    {"code":9990712,"id":"2feb43","name":"桜坂","name_kana":"さくらざか","lat":33.577292,"lng":130.386819,"prefecture":40,"numbering":[{"index":"12"}],"lines":[99907],"attr":"heat","postal_code":"810-0024","address":"福岡市中央区桜坂","next":[9990706,3600103,9990713,9990707,9990507,9990711,9990508,9990709],"voronoi":{"lat":33.552853,"lng":130.386078,"delta_lat":[0,-4425,19524,14805,1987,-1445,-21691,-8594],"delta_lng":[0,5367,3677,-4936,-5618,-2279,-878,4510]}},
    {"code":9990713,"id":"25c229","name":"薬院大通","name_kana":"やくいんおおどおり","lat":33.580406,"lng":130.396158,"prefecture":40,"numbering":[{"index":"13"}],"lines":[99907],"attr":"heat","postal_code":"810-0022","address":"福岡市中央区薬院","next":[3600102,9990712,3600103,3600101,9990507],"voronoi":{"lat":33.584674,"lng":130.39794,"delta_lat":[0,-8828,-7893,14805,3023],"delta_lng":[0,2478,-5297,-4936,5114]}},
    {"code":3600102,"id":"90d629","name":"薬院","name_kana":"やくいん","lat":33.581957,"lng":130.401683,"prefecture":40,"numbering":[{"index":"14"}],"lines":[36001,99907],"attr":"cool","postal_code":"810-0004","address":"福岡市中央区渡辺通２-６-１","next":[3600101,9990713,9990715,9990716,3600103],"voronoi":{"lat":33.575845,"lng":130.400419,"delta_lat":[0,8828,419,-17,-6230],"delta_lng":[0,-2478,1500,2477,3967]}},
    {"code":9990715,"id":"885e18","name":"渡辺通","name_kana":"わたなべどおり","lat":33.583969,"lng":130.404843,"prefecture":40,"numbering":[{"index":"15"}],"lines":[99907],"attr":"heat","postal_code":"810-0004","address":"福岡市中央区渡辺通","next":[3600103,9990505,9990716,9990504,3600102,100319],"voronoi":{"lat":33.585673,"lng":130.413234,"delta_lat":[0,3036,393,-4027,-6230,1292],"delta_lng":[0,-3155,-2697,-5465,3967,9466]}},
    {"code":9990716,"id":"471492","name":"天神南","name_kana":"てんじんみなみ","lat":33.588197,"lng":130.401727,"prefecture":40,"numbering":[{"index":"16"}],"lines":[99907],"attr":"heat","postal_code":"810-0004","address":"福岡市中央区渡辺通","next":[9990505,9990715,3600102,3600101,9990506],"voronoi":{"lat":33.589103,"lng":130.407383,"delta_lat":[0,-4027,17,5647,1381],"delta_lng":[0,-5465,-2477,2096,1631]}}
  ],
  "north":33.58888,
  "south":33.54504,
  "east":130.40584,
  "west":130.32028,
  "polyline_list":[
    {
      "start":"橋本",
      "end":"天神南",
      "lat":33.55577,
      "lng":130.32028,
      "delta_lat":[0,-131,-21,-21,-47,-18,-22,-18,-13,-12,-4,0,-5,-49,-40,-47,-56,-51,-24,-145,-62,-187,-15,-49,-18,-11,-6,-1,3,1,1,2,3,2,3,3,4,3,2,4,3,5,5,4,6,5,6,6,5,5,7,6,6,7,8,8,9,38,143,25,278,96,153,18,249,191,24,24,172,74,198,128,86,13,149,124,53,220,188,12,30,27,5,5,11,93,121,55,46,42,66,34,6,-1,-2,-2,-13,-15,-15,-22,-24,-4,-20,0,10,7,3,4,26,7,7,31,81,31,14,9,80,61,8,68,9,5,0,-1,0,1,2,2,4,41,6,9,22,14,12,13,13,22,14,112,197,73,9,12,18,18,13,29,57],
      "delta_lng":[0,137,26,30,90,49,66,67,71,74,38,171,33,199,161,199,240,215,103,561,230,556,49,171,80,57,57,67,199,23,22,23,18,19,18,17,14,10,8,7,7,5,6,5,5,4,4,2,3,1,2,0,0,0,0,-1,-2,-6,-24,-4,-22,-11,-14,-2,-23,-18,1,8,91,39,99,71,59,9,99,99,48,76,-8,2,10,13,5,6,16,210,272,126,107,91,139,70,20,13,9,10,39,63,202,128,221,39,181,107,80,57,19,14,80,15,12,28,67,36,22,20,221,169,20,200,39,44,86,162,77,15,12,10,9,113,14,11,17,3,2,-2,-3,-16,-12,-111,-202,-74,-6,-4,-2,1,-2,49,140]
    }
  ]
}