{
  "code":99901,
  "name":"甘木鉄道",
  "station_list":[
    {"code":1190313,"id":"7dd864","name":"基山","name_kana":"きやま","lat":33.420945,"lng":130.532365,"prefecture":41,"lines":[11903,99901],"attr":"eco","postal_code":"841-0201","address":"三養基郡基山町大字小倉"},
    {"code":9990102,"id":"a62f86","name":"立野(佐賀)","name_kana":"たての","lat":33.412412,"lng":130.539573,"prefecture":41,"lines":[99901],"attr":"eco","postal_code":"841-0202","address":"三養基郡基山町長野字立野"},
    {"code":9990103,"id":"9be042","name":"小郡","name_kana":"おごおり","lat":33.397555,"lng":130.552994,"prefecture":40,"lines":[99901],"attr":"eco","postal_code":"838-0141","address":"小郡市大字小郡字前伏"},
    {"code":9990104,"id":"bc12a9","name":"大板井","name_kana":"おおいたい","lat":33.398452,"lng":130.560727,"prefecture":40,"lines":[99901],"attr":"eco","postal_code":"838-0142","address":"小郡市大板井字屋敷"},
    {"code":9990105,"id":"3ae87e","name":"松崎(福岡)","name_kana":"まつざき","lat":33.399654,"lng":130.582047,"prefecture":40,"lines":[99901],"attr":"eco","postal_code":"838-0122","address":"小郡市大字松崎上岩田字大添"},
    {"code":9990106,"id":"0386e0","name":"今隈","name_kana":"いまぐま","lat":33.404237,"lng":130.594426,"prefecture":40,"lines":[99901],"attr":"heat","postal_code":"838-0113","address":"小郡市山隈１２６-２"},
    {"code":9990107,"id":"5c8ea2","name":"西太刀洗","name_kana":"にしたちあらい","lat":33.40774,"lng":130.599153,"prefecture":40,"lines":[99901],"attr":"heat","postal_code":"830-1221","address":"三井郡大刀洗町大字高樋字西奥野"},
    {"code":9990108,"id":"af2856","name":"山隈","name_kana":"やまぐま","lat":33.414076,"lng":130.609964,"prefecture":40,"lines":[99901],"attr":"cool","postal_code":"838-0823","address":"朝倉郡筑前町山隈"},
    {"code":9990109,"id":"ee650f","name":"太刀洗","name_kana":"たちあらい","lat":33.413868,"lng":130.618768,"prefecture":40,"lines":[99901],"attr":"cool","postal_code":"838-0814","address":"朝倉郡筑前町高田"},
    {"code":9990110,"id":"39bc39","name":"高田(福岡)","name_kana":"たかた","lat":33.414218,"lng":130.63402,"prefecture":40,"lines":[99901],"attr":"cool","postal_code":"838-0814","address":"朝倉郡筑前町高田"},
    {"code":3600312,"id":"d230f3","name":"甘木","name_kana":"あまぎ","lat":33.418399,"lng":130.655074,"prefecture":40,"lines":[36003,99901],"attr":"cool","postal_code":"838-0068","address":"朝倉市甘木字竹原１６７８-２"}
  ],
  "north":33.42229,
  "south":33.39717,
  "east":130.65346,
  "west":130.53195,
  "polyline_list":[
    {
      "start":"基山",
      "end":"甘木",
      "lat":33.42229,
      "lng":130.53219,
      "delta_lat":[0,-15,-76,-88,-36,-15,-90,-36,-80,-43,-40,-34,-25,-24,-18,-12,-11,-18,-17,-16,-12,-12,-104,-13,-12,-13,-15,-14,-15,-16,-18,-12,-23,-23,-30,-35,-20,-21,-24,-23,-26,-15,-12,-25,-28,-50,-676,-86,-30,-27,-28,-26,-27,-23,-24,-21,-20,-22,-22,-18,-20,-16,-15,-16,-12,-11,-10,-11,-10,-8,-8,-6,-5,-4,-3,-1,2,11,5,8,10,1,8,50,3,29,11,96,3,4,13,2,3,35,3,3,2,1,1,0,-1,-1,-2,-3,-38,-6,-3,-3,-2,-1,0,0,1,0,2,1,2,4,3,6,5,7,7,8,9,9,10,11,11,11,14,14,14,14,16,16,69,96,63,60,309,41,12,245,143,18,17,16,16,15,14,14,12,12,11,11,10,8,8,8,3,3,6,4,11,3,1,0,0,-9,-1,-12,-2,-14,-11,-7,-4,0,6,7,7,11,13,10,22,88,15,115,22,9,58,51,20,22,29,25,52],
      "delta_lng":[0,3,10,4,0,5,-17,-8,-16,-5,3,3,7,10,10,13,10,22,25,24,26,26,292,28,29,27,27,26,27,24,26,19,30,28,35,35,22,20,19,20,15,11,6,13,13,18,180,25,8,8,10,12,14,16,16,20,21,21,22,23,25,25,26,26,28,28,29,28,31,30,29,32,30,32,30,32,56,91,28,63,74,11,62,389,28,227,77,759,19,31,103,19,25,276,30,32,31,31,31,31,31,31,30,30,477,93,30,30,30,29,31,30,31,13,25,22,30,30,30,29,30,30,28,30,28,29,28,28,27,27,29,25,28,25,27,25,94,117,85,81,415,54,15,329,190,26,24,26,25,25,27,27,27,29,28,28,29,28,28,31,14,15,29,29,82,80,74,52,24,251,24,295,79,339,308,167,124,82,112,67,54,67,63,42,100,374,66,498,93,41,245,228,84,76,74,44,71]
    }
  ]
}