{
  "code":99906,
  "name":"福岡市営地下鉄箱崎線",
  "color":"#0077CC",
  "symbol":"H",
  "station_list":[
    {"code":9990505,"id":"f0f95a","name":"中洲川端","name_kana":"なかすかわばた","lat":33.594749,"lng":130.406418,"prefecture":40,"numbering":[{"index":"01"},{"symbol":"K","color":"#EE5511","index":"09"}],"lines":[99905,99906],"attr":"eco","postal_code":"812-0026","address":"福岡市博多区上川端町"},
    {"code":9990602,"id":"2f5d1d","name":"呉服町(福岡)","name_kana":"ごふくまち","lat":33.59829,"lng":130.409892,"prefecture":40,"numbering":[{"index":"02"}],"lines":[99906],"attr":"eco","postal_code":"812-0024","address":"福岡市博多区綱場町"},
    {"code":9990603,"id":"293e0c","name":"千代県庁口","name_kana":"ちよけんちょうぐち","lat":33.602456,"lng":130.414336,"prefecture":40,"numbering":[{"index":"03"}],"lines":[99906],"attr":"eco","postal_code":"812-0044","address":"福岡市博多区千代４"},
    {"code":9990604,"id":"3919b2","name":"馬出九大病院前","name_kana":"まいだしきゅうだいびょういんまえ","lat":33.6094,"lng":130.419336,"prefecture":40,"numbering":[{"index":"04"}],"lines":[99906],"attr":"heat","postal_code":"812-0054","address":"福岡市東区馬出２"},
    {"code":9990605,"id":"dade97","name":"箱崎宮前","name_kana":"はこざきみやまえ","lat":33.615788,"lng":130.419613,"prefecture":40,"numbering":[{"index":"05"}],"lines":[99906],"attr":"heat","postal_code":"812-0054","address":"福岡市東区馬出４"},
    {"code":9990606,"id":"e05c01","name":"箱崎九大前","name_kana":"はこざききゅうだいまえ","lat":33.622177,"lng":130.421002,"prefecture":40,"numbering":[{"index":"06"}],"lines":[99906],"attr":"cool","postal_code":"812-0053","address":"福岡市東区箱崎３"},
    {"code":3600401,"id":"2c722a","name":"貝塚(福岡)","name_kana":"かいづか","lat":33.632906,"lng":130.425612,"prefecture":40,"numbering":[{"index":"07"}],"lines":[36004,99906],"attr":"cool","postal_code":"812-0053","address":"福岡市東区箱崎７-１-２"}
  ],
  "north":33.63302,
  "south":33.59422,
  "east":130.42573,
  "west":130.40595,
  "polyline_list":[
    {
      "start":"中洲川端",
      "end":"貝塚",
      "lat":33.59422,
      "lng":130.40595,
      "delta_lat":[0,78,72,34,18,139,40,54,92,116,93,48,49,59,57,25,9,34,42,9,44,142,46,56,43,61,47,65,92,102,20,19,24,22,26,49,62,40,46,82,60,37,60,35,27,18,13,29,28,20,112,87,65,65,201,130,116,79,70,69,101,71,130,36,8,57],
      "delta_lng":[0,80,71,34,17,138,44,58,92,119,96,47,51,60,57,20,6,3,4,1,36,116,38,45,33,46,35,47,67,69,8,2,0,-6,-12,-28,-38,-24,-27,-45,-36,-18,-20,-8,-1,3,0,11,13,12,74,59,42,43,130,77,58,38,30,25,30,20,26,6,1,3]
    }
  ]
}