{
  "code":99917,
  "name":"熊本電鉄本線",
  "station_list":[
    {"code":9991701,"id":"fb61c5","name":"藤崎宮前","name_kana":"ふじさきぐうまえ","lat":32.808928,"lng":130.713218,"prefecture":43,"lines":[99917],"attr":"heat","postal_code":"860-0863","address":"熊本市坪井２-４４"},
    {"code":9991702,"id":"8a810e","name":"黒髪町","name_kana":"くろかみまち","lat":32.818408,"lng":130.717232,"prefecture":43,"lines":[99917],"attr":"heat","postal_code":"860-0863","address":"熊本市坪井６-５４８"},
    {"code":9991703,"id":"c6bb6b","name":"北熊本","name_kana":"きたくまもと","lat":32.827492,"lng":130.721981,"prefecture":43,"lines":[99917,99918],"attr":"heat","postal_code":"861-8072","address":"熊本市室園町２５５"},
    {"code":9991704,"id":"cb25d4","name":"亀井","name_kana":"かめい","lat":32.837414,"lng":130.72224,"prefecture":43,"lines":[99917],"attr":"heat","postal_code":"861-8066","address":"熊本市清水亀井町１３７-６"},
    {"code":9991705,"id":"b9600e","name":"八景水谷","name_kana":"はけのみや","lat":32.841258,"lng":130.722812,"prefecture":43,"lines":[99917],"attr":"heat","postal_code":"861-8066","address":"熊本市清水亀井町２７５-５"},
    {"code":9991706,"id":"e356ab","name":"堀川","name_kana":"ほりかわ","lat":32.848988,"lng":130.725231,"prefecture":43,"lines":[99917],"attr":"heat","postal_code":"861-8064","address":"熊本市八景水谷１-１０９２-２"},
    {"code":9991707,"id":"36c032","name":"新須屋","name_kana":"しんすや","lat":32.853266,"lng":130.730198,"prefecture":43,"lines":[99917],"attr":"heat","postal_code":"861-1102","address":"合志市須屋塔の木４４２-５"},
    {"code":9991708,"id":"283980","name":"須屋","name_kana":"すや","lat":32.858493,"lng":130.736481,"prefecture":43,"lines":[99917],"attr":"eco","postal_code":"861-1102","address":"合志市須屋迫間１２１７-５"},
    {"code":9991709,"id":"5dee60","name":"三ツ石","name_kana":"みついし","lat":32.864265,"lng":130.738378,"prefecture":43,"lines":[99917],"attr":"eco","postal_code":"861-1102","address":"合志市須屋峠１８１６-４"},
    {"code":9991710,"id":"766a6f","name":"黒石(熊本)","name_kana":"くろいし","lat":32.870636,"lng":130.742164,"prefecture":43,"lines":[99917],"attr":"eco","postal_code":"861-1102","address":"合志市須屋黒石屋敷２６１９-７"},
    {"code":9991711,"id":"a9ef50","name":"熊本高専前","name_kana":"くまもとこうせんまえ","lat":32.878088,"lng":130.746271,"prefecture":43,"lines":[99917],"attr":"cool","postal_code":"861-1102","address":"合志市須屋大窪２６７０-４"},
    {"code":9991712,"id":"c9e1b2","name":"再春医療センター前","name_kana":"さいしゅんいりょうせんたーまえ","lat":32.880866,"lng":130.747938,"prefecture":43,"lines":[99917],"attr":"cool","postal_code":"861-1102","address":"合志市須屋大窪２６６２-５"},
    {"code":9991713,"id":"7129e4","name":"御代志","name_kana":"みよし","lat":32.884985,"lng":130.750124,"prefecture":43,"lines":[99917],"attr":"cool","postal_code":"861-1104","address":"合志市御代志東海道１６９３-１"}
  ],
  "north":32.88549,
  "south":32.80867,
  "east":130.75052,
  "west":130.71321,
  "polyline_list":[
    {
      "start":"北熊本",
      "end":"御代志",
      "lat":32.82799,
      "lng":130.72187,
      "delta_lat":[0,236,74,33,63,67,49,238,111,71,67,44,82,34,25,62,40,65,211,51,43,38,22,83,27,24,27,181,66,78,88,48,16,4,30,33,13,21,15,12,36,15,25,14,15,21,35,49,89,54,25,25,87,30,67,28,34,41,30,32,12,42,42,16,83,78,22,63,11,58,298,98,148,46,53,15,114,128,281,117,47,48,50,39,28,31,40,11,62,70,62,47,36,61,34,47,67],
      "delta_lng":[0,1,3,5,23,27,1,-7,0,-7,-7,-4,-4,7,6,38,20,19,37,12,14,18,12,52,17,8,9,39,14,17,24,19,10,3,26,37,18,40,35,50,165,69,123,41,36,32,50,62,115,68,23,13,26,1,-2,-1,0,6,9,15,8,35,37,12,39,26,7,22,2,33,208,79,76,25,29,7,50,64,100,68,28,28,29,24,17,18,25,9,38,39,35,30,20,28,17,30,40]
    },
    {
      "start":"藤崎宮前",
      "end":"北熊本",
      "lat":32.80867,
      "lng":130.71321,
      "delta_lat":[0,68,20,18,20,11,76,97,42,78,48,33,24,27,19,19,104,32,24,24,18,22,31,90,47,91,82,44,31,67,57,65,57,42,326,78],
      "delta_lng":[0,8,2,2,6,3,33,41,11,14,9,12,14,15,5,0,-3,1,6,12,14,20,36,113,59,113,102,51,30,55,34,27,15,6,-1,1]
    }
  ]
}