{
  "code":99915,
  "name":"長崎電軌４系統",
  "color":"#FFCC00",
  "station_list":[
    {"code":9991401,"id":"3af478","name":"蛍茶屋","name_kana":"ほたるぢゃや","lat":32.751135,"lng":129.894254,"prefecture":42,"numbering":[{"index":"43"}],"lines":[99914,99915,99916],"attr":"cool","postal_code":"850-0013","address":"長崎市中川町２"},
    {"code":9991402,"id":"80cc1b","name":"新中川町","name_kana":"しんなかがわまち","lat":32.752362,"lng":129.890435,"prefecture":42,"numbering":[{"index":"41"}],"lines":[99914,99915,99916],"attr":"cool","postal_code":"850-0014","address":"長崎市新中川町"},
    {"code":9991403,"id":"320f45","name":"新大工町","name_kana":"しんだいくまち","lat":32.75238,"lng":129.886701,"prefecture":42,"numbering":[{"index":"40"}],"lines":[99914,99915,99916],"attr":"cool","postal_code":"850-0017","address":"長崎市新大工町"},
    {"code":9991404,"id":"d267b3","name":"諏訪神社","name_kana":"すわじんじゃ","lat":32.752596,"lng":129.884083,"prefecture":42,"numbering":[{"index":"39"}],"lines":[99914,99915,99916],"attr":"eco","postal_code":"850-0023","address":"長崎市出来大工町"},
    {"code":9991405,"id":"0657b6","name":"市民会館","name_kana":"しみんかいかん","lat":32.74942,"lng":129.88065,"prefecture":42,"numbering":[{"index":"38"}],"lines":[99914,99915,99916],"attr":"eco","postal_code":"850-0874","address":"長崎市魚の町"},
    {"code":9991506,"id":"0d063f","name":"めがね橋","name_kana":"めがねばし","lat":32.746785,"lng":129.878204,"prefecture":42,"numbering":[{"index":"37"}],"lines":[99915,99916],"attr":"cool","postal_code":"850-0875","address":"長崎市栄町"},
    {"code":9991511,"id":"dd6d32","name":"浜町アーケード","name_kana":"はまのまちあーけーど","lat":32.74476168,"lng":129.8768124,"prefecture":42,"numbering":[{"index":"36"}],"lines":[99915,99916],"attr":"cool","postal_code":"850-0853","address":"長崎市浜町"},
    {"code":9991324,"id":"21b793","name":"観光通り","name_kana":"かんこうどおり","lat":32.743483,"lng":129.877775,"prefecture":42,"numbering":[{"index":"33"}],"lines":[99913,99915],"attr":"eco","postal_code":"850-0853","address":"長崎県長崎市浜町"},
    {"code":9991325,"id":"ef3c8c","name":"思案橋","name_kana":"しあんばし","lat":32.742725,"lng":129.880264,"prefecture":42,"numbering":[{"index":"34"}],"lines":[99913,99915],"attr":"eco","postal_code":"850-0832","address":"長崎市油屋町"},
    {"code":9991326,"id":"bc5985","name":"崇福寺","name_kana":"そうふくじ","lat":32.741425,"lng":129.882109,"prefecture":42,"numbering":[{"index":"35"}],"lines":[99913,99915],"attr":"eco","postal_code":"850-0832","address":"長崎市油屋町"}
  ],
  "north":32.7526,
  "south":32.74099,
  "east":129.89388,
  "west":129.8765,
  "polyline_list":[
    {
      "start":"観光通",
      "end":"蛍茶屋",
      "lat":32.74396,
      "lng":129.87658,
      "delta_lat":[0,5,6,7,31,42,36,25,18,8,10,26,21,15,12,18,29,22,56,101,38,3,17,89,86,82,50,7,4,-2,-13,-24,-2,0,2,6,1,-4,-5,-17,-3,-6,-42,-23],
      "delta_lng":[0,-3,-3,-1,16,24,22,20,21,7,7,5,6,6,9,23,37,26,54,96,36,3,17,82,80,76,45,10,11,10,54,101,14,46,59,166,124,64,55,144,15,17,82,48]
    },
    {
      "start":"正覚寺下",
      "end":"観光通",
      "lat":32.74099,
      "lng":129.88279,
      "delta_lat":[0,27,61,33,17,15,6,4,13,10,6,7,4,6,24,20,45],
      "delta_lng":[0,-41,-82,-44,-19,-15,-9,-10,-51,-44,-25,-42,-19,-21,-54,-49,-97]
    }
  ]
}