{
  "code":99911,
  "id":"42dbbc",
  "name":"松浦鉄道西九州線(伊万里～佐世保)",
  "name_kana":"まつうらてつどう",
  "station_size":47,
  "company_code":234,
  "station_list":[
    {"code":1192014,"id":"929668","name":"伊万里","name_kana":"いまり","lat":33.271852,"lng":129.876718,"prefecture":41,"lines":[11920,99910,99911],"attr":"eco","postal_code":"848-0041","address":"伊万里市新天町","next":[9991107,9991009,9991102,9991010,1192013,1192007,9991106,9991103],"voronoi":{"lat":33.355794,"lng":129.885017,"delta_lat":[0,6995,-6372,-112287,4353,39199,42035,12395],"delta_lng":[0,5154,4107,-12695,-3921,-13738,8375,3845]}},
    {"code":9991102,"id":"3d64ef","name":"東山代","name_kana":"ひがしやましろ","lat":33.277964,"lng":129.846041,"prefecture":41,"lines":[99911],"attr":"heat","postal_code":"849-4271","address":"伊万里市東山代町長浜","next":[9991009,9991103,1192014,9991010],"voronoi":{"lat":33.329718,"lng":129.8723,"delta_lat":[0,-72968,8167,22766],"delta_lng":[0,-47150,25151,13624]}},
    {"code":9991103,"id":"01c879","name":"里","name_kana":"さと","lat":33.284513,"lng":129.835906,"prefecture":41,"lines":[99911],"attr":"heat","postal_code":"848-0000","address":"伊万里市東山代町五反間","next":[9991008,9991106,9991102,9991009,1192014,9991104],"voronoi":{"lat":33.247827,"lng":129.80117,"delta_lat":[0,5528,3394,72968,12395,-8953],"delta_lng":[0,18025,5954,47150,3845,-10924]}},
    {"code":9991104,"id":"953fc4","name":"楠久","name_kana":"くすく","lat":33.291426,"lng":129.826696,"prefecture":41,"lines":[99911],"attr":"heat","postal_code":"849-4252","address":"伊万里市山代町楠久津","next":[9991106,9991105,9991008,9991007,9991142,9991103],"voronoi":{"lat":33.247827,"lng":129.80117,"delta_lat":[0,-5479,-1771,3665,70181,18736],"delta_lng":[0,-12543,-4856,-3149,56309,28289]}},
    {"code":9991105,"id":"adeef5","name":"鳴石","name_kana":"なるいし","lat":33.299447,"lng":129.816699,"prefecture":41,"lines":[99911],"attr":"heat","postal_code":"849-4253","address":"伊万里市山代町峰","next":[9991106,9991104,9991127,9991108,9991141,9991142],"voronoi":{"lat":33.264507,"lng":129.759463,"delta_lat":[0,5460,11477,7860,25119,-70181],"delta_lng":[0,-5221,-2886,11651,73924,-56309]}},
    {"code":9991106,"id":"dbd149","name":"久原","name_kana":"くばら","lat":33.313973,"lng":129.811763,"prefecture":41,"lines":[99911],"attr":"eco","postal_code":"849-4256","address":"伊万里市山代町久原","next":[9991105,9991104,9991103,9991108,1192014,9991107],"voronoi":{"lat":33.303005,"lng":129.778186,"delta_lat":[0,-13701,25119,18736,8953,13682],"delta_lng":[0,-15179,73924,28289,10924,8873]}},
    {"code":9991107,"id":"3c6df1","name":"波瀬","name_kana":"はぜ","lat":33.323013,"lng":129.807296,"prefecture":41,"lines":[99911],"attr":"eco","postal_code":"849-4256","address":"伊万里市山代町久原","next":[1192014,1192004,9991108,9991106,1190920,1192007,9991109],"voronoi":{"lat":33.372707,"lng":129.836102,"delta_lat":[0,-69702,52789,6995,6837,26640,12099],"delta_lng":[0,-57915,106831,5154,-577,-10798,-11131]}},
    {"code":9991108,"id":"67825d","name":"浦ノ崎","name_kana":"うらのさき","lat":33.335287,"lng":129.792524,"prefecture":41,"lines":[99911],"attr":"eco","postal_code":"849-4261","address":"伊万里市山代町立岩","next":[9991127,9991110,9991106,9991105,9991107,9991109,9991126],"voronoi":{"lat":33.281445,"lng":129.751356,"delta_lat":[0,7860,13701,69702,-56513,-28246,-6185],"delta_lng":[0,11651,15179,57915,-70133,-17908,3091]}},
    {"code":9991109,"id":"2815ff","name":"福島口","name_kana":"ふくしまぐち","lat":33.338083,"lng":129.790271,"prefecture":41,"lines":[99911],"attr":"eco","postal_code":"849-4261","address":"伊万里市山代町立岩","next":[9991110,9991108,9991107,1190920],"voronoi":{"lat":33.372707,"lng":129.836102,"delta_lat":[0,-56513,130849,-38678],"delta_lng":[0,-70133,73213,28484]}},
    {"code":9991110,"id":"578ccf","name":"今福","name_kana":"いまぶく","lat":33.348357,"lng":129.771909,"prefecture":42,"lines":[99911],"attr":"cool","postal_code":"859-4522","address":"松浦市今福町東免","next":[9991111,9991126,9991113,9991108,9991109,1190920],"voronoi":{"lat":33.316195,"lng":129.765969,"delta_lat":[0,-28246,4442,20322,153152,-18821],"delta_lng":[0,-17908,-3394,1770,81294,11451]}},
    {"code":9991111,"id":"b2eb1a","name":"鷹島口","name_kana":"たかしまぐち","lat":33.353784,"lng":129.761685,"prefecture":42,"lines":[99911],"attr":"cool","postal_code":"859-4527","address":"松浦市今福町仏坂免","next":[9991110,9991112,1190920,9991113],"voronoi":{"lat":33.465865,"lng":129.827731,"delta_lat":[0,76563,-204603,-25112],"delta_lng":[0,-42031,-40410,1147]}},
    {"code":9991112,"id":"c37ac0","name":"前浜","name_kana":"まえはま","lat":33.358819,"lng":129.736192,"prefecture":42,"lines":[99911],"attr":"cool","postal_code":"859-4531","address":"松浦市調川町平尾免","next":[1190920,9991111,9991113,9991116],"voronoi":{"lat":33.542427,"lng":129.785699,"delta_lat":[0,-204603,56433,271310],"delta_lng":[0,-40410,-42859,26243]}},
    {"code":9991113,"id":"817dd9","name":"調川","name_kana":"つきのかわ","lat":33.352223,"lng":129.727507,"prefecture":42,"lines":[99911],"attr":"cool","postal_code":"859-4536","address":"松浦市調川町下免","next":[9991112,9991110,9991115,9991126,9991114,9991111,9991116],"voronoi":{"lat":33.337825,"lng":129.745289,"delta_lat":[0,-25112,-20322,3535,89570,6147,2615],"delta_lng":[0,1147,-1770,-5739,-36328,-721,552]}},
    {"code":9991114,"id":"a69f6b","name":"松浦","name_kana":"まつうら","lat":33.344273,"lng":129.707906,"prefecture":42,"lines":[99911],"attr":"cool","postal_code":"859-4501","address":"松浦市志佐町浦免","next":[9991115,9991113,9991126],"voronoi":{"lat":33.313789,"lng":129.692459,"delta_lat":[0,71706,-89570],"delta_lng":[0,10141,36328]}},
    {"code":9991115,"id":"42cbba","name":"松浦発電所前","name_kana":"まつうらはつでんしょまえ","lat":33.347361,"lng":129.68607,"prefecture":42,"lines":[99911],"attr":"cool","postal_code":"859-4506","address":"松浦市志佐町白浜免","next":[9991126,9991116,9991117,9991125,9991114,9991113,9991124],"voronoi":{"lat":33.314306,"lng":129.679044,"delta_lat":[0,-516,71706,6147,-53034,-12443,-8110],"delta_lng":[0,13415,10141,-721,-41823,-2214,8278]}},
    {"code":9991116,"id":"722720","name":"御厨(長崎)","name_kana":"みくりや","lat":33.365947,"lng":129.662502,"prefecture":42,"lines":[99911],"attr":"cool","postal_code":"859-4752","address":"松浦市御厨町里免","next":[9991115,9991120,9991112,9991117,9991118,1190920,9991113],"voronoi":{"lat":33.665567,"lng":129.728674,"delta_lat":[0,424057,-606759,-87051,-57206,53034,2615],"delta_lng":[0,-137126,25931,18229,24348,41823,552]}},
    {"code":9991117,"id":"755414","name":"西木場","name_kana":"にしこば","lat":33.355798,"lng":129.638657,"prefecture":42,"lines":[99911],"attr":"cool","postal_code":"859-4765","address":"松浦市御厨町米ノ山免","next":[9991115,9991124,9991116,9991123,9991118,9991122],"voronoi":{"lat":33.326254,"lng":129.65424,"delta_lat":[0,-88,12443,57206,-60822,-4121],"delta_lng":[0,3601,2214,-24348,-7482,6474]}},
    {"code":9991118,"id":"e02f01","name":"東田平","name_kana":"ひがしたびら","lat":33.357706,"lng":129.623147,"prefecture":42,"lines":[99911],"attr":"cool","postal_code":"859-4803","address":"平戸市田平町小崎免","next":[9991122,9991119,9991116,9991117,9991120],"voronoi":{"lat":33.407294,"lng":129.608485,"delta_lat":[0,-70531,-1770,60822,87051],"delta_lng":[0,11995,7745,7482,-18229]}},
    {"code":9991119,"id":"b8b46f","name":"中田平","name_kana":"なかたびら","lat":33.355647,"lng":129.61104,"prefecture":42,"lines":[99911],"attr":"cool","postal_code":"859-4806","address":"平戸市田平町下亀免","next":[9991118,9991120,9991121,9991122],"voronoi":{"lat":33.335893,"lng":129.608166,"delta_lat":[0,22529,48872,-70531],"delta_lng":[0,-11511,11830,11995]}},
    {"code":9991120,"id":"fcc18a","name":"たびら平戸口","name_kana":"たびらひらどぐち","lat":33.362532,"lng":129.582595,"prefecture":42,"lines":[99911],"attr":"cool","postal_code":"859-4825","address":"平戸市田平町山内免","next":[9991121,9991116,9991119,9992901,1170223,9992701,1111553,9991118,9991131,1190920],"voronoi":{"enclosed":false,"lat":58.671232,"lng":21.532962,"delta_lat":[0,-26044658,-1601535,1332639,1000744,48872,75572,606759,1059964,38728934,70827533],"delta_lng":[0,96548826,6134602,3171517,2208749,11830,8993,-25931,-279400,-28057213,-70593630]}},
    {"code":9991121,"id":"fb17d6","name":"西田平","name_kana":"にしたびら","lat":33.34514,"lng":129.590475,"prefecture":42,"lines":[99911],"attr":"cool","postal_code":"859-4823","address":"平戸市田平町荻田免","next":[9991120,9991131,9991119,9991122],"voronoi":{"lat":33.223285,"lng":129.470977,"delta_lat":[0,-865607,1000744,-22529],"delta_lng":[0,-2083071,2208749,11511]}},
    {"code":9991122,"id":"ca0b52","name":"すえたちばな","name_kana":"すえたちばな","lat":33.316738,"lng":129.613788,"prefecture":42,"lines":[99911],"attr":"cool","postal_code":"859-6104","address":"長崎県佐世保市江迎町末橘","next":[9991118,9991121,9991130,9991131,9991123,9991119,9991117],"voronoi":{"lat":33.255161,"lng":129.578149,"delta_lat":[0,-1263,-30614,112608,870,-1770,-4121],"delta_lng":[0,-3055,-104116,137189,12314,7745,6474]}},
    {"code":9991123,"id":"bed0f0","name":"江迎鹿町","name_kana":"えむかえしかまち","lat":33.306809,"lng":129.627081,"prefecture":42,"lines":[99911],"attr":"cool","postal_code":"859-6143","address":"長崎県佐世保市鹿町町深江","next":[9991130,9991124,9991117,9991122],"voronoi":{"lat":33.255161,"lng":129.578149,"delta_lat":[0,4159,66933,4618],"delta_lng":[0,14745,61347,-19541]}},
    {"code":9991124,"id":"05047e","name":"高岩(長崎)","name_kana":"たかいわ","lat":33.297507,"lng":129.63723,"prefecture":42,"lines":[99911],"attr":"cool","postal_code":"859-6124","address":"長崎県佐世保市江迎町小川内","next":[9991117,9991125,9991129,9991130,9991123,9991115],"voronoi":{"lat":33.271077,"lng":129.642855,"delta_lat":[0,-6494,-5263,66933,-88,-8110],"delta_lng":[0,-16729,-33233,61347,3601,8278]}},
    {"code":9991125,"id":"26243f","name":"いのつき","name_kana":"いのつき","lat":33.282623,"lng":129.667286,"prefecture":42,"lines":[99911],"attr":"cool","postal_code":"859-6133","address":"長崎県佐世保市江迎町猪調","next":[9991126,9991115,9991124,9991128,9991129],"voronoi":{"lat":33.272832,"lng":129.674404,"delta_lat":[0,41474,3750,-46978,-2420],"delta_lng":[0,4640,-12924,-23264,7844]}},
    {"code":9991126,"id":"d5e8ba","name":"潜竜ヶ滝","name_kana":"せんりゅうがたき","lat":33.280808,"lng":129.683509,"prefecture":42,"lines":[99911],"attr":"cool","postal_code":"859-6134","address":"長崎県佐世保市江迎町田ノ元","next":[9991115,9991125,9991110,9991127,9991128,9991113,9991114,9991108],"voronoi":{"lat":33.272453,"lng":129.674999,"delta_lat":[0,378,41474,-516,-17864,-3535,-4442,-6185],"delta_lng":[0,-596,4640,13415,46469,5739,3394,3091]}},
    {"code":9991127,"id":"aeb267","name":"吉井(長崎)","name_kana":"よしい","lat":33.266395,"lng":129.685271,"prefecture":42,"lines":[99911],"attr":"cool","postal_code":"859-6325","address":"佐世保市吉井町大渡","next":[9991108,9991105,9991139,9991128,9991141,9991126,9991140],"voronoi":{"lat":33.245986,"lng":129.7132,"delta_lat":[0,-7952,34420,9310,-319,-11477,-19537],"delta_lng":[0,-25614,-12586,76152,205,2886,-30591]}},
    {"code":9991128,"id":"32d40a","name":"神田(長崎)","name_kana":"こうだ","lat":33.261198,"lng":129.671059,"prefecture":42,"lines":[99911],"attr":"cool","postal_code":"857-0335","address":"北松浦郡佐々町皆瀬免","next":[9991127,9991125,9991126,9991138,9991139,9991129],"voronoi":{"lat":33.268657,"lng":129.6507,"delta_lat":[0,4174,-378,-34420,-1453,-1196],"delta_lng":[0,23704,596,12586,-2266,-3867]}},
    {"code":9991129,"id":"958181","name":"清峰高校前","name_kana":"せいほうこうこうまえ","lat":33.247775,"lng":129.656536,"prefecture":42,"lines":[99911],"attr":"cool","postal_code":"857-0333","address":"北松浦郡佐々町中川原免","next":[9991138,9991124,9991137,9991130,9991125,9991128],"voronoi":{"lat":33.268657,"lng":129.6507,"delta_lat":[0,2420,-6494,-37416,6345,1872],"delta_lng":[0,-7844,-16729,42817,10113,2396]}},
    {"code":9991130,"id":"8d7460","name":"佐々","name_kana":"さざ","lat":33.236701,"lng":129.646859,"prefecture":42,"lines":[99911],"attr":"cool","postal_code":"857-0311","address":"北松浦郡佐々町本田原免","next":[9991132,9991137,9991123,9991131,9991124,9991129,9991122],"voronoi":{"lat":33.253899,"lng":129.575094,"delta_lat":[0,-30494,833,2930,37416,-5263,-4159],"delta_lng":[0,85917,5466,2467,-42817,-33233,-14745]}},
    {"code":9991131,"id":"2fadd5","name":"小浦","name_kana":"こうら","lat":33.222005,"lng":129.641643,"prefecture":42,"lines":[99911],"attr":"eco","postal_code":"857-0361","address":"北松浦郡佐々町小浦免","next":[9991121,9991130,9991132,9991122,9992901,9991120,9991133],"voronoi":{"lat":30.843072,"lng":124.878031,"delta_lat":[0,181967,1332639,865607,30614,-30494,-20993],"delta_lng":[0,-661641,3171517,2083071,104116,85917,-33161]}},
    {"code":9991132,"id":"13a0df","name":"真申","name_kana":"まさる","lat":33.206498,"lng":129.65146,"prefecture":42,"lines":[99911],"attr":"eco","postal_code":"858-0908","address":"佐世保市光町","next":[9991130,9991136,9991137,9991131,9991133],"voronoi":{"lat":33.202412,"lng":129.62785,"delta_lat":[0,20993,833,-13703,-5707],"delta_lng":[0,33161,5466,238,-3394]}},
    {"code":9991133,"id":"2f41cb","name":"棚方","name_kana":"たながた","lat":33.201565,"lng":129.651796,"prefecture":42,"lines":[99911],"attr":"eco","postal_code":"858-0907","address":"佐世保市棚方町","next":[9991136,9992901,9991611,9991134,9991131,9991132],"voronoi":{"lat":33.202412,"lng":129.62785,"delta_lat":[0,-2359340,-64132,1081158,1341603,3127],"delta_lng":[0,-4749819,231249,2296551,2256424,1066]}},
    {"code":9991134,"id":"497310","name":"相浦","name_kana":"あいのうら","lat":33.192577,"lng":129.65714,"prefecture":42,"lines":[99911],"attr":"eco","postal_code":"858-0918","address":"佐世保市相浦町","next":[9991135,9991136,9991611,9991133,1190540,1190538,1192202],"voronoi":{"lat":33.195353,"lng":129.663508,"delta_lat":[0,6347,-1341603,589010,29685,414758,55262],"delta_lng":[0,-1253,-2256424,1257668,61445,822176,39926]}},
    {"code":9991135,"id":"35faad","name":"大学","name_kana":"だいがく","lat":33.189461,"lng":129.667187,"prefecture":42,"lines":[99911],"attr":"eco","postal_code":"858-0914","address":"佐世保市川下町","next":[1191814,1192202,9991134,9991146,9991136],"voronoi":{"lat":33.195353,"lng":129.663508,"delta_lat":[0,-246541,30502,155668,43442],"delta_lng":[0,-76462,23014,68126,15096]}},
    {"code":9991136,"id":"c57838","name":"上相浦","name_kana":"かみあいのうら","lat":33.195205,"lng":129.670453,"prefecture":42,"lines":[99911],"attr":"eco","postal_code":"858-0916","address":"佐世保市木宮町","next":[9991133,9991132,9991134,9991135,9991146,9991144,9991137,9991138],"voronoi":{"lat":33.178786,"lng":129.693456,"delta_lat":[0,-362,16929,6347,3127,5707,-21920,-6552],"delta_lng":[0,-175,-29774,-1253,1066,3394,22255,5013]}},
    {"code":9991137,"id":"531a9a","name":"本山(長崎)","name_kana":"もとやま","lat":33.207029,"lng":129.682099,"prefecture":42,"lines":[99911],"attr":"eco","postal_code":"858-0905","address":"佐世保市下本山町","next":[9991132,9991130,9991129,9991138,9991136],"voronoi":{"lat":33.233512,"lng":129.679057,"delta_lat":[0,-6345,-2930,-13703,-21920],"delta_lng":[0,-10113,-2467,238,22255]}},
    {"code":9991138,"id":"5cc8e0","name":"中里(長崎)","name_kana":"なかざと","lat":33.20821,"lng":129.687448,"prefecture":42,"lines":[99911],"attr":"eco","postal_code":"858-0904","address":"佐世保市中里町","next":[9991139,9991129,9991144,9991137,9991128,9991140,9991136],"voronoi":{"lat":33.188614,"lng":129.68897,"delta_lat":[0,44898,1872,1196,-42648,-1121,-10749],"delta_lng":[0,-9913,2396,3867,15331,186,-6854]}},
    {"code":9991139,"id":"331d71","name":"皆瀬","name_kana":"かいぜ","lat":33.213348,"lng":129.701741,"prefecture":42,"lines":[99911],"attr":"eco","postal_code":"857-0144","address":"佐世保市皆瀬町","next":[9991138,9991140,9991127,9991128],"voronoi":{"lat":33.23658,"lng":129.68532,"delta_lat":[0,-42648,52053,-7952],"delta_lng":[0,15331,12549,-25614]}},
    {"code":9991140,"id":"c52ab2","name":"野中","name_kana":"のなか","lat":33.211712,"lng":129.708527,"prefecture":42,"lines":[99911],"attr":"eco","postal_code":"857-0142","address":"佐世保市野中町","next":[9991139,9991143,9991141,9991144,9991138,9991127],"voronoi":{"lat":33.202081,"lng":129.71354,"delta_lat":[0,-6345,-2924,1121,52053,4445],"delta_lng":[0,-6683,-6020,-186,12549,10452]}},
    {"code":9991141,"id":"487a05","name":"左石","name_kana":"ひだりいし","lat":33.208896,"lng":129.721992,"prefecture":42,"lines":[99911],"attr":"eco","postal_code":"857-0136","address":"佐世保市田原町","next":[9991143,9991142,9991140,9991105,9991127],"voronoi":{"lat":33.250431,"lng":129.723651,"delta_lat":[0,-48350,596,61831,5460],"delta_lng":[0,-10112,8109,37815,-5221]}},
    {"code":9991142,"id":"d8da07","name":"泉福寺","name_kana":"せんぷくじ","lat":33.205816,"lng":129.727028,"prefecture":42,"lines":[99911],"attr":"eco","postal_code":"857-0134","address":"佐世保市瀬戸越３丁目","next":[9991141,9991006,1191813,9991005,9991143,9991105,9991104,9991007],"voronoi":{"lat":33.214836,"lng":129.78843,"delta_lat":[0,-3605,-22715,14161,61831,-20265,-3665,-21288],"delta_lng":[0,89,-35183,-31687,37815,21159,3149,4087]}},
    {"code":9991143,"id":"2ddc97","name":"山の田","name_kana":"やまのた","lat":33.196575,"lng":129.722898,"prefecture":42,"lines":[99911],"attr":"heat","postal_code":"857-0011","address":"佐世保市春日町","next":[9991141,1191813,9991140,9991142,9991144],"voronoi":{"lat":33.195735,"lng":129.706856,"delta_lat":[0,6345,596,-14161,-3801],"delta_lng":[0,6683,8109,31687,-4207]}},
    {"code":9991144,"id":"6565de","name":"北佐世保","name_kana":"きたさせぼ","lat":33.18717,"lng":129.720446,"prefecture":42,"lines":[99911],"attr":"heat","postal_code":"857-0016","address":"佐世保市俵町","next":[9991146,1191813,9991140,9991145,9991138,9991143,9991136],"voronoi":{"lat":33.178786,"lng":129.693456,"delta_lat":[0,214,4738,976,11021,-2924,-10749],"delta_lng":[0,23193,31712,767,-42272,-6020,-6854]}},
    {"code":9991145,"id":"a0f894","name":"中佐世保","name_kana":"なかさせぼ","lat":33.172297,"lng":129.722668,"prefecture":42,"lines":[99911],"attr":"heat","postal_code":"857-0806","address":"佐世保市島瀬町","next":[1191813,1191814,9991144,9991146],"voronoi":{"lat":33.17546,"lng":129.744902,"delta_lat":[0,8279,-4738,-10966],"delta_lng":[0,3459,-31712,7383]}},
    {"code":9991146,"id":"ea7777","name":"佐世保中央","name_kana":"させぼちゅうおう","lat":33.170902,"lng":129.720596,"prefecture":42,"lines":[99911],"attr":"heat","postal_code":"857-0806","address":"佐世保市島瀬町","next":[9991144,9991135,1191814,9991136,9991145],"voronoi":{"lat":33.134982,"lng":129.678185,"delta_lat":[0,43442,362,214,-10966],"delta_lng":[0,15096,175,23193,7383]}},
    {"code":1191814,"id":"918930","name":"佐世保","name_kana":"させぼ","lat":33.163868,"lng":129.725667,"prefecture":42,"lines":[11918,99911],"attr":"heat","postal_code":"857-0862","address":"佐世保市白南風町","next":[9991135,1192202,9991145,1191813,9991146],"voronoi":{"lat":33.17546,"lng":129.744902,"delta_lat":[0,-78802,-117343,155668,33052],"delta_lng":[0,-15587,-119256,68126,45847]}}
  ],
  "north":33.3669,
  "south":33.16315,
  "east":129.87733,
  "west":129.57812,
  "polyline_list":[
    {
      "start":"佐世保",
      "end":"今里",
      "lat":33.16315,
      "lng":129.72742,
      "delta_lat":[0,40,91,110,3,2,4,47,22,3,2,2,13,44,2,38,18,10,27,23,23,2,38,36,48,12,24,3,22,37,20,14,16,17,12,14,5,27,22,9,29,6,30,26,20,16,20,22,7,45,36,5,38,62,13,23,34,9,0,27,17,14,47,82,48,70,15,13,18,43,69,21,10,59,40,12,3,11,32,20,14,17,36,14,38,32,38,28,14,6,16,12,9,15,4,11,1,11,7,2,15,3,3,12,9,2,45,18,25,35,9,10,27,27,31,24,19,15,7,25,60,18,17,53,6,4,1,115,76,18,50,0,4,85,52,30,10,10,42,23,24,27,13,2,16,13,8,62,43,28,14,24,26,35,29,4,11,28,1,19,16,24,16,20,35,28,18,28,5,18,103,61,33,5,6,25,72,9,24,32,35,18,26,24,4,9,19,15,6,7,16,20,9,24,6,3,3,2,0,-5,-4,-18,-5,-6,-3,-16,-4,-8,-4,-5,-9,-5,-2,0,0,2,2,0,0,2,0,7,3,1,16,12,2,26,16,0,3,2,13,18,0,2,11,16,5,4,0,3,3,14,18,0,2,3,1,1,4,21,4,11,3,24,18,9,6,11,12,2,9,3,0,6,4,12,0,2,0,2,15,1,4,2,88,16,2,-2,-1,0,-6,-1,0,-4,-4,-11,-8,-9,-4,-2,-14,-13,-16,-10,-23,-11,-27,-29,-45,-33,-4,-7,-7,-25,-30,-23,-30,-4,-16,-6,-16,-11,-2,0,-3,-9,-8,-12,-12,-4,-2,-2,-7,-3,-13,-2,-6,-10,-16,-8,-19,-3,-21,-2,-5,-6,-2,-7,-16,-8,-1,-7,-1,-21,-11,-3,-10,-14,-2,-1,-8,-5,-1,-3,-2,-3,-9,-12,-3,-27,-42,-19,-4,-20,-24,-32,-49,-27,0,-4,-11,-46,-24,-23,-9,-63,-8,-67,-31,-27,-40,-64,-91,-5,-2,-80,-5,-2,-33,-41,-2,-2,-38,-37,-17,-3,-63,-4,-56,-2,-15,-2,-80,-2,-39,-10,-2,-5,-25,-19,-54,-5,-13,-52,-71,-22,-36,-10,-46,-9,-7,-11,-15,-12,-4,-7,-5,-4,-3,-6,-9,-3,-8,-5,2,2,0,1,3,2,1,3,4,9,19,3,9,11,12,16,4,3,17,18,29,10,6,9,42,25,42,32,40,36,63,14,17,22,54,7,36,36,11,20,29,31,31,21,8,12,11,18,2,51,47,20,21,0,3,10,8,18,8,11,18,0,23,25,21,16,5,38,27,13,20,52,11,64,18,12,12,44,25,38,4,7,18,11,17,15,15,26,28,8,26,33,4,5,16,13,16,19,59,17,36,3,47,9,6,13,37,20,24,13,39,100,1,14,23,17,19,9,9,7,1,15,16,22,9,22,27,5,0,81,8,7,58,18,13,19,26,18,3,3,7,57,1,5,3,2,64,3,2,49,21,21,30,8,3,20,2,11,38,10,24,28,8,45,25,10,1,78,63,0,8,64,3,26,9,10,0,3,2,21,23,8,27,4,3,15,33,61,23,13,44,23,38,31,14,13,44,26,64,28,8,21,39,3,111,1,6,18,65,37,49,4,18,14,44,27,35,5,6,3,4,14,77,10,9,16,7,57,13,64,5,25,44,35,34,16,27,44,41,47,16,4,42,29,23,18,43,58,47,0,9,2,35,53,9,40,19,47,2,26,30,16,9,67,14,22,25,16,8,19,2,9,58,40,33,1,0,5,2,4,45,9,47,18,22,21,3,2,4,35,8,23,4,15,33,26,50,72,21,10,20,4,11,5,4,-1,0,1,3,4,0,5,6,12,8,0,15,15,22,16,3,34,34,34,76,7,81,31,29,29,22,30,24,38,58,45,16,20,17,21,43,1,3,26,13,31,2,27,9,33,21,31,9,6,5,19,19,15,18,11,22,13,21,49,14,6,14,9,2,8,6,0,4,3,0,0,2,13,5,0,11,11,11,4,16,29,14,12,9,4,20,29,45,23,14,3,23,13,14,12,15,30,32,11,24,38,32,12,39,23,22,5,4,2,38,46,1,3,22,22,36,21,46,31,59,51,65,39,16,15,15,21,33,31,3,13,19,11,6,3,6,6,3,5,4,0,3,6,9,4,4,18,1,17,30,5,32,7,14,9,22,16,0,2,18,12,15,0,3,13,22,11,4,21,14,3,45,14,14,3,1,2,-2,0,-1,-8,0,-6,-3,-9,-14,-13,-4,0,-2,-12,-11,-2,-5,-5,0,1,0,5,1,3,0,2,2,0,1,2,2,9,6,9,10,2,4,24,3,4,14,13,1,4,2,0,0,-3,-1,-5,0,4,2,2,10,9,11,2,7,3,21,3,58,4,2,1,33,34,24,8,13,2,9,27,14,29,20,37,25,7,17,18,19,0,2,13,20,2,1,2,8,0,12,11,22,12,14,11,15,67,6,19,8,21,20,9,27,6,23,14,11,9,6,32,29,43,27,21,36,36,39,31,28,20,30,32,33,5,8,20,36,32,22,3,29,18,4,33,9,43,64,50,5,35,27,14,13,27,0,4,20,30,2,35,5,17,1,20,32,42,5,10,16,7,34,4,62,53,49,36,53,32,36,4,20,112,6,32,29,17,12,4,9,4,1,9,8,12,6,9,3,2,7,2,0,4,0,3,2,5,11,10,3,7,17,18,9,14,40,25,0,27,43,4,27,29,20,29,33,45,29,29,53,70,110,23,9,31,22,3,35,49,10,22,32,24,27,42,34,96,23,20,11,27,16,34,23,21,11,5,10,25,23,14,1,2,14,18,12,1,14,17,21,54,38,10,57,47,47,18,22,20,140,22,31,25,15,18,33,5,25,63,18,48,93,96,29,36,35,4,17,24,5,71,5,24,19,14,52,87,112,21,35,5,77,85,87,15,45,11,69,2,3,16,9,54,35,50,67,7,41,45,41,29,5,22,27,78,25,23,15,13,20,16,54,29,42,115,43,31,19,12,4,21,33,14,20,4,61,4,97,40,17,3,6,13,28,2,14,20,26,39,21,12,40,5,18,29,22,3,15,34,2,8,12,13,5,8,5,-1,-4,-4,-6,-9,-7,-13,-20,-12,-32,-12,-23,-49,-13,-35,-8,-21,-26,-21,-21,-16,-16,-11,-9,-2,-7,-24,-3,-22,-8,-10,-27,0,-6,-1,-27,-2,-13,-31,-19,-2,-32,-2,-13,-13,-13,-23,-79,-11,-10,-5,-18,-16,-36,-18,-6,-1,-13,-5,-18,-9,-8,-11,-7,-6,-5,0,-7,-5,-4,0,3,3,3,7,6,21,11,2,5,1,1,2,35,7,3,6,7,5,5,2,0,0,2,7,2,1,8,11,9,18,22,13,16,3,31,2,67,16,13,31,26,24,47,47,24,25,16,17,12,2,38,18,3,6,3,4,2,3,4,24,14,38,2,0,9,22,16,2,0,2,5,21,14,3,5,4,2,1,2,10,1,-1,-6,-9,-5,-15,-3,0,-17,-29,-14,-26,-9,-34,-5,-2,-3,-10,-12,-45,-20,-53,-66,-66,-51,-46,-25,-18,-37,-13,-5,-24,-26,-18,-15,-49,-23,0,-29,-15,-7,-15,-34,-18,-4,-1,-5,-3,-5,0,-3,3,4,9,2,21,43,9,35,5,31,11,16,9,9,2,12,23,25,4,23,3,10,25,22,2,12,7,11,15,12,20,6,8,21,21,15,37,127,36,29,14,18,18,73,71,30,11,9,8,7,5,4,9,19,4,15,3,11,4,1,10,12,14,18,14,12,23,46,7,24,1,24,19,6,4,20,16,20,5,9,4,7,2,5,5,12,10,0,2,2,7,4,5,-1,-8,0,-9,-2,-3,-4,-11,-7,-4,-23,-5,-4,-27,-7,-8,-12,-39,-6,-3,-37,-7,-18,-17,-15,-5,-15,-16,-18,-37,-98,-17,-19,-24,-20,-27,-16,-13,-7,-40,-32,-17,-12,-5,-22,-13,-16,-60,-11,-31,-12,-35,-158,-6,-9,-30,-14,-17,-18,-26,-11,-30,-16,-8,-19,-19,-16,-25,-15,-27,-18,-47,-52,-27,-26,-11,-14,-9,-23,-11,-15,-20,-40,-18,-8,-32,-63,-39,-26,-41,-20,-15,-32,-31,-25,-9,-16,-6,-7,-5,-1,0,4,4,18,8,10,2,10,16,5,6,4,8,3,9,9,9,9,35,26,17,25,16,73,5,27,17,27,12,28,15,0,3,9,5,2,0,-4,-7,-23,-2,-20,0,-10,-3,0,-12,-12,-10,-28,-41,-4,-5,-24,-16,-30,-17,-14,-7,-2,-1,-6,-3,0,1,0,-1,0,-3,-5,-8,-16,-10,-17,-11,-52,-33,-18,-54,-3,-31,-9,-6,-4,-10,-8,-12,-13,-7,-5,-1,-1,-7,-8,-1,-2,-9,-6,0,2,23,1,21,13,14,20,7,2,26,18,3,29,15,1,20,9,6,5,2,3,3,10,11,2,7,7,7,4,6,8,6,45,5,6,14,2,42,7,2,11,30,28,11,5,32,31,96,32,8,14,24,18,11,47,23,40,38,28,12,79,31,16,12,82,3,1,2,25,21,17,14,17,23,5,9,18,4,3,15,24,7,16,9,9,10,42,19,28,12,30,37,6,49,33,45,76,36,38,7,26,31,18,21,14,33,22,5,38,5,24,11,38,42,12,6,-4,-2,-5,-4,0,-7,0,-3,-2,-4,-5,-8,-19,-1,-7,-5,-2,-4,-4,-8,-8,-9,-5,-2,-21,-8,-21,-10,-46,-53,-21,-8,-12,-47,-6,-20,-11,-14,-15,-66,-7,-24,-4,-27,-47,-52,-27,-29,-22,-38,-18,-53,-94,-6,-44,-73,-24,-5,-27,-20,-47,-51,-4,-71,-18,-25,-27,-53,-22,-10,-4,-14,-10,-8,-22,-17,-17,-22,-2,-7,-2,-23,-20,-7,-10,-3,-13,-4,-6,-12,-11,-1,-6,-20,-3,-2,-29,-29,-2,-41,-8,-8,-10,-3,-6,-2,-3,-4,-1,-6,-9,-18,-6,-4,-14,-37,-16,-27,-30,-1,-45,-47,-33,-26,-20,-4,-30,-101,-27,-31,-28,-59,-23,-2,-21,-16,-19,-3,-8,-11,-15,-2,-8,-1,-8,-1,-1,-18,-17,-17,-15,-19,-4,-11,-78,-65,-21,-58,-35,-7,-14,-8,-34,-28,-22,-10,-23,-16,-18,-37,-39,-22,-22,-7,-7,-6,-3,-18,-4,-4,-6,-40,-31,-2,-18,-42,-6,-4,-13,-11,-54,-4,-16,-27,-6,-5,-31,-21,-17,-23,-20,-29,-32,-4,-58,-42,-5,-3,-4,-8,-12,-18,-31,-7,-16,-66,-53,-33,-11,-47,-94,-52,-57,-14,-7,-52,-26,-5,-40,-20,-18,-39,-18,-17,-52,-13,-5,-6,-41,-48,-24,-32,-6,-11,-26,-34,-5,-61,-51,-47,-15,-11,-54,-71,-3,-24,-14,-71,-41,-110,-32,-24,-70,-18,-85,-39,-4,-11,-20,-32,-22,-119,-54,-16,-107,-40,-79,-13,-38,-2,-45,-9,-65,-24,-30,-45,-65,-68,-44,-9,-13,-9,-7,-27,-27,-19,-18,-60,-70,-52,-38,-15,-20,-36,-18,-20,-29,-4,-43,-14,-6,-21,-7,-2,-6,-68,-1,-3,-11,-4,-14,-11,-27,-27,-11,-7,-3,-12,-14,-27,-5,-6,-16,-29,-28,-30,-70,-88,-80,-107,-56,-45,-54,-37,-88,-6,-30,-13,-13,-5,-7,-26,-5,-7,-2,-22,-7,-31,-32,-2,-27,-2,-7,-2,-5,-4,-33,-4,-9,-7,-9,-72,-15,-11,-45,-2,-30,0,-47,-3,-28,-54,-56,-12,-26,-14,-66,-5,-13,-11,-44,-6,-33,-23,-33,-11,-30,-40,-29,-14,-9,-17,-14,-7,-4,-2,-1,5,0,7,6,3,4,5,2,2,7,11,6,8,10,21,7,2,8,5,1,11,3,3,1,3,11,12,0,5,6,1,0,-3,-9,-9,-15,-14,-3,-9,-3,-5,-5,-2,-21,-2,-3,-5,-3,-4,-4,-5,-11,-1,-8,-4,-16],
      "delta_lng":[0,-57,-122,-151,-5,-3,-6,-86,-36,-5,-3,-3,-18,-63,-2,-48,-22,-10,-27,-19,-18,-2,-17,-3,6,1,5,0,4,17,9,13,18,22,19,21,8,42,35,11,49,7,35,23,14,9,6,8,3,14,13,1,14,23,2,6,10,0,2,6,4,4,10,13,7,10,2,3,3,7,7,2,1,9,0,-1,-1,-1,-11,-7,-8,-7,-18,-10,-26,-26,-30,-27,-20,-10,-26,-23,-23,-47,-10,-35,-6,-32,-17,-6,-30,-8,-5,-20,-16,-2,-56,-23,-24,-22,-5,-6,-10,-9,-6,-1,2,1,3,6,27,9,7,24,4,0,1,47,31,8,39,2,1,67,40,25,13,8,46,24,20,14,8,0,7,6,3,18,9,2,5,4,10,23,25,4,12,36,3,24,16,27,16,16,23,10,4,0,0,0,4,2,4,1,2,7,22,2,6,6,-2,-3,-6,-10,-3,-5,-11,-11,-5,-8,-17,-30,-18,-44,-19,-12,-15,-38,-30,-26,-22,-91,-24,-31,-22,-70,-24,-39,-24,-18,-51,-34,-31,-35,-20,-37,-7,-4,-4,-1,-4,-40,-6,-7,-50,-32,-7,-65,-49,-5,-2,-6,-41,-48,-5,-3,-27,-47,-12,-7,-8,-6,-5,-40,-47,-7,0,-8,-1,-4,-10,-59,-11,-30,-6,-69,-52,-32,-31,-65,-73,-12,-42,-5,-6,-18,-16,-47,-4,-3,-5,-4,-63,-4,-14,-9,-341,-81,-65,-38,0,-28,-82,-2,-7,-71,-44,-51,-19,-26,-10,-8,-24,-16,-19,-9,-18,-8,-24,-23,-38,-27,-4,-5,-9,-27,-53,-36,-55,-7,-28,-11,-25,-20,-1,-5,-1,-17,-18,-27,-64,-85,-15,-52,-88,-39,-81,-16,-35,-36,-59,-29,-77,-10,-90,-12,-19,-23,-8,-28,-75,-31,-6,-28,-6,-89,-42,-18,-42,-61,-8,-4,-28,-21,-7,-9,-2,-19,-27,-26,-8,-54,-58,-23,-3,-19,-23,-24,-26,-14,-1,-1,-7,-25,-10,-13,-5,-31,-4,-35,-18,-12,-22,-34,-47,-2,-1,-43,-1,-2,-17,-22,0,-3,-19,-19,-10,-1,-35,-2,-30,-1,-6,-3,-40,-1,-19,-6,-1,-2,-14,-9,-28,-3,-6,-27,-40,-18,-29,-10,-51,-9,-9,-19,-37,-38,-20,-26,-52,-28,-45,-62,-80,-38,-81,-53,-41,-3,-19,-12,-5,-8,-6,-16,-6,-27,-40,-8,-13,-18,-17,-18,-5,-3,-12,-13,-18,-9,-3,-3,-18,-11,-10,-8,-4,0,9,4,7,9,16,1,7,4,0,0,-1,-5,-8,-9,-4,-8,-7,-17,-1,-48,-47,-24,-29,-2,-4,-22,-23,-58,-28,-33,-43,-3,-41,-34,-24,-15,-7,-23,-17,-5,-3,1,1,15,4,6,5,15,10,15,2,3,6,3,4,1,1,-3,-4,-3,-8,-14,-3,-2,-9,-10,-16,-18,-57,-16,-37,-3,-48,-9,-5,-15,-36,-22,-20,-10,-22,-33,-1,-6,-9,-13,-20,-14,-16,-9,-3,-27,-24,-26,-9,-19,-14,-3,0,-38,-4,-3,-27,-6,-6,-9,-14,-12,-2,-1,-5,-49,-2,-4,0,-3,-57,-1,-2,-41,-16,-12,-14,-3,-1,-8,-1,-2,-12,-3,-9,-9,-2,-15,-7,-3,-1,-26,-19,-1,-2,-19,-1,-9,-3,-3,-1,0,-1,-6,-9,-3,-9,0,-3,-4,-10,-18,-6,-3,-8,-5,0,1,0,2,2,3,15,10,2,6,13,3,37,1,0,7,23,17,27,0,13,6,34,20,32,7,4,5,3,16,77,11,10,17,6,61,16,67,7,28,49,38,38,17,20,38,31,34,11,4,29,20,16,14,29,44,34,3,4,1,27,39,5,29,14,33,1,19,22,8,8,46,13,20,28,22,11,29,6,14,93,62,51,0,3,6,6,4,75,17,69,26,27,23,4,1,6,33,5,18,4,11,21,17,33,45,19,14,27,10,26,19,25,59,46,20,30,21,9,22,23,35,10,5,26,19,19,10,1,16,11,9,19,4,22,9,14,16,14,24,24,41,63,49,19,20,19,25,46,1,5,27,16,34,3,28,10,35,25,46,16,14,11,45,49,54,61,39,70,37,52,119,29,12,35,36,11,39,56,35,45,31,11,9,46,174,68,16,136,51,33,12,39,46,15,12,9,6,18,18,23,6,4,0,0,0,-1,-3,-3,-8,-12,-4,-11,-12,-7,-1,-1,3,6,3,1,1,18,29,2,0,16,13,16,4,0,-2,-2,-6,-8,-3,-2,-4,-3,-7,-16,-22,-3,-13,-25,-18,-15,-7,-18,-31,-16,-36,-86,-11,-25,-37,-41,-8,-14,-45,-6,-37,-59,-10,-54,-17,-28,-17,-41,-31,-4,0,-41,-20,-34,-4,-1,-29,-55,-22,-10,-52,-29,-7,-104,-44,-48,-18,-25,-72,-19,-20,-8,-41,-5,-32,-7,-32,-45,-33,-6,-2,-2,-36,-42,-9,-47,-51,-72,-38,-7,-207,-48,-77,-106,-90,-29,-2,-25,-48,-35,-58,-29,-33,-38,-3,-16,-75,-8,-6,-51,-47,-2,-25,-35,-35,-22,-22,-11,-43,-27,-57,-11,-16,-41,-25,-21,-8,-15,-5,-34,-6,-92,-4,-5,-3,-51,-55,-36,-13,-21,-3,-15,-32,-15,-25,-11,-26,-19,-9,-17,-26,-35,-3,-2,-31,-64,-12,-1,-14,-26,-5,-34,-28,-46,-21,-14,-12,-10,-55,-5,-17,-7,-17,-17,-8,-26,-5,-27,-17,-17,-15,-10,-52,-45,-66,-43,-32,-56,-59,-60,-50,-43,-31,-52,-49,-51,-10,-11,-25,-34,-19,-12,-1,-13,-8,-1,-14,-5,-19,-29,-28,-5,-28,-29,-18,-21,-51,-3,-3,-39,-53,-4,-61,-10,-27,-4,-38,-56,-63,-5,-13,-21,-9,-41,-5,-70,-65,-62,-44,-65,-36,-43,-5,-24,-132,-8,-43,-38,-27,-19,-4,-17,-4,-3,-11,-10,-22,-11,-20,-12,-2,-31,-60,-20,-126,-4,-100,-19,-20,-45,-27,-10,-17,-30,-24,-8,-15,-41,-25,-2,-28,-42,-1,-25,-21,-13,-14,-13,-14,-6,-2,0,6,8,4,2,14,11,1,22,38,8,13,18,12,8,7,9,21,2,2,2,0,0,-10,-9,-12,-7,-3,-8,-22,-28,-18,-2,-1,-25,-39,-32,-6,-38,-38,-53,-129,-96,-24,-135,-120,-115,-42,-54,-48,-345,-49,-81,-43,-25,-23,-33,-7,-15,-34,-10,-25,-43,-40,-21,-27,-31,-16,-25,-39,-8,-114,-8,-29,-18,-9,-25,-39,-51,-10,-16,-2,-36,-39,-40,-8,-21,-3,-39,-1,-3,-14,-6,-56,-33,-39,-41,-1,-16,-20,-25,-22,-2,-23,-29,-90,-31,-27,-18,-14,-15,-11,-25,-15,-20,-53,-27,-24,-24,-15,-5,-30,-48,-16,-26,-8,-82,-7,-131,-51,-20,-2,-7,-10,-17,-2,-7,-5,-4,0,5,4,23,2,14,28,22,6,24,55,5,17,40,42,26,59,142,23,33,13,22,18,12,21,25,14,34,12,23,46,14,34,6,22,25,20,24,21,24,21,20,6,17,72,9,63,25,25,76,7,14,2,82,6,37,92,56,7,94,6,38,27,20,28,98,14,15,9,24,32,71,36,15,1,25,13,36,17,16,28,18,19,13,3,22,28,22,31,36,27,16,26,9,43,25,1,11,0,5,2,71,13,7,15,16,24,30,67,11,132,19,31,10,4,23,33,16,30,26,11,13,4,19,3,41,9,5,13,5,3,-3,0,0,6,6,10,10,3,41,32,6,8,4,8,3,6,9,41,26,66,1,4,14,39,30,1,5,1,10,39,35,18,11,25,19,5,34,140,52,6,23,30,15,34,5,2,35,53,29,45,11,39,5,1,3,6,9,17,4,2,1,3,2,7,12,9,24,8,4,23,30,28,27,92,45,2,54,30,10,34,84,46,20,9,20,12,25,8,73,50,33,32,7,53,90,14,70,10,62,26,28,20,15,6,21,40,52,12,78,10,34,87,75,10,41,23,35,28,22,22,7,8,21,16,7,12,16,7,9,5,11,13,47,49,30,16,17,19,22,24,15,47,89,28,69,10,62,22,6,43,39,23,29,20,16,22,39,9,18,2,21,21,6,5,31,33,45,12,31,10,45,8,37,34,92,68,1,14,8,50,28,61,32,45,3,38,12,16,18,47,40,25,105,23,22,92,30,30,32,100,14,7,94,15,25,21,15,3,10,8,5,7,15,4,8,11,13,19,18,16,10,86,70,37,27,11,29,11,8,22,5,12,6,15,65,4,2,13,6,10,13,28,20,68,36,12,30,21,16,17,8,11,3,3,5,7,10,6,10,8,29,15,19,26,53,20,6,17,24,17,14,24,14,13,41,46,43,18,39,21,28,30,8,33,27,20,64,28,35,8,30,53,14,18,16,21,9,30,20,16,8,31,18,11,18,10,45,2,18,13,23,16,42,28,4,5,28,27,20,39,32,27,107,10,93,5,41,4,4,25,21,11,28,30,4,2,18,15,34,27,31,24,11,7,22,47,53,30,105,18,6,17,45,28,39,21,27,16,60,29,14,44,1,24,8,7,5,16,17,24,29,33,20,4,8,33,32,7,8,55,49,60,42,103,5,72,28,35,46,14,3,48,33,6,55,28,6,39,22,21,33,25,24,28,116,103,13,90,74,68,22,29,25,15,119,9,15,36,5,101,14,8,23,52,41,16,7,45,37,93,32,9,17,35,29,16,70,33,42,36,27,11,69,27,14,5,38,0,2,0,13,14,12,17,25,46,14,23,58,13,9,45,62,20,36,18,17,18,78,32,36,11,17,14,3,15,7,10,14,9,10,4,12,18,14,23,19,48,52,14,96,14,62,25,96,104,35,40,152,105,30,53,21,81,9,40,1,42,39,35,70,5,24,27,16,15,29,36,32,22,11,5,37,12,27,16,60,63,22,9,12,33,4,14,9,12,15,76,11,29,4,35,59,54,22,17,10,14,7,19,33,2,15,23,7,1,5,2,-1,-1,0,-5,0,5,4,16,11,9,3,12,10,7,22,22,30,59,7,21,8,76,70,24,32,11,45,19,17,39,39,5,20,67,10,6,97,106,6,140,33,46,79,56,53,24,7,30,2,21,19,28,12,4,19,41,18,32,34,2,49,53,41,37,33,6,54,195,40,71,51,121,44,6,53,36,48,12,19,28,36,7,14,6,13,3,3,26,20,13,10,11,2,7,38,30,11,37,27,5,13,7,34,29,24,8,27,23,27,65,91,54,68,22,22,41,11,80,11,9,16,74,56,6,33,79,10,9,20,22,73,5,9,18,5,3,26,25,20,33,30,43,53,4,92,69,4,8,4,15,14,20,29,5,15,35,18,-1,-1,-10,-26,-15,-13,-3,0,0,4,1,14,9,11,32,19,22,79,19,6,9,57,42,18,22,4,5,13,16,2,22,17,12,2,3,10,15,0,7,2,18,8,16,0,-1,3,1,8,2,0,2,5,12,11,62,29,9,56,22,43,7,23,1,26,3,37,12,12,12,21,19,15,3,4,3,2,9,9,7,5,19,22,26,23,15,18,36,23,27,52,11,101,39,14,56,20,7,15,186,2,8,26,16,38,29,76,75,28,18,8,32,36,69,14,15,43,82,43,37,64,84,73,93,51,39,51,32,84,7,39,21,22,11,14,50,13,11,3,44,16,57,66,3,51,5,14,3,11,8,65,7,16,15,13,129,22,18,62,3,36,2,51,4,30,51,50,12,20,10,47,2,10,8,31,2,23,16,22,7,21,37,36,22,18,38,41,31,19,26,22,47,10,45,28,15,29,23,22,7,49,70,28,50,64,137,36,17,48,34,7,73,18,22,5,18,63,71,12,24,47,23,33,16,66,41,66,60,13,41,9,21,27,10,90,19,13,21,28,30,96,51,92,27,135,97,203]
    }
  ]
}