{
  "code":99914,
  "name":"長崎電軌３系統",
  "color":"#FF0000",
  "station_list":[
    {"code":9991301,"id":"ad28ab","name":"赤迫","name_kana":"あかさこ","lat":32.793732,"lng":129.857948,"prefecture":42,"numbering":[{"index":"11"}],"lines":[99913,99914],"attr":"heat","postal_code":"852-8155","address":"長崎市中園町"},
    {"code":9991302,"id":"3430eb","name":"住吉(長崎)","name_kana":"すみよし","lat":32.792073,"lng":129.859836,"prefecture":42,"numbering":[{"index":"12"}],"lines":[99913,99914],"attr":"heat","postal_code":"852-8154","address":"長崎市住吉町"},
    {"code":9991303,"id":"dc7b3b","name":"昭和町通り","name_kana":"しょうわまちどおり","lat":32.79063,"lng":129.860694,"prefecture":42,"numbering":[{"index":"13"}],"lines":[99913,99914],"attr":"heat","postal_code":"852-8155","address":"長崎県長崎市中園町"},
    {"code":9991304,"id":"956edf","name":"千歳町(長崎)","name_kana":"ちとせまち","lat":32.78962,"lng":129.860952,"prefecture":42,"numbering":[{"index":"13"}],"lines":[99913,99914],"attr":"heat","postal_code":"852-8137","address":"長崎市若葉町"},
    {"code":9991305,"id":"eceec5","name":"若葉町","name_kana":"わかばまち","lat":32.787744,"lng":129.861596,"prefecture":42,"numbering":[{"index":"14"}],"lines":[99913,99914],"attr":"heat","postal_code":"852-8137","address":"長崎市若葉町"},
    {"code":9991306,"id":"ab5c56","name":"長崎大学","name_kana":"ながさきだいがく","lat":32.785759,"lng":129.862282,"prefecture":42,"numbering":[{"index":"15"}],"lines":[99913,99914],"attr":"heat","postal_code":"852-8137","address":"長崎市若葉町"},
    {"code":9991307,"id":"cc8374","name":"岩屋橋","name_kana":"いわやばし","lat":32.781935,"lng":129.862282,"prefecture":42,"numbering":[{"index":"16"}],"lines":[99913,99914],"attr":"heat","postal_code":"852-8134","address":"長崎市大橋町"},
    {"code":9991308,"id":"bdb718","name":"浦上車庫","name_kana":"うらかみしゃこ","lat":32.77968,"lng":129.861381,"prefecture":42,"numbering":[{"index":"17"}],"lines":[99913,99914],"attr":"heat","postal_code":"852-8134","address":"長崎市大橋町"},
    {"code":9991309,"id":"11408e","name":"大橋(長崎)","name_kana":"おおはし","lat":32.777713,"lng":129.861467,"prefecture":42,"numbering":[{"index":"18"}],"lines":[99913,99914],"attr":"heat","postal_code":"852-8118","address":"長崎市松山町"},
    {"code":9991310,"id":"54bcbc","name":"平和公園","name_kana":"へいわこうえん","lat":32.773437,"lng":129.862132,"prefecture":42,"numbering":[{"index":"19"}],"lines":[99913,99914],"attr":"heat","postal_code":"852-8118","address":"長崎市松山町"},
    {"code":9991311,"id":"7c4245","name":"原爆資料館","name_kana":"げんばくしりょうかん","lat":32.770551,"lng":129.863784,"prefecture":42,"numbering":[{"index":"20"}],"lines":[99913,99914],"attr":"heat","postal_code":"852-8107","address":"長崎市浜口町"},
    {"code":9991312,"id":"1b6142","name":"大学病院","name_kana":"だいがくびょういん","lat":32.769017,"lng":129.864171,"prefecture":42,"numbering":[{"index":"21"}],"lines":[99913,99914],"attr":"heat","postal_code":"852-8107","address":"長崎市浜口町"},
    {"code":9991313,"id":"7b747c","name":"浦上駅前","name_kana":"うらかみえきまえ","lat":32.765481,"lng":129.864171,"prefecture":42,"numbering":[{"index":"22"}],"lines":[99913,99914],"attr":"heat","postal_code":"852-8106","address":"長崎市岩川町"},
    {"code":9991314,"id":"a995ff","name":"茂里町","name_kana":"もりまち","lat":32.763965,"lng":129.864557,"prefecture":42,"numbering":[{"index":"23"}],"lines":[99913,99914],"attr":"eco","postal_code":"852-8105","address":"長崎市目覚町"},
    {"code":9991315,"id":"073277","name":"銭座町","name_kana":"ぜんざまち","lat":32.761475,"lng":129.865801,"prefecture":42,"numbering":[{"index":"24"}],"lines":[99913,99914],"attr":"eco","postal_code":"850-0047","address":"長崎市銭座町"},
    {"code":9991316,"id":"9f2bb3","name":"宝町(長崎)","name_kana":"たからまち","lat":32.75783,"lng":129.868913,"prefecture":42,"numbering":[{"index":"25"}],"lines":[99913,99914],"attr":"eco","postal_code":"850-0045","address":"長崎市宝町"},
    {"code":9991317,"id":"142ac3","name":"八千代町","name_kana":"やちよまち","lat":32.754979,"lng":129.870436,"prefecture":42,"numbering":[{"index":"26"}],"lines":[99913,99914],"attr":"cool","postal_code":"850-0043","address":"長崎市八千代町"},
    {"code":9991318,"id":"9d68a7","name":"長崎駅前","name_kana":"ながさきえきまえ","lat":32.75238,"lng":129.871874,"prefecture":42,"numbering":[{"index":"27"}],"lines":[99913,99914],"attr":"eco","postal_code":"850-0057","address":"長崎市大黒町"},
    {"code":9991406,"id":"174977","name":"桜町(長崎)","name_kana":"さくらまち","lat":32.750792,"lng":129.8755,"prefecture":42,"numbering":[{"index":"44"}],"lines":[99914],"attr":"eco","postal_code":"850-0031","address":"長崎市桜町"},
    {"code":9991405,"id":"0657b6","name":"市民会館","name_kana":"しみんかいかん","lat":32.74942,"lng":129.88065,"prefecture":42,"numbering":[{"index":"45"}],"lines":[99914,99915,99916],"attr":"eco","postal_code":"850-0874","address":"長崎市魚の町"},
    {"code":9991404,"id":"d267b3","name":"諏訪神社","name_kana":"すわじんじゃ","lat":32.752596,"lng":129.884083,"prefecture":42,"numbering":[{"index":"39"}],"lines":[99914,99915,99916],"attr":"eco","postal_code":"850-0023","address":"長崎市出来大工町"},
    {"code":9991403,"id":"320f45","name":"新大工町","name_kana":"しんだいくまち","lat":32.75238,"lng":129.886701,"prefecture":42,"numbering":[{"index":"40"}],"lines":[99914,99915,99916],"attr":"cool","postal_code":"850-0017","address":"長崎市新大工町"},
    {"code":9991402,"id":"80cc1b","name":"新中川町","name_kana":"しんなかがわまち","lat":32.752362,"lng":129.890435,"prefecture":42,"numbering":[{"index":"41"}],"lines":[99914,99915,99916],"attr":"cool","postal_code":"850-0014","address":"長崎市新中川町"},
    {"code":9991401,"id":"3af478","name":"蛍茶屋","name_kana":"ほたるぢゃや","lat":32.751135,"lng":129.894254,"prefecture":42,"numbering":[{"index":"43"}],"lines":[99914,99915,99916],"attr":"cool","postal_code":"850-0013","address":"長崎市中川町２"}
  ],
  "north":32.79408,
  "south":32.74942,
  "east":129.89388,
  "west":129.85716,
  "polyline_list":[
    {
      "start":"蛍茶屋",
      "end":"赤迫",
      "lat":32.75128,
      "lng":129.89388,
      "delta_lat":[0,23,42,6,3,17,5,4,-1,-6,-2,0,2,24,13,2,-4,-7,-50,-82,-86,-89,0,7,7,33,36,24,12,4,-2,2,2,5,9,13,16,20,23,21,10,14,15,16,53,18,18,18,26,19,23,26,61,87,38,45,27,22,15,18,22,29,33,11,10,11,21,36,20,9,14,15,15,20,17,21,62,47,8,66,97,49,44,51,53,47,319,46,27,27,12,8,12,27,13,53,9,5,29,23,68,167,66,124,114,72,35,39,17,23,14,26,18,22,12,13,107,21,15,14,15,34,34,119,100,47,13,11,9,18,36,72,31,109,86,45,43,42,43,41,32,30,0,42,18,16,20,19,15,17,14,17,14,11,7,20],
      "delta_lng":[0,-48,-82,-17,-15,-144,-55,-64,-124,-166,-59,-46,-14,-101,-54,-10,-11,-10,-45,-76,-80,-82,-21,-10,-10,-51,-61,-57,-39,-45,-61,-75,-54,-43,-46,-53,-58,-44,-47,-36,-18,-23,-21,-16,-28,-11,-16,-23,-31,-16,-12,-9,-16,-25,-13,-17,-12,-9,-10,-14,-21,-31,-41,-14,-13,-22,-40,-76,-32,-11,-13,-14,-9,-10,-5,-2,-7,-6,-4,-35,-49,-23,-14,-16,-11,-3,-3,-1,0,0,-1,-6,-10,-27,-16,-88,-7,-5,-7,-4,-9,-22,-10,-20,-19,-11,-6,-6,-2,-1,1,6,5,12,6,6,48,11,6,4,2,0,1,2,4,0,0,-1,-3,-6,-12,-24,-9,-36,-29,-14,-17,-15,-17,-23,-19,-18,0,-29,-12,-15,-17,-20,-20,-24,-20,-24,-25,-18,-16,-46]
    }
  ]
}