{
  "code":99916,
  "name":"長崎電軌５系統",
  "color":"#005A52",
  "station_list":[
    {"code":9991401,"id":"3af478","name":"蛍茶屋","name_kana":"ほたるぢゃや","lat":32.751135,"lng":129.894254,"prefecture":42,"numbering":[{"index":"43"}],"lines":[99914,99915,99916],"attr":"cool","postal_code":"850-0013","address":"長崎市中川町２"},
    {"code":9991402,"id":"80cc1b","name":"新中川町","name_kana":"しんなかがわまち","lat":32.752362,"lng":129.890435,"prefecture":42,"numbering":[{"index":"41"}],"lines":[99914,99915,99916],"attr":"cool","postal_code":"850-0014","address":"長崎市新中川町"},
    {"code":9991403,"id":"320f45","name":"新大工町","name_kana":"しんだいくまち","lat":32.75238,"lng":129.886701,"prefecture":42,"numbering":[{"index":"40"}],"lines":[99914,99915,99916],"attr":"cool","postal_code":"850-0017","address":"長崎市新大工町"},
    {"code":9991404,"id":"d267b3","name":"諏訪神社","name_kana":"すわじんじゃ","lat":32.752596,"lng":129.884083,"prefecture":42,"numbering":[{"index":"39"}],"lines":[99914,99915,99916],"attr":"eco","postal_code":"850-0023","address":"長崎市出来大工町"},
    {"code":9991405,"id":"0657b6","name":"市民会館","name_kana":"しみんかいかん","lat":32.74942,"lng":129.88065,"prefecture":42,"numbering":[{"index":"38"}],"lines":[99914,99915,99916],"attr":"eco","postal_code":"850-0874","address":"長崎市魚の町"},
    {"code":9991506,"id":"0d063f","name":"めがね橋","name_kana":"めがねばし","lat":32.746785,"lng":129.878204,"prefecture":42,"numbering":[{"index":"37"}],"lines":[99915,99916],"attr":"cool","postal_code":"850-0875","address":"長崎市栄町"},
    {"code":9991511,"id":"dd6d32","name":"浜町アーケード","name_kana":"はまのまちあーけーど","lat":32.74476168,"lng":129.8768124,"prefecture":42,"numbering":[{"index":"36"}],"lines":[99915,99916],"attr":"cool","postal_code":"850-0853","address":"長崎市浜町"},
    {"code":9991323,"id":"a74a70","name":"西浜町","name_kana":"にしはまのまち","lat":32.743735,"lng":129.876015,"prefecture":42,"numbering":[{"index":"32"}],"lines":[99913,99916],"attr":"cool","postal_code":"850-0853","address":"長崎市浜町"},
    {"code":9991322,"id":"1d0e91","name":"新地中華街","name_kana":"しんちちゅうかがい","lat":32.742869,"lng":129.874942,"prefecture":42,"numbering":[{"index":"31"}],"lines":[99913,99916],"attr":"cool","postal_code":"850-0841","address":"長崎市銅座町"},
    {"code":9991609,"id":"ef56b1","name":"メディカルセンター","name_kana":"めでぃかるせんたー","lat":32.740523,"lng":129.87241,"prefecture":42,"numbering":[{"index":"47"}],"lines":[99916],"attr":"cool","postal_code":"850-0842","address":"長崎市新地町"},
    {"code":9991610,"id":"1f2792","name":"大浦海岸通り","name_kana":"おおうらかいがんどおり","lat":32.737861,"lng":129.870608,"prefecture":42,"numbering":[{"index":"48"}],"lines":[99916],"attr":"heat","postal_code":"850-0918","address":"長崎県長崎市大浦町"},
    {"code":9991611,"id":"e38b03","name":"大浦天主堂","name_kana":"おおうらてんしゅどう","lat":32.736408,"lng":129.87078,"prefecture":42,"numbering":[{"index":"50"}],"lines":[99916],"attr":"heat","postal_code":"850-0918","address":"長崎市大浦町"},
    {"code":9991612,"id":"97b404","name":"石橋(長崎)","name_kana":"いしばし","lat":32.734269,"lng":129.872432,"prefecture":42,"numbering":[{"index":"51"}],"lines":[99916],"attr":"heat","postal_code":"850-0918","address":"長崎市大浦町"}
  ],
  "north":32.7526,
  "south":32.7343,
  "east":129.89388,
  "west":129.87026,
  "polyline_list":[
    {
      "start":"石橋",
      "end":"蛍茶屋",
      "lat":32.7343,
      "lng":129.87255,
      "delta_lat":[0,37,79,83,74,7,6,5,7,7,33,40,59,53,9,9,11,5,40,29,42,17,6,5,6,9,9,7,9,24,34,53,23,35,24,20,13,27,11,6,5,7,31,42,36,25,18,8,10,26,21,15,12,18,29,22,56,101,38,3,17,89,86,82,50,7,4,-2,-13,-24,-2,0,2,6,1,-4,-5,-17,-3,-6,-42,-23],
      "delta_lng":[0,-30,-65,-64,-61,-5,-3,0,2,5,23,27,38,34,9,9,13,5,26,18,27,12,5,7,12,22,21,11,14,21,28,44,18,33,25,25,24,40,12,5,5,4,16,24,22,20,21,7,7,5,6,6,9,23,37,26,54,96,36,3,17,82,80,76,45,10,11,10,54,101,14,46,59,166,124,64,55,144,15,17,82,48]
    }
  ]
}