{
  "code":99925,
  "name":"鹿児島市電１系統",
  "color":"#4243BE",
  "symbol":"I",
  "station_list":[
    {"code":9992501,"id":"be9c0d","name":"鹿児島駅前","name_kana":"かごしまえきまえ","lat":31.601264,"lng":130.562414,"prefecture":46,"numbering":[{"index":"01"}],"lines":[99925,99926],"attr":"eco","postal_code":"892-0812","address":"鹿児島市浜町"},
    {"code":9992502,"id":"7d1666","name":"桜島桟橋通","name_kana":"さくらじまさんばしどおり","lat":31.599976,"lng":130.560976,"prefecture":46,"numbering":[{"index":"02"}],"lines":[99925,99926],"attr":"eco","postal_code":"892-0817","address":"鹿児島市小川町"},
    {"code":9992503,"id":"403366","name":"水族館口","name_kana":"すいぞくかんぐち","lat":31.59898,"lng":130.559539,"prefecture":46,"numbering":[{"index":"03"}],"lines":[99925,99926],"attr":"eco","postal_code":"892-0816","address":"鹿児島市山下町"},
    {"code":9992504,"id":"954a6e","name":"市役所前(鹿児島)","name_kana":"しやくしょまえ","lat":31.597179,"lng":130.558015,"prefecture":46,"numbering":[{"index":"04"}],"lines":[99925,99926],"attr":"eco","postal_code":"892-0816","address":"鹿児島市山下町"},
    {"code":9992505,"id":"c84648","name":"朝日通","name_kana":"あさひどおり","lat":31.594374,"lng":130.557286,"prefecture":46,"numbering":[{"index":"05"}],"lines":[99925,99926],"attr":"eco","postal_code":"892-0821","address":"鹿児島市名山町"},
    {"code":9992506,"id":"d33a96","name":"いづろ通","name_kana":"いづろどおり","lat":31.591824,"lng":130.557672,"prefecture":46,"numbering":[{"index":"06"}],"lines":[99925,99926],"attr":"eco","postal_code":"892-0828","address":"鹿児島市金生町"},
    {"code":9992507,"id":"b5760a","name":"天文館通","name_kana":"てんもんかんどおり","lat":31.590691,"lng":130.555075,"prefecture":46,"numbering":[{"index":"07"}],"lines":[99925,99926],"attr":"eco","postal_code":"892-0843","address":"鹿児島市千日町"},
    {"code":9992508,"id":"7a1dcf","name":"高見馬場","name_kana":"たかみばば","lat":31.588726,"lng":130.550977,"prefecture":46,"numbering":[{"index":"08"}],"lines":[99925,99926],"attr":"eco","postal_code":"892-0844","address":"鹿児島市山之口町"},
    {"code":9992509,"id":"d39dc2","name":"甲東中学校前","name_kana":"こうとうちゅうがっこうまえ","lat":31.585738,"lng":130.553058,"prefecture":46,"numbering":[{"index":"09"}],"lines":[99925],"attr":"eco","postal_code":"892-0845","address":"鹿児島市樋之口町"},
    {"code":9992510,"id":"b71025","name":"新屋敷","name_kana":"しんやしき","lat":31.583855,"lng":130.553724,"prefecture":46,"numbering":[{"index":"10"}],"lines":[99925],"attr":"eco","postal_code":"892-0846","address":"鹿児島市加治屋町"},
    {"code":9992511,"id":"3e27ce","name":"武之橋","name_kana":"たけのはし","lat":31.57976,"lng":130.554088,"prefecture":46,"numbering":[{"index":"11"}],"lines":[99925],"attr":"eco","postal_code":"890-0056","address":"鹿児島市下荒田１"},
    {"code":9992512,"id":"78b6b3","name":"二中通","name_kana":"にちゅうどおり","lat":31.57711,"lng":130.553702,"prefecture":46,"numbering":[{"index":"12"}],"lines":[99925],"attr":"eco","postal_code":"890-0056","address":"鹿児島県鹿児島市高麗町"},
    {"code":9992513,"id":"544481","name":"荒田八幡","name_kana":"あらたはちまん","lat":31.573618,"lng":130.553015,"prefecture":46,"numbering":[{"index":"13"}],"lines":[99925],"attr":"eco","postal_code":"890-0056","address":"鹿児島市下荒田３"},
    {"code":9992514,"id":"aae5e8","name":"騎射場","name_kana":"きしゃば","lat":31.569102,"lng":130.5519,"prefecture":46,"numbering":[{"index":"14"}],"lines":[99925],"attr":"heat","postal_code":"890-0056","address":"鹿児島市下荒田３"},
    {"code":9992515,"id":"3f2c1f","name":"鴨池","name_kana":"かもいけ","lat":31.564129,"lng":130.549968,"prefecture":46,"numbering":[{"index":"15"}],"lines":[99925],"attr":"heat","postal_code":"890-0063","address":"鹿児島市鴨池２"},
    {"code":9992516,"id":"3faba9","name":"郡元(鹿児島市交通局)","name_kana":"こおりもと","lat":31.56292504,"lng":130.5493878,"prefecture":46,"numbering":[{"index":"16"}],"lines":[99925,99926],"attr":"heat","postal_code":"890-0063","address":"鹿児島県鹿児島市鴨池一丁目"},
    {"code":9992517,"id":"b14521","name":"涙橋","name_kana":"なみだばし","lat":31.559266,"lng":130.546707,"prefecture":46,"numbering":[{"index":"17"}],"lines":[99925],"attr":"heat","postal_code":"890-0065","address":"鹿児島市郡元２"},
    {"code":9992518,"id":"5050e5","name":"南鹿児島駅前","name_kana":"みなみかごしまえきまえ","lat":31.555371,"lng":130.544196,"prefecture":46,"numbering":[{"index":"18"}],"lines":[99925],"attr":"heat","postal_code":"890-0069","address":"鹿児島市南郡元町"},
    {"code":9992519,"id":"a559c7","name":"二軒茶屋(鹿児島)","name_kana":"にけんぢゃや","lat":31.55005,"lng":130.541192,"prefecture":46,"numbering":[{"index":"19"}],"lines":[99925],"attr":"heat","postal_code":"890-0073","address":"鹿児島市宇宿１"},
    {"code":9992520,"id":"5d46b2","name":"宇宿一丁目","name_kana":"うすきいっちょうめ","lat":31.546439,"lng":130.539068,"prefecture":46,"numbering":[{"index":"20"}],"lines":[99925],"attr":"heat","postal_code":"890-0073","address":"鹿児島市宇宿１"},
    {"code":9992521,"id":"132547","name":"脇田","name_kana":"わきだ","lat":31.54418,"lng":130.53763,"prefecture":46,"numbering":[{"index":"21"}],"lines":[99925],"attr":"cool","postal_code":"890-0073","address":"鹿児島市宇宿３"},
    {"code":9992522,"id":"d44440","name":"笹貫","name_kana":"ささぬき","lat":31.539636,"lng":130.534047,"prefecture":46,"numbering":[{"index":"22"}],"lines":[99925],"attr":"cool","postal_code":"891-0114","address":"鹿児島市小松原１"},
    {"code":9992523,"id":"2255f2","name":"上塩屋","name_kana":"かみしおや","lat":31.534762,"lng":130.528811,"prefecture":46,"numbering":[{"index":"23"}],"lines":[99925],"attr":"cool","postal_code":"891-0114","address":"鹿児島市小松原１"},
    {"code":9992524,"id":"f15b54","name":"谷山(鹿児島市交通局)","name_kana":"たにやま","lat":31.530108,"lng":130.523404,"prefecture":46,"numbering":[{"index":"24"}],"lines":[99925],"attr":"cool","postal_code":"891-0141","address":"鹿児島県鹿児島市谷山中央1丁目4127"}
  ],
  "north":31.60126,
  "south":31.53008,
  "east":130.56262,
  "west":130.52329,
  "polyline_list":[
    {
      "start":"天文館通",
      "end":"鹿児島駅前",
      "lat":31.58879,
      "lng":130.55119,
      "delta_lat":[0,51,53,30,28,21,6,26,6,24,24,16,7,6,8,7,26,12,46,48,58,19,34,4,14,31,13,16,14,19,12,25,13,11,34,39,27,39,6,13,9,54,23,34,5,31,2,38,27,27,26,18,26,13,7,6,2,13],
      "delta_lng":[0,105,113,60,56,43,13,60,13,64,65,46,13,5,1,1,-10,-6,-10,-12,-9,-2,-3,-1,-1,1,0,1,3,7,4,9,4,5,14,17,14,23,6,9,7,49,24,36,5,37,2,44,36,38,33,21,17,5,4,5,5,54]
    },
    {
      "start":"谷山",
      "end":"天文館通",
      "lat":31.53008,
      "lng":130.52329,
      "delta_lat":[0,17,199,61,75,111,71,35,82,119,110,41,31,11,132,101,67,29,121,13,42,12,140,37,153,154,16,52,107,116,74,39,70,59,157,67,24,14,10,9,11,7,13,23,20,35,30,5,42,20,4,73,17,33,78,27,5,12,9,23,13,13,44,25,42,85,15,35,4,10,9,44,6,66,24,70,65,20,70,10,35,10,6,40,41,50,59,52,90,30,30,4,11,93,94,24,113,5,34,6,125,31,40,23,107,56,53,55,47,27,18,77,17,31,23,35,17,19,5,37,16,50,3,42,48,48,44,15],
      "delta_lng":[0,42,219,68,81,124,77,39,87,134,118,44,32,9,111,79,53,20,95,10,26,7,89,23,99,98,9,34,68,65,35,19,34,24,59,31,19,16,17,14,22,9,13,15,16,23,22,2,30,14,3,51,12,23,54,19,4,9,4,20,7,9,25,13,19,35,6,14,2,2,4,17,2,26,9,27,23,7,17,2,9,4,1,10,10,11,15,13,23,8,8,1,4,23,25,5,13,1,4,0,14,4,5,2,12,3,-9,-9,-8,-6,-4,-17,-4,-9,-7,-16,-10,-12,-4,-27,-11,-38,-1,-29,-34,-32,-18,8]
    }
  ]
}