{
  "code":99922,
  "name":"熊本市電Ａ系統",
  "station_list":[
    {"code":9992201,"id":"c2aa17","name":"田崎橋","name_kana":"たさきばし","lat":32.785398,"lng":130.68866,"prefecture":43,"numbering":[{"index":"1"}],"lines":[99922],"attr":"eco","postal_code":"860-0047","address":"熊本市春日２丁目１０-５４地先","next":[9992202,1192302,1190351,101007],"voronoi":{"lat":32.783079,"lng":130.695995,"delta_lat":[0,-10868,13047,1965],"delta_lng":[0,-2797,-52987,46490]}},
    {"code":9992202,"id":"3e1d5c","name":"二本木口","name_kana":"にほんぎぐち","lat":32.786986,"lng":130.689368,"prefecture":43,"numbering":[{"index":"2"}],"lines":[99922],"attr":"eco","postal_code":"860-0047","address":"熊本市春日２丁目９-９地先","next":[9992203,1192302,9992201,101007,9992204],"voronoi":{"lat":32.783079,"lng":130.695995,"delta_lat":[0,4144,1061,-570,-2271],"delta_lng":[0,-9294,2712,4988,2498]}},
    {"code":9992203,"id":"26e5c4","name":"熊本駅前","name_kana":"くまもとえきまえ","lat":32.789559,"lng":130.689662,"prefecture":43,"numbering":[{"index":"3"}],"lines":[99922],"attr":"eco","postal_code":"860-0047","address":"熊本市春日１丁目１６-１４地先","next":[9992202,9992307,101007,9992204],"voronoi":{"lat":32.799725,"lng":130.686607,"delta_lat":[0,629,-12069,-570],"delta_lng":[0,-848,3654,4988]}},
    {"code":9992204,"id":"cbf144","name":"祇園橋","name_kana":"ぎおんばし","lat":32.792794,"lng":130.694647,"prefecture":43,"numbering":[{"index":"4"}],"lines":[99922],"attr":"eco","postal_code":"860-0041","address":"熊本県熊本市中央区細工町五丁目","next":[1192302,9992206,9992307,9992205,9992203,9992202],"voronoi":{"lat":32.787702,"lng":130.69975,"delta_lat":[0,4548,5983,1492,-12010,-2271],"delta_lng":[0,-1332,-7785,-4025,7794,2498]}},
    {"code":9992205,"id":"0b1b27","name":"呉服町(熊本)","name_kana":"ごふくまち","lat":32.795753,"lng":130.696921,"prefecture":43,"numbering":[{"index":"5"}],"lines":[99922],"attr":"eco","postal_code":"860-0031","address":"熊本市魚屋町２丁目１３地先","next":[9992206,9992308,9992204,9992307],"voronoi":{"lat":32.798232,"lng":130.690633,"delta_lat":[0,-5983,4378,1083],"delta_lng":[0,7785,1011,-1888]}},
    {"code":9992206,"id":"0a1931","name":"河原町(熊本)","name_kana":"かわらまち","lat":32.794742,"lng":130.701299,"prefecture":43,"numbering":[{"index":"6"}],"lines":[99922],"attr":"eco","postal_code":"860-0023","address":"熊本市河原町７地先","next":[1192302,9992205,9992204,9992208,1192303,9992308,9992207],"voronoi":{"lat":32.796899,"lng":130.69994,"delta_lat":[0,-271,-4378,-4548,928,3435,2000],"delta_lng":[0,-512,-1011,1332,5457,3202,-2198]}},
    {"code":9992207,"id":"2f9e10","name":"慶徳校前","name_kana":"けいとくこうまえ","lat":32.797304,"lng":130.702457,"prefecture":43,"numbering":[{"index":"7"}],"lines":[99922],"attr":"eco","postal_code":"860-0017","address":"熊本市練兵町７４地先","next":[9992309,9992308,9992208,9992206],"voronoi":{"lat":32.796899,"lng":130.69994,"delta_lat":[0,906,419,-4159],"delta_lng":[0,493,3256,2521]}},
    {"code":9992208,"id":"fcd484","name":"辛島町","name_kana":"からしまちょう","lat":32.798891,"lng":130.705075,"prefecture":43,"numbering":[{"index":"8"}],"lines":[99922,99923],"attr":"eco","postal_code":"860-0803","address":"熊本市新市街７-１地先","next":[9992212,9992209,9992206,1192303,9992213,9992207,9992211,9992309],"voronoi":{"lat":32.800312,"lng":130.703623,"delta_lat":[0,-1012,-579,-4230,-850,-1576,2000,4159],"delta_lng":[0,5547,547,1976,46,-3330,-2198,-2521]}},
    {"code":9992209,"id":"d7d72d","name":"花畑町","name_kana":"はなばたちょう","lat":32.801128,"lng":130.705483,"prefecture":43,"numbering":[{"index":"9"}],"lines":[99922,99923],"attr":"eco","postal_code":"860-0806","address":"熊本市花畑町１２-１地先","next":[9992208,9992306,9992210,9992309,9992211],"voronoi":{"lat":32.799828,"lng":130.708898,"delta_lat":[0,5624,-2174,-2966,-1012],"delta_lng":[0,-6694,-725,2144,5547]}},
    {"code":9992210,"id":"c828bf","name":"熊本城・市役所前","name_kana":"くまもとじょう・しやくしょまえ","lat":32.802967,"lng":130.707028,"prefecture":43,"numbering":[{"index":"10"}],"lines":[99922,99923],"attr":"eco","postal_code":"860-0808","address":"熊本市手取本町１-１地先","next":[9992306,9992303,9992209,9991701,9992304,9992211],"voronoi":{"lat":32.805452,"lng":130.702203,"delta_lat":[0,1682,2083,1396,-2110,-8675],"delta_lng":[0,166,1523,1738,2032,1235]}},
    {"code":9992211,"id":"4dfd90","name":"通町筋","name_kana":"とおりちょうすじ","lat":32.803364,"lng":130.709817,"prefecture":43,"numbering":[{"index":"11"}],"lines":[99922,99923],"attr":"eco","postal_code":"860-0808","address":"熊本市手取本町４-５地先","next":[9992212,9992210,9992208,9991701,9992209],"voronoi":{"lat":32.79872,"lng":130.709717,"delta_lat":[0,7007,2775,-8675,-528],"delta_lng":[0,2485,-4539,1235,272]}},
    {"code":9992212,"id":"d65073","name":"水道町","name_kana":"すいどうちょう","lat":32.80239,"lng":130.712564,"prefecture":43,"numbering":[{"index":"12"}],"lines":[99922,99923],"attr":"eco","postal_code":"860-0808","address":"熊本市手取本町８地先","next":[9992208,9992213,9992211,9991701],"voronoi":{"lat":32.805728,"lng":130.712201,"delta_lat":[0,-7007,-4230,10712],"delta_lng":[0,-2485,1976,5757]}},
    {"code":9992213,"id":"2a17d1","name":"九品寺交差点","name_kana":"くほんじこうさてん","lat":32.799576,"lng":130.7178,"prefecture":43,"numbering":[{"index":"13"}],"lines":[99922,99923],"attr":"eco","postal_code":"862-0976","address":"熊本市九品寺１丁目２-１１地先","next":[9992214,1192305,9992212,9991702,9992208,1192303,9991701],"voronoi":{"lat":32.805203,"lng":130.71745,"delta_lat":[0,-10712,-850,-840,13261,3192,-15],"delta_lng":[0,-5757,46,1947,11820,694,-513]}},
    {"code":9992214,"id":"904a19","name":"交通局前","name_kana":"こうつうきょくまえ","lat":32.797664,"lng":130.719945,"prefecture":43,"numbering":[{"index":"14"}],"lines":[99922,99923],"attr":"heat","postal_code":"862-0976","address":"熊本市九品寺２丁目３地先","next":[9992215,9992213,1192303,1192305],"voronoi":{"lat":32.792801,"lng":130.713685,"delta_lat":[0,-3000,13330,2931],"delta_lng":[0,4483,7129,208]}},
    {"code":9992215,"id":"844b81","name":"味噌天神前","name_kana":"みそてんじんまえ","lat":32.795644,"lng":130.723722,"prefecture":43,"numbering":[{"index":"15"}],"lines":[99922,99923],"attr":"heat","postal_code":"862-0973","address":"熊本市大江本町６-６地先","next":[9992214,1192303,1192305,9992216,1192304],"voronoi":{"lat":32.7889,"lng":130.718946,"delta_lat":[0,900,13330,-6497,-827],"delta_lng":[0,-777,7129,1404,-526]}},
    {"code":9992216,"id":"7e89b9","name":"新水前寺駅前","name_kana":"しんすいぜんじえきまえ","lat":32.793516,"lng":130.727069,"prefecture":43,"numbering":[{"index":"16"}],"lines":[99922,99923],"attr":"heat","postal_code":"862-0949","address":"熊本市国府１丁目１１-２地先","next":[9992217,1192305,1192304,9992215],"voronoi":{"lat":32.795806,"lng":130.726175,"delta_lat":[0,-5024,3847,2004],"delta_lng":[0,658,2376,-2508]}},
    {"code":9992217,"id":"6447ba","name":"国府(熊本)","name_kana":"こくぶ","lat":32.792217,"lng":130.729172,"prefecture":43,"numbering":[{"index":"17"}],"lines":[99922,99923],"attr":"heat","postal_code":"862-0949","address":"熊本市国府１丁目２０-１地先","next":[9992218,1192304,9992216,1192303,1192305],"voronoi":{"lat":32.794629,"lng":130.729209,"delta_lat":[0,-3847,-9713,-321,13366],"delta_lng":[0,-2376,-3403,129,9401]}},
    {"code":9992218,"id":"da9ad1","name":"水前寺公園","name_kana":"すいぜんじこうえん","lat":32.789908,"lng":130.732455,"prefecture":43,"numbering":[{"index":"18"}],"lines":[99922,99923],"attr":"heat","postal_code":"862-0941","address":"熊本市出水１丁目６-１地先","next":[9992219,9992217,1192303,1192305],"voronoi":{"lat":32.794114,"lng":130.73296,"delta_lat":[0,-13366,-5085,20363],"delta_lng":[0,-9401,1157,13367]}},
    {"code":9992219,"id":"ca3262","name":"市立体育館前","name_kana":"しりつたいいくかんまえ","lat":32.788429,"lng":130.734708,"prefecture":43,"numbering":[{"index":"19"}],"lines":[99922,99923],"attr":"heat","postal_code":"862-0941","address":"熊本市出水１丁目８-５地先","next":[1192303,9992218,1192306,1192305,9992220],"voronoi":{"lat":32.798533,"lng":130.742462,"delta_lat":[0,-2506,-20363,-5347,27526],"delta_lng":[0,-4378,-13367,755,18966]}},
    {"code":9992220,"id":"d8bb60","name":"商業高校前","name_kana":"しょうぎょうこうこうまえ","lat":32.785398,"lng":130.739107,"prefecture":43,"numbering":[{"index":"20"}],"lines":[99922,99923],"attr":"heat","postal_code":"862-0955","address":"熊本市神水本町１-４４地先","next":[9992222,9992221,1192306,1192303,9992219],"voronoi":{"lat":32.770317,"lng":130.725472,"delta_lat":[0,-9407,28737,7991,205],"delta_lng":[0,82,18066,2301,-1483]}},
    {"code":9992221,"id":"c1d0cd","name":"八丁馬場","name_kana":"はっちょうばば","lat":32.783739,"lng":130.741746,"prefecture":43,"numbering":[{"index":"21"}],"lines":[99922,99923],"attr":"heat","postal_code":"862-0955","address":"熊本市神水本町１９-６地先","next":[1192303,1190342,9992223,9992222,9992220,9992224,1192302],"voronoi":{"lat":32.744773,"lng":130.724794,"delta_lat":[0,16137,28737,-23758,-23140,-15650,14793],"delta_lng":[0,759,18066,-623,-4580,-3899,-9560]}},
    {"code":9992222,"id":"533878","name":"神水交差点","name_kana":"くわみずこうさてん","lat":32.783649,"lng":130.74518,"prefecture":43,"numbering":[{"index":"22"}],"lines":[99922,99923],"attr":"cool","postal_code":"862-0955","address":"熊本市神水本町２１-２２地先","next":[9992223,9992220,9992221,1192306],"voronoi":{"lat":32.797638,"lng":130.74592,"delta_lat":[0,-7991,-23758,32363],"delta_lng":[0,-2301,-623,9711]}},
    {"code":9992223,"id":"0bd99b","name":"健軍校前","name_kana":"けんぐんこうまえ","lat":32.781917,"lng":130.750952,"prefecture":43,"numbering":[{"index":"23"}],"lines":[99922,99923],"attr":"cool","postal_code":"862-0911","address":"熊本市健軍４丁目１３-２地先","next":[9992222,9992224,9992221,1192306],"voronoi":{"lat":32.742749,"lng":130.738417,"delta_lat":[0,23140,32363,2049],"delta_lng":[0,4580,9711,7274]}},
    {"code":9992224,"id":"b195c3","name":"動植物園入口","name_kana":"どうしょくぶつえんいりぐち","lat":32.78051,"lng":130.754707,"prefecture":43,"numbering":[{"index":"24"}],"lines":[99922,99923],"attr":"cool","postal_code":"862-0908","address":"熊本市新生１丁目地先","next":[9992223,1190342,9992225,9992221,1192306],"voronoi":{"lat":32.723585,"lng":130.736244,"delta_lat":[0,3514,15650,57552,1537],"delta_lng":[0,-1726,3899,21565,3932]}},
    {"code":9992225,"id":"747490","name":"健軍交番前","name_kana":"けんぐんこうばんまえ","lat":32.779463,"lng":130.757668,"prefecture":43,"numbering":[{"index":"25"}],"lines":[99922,99923],"attr":"cool","postal_code":"862-0908","address":"熊本市新生１丁目９-７地先","next":[1192306,1190342,9992224,9992226],"voronoi":{"lat":32.715363,"lng":130.740017,"delta_lat":[0,8221,78253,1391],"delta_lng":[0,-3774,27670,2952]}},
    {"code":9992226,"id":"26708c","name":"健軍町","name_kana":"けんぐんまち","lat":32.778381,"lng":130.761209,"prefecture":43,"numbering":[{"index":"26"}],"lines":[99922,99923],"attr":"cool","postal_code":"862-0903","address":"熊本市若葉１丁目２-５地先","next":[9991905,1190343,1190344,1190342,1192306,1192310,1190345,1192307,1192312,9991903,1192313,1190350,9992225,1192311,1192308,9991906,1192309],"voronoi":{"lat":32.797782,"lng":130.831463,"delta_lat":[0,-25779,-12366,-66370,-52641,-25313,-5541,61019,5917,10442,26373,1840,87865,1335,6699,-1309,-4366],"delta_lng":[0,35062,11674,40902,14683,5052,929,-161880,-8231,-9544,-19309,-783,26848,2372,19741,10379,13599]}}
  ],
  "north":32.80416,
  "south":32.77832,
  "east":130.7613,
  "west":130.68832,
  "polyline_list":[
    {
      "start":"田崎橋",
      "end":"健軍町",
      "lat":32.78469,
      "lng":130.68832,
      "delta_lat":[0,42,97,29,19,16,46,116,77,14,14,49,39,12,12,18,104,66,8,3,0,0,4,5,13,19,14,8,7,10,16,29,157,47,9,6,3,0,0,-4,-30,-66,-15,-11,-2,1,2,4,12,15,18,34,133,35,115,12,9,4,-17,-3,1,3,6,8,11,45,106,61,17,10,9,23,34,111,82,33,11,2,1,0,-1,-4,-19,-61,-26,-12,-7,-23,-20,-13,-18,-18,-13,-42,-8,-25,-26,-31,-32,-63,-100,-63,-33,-19,-13,-32,-19,-14,-13,-16,-9,-14,-18,-19,-8,-16,-22,-60,-60,-59,-33,-18,-29,-32,-37,-25,-34,-45,-33,-47,-25,-34,-27,-44,-38,-24,-5,-15,-32,-36,-52,-67,-51,-26,-39,-50,-47,-19,-7,-6,-5,0,0,-1,-1,-1,0,-1,-3,-3,-9,-14,-30,-4,-19,-26,-30,-1,-29,-18,-16,-1,-49,-2,-38,-19,-18,-61,-1,-15,-18,-31,-9,-13,-3,-14,0,-18,-4,-6,-7],
      "delta_lng":[0,20,59,14,8,5,4,18,13,4,6,31,25,11,15,26,132,89,12,8,8,25,27,25,35,58,37,18,10,9,11,14,70,22,5,6,5,4,9,17,97,217,46,32,15,12,8,10,12,9,7,10,25,6,20,4,9,11,137,40,11,6,7,3,3,6,21,13,5,3,6,20,29,97,78,32,13,4,6,4,7,7,26,88,38,34,23,85,80,47,72,52,31,90,17,51,45,39,36,72,112,70,39,20,16,38,31,23,27,36,26,46,53,49,22,27,33,84,85,85,48,26,42,52,55,36,50,67,53,72,39,51,41,65,58,39,8,22,49,55,77,94,70,37,53,71,67,27,13,16,11,10,18,54,57,93,37,58,39,48,40,50,95,22,63,77,83,2,72,50,39,4,137,6,103,48,46,165,1,39,47,91,25,40,8,41,2,56,17,34,46]
    }
  ]
}