{
  "code":99923,
  "id":"ae3954",
  "name":"熊本市電Ｂ系統",
  "name_kana":"くまもとしでんびーけいとう",
  "station_size":28,
  "company_code":241,
  "station_list":[
    {"code":9992301,"id":"3706a3","name":"上熊本(熊本市交通局)","original_name":"上熊本","name_kana":"かみくまもと","lat":32.81716,"lng":130.699266,"prefecture":43,"numbering":[{"symbol":"B","index":"1"}],"lines":[99923],"attr":"eco","postal_code":"860-0079","address":"熊本市上熊本２丁目","next":[9991804,9992302,9991701,1190340,9991802],"voronoi":{"lat":32.816549,"lng":130.70831,"delta_lat":[0,-1636,1244,4656,-2785],"delta_lng":[0,-966,-8655,1552,7396]},"impl":true},
    {"code":9992302,"id":"956c31","name":"県立体育館前","name_kana":"けんりつたいいくかんまえ","lat":32.815032,"lng":130.69896,"prefecture":43,"numbering":[{"symbol":"B","index":"2"}],"lines":[99923],"attr":"eco","postal_code":"860-0079","address":"熊本市上熊本２丁目１７-３９地先","next":[9992301,9991701,1190340,9992303],"voronoi":{"lat":32.815904,"lng":130.694231,"delta_lat":[0,253,-1244,-3143],"delta_lng":[0,4459,8655,-1346]},"impl":true},
    {"code":9992303,"id":"858744","name":"本妙寺入口","name_kana":"ほんみょうじいりぐち","lat":32.813626,"lng":130.698466,"prefecture":43,"numbering":[{"symbol":"B","index":"3"}],"lines":[99923],"attr":"eco","postal_code":"860-0079","address":"熊本市上熊本２丁目１３-８地先","next":[9992304,9992210,9991701,1190340,9992302],"voronoi":{"lat":32.815904,"lng":130.694231,"delta_lat":[0,680,-7367,1396,1157],"delta_lng":[0,-6855,16517,1738,368]},"impl":true},
    {"code":9992304,"id":"ed8103","name":"杉塘","name_kana":"すぎども","lat":32.810308,"lng":130.696986,"prefecture":43,"numbering":[{"symbol":"B","index":"4"}],"lines":[99923],"attr":"eco","postal_code":"860-0079","address":"熊本市上熊本２丁目４-２２地先","next":[9992303,9992305,9992306,9992210,1190339,1190340],"voronoi":{"lat":32.809216,"lng":130.703892,"delta_lat":[0,-2083,0,11155,621,-2326],"delta_lng":[0,-1523,-2785,-27169,6142,8818]},"impl":true},
    {"code":9992305,"id":"430c18","name":"段山町","name_kana":"だにやままち","lat":32.806701,"lng":130.695505,"prefecture":43,"numbering":[{"symbol":"B","index":"5"}],"lines":[99923],"attr":"eco","postal_code":"860-0006","address":"熊本市段山本町４-３８地先","next":[9992304,9992307,9992306,101007,1190339],"voronoi":{"lat":32.807133,"lng":130.699585,"delta_lat":[0,-5740,-846,17005,736],"delta_lng":[0,-10627,-3431,-42463,29352]},"impl":true},
    {"code":9992306,"id":"cc9f24","name":"蔚山町","name_kana":"うるさんまち","lat":32.803959,"lng":130.696986,"prefecture":43,"numbering":[{"symbol":"B","index":"6"}],"lines":[99923],"attr":"eco","postal_code":"860-0004","address":"熊本市新町１丁目７-２６地先","next":[9992209,9992309,9992210,9992304,9992305,9992307,9992308],"voronoi":{"lat":32.803277,"lng":130.701479,"delta_lat":[0,2174,1682,0,-5740,550,936],"delta_lng":[0,725,166,-2785,-10627,9844,2289]},"impl":true},
    {"code":9992307,"id":"a802bb","name":"新町(熊本)","original_name":"新町","name_kana":"しんまち","lat":32.799739,"lng":130.697222,"prefecture":43,"numbering":[{"symbol":"B","index":"7"}],"lines":[99923],"attr":"eco","postal_code":"860-0004","address":"熊本市新町２丁目６-１０地先","next":[9992204,9992305,9992203,101007,9992306,9992308,9992205],"voronoi":{"lat":32.801944,"lng":130.698802,"delta_lat":[0,-550,-846,-194,-629,-1492,-522],"delta_lng":[0,-9844,-3431,233,848,4025,6908]},"impl":true},
    {"code":9992308,"id":"870cd3","name":"洗馬橋","name_kana":"せんばばし","lat":32.799234,"lng":130.698917,"prefecture":43,"numbering":[{"symbol":"B","index":"8"}],"lines":[99923],"attr":"eco","postal_code":"860-0004","address":"熊本市新町２丁目３-７地先","next":[9992205,9992207,9992206,9992307,9992306,9992309],"voronoi":{"lat":32.801944,"lng":130.698802,"delta_lat":[0,-4233,-1083,271,906,5075],"delta_lng":[0,-1261,1888,512,493,657]},"impl":true},
    {"code":9992309,"id":"210672","name":"西辛島町","name_kana":"にしからしまちょう","lat":32.798801,"lng":130.702264,"prefecture":43,"numbering":[{"symbol":"B","index":"9"}],"lines":[99923],"attr":"eco","postal_code":"860-0804","address":"熊本市辛島町７-９地先","next":[9992306,9992207,9992209,9992208,9992308],"voronoi":{"lat":32.803277,"lng":130.701479,"delta_lat":[0,-2966,-2088,-419,5075],"delta_lng":[0,2144,67,-3256,657]},"impl":true},
    {"code":9992208,"id":"fcd484","name":"辛島町","name_kana":"からしまちょう","lat":32.798891,"lng":130.705075,"prefecture":43,"numbering":[{"index":"8"}],"lines":[99922,99923],"attr":"eco","postal_code":"860-0803","address":"熊本市新市街７-１地先","next":[9992212,9992209,9992206,1192303,9992213,9992207,9992211,9992309],"voronoi":{"lat":32.800312,"lng":130.703623,"delta_lat":[0,-1012,-579,-4230,-850,-1576,2000,4159],"delta_lng":[0,5547,547,1976,46,-3330,-2198,-2521]},"impl":true},
    {"code":9992209,"id":"d7d72d","name":"花畑町","name_kana":"はなばたちょう","lat":32.801128,"lng":130.705483,"prefecture":43,"numbering":[{"index":"9"}],"lines":[99922,99923],"attr":"eco","postal_code":"860-0806","address":"熊本市花畑町１２-１地先","next":[9992208,9992306,9992210,9992309,9992211],"voronoi":{"lat":32.799828,"lng":130.708898,"delta_lat":[0,5624,-2174,-2966,-1012],"delta_lng":[0,-6694,-725,2144,5547]},"impl":true},
    {"code":9992210,"id":"c828bf","name":"熊本城・市役所前","name_kana":"くまもとじょう・しやくしょまえ","lat":32.802967,"lng":130.707028,"prefecture":43,"numbering":[{"index":"10"}],"lines":[99922,99923],"attr":"eco","postal_code":"860-0808","address":"熊本市手取本町１-１地先","next":[9992306,9992303,9992209,9991701,9992304,9992211],"voronoi":{"lat":32.805452,"lng":130.702203,"delta_lat":[0,1682,2083,1396,-2110,-8675],"delta_lng":[0,166,1523,1738,2032,1235]},"impl":true},
    {"code":9992211,"id":"4dfd90","name":"通町筋","name_kana":"とおりちょうすじ","lat":32.803364,"lng":130.709817,"prefecture":43,"numbering":[{"index":"11"}],"lines":[99922,99923],"attr":"eco","postal_code":"860-0808","address":"熊本市手取本町４-５地先","next":[9992212,9992210,9992208,9991701,9992209],"voronoi":{"lat":32.79872,"lng":130.709717,"delta_lat":[0,7007,2775,-8675,-528],"delta_lng":[0,2485,-4539,1235,272]},"impl":true},
    {"code":9992212,"id":"d65073","name":"水道町","name_kana":"すいどうちょう","lat":32.80239,"lng":130.712564,"prefecture":43,"numbering":[{"index":"12"}],"lines":[99922,99923],"attr":"eco","postal_code":"860-0808","address":"熊本市手取本町８地先","next":[9992208,9992213,9992211,9991701],"voronoi":{"lat":32.805728,"lng":130.712201,"delta_lat":[0,-7007,-4230,10712],"delta_lng":[0,-2485,1976,5757]},"impl":true},
    {"code":9992213,"id":"2a17d1","name":"九品寺交差点","name_kana":"くほんじこうさてん","lat":32.799576,"lng":130.7178,"prefecture":43,"numbering":[{"index":"13"}],"lines":[99922,99923],"attr":"eco","postal_code":"862-0976","address":"熊本市九品寺１丁目２-１１地先","next":[9992214,1192305,9992212,9991702,9992208,1192303,9991701],"voronoi":{"lat":32.805203,"lng":130.71745,"delta_lat":[0,-10712,-850,-840,13261,3192,-15],"delta_lng":[0,-5757,46,1947,11820,694,-513]},"impl":true},
    {"code":9992214,"id":"904a19","name":"交通局前","name_kana":"こうつうきょくまえ","lat":32.797664,"lng":130.719945,"prefecture":43,"numbering":[{"index":"14"}],"lines":[99922,99923],"attr":"heat","postal_code":"862-0976","address":"熊本市九品寺２丁目３地先","next":[9992215,9992213,1192303,1192305],"voronoi":{"lat":32.792801,"lng":130.713685,"delta_lat":[0,-3000,13330,2931],"delta_lng":[0,4483,7129,208]},"impl":true},
    {"code":9992215,"id":"844b81","name":"味噌天神前","name_kana":"みそてんじんまえ","lat":32.795644,"lng":130.723722,"prefecture":43,"numbering":[{"index":"15"}],"lines":[99922,99923],"attr":"heat","postal_code":"862-0973","address":"熊本市大江本町６-６地先","next":[9992214,1192303,1192305,9992216,1192304],"voronoi":{"lat":32.7889,"lng":130.718946,"delta_lat":[0,900,13330,-6497,-827],"delta_lng":[0,-777,7129,1404,-526]},"impl":true},
    {"code":9992216,"id":"7e89b9","name":"新水前寺駅前","name_kana":"しんすいぜんじえきまえ","lat":32.793516,"lng":130.727069,"prefecture":43,"numbering":[{"index":"16"}],"lines":[99922,99923],"attr":"heat","postal_code":"862-0949","address":"熊本市国府１丁目１１-２地先","next":[9992217,1192305,1192304,9992215],"voronoi":{"lat":32.795806,"lng":130.726175,"delta_lat":[0,-5024,3847,2004],"delta_lng":[0,658,2376,-2508]},"impl":true},
    {"code":9992217,"id":"6447ba","name":"国府(熊本)","original_name":"国府","name_kana":"こくぶ","lat":32.792217,"lng":130.729172,"prefecture":43,"numbering":[{"index":"17"}],"lines":[99922,99923],"attr":"heat","postal_code":"862-0949","address":"熊本市国府１丁目２０-１地先","next":[9992218,1192304,9992216,1192303,1192305],"voronoi":{"lat":32.794629,"lng":130.729209,"delta_lat":[0,-3847,-9713,-321,13366],"delta_lng":[0,-2376,-3403,129,9401]},"impl":true},
    {"code":9992218,"id":"da9ad1","name":"水前寺公園","name_kana":"すいぜんじこうえん","lat":32.789908,"lng":130.732455,"prefecture":43,"numbering":[{"index":"18"}],"lines":[99922,99923],"attr":"heat","postal_code":"862-0941","address":"熊本市出水１丁目６-１地先","next":[9992219,9992217,1192303,1192305],"voronoi":{"lat":32.794114,"lng":130.73296,"delta_lat":[0,-13366,-5085,20363],"delta_lng":[0,-9401,1157,13367]},"impl":true},
    {"code":9992219,"id":"ca3262","name":"市立体育館前","name_kana":"しりつたいいくかんまえ","lat":32.788429,"lng":130.734708,"prefecture":43,"numbering":[{"index":"19"}],"lines":[99922,99923],"attr":"heat","postal_code":"862-0941","address":"熊本市出水１丁目８-５地先","next":[1192303,9992218,1192306,1192305,9992220],"voronoi":{"lat":32.798533,"lng":130.742462,"delta_lat":[0,-2506,-20363,-5347,27526],"delta_lng":[0,-4378,-13367,755,18966]},"impl":true},
    {"code":9992220,"id":"d8bb60","name":"商業高校前","name_kana":"しょうぎょうこうこうまえ","lat":32.785398,"lng":130.739107,"prefecture":43,"numbering":[{"index":"20"}],"lines":[99922,99923],"attr":"heat","postal_code":"862-0955","address":"熊本市神水本町１-４４地先","next":[9992222,9992221,1192306,1192303,9992219],"voronoi":{"lat":32.770317,"lng":130.725472,"delta_lat":[0,-9407,28737,7991,205],"delta_lng":[0,82,18066,2301,-1483]},"impl":true},
    {"code":9992221,"id":"c1d0cd","name":"八丁馬場","name_kana":"はっちょうばば","lat":32.783739,"lng":130.741746,"prefecture":43,"numbering":[{"index":"21"}],"lines":[99922,99923],"attr":"heat","postal_code":"862-0955","address":"熊本市神水本町１９-６地先","next":[1192303,1190342,9992223,9992222,9992220,9992224,1192302],"voronoi":{"lat":32.744773,"lng":130.724794,"delta_lat":[0,16137,28737,-23758,-23140,-15650,14793],"delta_lng":[0,759,18066,-623,-4580,-3899,-9560]},"impl":true},
    {"code":9992222,"id":"533878","name":"神水交差点","name_kana":"くわみずこうさてん","lat":32.783649,"lng":130.74518,"prefecture":43,"numbering":[{"index":"22"}],"lines":[99922,99923],"attr":"cool","postal_code":"862-0955","address":"熊本市神水本町２１-２２地先","next":[9992223,9992220,9992221,1192306],"voronoi":{"lat":32.797638,"lng":130.74592,"delta_lat":[0,-7991,-23758,32363],"delta_lng":[0,-2301,-623,9711]},"impl":true},
    {"code":9992223,"id":"0bd99b","name":"健軍校前","name_kana":"けんぐんこうまえ","lat":32.781917,"lng":130.750952,"prefecture":43,"numbering":[{"index":"23"}],"lines":[99922,99923],"attr":"cool","postal_code":"862-0911","address":"熊本市健軍４丁目１３-２地先","next":[9992222,9992224,9992221,1192306],"voronoi":{"lat":32.742749,"lng":130.738417,"delta_lat":[0,23140,32363,2049],"delta_lng":[0,4580,9711,7274]},"impl":true},
    {"code":9992224,"id":"b195c3","name":"動植物園入口","name_kana":"どうしょくぶつえんいりぐち","lat":32.78051,"lng":130.754707,"prefecture":43,"numbering":[{"index":"24"}],"lines":[99922,99923],"attr":"cool","postal_code":"862-0908","address":"熊本市新生１丁目地先","next":[9992223,1190342,9992225,9992221,1192306],"voronoi":{"lat":32.723585,"lng":130.736244,"delta_lat":[0,3514,15650,57552,1537],"delta_lng":[0,-1726,3899,21565,3932]},"impl":true},
    {"code":9992225,"id":"747490","name":"健軍交番前","name_kana":"けんぐんこうばんまえ","lat":32.779463,"lng":130.757668,"prefecture":43,"numbering":[{"index":"25"}],"lines":[99922,99923],"attr":"cool","postal_code":"862-0908","address":"熊本市新生１丁目９-７地先","next":[1192306,1190342,9992224,9992226],"voronoi":{"lat":32.715363,"lng":130.740017,"delta_lat":[0,8221,78253,1391],"delta_lng":[0,-3774,27670,2952]},"impl":true},
    {"code":9992226,"id":"26708c","name":"健軍町","name_kana":"けんぐんまち","lat":32.778381,"lng":130.761209,"prefecture":43,"numbering":[{"index":"26"}],"lines":[99922,99923],"attr":"cool","postal_code":"862-0903","address":"熊本市若葉１丁目２-５地先","next":[9991905,1190343,1190344,1190342,1192306,1192310,1190345,1192307,1192312,9991903,1192313,1190350,9992225,1192311,1192308,9991906,1192309],"voronoi":{"lat":32.797782,"lng":130.831463,"delta_lat":[0,-25779,-12366,-66370,-52641,-25313,-5541,61019,5917,10442,26373,1840,87865,1335,6699,-1309,-4366],"delta_lng":[0,35062,11674,40902,14683,5052,929,-161880,-8231,-9544,-19309,-783,26848,2372,19741,10379,13599]},"impl":true}
  ],
  "north":32.81737,
  "south":32.77832,
  "east":130.7613,
  "west":130.69532,
  "polyline_list":[
    {
      "start":"健軍町",
      "end":"上熊本",
      "lat":32.77832,
      "lng":130.7613,
      "delta_lat":[0,7,6,4,18,0,14,3,13,9,31,18,15,1,61,18,19,38,2,49,1,16,18,29,1,30,26,19,4,30,14,9,3,3,1,0,1,1,1,0,0,5,6,7,19,47,50,39,26,51,67,52,36,32,15,5,24,38,44,27,34,25,47,33,45,34,25,37,32,29,18,33,59,60,60,22,16,8,19,18,14,9,16,13,14,19,32,13,19,33,63,100,63,32,31,26,25,8,42,13,18,18,13,20,23,7,12,26,61,19,4,1,0,-1,-2,-11,-33,-82,-111,-34,-23,-9,-10,-17,-61,-106,-45,-11,-8,-6,-3,-1,3,17,7,7,37,8,4,5,4,11,9,7,14,12,10,13,33,222,94,42,64,20,9,8,5,49,18,6,6,9,8,7,9,18,44,67,111,94,75,41,108,62,94,27,29,27,76,27,18,13,16,24,43,68,35],
      "delta_lng":[0,-46,-34,-17,-56,-2,-41,-8,-40,-25,-91,-47,-39,-1,-165,-46,-48,-103,-6,-137,-4,-39,-50,-72,-2,-83,-77,-63,-22,-95,-50,-40,-48,-39,-58,-37,-93,-57,-54,-18,-10,-11,-16,-13,-27,-67,-71,-53,-37,-70,-94,-77,-55,-49,-22,-8,-39,-58,-65,-41,-51,-39,-72,-53,-67,-50,-36,-55,-52,-42,-26,-48,-85,-85,-84,-33,-27,-22,-49,-53,-46,-26,-36,-27,-23,-31,-38,-16,-20,-39,-70,-112,-72,-36,-39,-45,-51,-17,-90,-31,-52,-72,-47,-80,-85,-23,-34,-38,-88,-26,-7,-7,-4,-6,-4,-13,-32,-78,-97,-29,-20,-6,-3,-5,-13,-21,-6,-3,-3,-7,-6,-11,-40,-137,-57,-47,-277,-61,-33,-26,-18,-21,-18,-11,-18,-8,-5,-2,-1,8,0,1,0,-1,-2,-5,-9,-94,-41,-7,-5,-6,-1,1,0,9,17,26,46,39,32,17,43,28,41,11,13,13,32,13,5,3,2,2,2,21,11]
    }
  ],
  "impl":true
}