{
  "station": "下越川",
  "lat": 43.866694,
  "lng": 144.740583,
  "plus_code": {
    "compound_code": "VP8R+M6 日本、北海道斜里町字越川",
    "global_code": "8RM6VP8R+M6"
  },
  "results": [
    {
      "access_points": [

      ],
      "address_components": [
        {
          "long_name": "Unnamed Road",
          "short_name": "Unnamed Road",
          "types": [
            "route"
          ]
        },
        {
          "long_name": "字越川",
          "short_name": "字越川",
          "types": [
            "political",
            "sublocality",
            "sublocality_level_2"
          ]
        },
        {
          "long_name": "斜里町",
          "short_name": "斜里町",
          "types": [
            "locality",
            "political"
          ]
        },
        {
          "long_name": "斜里郡",
          "short_name": "斜里郡",
          "types": [
            "administrative_area_level_2",
            "political"
          ]
        },
        {
          "long_name": "北海道",
          "short_name": "北海道",
          "types": [
            "administrative_area_level_1",
            "political"
          ]
        },
        {
          "long_name": "日本",
          "short_name": "JP",
          "types": [
            "country",
            "political"
          ]
        },
        {
          "long_name": "099-4131",
          "short_name": "099-4131",
          "types": [
            "postal_code"
          ]
        }
      ],
      "formatted_address": "Unnamed Road, 字越川 斜里町 斜里郡 北海道 099-4131 日本",
      "geometry": {
        "bounds": {
          "northeast": {
            "lat": 43.8690419,
            "lng": 144.74508
          },
          "southwest": {
            "lat": 43.8657843,
            "lng": 144.7395973
          }
        },
        "location": {
          "lat": 43.8674077,
          "lng": 144.7423325
        },
        "location_type": "GEOMETRIC_CENTER",
        "viewport": {
          "northeast": {
            "lat": 43.8690419,
            "lng": 144.74508
          },
          "southwest": {
            "lat": 43.8657843,
            "lng": 144.7395973
          }
        }
      },
      "place_id": "ChIJV8GXwyofbV8RHnj1p-yisI4",
      "types": [
        "route"
      ]
    },
    {
      "access_points": [

      ],
      "address_components": [
        {
          "long_name": "099-4131",
          "short_name": "099-4131",
          "types": [
            "postal_code"
          ]
        },
        {
          "long_name": "字越川",
          "short_name": "字越川",
          "types": [
            "political",
            "sublocality",
            "sublocality_level_2"
          ]
        },
        {
          "long_name": "斜里町",
          "short_name": "斜里町",
          "types": [
            "locality",
            "political"
          ]
        },
        {
          "long_name": "斜里郡",
          "short_name": "斜里郡",
          "types": [
            "administrative_area_level_2",
            "political"
          ]
        },
        {
          "long_name": "北海道",
          "short_name": "北海道",
          "types": [
            "administrative_area_level_1",
            "political"
          ]
        },
        {
          "long_name": "日本",
          "short_name": "JP",
          "types": [
            "country",
            "political"
          ]
        }
      ],
      "formatted_address": "日本 〒099-4131",
      "geometry": {
        "bounds": {
          "northeast": {
            "lat": 43.8893622,
            "lng": 144.879745
          },
          "southwest": {
            "lat": 43.7978017,
            "lng": 144.7308175
          }
        },
        "location": {
          "lat": 43.8481902,
          "lng": 144.795195
        },
        "location_type": "APPROXIMATE",
        "viewport": {
          "northeast": {
            "lat": 43.8893622,
            "lng": 144.879745
          },
          "southwest": {
            "lat": 43.7978017,
            "lng": 144.7308175
          }
        }
      },
      "place_id": "ChIJORPzTCgfbV8Rf7kEnW12d7k",
      "types": [
        "postal_code"
      ]
    },
    {
      "access_points": [

      ],
      "address_components": [
        {
          "long_name": "字越川",
          "short_name": "字越川",
          "types": [
            "political",
            "sublocality",
            "sublocality_level_2"
          ]
        },
        {
          "long_name": "斜里町",
          "short_name": "斜里町",
          "types": [
            "locality",
            "political"
          ]
        },
        {
          "long_name": "斜里郡",
          "short_name": "斜里郡",
          "types": [
            "administrative_area_level_2",
            "political"
          ]
        },
        {
          "long_name": "北海道",
          "short_name": "北海道",
          "types": [
            "administrative_area_level_1",
            "political"
          ]
        },
        {
          "long_name": "日本",
          "short_name": "JP",
          "types": [
            "country",
            "political"
          ]
        },
        {
          "long_name": "099-4131",
          "short_name": "099-4131",
          "types": [
            "postal_code"
          ]
        }
      ],
      "formatted_address": "日本、〒099-4131 北海道斜里郡斜里町字越川",
      "geometry": {
        "bounds": {
          "northeast": {
            "lat": 43.889362,
            "lng": 144.879745
          },
          "southwest": {
            "lat": 43.7978021,
            "lng": 144.7308181
          }
        },
        "location": {
          "lat": 43.8481902,
          "lng": 144.795195
        },
        "location_type": "APPROXIMATE",
        "viewport": {
          "northeast": {
            "lat": 43.889362,
            "lng": 144.879745
          },
          "southwest": {
            "lat": 43.7978021,
            "lng": 144.7308181
          }
        }
      },
      "place_id": "ChIJoSK3JboebV8RlL05xxCQbCc",
      "types": [
        "political",
        "sublocality",
        "sublocality_level_2"
      ]
    },
    {
      "access_points": [

      ],
      "address_components": [
        {
          "long_name": "斜里町",
          "short_name": "斜里町",
          "types": [
            "locality",
            "political"
          ]
        },
        {
          "long_name": "斜里郡",
          "short_name": "斜里郡",
          "types": [
            "administrative_area_level_2",
            "political"
          ]
        },
        {
          "long_name": "北海道",
          "short_name": "北海道",
          "types": [
            "administrative_area_level_1",
            "political"
          ]
        },
        {
          "long_name": "日本",
          "short_name": "JP",
          "types": [
            "country",
            "political"
          ]
        }
      ],
      "formatted_address": "日本、北海道斜里郡斜里町",
      "geometry": {
        "bounds": {
          "northeast": {
            "lat": 44.34546,
            "lng": 145.3376409
          },
          "southwest": {
            "lat": 43.756881,
            "lng": 144.554154
          }
        },
        "location": {
          "lat": 43.9114765,
          "lng": 144.6707651
        },
        "location_type": "APPROXIMATE",
        "viewport": {
          "northeast": {
            "lat": 44.34546,
            "lng": 145.3376409
          },
          "southwest": {
            "lat": 43.756881,
            "lng": 144.554154
          }
        }
      },
      "place_id": "ChIJOU_nKlvDbF8RHfNekp0elQA",
      "types": [
        "locality",
        "political"
      ]
    },
    {
      "access_points": [

      ],
      "address_components": [
        {
          "long_name": "斜里郡",
          "short_name": "斜里郡",
          "types": [
            "administrative_area_level_2",
            "political"
          ]
        },
        {
          "long_name": "北海道",
          "short_name": "北海道",
          "types": [
            "administrative_area_level_1",
            "political"
          ]
        },
        {
          "long_name": "日本",
          "short_name": "JP",
          "types": [
            "country",
            "political"
          ]
        }
      ],
      "formatted_address": "日本、北海道斜里郡",
      "geometry": {
        "bounds": {
          "northeast": {
            "lat": 44.3454597,
            "lng": 145.3376415
          },
          "southwest": {
            "lat": 43.60068529999999,
            "lng": 144.3316098
          }
        },
        "location": {
          "lat": 43.8831198,
          "lng": 144.7917505
        },
        "location_type": "APPROXIMATE",
        "viewport": {
          "northeast": {
            "lat": 44.3454597,
            "lng": 145.3376415
          },
          "southwest": {
            "lat": 43.60068529999999,
            "lng": 144.3316098
          }
        }
      },
      "place_id": "ChIJgZVb_lrebF8RCaGpfMRqR7M",
      "types": [
        "administrative_area_level_2",
        "political"
      ]
    },
    {
      "access_points": [

      ],
      "address_components": [
        {
          "long_name": "北海道",
          "short_name": "北海道",
          "types": [
            "administrative_area_level_1",
            "political"
          ]
        },
        {
          "long_name": "日本",
          "short_name": "JP",
          "types": [
            "country",
            "political"
          ]
        }
      ],
      "formatted_address": "日本、北海道",
      "geometry": {
        "bounds": {
          "northeast": {
            "lat": 45.5265181,
            "lng": 145.817624
          },
          "southwest": {
            "lat": 41.3516002,
            "lng": 139.3340799
          }
        },
        "location": {
          "lat": 43.2203266,
          "lng": 142.8634737
        },
        "location_type": "APPROXIMATE",
        "viewport": {
          "northeast": {
            "lat": 45.5265181,
            "lng": 145.817624
          },
          "southwest": {
            "lat": 41.3516002,
            "lng": 139.3340799
          }
        }
      },
      "place_id": "ChIJi4hsnyBZn18RjwPOT1bDPBw",
      "types": [
        "administrative_area_level_1",
        "political"
      ]
    },
    {
      "access_points": [

      ],
      "address_components": [
        {
          "long_name": "日本",
          "short_name": "JP",
          "types": [
            "country",
            "political"
          ]
        }
      ],
      "formatted_address": "日本",
      "geometry": {
        "bounds": {
          "northeast": {
            "lat": 45.6412626,
            "lng": 154.0031455
          },
          "southwest": {
            "lat": 20.3585295,
            "lng": 122.8554688
          }
        },
        "location": {
          "lat": 36.204824,
          "lng": 138.252924
        },
        "location_type": "APPROXIMATE",
        "viewport": {
          "northeast": {
            "lat": 45.6412626,
            "lng": 154.0031455
          },
          "southwest": {
            "lat": 20.3585295,
            "lng": 122.8554688
          }
        }
      },
      "place_id": "ChIJLxl_1w9OZzQRRFJmfNR1QvU",
      "types": [
        "country",
        "political"
      ]
    }
  ]
}