{
  "station": "喜茂別",
  "lat": 42.799972,
  "lng": 140.928861,
  "plus_code": {
    "compound_code": "QWXH+XG 日本、北海道喜茂別町",
    "global_code": "8RJ2QWXH+XG"
  },
  "results": [
    {
      "access_points": [

      ],
      "address_components": [
        {
          "long_name": "１−２２",
          "short_name": "１−２２",
          "types": [
            "premise"
          ]
        },
        {
          "long_name": "字喜茂別",
          "short_name": "字喜茂別",
          "types": [
            "political",
            "sublocality",
            "sublocality_level_2"
          ]
        },
        {
          "long_name": "喜茂別町",
          "short_name": "喜茂別町",
          "types": [
            "locality",
            "political"
          ]
        },
        {
          "long_name": "虻田郡",
          "short_name": "虻田郡",
          "types": [
            "administrative_area_level_2",
            "political"
          ]
        },
        {
          "long_name": "北海道",
          "short_name": "北海道",
          "types": [
            "administrative_area_level_1",
            "political"
          ]
        },
        {
          "long_name": "日本",
          "short_name": "JP",
          "types": [
            "country",
            "political"
          ]
        },
        {
          "long_name": "044-0201",
          "short_name": "044-0201",
          "types": [
            "postal_code"
          ]
        }
      ],
      "formatted_address": "日本、〒044-0201 北海道虻田郡喜茂別町字喜茂別１−２２",
      "geometry": {
        "location": {
          "lat": 42.8000702,
          "lng": 140.928882
        },
        "location_type": "ROOFTOP",
        "viewport": {
          "northeast": {
            "lat": 42.8014191802915,
            "lng": 140.9302309802915
          },
          "southwest": {
            "lat": 42.7987212197085,
            "lng": 140.9275330197085
          }
        }
      },
      "place_id": "ChIJczPPHqq0Cl8RcOiyJm5hG4s",
      "plus_code": {
        "compound_code": "RW2H+2H 日本、北海道喜茂別町",
        "global_code": "8RJ2RW2H+2H"
      },
      "types": [
        "street_address"
      ]
    },
    {
      "access_points": [

      ],
      "address_components": [
        {
          "long_name": "喜茂別停車場線",
          "short_name": "道道696号",
          "types": [
            "route"
          ]
        },
        {
          "long_name": "字喜茂別",
          "short_name": "字喜茂別",
          "types": [
            "political",
            "sublocality",
            "sublocality_level_2"
          ]
        },
        {
          "long_name": "喜茂別町",
          "short_name": "喜茂別町",
          "types": [
            "locality",
            "political"
          ]
        },
        {
          "long_name": "虻田郡",
          "short_name": "虻田郡",
          "types": [
            "administrative_area_level_2",
            "political"
          ]
        },
        {
          "long_name": "北海道",
          "short_name": "北海道",
          "types": [
            "administrative_area_level_1",
            "political"
          ]
        },
        {
          "long_name": "日本",
          "short_name": "JP",
          "types": [
            "country",
            "political"
          ]
        },
        {
          "long_name": "044-0201",
          "short_name": "044-0201",
          "types": [
            "postal_code"
          ]
        }
      ],
      "formatted_address": "日本、〒044-0201 北海道虻田郡喜茂別町字喜茂別 道道696号",
      "geometry": {
        "bounds": {
          "northeast": {
            "lat": 42.7995534,
            "lng": 140.9297612
          },
          "southwest": {
            "lat": 42.7982532,
            "lng": 140.9288448
          }
        },
        "location": {
          "lat": 42.7988894,
          "lng": 140.9292716
        },
        "location_type": "GEOMETRIC_CENTER",
        "viewport": {
          "northeast": {
            "lat": 42.8002522802915,
            "lng": 140.9306519802915
          },
          "southwest": {
            "lat": 42.7975543197085,
            "lng": 140.9279540197085
          }
        }
      },
      "place_id": "ChIJf8aSc6q0Cl8RRBJfOq2Nc3A",
      "types": [
        "route"
      ]
    },
    {
      "access_points": [

      ],
      "address_components": [
        {
          "long_name": "字喜茂別",
          "short_name": "字喜茂別",
          "types": [
            "political",
            "sublocality",
            "sublocality_level_2"
          ]
        },
        {
          "long_name": "喜茂別町",
          "short_name": "喜茂別町",
          "types": [
            "locality",
            "political"
          ]
        },
        {
          "long_name": "虻田郡",
          "short_name": "虻田郡",
          "types": [
            "administrative_area_level_2",
            "political"
          ]
        },
        {
          "long_name": "北海道",
          "short_name": "北海道",
          "types": [
            "administrative_area_level_1",
            "political"
          ]
        },
        {
          "long_name": "日本",
          "short_name": "JP",
          "types": [
            "country",
            "political"
          ]
        },
        {
          "long_name": "044-0201",
          "short_name": "044-0201",
          "types": [
            "postal_code"
          ]
        }
      ],
      "formatted_address": "日本、〒044-0201 北海道虻田郡喜茂別町字喜茂別",
      "geometry": {
        "bounds": {
          "northeast": {
            "lat": 42.8061541,
            "lng": 140.9491821
          },
          "southwest": {
            "lat": 42.785591,
            "lng": 140.9237449
          }
        },
        "location": {
          "lat": 42.7961453,
          "lng": 140.937949
        },
        "location_type": "APPROXIMATE",
        "viewport": {
          "northeast": {
            "lat": 42.8061541,
            "lng": 140.9491821
          },
          "southwest": {
            "lat": 42.785591,
            "lng": 140.9237449
          }
        }
      },
      "place_id": "ChIJSe7ADVVLdV8Rbgpzo0WjMyc",
      "types": [
        "political",
        "sublocality",
        "sublocality_level_2"
      ]
    },
    {
      "access_points": [

      ],
      "address_components": [
        {
          "long_name": "044-0201",
          "short_name": "044-0201",
          "types": [
            "postal_code"
          ]
        },
        {
          "long_name": "字喜茂別",
          "short_name": "字喜茂別",
          "types": [
            "political",
            "sublocality",
            "sublocality_level_2"
          ]
        },
        {
          "long_name": "喜茂別町",
          "short_name": "喜茂別町",
          "types": [
            "locality",
            "political"
          ]
        },
        {
          "long_name": "虻田郡",
          "short_name": "虻田郡",
          "types": [
            "administrative_area_level_2",
            "political"
          ]
        },
        {
          "long_name": "北海道",
          "short_name": "北海道",
          "types": [
            "administrative_area_level_1",
            "political"
          ]
        },
        {
          "long_name": "日本",
          "short_name": "JP",
          "types": [
            "country",
            "political"
          ]
        }
      ],
      "formatted_address": "日本 〒044-0201",
      "geometry": {
        "bounds": {
          "northeast": {
            "lat": 42.8061538,
            "lng": 140.9491822
          },
          "southwest": {
            "lat": 42.7854458,
            "lng": 140.9237449
          }
        },
        "location": {
          "lat": 42.7961453,
          "lng": 140.937949
        },
        "location_type": "APPROXIMATE",
        "viewport": {
          "northeast": {
            "lat": 42.8061538,
            "lng": 140.9491822
          },
          "southwest": {
            "lat": 42.7854458,
            "lng": 140.9237449
          }
        }
      },
      "place_id": "ChIJwQuqE1VLdV8RNrmE9HBNkCU",
      "types": [
        "postal_code"
      ]
    },
    {
      "access_points": [

      ],
      "address_components": [
        {
          "long_name": "喜茂別町",
          "short_name": "喜茂別町",
          "types": [
            "locality",
            "political"
          ]
        },
        {
          "long_name": "虻田郡",
          "short_name": "虻田郡",
          "types": [
            "administrative_area_level_2",
            "political"
          ]
        },
        {
          "long_name": "北海道",
          "short_name": "北海道",
          "types": [
            "administrative_area_level_1",
            "political"
          ]
        },
        {
          "long_name": "日本",
          "short_name": "JP",
          "types": [
            "country",
            "political"
          ]
        }
      ],
      "formatted_address": "日本、北海道虻田郡喜茂別町",
      "geometry": {
        "bounds": {
          "northeast": {
            "lat": 42.885886,
            "lng": 141.107107
          },
          "southwest": {
            "lat": 42.714758,
            "lng": 140.806801
          }
        },
        "location": {
          "lat": 42.7954812,
          "lng": 140.9345793
        },
        "location_type": "APPROXIMATE",
        "viewport": {
          "northeast": {
            "lat": 42.885886,
            "lng": 141.107107
          },
          "southwest": {
            "lat": 42.714758,
            "lng": 140.806801
          }
        }
      },
      "place_id": "ChIJfw2ZRElLdV8RKuuDFPAawgk",
      "types": [
        "locality",
        "political"
      ]
    },
    {
      "access_points": [

      ],
      "address_components": [
        {
          "long_name": "虻田郡",
          "short_name": "虻田郡",
          "types": [
            "administrative_area_level_2",
            "political"
          ]
        },
        {
          "long_name": "北海道",
          "short_name": "北海道",
          "types": [
            "administrative_area_level_1",
            "political"
          ]
        },
        {
          "long_name": "日本",
          "short_name": "JP",
          "types": [
            "country",
            "political"
          ]
        }
      ],
      "formatted_address": "日本、北海道虻田郡",
      "geometry": {
        "bounds": {
          "northeast": {
            "lat": 43.01515699999999,
            "lng": 141.1071068
          },
          "southwest": {
            "lat": 42.5206114,
            "lng": 140.5330241
          }
        },
        "location": {
          "lat": 42.8466513,
          "lng": 140.8507483
        },
        "location_type": "APPROXIMATE",
        "viewport": {
          "northeast": {
            "lat": 43.01515699999999,
            "lng": 141.1071068
          },
          "southwest": {
            "lat": 42.5206114,
            "lng": 140.5330241
          }
        }
      },
      "place_id": "ChIJQSZwGF-tCl8RWQCSrmilF4k",
      "types": [
        "administrative_area_level_2",
        "political"
      ]
    },
    {
      "access_points": [

      ],
      "address_components": [
        {
          "long_name": "北海道",
          "short_name": "北海道",
          "types": [
            "administrative_area_level_1",
            "political"
          ]
        },
        {
          "long_name": "日本",
          "short_name": "JP",
          "types": [
            "country",
            "political"
          ]
        }
      ],
      "formatted_address": "日本、北海道",
      "geometry": {
        "bounds": {
          "northeast": {
            "lat": 45.5265181,
            "lng": 145.817624
          },
          "southwest": {
            "lat": 41.3516002,
            "lng": 139.3340799
          }
        },
        "location": {
          "lat": 43.2203266,
          "lng": 142.8634737
        },
        "location_type": "APPROXIMATE",
        "viewport": {
          "northeast": {
            "lat": 45.5265181,
            "lng": 145.817624
          },
          "southwest": {
            "lat": 41.3516002,
            "lng": 139.3340799
          }
        }
      },
      "place_id": "ChIJi4hsnyBZn18RjwPOT1bDPBw",
      "types": [
        "administrative_area_level_1",
        "political"
      ]
    },
    {
      "access_points": [

      ],
      "address_components": [
        {
          "long_name": "日本",
          "short_name": "JP",
          "types": [
            "country",
            "political"
          ]
        }
      ],
      "formatted_address": "日本",
      "geometry": {
        "bounds": {
          "northeast": {
            "lat": 45.6412626,
            "lng": 154.0031455
          },
          "southwest": {
            "lat": 20.3585295,
            "lng": 122.8554688
          }
        },
        "location": {
          "lat": 36.204824,
          "lng": 138.252924
        },
        "location_type": "APPROXIMATE",
        "viewport": {
          "northeast": {
            "lat": 45.6412626,
            "lng": 154.0031455
          },
          "southwest": {
            "lat": 20.3585295,
            "lng": 122.8554688
          }
        }
      },
      "place_id": "ChIJLxl_1w9OZzQRRFJmfNR1QvU",
      "types": [
        "country",
        "political"
      ]
    }
  ]
}