{
  "station": "中士幌",
  "lat": 43.09625,
  "lng": 143.22625,
  "plus_code": {
    "compound_code": "36WG+FF 日本、北海道士幌町",
    "global_code": "8RM536WG+FF"
  },
  "results": [
    {
      "access_points": [

      ],
      "address_components": [
        {
          "long_name": "７２−１３８",
          "short_name": "７２−１３８",
          "types": [
            "premise"
          ]
        },
        {
          "long_name": "字中士幌",
          "short_name": "字中士幌",
          "types": [
            "political",
            "sublocality",
            "sublocality_level_2"
          ]
        },
        {
          "long_name": "士幌町",
          "short_name": "士幌町",
          "types": [
            "locality",
            "political"
          ]
        },
        {
          "long_name": "河東郡",
          "short_name": "河東郡",
          "types": [
            "administrative_area_level_2",
            "political"
          ]
        },
        {
          "long_name": "北海道",
          "short_name": "北海道",
          "types": [
            "administrative_area_level_1",
            "political"
          ]
        },
        {
          "long_name": "日本",
          "short_name": "JP",
          "types": [
            "country",
            "political"
          ]
        },
        {
          "long_name": "080-1189",
          "short_name": "080-1189",
          "types": [
            "postal_code"
          ]
        }
      ],
      "formatted_address": "日本、〒080-1189 北海道河東郡士幌町字中士幌７２−１３８",
      "geometry": {
        "location": {
          "lat": 43.0960459,
          "lng": 143.2259334
        },
        "location_type": "ROOFTOP",
        "viewport": {
          "northeast": {
            "lat": 43.0973948802915,
            "lng": 143.2272823802915
          },
          "southwest": {
            "lat": 43.0946969197085,
            "lng": 143.2245844197085
          }
        }
      },
      "place_id": "ChIJLQR8SUQJc18RBYg_aXoRySY",
      "plus_code": {
        "compound_code": "36WG+C9 日本、北海道士幌町",
        "global_code": "8RM536WG+C9"
      },
      "types": [
        "street_address"
      ]
    },
    {
      "access_points": [

      ],
      "address_components": [
        {
          "long_name": "北海道道596号",
          "short_name": "道道596号",
          "types": [
            "route"
          ]
        },
        {
          "long_name": "字中士幌",
          "short_name": "字中士幌",
          "types": [
            "political",
            "sublocality",
            "sublocality_level_2"
          ]
        },
        {
          "long_name": "士幌町",
          "short_name": "士幌町",
          "types": [
            "locality",
            "political"
          ]
        },
        {
          "long_name": "河東郡",
          "short_name": "河東郡",
          "types": [
            "administrative_area_level_2",
            "political"
          ]
        },
        {
          "long_name": "北海道",
          "short_name": "北海道",
          "types": [
            "administrative_area_level_1",
            "political"
          ]
        },
        {
          "long_name": "日本",
          "short_name": "JP",
          "types": [
            "country",
            "political"
          ]
        },
        {
          "long_name": "080-1189",
          "short_name": "080-1189",
          "types": [
            "postal_code"
          ]
        }
      ],
      "formatted_address": "日本、〒080-1189 北海道河東郡士幌町字中士幌 道道596号",
      "geometry": {
        "bounds": {
          "northeast": {
            "lat": 43.096381,
            "lng": 143.2273632
          },
          "southwest": {
            "lat": 43.0962227,
            "lng": 143.225952
          }
        },
        "location": {
          "lat": 43.0963019,
          "lng": 143.2266576
        },
        "location_type": "GEOMETRIC_CENTER",
        "viewport": {
          "northeast": {
            "lat": 43.0976508302915,
            "lng": 143.2280065802915
          },
          "southwest": {
            "lat": 43.0949528697085,
            "lng": 143.2253086197085
          }
        }
      },
      "place_id": "ChIJ8yJ5MUQJc18RJLijlTVLonY",
      "types": [
        "route"
      ]
    },
    {
      "access_points": [

      ],
      "address_components": [
        {
          "long_name": "字中士幌",
          "short_name": "字中士幌",
          "types": [
            "political",
            "sublocality",
            "sublocality_level_2"
          ]
        },
        {
          "long_name": "士幌町",
          "short_name": "士幌町",
          "types": [
            "locality",
            "political"
          ]
        },
        {
          "long_name": "河東郡",
          "short_name": "河東郡",
          "types": [
            "administrative_area_level_2",
            "political"
          ]
        },
        {
          "long_name": "北海道",
          "short_name": "北海道",
          "types": [
            "administrative_area_level_1",
            "political"
          ]
        },
        {
          "long_name": "日本",
          "short_name": "JP",
          "types": [
            "country",
            "political"
          ]
        },
        {
          "long_name": "080-1189",
          "short_name": "080-1189",
          "types": [
            "postal_code"
          ]
        }
      ],
      "formatted_address": "日本、〒080-1189 北海道河東郡士幌町字中士幌",
      "geometry": {
        "bounds": {
          "northeast": {
            "lat": 43.143473,
            "lng": 143.3207421
          },
          "southwest": {
            "lat": 43.084126,
            "lng": 143.2033788
          }
        },
        "location": {
          "lat": 43.1173368,
          "lng": 143.2339322
        },
        "location_type": "APPROXIMATE",
        "viewport": {
          "northeast": {
            "lat": 43.143473,
            "lng": 143.3207421
          },
          "southwest": {
            "lat": 43.084126,
            "lng": 143.2033788
          }
        }
      },
      "place_id": "ChIJUwZHREMJc18R5yA1Ng3IN6I",
      "types": [
        "political",
        "sublocality",
        "sublocality_level_2"
      ]
    },
    {
      "access_points": [

      ],
      "address_components": [
        {
          "long_name": "080-1189",
          "short_name": "080-1189",
          "types": [
            "postal_code"
          ]
        },
        {
          "long_name": "士幌町",
          "short_name": "士幌町",
          "types": [
            "locality",
            "political"
          ]
        },
        {
          "long_name": "河東郡",
          "short_name": "河東郡",
          "types": [
            "administrative_area_level_2",
            "political"
          ]
        },
        {
          "long_name": "北海道",
          "short_name": "北海道",
          "types": [
            "administrative_area_level_1",
            "political"
          ]
        },
        {
          "long_name": "日本",
          "short_name": "JP",
          "types": [
            "country",
            "political"
          ]
        }
      ],
      "formatted_address": "日本 〒080-1189",
      "geometry": {
        "bounds": {
          "northeast": {
            "lat": 43.2139694,
            "lng": 143.3918691
          },
          "southwest": {
            "lat": 43.0841263,
            "lng": 143.2033789
          }
        },
        "location": {
          "lat": 43.1672276,
          "lng": 143.2989384
        },
        "location_type": "APPROXIMATE",
        "viewport": {
          "northeast": {
            "lat": 43.2139694,
            "lng": 143.3918691
          },
          "southwest": {
            "lat": 43.0841263,
            "lng": 143.2033789
          }
        }
      },
      "place_id": "ChIJG4jYan4Gc18RtakbHdCVyeA",
      "types": [
        "postal_code"
      ]
    },
    {
      "access_points": [

      ],
      "address_components": [
        {
          "long_name": "士幌町",
          "short_name": "士幌町",
          "types": [
            "locality",
            "political"
          ]
        },
        {
          "long_name": "河東郡",
          "short_name": "河東郡",
          "types": [
            "administrative_area_level_2",
            "political"
          ]
        },
        {
          "long_name": "北海道",
          "short_name": "北海道",
          "types": [
            "administrative_area_level_1",
            "political"
          ]
        },
        {
          "long_name": "日本",
          "short_name": "JP",
          "types": [
            "country",
            "political"
          ]
        }
      ],
      "formatted_address": "日本、北海道河東郡士幌町",
      "geometry": {
        "bounds": {
          "northeast": {
            "lat": 43.2495,
            "lng": 143.4157551
          },
          "southwest": {
            "lat": 43.077804,
            "lng": 143.099537
          }
        },
        "location": {
          "lat": 43.1680544,
          "lng": 143.2414014
        },
        "location_type": "APPROXIMATE",
        "viewport": {
          "northeast": {
            "lat": 43.2495,
            "lng": 143.4157551
          },
          "southwest": {
            "lat": 43.077804,
            "lng": 143.099537
          }
        }
      },
      "place_id": "ChIJK7WszHgFc18RUKGz1sQfeBo",
      "types": [
        "locality",
        "political"
      ]
    },
    {
      "access_points": [

      ],
      "address_components": [
        {
          "long_name": "河東郡",
          "short_name": "河東郡",
          "types": [
            "administrative_area_level_2",
            "political"
          ]
        },
        {
          "long_name": "北海道",
          "short_name": "北海道",
          "types": [
            "administrative_area_level_1",
            "political"
          ]
        },
        {
          "long_name": "日本",
          "short_name": "JP",
          "types": [
            "country",
            "political"
          ]
        }
      ],
      "formatted_address": "日本、北海道河東郡",
      "geometry": {
        "bounds": {
          "northeast": {
            "lat": 43.59535,
            "lng": 143.4157545
          },
          "southwest": {
            "lat": 42.9246975,
            "lng": 142.9226945
          }
        },
        "location": {
          "lat": 43.2311539,
          "lng": 143.2219582
        },
        "location_type": "APPROXIMATE",
        "viewport": {
          "northeast": {
            "lat": 43.59535,
            "lng": 143.4157545
          },
          "southwest": {
            "lat": 42.9246975,
            "lng": 142.9226945
          }
        }
      },
      "place_id": "ChIJB-abf4MZc18RvOOJQx7kJOY",
      "types": [
        "administrative_area_level_2",
        "political"
      ]
    },
    {
      "access_points": [

      ],
      "address_components": [
        {
          "long_name": "北海道",
          "short_name": "北海道",
          "types": [
            "administrative_area_level_1",
            "political"
          ]
        },
        {
          "long_name": "日本",
          "short_name": "JP",
          "types": [
            "country",
            "political"
          ]
        }
      ],
      "formatted_address": "日本、北海道",
      "geometry": {
        "bounds": {
          "northeast": {
            "lat": 45.5265181,
            "lng": 145.817624
          },
          "southwest": {
            "lat": 41.3516002,
            "lng": 139.3340799
          }
        },
        "location": {
          "lat": 43.2203266,
          "lng": 142.8634737
        },
        "location_type": "APPROXIMATE",
        "viewport": {
          "northeast": {
            "lat": 45.5265181,
            "lng": 145.817624
          },
          "southwest": {
            "lat": 41.3516002,
            "lng": 139.3340799
          }
        }
      },
      "place_id": "ChIJi4hsnyBZn18RjwPOT1bDPBw",
      "types": [
        "administrative_area_level_1",
        "political"
      ]
    },
    {
      "access_points": [

      ],
      "address_components": [
        {
          "long_name": "日本",
          "short_name": "JP",
          "types": [
            "country",
            "political"
          ]
        }
      ],
      "formatted_address": "日本",
      "geometry": {
        "bounds": {
          "northeast": {
            "lat": 45.6412626,
            "lng": 154.0031455
          },
          "southwest": {
            "lat": 20.3585295,
            "lng": 122.8554688
          }
        },
        "location": {
          "lat": 36.204824,
          "lng": 138.252924
        },
        "location_type": "APPROXIMATE",
        "viewport": {
          "northeast": {
            "lat": 45.6412626,
            "lng": 154.0031455
          },
          "southwest": {
            "lat": 20.3585295,
            "lng": 122.8554688
          }
        }
      },
      "place_id": "ChIJLxl_1w9OZzQRRFJmfNR1QvU",
      "types": [
        "country",
        "political"
      ]
    }
  ]
}