{
  "station": "上長和",
  "lat": 42.511833,
  "lng": 140.855861,
  "plus_code": {
    "compound_code": "GV64+P8 日本、北海道伊達市",
    "global_code": "8RJ2GV64+P8"
  },
  "results": [
    {
      "access_points": [

      ],
      "address_components": [
        {
          "long_name": "３９９−１９",
          "short_name": "３９９−１９",
          "types": [
            "premise"
          ]
        },
        {
          "long_name": "上長和町",
          "short_name": "上長和町",
          "types": [
            "political",
            "sublocality",
            "sublocality_level_2"
          ]
        },
        {
          "long_name": "伊達市",
          "short_name": "伊達市",
          "types": [
            "locality",
            "political"
          ]
        },
        {
          "long_name": "北海道",
          "short_name": "北海道",
          "types": [
            "administrative_area_level_1",
            "political"
          ]
        },
        {
          "long_name": "日本",
          "short_name": "JP",
          "types": [
            "country",
            "political"
          ]
        },
        {
          "long_name": "052-0036",
          "short_name": "052-0036",
          "types": [
            "postal_code"
          ]
        }
      ],
      "formatted_address": "日本、〒052-0036 北海道伊達市上長和町３９９−１９",
      "geometry": {
        "location": {
          "lat": 42.5118639,
          "lng": 140.8558223
        },
        "location_type": "ROOFTOP",
        "viewport": {
          "northeast": {
            "lat": 42.5132128802915,
            "lng": 140.8571712802915
          },
          "southwest": {
            "lat": 42.51051491970851,
            "lng": 140.8544733197085
          }
        }
      },
      "place_id": "ChIJyT4V-YHhn18RhpKCr_z4M3Q",
      "plus_code": {
        "compound_code": "GV64+P8 日本、北海道 伊達市",
        "global_code": "8RJ2GV64+P8"
      },
      "types": [
        "street_address"
      ]
    },
    {
      "access_points": [

      ],
      "address_components": [
        {
          "long_name": "国道453号",
          "short_name": "国道453号",
          "types": [
            "route"
          ]
        },
        {
          "long_name": "上長和町",
          "short_name": "上長和町",
          "types": [
            "political",
            "sublocality",
            "sublocality_level_2"
          ]
        },
        {
          "long_name": "伊達市",
          "short_name": "伊達市",
          "types": [
            "locality",
            "political"
          ]
        },
        {
          "long_name": "北海道",
          "short_name": "北海道",
          "types": [
            "administrative_area_level_1",
            "political"
          ]
        },
        {
          "long_name": "日本",
          "short_name": "JP",
          "types": [
            "country",
            "political"
          ]
        },
        {
          "long_name": "052-0036",
          "short_name": "052-0036",
          "types": [
            "postal_code"
          ]
        }
      ],
      "formatted_address": "日本、〒052-0036 北海道伊達市上長和町 国道453号",
      "geometry": {
        "bounds": {
          "northeast": {
            "lat": 42.5128505,
            "lng": 140.8550721
          },
          "southwest": {
            "lat": 42.5122596,
            "lng": 140.8545026
          }
        },
        "location": {
          "lat": 42.5125551,
          "lng": 140.8547873
        },
        "location_type": "GEOMETRIC_CENTER",
        "viewport": {
          "northeast": {
            "lat": 42.5139040302915,
            "lng": 140.8561363302915
          },
          "southwest": {
            "lat": 42.5112060697085,
            "lng": 140.8534383697085
          }
        }
      },
      "place_id": "ChIJX5Ob3YHhn18RKKAGu_JFLbo",
      "types": [
        "route"
      ]
    },
    {
      "access_points": [

      ],
      "address_components": [
        {
          "long_name": "052-0036",
          "short_name": "052-0036",
          "types": [
            "postal_code"
          ]
        },
        {
          "long_name": "上長和町",
          "short_name": "上長和町",
          "types": [
            "political",
            "sublocality",
            "sublocality_level_2"
          ]
        },
        {
          "long_name": "伊達市",
          "short_name": "伊達市",
          "types": [
            "locality",
            "political"
          ]
        },
        {
          "long_name": "北海道",
          "short_name": "北海道",
          "types": [
            "administrative_area_level_1",
            "political"
          ]
        },
        {
          "long_name": "日本",
          "short_name": "JP",
          "types": [
            "country",
            "political"
          ]
        }
      ],
      "formatted_address": "日本 〒052-0036",
      "geometry": {
        "bounds": {
          "northeast": {
            "lat": 42.5277383,
            "lng": 140.8694861
          },
          "southwest": {
            "lat": 42.4904056,
            "lng": 140.8374382
          }
        },
        "location": {
          "lat": 42.5088045,
          "lng": 140.8552317
        },
        "location_type": "APPROXIMATE",
        "viewport": {
          "northeast": {
            "lat": 42.5277383,
            "lng": 140.8694861
          },
          "southwest": {
            "lat": 42.4904056,
            "lng": 140.8374382
          }
        }
      },
      "place_id": "ChIJVZHQMnvhn18RDfiNOLhmc7w",
      "types": [
        "postal_code"
      ]
    },
    {
      "access_points": [

      ],
      "address_components": [
        {
          "long_name": "上長和町",
          "short_name": "上長和町",
          "types": [
            "political",
            "sublocality",
            "sublocality_level_2"
          ]
        },
        {
          "long_name": "伊達市",
          "short_name": "伊達市",
          "types": [
            "locality",
            "political"
          ]
        },
        {
          "long_name": "北海道",
          "short_name": "北海道",
          "types": [
            "administrative_area_level_1",
            "political"
          ]
        },
        {
          "long_name": "日本",
          "short_name": "JP",
          "types": [
            "country",
            "political"
          ]
        }
      ],
      "formatted_address": "日本、北海道伊達市上長和町",
      "geometry": {
        "bounds": {
          "northeast": {
            "lat": 42.527738,
            "lng": 140.869431
          },
          "southwest": {
            "lat": 42.4914911,
            "lng": 140.8373857
          }
        },
        "location": {
          "lat": 42.5088045,
          "lng": 140.8552317
        },
        "location_type": "APPROXIMATE",
        "viewport": {
          "northeast": {
            "lat": 42.527738,
            "lng": 140.869431
          },
          "southwest": {
            "lat": 42.4914911,
            "lng": 140.8373857
          }
        }
      },
      "place_id": "ChIJDS61_oHhn18R0zCPhiOTB6U",
      "types": [
        "political",
        "sublocality",
        "sublocality_level_2"
      ]
    },
    {
      "access_points": [

      ],
      "address_components": [
        {
          "long_name": "伊達市",
          "short_name": "伊達市",
          "types": [
            "locality",
            "political"
          ]
        },
        {
          "long_name": "北海道",
          "short_name": "北海道",
          "types": [
            "administrative_area_level_1",
            "political"
          ]
        },
        {
          "long_name": "日本",
          "short_name": "JP",
          "types": [
            "country",
            "political"
          ]
        }
      ],
      "formatted_address": "日本、北海道伊達市",
      "geometry": {
        "bounds": {
          "northeast": {
            "lat": 42.8273971,
            "lng": 141.1990711
          },
          "southwest": {
            "lat": 42.37904,
            "lng": 140.7696168
          }
        },
        "location": {
          "lat": 42.4718668,
          "lng": 140.864685
        },
        "location_type": "APPROXIMATE",
        "viewport": {
          "northeast": {
            "lat": 42.8273971,
            "lng": 141.1990711
          },
          "southwest": {
            "lat": 42.37904,
            "lng": 140.7696168
          }
        }
      },
      "place_id": "ChIJF2tL1LZbdV8RVo-dc5Kxm7c",
      "types": [
        "locality",
        "political"
      ]
    },
    {
      "access_points": [

      ],
      "address_components": [
        {
          "long_name": "北海道",
          "short_name": "北海道",
          "types": [
            "administrative_area_level_1",
            "political"
          ]
        },
        {
          "long_name": "日本",
          "short_name": "JP",
          "types": [
            "country",
            "political"
          ]
        }
      ],
      "formatted_address": "日本、北海道",
      "geometry": {
        "bounds": {
          "northeast": {
            "lat": 45.5265181,
            "lng": 145.817624
          },
          "southwest": {
            "lat": 41.3516002,
            "lng": 139.3340799
          }
        },
        "location": {
          "lat": 43.2203266,
          "lng": 142.8634737
        },
        "location_type": "APPROXIMATE",
        "viewport": {
          "northeast": {
            "lat": 45.5265181,
            "lng": 145.817624
          },
          "southwest": {
            "lat": 41.3516002,
            "lng": 139.3340799
          }
        }
      },
      "place_id": "ChIJi4hsnyBZn18RjwPOT1bDPBw",
      "types": [
        "administrative_area_level_1",
        "political"
      ]
    },
    {
      "access_points": [

      ],
      "address_components": [
        {
          "long_name": "日本",
          "short_name": "JP",
          "types": [
            "country",
            "political"
          ]
        }
      ],
      "formatted_address": "日本",
      "geometry": {
        "bounds": {
          "northeast": {
            "lat": 45.6412626,
            "lng": 154.0031455
          },
          "southwest": {
            "lat": 20.3585295,
            "lng": 122.8554688
          }
        },
        "location": {
          "lat": 36.204824,
          "lng": 138.252924
        },
        "location_type": "APPROXIMATE",
        "viewport": {
          "northeast": {
            "lat": 45.6412626,
            "lng": 154.0031455
          },
          "southwest": {
            "lat": 20.3585295,
            "lng": 122.8554688
          }
        }
      },
      "place_id": "ChIJLxl_1w9OZzQRRFJmfNR1QvU",
      "types": [
        "country",
        "political"
      ]
    }
  ]
}