{
  "station": "国富",
  "lat": 42.978889,
  "lng": 140.653694,
  "plus_code": {
    "compound_code": "XMH3+HF 日本、北海道共和町",
    "global_code": "8RJ2XMH3+HF"
  },
  "results": [
    {
      "access_points": [

      ],
      "address_components": [
        {
          "long_name": "６３−５",
          "short_name": "６３−５",
          "types": [
            "premise"
          ]
        },
        {
          "long_name": "国富",
          "short_name": "国富",
          "types": [
            "political",
            "sublocality",
            "sublocality_level_2"
          ]
        },
        {
          "long_name": "共和町",
          "short_name": "共和町",
          "types": [
            "locality",
            "political"
          ]
        },
        {
          "long_name": "岩内郡",
          "short_name": "岩内郡",
          "types": [
            "administrative_area_level_2",
            "political"
          ]
        },
        {
          "long_name": "北海道",
          "short_name": "北海道",
          "types": [
            "administrative_area_level_1",
            "political"
          ]
        },
        {
          "long_name": "日本",
          "short_name": "JP",
          "types": [
            "country",
            "political"
          ]
        },
        {
          "long_name": "048-2143",
          "short_name": "048-2143",
          "types": [
            "postal_code"
          ]
        }
      ],
      "formatted_address": "日本、〒048-2143 北海道岩内郡共和町国富６３−５",
      "geometry": {
        "location": {
          "lat": 42.9792662,
          "lng": 140.6538297
        },
        "location_type": "ROOFTOP",
        "viewport": {
          "northeast": {
            "lat": 42.9806151802915,
            "lng": 140.6551786802915
          },
          "southwest": {
            "lat": 42.9779172197085,
            "lng": 140.6524807197085
          }
        }
      },
      "place_id": "ChIJ9cu5SWO-Cl8R0zzOFzvO-3Y",
      "plus_code": {
        "compound_code": "XMH3+PG 日本、北海道 共和町",
        "global_code": "8RJ2XMH3+PG"
      },
      "types": [
        "street_address"
      ]
    },
    {
      "access_points": [

      ],
      "address_components": [
        {
          "long_name": "Unnamed Road",
          "short_name": "Unnamed Road",
          "types": [
            "route"
          ]
        },
        {
          "long_name": "国富",
          "short_name": "国富",
          "types": [
            "political",
            "sublocality",
            "sublocality_level_2"
          ]
        },
        {
          "long_name": "共和町",
          "short_name": "共和町",
          "types": [
            "locality",
            "political"
          ]
        },
        {
          "long_name": "岩内郡",
          "short_name": "岩内郡",
          "types": [
            "administrative_area_level_2",
            "political"
          ]
        },
        {
          "long_name": "北海道",
          "short_name": "北海道",
          "types": [
            "administrative_area_level_1",
            "political"
          ]
        },
        {
          "long_name": "日本",
          "short_name": "JP",
          "types": [
            "country",
            "political"
          ]
        },
        {
          "long_name": "048-2143",
          "short_name": "048-2143",
          "types": [
            "postal_code"
          ]
        }
      ],
      "formatted_address": "Unnamed Road, 国富 共和町 岩内郡 北海道 048-2143 日本",
      "geometry": {
        "bounds": {
          "northeast": {
            "lat": 42.9793349,
            "lng": 140.6543019
          },
          "southwest": {
            "lat": 42.9785871,
            "lng": 140.6528535
          }
        },
        "location": {
          "lat": 42.97881719999999,
          "lng": 140.6534055
        },
        "location_type": "GEOMETRIC_CENTER",
        "viewport": {
          "northeast": {
            "lat": 42.9803099802915,
            "lng": 140.6549266802915
          },
          "southwest": {
            "lat": 42.9776120197085,
            "lng": 140.6522287197085
          }
        }
      },
      "place_id": "ChIJS2YlNWO-Cl8REOilyridHEo",
      "types": [
        "route"
      ]
    },
    {
      "access_points": [

      ],
      "address_components": [
        {
          "long_name": "国富",
          "short_name": "国富",
          "types": [
            "political",
            "sublocality",
            "sublocality_level_2"
          ]
        },
        {
          "long_name": "共和町",
          "short_name": "共和町",
          "types": [
            "locality",
            "political"
          ]
        },
        {
          "long_name": "岩内郡",
          "short_name": "岩内郡",
          "types": [
            "administrative_area_level_2",
            "political"
          ]
        },
        {
          "long_name": "北海道",
          "short_name": "北海道",
          "types": [
            "administrative_area_level_1",
            "political"
          ]
        },
        {
          "long_name": "日本",
          "short_name": "JP",
          "types": [
            "country",
            "political"
          ]
        },
        {
          "long_name": "048-2143",
          "short_name": "048-2143",
          "types": [
            "postal_code"
          ]
        }
      ],
      "formatted_address": "日本、〒048-2143 北海道岩内郡共和町国富",
      "geometry": {
        "bounds": {
          "northeast": {
            "lat": 43.079817,
            "lng": 140.7069091
          },
          "southwest": {
            "lat": 42.913742,
            "lng": 140.6210069
          }
        },
        "location": {
          "lat": 43.0146422,
          "lng": 140.673282
        },
        "location_type": "APPROXIMATE",
        "viewport": {
          "northeast": {
            "lat": 43.079817,
            "lng": 140.7069091
          },
          "southwest": {
            "lat": 42.913742,
            "lng": 140.6210069
          }
        }
      },
      "place_id": "ChIJE4XsRsu_Cl8RdfDB7pNucQg",
      "types": [
        "political",
        "sublocality",
        "sublocality_level_2"
      ]
    },
    {
      "access_points": [

      ],
      "address_components": [
        {
          "long_name": "048-2143",
          "short_name": "048-2143",
          "types": [
            "postal_code"
          ]
        },
        {
          "long_name": "国富",
          "short_name": "国富",
          "types": [
            "political",
            "sublocality",
            "sublocality_level_2"
          ]
        },
        {
          "long_name": "共和町",
          "short_name": "共和町",
          "types": [
            "locality",
            "political"
          ]
        },
        {
          "long_name": "岩内郡",
          "short_name": "岩内郡",
          "types": [
            "administrative_area_level_2",
            "political"
          ]
        },
        {
          "long_name": "北海道",
          "short_name": "北海道",
          "types": [
            "administrative_area_level_1",
            "political"
          ]
        },
        {
          "long_name": "日本",
          "short_name": "JP",
          "types": [
            "country",
            "political"
          ]
        }
      ],
      "formatted_address": "日本 〒048-2143",
      "geometry": {
        "bounds": {
          "northeast": {
            "lat": 43.0798165,
            "lng": 140.7075194
          },
          "southwest": {
            "lat": 42.9137415,
            "lng": 140.6220961
          }
        },
        "location": {
          "lat": 43.0146422,
          "lng": 140.673282
        },
        "location_type": "APPROXIMATE",
        "viewport": {
          "northeast": {
            "lat": 43.0798165,
            "lng": 140.7075194
          },
          "southwest": {
            "lat": 42.9137415,
            "lng": 140.6220961
          }
        }
      },
      "place_id": "ChIJ742J1GS-Cl8RvPLnNK89lLo",
      "types": [
        "postal_code"
      ]
    },
    {
      "access_points": [

      ],
      "address_components": [
        {
          "long_name": "共和町",
          "short_name": "共和町",
          "types": [
            "locality",
            "political"
          ]
        },
        {
          "long_name": "岩内郡",
          "short_name": "岩内郡",
          "types": [
            "administrative_area_level_2",
            "political"
          ]
        },
        {
          "long_name": "北海道",
          "short_name": "北海道",
          "types": [
            "administrative_area_level_1",
            "political"
          ]
        },
        {
          "long_name": "日本",
          "short_name": "JP",
          "types": [
            "country",
            "political"
          ]
        }
      ],
      "formatted_address": "日本、北海道岩内郡共和町",
      "geometry": {
        "bounds": {
          "northeast": {
            "lat": 43.09637,
            "lng": 140.771302
          },
          "southwest": {
            "lat": 42.8875839,
            "lng": 140.507814
          }
        },
        "location": {
          "lat": 42.9803995,
          "lng": 140.6112175
        },
        "location_type": "APPROXIMATE",
        "viewport": {
          "northeast": {
            "lat": 43.09637,
            "lng": 140.771302
          },
          "southwest": {
            "lat": 42.8875839,
            "lng": 140.507814
          }
        }
      },
      "place_id": "ChIJ-0Rx4Wq-Cl8RBcgF15Ox2mw",
      "types": [
        "locality",
        "political"
      ]
    },
    {
      "access_points": [

      ],
      "address_components": [
        {
          "long_name": "岩内郡",
          "short_name": "岩内郡",
          "types": [
            "administrative_area_level_2",
            "political"
          ]
        },
        {
          "long_name": "北海道",
          "short_name": "北海道",
          "types": [
            "administrative_area_level_1",
            "political"
          ]
        },
        {
          "long_name": "日本",
          "short_name": "JP",
          "types": [
            "country",
            "political"
          ]
        }
      ],
      "formatted_address": "日本、北海道岩内郡",
      "geometry": {
        "bounds": {
          "northeast": {
            "lat": 43.0963699,
            "lng": 140.7713018
          },
          "southwest": {
            "lat": 42.887584,
            "lng": 140.3807912
          }
        },
        "location": {
          "lat": 42.9527088,
          "lng": 140.5987006
        },
        "location_type": "APPROXIMATE",
        "viewport": {
          "northeast": {
            "lat": 43.0963699,
            "lng": 140.7713018
          },
          "southwest": {
            "lat": 42.887584,
            "lng": 140.3807912
          }
        }
      },
      "place_id": "ChIJ4zli6hiWCl8R6rBpl5tptmk",
      "types": [
        "administrative_area_level_2",
        "political"
      ]
    },
    {
      "access_points": [

      ],
      "address_components": [
        {
          "long_name": "北海道",
          "short_name": "北海道",
          "types": [
            "administrative_area_level_1",
            "political"
          ]
        },
        {
          "long_name": "日本",
          "short_name": "JP",
          "types": [
            "country",
            "political"
          ]
        }
      ],
      "formatted_address": "日本、北海道",
      "geometry": {
        "bounds": {
          "northeast": {
            "lat": 45.5265181,
            "lng": 145.817624
          },
          "southwest": {
            "lat": 41.3516002,
            "lng": 139.3340799
          }
        },
        "location": {
          "lat": 43.2203266,
          "lng": 142.8634737
        },
        "location_type": "APPROXIMATE",
        "viewport": {
          "northeast": {
            "lat": 45.5265181,
            "lng": 145.817624
          },
          "southwest": {
            "lat": 41.3516002,
            "lng": 139.3340799
          }
        }
      },
      "place_id": "ChIJi4hsnyBZn18RjwPOT1bDPBw",
      "types": [
        "administrative_area_level_1",
        "political"
      ]
    },
    {
      "access_points": [

      ],
      "address_components": [
        {
          "long_name": "日本",
          "short_name": "JP",
          "types": [
            "country",
            "political"
          ]
        }
      ],
      "formatted_address": "日本",
      "geometry": {
        "bounds": {
          "northeast": {
            "lat": 45.6412626,
            "lng": 154.0031455
          },
          "southwest": {
            "lat": 20.3585295,
            "lng": 122.8554688
          }
        },
        "location": {
          "lat": 36.204824,
          "lng": 138.252924
        },
        "location_type": "APPROXIMATE",
        "viewport": {
          "northeast": {
            "lat": 45.6412626,
            "lng": 154.0031455
          },
          "southwest": {
            "lat": 20.3585295,
            "lng": 122.8554688
          }
        }
      },
      "place_id": "ChIJLxl_1w9OZzQRRFJmfNR1QvU",
      "types": [
        "country",
        "political"
      ]
    }
  ]
}