{
  "station": "士幌",
  "lat": 43.162028,
  "lng": 143.247722,
  "plus_code": {
    "compound_code": "566X+R3 日本、北海道士幌町",
    "global_code": "8RM5566X+R3"
  },
  "results": [
    {
      "access_points": [

      ],
      "address_components": [
        {
          "long_name": "１５７−１８",
          "short_name": "１５７−１８",
          "types": [
            "premise"
          ]
        },
        {
          "long_name": "西２線",
          "short_name": "西２線",
          "types": [
            "political",
            "sublocality",
            "sublocality_level_3"
          ]
        },
        {
          "long_name": "字士幌",
          "short_name": "字士幌",
          "types": [
            "political",
            "sublocality",
            "sublocality_level_2"
          ]
        },
        {
          "long_name": "士幌町",
          "short_name": "士幌町",
          "types": [
            "locality",
            "political"
          ]
        },
        {
          "long_name": "河東郡",
          "short_name": "河東郡",
          "types": [
            "administrative_area_level_2",
            "political"
          ]
        },
        {
          "long_name": "北海道",
          "short_name": "北海道",
          "types": [
            "administrative_area_level_1",
            "political"
          ]
        },
        {
          "long_name": "日本",
          "short_name": "JP",
          "types": [
            "country",
            "political"
          ]
        },
        {
          "long_name": "080-1200",
          "short_name": "080-1200",
          "types": [
            "postal_code"
          ]
        }
      ],
      "formatted_address": "日本、〒080-1200 北海道河東郡士幌町字士幌西２線１５７−１８",
      "geometry": {
        "location": {
          "lat": 43.1621073,
          "lng": 143.2474958
        },
        "location_type": "ROOFTOP",
        "viewport": {
          "northeast": {
            "lat": 43.1634562802915,
            "lng": 143.2488447802915
          },
          "southwest": {
            "lat": 43.1607583197085,
            "lng": 143.2461468197085
          }
        }
      },
      "place_id": "ChIJ73FM6IAPc18RmkdD6Qxby-M",
      "plus_code": {
        "compound_code": "566W+RX 日本、北海道士幌町",
        "global_code": "8RM5566W+RX"
      },
      "types": [
        "street_address"
      ]
    },
    {
      "access_points": [

      ],
      "address_components": [
        {
          "long_name": "士幌停車場線",
          "short_name": "道道417号",
          "types": [
            "route"
          ]
        },
        {
          "long_name": "西２線",
          "short_name": "西２線",
          "types": [
            "political",
            "sublocality",
            "sublocality_level_3"
          ]
        },
        {
          "long_name": "字士幌",
          "short_name": "字士幌",
          "types": [
            "political",
            "sublocality",
            "sublocality_level_2"
          ]
        },
        {
          "long_name": "士幌町",
          "short_name": "士幌町",
          "types": [
            "locality",
            "political"
          ]
        },
        {
          "long_name": "河東郡",
          "short_name": "河東郡",
          "types": [
            "administrative_area_level_2",
            "political"
          ]
        },
        {
          "long_name": "北海道",
          "short_name": "北海道",
          "types": [
            "administrative_area_level_1",
            "political"
          ]
        },
        {
          "long_name": "日本",
          "short_name": "JP",
          "types": [
            "country",
            "political"
          ]
        },
        {
          "long_name": "080-1200",
          "short_name": "080-1200",
          "types": [
            "postal_code"
          ]
        }
      ],
      "formatted_address": "日本、〒080-1200 北海道河東郡士幌町字士幌西２線 道道417号",
      "geometry": {
        "bounds": {
          "northeast": {
            "lat": 43.1623653,
            "lng": 143.2472401
          },
          "southwest": {
            "lat": 43.1623011,
            "lng": 143.2466842
          }
        },
        "location": {
          "lat": 43.16233320000001,
          "lng": 143.2469622
        },
        "location_type": "GEOMETRIC_CENTER",
        "viewport": {
          "northeast": {
            "lat": 43.1636821802915,
            "lng": 143.2483111302915
          },
          "southwest": {
            "lat": 43.1609842197085,
            "lng": 143.2456131697085
          }
        }
      },
      "place_id": "ChIJsYJfw4APc18RoIktTGvI1do",
      "types": [
        "route"
      ]
    },
    {
      "access_points": [

      ],
      "address_components": [
        {
          "long_name": "西２線",
          "short_name": "西２線",
          "types": [
            "political",
            "sublocality",
            "sublocality_level_3"
          ]
        },
        {
          "long_name": "字士幌",
          "short_name": "字士幌",
          "types": [
            "political",
            "sublocality",
            "sublocality_level_2"
          ]
        },
        {
          "long_name": "士幌町",
          "short_name": "士幌町",
          "types": [
            "locality",
            "political"
          ]
        },
        {
          "long_name": "河東郡",
          "short_name": "河東郡",
          "types": [
            "administrative_area_level_2",
            "political"
          ]
        },
        {
          "long_name": "北海道",
          "short_name": "北海道",
          "types": [
            "administrative_area_level_1",
            "political"
          ]
        },
        {
          "long_name": "日本",
          "short_name": "JP",
          "types": [
            "country",
            "political"
          ]
        },
        {
          "long_name": "080-1200",
          "short_name": "080-1200",
          "types": [
            "postal_code"
          ]
        }
      ],
      "formatted_address": "日本、〒080-1200 北海道河東郡士幌町字士幌西２線",
      "geometry": {
        "bounds": {
          "northeast": {
            "lat": 43.190998,
            "lng": 143.253242
          },
          "southwest": {
            "lat": 43.139785,
            "lng": 143.213393
          }
        },
        "location": {
          "lat": 43.15431880000001,
          "lng": 143.2297731
        },
        "location_type": "APPROXIMATE",
        "viewport": {
          "northeast": {
            "lat": 43.190998,
            "lng": 143.253242
          },
          "southwest": {
            "lat": 43.139785,
            "lng": 143.213393
          }
        }
      },
      "place_id": "ChIJoSAUGo8Pc18RL7CFJj83IEc",
      "types": [
        "political",
        "sublocality",
        "sublocality_level_3"
      ]
    },
    {
      "access_points": [

      ],
      "address_components": [
        {
          "long_name": "字士幌",
          "short_name": "字士幌",
          "types": [
            "political",
            "sublocality",
            "sublocality_level_2"
          ]
        },
        {
          "long_name": "士幌町",
          "short_name": "士幌町",
          "types": [
            "locality",
            "political"
          ]
        },
        {
          "long_name": "河東郡",
          "short_name": "河東郡",
          "types": [
            "administrative_area_level_2",
            "political"
          ]
        },
        {
          "long_name": "北海道",
          "short_name": "北海道",
          "types": [
            "administrative_area_level_1",
            "political"
          ]
        },
        {
          "long_name": "日本",
          "short_name": "JP",
          "types": [
            "country",
            "political"
          ]
        }
      ],
      "formatted_address": "日本、北海道河東郡士幌町字士幌",
      "geometry": {
        "bounds": {
          "northeast": {
            "lat": 43.213969,
            "lng": 143.3918689
          },
          "southwest": {
            "lat": 43.13048999999999,
            "lng": 143.213393
          }
        },
        "location": {
          "lat": 43.1672276,
          "lng": 143.2989384
        },
        "location_type": "APPROXIMATE",
        "viewport": {
          "northeast": {
            "lat": 43.213969,
            "lng": 143.3918689
          },
          "southwest": {
            "lat": 43.13048999999999,
            "lng": 143.213393
          }
        }
      },
      "place_id": "ChIJc4xQPqwFc18RCFSSwlpBzXU",
      "types": [
        "political",
        "sublocality",
        "sublocality_level_2"
      ]
    },
    {
      "access_points": [

      ],
      "address_components": [
        {
          "long_name": "080-1200",
          "short_name": "080-1200",
          "types": [
            "postal_code"
          ]
        },
        {
          "long_name": "士幌町",
          "short_name": "士幌町",
          "types": [
            "locality",
            "political"
          ]
        },
        {
          "long_name": "河東郡",
          "short_name": "河東郡",
          "types": [
            "administrative_area_level_2",
            "political"
          ]
        },
        {
          "long_name": "北海道",
          "short_name": "北海道",
          "types": [
            "administrative_area_level_1",
            "political"
          ]
        },
        {
          "long_name": "日本",
          "short_name": "JP",
          "types": [
            "country",
            "political"
          ]
        }
      ],
      "formatted_address": "日本 〒080-1200",
      "geometry": {
        "bounds": {
          "northeast": {
            "lat": 43.2495072,
            "lng": 143.3893722
          },
          "southwest": {
            "lat": 43.077743,
            "lng": 143.0995583
          }
        },
        "location": {
          "lat": 43.2111404,
          "lng": 143.1959283
        },
        "location_type": "APPROXIMATE",
        "viewport": {
          "northeast": {
            "lat": 43.2495072,
            "lng": 143.3893722
          },
          "southwest": {
            "lat": 43.077743,
            "lng": 143.0995583
          }
        }
      },
      "place_id": "ChIJQUAhvk0Qc18R3QgZfcso3jk",
      "types": [
        "postal_code"
      ]
    },
    {
      "access_points": [

      ],
      "address_components": [
        {
          "long_name": "士幌町",
          "short_name": "士幌町",
          "types": [
            "locality",
            "political"
          ]
        },
        {
          "long_name": "河東郡",
          "short_name": "河東郡",
          "types": [
            "administrative_area_level_2",
            "political"
          ]
        },
        {
          "long_name": "北海道",
          "short_name": "北海道",
          "types": [
            "administrative_area_level_1",
            "political"
          ]
        },
        {
          "long_name": "日本",
          "short_name": "JP",
          "types": [
            "country",
            "political"
          ]
        }
      ],
      "formatted_address": "日本、北海道河東郡士幌町",
      "geometry": {
        "bounds": {
          "northeast": {
            "lat": 43.2495,
            "lng": 143.4157551
          },
          "southwest": {
            "lat": 43.077804,
            "lng": 143.099537
          }
        },
        "location": {
          "lat": 43.1680544,
          "lng": 143.2414014
        },
        "location_type": "APPROXIMATE",
        "viewport": {
          "northeast": {
            "lat": 43.2495,
            "lng": 143.4157551
          },
          "southwest": {
            "lat": 43.077804,
            "lng": 143.099537
          }
        }
      },
      "place_id": "ChIJK7WszHgFc18RUKGz1sQfeBo",
      "types": [
        "locality",
        "political"
      ]
    },
    {
      "access_points": [

      ],
      "address_components": [
        {
          "long_name": "河東郡",
          "short_name": "河東郡",
          "types": [
            "administrative_area_level_2",
            "political"
          ]
        },
        {
          "long_name": "北海道",
          "short_name": "北海道",
          "types": [
            "administrative_area_level_1",
            "political"
          ]
        },
        {
          "long_name": "日本",
          "short_name": "JP",
          "types": [
            "country",
            "political"
          ]
        }
      ],
      "formatted_address": "日本、北海道河東郡",
      "geometry": {
        "bounds": {
          "northeast": {
            "lat": 43.59535,
            "lng": 143.4157545
          },
          "southwest": {
            "lat": 42.9246975,
            "lng": 142.9226945
          }
        },
        "location": {
          "lat": 43.2311539,
          "lng": 143.2219582
        },
        "location_type": "APPROXIMATE",
        "viewport": {
          "northeast": {
            "lat": 43.59535,
            "lng": 143.4157545
          },
          "southwest": {
            "lat": 42.9246975,
            "lng": 142.9226945
          }
        }
      },
      "place_id": "ChIJB-abf4MZc18RvOOJQx7kJOY",
      "types": [
        "administrative_area_level_2",
        "political"
      ]
    },
    {
      "access_points": [

      ],
      "address_components": [
        {
          "long_name": "北海道",
          "short_name": "北海道",
          "types": [
            "administrative_area_level_1",
            "political"
          ]
        },
        {
          "long_name": "日本",
          "short_name": "JP",
          "types": [
            "country",
            "political"
          ]
        }
      ],
      "formatted_address": "日本、北海道",
      "geometry": {
        "bounds": {
          "northeast": {
            "lat": 45.5265181,
            "lng": 145.817624
          },
          "southwest": {
            "lat": 41.3516002,
            "lng": 139.3340799
          }
        },
        "location": {
          "lat": 43.2203266,
          "lng": 142.8634737
        },
        "location_type": "APPROXIMATE",
        "viewport": {
          "northeast": {
            "lat": 45.5265181,
            "lng": 145.817624
          },
          "southwest": {
            "lat": 41.3516002,
            "lng": 139.3340799
          }
        }
      },
      "place_id": "ChIJi4hsnyBZn18RjwPOT1bDPBw",
      "types": [
        "administrative_area_level_1",
        "political"
      ]
    },
    {
      "access_points": [

      ],
      "address_components": [
        {
          "long_name": "日本",
          "short_name": "JP",
          "types": [
            "country",
            "political"
          ]
        }
      ],
      "formatted_address": "日本",
      "geometry": {
        "bounds": {
          "northeast": {
            "lat": 45.6412626,
            "lng": 154.0031455
          },
          "southwest": {
            "lat": 20.3585295,
            "lng": 122.8554688
          }
        },
        "location": {
          "lat": 36.204824,
          "lng": 138.252924
        },
        "location_type": "APPROXIMATE",
        "viewport": {
          "northeast": {
            "lat": 45.6412626,
            "lng": 154.0031455
          },
          "southwest": {
            "lat": 20.3585295,
            "lng": 122.8554688
          }
        }
      },
      "place_id": "ChIJLxl_1w9OZzQRRFJmfNR1QvU",
      "types": [
        "country",
        "political"
      ]
    }
  ]
}