{
  "station": "脇方",
  "lat": 42.869111,
  "lng": 140.955806,
  "plus_code": {
    "compound_code": "VX94+J8 日本、北海道京極町",
    "global_code": "8RJ2VX94+J8"
  },
  "results": [
    {
      "address_components": [
        {
          "long_name": "９５２",
          "short_name": "９５２",
          "types": [
            "premise"
          ]
        },
        {
          "long_name": "字脇方",
          "short_name": "字脇方",
          "types": [
            "political",
            "sublocality",
            "sublocality_level_2"
          ]
        },
        {
          "long_name": "京極町",
          "short_name": "京極町",
          "types": [
            "locality",
            "political"
          ]
        },
        {
          "long_name": "虻田郡",
          "short_name": "虻田郡",
          "types": [
            "administrative_area_level_2",
            "political"
          ]
        },
        {
          "long_name": "北海道",
          "short_name": "北海道",
          "types": [
            "administrative_area_level_1",
            "political"
          ]
        },
        {
          "long_name": "日本",
          "short_name": "JP",
          "types": [
            "country",
            "political"
          ]
        },
        {
          "long_name": "044-0123",
          "short_name": "044-0123",
          "types": [
            "postal_code"
          ]
        }
      ],
      "formatted_address": "日本、〒044-0123 北海道虻田郡京極町字脇方９５２",
      "geometry": {
        "location": {
          "lat": 42.8697011,
          "lng": 140.9534561
        },
        "location_type": "ROOFTOP",
        "viewport": {
          "northeast": {
            "lat": 42.8710500802915,
            "lng": 140.9548050802915
          },
          "southwest": {
            "lat": 42.8683521197085,
            "lng": 140.9521071197085
          }
        }
      },
      "place_id": "ChIJmyD8-_K1Cl8R9Sr7DpoFb-U",
      "plus_code": {
        "compound_code": "VX93+V9 日本、北海道京極町",
        "global_code": "8RJ2VX93+V9"
      },
      "types": [
        "street_address"
      ]
    },
    {
      "address_components": [
        {
          "long_name": "黒橋京極線",
          "short_name": "道道784号",
          "types": [
            "route"
          ]
        },
        {
          "long_name": "字脇方",
          "short_name": "字脇方",
          "types": [
            "political",
            "sublocality",
            "sublocality_level_2"
          ]
        },
        {
          "long_name": "京極町",
          "short_name": "京極町",
          "types": [
            "locality",
            "political"
          ]
        },
        {
          "long_name": "虻田郡",
          "short_name": "虻田郡",
          "types": [
            "administrative_area_level_2",
            "political"
          ]
        },
        {
          "long_name": "北海道",
          "short_name": "北海道",
          "types": [
            "administrative_area_level_1",
            "political"
          ]
        },
        {
          "long_name": "日本",
          "short_name": "JP",
          "types": [
            "country",
            "political"
          ]
        },
        {
          "long_name": "044-0123",
          "short_name": "044-0123",
          "types": [
            "postal_code"
          ]
        }
      ],
      "formatted_address": "日本、〒044-0123 北海道虻田郡京極町字脇方 道道784号",
      "geometry": {
        "bounds": {
          "northeast": {
            "lat": 42.8687998,
            "lng": 140.9558981
          },
          "southwest": {
            "lat": 42.8685146,
            "lng": 140.954577
          }
        },
        "location": {
          "lat": 42.8686569,
          "lng": 140.9552374
        },
        "location_type": "GEOMETRIC_CENTER",
        "viewport": {
          "northeast": {
            "lat": 42.8700061802915,
            "lng": 140.9565865302915
          },
          "southwest": {
            "lat": 42.8673082197085,
            "lng": 140.9538885697085
          }
        }
      },
      "place_id": "ChIJ03Up1_K1Cl8RBjZfsP0g_g4",
      "types": [
        "route"
      ]
    },
    {
      "address_components": [
        {
          "long_name": "044-0123",
          "short_name": "044-0123",
          "types": [
            "postal_code"
          ]
        },
        {
          "long_name": "字脇方",
          "short_name": "字脇方",
          "types": [
            "political",
            "sublocality",
            "sublocality_level_2"
          ]
        },
        {
          "long_name": "京極町",
          "short_name": "京極町",
          "types": [
            "locality",
            "political"
          ]
        },
        {
          "long_name": "虻田郡",
          "short_name": "虻田郡",
          "types": [
            "administrative_area_level_2",
            "political"
          ]
        },
        {
          "long_name": "北海道",
          "short_name": "北海道",
          "types": [
            "administrative_area_level_1",
            "political"
          ]
        },
        {
          "long_name": "日本",
          "short_name": "JP",
          "types": [
            "country",
            "political"
          ]
        }
      ],
      "formatted_address": "日本 〒044-0123",
      "geometry": {
        "bounds": {
          "northeast": {
            "lat": 42.8901664,
            "lng": 141.0073314
          },
          "southwest": {
            "lat": 42.8415731,
            "lng": 140.9236258
          }
        },
        "location": {
          "lat": 42.8665371,
          "lng": 140.9641017
        },
        "location_type": "APPROXIMATE",
        "viewport": {
          "northeast": {
            "lat": 42.8901664,
            "lng": 141.0073314
          },
          "southwest": {
            "lat": 42.8415731,
            "lng": 140.9236258
          }
        }
      },
      "place_id": "ChIJe9Pl-_K1Cl8RQWOQz9QM3ak",
      "types": [
        "postal_code"
      ]
    },
    {
      "address_components": [
        {
          "long_name": "字脇方",
          "short_name": "字脇方",
          "types": [
            "political",
            "sublocality",
            "sublocality_level_2"
          ]
        },
        {
          "long_name": "京極町",
          "short_name": "京極町",
          "types": [
            "locality",
            "political"
          ]
        },
        {
          "long_name": "虻田郡",
          "short_name": "虻田郡",
          "types": [
            "administrative_area_level_2",
            "political"
          ]
        },
        {
          "long_name": "北海道",
          "short_name": "北海道",
          "types": [
            "administrative_area_level_1",
            "political"
          ]
        },
        {
          "long_name": "日本",
          "short_name": "JP",
          "types": [
            "country",
            "political"
          ]
        },
        {
          "long_name": "044-0123",
          "short_name": "044-0123",
          "types": [
            "postal_code"
          ]
        }
      ],
      "formatted_address": "日本、〒044-0123 北海道虻田郡京極町字脇方",
      "geometry": {
        "bounds": {
          "northeast": {
            "lat": 42.890166,
            "lng": 141.007331
          },
          "southwest": {
            "lat": 42.841573,
            "lng": 140.923626
          }
        },
        "location": {
          "lat": 42.8665371,
          "lng": 140.9641017
        },
        "location_type": "APPROXIMATE",
        "viewport": {
          "northeast": {
            "lat": 42.890166,
            "lng": 141.007331
          },
          "southwest": {
            "lat": 42.841573,
            "lng": 140.923626
          }
        }
      },
      "place_id": "ChIJ9UX4Hom1Cl8Re8837LOEnuY",
      "types": [
        "political",
        "sublocality",
        "sublocality_level_2"
      ]
    },
    {
      "address_components": [
        {
          "long_name": "京極町",
          "short_name": "京極町",
          "types": [
            "locality",
            "political"
          ]
        },
        {
          "long_name": "虻田郡",
          "short_name": "虻田郡",
          "types": [
            "administrative_area_level_2",
            "political"
          ]
        },
        {
          "long_name": "北海道",
          "short_name": "北海道",
          "types": [
            "administrative_area_level_1",
            "political"
          ]
        },
        {
          "long_name": "日本",
          "short_name": "JP",
          "types": [
            "country",
            "political"
          ]
        }
      ],
      "formatted_address": "日本、北海道虻田郡京極町",
      "geometry": {
        "bounds": {
          "northeast": {
            "lat": 42.986186,
            "lng": 141.0527551
          },
          "southwest": {
            "lat": 42.804678,
            "lng": 140.806801
          }
        },
        "location": {
          "lat": 42.8584874,
          "lng": 140.884085
        },
        "location_type": "APPROXIMATE",
        "viewport": {
          "northeast": {
            "lat": 42.986186,
            "lng": 141.0527551
          },
          "southwest": {
            "lat": 42.804678,
            "lng": 140.806801
          }
        }
      },
      "place_id": "ChIJ22LPleHJCl8RBR-ImGxXeQ0",
      "types": [
        "locality",
        "political"
      ]
    },
    {
      "address_components": [
        {
          "long_name": "虻田郡",
          "short_name": "虻田郡",
          "types": [
            "administrative_area_level_2",
            "political"
          ]
        },
        {
          "long_name": "北海道",
          "short_name": "北海道",
          "types": [
            "administrative_area_level_1",
            "political"
          ]
        },
        {
          "long_name": "日本",
          "short_name": "JP",
          "types": [
            "country",
            "political"
          ]
        }
      ],
      "formatted_address": "日本、北海道虻田郡",
      "geometry": {
        "bounds": {
          "northeast": {
            "lat": 43.01515699999999,
            "lng": 141.1071068
          },
          "southwest": {
            "lat": 42.5206114,
            "lng": 140.5330241
          }
        },
        "location": {
          "lat": 42.8466513,
          "lng": 140.8507483
        },
        "location_type": "APPROXIMATE",
        "viewport": {
          "northeast": {
            "lat": 43.01515699999999,
            "lng": 141.1071068
          },
          "southwest": {
            "lat": 42.5206114,
            "lng": 140.5330241
          }
        }
      },
      "place_id": "ChIJQSZwGF-tCl8RWQCSrmilF4k",
      "types": [
        "administrative_area_level_2",
        "political"
      ]
    },
    {
      "address_components": [
        {
          "long_name": "北海道",
          "short_name": "北海道",
          "types": [
            "administrative_area_level_1",
            "political"
          ]
        },
        {
          "long_name": "日本",
          "short_name": "JP",
          "types": [
            "country",
            "political"
          ]
        }
      ],
      "formatted_address": "日本、北海道",
      "geometry": {
        "bounds": {
          "northeast": {
            "lat": 45.5265181,
            "lng": 145.817624
          },
          "southwest": {
            "lat": 41.3516002,
            "lng": 139.3340799
          }
        },
        "location": {
          "lat": 43.2203266,
          "lng": 142.8634737
        },
        "location_type": "APPROXIMATE",
        "viewport": {
          "northeast": {
            "lat": 45.5265181,
            "lng": 145.817624
          },
          "southwest": {
            "lat": 41.3516002,
            "lng": 139.3340799
          }
        }
      },
      "place_id": "ChIJi4hsnyBZn18RjwPOT1bDPBw",
      "types": [
        "administrative_area_level_1",
        "political"
      ]
    },
    {
      "address_components": [
        {
          "long_name": "日本",
          "short_name": "JP",
          "types": [
            "country",
            "political"
          ]
        }
      ],
      "formatted_address": "日本",
      "geometry": {
        "bounds": {
          "northeast": {
            "lat": 45.6412626,
            "lng": 154.0031455
          },
          "southwest": {
            "lat": 20.3585295,
            "lng": 122.8554688
          }
        },
        "location": {
          "lat": 36.204824,
          "lng": 138.252924
        },
        "location_type": "APPROXIMATE",
        "viewport": {
          "northeast": {
            "lat": 45.6412626,
            "lng": 154.0031455
          },
          "southwest": {
            "lat": 20.3585295,
            "lng": 122.8554688
          }
        }
      },
      "place_id": "ChIJLxl_1w9OZzQRRFJmfNR1QvU",
      "types": [
        "country",
        "political"
      ]
    }
  ]
}