{
  "station": "北平和",
  "lat": 43.196944,
  "lng": 143.26875,
  "plus_code": {
    "compound_code": "57W9+QF 日本、北海道士幌町",
    "global_code": "8RM557W9+QF"
  },
  "results": [
    {
      "access_points": [

      ],
      "address_components": [
        {
          "long_name": "Unnamed Road",
          "short_name": "Unnamed Road",
          "types": [
            "route"
          ]
        },
        {
          "long_name": "字士幌",
          "short_name": "字士幌",
          "types": [
            "political",
            "sublocality",
            "sublocality_level_2"
          ]
        },
        {
          "long_name": "士幌町",
          "short_name": "士幌町",
          "types": [
            "locality",
            "political"
          ]
        },
        {
          "long_name": "河東郡",
          "short_name": "河東郡",
          "types": [
            "administrative_area_level_2",
            "political"
          ]
        },
        {
          "long_name": "北海道",
          "short_name": "北海道",
          "types": [
            "administrative_area_level_1",
            "political"
          ]
        },
        {
          "long_name": "日本",
          "short_name": "JP",
          "types": [
            "country",
            "political"
          ]
        },
        {
          "long_name": "080-1189",
          "short_name": "080-1189",
          "types": [
            "postal_code"
          ]
        }
      ],
      "formatted_address": "Unnamed Road, 字士幌 士幌町 河東郡 北海道 080-1189 日本",
      "geometry": {
        "bounds": {
          "northeast": {
            "lat": 43.1977653,
            "lng": 143.272879
          },
          "southwest": {
            "lat": 43.1969732,
            "lng": 143.26631
          }
        },
        "location": {
          "lat": 43.1973698,
          "lng": 143.2695946
        },
        "location_type": "GEOMETRIC_CENTER",
        "viewport": {
          "northeast": {
            "lat": 43.1987182302915,
            "lng": 143.272879
          },
          "southwest": {
            "lat": 43.1960202697085,
            "lng": 143.26631
          }
        }
      },
      "place_id": "ChIJGSC12CcFc18R8NWg-MeKh9E",
      "types": [
        "route"
      ]
    },
    {
      "access_points": [

      ],
      "address_components": [
        {
          "long_name": "字士幌",
          "short_name": "字士幌",
          "types": [
            "political",
            "sublocality",
            "sublocality_level_2"
          ]
        },
        {
          "long_name": "士幌町",
          "short_name": "士幌町",
          "types": [
            "locality",
            "political"
          ]
        },
        {
          "long_name": "河東郡",
          "short_name": "河東郡",
          "types": [
            "administrative_area_level_2",
            "political"
          ]
        },
        {
          "long_name": "北海道",
          "short_name": "北海道",
          "types": [
            "administrative_area_level_1",
            "political"
          ]
        },
        {
          "long_name": "日本",
          "short_name": "JP",
          "types": [
            "country",
            "political"
          ]
        }
      ],
      "formatted_address": "日本、北海道河東郡士幌町字士幌",
      "geometry": {
        "bounds": {
          "northeast": {
            "lat": 43.213969,
            "lng": 143.3918689
          },
          "southwest": {
            "lat": 43.13048999999999,
            "lng": 143.213393
          }
        },
        "location": {
          "lat": 43.1672276,
          "lng": 143.2989384
        },
        "location_type": "APPROXIMATE",
        "viewport": {
          "northeast": {
            "lat": 43.213969,
            "lng": 143.3918689
          },
          "southwest": {
            "lat": 43.13048999999999,
            "lng": 143.213393
          }
        }
      },
      "place_id": "ChIJc4xQPqwFc18RCFSSwlpBzXU",
      "types": [
        "political",
        "sublocality",
        "sublocality_level_2"
      ]
    },
    {
      "access_points": [

      ],
      "address_components": [
        {
          "long_name": "080-1189",
          "short_name": "080-1189",
          "types": [
            "postal_code"
          ]
        },
        {
          "long_name": "士幌町",
          "short_name": "士幌町",
          "types": [
            "locality",
            "political"
          ]
        },
        {
          "long_name": "河東郡",
          "short_name": "河東郡",
          "types": [
            "administrative_area_level_2",
            "political"
          ]
        },
        {
          "long_name": "北海道",
          "short_name": "北海道",
          "types": [
            "administrative_area_level_1",
            "political"
          ]
        },
        {
          "long_name": "日本",
          "short_name": "JP",
          "types": [
            "country",
            "political"
          ]
        }
      ],
      "formatted_address": "日本 〒080-1189",
      "geometry": {
        "bounds": {
          "northeast": {
            "lat": 43.2139694,
            "lng": 143.3918691
          },
          "southwest": {
            "lat": 43.0841263,
            "lng": 143.2033789
          }
        },
        "location": {
          "lat": 43.1672276,
          "lng": 143.2989384
        },
        "location_type": "APPROXIMATE",
        "viewport": {
          "northeast": {
            "lat": 43.2139694,
            "lng": 143.3918691
          },
          "southwest": {
            "lat": 43.0841263,
            "lng": 143.2033789
          }
        }
      },
      "place_id": "ChIJG4jYan4Gc18RtakbHdCVyeA",
      "types": [
        "postal_code"
      ]
    },
    {
      "access_points": [

      ],
      "address_components": [
        {
          "long_name": "士幌町",
          "short_name": "士幌町",
          "types": [
            "locality",
            "political"
          ]
        },
        {
          "long_name": "河東郡",
          "short_name": "河東郡",
          "types": [
            "administrative_area_level_2",
            "political"
          ]
        },
        {
          "long_name": "北海道",
          "short_name": "北海道",
          "types": [
            "administrative_area_level_1",
            "political"
          ]
        },
        {
          "long_name": "日本",
          "short_name": "JP",
          "types": [
            "country",
            "political"
          ]
        }
      ],
      "formatted_address": "日本、北海道河東郡士幌町",
      "geometry": {
        "bounds": {
          "northeast": {
            "lat": 43.2495,
            "lng": 143.4157551
          },
          "southwest": {
            "lat": 43.077804,
            "lng": 143.099537
          }
        },
        "location": {
          "lat": 43.1680544,
          "lng": 143.2414014
        },
        "location_type": "APPROXIMATE",
        "viewport": {
          "northeast": {
            "lat": 43.2495,
            "lng": 143.4157551
          },
          "southwest": {
            "lat": 43.077804,
            "lng": 143.099537
          }
        }
      },
      "place_id": "ChIJK7WszHgFc18RUKGz1sQfeBo",
      "types": [
        "locality",
        "political"
      ]
    },
    {
      "access_points": [

      ],
      "address_components": [
        {
          "long_name": "河東郡",
          "short_name": "河東郡",
          "types": [
            "administrative_area_level_2",
            "political"
          ]
        },
        {
          "long_name": "北海道",
          "short_name": "北海道",
          "types": [
            "administrative_area_level_1",
            "political"
          ]
        },
        {
          "long_name": "日本",
          "short_name": "JP",
          "types": [
            "country",
            "political"
          ]
        }
      ],
      "formatted_address": "日本、北海道河東郡",
      "geometry": {
        "bounds": {
          "northeast": {
            "lat": 43.59535,
            "lng": 143.4157545
          },
          "southwest": {
            "lat": 42.9246975,
            "lng": 142.9226945
          }
        },
        "location": {
          "lat": 43.2311539,
          "lng": 143.2219582
        },
        "location_type": "APPROXIMATE",
        "viewport": {
          "northeast": {
            "lat": 43.59535,
            "lng": 143.4157545
          },
          "southwest": {
            "lat": 42.9246975,
            "lng": 142.9226945
          }
        }
      },
      "place_id": "ChIJB-abf4MZc18RvOOJQx7kJOY",
      "types": [
        "administrative_area_level_2",
        "political"
      ]
    },
    {
      "access_points": [

      ],
      "address_components": [
        {
          "long_name": "北海道",
          "short_name": "北海道",
          "types": [
            "administrative_area_level_1",
            "political"
          ]
        },
        {
          "long_name": "日本",
          "short_name": "JP",
          "types": [
            "country",
            "political"
          ]
        }
      ],
      "formatted_address": "日本、北海道",
      "geometry": {
        "bounds": {
          "northeast": {
            "lat": 45.5265181,
            "lng": 145.817624
          },
          "southwest": {
            "lat": 41.3516002,
            "lng": 139.3340799
          }
        },
        "location": {
          "lat": 43.2203266,
          "lng": 142.8634737
        },
        "location_type": "APPROXIMATE",
        "viewport": {
          "northeast": {
            "lat": 45.5265181,
            "lng": 145.817624
          },
          "southwest": {
            "lat": 41.3516002,
            "lng": 139.3340799
          }
        }
      },
      "place_id": "ChIJi4hsnyBZn18RjwPOT1bDPBw",
      "types": [
        "administrative_area_level_1",
        "political"
      ]
    },
    {
      "access_points": [

      ],
      "address_components": [
        {
          "long_name": "日本",
          "short_name": "JP",
          "types": [
            "country",
            "political"
          ]
        }
      ],
      "formatted_address": "日本",
      "geometry": {
        "bounds": {
          "northeast": {
            "lat": 45.6412626,
            "lng": 154.0031455
          },
          "southwest": {
            "lat": 20.3585295,
            "lng": 122.8554688
          }
        },
        "location": {
          "lat": 36.204824,
          "lng": 138.252924
        },
        "location_type": "APPROXIMATE",
        "viewport": {
          "northeast": {
            "lat": 45.6412626,
            "lng": 154.0031455
          },
          "southwest": {
            "lat": 20.3585295,
            "lng": 122.8554688
          }
        }
      },
      "place_id": "ChIJLxl_1w9OZzQRRFJmfNR1QvU",
      "types": [
        "country",
        "political"
      ]
    }
  ]
}