{
  "station": "萩ヶ岡",
  "lat": 43.274444,
  "lng": 143.303056,
  "plus_code": {
    "compound_code": "78F3+Q6 日本、北海道上士幌町",
    "global_code": "8RM578F3+Q6"
  },
  "results": [
    {
      "access_points": [

      ],
      "address_components": [
        {
          "long_name": "２８９",
          "short_name": "２８９",
          "types": [
            "premise"
          ]
        },
        {
          "long_name": "東３線",
          "short_name": "東３線",
          "types": [
            "political",
            "sublocality",
            "sublocality_level_3"
          ]
        },
        {
          "long_name": "字上士幌",
          "short_name": "字上士幌",
          "types": [
            "political",
            "sublocality",
            "sublocality_level_2"
          ]
        },
        {
          "long_name": "上士幌町",
          "short_name": "上士幌町",
          "types": [
            "locality",
            "political"
          ]
        },
        {
          "long_name": "河東郡",
          "short_name": "河東郡",
          "types": [
            "administrative_area_level_2",
            "political"
          ]
        },
        {
          "long_name": "北海道",
          "short_name": "北海道",
          "types": [
            "administrative_area_level_1",
            "political"
          ]
        },
        {
          "long_name": "日本",
          "short_name": "JP",
          "types": [
            "country",
            "political"
          ]
        },
        {
          "long_name": "080-1408",
          "short_name": "080-1408",
          "types": [
            "postal_code"
          ]
        }
      ],
      "formatted_address": "日本、〒080-1408 北海道河東郡上士幌町字上士幌東３線２８９",
      "geometry": {
        "location": {
          "lat": 43.274555,
          "lng": 143.3038298
        },
        "location_type": "ROOFTOP",
        "viewport": {
          "northeast": {
            "lat": 43.2759039802915,
            "lng": 143.3051787802915
          },
          "southwest": {
            "lat": 43.2732060197085,
            "lng": 143.3024808197085
          }
        }
      },
      "place_id": "ChIJBbLHH00cc18RymigZh2VnPM",
      "plus_code": {
        "compound_code": "78F3+RG 日本、北海道上士幌町",
        "global_code": "8RM578F3+RG"
      },
      "types": [
        "street_address"
      ]
    },
    {
      "access_points": [

      ],
      "address_components": [
        {
          "long_name": "萩ヶ岡",
          "short_name": "萩ヶ岡",
          "types": [
            "establishment",
            "point_of_interest",
            "transit_station"
          ]
        },
        {
          "long_name": "東３線",
          "short_name": "東３線",
          "types": [
            "political",
            "sublocality",
            "sublocality_level_3"
          ]
        },
        {
          "long_name": "字上士幌",
          "short_name": "字上士幌",
          "types": [
            "political",
            "sublocality",
            "sublocality_level_2"
          ]
        },
        {
          "long_name": "上士幌町",
          "short_name": "上士幌町",
          "types": [
            "locality",
            "political"
          ]
        },
        {
          "long_name": "河東郡",
          "short_name": "河東郡",
          "types": [
            "administrative_area_level_2",
            "political"
          ]
        },
        {
          "long_name": "北海道",
          "short_name": "北海道",
          "types": [
            "administrative_area_level_1",
            "political"
          ]
        },
        {
          "long_name": "日本",
          "short_name": "JP",
          "types": [
            "country",
            "political"
          ]
        },
        {
          "long_name": "080-1408",
          "short_name": "080-1408",
          "types": [
            "postal_code"
          ]
        }
      ],
      "formatted_address": "日本、〒080-1408 北海道河東郡上士幌町字上士幌東３線 萩ヶ岡",
      "geometry": {
        "location": {
          "lat": 43.2743081,
          "lng": 143.304411
        },
        "location_type": "GEOMETRIC_CENTER",
        "viewport": {
          "northeast": {
            "lat": 43.2756570802915,
            "lng": 143.3057599802915
          },
          "southwest": {
            "lat": 43.2729591197085,
            "lng": 143.3030620197085
          }
        }
      },
      "place_id": "ChIJ6RSdGE0cc18RA_ko7sEwfuw",
      "plus_code": {
        "compound_code": "78F3+PQ 日本、北海道上士幌町",
        "global_code": "8RM578F3+PQ"
      },
      "types": [
        "establishment",
        "point_of_interest",
        "transit_station"
      ]
    },
    {
      "access_points": [

      ],
      "address_components": [
        {
          "long_name": "国道273号",
          "short_name": "国道273号",
          "types": [
            "route"
          ]
        },
        {
          "long_name": "東３線",
          "short_name": "東３線",
          "types": [
            "political",
            "sublocality",
            "sublocality_level_3"
          ]
        },
        {
          "long_name": "字上士幌",
          "short_name": "字上士幌",
          "types": [
            "political",
            "sublocality",
            "sublocality_level_2"
          ]
        },
        {
          "long_name": "上士幌町",
          "short_name": "上士幌町",
          "types": [
            "locality",
            "political"
          ]
        },
        {
          "long_name": "河東郡",
          "short_name": "河東郡",
          "types": [
            "administrative_area_level_2",
            "political"
          ]
        },
        {
          "long_name": "北海道",
          "short_name": "北海道",
          "types": [
            "administrative_area_level_1",
            "political"
          ]
        },
        {
          "long_name": "日本",
          "short_name": "JP",
          "types": [
            "country",
            "political"
          ]
        },
        {
          "long_name": "080-1408",
          "short_name": "080-1408",
          "types": [
            "postal_code"
          ]
        }
      ],
      "formatted_address": "日本、〒080-1408 北海道河東郡上士幌町字上士幌東３線 国道273号",
      "geometry": {
        "bounds": {
          "northeast": {
            "lat": 43.274359,
            "lng": 143.304438
          },
          "southwest": {
            "lat": 43.2724149,
            "lng": 143.3039905
          }
        },
        "location": {
          "lat": 43.2733865,
          "lng": 143.3042184
        },
        "location_type": "GEOMETRIC_CENTER",
        "viewport": {
          "northeast": {
            "lat": 43.2747359302915,
            "lng": 143.3055632302915
          },
          "southwest": {
            "lat": 43.27203796970851,
            "lng": 143.3028652697085
          }
        }
      },
      "place_id": "ChIJOYgWc00cc18ROqVUvbVBfyg",
      "types": [
        "route"
      ]
    },
    {
      "access_points": [

      ],
      "address_components": [
        {
          "long_name": "東３線",
          "short_name": "東３線",
          "types": [
            "political",
            "sublocality",
            "sublocality_level_3"
          ]
        },
        {
          "long_name": "字上士幌",
          "short_name": "字上士幌",
          "types": [
            "political",
            "sublocality",
            "sublocality_level_2"
          ]
        },
        {
          "long_name": "上士幌町",
          "short_name": "上士幌町",
          "types": [
            "locality",
            "political"
          ]
        },
        {
          "long_name": "河東郡",
          "short_name": "河東郡",
          "types": [
            "administrative_area_level_2",
            "political"
          ]
        },
        {
          "long_name": "北海道",
          "short_name": "北海道",
          "types": [
            "administrative_area_level_1",
            "political"
          ]
        },
        {
          "long_name": "日本",
          "short_name": "JP",
          "types": [
            "country",
            "political"
          ]
        },
        {
          "long_name": "080-1408",
          "short_name": "080-1408",
          "types": [
            "postal_code"
          ]
        }
      ],
      "formatted_address": "日本、〒080-1408 北海道河東郡上士幌町字上士幌東３線",
      "geometry": {
        "bounds": {
          "northeast": {
            "lat": 43.31432299999999,
            "lng": 143.317172
          },
          "southwest": {
            "lat": 43.214657,
            "lng": 143.2878061
          }
        },
        "location": {
          "lat": 43.2876242,
          "lng": 143.3078666
        },
        "location_type": "APPROXIMATE",
        "viewport": {
          "northeast": {
            "lat": 43.31432299999999,
            "lng": 143.317172
          },
          "southwest": {
            "lat": 43.214657,
            "lng": 143.2878061
          }
        }
      },
      "place_id": "ChIJh45N2Fkcc18RdWdTwGG4cmA",
      "types": [
        "political",
        "sublocality",
        "sublocality_level_3"
      ]
    },
    {
      "access_points": [

      ],
      "address_components": [
        {
          "long_name": "080-1408",
          "short_name": "080-1408",
          "types": [
            "postal_code"
          ]
        },
        {
          "long_name": "字上士幌",
          "short_name": "字上士幌",
          "types": [
            "political",
            "sublocality",
            "sublocality_level_2"
          ]
        },
        {
          "long_name": "上士幌町",
          "short_name": "上士幌町",
          "types": [
            "locality",
            "political"
          ]
        },
        {
          "long_name": "河東郡",
          "short_name": "河東郡",
          "types": [
            "administrative_area_level_2",
            "political"
          ]
        },
        {
          "long_name": "北海道",
          "short_name": "北海道",
          "types": [
            "administrative_area_level_1",
            "political"
          ]
        },
        {
          "long_name": "日本",
          "short_name": "JP",
          "types": [
            "country",
            "political"
          ]
        }
      ],
      "formatted_address": "日本 〒080-1408",
      "geometry": {
        "bounds": {
          "northeast": {
            "lat": 43.3160826,
            "lng": 143.3337949
          },
          "southwest": {
            "lat": 43.2076807,
            "lng": 143.2562866
          }
        },
        "location": {
          "lat": 43.2247115,
          "lng": 143.287574
        },
        "location_type": "APPROXIMATE",
        "viewport": {
          "northeast": {
            "lat": 43.3160826,
            "lng": 143.3337949
          },
          "southwest": {
            "lat": 43.2076807,
            "lng": 143.2562866
          }
        }
      },
      "place_id": "ChIJY1AbF1cbc18RbCQ2czRLapA",
      "types": [
        "postal_code"
      ]
    },
    {
      "access_points": [

      ],
      "address_components": [
        {
          "long_name": "字上士幌",
          "short_name": "字上士幌",
          "types": [
            "political",
            "sublocality",
            "sublocality_level_2"
          ]
        },
        {
          "long_name": "上士幌町",
          "short_name": "上士幌町",
          "types": [
            "locality",
            "political"
          ]
        },
        {
          "long_name": "河東郡",
          "short_name": "河東郡",
          "types": [
            "administrative_area_level_2",
            "political"
          ]
        },
        {
          "long_name": "北海道",
          "short_name": "北海道",
          "types": [
            "administrative_area_level_1",
            "political"
          ]
        },
        {
          "long_name": "日本",
          "short_name": "JP",
          "types": [
            "country",
            "political"
          ]
        },
        {
          "long_name": "080-1408",
          "short_name": "080-1408",
          "types": [
            "postal_code"
          ]
        }
      ],
      "formatted_address": "日本、〒080-1408 北海道河東郡上士幌町字上士幌",
      "geometry": {
        "bounds": {
          "northeast": {
            "lat": 43.316083,
            "lng": 143.3337949
          },
          "southwest": {
            "lat": 43.207681,
            "lng": 143.2562869
          }
        },
        "location": {
          "lat": 43.2247115,
          "lng": 143.287574
        },
        "location_type": "APPROXIMATE",
        "viewport": {
          "northeast": {
            "lat": 43.316083,
            "lng": 143.3337949
          },
          "southwest": {
            "lat": 43.207681,
            "lng": 143.2562869
          }
        }
      },
      "place_id": "ChIJZ9NfVBsdc18RnHBpL-ElECg",
      "types": [
        "political",
        "sublocality",
        "sublocality_level_2"
      ]
    },
    {
      "access_points": [

      ],
      "address_components": [
        {
          "long_name": "上士幌町",
          "short_name": "上士幌町",
          "types": [
            "locality",
            "political"
          ]
        },
        {
          "long_name": "河東郡",
          "short_name": "河東郡",
          "types": [
            "administrative_area_level_2",
            "political"
          ]
        },
        {
          "long_name": "北海道",
          "short_name": "北海道",
          "types": [
            "administrative_area_level_1",
            "political"
          ]
        },
        {
          "long_name": "日本",
          "short_name": "JP",
          "types": [
            "country",
            "political"
          ]
        }
      ],
      "formatted_address": "日本、北海道河東郡上士幌町",
      "geometry": {
        "bounds": {
          "northeast": {
            "lat": 43.59535,
            "lng": 143.412095
          },
          "southwest": {
            "lat": 43.1876129,
            "lng": 143.008458
          }
        },
        "location": {
          "lat": 43.2326472,
          "lng": 143.2961799
        },
        "location_type": "APPROXIMATE",
        "viewport": {
          "northeast": {
            "lat": 43.59535,
            "lng": 143.412095
          },
          "southwest": {
            "lat": 43.1876129,
            "lng": 143.008458
          }
        }
      },
      "place_id": "ChIJm-bYLYDfcl8RuymOnxRn5C4",
      "types": [
        "locality",
        "political"
      ]
    },
    {
      "access_points": [

      ],
      "address_components": [
        {
          "long_name": "河東郡",
          "short_name": "河東郡",
          "types": [
            "administrative_area_level_2",
            "political"
          ]
        },
        {
          "long_name": "北海道",
          "short_name": "北海道",
          "types": [
            "administrative_area_level_1",
            "political"
          ]
        },
        {
          "long_name": "日本",
          "short_name": "JP",
          "types": [
            "country",
            "political"
          ]
        }
      ],
      "formatted_address": "日本、北海道河東郡",
      "geometry": {
        "bounds": {
          "northeast": {
            "lat": 43.59535,
            "lng": 143.4157545
          },
          "southwest": {
            "lat": 42.9246975,
            "lng": 142.9226945
          }
        },
        "location": {
          "lat": 43.2311539,
          "lng": 143.2219582
        },
        "location_type": "APPROXIMATE",
        "viewport": {
          "northeast": {
            "lat": 43.59535,
            "lng": 143.4157545
          },
          "southwest": {
            "lat": 42.9246975,
            "lng": 142.9226945
          }
        }
      },
      "place_id": "ChIJB-abf4MZc18RvOOJQx7kJOY",
      "types": [
        "administrative_area_level_2",
        "political"
      ]
    },
    {
      "access_points": [

      ],
      "address_components": [
        {
          "long_name": "北海道",
          "short_name": "北海道",
          "types": [
            "administrative_area_level_1",
            "political"
          ]
        },
        {
          "long_name": "日本",
          "short_name": "JP",
          "types": [
            "country",
            "political"
          ]
        }
      ],
      "formatted_address": "日本、北海道",
      "geometry": {
        "bounds": {
          "northeast": {
            "lat": 45.5265181,
            "lng": 145.817624
          },
          "southwest": {
            "lat": 41.3516002,
            "lng": 139.3340799
          }
        },
        "location": {
          "lat": 43.2203266,
          "lng": 142.8634737
        },
        "location_type": "APPROXIMATE",
        "viewport": {
          "northeast": {
            "lat": 45.5265181,
            "lng": 145.817624
          },
          "southwest": {
            "lat": 41.3516002,
            "lng": 139.3340799
          }
        }
      },
      "place_id": "ChIJi4hsnyBZn18RjwPOT1bDPBw",
      "types": [
        "administrative_area_level_1",
        "political"
      ]
    },
    {
      "access_points": [

      ],
      "address_components": [
        {
          "long_name": "日本",
          "short_name": "JP",
          "types": [
            "country",
            "political"
          ]
        }
      ],
      "formatted_address": "日本",
      "geometry": {
        "bounds": {
          "northeast": {
            "lat": 45.6412626,
            "lng": 154.0031455
          },
          "southwest": {
            "lat": 20.3585295,
            "lng": 122.8554688
          }
        },
        "location": {
          "lat": 36.204824,
          "lng": 138.252924
        },
        "location_type": "APPROXIMATE",
        "viewport": {
          "northeast": {
            "lat": 45.6412626,
            "lng": 154.0031455
          },
          "southwest": {
            "lat": 20.3585295,
            "lng": 122.8554688
          }
        }
      },
      "place_id": "ChIJLxl_1w9OZzQRRFJmfNR1QvU",
      "types": [
        "country",
        "political"
      ]
    }
  ]
}