{
  "station": "築別",
  "lat": 44.412361,
  "lng": 141.738333,
  "plus_code": {
    "compound_code": "CP6Q+W8 日本、北海道羽幌町字築別",
    "global_code": "8RP3CP6Q+W8"
  },
  "results": [
    {
      "access_points": [
        {
          "access_point_type": "TYPE_SEGMENT",
          "location": {
            "latitude": 44.4124451,
            "longitude": 141.7382392
          },
          "location_on_segment": {
            "latitude": 44.4125081,
            "longitude": 141.7382379
          },
          "place_id": "ChIJqb6df0TUDV8RLcdZKmpzU9Y",
          "unsuitable_travel_modes": [

          ]
        }
      ],
      "address_components": [
        {
          "long_name": "９９０",
          "short_name": "９９０",
          "types": [
            "premise"
          ]
        },
        {
          "long_name": "字築別",
          "short_name": "字築別",
          "types": [
            "political",
            "sublocality",
            "sublocality_level_2"
          ]
        },
        {
          "long_name": "羽幌町",
          "short_name": "羽幌町",
          "types": [
            "locality",
            "political"
          ]
        },
        {
          "long_name": "苫前郡",
          "short_name": "苫前郡",
          "types": [
            "administrative_area_level_2",
            "political"
          ]
        },
        {
          "long_name": "北海道",
          "short_name": "北海道",
          "types": [
            "administrative_area_level_1",
            "political"
          ]
        },
        {
          "long_name": "日本",
          "short_name": "JP",
          "types": [
            "country",
            "political"
          ]
        },
        {
          "long_name": "078-4141",
          "short_name": "078-4141",
          "types": [
            "postal_code"
          ]
        }
      ],
      "formatted_address": "日本、〒078-4141 北海道苫前郡羽幌町字築別９９０",
      "geometry": {
        "location": {
          "lat": 44.41235229999999,
          "lng": 141.7383064
        },
        "location_type": "ROOFTOP",
        "viewport": {
          "northeast": {
            "lat": 44.4137012802915,
            "lng": 141.7396553802915
          },
          "southwest": {
            "lat": 44.4110033197085,
            "lng": 141.7369574197085
          }
        }
      },
      "place_id": "ChIJ78bwgUPUDV8RDKCBBUxg93c",
      "plus_code": {
        "compound_code": "CP6Q+W8 日本、北海道羽幌町字築別",
        "global_code": "8RP3CP6Q+W8"
      },
      "types": [
        "establishment",
        "point_of_interest"
      ]
    },
    {
      "access_points": [

      ],
      "address_components": [
        {
          "long_name": "５６",
          "short_name": "５６",
          "types": [
            "premise"
          ]
        },
        {
          "long_name": "字築別",
          "short_name": "字築別",
          "types": [
            "political",
            "sublocality",
            "sublocality_level_2"
          ]
        },
        {
          "long_name": "羽幌町",
          "short_name": "羽幌町",
          "types": [
            "locality",
            "political"
          ]
        },
        {
          "long_name": "苫前郡",
          "short_name": "苫前郡",
          "types": [
            "administrative_area_level_2",
            "political"
          ]
        },
        {
          "long_name": "北海道",
          "short_name": "北海道",
          "types": [
            "administrative_area_level_1",
            "political"
          ]
        },
        {
          "long_name": "日本",
          "short_name": "JP",
          "types": [
            "country",
            "political"
          ]
        },
        {
          "long_name": "078-4141",
          "short_name": "078-4141",
          "types": [
            "postal_code"
          ]
        }
      ],
      "formatted_address": "日本、〒078-4141 北海道苫前郡羽幌町字築別５６",
      "geometry": {
        "location": {
          "lat": 44.41268669999999,
          "lng": 141.7381094
        },
        "location_type": "ROOFTOP",
        "viewport": {
          "northeast": {
            "lat": 44.41403568029149,
            "lng": 141.7394583802915
          },
          "southwest": {
            "lat": 44.41133771970849,
            "lng": 141.7367604197085
          }
        }
      },
      "place_id": "ChIJU14if0TUDV8Ryquek3F0epM",
      "plus_code": {
        "compound_code": "CP7Q+36 日本、北海道羽幌町字築別",
        "global_code": "8RP3CP7Q+36"
      },
      "types": [
        "street_address"
      ]
    },
    {
      "access_points": [

      ],
      "address_components": [
        {
          "long_name": "築別(停)線",
          "short_name": "道道356号",
          "types": [
            "route"
          ]
        },
        {
          "long_name": "字築別",
          "short_name": "字築別",
          "types": [
            "political",
            "sublocality",
            "sublocality_level_2"
          ]
        },
        {
          "long_name": "羽幌町",
          "short_name": "羽幌町",
          "types": [
            "locality",
            "political"
          ]
        },
        {
          "long_name": "苫前郡",
          "short_name": "苫前郡",
          "types": [
            "administrative_area_level_2",
            "political"
          ]
        },
        {
          "long_name": "北海道",
          "short_name": "北海道",
          "types": [
            "administrative_area_level_1",
            "political"
          ]
        },
        {
          "long_name": "日本",
          "short_name": "JP",
          "types": [
            "country",
            "political"
          ]
        },
        {
          "long_name": "078-4141",
          "short_name": "078-4141",
          "types": [
            "postal_code"
          ]
        }
      ],
      "formatted_address": "日本、〒078-4141 北海道苫前郡羽幌町字築別 道道356号",
      "geometry": {
        "bounds": {
          "northeast": {
            "lat": 44.4110992,
            "lng": 141.7373849
          },
          "southwest": {
            "lat": 44.4107383,
            "lng": 141.7368065
          }
        },
        "location": {
          "lat": 44.4109188,
          "lng": 141.7370957
        },
        "location_type": "GEOMETRIC_CENTER",
        "viewport": {
          "northeast": {
            "lat": 44.4122677302915,
            "lng": 141.7384446802915
          },
          "southwest": {
            "lat": 44.4095697697085,
            "lng": 141.7357467197085
          }
        }
      },
      "place_id": "ChIJI_50R0PUDV8R4juzubiOBQ0",
      "types": [
        "route"
      ]
    },
    {
      "access_points": [

      ],
      "address_components": [
        {
          "long_name": "078-4141",
          "short_name": "078-4141",
          "types": [
            "postal_code"
          ]
        },
        {
          "long_name": "字築別",
          "short_name": "字築別",
          "types": [
            "political",
            "sublocality",
            "sublocality_level_2"
          ]
        },
        {
          "long_name": "羽幌町",
          "short_name": "羽幌町",
          "types": [
            "locality",
            "political"
          ]
        },
        {
          "long_name": "苫前郡",
          "short_name": "苫前郡",
          "types": [
            "administrative_area_level_2",
            "political"
          ]
        },
        {
          "long_name": "北海道",
          "short_name": "北海道",
          "types": [
            "administrative_area_level_1",
            "political"
          ]
        },
        {
          "long_name": "日本",
          "short_name": "JP",
          "types": [
            "country",
            "political"
          ]
        }
      ],
      "formatted_address": "日本 〒078-4141",
      "geometry": {
        "bounds": {
          "northeast": {
            "lat": 44.433554,
            "lng": 141.7926962
          },
          "southwest": {
            "lat": 44.3838829,
            "lng": 141.7278109
          }
        },
        "location": {
          "lat": 44.4071084,
          "lng": 141.7514384
        },
        "location_type": "APPROXIMATE",
        "viewport": {
          "northeast": {
            "lat": 44.433554,
            "lng": 141.7926962
          },
          "southwest": {
            "lat": 44.3838829,
            "lng": 141.7278109
          }
        }
      },
      "place_id": "ChIJx6QQc0TUDV8RG5hP3ixqrKs",
      "types": [
        "postal_code"
      ]
    },
    {
      "access_points": [

      ],
      "address_components": [
        {
          "long_name": "字築別",
          "short_name": "字築別",
          "types": [
            "political",
            "sublocality",
            "sublocality_level_2"
          ]
        },
        {
          "long_name": "羽幌町",
          "short_name": "羽幌町",
          "types": [
            "locality",
            "political"
          ]
        },
        {
          "long_name": "苫前郡",
          "short_name": "苫前郡",
          "types": [
            "administrative_area_level_2",
            "political"
          ]
        },
        {
          "long_name": "北海道",
          "short_name": "北海道",
          "types": [
            "administrative_area_level_1",
            "political"
          ]
        },
        {
          "long_name": "日本",
          "short_name": "JP",
          "types": [
            "country",
            "political"
          ]
        },
        {
          "long_name": "078-4141",
          "short_name": "078-4141",
          "types": [
            "postal_code"
          ]
        }
      ],
      "formatted_address": "日本、〒078-4141 北海道苫前郡羽幌町字築別",
      "geometry": {
        "bounds": {
          "northeast": {
            "lat": 44.433554,
            "lng": 141.792696
          },
          "southwest": {
            "lat": 44.383883,
            "lng": 141.7278109
          }
        },
        "location": {
          "lat": 44.4071084,
          "lng": 141.7514384
        },
        "location_type": "APPROXIMATE",
        "viewport": {
          "northeast": {
            "lat": 44.433554,
            "lng": 141.792696
          },
          "southwest": {
            "lat": 44.383883,
            "lng": 141.7278109
          }
        }
      },
      "place_id": "ChIJT0ywzGrUDV8R9YRS6qyx2vg",
      "types": [
        "political",
        "sublocality",
        "sublocality_level_2"
      ]
    },
    {
      "access_points": [

      ],
      "address_components": [
        {
          "long_name": "羽幌町",
          "short_name": "羽幌町",
          "types": [
            "locality",
            "political"
          ]
        },
        {
          "long_name": "苫前郡",
          "short_name": "苫前郡",
          "types": [
            "administrative_area_level_2",
            "political"
          ]
        },
        {
          "long_name": "北海道",
          "short_name": "北海道",
          "types": [
            "administrative_area_level_1",
            "political"
          ]
        },
        {
          "long_name": "日本",
          "short_name": "JP",
          "types": [
            "country",
            "political"
          ]
        }
      ],
      "formatted_address": "日本、北海道苫前郡羽幌町",
      "geometry": {
        "bounds": {
          "northeast": {
            "lat": 44.455002,
            "lng": 142.066433
          },
          "southwest": {
            "lat": 44.206975,
            "lng": 141.29042
          }
        },
        "location": {
          "lat": 44.3608225,
          "lng": 141.6973093
        },
        "location_type": "APPROXIMATE",
        "viewport": {
          "northeast": {
            "lat": 44.455002,
            "lng": 142.066433
          },
          "southwest": {
            "lat": 44.206975,
            "lng": 141.29042
          }
        }
      },
      "place_id": "ChIJY986MlgsDF8RO_eBk-9I3Z8",
      "types": [
        "locality",
        "political"
      ]
    },
    {
      "access_points": [

      ],
      "address_components": [
        {
          "long_name": "苫前郡",
          "short_name": "苫前郡",
          "types": [
            "administrative_area_level_2",
            "political"
          ]
        },
        {
          "long_name": "北海道",
          "short_name": "北海道",
          "types": [
            "administrative_area_level_1",
            "political"
          ]
        },
        {
          "long_name": "日本",
          "short_name": "JP",
          "types": [
            "country",
            "political"
          ]
        }
      ],
      "formatted_address": "日本、北海道苫前郡",
      "geometry": {
        "bounds": {
          "northeast": {
            "lat": 44.642518,
            "lng": 142.0881677
          },
          "southwest": {
            "lat": 44.09078909999999,
            "lng": 141.29042
          }
        },
        "location": {
          "lat": 44.31057759999999,
          "lng": 141.873713
        },
        "location_type": "APPROXIMATE",
        "viewport": {
          "northeast": {
            "lat": 44.642518,
            "lng": 142.0881677
          },
          "southwest": {
            "lat": 44.09078909999999,
            "lng": 141.29042
          }
        }
      },
      "place_id": "ChIJa20C2VcrDF8RXqHtN_ckg_w",
      "types": [
        "administrative_area_level_2",
        "political"
      ]
    },
    {
      "access_points": [

      ],
      "address_components": [
        {
          "long_name": "北海道",
          "short_name": "北海道",
          "types": [
            "administrative_area_level_1",
            "political"
          ]
        },
        {
          "long_name": "日本",
          "short_name": "JP",
          "types": [
            "country",
            "political"
          ]
        }
      ],
      "formatted_address": "日本、北海道",
      "geometry": {
        "bounds": {
          "northeast": {
            "lat": 45.5265181,
            "lng": 145.817624
          },
          "southwest": {
            "lat": 41.3516002,
            "lng": 139.3340799
          }
        },
        "location": {
          "lat": 43.2203266,
          "lng": 142.8634737
        },
        "location_type": "APPROXIMATE",
        "viewport": {
          "northeast": {
            "lat": 45.5265181,
            "lng": 145.817624
          },
          "southwest": {
            "lat": 41.3516002,
            "lng": 139.3340799
          }
        }
      },
      "place_id": "ChIJi4hsnyBZn18RjwPOT1bDPBw",
      "types": [
        "administrative_area_level_1",
        "political"
      ]
    },
    {
      "access_points": [

      ],
      "address_components": [
        {
          "long_name": "日本",
          "short_name": "JP",
          "types": [
            "country",
            "political"
          ]
        }
      ],
      "formatted_address": "日本",
      "geometry": {
        "bounds": {
          "northeast": {
            "lat": 45.6412626,
            "lng": 154.0031455
          },
          "southwest": {
            "lat": 20.3585295,
            "lng": 122.8554688
          }
        },
        "location": {
          "lat": 36.204824,
          "lng": 138.252924
        },
        "location_type": "APPROXIMATE",
        "viewport": {
          "northeast": {
            "lat": 45.6412626,
            "lng": 154.0031455
          },
          "southwest": {
            "lat": 20.3585295,
            "lng": 122.8554688
          }
        }
      },
      "place_id": "ChIJLxl_1w9OZzQRRFJmfNR1QvU",
      "types": [
        "country",
        "political"
      ]
    }
  ]
}