{
  "station": "神丘",
  "lat": 42.420028,
  "lng": 139.975444,
  "plus_code": {
    "compound_code": "CXCG+25 日本、北海道今金町",
    "global_code": "8QJXCXCG+25"
  },
  "results": [
    {
      "access_points": [

      ],
      "address_components": [
        {
          "long_name": "３６７−２",
          "short_name": "３６７−２",
          "types": [
            "premise"
          ]
        },
        {
          "long_name": "字神丘",
          "short_name": "字神丘",
          "types": [
            "political",
            "sublocality",
            "sublocality_level_2"
          ]
        },
        {
          "long_name": "今金町",
          "short_name": "今金町",
          "types": [
            "locality",
            "political"
          ]
        },
        {
          "long_name": "瀬棚郡",
          "short_name": "瀬棚郡",
          "types": [
            "administrative_area_level_2",
            "political"
          ]
        },
        {
          "long_name": "北海道",
          "short_name": "北海道",
          "types": [
            "administrative_area_level_1",
            "political"
          ]
        },
        {
          "long_name": "日本",
          "short_name": "JP",
          "types": [
            "country",
            "political"
          ]
        },
        {
          "long_name": "049-4327",
          "short_name": "049-4327",
          "types": [
            "postal_code"
          ]
        }
      ],
      "formatted_address": "日本、〒049-4327 北海道瀬棚郡今金町字神丘３６７−２",
      "geometry": {
        "location": {
          "lat": 42.4209891,
          "lng": 139.9748066
        },
        "location_type": "ROOFTOP",
        "viewport": {
          "northeast": {
            "lat": 42.4223380802915,
            "lng": 139.9761555802915
          },
          "southwest": {
            "lat": 42.4196401197085,
            "lng": 139.9734576197085
          }
        }
      },
      "place_id": "ChIJ5wToKxgqoF8RtMOaxb79gYQ",
      "plus_code": {
        "compound_code": "CXCF+9W 日本、北海道今金町",
        "global_code": "8QJXCXCF+9W"
      },
      "types": [
        "street_address"
      ]
    },
    {
      "access_points": [

      ],
      "address_components": [
        {
          "long_name": "丹羽 今金 線",
          "short_name": "道道936号",
          "types": [
            "route"
          ]
        },
        {
          "long_name": "字神丘",
          "short_name": "字神丘",
          "types": [
            "political",
            "sublocality",
            "sublocality_level_2"
          ]
        },
        {
          "long_name": "今金町",
          "short_name": "今金町",
          "types": [
            "locality",
            "political"
          ]
        },
        {
          "long_name": "瀬棚郡",
          "short_name": "瀬棚郡",
          "types": [
            "administrative_area_level_2",
            "political"
          ]
        },
        {
          "long_name": "北海道",
          "short_name": "北海道",
          "types": [
            "administrative_area_level_1",
            "political"
          ]
        },
        {
          "long_name": "日本",
          "short_name": "JP",
          "types": [
            "country",
            "political"
          ]
        },
        {
          "long_name": "049-4327",
          "short_name": "049-4327",
          "types": [
            "postal_code"
          ]
        }
      ],
      "formatted_address": "日本、〒049-4327 北海道瀬棚郡今金町字神丘 道道936号",
      "geometry": {
        "bounds": {
          "northeast": {
            "lat": 42.41918829999999,
            "lng": 139.9754961
          },
          "southwest": {
            "lat": 42.419114,
            "lng": 139.9743925
          }
        },
        "location": {
          "lat": 42.41913419999999,
          "lng": 139.9749455
        },
        "location_type": "GEOMETRIC_CENTER",
        "viewport": {
          "northeast": {
            "lat": 42.4205001302915,
            "lng": 139.9762932802915
          },
          "southwest": {
            "lat": 42.4178021697085,
            "lng": 139.9735953197085
          }
        }
      },
      "place_id": "ChIJi3ZTPxcqoF8R3mXbhrW8TRQ",
      "types": [
        "route"
      ]
    },
    {
      "access_points": [

      ],
      "address_components": [
        {
          "long_name": "049-4327",
          "short_name": "049-4327",
          "types": [
            "postal_code"
          ]
        },
        {
          "long_name": "字神丘",
          "short_name": "字神丘",
          "types": [
            "political",
            "sublocality",
            "sublocality_level_2"
          ]
        },
        {
          "long_name": "今金町",
          "short_name": "今金町",
          "types": [
            "locality",
            "political"
          ]
        },
        {
          "long_name": "瀬棚郡",
          "short_name": "瀬棚郡",
          "types": [
            "administrative_area_level_2",
            "political"
          ]
        },
        {
          "long_name": "北海道",
          "short_name": "北海道",
          "types": [
            "administrative_area_level_1",
            "political"
          ]
        },
        {
          "long_name": "日本",
          "short_name": "JP",
          "types": [
            "country",
            "political"
          ]
        }
      ],
      "formatted_address": "日本 〒049-4327",
      "geometry": {
        "bounds": {
          "northeast": {
            "lat": 42.4502522,
            "lng": 140.006655
          },
          "southwest": {
            "lat": 42.4132937,
            "lng": 139.9508076
          }
        },
        "location": {
          "lat": 42.4325009,
          "lng": 139.9843765
        },
        "location_type": "APPROXIMATE",
        "viewport": {
          "northeast": {
            "lat": 42.4502522,
            "lng": 140.006655
          },
          "southwest": {
            "lat": 42.4132937,
            "lng": 139.9508076
          }
        }
      },
      "place_id": "ChIJew2K6-wpoF8ReTzQz5vgW6E",
      "types": [
        "postal_code"
      ]
    },
    {
      "access_points": [

      ],
      "address_components": [
        {
          "long_name": "字神丘",
          "short_name": "字神丘",
          "types": [
            "political",
            "sublocality",
            "sublocality_level_2"
          ]
        },
        {
          "long_name": "今金町",
          "short_name": "今金町",
          "types": [
            "locality",
            "political"
          ]
        },
        {
          "long_name": "瀬棚郡",
          "short_name": "瀬棚郡",
          "types": [
            "administrative_area_level_2",
            "political"
          ]
        },
        {
          "long_name": "北海道",
          "short_name": "北海道",
          "types": [
            "administrative_area_level_1",
            "political"
          ]
        },
        {
          "long_name": "日本",
          "short_name": "JP",
          "types": [
            "country",
            "political"
          ]
        }
      ],
      "formatted_address": "日本、北海道瀬棚郡今金町字神丘",
      "geometry": {
        "bounds": {
          "northeast": {
            "lat": 42.450872,
            "lng": 140.0122768
          },
          "southwest": {
            "lat": 42.41467,
            "lng": 139.945075
          }
        },
        "location": {
          "lat": 42.4325009,
          "lng": 139.9843765
        },
        "location_type": "APPROXIMATE",
        "viewport": {
          "northeast": {
            "lat": 42.450872,
            "lng": 140.0122768
          },
          "southwest": {
            "lat": 42.41467,
            "lng": 139.945075
          }
        }
      },
      "place_id": "ChIJEe7RbycqoF8RDIgr7MTnekA",
      "types": [
        "political",
        "sublocality",
        "sublocality_level_2"
      ]
    },
    {
      "access_points": [

      ],
      "address_components": [
        {
          "long_name": "今金町",
          "short_name": "今金町",
          "types": [
            "locality",
            "political"
          ]
        },
        {
          "long_name": "瀬棚郡",
          "short_name": "瀬棚郡",
          "types": [
            "administrative_area_level_2",
            "political"
          ]
        },
        {
          "long_name": "北海道",
          "short_name": "北海道",
          "types": [
            "administrative_area_level_1",
            "political"
          ]
        },
        {
          "long_name": "日本",
          "short_name": "JP",
          "types": [
            "country",
            "political"
          ]
        }
      ],
      "formatted_address": "日本、北海道瀬棚郡今金町",
      "geometry": {
        "bounds": {
          "northeast": {
            "lat": 42.617893,
            "lng": 140.2661139
          },
          "southwest": {
            "lat": 42.2721929,
            "lng": 139.9223229
          }
        },
        "location": {
          "lat": 42.429358,
          "lng": 140.008706
        },
        "location_type": "APPROXIMATE",
        "viewport": {
          "northeast": {
            "lat": 42.617893,
            "lng": 140.2661139
          },
          "southwest": {
            "lat": 42.2721929,
            "lng": 139.9223229
          }
        }
      },
      "place_id": "ChIJCy9RWvqHn18R_T1DVXjB1JA",
      "types": [
        "locality",
        "political"
      ]
    },
    {
      "access_points": [

      ],
      "address_components": [
        {
          "long_name": "瀬棚郡",
          "short_name": "瀬棚郡",
          "types": [
            "administrative_area_level_2",
            "political"
          ]
        },
        {
          "long_name": "今金町",
          "short_name": "今金町",
          "types": [
            "locality",
            "political"
          ]
        },
        {
          "long_name": "北海道",
          "short_name": "北海道",
          "types": [
            "administrative_area_level_1",
            "political"
          ]
        },
        {
          "long_name": "日本",
          "short_name": "JP",
          "types": [
            "country",
            "political"
          ]
        }
      ],
      "formatted_address": "日本、北海道瀬棚郡今金町",
      "geometry": {
        "bounds": {
          "northeast": {
            "lat": 42.6178935,
            "lng": 140.2661138
          },
          "southwest": {
            "lat": 42.2721929,
            "lng": 139.9223227
          }
        },
        "location": {
          "lat": 42.4096756,
          "lng": 140.0913946
        },
        "location_type": "APPROXIMATE",
        "viewport": {
          "northeast": {
            "lat": 42.6178935,
            "lng": 140.2661138
          },
          "southwest": {
            "lat": 42.2721929,
            "lng": 139.9223227
          }
        }
      },
      "place_id": "ChIJCy9RWvqHn18RiKpLiy5vB0Q",
      "types": [
        "administrative_area_level_2",
        "political"
      ]
    },
    {
      "access_points": [

      ],
      "address_components": [
        {
          "long_name": "北海道",
          "short_name": "北海道",
          "types": [
            "administrative_area_level_1",
            "political"
          ]
        },
        {
          "long_name": "日本",
          "short_name": "JP",
          "types": [
            "country",
            "political"
          ]
        }
      ],
      "formatted_address": "日本、北海道",
      "geometry": {
        "bounds": {
          "northeast": {
            "lat": 45.5265181,
            "lng": 145.817624
          },
          "southwest": {
            "lat": 41.3516002,
            "lng": 139.3340799
          }
        },
        "location": {
          "lat": 43.2203266,
          "lng": 142.8634737
        },
        "location_type": "APPROXIMATE",
        "viewport": {
          "northeast": {
            "lat": 45.5265181,
            "lng": 145.817624
          },
          "southwest": {
            "lat": 41.3516002,
            "lng": 139.3340799
          }
        }
      },
      "place_id": "ChIJi4hsnyBZn18RjwPOT1bDPBw",
      "types": [
        "administrative_area_level_1",
        "political"
      ]
    },
    {
      "access_points": [

      ],
      "address_components": [
        {
          "long_name": "日本",
          "short_name": "JP",
          "types": [
            "country",
            "political"
          ]
        }
      ],
      "formatted_address": "日本",
      "geometry": {
        "bounds": {
          "northeast": {
            "lat": 45.6412626,
            "lng": 154.0031455
          },
          "southwest": {
            "lat": 20.3585295,
            "lng": 122.8554688
          }
        },
        "location": {
          "lat": 36.204824,
          "lng": 138.252924
        },
        "location_type": "APPROXIMATE",
        "viewport": {
          "northeast": {
            "lat": 45.6412626,
            "lng": 154.0031455
          },
          "southwest": {
            "lat": 20.3585295,
            "lng": 122.8554688
          }
        }
      },
      "place_id": "ChIJLxl_1w9OZzQRRFJmfNR1QvU",
      "types": [
        "country",
        "political"
      ]
    }
  ]
}