{
  "station": "仁倉",
  "lat": 44.050278,
  "lng": 143.909722,
  "plus_code": {
    "compound_code": "3W25+4V 日本、北海道佐呂間町",
    "global_code": "8RP53W25+4V"
  },
  "results": [
    {
      "address_components": [
        {
          "long_name": "２９５−３",
          "short_name": "２９５−３",
          "types": [
            "premise"
          ]
        },
        {
          "long_name": "字仁倉",
          "short_name": "字仁倉",
          "types": [
            "political",
            "sublocality",
            "sublocality_level_2"
          ]
        },
        {
          "long_name": "佐呂間町",
          "short_name": "佐呂間町",
          "types": [
            "locality",
            "political"
          ]
        },
        {
          "long_name": "常呂郡",
          "short_name": "常呂郡",
          "types": [
            "administrative_area_level_2",
            "political"
          ]
        },
        {
          "long_name": "北海道",
          "short_name": "北海道",
          "types": [
            "administrative_area_level_1",
            "political"
          ]
        },
        {
          "long_name": "日本",
          "short_name": "JP",
          "types": [
            "country",
            "political"
          ]
        },
        {
          "long_name": "093-0424",
          "short_name": "093-0424",
          "types": [
            "postal_code"
          ]
        }
      ],
      "formatted_address": "日本、〒093-0424 北海道常呂郡佐呂間町字仁倉２９５−３",
      "geometry": {
        "location": {
          "lat": 44.0495711,
          "lng": 143.909465
        },
        "location_type": "ROOFTOP",
        "viewport": {
          "northeast": {
            "lat": 44.0509200802915,
            "lng": 143.9108139802915
          },
          "southwest": {
            "lat": 44.04822211970851,
            "lng": 143.9081160197085
          }
        }
      },
      "place_id": "ChIJAY1fmca2El8RiMKM5itOE20",
      "plus_code": {
        "compound_code": "2WX5+RQ 日本、北海道佐呂間町",
        "global_code": "8RP52WX5+RQ"
      },
      "types": [
        "street_address"
      ]
    },
    {
      "address_components": [
        {
          "long_name": "仁倉端野線",
          "short_name": "道道655号",
          "types": [
            "route"
          ]
        },
        {
          "long_name": "字仁倉",
          "short_name": "字仁倉",
          "types": [
            "political",
            "sublocality",
            "sublocality_level_2"
          ]
        },
        {
          "long_name": "佐呂間町",
          "short_name": "佐呂間町",
          "types": [
            "locality",
            "political"
          ]
        },
        {
          "long_name": "常呂郡",
          "short_name": "常呂郡",
          "types": [
            "administrative_area_level_2",
            "political"
          ]
        },
        {
          "long_name": "北海道",
          "short_name": "北海道",
          "types": [
            "administrative_area_level_1",
            "political"
          ]
        },
        {
          "long_name": "日本",
          "short_name": "JP",
          "types": [
            "country",
            "political"
          ]
        },
        {
          "long_name": "093-0424",
          "short_name": "093-0424",
          "types": [
            "postal_code"
          ]
        }
      ],
      "formatted_address": "日本、〒093-0424 北海道常呂郡佐呂間町字仁倉 道道655号",
      "geometry": {
        "bounds": {
          "northeast": {
            "lat": 44.0502833,
            "lng": 143.9099591
          },
          "southwest": {
            "lat": 44.0490618,
            "lng": 143.9080864
          }
        },
        "location": {
          "lat": 44.0496725,
          "lng": 143.9090227
        },
        "location_type": "GEOMETRIC_CENTER",
        "viewport": {
          "northeast": {
            "lat": 44.05102153029149,
            "lng": 143.9103717302915
          },
          "southwest": {
            "lat": 44.0483235697085,
            "lng": 143.9076737697085
          }
        }
      },
      "place_id": "ChIJW1L6nMa2El8R8NCiWgdH5bc",
      "types": [
        "route"
      ]
    },
    {
      "address_components": [
        {
          "long_name": "093-0424",
          "short_name": "093-0424",
          "types": [
            "postal_code"
          ]
        },
        {
          "long_name": "字仁倉",
          "short_name": "字仁倉",
          "types": [
            "political",
            "sublocality",
            "sublocality_level_2"
          ]
        },
        {
          "long_name": "佐呂間町",
          "short_name": "佐呂間町",
          "types": [
            "locality",
            "political"
          ]
        },
        {
          "long_name": "常呂郡",
          "short_name": "常呂郡",
          "types": [
            "administrative_area_level_2",
            "political"
          ]
        },
        {
          "long_name": "北海道",
          "short_name": "北海道",
          "types": [
            "administrative_area_level_1",
            "political"
          ]
        },
        {
          "long_name": "日本",
          "short_name": "JP",
          "types": [
            "country",
            "political"
          ]
        }
      ],
      "formatted_address": "日本 〒093-0424",
      "geometry": {
        "bounds": {
          "northeast": {
            "lat": 44.06908809999999,
            "lng": 143.9556593
          },
          "southwest": {
            "lat": 43.9766935,
            "lng": 143.7920526
          }
        },
        "location": {
          "lat": 44.0380674,
          "lng": 143.9197887
        },
        "location_type": "APPROXIMATE",
        "viewport": {
          "northeast": {
            "lat": 44.06908809999999,
            "lng": 143.9556593
          },
          "southwest": {
            "lat": 43.9766935,
            "lng": 143.7920526
          }
        }
      },
      "place_id": "ChIJIYTni8a2El8RATVP635R7rE",
      "types": [
        "postal_code"
      ]
    },
    {
      "address_components": [
        {
          "long_name": "字仁倉",
          "short_name": "字仁倉",
          "types": [
            "political",
            "sublocality",
            "sublocality_level_2"
          ]
        },
        {
          "long_name": "佐呂間町",
          "short_name": "佐呂間町",
          "types": [
            "locality",
            "political"
          ]
        },
        {
          "long_name": "常呂郡",
          "short_name": "常呂郡",
          "types": [
            "administrative_area_level_2",
            "political"
          ]
        },
        {
          "long_name": "北海道",
          "short_name": "北海道",
          "types": [
            "administrative_area_level_1",
            "political"
          ]
        },
        {
          "long_name": "日本",
          "short_name": "JP",
          "types": [
            "country",
            "political"
          ]
        }
      ],
      "formatted_address": "日本、北海道常呂郡佐呂間町字仁倉",
      "geometry": {
        "bounds": {
          "northeast": {
            "lat": 44.069088,
            "lng": 143.955659
          },
          "southwest": {
            "lat": 43.97669399999999,
            "lng": 143.7719029
          }
        },
        "location": {
          "lat": 44.0380674,
          "lng": 143.9197887
        },
        "location_type": "APPROXIMATE",
        "viewport": {
          "northeast": {
            "lat": 44.069088,
            "lng": 143.955659
          },
          "southwest": {
            "lat": 43.97669399999999,
            "lng": 143.7719029
          }
        }
      },
      "place_id": "ChIJkT3YFW-xEl8RQAl6562l6Ms",
      "types": [
        "political",
        "sublocality",
        "sublocality_level_2"
      ]
    },
    {
      "address_components": [
        {
          "long_name": "佐呂間町",
          "short_name": "佐呂間町",
          "types": [
            "locality",
            "political"
          ]
        },
        {
          "long_name": "常呂郡",
          "short_name": "常呂郡",
          "types": [
            "administrative_area_level_2",
            "political"
          ]
        },
        {
          "long_name": "北海道",
          "short_name": "北海道",
          "types": [
            "administrative_area_level_1",
            "political"
          ]
        },
        {
          "long_name": "日本",
          "short_name": "JP",
          "types": [
            "country",
            "political"
          ]
        }
      ],
      "formatted_address": "日本、北海道常呂郡佐呂間町",
      "geometry": {
        "bounds": {
          "northeast": {
            "lat": 44.1443829,
            "lng": 143.966704
          },
          "southwest": {
            "lat": 43.87456,
            "lng": 143.570998
          }
        },
        "location": {
          "lat": 44.017912,
          "lng": 143.7747588
        },
        "location_type": "APPROXIMATE",
        "viewport": {
          "northeast": {
            "lat": 44.1443829,
            "lng": 143.966704
          },
          "southwest": {
            "lat": 43.87456,
            "lng": 143.570998
          }
        }
      },
      "place_id": "ChIJCTQ90zOuEl8RnjmVgOhGcy0",
      "types": [
        "locality",
        "political"
      ]
    },
    {
      "address_components": [
        {
          "long_name": "常呂郡",
          "short_name": "常呂郡",
          "types": [
            "administrative_area_level_2",
            "political"
          ]
        },
        {
          "long_name": "北海道",
          "short_name": "北海道",
          "types": [
            "administrative_area_level_1",
            "political"
          ]
        },
        {
          "long_name": "日本",
          "short_name": "JP",
          "types": [
            "country",
            "political"
          ]
        }
      ],
      "formatted_address": "日本、北海道常呂郡",
      "geometry": {
        "bounds": {
          "northeast": {
            "lat": 44.1443832,
            "lng": 143.9667034
          },
          "southwest": {
            "lat": 43.50814219999999,
            "lng": 143.1729641
          }
        },
        "location": {
          "lat": 44.0361705,
          "lng": 143.8286723
        },
        "location_type": "APPROXIMATE",
        "viewport": {
          "northeast": {
            "lat": 44.1443832,
            "lng": 143.9667034
          },
          "southwest": {
            "lat": 43.50814219999999,
            "lng": 143.1729641
          }
        }
      },
      "place_id": "ChIJaQZwiDdTDV8Rbh8LMiglDqE",
      "types": [
        "administrative_area_level_2",
        "political"
      ]
    },
    {
      "address_components": [
        {
          "long_name": "北海道",
          "short_name": "北海道",
          "types": [
            "administrative_area_level_1",
            "political"
          ]
        },
        {
          "long_name": "日本",
          "short_name": "JP",
          "types": [
            "country",
            "political"
          ]
        }
      ],
      "formatted_address": "日本、北海道",
      "geometry": {
        "bounds": {
          "northeast": {
            "lat": 45.5265181,
            "lng": 145.817624
          },
          "southwest": {
            "lat": 41.3516002,
            "lng": 139.3340799
          }
        },
        "location": {
          "lat": 43.2203266,
          "lng": 142.8634737
        },
        "location_type": "APPROXIMATE",
        "viewport": {
          "northeast": {
            "lat": 45.5265181,
            "lng": 145.817624
          },
          "southwest": {
            "lat": 41.3516002,
            "lng": 139.3340799
          }
        }
      },
      "place_id": "ChIJi4hsnyBZn18RjwPOT1bDPBw",
      "types": [
        "administrative_area_level_1",
        "political"
      ]
    },
    {
      "address_components": [
        {
          "long_name": "日本",
          "short_name": "JP",
          "types": [
            "country",
            "political"
          ]
        }
      ],
      "formatted_address": "日本",
      "geometry": {
        "bounds": {
          "northeast": {
            "lat": 45.6412626,
            "lng": 154.0031455
          },
          "southwest": {
            "lat": 20.3585295,
            "lng": 122.8554688
          }
        },
        "location": {
          "lat": 36.204824,
          "lng": 138.252924
        },
        "location_type": "APPROXIMATE",
        "viewport": {
          "northeast": {
            "lat": 45.6412626,
            "lng": 154.0031455
          },
          "southwest": {
            "lat": 20.3585295,
            "lng": 122.8554688
          }
        }
      },
      "place_id": "ChIJLxl_1w9OZzQRRFJmfNR1QvU",
      "types": [
        "country",
        "political"
      ]
    }
  ]
}