{
  "station": "佐呂間",
  "lat": 44.019306,
  "lng": 143.778611,
  "plus_code": {
    "compound_code": "2Q9H+PC 日本、北海道佐呂間町",
    "global_code": "8RP52Q9H+PC"
  },
  "results": [
    {
      "address_components": [
        {
          "long_name": "１９",
          "short_name": "１９",
          "types": [
            "premise"
          ]
        },
        {
          "long_name": "字幸町",
          "short_name": "字幸町",
          "types": [
            "political",
            "sublocality",
            "sublocality_level_2"
          ]
        },
        {
          "long_name": "佐呂間町",
          "short_name": "佐呂間町",
          "types": [
            "locality",
            "political"
          ]
        },
        {
          "long_name": "常呂郡",
          "short_name": "常呂郡",
          "types": [
            "administrative_area_level_2",
            "political"
          ]
        },
        {
          "long_name": "北海道",
          "short_name": "北海道",
          "types": [
            "administrative_area_level_1",
            "political"
          ]
        },
        {
          "long_name": "日本",
          "short_name": "JP",
          "types": [
            "country",
            "political"
          ]
        },
        {
          "long_name": "093-0503",
          "short_name": "093-0503",
          "types": [
            "postal_code"
          ]
        }
      ],
      "formatted_address": "日本、〒093-0503 北海道常呂郡佐呂間町字幸町１９",
      "geometry": {
        "location": {
          "lat": 44.0195055,
          "lng": 143.7787315
        },
        "location_type": "ROOFTOP",
        "viewport": {
          "northeast": {
            "lat": 44.0208544802915,
            "lng": 143.7800804802915
          },
          "southwest": {
            "lat": 44.0181565197085,
            "lng": 143.7773825197085
          }
        }
      },
      "place_id": "ChIJh9twmSqwEl8RXC1LZ6lxknc",
      "plus_code": {
        "compound_code": "2Q9H+RF 日本、北海道佐呂間町",
        "global_code": "8RP52Q9H+RF"
      },
      "types": [
        "dentist",
        "establishment",
        "health",
        "point_of_interest"
      ]
    },
    {
      "address_components": [
        {
          "long_name": "６５",
          "short_name": "６５",
          "types": [
            "premise"
          ]
        },
        {
          "long_name": "字幸町",
          "short_name": "字幸町",
          "types": [
            "political",
            "sublocality",
            "sublocality_level_2"
          ]
        },
        {
          "long_name": "佐呂間町",
          "short_name": "佐呂間町",
          "types": [
            "locality",
            "political"
          ]
        },
        {
          "long_name": "常呂郡",
          "short_name": "常呂郡",
          "types": [
            "administrative_area_level_2",
            "political"
          ]
        },
        {
          "long_name": "北海道",
          "short_name": "北海道",
          "types": [
            "administrative_area_level_1",
            "political"
          ]
        },
        {
          "long_name": "日本",
          "short_name": "JP",
          "types": [
            "country",
            "political"
          ]
        },
        {
          "long_name": "093-0503",
          "short_name": "093-0503",
          "types": [
            "postal_code"
          ]
        }
      ],
      "formatted_address": "日本、〒093-0503 北海道常呂郡佐呂間町字幸町６５",
      "geometry": {
        "location": {
          "lat": 44.019198,
          "lng": 143.7790981
        },
        "location_type": "ROOFTOP",
        "viewport": {
          "northeast": {
            "lat": 44.02054698029149,
            "lng": 143.7804470802915
          },
          "southwest": {
            "lat": 44.01784901970849,
            "lng": 143.7777491197085
          }
        }
      },
      "place_id": "ChIJdXdMoiqwEl8R6-35UPmQJRo",
      "plus_code": {
        "compound_code": "2Q9H+MJ 日本、北海道佐呂間町",
        "global_code": "8RP52Q9H+MJ"
      },
      "types": [
        "street_address"
      ]
    },
    {
      "address_components": [
        {
          "long_name": "Unnamed Road",
          "short_name": "Unnamed Road",
          "types": [
            "route"
          ]
        },
        {
          "long_name": "字幸町",
          "short_name": "字幸町",
          "types": [
            "political",
            "sublocality",
            "sublocality_level_2"
          ]
        },
        {
          "long_name": "佐呂間町",
          "short_name": "佐呂間町",
          "types": [
            "locality",
            "political"
          ]
        },
        {
          "long_name": "常呂郡",
          "short_name": "常呂郡",
          "types": [
            "administrative_area_level_2",
            "political"
          ]
        },
        {
          "long_name": "北海道",
          "short_name": "北海道",
          "types": [
            "administrative_area_level_1",
            "political"
          ]
        },
        {
          "long_name": "日本",
          "short_name": "JP",
          "types": [
            "country",
            "political"
          ]
        },
        {
          "long_name": "093-0502",
          "short_name": "093-0502",
          "types": [
            "postal_code"
          ]
        }
      ],
      "formatted_address": "Unnamed Road, 字幸町 佐呂間町 常呂郡 北海道 093-0502 日本",
      "geometry": {
        "bounds": {
          "northeast": {
            "lat": 44.0193873,
            "lng": 143.778696
          },
          "southwest": {
            "lat": 44.0189271,
            "lng": 143.7785812
          }
        },
        "location": {
          "lat": 44.0191569,
          "lng": 143.7786365
        },
        "location_type": "GEOMETRIC_CENTER",
        "viewport": {
          "northeast": {
            "lat": 44.0205061802915,
            "lng": 143.7799875802915
          },
          "southwest": {
            "lat": 44.0178082197085,
            "lng": 143.7772896197085
          }
        }
      },
      "place_id": "ChIJDSAaoCqwEl8RCFQLmluv0AE",
      "types": [
        "route"
      ]
    },
    {
      "address_components": [
        {
          "long_name": "093-0502",
          "short_name": "093-0502",
          "types": [
            "postal_code"
          ]
        },
        {
          "long_name": "字永代町",
          "short_name": "字永代町",
          "types": [
            "political",
            "sublocality",
            "sublocality_level_2"
          ]
        },
        {
          "long_name": "佐呂間町",
          "short_name": "佐呂間町",
          "types": [
            "locality",
            "political"
          ]
        },
        {
          "long_name": "常呂郡",
          "short_name": "常呂郡",
          "types": [
            "administrative_area_level_2",
            "political"
          ]
        },
        {
          "long_name": "北海道",
          "short_name": "北海道",
          "types": [
            "administrative_area_level_1",
            "political"
          ]
        },
        {
          "long_name": "日本",
          "short_name": "JP",
          "types": [
            "country",
            "political"
          ]
        }
      ],
      "formatted_address": "日本 〒093-0502",
      "geometry": {
        "bounds": {
          "northeast": {
            "lat": 44.0198543,
            "lng": 143.7871646
          },
          "southwest": {
            "lat": 44.0130437,
            "lng": 143.7737688
          }
        },
        "location": {
          "lat": 44.0169967,
          "lng": 143.7780262
        },
        "location_type": "APPROXIMATE",
        "viewport": {
          "northeast": {
            "lat": 44.0198543,
            "lng": 143.7871646
          },
          "southwest": {
            "lat": 44.0130437,
            "lng": 143.7737688
          }
        }
      },
      "place_id": "ChIJ73Ii1tSvEl8RnIMEKDximfg",
      "types": [
        "postal_code"
      ]
    },
    {
      "address_components": [
        {
          "long_name": "字幸町",
          "short_name": "字幸町",
          "types": [
            "political",
            "sublocality",
            "sublocality_level_2"
          ]
        },
        {
          "long_name": "佐呂間町",
          "short_name": "佐呂間町",
          "types": [
            "locality",
            "political"
          ]
        },
        {
          "long_name": "常呂郡",
          "short_name": "常呂郡",
          "types": [
            "administrative_area_level_2",
            "political"
          ]
        },
        {
          "long_name": "北海道",
          "short_name": "北海道",
          "types": [
            "administrative_area_level_1",
            "political"
          ]
        },
        {
          "long_name": "日本",
          "short_name": "JP",
          "types": [
            "country",
            "political"
          ]
        }
      ],
      "formatted_address": "日本、北海道常呂郡佐呂間町字幸町",
      "geometry": {
        "bounds": {
          "northeast": {
            "lat": 44.0238291,
            "lng": 143.7863581
          },
          "southwest": {
            "lat": 44.018451,
            "lng": 143.7687838
          }
        },
        "location": {
          "lat": 44.021372,
          "lng": 143.7774897
        },
        "location_type": "APPROXIMATE",
        "viewport": {
          "northeast": {
            "lat": 44.0238291,
            "lng": 143.7863581
          },
          "southwest": {
            "lat": 44.018451,
            "lng": 143.7687838
          }
        }
      },
      "place_id": "ChIJdyqBITOwEl8R6OSmcrXJrw8",
      "types": [
        "political",
        "sublocality",
        "sublocality_level_2"
      ]
    },
    {
      "address_components": [
        {
          "long_name": "佐呂間町",
          "short_name": "佐呂間町",
          "types": [
            "locality",
            "political"
          ]
        },
        {
          "long_name": "常呂郡",
          "short_name": "常呂郡",
          "types": [
            "administrative_area_level_2",
            "political"
          ]
        },
        {
          "long_name": "北海道",
          "short_name": "北海道",
          "types": [
            "administrative_area_level_1",
            "political"
          ]
        },
        {
          "long_name": "日本",
          "short_name": "JP",
          "types": [
            "country",
            "political"
          ]
        }
      ],
      "formatted_address": "日本、北海道常呂郡佐呂間町",
      "geometry": {
        "bounds": {
          "northeast": {
            "lat": 44.1443829,
            "lng": 143.966704
          },
          "southwest": {
            "lat": 43.87456,
            "lng": 143.570998
          }
        },
        "location": {
          "lat": 44.017912,
          "lng": 143.7747588
        },
        "location_type": "APPROXIMATE",
        "viewport": {
          "northeast": {
            "lat": 44.1443829,
            "lng": 143.966704
          },
          "southwest": {
            "lat": 43.87456,
            "lng": 143.570998
          }
        }
      },
      "place_id": "ChIJCTQ90zOuEl8RnjmVgOhGcy0",
      "types": [
        "locality",
        "political"
      ]
    },
    {
      "address_components": [
        {
          "long_name": "常呂郡",
          "short_name": "常呂郡",
          "types": [
            "administrative_area_level_2",
            "political"
          ]
        },
        {
          "long_name": "北海道",
          "short_name": "北海道",
          "types": [
            "administrative_area_level_1",
            "political"
          ]
        },
        {
          "long_name": "日本",
          "short_name": "JP",
          "types": [
            "country",
            "political"
          ]
        }
      ],
      "formatted_address": "日本、北海道常呂郡",
      "geometry": {
        "bounds": {
          "northeast": {
            "lat": 44.1443832,
            "lng": 143.9667034
          },
          "southwest": {
            "lat": 43.50814219999999,
            "lng": 143.1729641
          }
        },
        "location": {
          "lat": 44.0361705,
          "lng": 143.8286723
        },
        "location_type": "APPROXIMATE",
        "viewport": {
          "northeast": {
            "lat": 44.1443832,
            "lng": 143.9667034
          },
          "southwest": {
            "lat": 43.50814219999999,
            "lng": 143.1729641
          }
        }
      },
      "place_id": "ChIJaQZwiDdTDV8Rbh8LMiglDqE",
      "types": [
        "administrative_area_level_2",
        "political"
      ]
    },
    {
      "address_components": [
        {
          "long_name": "北海道",
          "short_name": "北海道",
          "types": [
            "administrative_area_level_1",
            "political"
          ]
        },
        {
          "long_name": "日本",
          "short_name": "JP",
          "types": [
            "country",
            "political"
          ]
        }
      ],
      "formatted_address": "日本、北海道",
      "geometry": {
        "bounds": {
          "northeast": {
            "lat": 45.5265181,
            "lng": 145.817624
          },
          "southwest": {
            "lat": 41.3516002,
            "lng": 139.3340799
          }
        },
        "location": {
          "lat": 43.2203266,
          "lng": 142.8634737
        },
        "location_type": "APPROXIMATE",
        "viewport": {
          "northeast": {
            "lat": 45.5265181,
            "lng": 145.817624
          },
          "southwest": {
            "lat": 41.3516002,
            "lng": 139.3340799
          }
        }
      },
      "place_id": "ChIJi4hsnyBZn18RjwPOT1bDPBw",
      "types": [
        "administrative_area_level_1",
        "political"
      ]
    },
    {
      "address_components": [
        {
          "long_name": "日本",
          "short_name": "JP",
          "types": [
            "country",
            "political"
          ]
        }
      ],
      "formatted_address": "日本",
      "geometry": {
        "bounds": {
          "northeast": {
            "lat": 45.6412626,
            "lng": 154.0031455
          },
          "southwest": {
            "lat": 20.3585295,
            "lng": 122.8554688
          }
        },
        "location": {
          "lat": 36.204824,
          "lng": 138.252924
        },
        "location_type": "APPROXIMATE",
        "viewport": {
          "northeast": {
            "lat": 45.6412626,
            "lng": 154.0031455
          },
          "southwest": {
            "lat": 20.3585295,
            "lng": 122.8554688
          }
        }
      },
      "place_id": "ChIJLxl_1w9OZzQRRFJmfNR1QvU",
      "types": [
        "country",
        "political"
      ]
    }
  ]
}