{
  "station": "共成",
  "lat": 44.623472,
  "lng": 141.804833,
  "plus_code": {
    "compound_code": "JRF3+9W 日本、北海道初山別村",
    "global_code": "8RP3JRF3+9W"
  },
  "results": [
    {
      "access_points": [

      ],
      "address_components": [
        {
          "long_name": "国道232号",
          "short_name": "国道232号",
          "types": [
            "route"
          ]
        },
        {
          "long_name": "字共成",
          "short_name": "字共成",
          "types": [
            "political",
            "sublocality",
            "sublocality_level_2"
          ]
        },
        {
          "long_name": "初山別村",
          "short_name": "初山別村",
          "types": [
            "locality",
            "political"
          ]
        },
        {
          "long_name": "苫前郡",
          "short_name": "苫前郡",
          "types": [
            "administrative_area_level_2",
            "political"
          ]
        },
        {
          "long_name": "北海道",
          "short_name": "北海道",
          "types": [
            "administrative_area_level_1",
            "political"
          ]
        },
        {
          "long_name": "日本",
          "short_name": "JP",
          "types": [
            "country",
            "political"
          ]
        },
        {
          "long_name": "078-4433",
          "short_name": "078-4433",
          "types": [
            "postal_code"
          ]
        }
      ],
      "formatted_address": "日本、〒078-4433 北海道苫前郡初山別村字共成 国道232号",
      "geometry": {
        "bounds": {
          "northeast": {
            "lat": 44.6259853,
            "lng": 141.8036412
          },
          "southwest": {
            "lat": 44.6226472,
            "lng": 141.8032617
          }
        },
        "location": {
          "lat": 44.6243175,
          "lng": 141.8036022
        },
        "location_type": "GEOMETRIC_CENTER",
        "viewport": {
          "northeast": {
            "lat": 44.6259853,
            "lng": 141.8048004302915
          },
          "southwest": {
            "lat": 44.6226472,
            "lng": 141.8021024697085
          }
        }
      },
      "place_id": "ChIJ304t88xzDl8RQkzMQMdxCwQ",
      "types": [
        "route"
      ]
    },
    {
      "access_points": [

      ],
      "address_components": [
        {
          "long_name": "字共成",
          "short_name": "字共成",
          "types": [
            "political",
            "sublocality",
            "sublocality_level_2"
          ]
        },
        {
          "long_name": "初山別村",
          "short_name": "初山別村",
          "types": [
            "locality",
            "political"
          ]
        },
        {
          "long_name": "苫前郡",
          "short_name": "苫前郡",
          "types": [
            "administrative_area_level_2",
            "political"
          ]
        },
        {
          "long_name": "北海道",
          "short_name": "北海道",
          "types": [
            "administrative_area_level_1",
            "political"
          ]
        },
        {
          "long_name": "日本",
          "short_name": "JP",
          "types": [
            "country",
            "political"
          ]
        },
        {
          "long_name": "078-4433",
          "short_name": "078-4433",
          "types": [
            "postal_code"
          ]
        }
      ],
      "formatted_address": "日本、〒078-4433 北海道苫前郡初山別村字共成",
      "geometry": {
        "bounds": {
          "northeast": {
            "lat": 44.642867,
            "lng": 141.8709299
          },
          "southwest": {
            "lat": 44.590461,
            "lng": 141.7885619
          }
        },
        "location": {
          "lat": 44.6114841,
          "lng": 141.8062628
        },
        "location_type": "APPROXIMATE",
        "viewport": {
          "northeast": {
            "lat": 44.642867,
            "lng": 141.8709299
          },
          "southwest": {
            "lat": 44.590461,
            "lng": 141.7885619
          }
        }
      },
      "place_id": "ChIJLwRHZEpyDl8RvnVdO98_Qqg",
      "types": [
        "political",
        "sublocality",
        "sublocality_level_2"
      ]
    },
    {
      "access_points": [

      ],
      "address_components": [
        {
          "long_name": "078-4433",
          "short_name": "078-4433",
          "types": [
            "postal_code"
          ]
        },
        {
          "long_name": "字共成",
          "short_name": "字共成",
          "types": [
            "political",
            "sublocality",
            "sublocality_level_2"
          ]
        },
        {
          "long_name": "初山別村",
          "short_name": "初山別村",
          "types": [
            "locality",
            "political"
          ]
        },
        {
          "long_name": "苫前郡",
          "short_name": "苫前郡",
          "types": [
            "administrative_area_level_2",
            "political"
          ]
        },
        {
          "long_name": "北海道",
          "short_name": "北海道",
          "types": [
            "administrative_area_level_1",
            "political"
          ]
        },
        {
          "long_name": "日本",
          "short_name": "JP",
          "types": [
            "country",
            "political"
          ]
        }
      ],
      "formatted_address": "日本 〒078-4433",
      "geometry": {
        "bounds": {
          "northeast": {
            "lat": 44.6428667,
            "lng": 141.8709299
          },
          "southwest": {
            "lat": 44.5902724,
            "lng": 141.7885617
          }
        },
        "location": {
          "lat": 44.6114841,
          "lng": 141.8062628
        },
        "location_type": "APPROXIMATE",
        "viewport": {
          "northeast": {
            "lat": 44.6428667,
            "lng": 141.8709299
          },
          "southwest": {
            "lat": 44.5902724,
            "lng": 141.7885617
          }
        }
      },
      "place_id": "ChIJjURZg7RzDl8R3Wu7WLhAjyQ",
      "types": [
        "postal_code"
      ]
    },
    {
      "access_points": [

      ],
      "address_components": [
        {
          "long_name": "初山別村",
          "short_name": "初山別村",
          "types": [
            "locality",
            "political"
          ]
        },
        {
          "long_name": "苫前郡",
          "short_name": "苫前郡",
          "types": [
            "administrative_area_level_2",
            "political"
          ]
        },
        {
          "long_name": "北海道",
          "short_name": "北海道",
          "types": [
            "administrative_area_level_1",
            "political"
          ]
        },
        {
          "long_name": "日本",
          "short_name": "JP",
          "types": [
            "country",
            "political"
          ]
        }
      ],
      "formatted_address": "日本、北海道苫前郡初山別村",
      "geometry": {
        "bounds": {
          "northeast": {
            "lat": 44.642518,
            "lng": 141.938919
          },
          "southwest": {
            "lat": 44.386974,
            "lng": 141.7466601
          }
        },
        "location": {
          "lat": 44.532023,
          "lng": 141.7666445
        },
        "location_type": "APPROXIMATE",
        "viewport": {
          "northeast": {
            "lat": 44.642518,
            "lng": 141.938919
          },
          "southwest": {
            "lat": 44.386974,
            "lng": 141.7466601
          }
        }
      },
      "place_id": "ChIJ5VSF-th3Dl8RBOGZlB8N3hk",
      "types": [
        "locality",
        "political"
      ]
    },
    {
      "access_points": [

      ],
      "address_components": [
        {
          "long_name": "苫前郡",
          "short_name": "苫前郡",
          "types": [
            "administrative_area_level_2",
            "political"
          ]
        },
        {
          "long_name": "北海道",
          "short_name": "北海道",
          "types": [
            "administrative_area_level_1",
            "political"
          ]
        },
        {
          "long_name": "日本",
          "short_name": "JP",
          "types": [
            "country",
            "political"
          ]
        }
      ],
      "formatted_address": "日本、北海道苫前郡",
      "geometry": {
        "bounds": {
          "northeast": {
            "lat": 44.642518,
            "lng": 142.0881677
          },
          "southwest": {
            "lat": 44.09078909999999,
            "lng": 141.29042
          }
        },
        "location": {
          "lat": 44.31057759999999,
          "lng": 141.873713
        },
        "location_type": "APPROXIMATE",
        "viewport": {
          "northeast": {
            "lat": 44.642518,
            "lng": 142.0881677
          },
          "southwest": {
            "lat": 44.09078909999999,
            "lng": 141.29042
          }
        }
      },
      "place_id": "ChIJa20C2VcrDF8RXqHtN_ckg_w",
      "types": [
        "administrative_area_level_2",
        "political"
      ]
    },
    {
      "access_points": [

      ],
      "address_components": [
        {
          "long_name": "北海道",
          "short_name": "北海道",
          "types": [
            "administrative_area_level_1",
            "political"
          ]
        },
        {
          "long_name": "日本",
          "short_name": "JP",
          "types": [
            "country",
            "political"
          ]
        }
      ],
      "formatted_address": "日本、北海道",
      "geometry": {
        "bounds": {
          "northeast": {
            "lat": 45.5265181,
            "lng": 145.817624
          },
          "southwest": {
            "lat": 41.3516002,
            "lng": 139.3340799
          }
        },
        "location": {
          "lat": 43.2203266,
          "lng": 142.8634737
        },
        "location_type": "APPROXIMATE",
        "viewport": {
          "northeast": {
            "lat": 45.5265181,
            "lng": 145.817624
          },
          "southwest": {
            "lat": 41.3516002,
            "lng": 139.3340799
          }
        }
      },
      "place_id": "ChIJi4hsnyBZn18RjwPOT1bDPBw",
      "types": [
        "administrative_area_level_1",
        "political"
      ]
    },
    {
      "access_points": [

      ],
      "address_components": [
        {
          "long_name": "日本",
          "short_name": "JP",
          "types": [
            "country",
            "political"
          ]
        }
      ],
      "formatted_address": "日本",
      "geometry": {
        "bounds": {
          "northeast": {
            "lat": 45.6412626,
            "lng": 154.0031455
          },
          "southwest": {
            "lat": 20.3585295,
            "lng": 122.8554688
          }
        },
        "location": {
          "lat": 36.204824,
          "lng": 138.252924
        },
        "location_type": "APPROXIMATE",
        "viewport": {
          "northeast": {
            "lat": 45.6412626,
            "lng": 154.0031455
          },
          "southwest": {
            "lat": 20.3585295,
            "lng": 122.8554688
          }
        }
      },
      "place_id": "ChIJLxl_1w9OZzQRRFJmfNR1QvU",
      "types": [
        "country",
        "political"
      ]
    }
  ]
}