{
  "station": "中札内",
  "lat": 42.695778,
  "lng": 143.133833,
  "plus_code": {
    "compound_code": "M4WM+8G 日本、北海道中札内村",
    "global_code": "8RJ5M4WM+8G"
  },
  "results": [
    {
      "address_components": [
        {
          "long_name": "５",
          "short_name": "５",
          "types": [
            "premise"
          ]
        },
        {
          "long_name": "３丁目",
          "short_name": "３丁目",
          "types": [
            "political",
            "sublocality",
            "sublocality_level_3"
          ]
        },
        {
          "long_name": "東２条南",
          "short_name": "東２条南",
          "types": [
            "political",
            "sublocality",
            "sublocality_level_2"
          ]
        },
        {
          "long_name": "中札内村",
          "short_name": "中札内村",
          "types": [
            "locality",
            "political"
          ]
        },
        {
          "long_name": "河西郡",
          "short_name": "河西郡",
          "types": [
            "administrative_area_level_2",
            "political"
          ]
        },
        {
          "long_name": "北海道",
          "short_name": "北海道",
          "types": [
            "administrative_area_level_1",
            "political"
          ]
        },
        {
          "long_name": "日本",
          "short_name": "JP",
          "types": [
            "country",
            "political"
          ]
        },
        {
          "long_name": "089-1342",
          "short_name": "089-1342",
          "types": [
            "postal_code"
          ]
        }
      ],
      "formatted_address": "日本、〒089-1342 北海道河西郡中札内村東２条南３丁目５",
      "geometry": {
        "location": {
          "lat": 42.6957891,
          "lng": 143.133412
        },
        "location_type": "ROOFTOP",
        "viewport": {
          "northeast": {
            "lat": 42.6971380802915,
            "lng": 143.1347609802915
          },
          "southwest": {
            "lat": 42.6944401197085,
            "lng": 143.1320630197085
          }
        }
      },
      "place_id": "ChIJR0i_peKKc18R-2Dpj55dsjo",
      "plus_code": {
        "compound_code": "M4WM+89 日本、北海道中札内村",
        "global_code": "8RJ5M4WM+89"
      },
      "types": [
        "street_address"
      ]
    },
    {
      "address_components": [
        {
          "long_name": "中札内村",
          "short_name": "中札内村",
          "types": [
            "locality",
            "political"
          ]
        },
        {
          "long_name": "３丁目",
          "short_name": "３丁目",
          "types": [
            "political",
            "sublocality",
            "sublocality_level_3"
          ]
        },
        {
          "long_name": "東２条南",
          "short_name": "東２条南",
          "types": [
            "political",
            "sublocality",
            "sublocality_level_2"
          ]
        },
        {
          "long_name": "河西郡",
          "short_name": "河西郡",
          "types": [
            "administrative_area_level_2",
            "political"
          ]
        },
        {
          "long_name": "北海道",
          "short_name": "北海道",
          "types": [
            "administrative_area_level_1",
            "political"
          ]
        },
        {
          "long_name": "日本",
          "short_name": "JP",
          "types": [
            "country",
            "political"
          ]
        },
        {
          "long_name": "089-1342",
          "short_name": "089-1342",
          "types": [
            "postal_code"
          ]
        }
      ],
      "formatted_address": "日本、〒089-1342 北海道河西郡中札内村東２条南３丁目 東2条南3丁目8−11",
      "geometry": {
        "location": {
          "lat": 42.696061,
          "lng": 143.133601
        },
        "location_type": "GEOMETRIC_CENTER",
        "viewport": {
          "northeast": {
            "lat": 42.6974099802915,
            "lng": 143.1349499802915
          },
          "southwest": {
            "lat": 42.6947120197085,
            "lng": 143.1322520197085
          }
        }
      },
      "place_id": "ChIJW7M7puKKc18RBcZHJMmkTyA",
      "plus_code": {
        "compound_code": "M4WM+CC 日本、北海道中札内村",
        "global_code": "8RJ5M4WM+CC"
      },
      "types": [
        "establishment",
        "point_of_interest"
      ]
    },
    {
      "address_components": [
        {
          "long_name": "Unnamed Road",
          "short_name": "Unnamed Road",
          "types": [
            "route"
          ]
        },
        {
          "long_name": "中札内村",
          "short_name": "中札内村",
          "types": [
            "locality",
            "political"
          ]
        },
        {
          "long_name": "河西郡",
          "short_name": "河西郡",
          "types": [
            "administrative_area_level_2",
            "political"
          ]
        },
        {
          "long_name": "北海道",
          "short_name": "北海道",
          "types": [
            "administrative_area_level_1",
            "political"
          ]
        },
        {
          "long_name": "日本",
          "short_name": "JP",
          "types": [
            "country",
            "political"
          ]
        }
      ],
      "formatted_address": "Unnamed Road, 中札内村 河西郡 北海道 日本",
      "geometry": {
        "bounds": {
          "northeast": {
            "lat": 42.6959418,
            "lng": 143.1344876
          },
          "southwest": {
            "lat": 42.694133,
            "lng": 143.133308
          }
        },
        "location": {
          "lat": 42.6951841,
          "lng": 143.1342707
        },
        "location_type": "GEOMETRIC_CENTER",
        "viewport": {
          "northeast": {
            "lat": 42.6963863802915,
            "lng": 143.1352467802915
          },
          "southwest": {
            "lat": 42.6936884197085,
            "lng": 143.1325488197085
          }
        }
      },
      "place_id": "ChIJ22H2jeKKc18RHjBO2Y7VBU8",
      "types": [
        "route"
      ]
    },
    {
      "address_components": [
        {
          "long_name": "３丁目",
          "short_name": "３丁目",
          "types": [
            "political",
            "sublocality",
            "sublocality_level_3"
          ]
        },
        {
          "long_name": "東３条南",
          "short_name": "東３条南",
          "types": [
            "political",
            "sublocality",
            "sublocality_level_2"
          ]
        },
        {
          "long_name": "中札内村",
          "short_name": "中札内村",
          "types": [
            "locality",
            "political"
          ]
        },
        {
          "long_name": "河西郡",
          "short_name": "河西郡",
          "types": [
            "administrative_area_level_2",
            "political"
          ]
        },
        {
          "long_name": "北海道",
          "short_name": "北海道",
          "types": [
            "administrative_area_level_1",
            "political"
          ]
        },
        {
          "long_name": "日本",
          "short_name": "JP",
          "types": [
            "country",
            "political"
          ]
        },
        {
          "long_name": "089-1343",
          "short_name": "089-1343",
          "types": [
            "postal_code"
          ]
        }
      ],
      "formatted_address": "日本、〒089-1343 北海道河西郡中札内村東３条南３丁目",
      "geometry": {
        "bounds": {
          "northeast": {
            "lat": 42.696307,
            "lng": 143.1358521
          },
          "southwest": {
            "lat": 42.6944739,
            "lng": 143.1333299
          }
        },
        "location": {
          "lat": 42.6952775,
          "lng": 143.1343344
        },
        "location_type": "APPROXIMATE",
        "viewport": {
          "northeast": {
            "lat": 42.69673943029149,
            "lng": 143.1359399802915
          },
          "southwest": {
            "lat": 42.69404146970849,
            "lng": 143.1332420197085
          }
        }
      },
      "place_id": "ChIJMSTBhOKKc18R6s7EyNEN7RA",
      "types": [
        "political",
        "sublocality",
        "sublocality_level_3"
      ]
    },
    {
      "address_components": [
        {
          "long_name": "東３条南",
          "short_name": "東３条南",
          "types": [
            "political",
            "sublocality",
            "sublocality_level_2"
          ]
        },
        {
          "long_name": "中札内村",
          "short_name": "中札内村",
          "types": [
            "locality",
            "political"
          ]
        },
        {
          "long_name": "河西郡",
          "short_name": "河西郡",
          "types": [
            "administrative_area_level_2",
            "political"
          ]
        },
        {
          "long_name": "北海道",
          "short_name": "北海道",
          "types": [
            "administrative_area_level_1",
            "political"
          ]
        },
        {
          "long_name": "日本",
          "short_name": "JP",
          "types": [
            "country",
            "political"
          ]
        },
        {
          "long_name": "089-1343",
          "short_name": "089-1343",
          "types": [
            "postal_code"
          ]
        }
      ],
      "formatted_address": "日本、〒089-1343 北海道河西郡中札内村東３条南",
      "geometry": {
        "bounds": {
          "northeast": {
            "lat": 42.697745,
            "lng": 143.1371318
          },
          "southwest": {
            "lat": 42.691832,
            "lng": 143.1319529
          }
        },
        "location": {
          "lat": 42.6952775,
          "lng": 143.1343344
        },
        "location_type": "APPROXIMATE",
        "viewport": {
          "northeast": {
            "lat": 42.697745,
            "lng": 143.1371318
          },
          "southwest": {
            "lat": 42.691832,
            "lng": 143.1319529
          }
        }
      },
      "place_id": "ChIJ01VYj-KKc18R5xmrjyp2pos",
      "types": [
        "political",
        "sublocality",
        "sublocality_level_2"
      ]
    },
    {
      "address_components": [
        {
          "long_name": "089-1343",
          "short_name": "089-1343",
          "types": [
            "postal_code"
          ]
        },
        {
          "long_name": "東３条南",
          "short_name": "東３条南",
          "types": [
            "political",
            "sublocality",
            "sublocality_level_2"
          ]
        },
        {
          "long_name": "中札内村",
          "short_name": "中札内村",
          "types": [
            "locality",
            "political"
          ]
        },
        {
          "long_name": "河西郡",
          "short_name": "河西郡",
          "types": [
            "administrative_area_level_2",
            "political"
          ]
        },
        {
          "long_name": "北海道",
          "short_name": "北海道",
          "types": [
            "administrative_area_level_1",
            "political"
          ]
        },
        {
          "long_name": "日本",
          "short_name": "JP",
          "types": [
            "country",
            "political"
          ]
        }
      ],
      "formatted_address": "日本 〒089-1343",
      "geometry": {
        "bounds": {
          "northeast": {
            "lat": 42.6977455,
            "lng": 143.137132
          },
          "southwest": {
            "lat": 42.6918323,
            "lng": 143.1319525
          }
        },
        "location": {
          "lat": 42.6952775,
          "lng": 143.1343344
        },
        "location_type": "APPROXIMATE",
        "viewport": {
          "northeast": {
            "lat": 42.6977455,
            "lng": 143.137132
          },
          "southwest": {
            "lat": 42.6918323,
            "lng": 143.1319525
          }
        }
      },
      "place_id": "ChIJEck39OKKc18RmqYZwR62UXY",
      "types": [
        "postal_code"
      ]
    },
    {
      "address_components": [
        {
          "long_name": "中札内村",
          "short_name": "中札内村",
          "types": [
            "locality",
            "political"
          ]
        },
        {
          "long_name": "河西郡",
          "short_name": "河西郡",
          "types": [
            "administrative_area_level_2",
            "political"
          ]
        },
        {
          "long_name": "北海道",
          "short_name": "北海道",
          "types": [
            "administrative_area_level_1",
            "political"
          ]
        },
        {
          "long_name": "日本",
          "short_name": "JP",
          "types": [
            "country",
            "political"
          ]
        }
      ],
      "formatted_address": "日本、北海道河西郡中札内村",
      "geometry": {
        "bounds": {
          "northeast": {
            "lat": 42.732622,
            "lng": 143.196919
          },
          "southwest": {
            "lat": 42.560218,
            "lng": 142.751428
          }
        },
        "location": {
          "lat": 42.6976121,
          "lng": 143.1323949
        },
        "location_type": "APPROXIMATE",
        "viewport": {
          "northeast": {
            "lat": 42.732622,
            "lng": 143.196919
          },
          "southwest": {
            "lat": 42.560218,
            "lng": 142.751428
          }
        }
      },
      "place_id": "ChIJC25ymnhzdF8RzPLDq3crhJM",
      "types": [
        "locality",
        "political"
      ]
    },
    {
      "address_components": [
        {
          "long_name": "河西郡",
          "short_name": "河西郡",
          "types": [
            "administrative_area_level_2",
            "political"
          ]
        },
        {
          "long_name": "北海道",
          "short_name": "北海道",
          "types": [
            "administrative_area_level_1",
            "political"
          ]
        },
        {
          "long_name": "日本",
          "short_name": "JP",
          "types": [
            "country",
            "political"
          ]
        }
      ],
      "formatted_address": "日本、北海道河西郡",
      "geometry": {
        "bounds": {
          "northeast": {
            "lat": 43.0349028,
            "lng": 143.3041791
          },
          "southwest": {
            "lat": 42.560218,
            "lng": 142.7164235
          }
        },
        "location": {
          "lat": 42.8029814,
          "lng": 143.0095562
        },
        "location_type": "APPROXIMATE",
        "viewport": {
          "northeast": {
            "lat": 43.0349028,
            "lng": 143.3041791
          },
          "southwest": {
            "lat": 42.560218,
            "lng": 142.7164235
          }
        }
      },
      "place_id": "ChIJaXdrEjyGc18RQ5UtcxaXzzE",
      "types": [
        "administrative_area_level_2",
        "political"
      ]
    },
    {
      "address_components": [
        {
          "long_name": "北海道",
          "short_name": "北海道",
          "types": [
            "administrative_area_level_1",
            "political"
          ]
        },
        {
          "long_name": "日本",
          "short_name": "JP",
          "types": [
            "country",
            "political"
          ]
        }
      ],
      "formatted_address": "日本、北海道",
      "geometry": {
        "bounds": {
          "northeast": {
            "lat": 45.5265181,
            "lng": 145.817624
          },
          "southwest": {
            "lat": 41.3516002,
            "lng": 139.3340799
          }
        },
        "location": {
          "lat": 43.2203266,
          "lng": 142.8634737
        },
        "location_type": "APPROXIMATE",
        "viewport": {
          "northeast": {
            "lat": 45.5265181,
            "lng": 145.817624
          },
          "southwest": {
            "lat": 41.3516002,
            "lng": 139.3340799
          }
        }
      },
      "place_id": "ChIJi4hsnyBZn18RjwPOT1bDPBw",
      "types": [
        "administrative_area_level_1",
        "political"
      ]
    },
    {
      "address_components": [
        {
          "long_name": "日本",
          "short_name": "JP",
          "types": [
            "country",
            "political"
          ]
        }
      ],
      "formatted_address": "日本",
      "geometry": {
        "bounds": {
          "northeast": {
            "lat": 45.6412626,
            "lng": 154.0031455
          },
          "southwest": {
            "lat": 20.3585295,
            "lng": 122.8554688
          }
        },
        "location": {
          "lat": 36.204824,
          "lng": 138.252924
        },
        "location_type": "APPROXIMATE",
        "viewport": {
          "northeast": {
            "lat": 45.6412626,
            "lng": 154.0031455
          },
          "southwest": {
            "lat": 20.3585295,
            "lng": 122.8554688
          }
        }
      },
      "place_id": "ChIJLxl_1w9OZzQRRFJmfNR1QvU",
      "types": [
        "country",
        "political"
      ]
    }
  ]
}