{
  "station": "干拓",
  "lat": 44.855444,
  "lng": 141.759556,
  "plus_code": {
    "compound_code": "VQ45+5R 日本、北海道天塩町",
    "global_code": "8RP3VQ45+5R"
  },
  "results": [
    {
      "access_points": [

      ],
      "address_components": [
        {
          "long_name": "国道232号",
          "short_name": "国道232号",
          "types": [
            "route"
          ]
        },
        {
          "long_name": "字サラキシ",
          "short_name": "字サラキシ",
          "types": [
            "political",
            "sublocality",
            "sublocality_level_2"
          ]
        },
        {
          "long_name": "天塩町",
          "short_name": "天塩町",
          "types": [
            "locality",
            "political"
          ]
        },
        {
          "long_name": "天塩郡",
          "short_name": "天塩郡",
          "types": [
            "administrative_area_level_2",
            "political"
          ]
        },
        {
          "long_name": "北海道",
          "short_name": "北海道",
          "types": [
            "administrative_area_level_1",
            "political"
          ]
        },
        {
          "long_name": "日本",
          "short_name": "JP",
          "types": [
            "country",
            "political"
          ]
        },
        {
          "long_name": "098-3314",
          "short_name": "098-3314",
          "types": [
            "postal_code"
          ]
        }
      ],
      "formatted_address": "日本、〒098-3314 北海道天塩郡天塩町字サラキシ 国道232号",
      "geometry": {
        "bounds": {
          "northeast": {
            "lat": 44.8548664,
            "lng": 141.7573106
          },
          "southwest": {
            "lat": 44.8547728,
            "lng": 141.7572757
          }
        },
        "location": {
          "lat": 44.8548196,
          "lng": 141.7572932
        },
        "location_type": "GEOMETRIC_CENTER",
        "viewport": {
          "northeast": {
            "lat": 44.8561685802915,
            "lng": 141.7586421302915
          },
          "southwest": {
            "lat": 44.8534706197085,
            "lng": 141.7559441697085
          }
        }
      },
      "place_id": "ChIJd6X8qMU9Dl8RbnoH6WKG390",
      "types": [
        "route"
      ]
    },
    {
      "access_points": [

      ],
      "address_components": [
        {
          "long_name": "098-3314",
          "short_name": "098-3314",
          "types": [
            "postal_code"
          ]
        },
        {
          "long_name": "字サラキシ",
          "short_name": "字サラキシ",
          "types": [
            "political",
            "sublocality",
            "sublocality_level_2"
          ]
        },
        {
          "long_name": "天塩町",
          "short_name": "天塩町",
          "types": [
            "locality",
            "political"
          ]
        },
        {
          "long_name": "天塩郡",
          "short_name": "天塩郡",
          "types": [
            "administrative_area_level_2",
            "political"
          ]
        },
        {
          "long_name": "北海道",
          "short_name": "北海道",
          "types": [
            "administrative_area_level_1",
            "political"
          ]
        },
        {
          "long_name": "日本",
          "short_name": "JP",
          "types": [
            "country",
            "political"
          ]
        }
      ],
      "formatted_address": "日本 〒098-3314",
      "geometry": {
        "bounds": {
          "northeast": {
            "lat": 44.8890162,
            "lng": 141.8182548
          },
          "southwest": {
            "lat": 44.80781469999999,
            "lng": 141.7328861
          }
        },
        "location": {
          "lat": 44.8645794,
          "lng": 141.7765276
        },
        "location_type": "APPROXIMATE",
        "viewport": {
          "northeast": {
            "lat": 44.8890162,
            "lng": 141.8182548
          },
          "southwest": {
            "lat": 44.80781469999999,
            "lng": 141.7328861
          }
        }
      },
      "place_id": "ChIJRd42KkY8Dl8Ro_XXFa1q5k8",
      "types": [
        "postal_code"
      ]
    },
    {
      "access_points": [

      ],
      "address_components": [
        {
          "long_name": "字サラキシ",
          "short_name": "字サラキシ",
          "types": [
            "political",
            "sublocality",
            "sublocality_level_2"
          ]
        },
        {
          "long_name": "天塩町",
          "short_name": "天塩町",
          "types": [
            "locality",
            "political"
          ]
        },
        {
          "long_name": "天塩郡",
          "short_name": "天塩郡",
          "types": [
            "administrative_area_level_2",
            "political"
          ]
        },
        {
          "long_name": "北海道",
          "short_name": "北海道",
          "types": [
            "administrative_area_level_1",
            "political"
          ]
        },
        {
          "long_name": "日本",
          "short_name": "JP",
          "types": [
            "country",
            "political"
          ]
        },
        {
          "long_name": "098-3314",
          "short_name": "098-3314",
          "types": [
            "postal_code"
          ]
        }
      ],
      "formatted_address": "日本、〒098-3314 北海道天塩郡天塩町字サラキシ",
      "geometry": {
        "bounds": {
          "northeast": {
            "lat": 44.889044,
            "lng": 141.8182551
          },
          "southwest": {
            "lat": 44.807815,
            "lng": 141.7328861
          }
        },
        "location": {
          "lat": 44.8645794,
          "lng": 141.7765276
        },
        "location_type": "APPROXIMATE",
        "viewport": {
          "northeast": {
            "lat": 44.889044,
            "lng": 141.8182551
          },
          "southwest": {
            "lat": 44.807815,
            "lng": 141.7328861
          }
        }
      },
      "place_id": "ChIJZ_deaEU8Dl8RsK7-L4q5Kwk",
      "types": [
        "political",
        "sublocality",
        "sublocality_level_2"
      ]
    },
    {
      "access_points": [

      ],
      "address_components": [
        {
          "long_name": "天塩町",
          "short_name": "天塩町",
          "types": [
            "locality",
            "political"
          ]
        },
        {
          "long_name": "天塩郡",
          "short_name": "天塩郡",
          "types": [
            "administrative_area_level_2",
            "political"
          ]
        },
        {
          "long_name": "北海道",
          "short_name": "北海道",
          "types": [
            "administrative_area_level_1",
            "political"
          ]
        },
        {
          "long_name": "日本",
          "short_name": "JP",
          "types": [
            "country",
            "political"
          ]
        }
      ],
      "formatted_address": "日本、北海道天塩郡天塩町",
      "geometry": {
        "bounds": {
          "northeast": {
            "lat": 44.993296,
            "lng": 142.028152
          },
          "southwest": {
            "lat": 44.763087,
            "lng": 141.7141959
          }
        },
        "location": {
          "lat": 44.8882241,
          "lng": 141.7452424
        },
        "location_type": "APPROXIMATE",
        "viewport": {
          "northeast": {
            "lat": 44.993296,
            "lng": 142.028152
          },
          "southwest": {
            "lat": 44.763087,
            "lng": 141.7141959
          }
        }
      },
      "place_id": "ChIJfQHsuq8iDl8RhDHytVS8iaI",
      "types": [
        "locality",
        "political"
      ]
    },
    {
      "access_points": [

      ],
      "address_components": [
        {
          "long_name": "天塩郡",
          "short_name": "天塩郡",
          "types": [
            "administrative_area_level_2",
            "political"
          ]
        },
        {
          "long_name": "北海道",
          "short_name": "北海道",
          "types": [
            "administrative_area_level_1",
            "political"
          ]
        },
        {
          "long_name": "日本",
          "short_name": "JP",
          "types": [
            "country",
            "political"
          ]
        }
      ],
      "formatted_address": "日本、北海道天塩郡",
      "geometry": {
        "bounds": {
          "northeast": {
            "lat": 45.2741372,
            "lng": 142.1728617
          },
          "southwest": {
            "lat": 44.3548428,
            "lng": 141.5781249
          }
        },
        "location": {
          "lat": 44.9612568,
          "lng": 141.8845082
        },
        "location_type": "APPROXIMATE",
        "viewport": {
          "northeast": {
            "lat": 45.2741372,
            "lng": 142.1728617
          },
          "southwest": {
            "lat": 44.3548428,
            "lng": 141.5781249
          }
        }
      },
      "place_id": "ChIJKbHtguIWDl8Rf5USbuQFoRc",
      "types": [
        "administrative_area_level_2",
        "political"
      ]
    },
    {
      "access_points": [

      ],
      "address_components": [
        {
          "long_name": "北海道",
          "short_name": "北海道",
          "types": [
            "administrative_area_level_1",
            "political"
          ]
        },
        {
          "long_name": "日本",
          "short_name": "JP",
          "types": [
            "country",
            "political"
          ]
        }
      ],
      "formatted_address": "日本、北海道",
      "geometry": {
        "bounds": {
          "northeast": {
            "lat": 45.5265181,
            "lng": 145.817624
          },
          "southwest": {
            "lat": 41.3516002,
            "lng": 139.3340799
          }
        },
        "location": {
          "lat": 43.2203266,
          "lng": 142.8634737
        },
        "location_type": "APPROXIMATE",
        "viewport": {
          "northeast": {
            "lat": 45.5265181,
            "lng": 145.817624
          },
          "southwest": {
            "lat": 41.3516002,
            "lng": 139.3340799
          }
        }
      },
      "place_id": "ChIJi4hsnyBZn18RjwPOT1bDPBw",
      "types": [
        "administrative_area_level_1",
        "political"
      ]
    },
    {
      "access_points": [

      ],
      "address_components": [
        {
          "long_name": "日本",
          "short_name": "JP",
          "types": [
            "country",
            "political"
          ]
        }
      ],
      "formatted_address": "日本",
      "geometry": {
        "bounds": {
          "northeast": {
            "lat": 45.6412626,
            "lng": 154.0031455
          },
          "southwest": {
            "lat": 20.3585295,
            "lng": 122.8554688
          }
        },
        "location": {
          "lat": 36.204824,
          "lng": 138.252924
        },
        "location_type": "APPROXIMATE",
        "viewport": {
          "northeast": {
            "lat": 45.6412626,
            "lng": 154.0031455
          },
          "southwest": {
            "lat": 20.3585295,
            "lng": 122.8554688
          }
        }
      },
      "place_id": "ChIJLxl_1w9OZzQRRFJmfNR1QvU",
      "types": [
        "country",
        "political"
      ]
    }
  ]
}