{
  "station": "丹羽",
  "lat": 42.429667,
  "lng": 139.936,
  "plus_code": {
    "compound_code": "CWHP+VC 日本、北海道せたな町",
    "global_code": "8QJXCWHP+VC"
  },
  "results": [
    {
      "access_points": [

      ],
      "address_components": [
        {
          "long_name": "３８−１",
          "short_name": "３８−１",
          "types": [
            "premise"
          ]
        },
        {
          "long_name": "北檜山区丹羽",
          "short_name": "北檜山区丹羽",
          "types": [
            "political",
            "sublocality",
            "sublocality_level_2"
          ]
        },
        {
          "long_name": "せたな町",
          "short_name": "せたな町",
          "types": [
            "locality",
            "political"
          ]
        },
        {
          "long_name": "久遠郡",
          "short_name": "久遠郡",
          "types": [
            "administrative_area_level_2",
            "political"
          ]
        },
        {
          "long_name": "北海道",
          "short_name": "北海道",
          "types": [
            "administrative_area_level_1",
            "political"
          ]
        },
        {
          "long_name": "日本",
          "short_name": "JP",
          "types": [
            "country",
            "political"
          ]
        },
        {
          "long_name": "049-4433",
          "short_name": "049-4433",
          "types": [
            "postal_code"
          ]
        }
      ],
      "formatted_address": "日本、〒049-4433 北海道久遠郡せたな町北檜山区丹羽３８−１",
      "geometry": {
        "location": {
          "lat": 42.43057599999999,
          "lng": 139.935706
        },
        "location_type": "ROOFTOP",
        "viewport": {
          "northeast": {
            "lat": 42.43192498029149,
            "lng": 139.9370549802915
          },
          "southwest": {
            "lat": 42.4292270197085,
            "lng": 139.9343570197085
          }
        }
      },
      "place_id": "ChIJTfpyobUroF8RqRB5n6ZFtRc",
      "plus_code": {
        "compound_code": "CWJP+67 日本、北海道せたな町",
        "global_code": "8QJXCWJP+67"
      },
      "types": [
        "establishment",
        "general_contractor",
        "point_of_interest"
      ]
    },
    {
      "access_points": [

      ],
      "address_components": [
        {
          "long_name": "５４",
          "short_name": "５４",
          "types": [
            "premise"
          ]
        },
        {
          "long_name": "北檜山区丹羽",
          "short_name": "北檜山区丹羽",
          "types": [
            "political",
            "sublocality",
            "sublocality_level_2"
          ]
        },
        {
          "long_name": "せたな町",
          "short_name": "せたな町",
          "types": [
            "locality",
            "political"
          ]
        },
        {
          "long_name": "久遠郡",
          "short_name": "久遠郡",
          "types": [
            "administrative_area_level_2",
            "political"
          ]
        },
        {
          "long_name": "北海道",
          "short_name": "北海道",
          "types": [
            "administrative_area_level_1",
            "political"
          ]
        },
        {
          "long_name": "日本",
          "short_name": "JP",
          "types": [
            "country",
            "political"
          ]
        },
        {
          "long_name": "049-4433",
          "short_name": "049-4433",
          "types": [
            "postal_code"
          ]
        }
      ],
      "formatted_address": "日本、〒049-4433 北海道久遠郡せたな町北檜山区丹羽５４",
      "geometry": {
        "location": {
          "lat": 42.4291045,
          "lng": 139.9347359
        },
        "location_type": "ROOFTOP",
        "viewport": {
          "northeast": {
            "lat": 42.4304534802915,
            "lng": 139.9360848802915
          },
          "southwest": {
            "lat": 42.42775551970851,
            "lng": 139.9333869197085
          }
        }
      },
      "place_id": "ChIJfxKn5LQroF8RgGgPtrbI5RU",
      "plus_code": {
        "compound_code": "CWHM+JV 日本、北海道せたな町",
        "global_code": "8QJXCWHM+JV"
      },
      "types": [
        "street_address"
      ]
    },
    {
      "access_points": [

      ],
      "address_components": [
        {
          "long_name": "小倉山丹羽團線",
          "short_name": "道道677号",
          "types": [
            "route"
          ]
        },
        {
          "long_name": "北檜山区丹羽",
          "short_name": "北檜山区丹羽",
          "types": [
            "political",
            "sublocality",
            "sublocality_level_2"
          ]
        },
        {
          "long_name": "せたな町",
          "short_name": "せたな町",
          "types": [
            "locality",
            "political"
          ]
        },
        {
          "long_name": "久遠郡",
          "short_name": "久遠郡",
          "types": [
            "administrative_area_level_2",
            "political"
          ]
        },
        {
          "long_name": "北海道",
          "short_name": "北海道",
          "types": [
            "administrative_area_level_1",
            "political"
          ]
        },
        {
          "long_name": "日本",
          "short_name": "JP",
          "types": [
            "country",
            "political"
          ]
        },
        {
          "long_name": "049-4433",
          "short_name": "049-4433",
          "types": [
            "postal_code"
          ]
        }
      ],
      "formatted_address": "日本、〒049-4433 北海道久遠郡せたな町北檜山区丹羽 道道677号",
      "geometry": {
        "bounds": {
          "northeast": {
            "lat": 42.4303221,
            "lng": 139.9359318
          },
          "southwest": {
            "lat": 42.4297978,
            "lng": 139.9356142
          }
        },
        "location": {
          "lat": 42.43006,
          "lng": 139.935773
        },
        "location_type": "GEOMETRIC_CENTER",
        "viewport": {
          "northeast": {
            "lat": 42.4314089302915,
            "lng": 139.9371219802915
          },
          "southwest": {
            "lat": 42.4287109697085,
            "lng": 139.9344240197085
          }
        }
      },
      "place_id": "ChIJGwGvCLUroF8RIFpCKTO7sbA",
      "types": [
        "route"
      ]
    },
    {
      "access_points": [

      ],
      "address_components": [
        {
          "long_name": "049-4433",
          "short_name": "049-4433",
          "types": [
            "postal_code"
          ]
        },
        {
          "long_name": "北檜山区丹羽",
          "short_name": "北檜山区丹羽",
          "types": [
            "political",
            "sublocality",
            "sublocality_level_2"
          ]
        },
        {
          "long_name": "せたな町",
          "short_name": "せたな町",
          "types": [
            "locality",
            "political"
          ]
        },
        {
          "long_name": "久遠郡",
          "short_name": "久遠郡",
          "types": [
            "administrative_area_level_2",
            "political"
          ]
        },
        {
          "long_name": "北海道",
          "short_name": "北海道",
          "types": [
            "administrative_area_level_1",
            "political"
          ]
        },
        {
          "long_name": "日本",
          "short_name": "JP",
          "types": [
            "country",
            "political"
          ]
        }
      ],
      "formatted_address": "日本 〒049-4433",
      "geometry": {
        "bounds": {
          "northeast": {
            "lat": 42.4827817,
            "lng": 139.9571736
          },
          "southwest": {
            "lat": 42.4113285,
            "lng": 139.9121466
          }
        },
        "location": {
          "lat": 42.45205310000001,
          "lng": 139.9317377
        },
        "location_type": "APPROXIMATE",
        "viewport": {
          "northeast": {
            "lat": 42.4827817,
            "lng": 139.9571736
          },
          "southwest": {
            "lat": 42.4113285,
            "lng": 139.9121466
          }
        }
      },
      "place_id": "ChIJZQJevrUroF8Rl49Nw71fXOQ",
      "types": [
        "postal_code"
      ]
    },
    {
      "access_points": [

      ],
      "address_components": [
        {
          "long_name": "北檜山区丹羽",
          "short_name": "北檜山区丹羽",
          "types": [
            "political",
            "sublocality",
            "sublocality_level_2"
          ]
        },
        {
          "long_name": "せたな町",
          "short_name": "せたな町",
          "types": [
            "locality",
            "political"
          ]
        },
        {
          "long_name": "久遠郡",
          "short_name": "久遠郡",
          "types": [
            "administrative_area_level_2",
            "political"
          ]
        },
        {
          "long_name": "北海道",
          "short_name": "北海道",
          "types": [
            "administrative_area_level_1",
            "political"
          ]
        },
        {
          "long_name": "日本",
          "short_name": "JP",
          "types": [
            "country",
            "political"
          ]
        },
        {
          "long_name": "049-4433",
          "short_name": "049-4433",
          "types": [
            "postal_code"
          ]
        }
      ],
      "formatted_address": "日本、〒049-4433 北海道久遠郡せたな町北檜山区丹羽",
      "geometry": {
        "bounds": {
          "northeast": {
            "lat": 42.482723,
            "lng": 139.957186
          },
          "southwest": {
            "lat": 42.41132899999999,
            "lng": 139.912097
          }
        },
        "location": {
          "lat": 42.45205310000001,
          "lng": 139.9317377
        },
        "location_type": "APPROXIMATE",
        "viewport": {
          "northeast": {
            "lat": 42.482723,
            "lng": 139.957186
          },
          "southwest": {
            "lat": 42.41132899999999,
            "lng": 139.912097
          }
        }
      },
      "place_id": "ChIJUXUTU90roF8RwxpSY9rBbao",
      "types": [
        "political",
        "sublocality",
        "sublocality_level_2"
      ]
    },
    {
      "access_points": [

      ],
      "address_components": [
        {
          "long_name": "久遠郡",
          "short_name": "久遠郡",
          "types": [
            "administrative_area_level_2",
            "political"
          ]
        },
        {
          "long_name": "せたな町",
          "short_name": "せたな町",
          "types": [
            "locality",
            "political"
          ]
        },
        {
          "long_name": "北海道",
          "short_name": "北海道",
          "types": [
            "administrative_area_level_1",
            "political"
          ]
        },
        {
          "long_name": "日本",
          "short_name": "JP",
          "types": [
            "country",
            "political"
          ]
        }
      ],
      "formatted_address": "日本、北海道久遠郡せたな町",
      "geometry": {
        "bounds": {
          "northeast": {
            "lat": 42.6167686,
            "lng": 140.0384375
          },
          "southwest": {
            "lat": 42.13455039999999,
            "lng": 139.7656742
          }
        },
        "location": {
          "lat": 42.24585380000001,
          "lng": 139.8976893
        },
        "location_type": "APPROXIMATE",
        "viewport": {
          "northeast": {
            "lat": 42.6167686,
            "lng": 140.0384375
          },
          "southwest": {
            "lat": 42.13455039999999,
            "lng": 139.7656742
          }
        }
      },
      "place_id": "ChIJiVOKmFbVoV8R6443AjJRBm8",
      "types": [
        "administrative_area_level_2",
        "political"
      ]
    },
    {
      "access_points": [

      ],
      "address_components": [
        {
          "long_name": "せたな町",
          "short_name": "せたな町",
          "types": [
            "locality",
            "political"
          ]
        },
        {
          "long_name": "久遠郡",
          "short_name": "久遠郡",
          "types": [
            "administrative_area_level_2",
            "political"
          ]
        },
        {
          "long_name": "北海道",
          "short_name": "北海道",
          "types": [
            "administrative_area_level_1",
            "political"
          ]
        },
        {
          "long_name": "日本",
          "short_name": "JP",
          "types": [
            "country",
            "political"
          ]
        }
      ],
      "formatted_address": "日本、北海道久遠郡せたな町",
      "geometry": {
        "bounds": {
          "northeast": {
            "lat": 42.616769,
            "lng": 140.0384378
          },
          "southwest": {
            "lat": 42.13455,
            "lng": 139.765674
          }
        },
        "location": {
          "lat": 42.4174342,
          "lng": 139.8827532
        },
        "location_type": "APPROXIMATE",
        "viewport": {
          "northeast": {
            "lat": 42.616769,
            "lng": 140.0384378
          },
          "southwest": {
            "lat": 42.13455,
            "lng": 139.765674
          }
        }
      },
      "place_id": "ChIJiVOKmFbVoV8Rj4bJjKmXVbw",
      "types": [
        "locality",
        "political"
      ]
    },
    {
      "access_points": [

      ],
      "address_components": [
        {
          "long_name": "北海道",
          "short_name": "北海道",
          "types": [
            "administrative_area_level_1",
            "political"
          ]
        },
        {
          "long_name": "日本",
          "short_name": "JP",
          "types": [
            "country",
            "political"
          ]
        }
      ],
      "formatted_address": "日本、北海道",
      "geometry": {
        "bounds": {
          "northeast": {
            "lat": 45.5265181,
            "lng": 145.817624
          },
          "southwest": {
            "lat": 41.3516002,
            "lng": 139.3340799
          }
        },
        "location": {
          "lat": 43.2203266,
          "lng": 142.8634737
        },
        "location_type": "APPROXIMATE",
        "viewport": {
          "northeast": {
            "lat": 45.5265181,
            "lng": 145.817624
          },
          "southwest": {
            "lat": 41.3516002,
            "lng": 139.3340799
          }
        }
      },
      "place_id": "ChIJi4hsnyBZn18RjwPOT1bDPBw",
      "types": [
        "administrative_area_level_1",
        "political"
      ]
    },
    {
      "access_points": [

      ],
      "address_components": [
        {
          "long_name": "日本",
          "short_name": "JP",
          "types": [
            "country",
            "political"
          ]
        }
      ],
      "formatted_address": "日本",
      "geometry": {
        "bounds": {
          "northeast": {
            "lat": 45.6412626,
            "lng": 154.0031455
          },
          "southwest": {
            "lat": 20.3585295,
            "lng": 122.8554688
          }
        },
        "location": {
          "lat": 36.204824,
          "lng": 138.252924
        },
        "location_type": "APPROXIMATE",
        "viewport": {
          "northeast": {
            "lat": 45.6412626,
            "lng": 154.0031455
          },
          "southwest": {
            "lat": 20.3585295,
            "lng": 122.8554688
          }
        }
      },
      "place_id": "ChIJLxl_1w9OZzQRRFJmfNR1QvU",
      "types": [
        "country",
        "political"
      ]
    }
  ]
}