{
  "station": "岩代川俣",
  "lat": 37.665139,
  "lng": 140.5925,
  "plus_code": {
    "compound_code": "MH8R+3X 日本、福島県川俣町",
    "global_code": "8R92MH8R+3X"
  },
  "results": [
    {
      "address_components": [
        {
          "long_name": "４−１",
          "short_name": "４−１",
          "types": [
            "premise"
          ]
        },
        {
          "long_name": "笛田",
          "short_name": "笛田",
          "types": [
            "political",
            "sublocality",
            "sublocality_level_3"
          ]
        },
        {
          "long_name": "大字鶴沢",
          "short_name": "大字鶴沢",
          "types": [
            "political",
            "sublocality",
            "sublocality_level_2"
          ]
        },
        {
          "long_name": "川俣町",
          "short_name": "川俣町",
          "types": [
            "locality",
            "political"
          ]
        },
        {
          "long_name": "伊達郡",
          "short_name": "伊達郡",
          "types": [
            "administrative_area_level_2",
            "political"
          ]
        },
        {
          "long_name": "福島県",
          "short_name": "福島県",
          "types": [
            "administrative_area_level_1",
            "political"
          ]
        },
        {
          "long_name": "日本",
          "short_name": "JP",
          "types": [
            "country",
            "political"
          ]
        },
        {
          "long_name": "960-1406",
          "short_name": "960-1406",
          "types": [
            "postal_code"
          ]
        }
      ],
      "formatted_address": "日本、〒960-1406 福島県伊達郡川俣町大字鶴沢笛田４−１",
      "geometry": {
        "location": {
          "lat": 37.6652524,
          "lng": 140.5925798
        },
        "location_type": "ROOFTOP",
        "viewport": {
          "northeast": {
            "lat": 37.6666013802915,
            "lng": 140.5939287802915
          },
          "southwest": {
            "lat": 37.6639034197085,
            "lng": 140.5912308197085
          }
        }
      },
      "place_id": "ChIJMwRXk814IGARcWTSnXUWni0",
      "plus_code": {
        "compound_code": "MH8V+42 日本、福島県川俣町",
        "global_code": "8R92MH8V+42"
      },
      "types": [
        "street_address"
      ]
    },
    {
      "address_components": [
        {
          "long_name": "４−１",
          "short_name": "４−１",
          "types": [
            "premise"
          ]
        },
        {
          "long_name": "笛田",
          "short_name": "笛田",
          "types": [
            "political",
            "sublocality",
            "sublocality_level_3"
          ]
        },
        {
          "long_name": "大字鶴沢",
          "short_name": "大字鶴沢",
          "types": [
            "political",
            "sublocality",
            "sublocality_level_2"
          ]
        },
        {
          "long_name": "川俣町",
          "short_name": "川俣町",
          "types": [
            "locality",
            "political"
          ]
        },
        {
          "long_name": "伊達郡",
          "short_name": "伊達郡",
          "types": [
            "administrative_area_level_2",
            "political"
          ]
        },
        {
          "long_name": "福島県",
          "short_name": "福島県",
          "types": [
            "administrative_area_level_1",
            "political"
          ]
        },
        {
          "long_name": "日本",
          "short_name": "JP",
          "types": [
            "country",
            "political"
          ]
        },
        {
          "long_name": "960-1406",
          "short_name": "960-1406",
          "types": [
            "postal_code"
          ]
        }
      ],
      "formatted_address": "日本、〒960-1406 福島県伊達郡川俣町大字鶴沢笛田４−１",
      "geometry": {
        "location": {
          "lat": 37.6650934,
          "lng": 140.5926878
        },
        "location_type": "ROOFTOP",
        "viewport": {
          "northeast": {
            "lat": 37.66644238029149,
            "lng": 140.5940367802915
          },
          "southwest": {
            "lat": 37.66374441970849,
            "lng": 140.5913388197085
          }
        }
      },
      "place_id": "ChIJk9-scjx5IGARTGFe0VczHKc",
      "plus_code": {
        "compound_code": "MH8V+23 日本、福島県川俣町",
        "global_code": "8R92MH8V+23"
      },
      "types": [
        "establishment",
        "point_of_interest"
      ]
    },
    {
      "address_components": [
        {
          "long_name": "2",
          "short_name": "2",
          "types": [
            "premise"
          ]
        },
        {
          "long_name": "４−１",
          "short_name": "４−１",
          "types": [
            "premise"
          ]
        },
        {
          "long_name": "笛田",
          "short_name": "笛田",
          "types": [
            "political",
            "sublocality",
            "sublocality_level_3"
          ]
        },
        {
          "long_name": "大字鶴沢",
          "short_name": "大字鶴沢",
          "types": [
            "political",
            "sublocality",
            "sublocality_level_2"
          ]
        },
        {
          "long_name": "川俣町",
          "short_name": "川俣町",
          "types": [
            "locality",
            "political"
          ]
        },
        {
          "long_name": "伊達郡",
          "short_name": "伊達郡",
          "types": [
            "administrative_area_level_2",
            "political"
          ]
        },
        {
          "long_name": "福島県",
          "short_name": "福島県",
          "types": [
            "administrative_area_level_1",
            "political"
          ]
        },
        {
          "long_name": "日本",
          "short_name": "JP",
          "types": [
            "country",
            "political"
          ]
        },
        {
          "long_name": "960-1406",
          "short_name": "960-1406",
          "types": [
            "postal_code"
          ]
        }
      ],
      "formatted_address": "2, 笛田-4-1 大字鶴沢 川俣町 伊達郡 福島県 960-1406 日本",
      "geometry": {
        "bounds": {
          "northeast": {
            "lat": 37.6653591,
            "lng": 140.5929302
          },
          "southwest": {
            "lat": 37.6651376,
            "lng": 140.5922351
          }
        },
        "location": {
          "lat": 37.6652375,
          "lng": 140.5925869
        },
        "location_type": "ROOFTOP",
        "viewport": {
          "northeast": {
            "lat": 37.66659733029149,
            "lng": 140.5939316302915
          },
          "southwest": {
            "lat": 37.6638993697085,
            "lng": 140.5912336697085
          }
        }
      },
      "place_id": "ChIJQQNRk814IGARKLvCii4nXkM",
      "types": [
        "premise"
      ]
    },
    {
      "address_components": [
        {
          "long_name": "Unnamed Road",
          "short_name": "Unnamed Road",
          "types": [
            "route"
          ]
        },
        {
          "long_name": "笛田",
          "short_name": "笛田",
          "types": [
            "political",
            "sublocality",
            "sublocality_level_3"
          ]
        },
        {
          "long_name": "大字鶴沢",
          "short_name": "大字鶴沢",
          "types": [
            "political",
            "sublocality",
            "sublocality_level_2"
          ]
        },
        {
          "long_name": "川俣町",
          "short_name": "川俣町",
          "types": [
            "locality",
            "political"
          ]
        },
        {
          "long_name": "伊達郡",
          "short_name": "伊達郡",
          "types": [
            "administrative_area_level_2",
            "political"
          ]
        },
        {
          "long_name": "福島県",
          "short_name": "福島県",
          "types": [
            "administrative_area_level_1",
            "political"
          ]
        },
        {
          "long_name": "日本",
          "short_name": "JP",
          "types": [
            "country",
            "political"
          ]
        },
        {
          "long_name": "960-1406",
          "short_name": "960-1406",
          "types": [
            "postal_code"
          ]
        }
      ],
      "formatted_address": "Unnamed Road, 笛田 大字鶴沢 川俣町 伊達郡 福島県 960-1406 日本",
      "geometry": {
        "bounds": {
          "northeast": {
            "lat": 37.6650775,
            "lng": 140.5928752
          },
          "southwest": {
            "lat": 37.6649121,
            "lng": 140.5920188
          }
        },
        "location": {
          "lat": 37.6649948,
          "lng": 140.592447
        },
        "location_type": "GEOMETRIC_CENTER",
        "viewport": {
          "northeast": {
            "lat": 37.6663437802915,
            "lng": 140.5937959802915
          },
          "southwest": {
            "lat": 37.6636458197085,
            "lng": 140.5910980197085
          }
        }
      },
      "place_id": "ChIJVdNt7c14IGAR_g_n7oDcROA",
      "types": [
        "route"
      ]
    },
    {
      "address_components": [
        {
          "long_name": "笛田",
          "short_name": "笛田",
          "types": [
            "political",
            "sublocality",
            "sublocality_level_3"
          ]
        },
        {
          "long_name": "大字鶴沢",
          "short_name": "大字鶴沢",
          "types": [
            "political",
            "sublocality",
            "sublocality_level_2"
          ]
        },
        {
          "long_name": "川俣町",
          "short_name": "川俣町",
          "types": [
            "locality",
            "political"
          ]
        },
        {
          "long_name": "伊達郡",
          "short_name": "伊達郡",
          "types": [
            "administrative_area_level_2",
            "political"
          ]
        },
        {
          "long_name": "福島県",
          "short_name": "福島県",
          "types": [
            "administrative_area_level_1",
            "political"
          ]
        },
        {
          "long_name": "日本",
          "short_name": "JP",
          "types": [
            "country",
            "political"
          ]
        },
        {
          "long_name": "960-1406",
          "short_name": "960-1406",
          "types": [
            "postal_code"
          ]
        }
      ],
      "formatted_address": "日本、〒960-1406 福島県伊達郡川俣町大字鶴沢笛田",
      "geometry": {
        "bounds": {
          "northeast": {
            "lat": 37.6661899,
            "lng": 140.5943011
          },
          "southwest": {
            "lat": 37.663817,
            "lng": 140.5899809
          }
        },
        "location": {
          "lat": 37.6651375,
          "lng": 140.5922023
        },
        "location_type": "APPROXIMATE",
        "viewport": {
          "northeast": {
            "lat": 37.6663524302915,
            "lng": 140.5943011
          },
          "southwest": {
            "lat": 37.6636544697085,
            "lng": 140.5899809
          }
        }
      },
      "place_id": "ChIJwYbK3814IGAR3J6-VOmhMLE",
      "types": [
        "political",
        "sublocality",
        "sublocality_level_3"
      ]
    },
    {
      "address_components": [
        {
          "long_name": "大字鶴沢",
          "short_name": "大字鶴沢",
          "types": [
            "political",
            "sublocality",
            "sublocality_level_2"
          ]
        },
        {
          "long_name": "川俣町",
          "short_name": "川俣町",
          "types": [
            "locality",
            "political"
          ]
        },
        {
          "long_name": "伊達郡",
          "short_name": "伊達郡",
          "types": [
            "administrative_area_level_2",
            "political"
          ]
        },
        {
          "long_name": "福島県",
          "short_name": "福島県",
          "types": [
            "administrative_area_level_1",
            "political"
          ]
        },
        {
          "long_name": "日本",
          "short_name": "JP",
          "types": [
            "country",
            "political"
          ]
        }
      ],
      "formatted_address": "日本、福島県伊達郡川俣町大字鶴沢",
      "geometry": {
        "bounds": {
          "northeast": {
            "lat": 37.679289,
            "lng": 140.5994649
          },
          "southwest": {
            "lat": 37.6555251,
            "lng": 140.558707
          }
        },
        "location": {
          "lat": 37.665526,
          "lng": 140.5782788
        },
        "location_type": "APPROXIMATE",
        "viewport": {
          "northeast": {
            "lat": 37.679289,
            "lng": 140.5994649
          },
          "southwest": {
            "lat": 37.6555251,
            "lng": 140.558707
          }
        }
      },
      "place_id": "ChIJyY0yZcB4IGARvEDlv8X2KVE",
      "types": [
        "political",
        "sublocality",
        "sublocality_level_2"
      ]
    },
    {
      "address_components": [
        {
          "long_name": "960-1406",
          "short_name": "960-1406",
          "types": [
            "postal_code"
          ]
        },
        {
          "long_name": "大字鶴沢",
          "short_name": "大字鶴沢",
          "types": [
            "political",
            "sublocality",
            "sublocality_level_2"
          ]
        },
        {
          "long_name": "川俣町",
          "short_name": "川俣町",
          "types": [
            "locality",
            "political"
          ]
        },
        {
          "long_name": "伊達郡",
          "short_name": "伊達郡",
          "types": [
            "administrative_area_level_2",
            "political"
          ]
        },
        {
          "long_name": "福島県",
          "short_name": "福島県",
          "types": [
            "administrative_area_level_1",
            "political"
          ]
        },
        {
          "long_name": "日本",
          "short_name": "JP",
          "types": [
            "country",
            "political"
          ]
        }
      ],
      "formatted_address": "日本 〒960-1406",
      "geometry": {
        "bounds": {
          "northeast": {
            "lat": 37.68182669999999,
            "lng": 140.5994656
          },
          "southwest": {
            "lat": 37.6555299,
            "lng": 140.5587068
          }
        },
        "location": {
          "lat": 37.665526,
          "lng": 140.5782788
        },
        "location_type": "APPROXIMATE",
        "viewport": {
          "northeast": {
            "lat": 37.68182669999999,
            "lng": 140.5994656
          },
          "southwest": {
            "lat": 37.6555299,
            "lng": 140.5587068
          }
        }
      },
      "place_id": "ChIJ4ztZu814IGARkzyhtOGiN3Q",
      "types": [
        "postal_code"
      ]
    },
    {
      "address_components": [
        {
          "long_name": "川俣町",
          "short_name": "川俣町",
          "types": [
            "locality",
            "political"
          ]
        },
        {
          "long_name": "伊達郡",
          "short_name": "伊達郡",
          "types": [
            "administrative_area_level_2",
            "political"
          ]
        },
        {
          "long_name": "福島県",
          "short_name": "福島県",
          "types": [
            "administrative_area_level_1",
            "political"
          ]
        },
        {
          "long_name": "日本",
          "short_name": "JP",
          "types": [
            "country",
            "political"
          ]
        }
      ],
      "formatted_address": "日本、福島県伊達郡川俣町",
      "geometry": {
        "bounds": {
          "northeast": {
            "lat": 37.714438,
            "lng": 140.7262471
          },
          "southwest": {
            "lat": 37.547288,
            "lng": 140.5395159
          }
        },
        "location": {
          "lat": 37.6651095,
          "lng": 140.5982404
        },
        "location_type": "APPROXIMATE",
        "viewport": {
          "northeast": {
            "lat": 37.714438,
            "lng": 140.7262471
          },
          "southwest": {
            "lat": 37.547288,
            "lng": 140.5395159
          }
        }
      },
      "place_id": "ChIJl4Arail8IGARUkFwD0OIKHc",
      "types": [
        "locality",
        "political"
      ]
    },
    {
      "address_components": [
        {
          "long_name": "伊達郡",
          "short_name": "伊達郡",
          "types": [
            "administrative_area_level_2",
            "political"
          ]
        },
        {
          "long_name": "福島県",
          "short_name": "福島県",
          "types": [
            "administrative_area_level_1",
            "political"
          ]
        },
        {
          "long_name": "日本",
          "short_name": "JP",
          "types": [
            "country",
            "political"
          ]
        }
      ],
      "formatted_address": "日本、福島県伊達郡",
      "geometry": {
        "bounds": {
          "northeast": {
            "lat": 37.9228116,
            "lng": 140.7262472
          },
          "southwest": {
            "lat": 37.5472877,
            "lng": 140.4587715
          }
        },
        "location": {
          "lat": 37.6832265,
          "lng": 140.6171429
        },
        "location_type": "APPROXIMATE",
        "viewport": {
          "northeast": {
            "lat": 37.9228116,
            "lng": 140.7262472
          },
          "southwest": {
            "lat": 37.5472877,
            "lng": 140.4587715
          }
        }
      },
      "place_id": "ChIJBcFelgKBil8RV6LFiTXCqfk",
      "types": [
        "administrative_area_level_2",
        "political"
      ]
    },
    {
      "address_components": [
        {
          "long_name": "福島県",
          "short_name": "福島県",
          "types": [
            "administrative_area_level_1",
            "political"
          ]
        },
        {
          "long_name": "日本",
          "short_name": "JP",
          "types": [
            "country",
            "political"
          ]
        }
      ],
      "formatted_address": "日本、福島県",
      "geometry": {
        "bounds": {
          "northeast": {
            "lat": 37.9766021,
            "lng": 141.0435502
          },
          "southwest": {
            "lat": 36.79133849999999,
            "lng": 139.1647356
          }
        },
        "location": {
          "lat": 37.3834373,
          "lng": 140.1832516
        },
        "location_type": "APPROXIMATE",
        "viewport": {
          "northeast": {
            "lat": 37.9766021,
            "lng": 141.0435502
          },
          "southwest": {
            "lat": 36.79133849999999,
            "lng": 139.1647356
          }
        }
      },
      "place_id": "ChIJL9XcbYEEIGARXEbW0MGmHzQ",
      "types": [
        "administrative_area_level_1",
        "political"
      ]
    },
    {
      "address_components": [
        {
          "long_name": "日本",
          "short_name": "JP",
          "types": [
            "country",
            "political"
          ]
        }
      ],
      "formatted_address": "日本",
      "geometry": {
        "bounds": {
          "northeast": {
            "lat": 45.6412626,
            "lng": 154.0031455
          },
          "southwest": {
            "lat": 20.3585295,
            "lng": 122.8554688
          }
        },
        "location": {
          "lat": 36.204824,
          "lng": 138.252924
        },
        "location_type": "APPROXIMATE",
        "viewport": {
          "northeast": {
            "lat": 45.6412626,
            "lng": 154.0031455
          },
          "southwest": {
            "lat": 20.3585295,
            "lng": 122.8554688
          }
        }
      },
      "place_id": "ChIJLxl_1w9OZzQRRFJmfNR1QvU",
      "types": [
        "country",
        "political"
      ]
    }
  ]
}