{
  "station": "赤谷",
  "lat": 37.845953,
  "lng": 139.410667,
  "plus_code": {
    "compound_code": "RCW6+97 日本、新潟県新発田市",
    "global_code": "8Q9XRCW6+97"
  },
  "results": [
    {
      "address_components": [
        {
          "long_name": "１１８２",
          "short_name": "１１８２",
          "types": [
            "premise"
          ]
        },
        {
          "long_name": "上赤谷",
          "short_name": "上赤谷",
          "types": [
            "political",
            "sublocality",
            "sublocality_level_2"
          ]
        },
        {
          "long_name": "新発田市",
          "short_name": "新発田市",
          "types": [
            "locality",
            "political"
          ]
        },
        {
          "long_name": "新潟県",
          "short_name": "新潟県",
          "types": [
            "administrative_area_level_1",
            "political"
          ]
        },
        {
          "long_name": "日本",
          "short_name": "JP",
          "types": [
            "country",
            "political"
          ]
        },
        {
          "long_name": "957-0464",
          "short_name": "957-0464",
          "types": [
            "postal_code"
          ]
        }
      ],
      "formatted_address": "日本、〒957-0464 新潟県新発田市上赤谷１１８２",
      "geometry": {
        "location": {
          "lat": 37.8460908,
          "lng": 139.4107209
        },
        "location_type": "ROOFTOP",
        "viewport": {
          "northeast": {
            "lat": 37.8474397802915,
            "lng": 139.4120698802915
          },
          "southwest": {
            "lat": 37.8447418197085,
            "lng": 139.4093719197085
          }
        }
      },
      "place_id": "ChIJ4WcLAgsri18RTf5Ndh1s_AM",
      "plus_code": {
        "compound_code": "RCW6+C7 日本、新潟県新発田市",
        "global_code": "8Q9XRCW6+C7"
      },
      "types": [
        "establishment",
        "point_of_interest"
      ]
    },
    {
      "address_components": [
        {
          "long_name": "１１８２−１",
          "short_name": "１１８２−１",
          "types": [
            "premise"
          ]
        },
        {
          "long_name": "上赤谷",
          "short_name": "上赤谷",
          "types": [
            "political",
            "sublocality",
            "sublocality_level_2"
          ]
        },
        {
          "long_name": "新発田市",
          "short_name": "新発田市",
          "types": [
            "locality",
            "political"
          ]
        },
        {
          "long_name": "新潟県",
          "short_name": "新潟県",
          "types": [
            "administrative_area_level_1",
            "political"
          ]
        },
        {
          "long_name": "日本",
          "short_name": "JP",
          "types": [
            "country",
            "political"
          ]
        },
        {
          "long_name": "957-0464",
          "short_name": "957-0464",
          "types": [
            "postal_code"
          ]
        }
      ],
      "formatted_address": "日本、〒957-0464 新潟県新発田市上赤谷１１８２−１",
      "geometry": {
        "location": {
          "lat": 37.8461347,
          "lng": 139.410988
        },
        "location_type": "ROOFTOP",
        "viewport": {
          "northeast": {
            "lat": 37.8474836802915,
            "lng": 139.4123369802915
          },
          "southwest": {
            "lat": 37.8447857197085,
            "lng": 139.4096390197085
          }
        }
      },
      "place_id": "ChIJe6Iz_Aori18RBG4rKLW9j3w",
      "plus_code": {
        "compound_code": "RCW6+F9 日本、新潟県新発田市",
        "global_code": "8Q9XRCW6+F9"
      },
      "types": [
        "street_address"
      ]
    },
    {
      "address_components": [
        {
          "long_name": "新発田津川線",
          "short_name": "県道14号",
          "types": [
            "route"
          ]
        },
        {
          "long_name": "上赤谷",
          "short_name": "上赤谷",
          "types": [
            "political",
            "sublocality",
            "sublocality_level_2"
          ]
        },
        {
          "long_name": "新発田市",
          "short_name": "新発田市",
          "types": [
            "locality",
            "political"
          ]
        },
        {
          "long_name": "新潟県",
          "short_name": "新潟県",
          "types": [
            "administrative_area_level_1",
            "political"
          ]
        },
        {
          "long_name": "日本",
          "short_name": "JP",
          "types": [
            "country",
            "political"
          ]
        },
        {
          "long_name": "957-0464",
          "short_name": "957-0464",
          "types": [
            "postal_code"
          ]
        }
      ],
      "formatted_address": "日本、〒957-0464 新潟県新発田市上赤谷 県道14号",
      "geometry": {
        "bounds": {
          "northeast": {
            "lat": 37.8485785,
            "lng": 139.4106648
          },
          "southwest": {
            "lat": 37.8458167,
            "lng": 139.4099582
          }
        },
        "location": {
          "lat": 37.8471708,
          "lng": 139.4101409
        },
        "location_type": "GEOMETRIC_CENTER",
        "viewport": {
          "northeast": {
            "lat": 37.8485785,
            "lng": 139.4116604802915
          },
          "southwest": {
            "lat": 37.8458167,
            "lng": 139.4089625197085
          }
        }
      },
      "place_id": "ChIJJ1KbxQori18RfrxLzyXKueM",
      "types": [
        "route"
      ]
    },
    {
      "address_components": [
        {
          "long_name": "957-0464",
          "short_name": "957-0464",
          "types": [
            "postal_code"
          ]
        },
        {
          "long_name": "上赤谷",
          "short_name": "上赤谷",
          "types": [
            "political",
            "sublocality",
            "sublocality_level_2"
          ]
        },
        {
          "long_name": "新発田市",
          "short_name": "新発田市",
          "types": [
            "locality",
            "political"
          ]
        },
        {
          "long_name": "新潟県",
          "short_name": "新潟県",
          "types": [
            "administrative_area_level_1",
            "political"
          ]
        },
        {
          "long_name": "日本",
          "short_name": "JP",
          "types": [
            "country",
            "political"
          ]
        }
      ],
      "formatted_address": "日本 〒957-0464",
      "geometry": {
        "bounds": {
          "northeast": {
            "lat": 37.8514134,
            "lng": 139.436253
          },
          "southwest": {
            "lat": 37.8126367,
            "lng": 139.3595667
          }
        },
        "location": {
          "lat": 37.8296593,
          "lng": 139.3995868
        },
        "location_type": "APPROXIMATE",
        "viewport": {
          "northeast": {
            "lat": 37.8514134,
            "lng": 139.436253
          },
          "southwest": {
            "lat": 37.8126367,
            "lng": 139.3595667
          }
        }
      },
      "place_id": "ChIJJThuNgMri18Rg9xdCUGZZB4",
      "types": [
        "postal_code"
      ]
    },
    {
      "address_components": [
        {
          "long_name": "上赤谷",
          "short_name": "上赤谷",
          "types": [
            "political",
            "sublocality",
            "sublocality_level_2"
          ]
        },
        {
          "long_name": "新発田市",
          "short_name": "新発田市",
          "types": [
            "locality",
            "political"
          ]
        },
        {
          "long_name": "新潟県",
          "short_name": "新潟県",
          "types": [
            "administrative_area_level_1",
            "political"
          ]
        },
        {
          "long_name": "日本",
          "short_name": "JP",
          "types": [
            "country",
            "political"
          ]
        },
        {
          "long_name": "957-0464",
          "short_name": "957-0464",
          "types": [
            "postal_code"
          ]
        }
      ],
      "formatted_address": "日本、〒957-0464 新潟県新発田市上赤谷",
      "geometry": {
        "bounds": {
          "northeast": {
            "lat": 37.8514134,
            "lng": 139.436253
          },
          "southwest": {
            "lat": 37.8126367,
            "lng": 139.3595667
          }
        },
        "location": {
          "lat": 37.8296593,
          "lng": 139.3995868
        },
        "location_type": "APPROXIMATE",
        "viewport": {
          "northeast": {
            "lat": 37.8514134,
            "lng": 139.436253
          },
          "southwest": {
            "lat": 37.8126367,
            "lng": 139.3595667
          }
        }
      },
      "place_id": "ChIJqxl1wjwri18RSUgae82St5s",
      "types": [
        "political",
        "sublocality",
        "sublocality_level_2"
      ]
    },
    {
      "address_components": [
        {
          "long_name": "新発田市",
          "short_name": "新発田市",
          "types": [
            "locality",
            "political"
          ]
        },
        {
          "long_name": "新潟県",
          "short_name": "新潟県",
          "types": [
            "administrative_area_level_1",
            "political"
          ]
        },
        {
          "long_name": "日本",
          "short_name": "JP",
          "types": [
            "country",
            "political"
          ]
        }
      ],
      "formatted_address": "日本、新潟県新発田市",
      "geometry": {
        "bounds": {
          "northeast": {
            "lat": 38.0493926,
            "lng": 139.6818047
          },
          "southwest": {
            "lat": 37.7881957,
            "lng": 139.2415699
          }
        },
        "location": {
          "lat": 37.9483728,
          "lng": 139.3274172
        },
        "location_type": "APPROXIMATE",
        "viewport": {
          "northeast": {
            "lat": 38.0493926,
            "lng": 139.6818047
          },
          "southwest": {
            "lat": 37.7881957,
            "lng": 139.2415699
          }
        }
      },
      "place_id": "ChIJiWgsRQsvi18RJNoup2z6ls0",
      "types": [
        "locality",
        "political"
      ]
    },
    {
      "address_components": [
        {
          "long_name": "新潟県",
          "short_name": "新潟県",
          "types": [
            "administrative_area_level_1",
            "political"
          ]
        },
        {
          "long_name": "日本",
          "short_name": "JP",
          "types": [
            "country",
            "political"
          ]
        }
      ],
      "formatted_address": "日本、新潟県",
      "geometry": {
        "bounds": {
          "northeast": {
            "lat": 38.5535962,
            "lng": 139.8998675
          },
          "southwest": {
            "lat": 36.73657,
            "lng": 137.6350483
          }
        },
        "location": {
          "lat": 37.5178386,
          "lng": 138.9269794
        },
        "location_type": "APPROXIMATE",
        "viewport": {
          "northeast": {
            "lat": 38.5535962,
            "lng": 139.8998675
          },
          "southwest": {
            "lat": 36.73657,
            "lng": 137.6350483
          }
        }
      },
      "place_id": "ChIJATtK2PaFjF8RSPPdfITZi7Q",
      "types": [
        "administrative_area_level_1",
        "political"
      ]
    },
    {
      "address_components": [
        {
          "long_name": "日本",
          "short_name": "JP",
          "types": [
            "country",
            "political"
          ]
        }
      ],
      "formatted_address": "日本",
      "geometry": {
        "bounds": {
          "northeast": {
            "lat": 45.6412626,
            "lng": 154.0031455
          },
          "southwest": {
            "lat": 20.3585295,
            "lng": 122.8554688
          }
        },
        "location": {
          "lat": 36.204824,
          "lng": 138.252924
        },
        "location_type": "APPROXIMATE",
        "viewport": {
          "northeast": {
            "lat": 45.6412626,
            "lng": 154.0031455
          },
          "southwest": {
            "lat": 20.3585295,
            "lng": 122.8554688
          }
        }
      },
      "place_id": "ChIJLxl_1w9OZzQRRFJmfNR1QvU",
      "types": [
        "country",
        "political"
      ]
    },
    {
      "address_components": [
        {
          "long_name": "RCW6+97",
          "short_name": "RCW6+97",
          "types": [
            "plus_code"
          ]
        },
        {
          "long_name": "新発田市",
          "short_name": "新発田市",
          "types": [
            "locality",
            "political"
          ]
        },
        {
          "long_name": "新潟県",
          "short_name": "新潟県",
          "types": [
            "administrative_area_level_1",
            "political"
          ]
        },
        {
          "long_name": "日本",
          "short_name": "JP",
          "types": [
            "country",
            "political"
          ]
        }
      ],
      "formatted_address": "RCW6+97 日本、新潟県新発田市",
      "geometry": {
        "bounds": {
          "northeast": {
            "lat": 37.846,
            "lng": 139.41075
          },
          "southwest": {
            "lat": 37.845875,
            "lng": 139.410625
          }
        },
        "location": {
          "lat": 37.845953,
          "lng": 139.410667
        },
        "location_type": "ROOFTOP",
        "viewport": {
          "northeast": {
            "lat": 37.84728648029149,
            "lng": 139.4120364802915
          },
          "southwest": {
            "lat": 37.8445885197085,
            "lng": 139.4093385197085
          }
        }
      },
      "place_id": "GhIJ_3kaMEjsQkARfNEeLyRtYUA",
      "plus_code": {
        "compound_code": "RCW6+97 日本、新潟県新発田市",
        "global_code": "8Q9XRCW6+97"
      },
      "types": [
        "plus_code"
      ]
    }
  ]
}