{
  "station": "鶉",
  "lat": 43.4825,
  "lng": 141.962389,
  "plus_code": {
    "compound_code": "FXJ6+XX 日本、北海道上砂川町",
    "global_code": "8RM3FXJ6+XX"
  },
  "results": [
    {
      "address_components": [
        {
          "long_name": "３",
          "short_name": "３",
          "types": [
            "premise"
          ]
        },
        {
          "long_name": "２",
          "short_name": "２",
          "types": [
            "political",
            "sublocality",
            "sublocality_level_4"
          ]
        },
        {
          "long_name": "２丁目",
          "short_name": "２丁目",
          "types": [
            "political",
            "sublocality",
            "sublocality_level_3"
          ]
        },
        {
          "long_name": "鶉本町北",
          "short_name": "鶉本町北",
          "types": [
            "political",
            "sublocality",
            "sublocality_level_2"
          ]
        },
        {
          "long_name": "上砂川町",
          "short_name": "上砂川町",
          "types": [
            "locality",
            "political"
          ]
        },
        {
          "long_name": "空知郡",
          "short_name": "空知郡",
          "types": [
            "administrative_area_level_2",
            "political"
          ]
        },
        {
          "long_name": "北海道",
          "short_name": "北海道",
          "types": [
            "administrative_area_level_1",
            "political"
          ]
        },
        {
          "long_name": "日本",
          "short_name": "JP",
          "types": [
            "country",
            "political"
          ]
        },
        {
          "long_name": "073-0221",
          "short_name": "073-0221",
          "types": [
            "postal_code"
          ]
        }
      ],
      "formatted_address": "日本、〒073-0221 北海道空知郡上砂川町鶉本町北２丁目２−３",
      "geometry": {
        "location": {
          "lat": 43.4825285,
          "lng": 141.9623699
        },
        "location_type": "ROOFTOP",
        "viewport": {
          "northeast": {
            "lat": 43.4838774802915,
            "lng": 141.9637188802915
          },
          "southwest": {
            "lat": 43.4811795197085,
            "lng": 141.9610209197085
          }
        }
      },
      "place_id": "ChIJCc0ipxShDF8Rop9wgohPkx0",
      "plus_code": {
        "compound_code": "FXM6+2W 日本、北海道上砂川町",
        "global_code": "8RM3FXM6+2W"
      },
      "types": [
        "street_address"
      ]
    },
    {
      "address_components": [
        {
          "long_name": "３",
          "short_name": "３",
          "types": [
            "premise"
          ]
        },
        {
          "long_name": "２",
          "short_name": "２",
          "types": [
            "political",
            "sublocality",
            "sublocality_level_4"
          ]
        },
        {
          "long_name": "２丁目",
          "short_name": "２丁目",
          "types": [
            "political",
            "sublocality",
            "sublocality_level_3"
          ]
        },
        {
          "long_name": "鶉本町北",
          "short_name": "鶉本町北",
          "types": [
            "political",
            "sublocality",
            "sublocality_level_2"
          ]
        },
        {
          "long_name": "上砂川町",
          "short_name": "上砂川町",
          "types": [
            "locality",
            "political"
          ]
        },
        {
          "long_name": "空知郡",
          "short_name": "空知郡",
          "types": [
            "administrative_area_level_2",
            "political"
          ]
        },
        {
          "long_name": "北海道",
          "short_name": "北海道",
          "types": [
            "administrative_area_level_1",
            "political"
          ]
        },
        {
          "long_name": "日本",
          "short_name": "JP",
          "types": [
            "country",
            "political"
          ]
        },
        {
          "long_name": "073-0221",
          "short_name": "073-0221",
          "types": [
            "postal_code"
          ]
        }
      ],
      "formatted_address": "日本、〒073-0221 北海道空知郡上砂川町鶉本町北２丁目２−３",
      "geometry": {
        "location": {
          "lat": 43.4825261,
          "lng": 141.9624252
        },
        "location_type": "ROOFTOP",
        "viewport": {
          "northeast": {
            "lat": 43.4838750802915,
            "lng": 141.9637741802915
          },
          "southwest": {
            "lat": 43.48117711970851,
            "lng": 141.9610762197085
          }
        }
      },
      "place_id": "ChIJTQP_mXChDF8RYz1WXTtfvb4",
      "plus_code": {
        "compound_code": "FXM6+2X 日本、北海道上砂川町",
        "global_code": "8RM3FXM6+2X"
      },
      "types": [
        "establishment",
        "point_of_interest"
      ]
    },
    {
      "address_components": [
        {
          "long_name": "緑ヶ丘入口",
          "short_name": "緑ヶ丘入口",
          "types": [
            "establishment",
            "point_of_interest",
            "transit_station"
          ]
        },
        {
          "long_name": "１丁目",
          "short_name": "１丁目",
          "types": [
            "political",
            "sublocality",
            "sublocality_level_3"
          ]
        },
        {
          "long_name": "字鶉",
          "short_name": "字鶉",
          "types": [
            "political",
            "sublocality",
            "sublocality_level_2"
          ]
        },
        {
          "long_name": "上砂川町",
          "short_name": "上砂川町",
          "types": [
            "locality",
            "political"
          ]
        },
        {
          "long_name": "空知郡",
          "short_name": "空知郡",
          "types": [
            "administrative_area_level_2",
            "political"
          ]
        },
        {
          "long_name": "北海道",
          "short_name": "北海道",
          "types": [
            "administrative_area_level_1",
            "political"
          ]
        },
        {
          "long_name": "日本",
          "short_name": "JP",
          "types": [
            "country",
            "political"
          ]
        },
        {
          "long_name": "073-0221",
          "short_name": "073-0221",
          "types": [
            "postal_code"
          ]
        }
      ],
      "formatted_address": "日本、〒073-0221 北海道空知郡上砂川町字鶉１丁目 緑ヶ丘入口",
      "geometry": {
        "location": {
          "lat": 43.4823917,
          "lng": 141.9631895
        },
        "location_type": "GEOMETRIC_CENTER",
        "viewport": {
          "northeast": {
            "lat": 43.4837406802915,
            "lng": 141.9645384802915
          },
          "southwest": {
            "lat": 43.4810427197085,
            "lng": 141.9618405197085
          }
        }
      },
      "place_id": "ChIJueitrxShDF8RvQoUGn8Vh44",
      "plus_code": {
        "compound_code": "FXJ7+X7 日本、北海道上砂川町",
        "global_code": "8RM3FXJ7+X7"
      },
      "types": [
        "establishment",
        "point_of_interest",
        "transit_station"
      ]
    },
    {
      "address_components": [
        {
          "long_name": "２",
          "short_name": "２",
          "types": [
            "premise"
          ]
        },
        {
          "long_name": "２",
          "short_name": "２",
          "types": [
            "political",
            "sublocality",
            "sublocality_level_4"
          ]
        },
        {
          "long_name": "３丁目",
          "short_name": "３丁目",
          "types": [
            "political",
            "sublocality",
            "sublocality_level_3"
          ]
        },
        {
          "long_name": "鶉本町北",
          "short_name": "鶉本町北",
          "types": [
            "political",
            "sublocality",
            "sublocality_level_2"
          ]
        },
        {
          "long_name": "上砂川町",
          "short_name": "上砂川町",
          "types": [
            "locality",
            "political"
          ]
        },
        {
          "long_name": "空知郡",
          "short_name": "空知郡",
          "types": [
            "administrative_area_level_2",
            "political"
          ]
        },
        {
          "long_name": "北海道",
          "short_name": "北海道",
          "types": [
            "administrative_area_level_1",
            "political"
          ]
        },
        {
          "long_name": "日本",
          "short_name": "JP",
          "types": [
            "country",
            "political"
          ]
        },
        {
          "long_name": "073-0221",
          "short_name": "073-0221",
          "types": [
            "postal_code"
          ]
        }
      ],
      "formatted_address": "日本、〒073-0221 北海道空知郡上砂川町鶉本町北３丁目２−２",
      "geometry": {
        "bounds": {
          "northeast": {
            "lat": 43.4826983,
            "lng": 141.9614786
          },
          "southwest": {
            "lat": 43.4825154,
            "lng": 141.9610355
          }
        },
        "location": {
          "lat": 43.4826256,
          "lng": 141.9612575
        },
        "location_type": "ROOFTOP",
        "viewport": {
          "northeast": {
            "lat": 43.4839558302915,
            "lng": 141.9626060302915
          },
          "southwest": {
            "lat": 43.4812578697085,
            "lng": 141.9599080697085
          }
        }
      },
      "place_id": "ChIJy6cQZxOhDF8RcF3G7JEaMO0",
      "types": [
        "premise"
      ]
    },
    {
      "address_components": [
        {
          "long_name": "芦別砂川線",
          "short_name": "道道115号",
          "types": [
            "route"
          ]
        },
        {
          "long_name": "字鶉",
          "short_name": "字鶉",
          "types": [
            "political",
            "sublocality",
            "sublocality_level_2"
          ]
        },
        {
          "long_name": "上砂川町",
          "short_name": "上砂川町",
          "types": [
            "locality",
            "political"
          ]
        },
        {
          "long_name": "空知郡",
          "short_name": "空知郡",
          "types": [
            "administrative_area_level_2",
            "political"
          ]
        },
        {
          "long_name": "北海道",
          "short_name": "北海道",
          "types": [
            "administrative_area_level_1",
            "political"
          ]
        },
        {
          "long_name": "日本",
          "short_name": "JP",
          "types": [
            "country",
            "political"
          ]
        },
        {
          "long_name": "073-0221",
          "short_name": "073-0221",
          "types": [
            "postal_code"
          ]
        }
      ],
      "formatted_address": "日本、〒073-0221 北海道空知郡上砂川町字鶉 道道115号",
      "geometry": {
        "bounds": {
          "northeast": {
            "lat": 43.4824309,
            "lng": 141.9633158
          },
          "southwest": {
            "lat": 43.4822979,
            "lng": 141.9616604
          }
        },
        "location": {
          "lat": 43.4823781,
          "lng": 141.9624863
        },
        "location_type": "GEOMETRIC_CENTER",
        "viewport": {
          "northeast": {
            "lat": 43.48371338029149,
            "lng": 141.9638370802915
          },
          "southwest": {
            "lat": 43.48101541970849,
            "lng": 141.9611391197085
          }
        }
      },
      "place_id": "ChIJ_x9SoRShDF8RJHmk97r1WO0",
      "types": [
        "route"
      ]
    },
    {
      "address_components": [
        {
          "long_name": "２丁目",
          "short_name": "２丁目",
          "types": [
            "political",
            "sublocality",
            "sublocality_level_3"
          ]
        },
        {
          "long_name": "鶉本町北",
          "short_name": "鶉本町北",
          "types": [
            "political",
            "sublocality",
            "sublocality_level_2"
          ]
        },
        {
          "long_name": "上砂川町",
          "short_name": "上砂川町",
          "types": [
            "locality",
            "political"
          ]
        },
        {
          "long_name": "空知郡",
          "short_name": "空知郡",
          "types": [
            "administrative_area_level_2",
            "political"
          ]
        },
        {
          "long_name": "北海道",
          "short_name": "北海道",
          "types": [
            "administrative_area_level_1",
            "political"
          ]
        },
        {
          "long_name": "日本",
          "short_name": "JP",
          "types": [
            "country",
            "political"
          ]
        },
        {
          "long_name": "073-0221",
          "short_name": "073-0221",
          "types": [
            "postal_code"
          ]
        }
      ],
      "formatted_address": "日本、〒073-0221 北海道空知郡上砂川町鶉本町北２丁目",
      "geometry": {
        "bounds": {
          "northeast": {
            "lat": 43.483512,
            "lng": 141.9647319
          },
          "southwest": {
            "lat": 43.482276,
            "lng": 141.961685
          }
        },
        "location": {
          "lat": 43.4830423,
          "lng": 141.9626385
        },
        "location_type": "APPROXIMATE",
        "viewport": {
          "northeast": {
            "lat": 43.4842429802915,
            "lng": 141.9647319
          },
          "southwest": {
            "lat": 43.4815450197085,
            "lng": 141.961685
          }
        }
      },
      "place_id": "ChIJr4GhqhShDF8RtxsNcwzluU8",
      "types": [
        "political",
        "sublocality",
        "sublocality_level_3"
      ]
    },
    {
      "address_components": [
        {
          "long_name": "鶉本町北",
          "short_name": "鶉本町北",
          "types": [
            "political",
            "sublocality",
            "sublocality_level_2"
          ]
        },
        {
          "long_name": "上砂川町",
          "short_name": "上砂川町",
          "types": [
            "locality",
            "political"
          ]
        },
        {
          "long_name": "空知郡",
          "short_name": "空知郡",
          "types": [
            "administrative_area_level_2",
            "political"
          ]
        },
        {
          "long_name": "北海道",
          "short_name": "北海道",
          "types": [
            "administrative_area_level_1",
            "political"
          ]
        },
        {
          "long_name": "日本",
          "short_name": "JP",
          "types": [
            "country",
            "political"
          ]
        },
        {
          "long_name": "073-0221",
          "short_name": "073-0221",
          "types": [
            "postal_code"
          ]
        }
      ],
      "formatted_address": "日本、〒073-0221 北海道空知郡上砂川町鶉本町北",
      "geometry": {
        "bounds": {
          "northeast": {
            "lat": 43.484426,
            "lng": 141.970736
          },
          "southwest": {
            "lat": 43.4818401,
            "lng": 141.953945
          }
        },
        "location": {
          "lat": 43.4830423,
          "lng": 141.9626385
        },
        "location_type": "APPROXIMATE",
        "viewport": {
          "northeast": {
            "lat": 43.4844820302915,
            "lng": 141.970736
          },
          "southwest": {
            "lat": 43.4817840697085,
            "lng": 141.953945
          }
        }
      },
      "place_id": "ChIJi0MElxShDF8RjH695Zzs8_M",
      "types": [
        "political",
        "sublocality",
        "sublocality_level_2"
      ]
    },
    {
      "address_components": [
        {
          "long_name": "073-0221",
          "short_name": "073-0221",
          "types": [
            "postal_code"
          ]
        },
        {
          "long_name": "字鶉",
          "short_name": "字鶉",
          "types": [
            "political",
            "sublocality",
            "sublocality_level_2"
          ]
        },
        {
          "long_name": "上砂川町",
          "short_name": "上砂川町",
          "types": [
            "locality",
            "political"
          ]
        },
        {
          "long_name": "空知郡",
          "short_name": "空知郡",
          "types": [
            "administrative_area_level_2",
            "political"
          ]
        },
        {
          "long_name": "北海道",
          "short_name": "北海道",
          "types": [
            "administrative_area_level_1",
            "political"
          ]
        },
        {
          "long_name": "日本",
          "short_name": "JP",
          "types": [
            "country",
            "political"
          ]
        }
      ],
      "formatted_address": "日本 〒073-0221",
      "geometry": {
        "bounds": {
          "northeast": {
            "lat": 43.484426,
            "lng": 141.9707357
          },
          "southwest": {
            "lat": 43.4794304,
            "lng": 141.9539446
          }
        },
        "location": {
          "lat": 43.48251519999999,
          "lng": 141.9604511
        },
        "location_type": "APPROXIMATE",
        "viewport": {
          "northeast": {
            "lat": 43.484426,
            "lng": 141.9707357
          },
          "southwest": {
            "lat": 43.4794304,
            "lng": 141.9539446
          }
        }
      },
      "place_id": "ChIJq21lyy2hDF8RqwBh3aPe87k",
      "types": [
        "postal_code"
      ]
    },
    {
      "address_components": [
        {
          "long_name": "上砂川町",
          "short_name": "上砂川町",
          "types": [
            "locality",
            "political"
          ]
        },
        {
          "long_name": "空知郡",
          "short_name": "空知郡",
          "types": [
            "administrative_area_level_2",
            "political"
          ]
        },
        {
          "long_name": "北海道",
          "short_name": "北海道",
          "types": [
            "administrative_area_level_1",
            "political"
          ]
        },
        {
          "long_name": "日本",
          "short_name": "JP",
          "types": [
            "country",
            "political"
          ]
        }
      ],
      "formatted_address": "日本、北海道空知郡上砂川町",
      "geometry": {
        "bounds": {
          "northeast": {
            "lat": 43.48508,
            "lng": 142.072477
          },
          "southwest": {
            "lat": 43.409037,
            "lng": 141.9453481
          }
        },
        "location": {
          "lat": 43.4826633,
          "lng": 141.9840593
        },
        "location_type": "APPROXIMATE",
        "viewport": {
          "northeast": {
            "lat": 43.48508,
            "lng": 142.072477
          },
          "southwest": {
            "lat": 43.409037,
            "lng": 141.9453481
          }
        }
      },
      "place_id": "ChIJVwueou6mDF8RYXfOkMJJSw4",
      "types": [
        "locality",
        "political"
      ]
    },
    {
      "address_components": [
        {
          "long_name": "空知郡",
          "short_name": "空知郡",
          "types": [
            "administrative_area_level_2",
            "political"
          ]
        },
        {
          "long_name": "北海道",
          "short_name": "北海道",
          "types": [
            "administrative_area_level_1",
            "political"
          ]
        },
        {
          "long_name": "日本",
          "short_name": "JP",
          "types": [
            "country",
            "political"
          ]
        }
      ],
      "formatted_address": "日本、北海道空知郡",
      "geometry": {
        "bounds": {
          "northeast": {
            "lat": 43.5510988,
            "lng": 142.7788631
          },
          "southwest": {
            "lat": 42.99601819999999,
            "lng": 141.5643388
          }
        },
        "location": {
          "lat": 43.438166,
          "lng": 142.4547748
        },
        "location_type": "APPROXIMATE",
        "viewport": {
          "northeast": {
            "lat": 43.5510988,
            "lng": 142.7788631
          },
          "southwest": {
            "lat": 42.99601819999999,
            "lng": 141.5643388
          }
        }
      },
      "place_id": "ChIJyUzEEKeqdF8Rj6aP8Hn2LHQ",
      "types": [
        "administrative_area_level_2",
        "political"
      ]
    },
    {
      "address_components": [
        {
          "long_name": "北海道",
          "short_name": "北海道",
          "types": [
            "administrative_area_level_1",
            "political"
          ]
        },
        {
          "long_name": "日本",
          "short_name": "JP",
          "types": [
            "country",
            "political"
          ]
        }
      ],
      "formatted_address": "日本、北海道",
      "geometry": {
        "bounds": {
          "northeast": {
            "lat": 45.5265181,
            "lng": 145.817624
          },
          "southwest": {
            "lat": 41.3516002,
            "lng": 139.3340799
          }
        },
        "location": {
          "lat": 43.2203266,
          "lng": 142.8634737
        },
        "location_type": "APPROXIMATE",
        "viewport": {
          "northeast": {
            "lat": 45.5265181,
            "lng": 145.817624
          },
          "southwest": {
            "lat": 41.3516002,
            "lng": 139.3340799
          }
        }
      },
      "place_id": "ChIJi4hsnyBZn18RjwPOT1bDPBw",
      "types": [
        "administrative_area_level_1",
        "political"
      ]
    },
    {
      "address_components": [
        {
          "long_name": "日本",
          "short_name": "JP",
          "types": [
            "country",
            "political"
          ]
        }
      ],
      "formatted_address": "日本",
      "geometry": {
        "bounds": {
          "northeast": {
            "lat": 45.6412626,
            "lng": 154.0031455
          },
          "southwest": {
            "lat": 20.3585295,
            "lng": 122.8554688
          }
        },
        "location": {
          "lat": 36.204824,
          "lng": 138.252924
        },
        "location_type": "APPROXIMATE",
        "viewport": {
          "northeast": {
            "lat": 45.6412626,
            "lng": 154.0031455
          },
          "southwest": {
            "lat": 20.3585295,
            "lng": 122.8554688
          }
        }
      },
      "place_id": "ChIJLxl_1w9OZzQRRFJmfNR1QvU",
      "types": [
        "country",
        "political"
      ]
    }
  ]
}