{
  "station": "大谷地(国鉄)",
  "lat": 43.027861,
  "lng": 141.437194,
  "plus_code": {
    "compound_code": "2CHP+4V 日本、北海道札幌市",
    "global_code": "8RM32CHP+4V"
  },
  "results": [
    {
      "address_components": [
        {
          "long_name": "ヴィラエターナル",
          "short_name": "ヴィラエターナル",
          "types": [
            "premise"
          ]
        },
        {
          "long_name": "４６",
          "short_name": "４６",
          "types": [
            "premise"
          ]
        },
        {
          "long_name": "１",
          "short_name": "１",
          "types": [
            "political",
            "sublocality",
            "sublocality_level_4"
          ]
        },
        {
          "long_name": "２０南",
          "short_name": "２０南",
          "types": [
            "political",
            "sublocality",
            "sublocality_level_3"
          ]
        },
        {
          "long_name": "南郷通",
          "short_name": "南郷通",
          "types": [
            "political",
            "sublocality",
            "sublocality_level_2"
          ]
        },
        {
          "long_name": "白石区",
          "short_name": "白石区",
          "types": [
            "political",
            "sublocality",
            "sublocality_level_1"
          ]
        },
        {
          "long_name": "札幌市",
          "short_name": "札幌市",
          "types": [
            "locality",
            "political"
          ]
        },
        {
          "long_name": "北海道",
          "short_name": "北海道",
          "types": [
            "administrative_area_level_1",
            "political"
          ]
        },
        {
          "long_name": "日本",
          "short_name": "JP",
          "types": [
            "country",
            "political"
          ]
        },
        {
          "long_name": "003-0022",
          "short_name": "003-0022",
          "types": [
            "postal_code"
          ]
        }
      ],
      "formatted_address": "日本、〒003-0022 北海道札幌市白石区南郷通２０南１−４６ ヴィラエターナル",
      "geometry": {
        "bounds": {
          "northeast": {
            "lat": 43.0282933,
            "lng": 141.4373923
          },
          "southwest": {
            "lat": 43.0281218,
            "lng": 141.4371794
          }
        },
        "location": {
          "lat": 43.0281999,
          "lng": 141.4373008
        },
        "location_type": "ROOFTOP",
        "viewport": {
          "northeast": {
            "lat": 43.02955653029151,
            "lng": 141.4386348302915
          },
          "southwest": {
            "lat": 43.02685856970851,
            "lng": 141.4359368697085
          }
        }
      },
      "place_id": "ChIJG6RAmhErC18RhaSVqeqM9ac",
      "types": [
        "premise"
      ]
    },
    {
      "address_components": [
        {
          "long_name": "ヴィラエターナル",
          "short_name": "ヴィラエターナル",
          "types": [
            "premise"
          ]
        },
        {
          "long_name": "４６",
          "short_name": "４６",
          "types": [
            "premise"
          ]
        },
        {
          "long_name": "１",
          "short_name": "１",
          "types": [
            "political",
            "sublocality",
            "sublocality_level_4"
          ]
        },
        {
          "long_name": "２０南",
          "short_name": "２０南",
          "types": [
            "political",
            "sublocality",
            "sublocality_level_3"
          ]
        },
        {
          "long_name": "南郷通",
          "short_name": "南郷通",
          "types": [
            "political",
            "sublocality",
            "sublocality_level_2"
          ]
        },
        {
          "long_name": "白石区",
          "short_name": "白石区",
          "types": [
            "political",
            "sublocality",
            "sublocality_level_1"
          ]
        },
        {
          "long_name": "札幌市",
          "short_name": "札幌市",
          "types": [
            "locality",
            "political"
          ]
        },
        {
          "long_name": "北海道",
          "short_name": "北海道",
          "types": [
            "administrative_area_level_1",
            "political"
          ]
        },
        {
          "long_name": "日本",
          "short_name": "JP",
          "types": [
            "country",
            "political"
          ]
        },
        {
          "long_name": "003-0022",
          "short_name": "003-0022",
          "types": [
            "postal_code"
          ]
        }
      ],
      "formatted_address": "日本、〒003-0022 北海道札幌市白石区南郷通２０南１−４６ ヴィラエターナル",
      "geometry": {
        "location": {
          "lat": 43.0281999,
          "lng": 141.4373008
        },
        "location_type": "ROOFTOP",
        "viewport": {
          "northeast": {
            "lat": 43.0295488802915,
            "lng": 141.4386497802915
          },
          "southwest": {
            "lat": 43.0268509197085,
            "lng": 141.4359518197085
          }
        }
      },
      "place_id": "ChIJYwfLLzwrC18RbkLL6B3UIO4",
      "plus_code": {
        "compound_code": "2CHP+7W 日本、北海道札幌市",
        "global_code": "8RM32CHP+7W"
      },
      "types": [
        "establishment",
        "point_of_interest"
      ]
    },
    {
      "address_components": [
        {
          "long_name": "４６",
          "short_name": "４６",
          "types": [
            "premise"
          ]
        },
        {
          "long_name": "１",
          "short_name": "１",
          "types": [
            "political",
            "sublocality",
            "sublocality_level_4"
          ]
        },
        {
          "long_name": "２０南",
          "short_name": "２０南",
          "types": [
            "political",
            "sublocality",
            "sublocality_level_3"
          ]
        },
        {
          "long_name": "南郷通",
          "short_name": "南郷通",
          "types": [
            "political",
            "sublocality",
            "sublocality_level_2"
          ]
        },
        {
          "long_name": "白石区",
          "short_name": "白石区",
          "types": [
            "political",
            "sublocality",
            "sublocality_level_1"
          ]
        },
        {
          "long_name": "札幌市",
          "short_name": "札幌市",
          "types": [
            "locality",
            "political"
          ]
        },
        {
          "long_name": "北海道",
          "short_name": "北海道",
          "types": [
            "administrative_area_level_1",
            "political"
          ]
        },
        {
          "long_name": "日本",
          "short_name": "JP",
          "types": [
            "country",
            "political"
          ]
        },
        {
          "long_name": "003-0022",
          "short_name": "003-0022",
          "types": [
            "postal_code"
          ]
        }
      ],
      "formatted_address": "日本、〒003-0022 北海道札幌市白石区南郷通２０南１−４６",
      "geometry": {
        "location": {
          "lat": 43.0282099,
          "lng": 141.437286
        },
        "location_type": "ROOFTOP",
        "viewport": {
          "northeast": {
            "lat": 43.0295588802915,
            "lng": 141.4386349802915
          },
          "southwest": {
            "lat": 43.0268609197085,
            "lng": 141.4359370197085
          }
        }
      },
      "place_id": "ChIJQRFDmhErC18RzPkuSy8ENwE",
      "plus_code": {
        "compound_code": "2CHP+7W 日本、北海道札幌市",
        "global_code": "8RM32CHP+7W"
      },
      "types": [
        "street_address"
      ]
    },
    {
      "address_components": [
        {
          "long_name": "Unnamed Road",
          "short_name": "Unnamed Road",
          "types": [
            "route"
          ]
        },
        {
          "long_name": "１",
          "short_name": "１",
          "types": [
            "political",
            "sublocality",
            "sublocality_level_4"
          ]
        },
        {
          "long_name": "２０南",
          "short_name": "２０南",
          "types": [
            "political",
            "sublocality",
            "sublocality_level_3"
          ]
        },
        {
          "long_name": "南郷通",
          "short_name": "南郷通",
          "types": [
            "political",
            "sublocality",
            "sublocality_level_2"
          ]
        },
        {
          "long_name": "白石区",
          "short_name": "白石区",
          "types": [
            "political",
            "sublocality",
            "sublocality_level_1"
          ]
        },
        {
          "long_name": "札幌市",
          "short_name": "札幌市",
          "types": [
            "locality",
            "political"
          ]
        },
        {
          "long_name": "北海道",
          "short_name": "北海道",
          "types": [
            "administrative_area_level_1",
            "political"
          ]
        },
        {
          "long_name": "日本",
          "short_name": "JP",
          "types": [
            "country",
            "political"
          ]
        },
        {
          "long_name": "003-0022",
          "short_name": "003-0022",
          "types": [
            "postal_code"
          ]
        }
      ],
      "formatted_address": "Unnamed Road, ２０南-１ 南郷通 白石区 札幌市 北海道 003-0022 日本",
      "geometry": {
        "bounds": {
          "northeast": {
            "lat": 43.0282113,
            "lng": 141.437414
          },
          "southwest": {
            "lat": 43.0280075,
            "lng": 141.4368887
          }
        },
        "location": {
          "lat": 43.0281088,
          "lng": 141.437151
        },
        "location_type": "GEOMETRIC_CENTER",
        "viewport": {
          "northeast": {
            "lat": 43.0294583802915,
            "lng": 141.4385003302915
          },
          "southwest": {
            "lat": 43.0267604197085,
            "lng": 141.4358023697085
          }
        }
      },
      "place_id": "ChIJc9KbmRErC18RYN9WvK0heLE",
      "types": [
        "route"
      ]
    },
    {
      "address_components": [
        {
          "long_name": "１",
          "short_name": "１",
          "types": [
            "political",
            "sublocality",
            "sublocality_level_4"
          ]
        },
        {
          "long_name": "２０南",
          "short_name": "２０南",
          "types": [
            "political",
            "sublocality",
            "sublocality_level_3"
          ]
        },
        {
          "long_name": "南郷通",
          "short_name": "南郷通",
          "types": [
            "political",
            "sublocality",
            "sublocality_level_2"
          ]
        },
        {
          "long_name": "白石区",
          "short_name": "白石区",
          "types": [
            "political",
            "sublocality",
            "sublocality_level_1"
          ]
        },
        {
          "long_name": "札幌市",
          "short_name": "札幌市",
          "types": [
            "locality",
            "political"
          ]
        },
        {
          "long_name": "北海道",
          "short_name": "北海道",
          "types": [
            "administrative_area_level_1",
            "political"
          ]
        },
        {
          "long_name": "日本",
          "short_name": "JP",
          "types": [
            "country",
            "political"
          ]
        },
        {
          "long_name": "003-0022",
          "short_name": "003-0022",
          "types": [
            "postal_code"
          ]
        }
      ],
      "formatted_address": "日本、〒003-0022 北海道札幌市白石区南郷通２０南１",
      "geometry": {
        "bounds": {
          "northeast": {
            "lat": 43.028661,
            "lng": 141.4391409
          },
          "southwest": {
            "lat": 43.027241,
            "lng": 141.4367029
          }
        },
        "location": {
          "lat": 43.0281378,
          "lng": 141.4381158
        },
        "location_type": "GEOMETRIC_CENTER",
        "viewport": {
          "northeast": {
            "lat": 43.0292999802915,
            "lng": 141.4392708802915
          },
          "southwest": {
            "lat": 43.0266020197085,
            "lng": 141.4365729197085
          }
        }
      },
      "place_id": "ChIJz-JnnRErC18RAQGysqTnBmw",
      "types": [
        "political",
        "sublocality",
        "sublocality_level_4"
      ]
    },
    {
      "address_components": [
        {
          "long_name": "２０南",
          "short_name": "２０南",
          "types": [
            "political",
            "sublocality",
            "sublocality_level_3"
          ]
        },
        {
          "long_name": "南郷通",
          "short_name": "南郷通",
          "types": [
            "political",
            "sublocality",
            "sublocality_level_2"
          ]
        },
        {
          "long_name": "白石区",
          "short_name": "白石区",
          "types": [
            "political",
            "sublocality",
            "sublocality_level_1"
          ]
        },
        {
          "long_name": "札幌市",
          "short_name": "札幌市",
          "types": [
            "locality",
            "political"
          ]
        },
        {
          "long_name": "北海道",
          "short_name": "北海道",
          "types": [
            "administrative_area_level_1",
            "political"
          ]
        },
        {
          "long_name": "日本",
          "short_name": "JP",
          "types": [
            "country",
            "political"
          ]
        },
        {
          "long_name": "003-0022",
          "short_name": "003-0022",
          "types": [
            "postal_code"
          ]
        }
      ],
      "formatted_address": "日本、〒003-0022 北海道札幌市白石区南郷通２０南",
      "geometry": {
        "bounds": {
          "northeast": {
            "lat": 43.029748,
            "lng": 141.4414079
          },
          "southwest": {
            "lat": 43.026641,
            "lng": 141.4367029
          }
        },
        "location": {
          "lat": 43.0282059,
          "lng": 141.4395142
        },
        "location_type": "APPROXIMATE",
        "viewport": {
          "northeast": {
            "lat": 43.029748,
            "lng": 141.4414079
          },
          "southwest": {
            "lat": 43.026641,
            "lng": 141.4367029
          }
        }
      },
      "place_id": "ChIJsUCf1RMrC18RQ8h8Z2sPVno",
      "types": [
        "political",
        "sublocality",
        "sublocality_level_3"
      ]
    },
    {
      "address_components": [
        {
          "long_name": "003-0022",
          "short_name": "003-0022",
          "types": [
            "postal_code"
          ]
        },
        {
          "long_name": "南郷通",
          "short_name": "南郷通",
          "types": [
            "political",
            "sublocality",
            "sublocality_level_2"
          ]
        },
        {
          "long_name": "白石区",
          "short_name": "白石区",
          "types": [
            "political",
            "sublocality",
            "sublocality_level_1"
          ]
        },
        {
          "long_name": "札幌市",
          "short_name": "札幌市",
          "types": [
            "locality",
            "political"
          ]
        },
        {
          "long_name": "北海道",
          "short_name": "北海道",
          "types": [
            "administrative_area_level_1",
            "political"
          ]
        },
        {
          "long_name": "日本",
          "short_name": "JP",
          "types": [
            "country",
            "political"
          ]
        }
      ],
      "formatted_address": "日本 〒003-0022",
      "geometry": {
        "bounds": {
          "northeast": {
            "lat": 43.0461108,
            "lng": 141.4451462
          },
          "southwest": {
            "lat": 43.0256662,
            "lng": 141.3944083
          }
        },
        "location": {
          "lat": 43.0361477,
          "lng": 141.4177714
        },
        "location_type": "APPROXIMATE",
        "viewport": {
          "northeast": {
            "lat": 43.0461108,
            "lng": 141.4451462
          },
          "southwest": {
            "lat": 43.0256662,
            "lng": 141.3944083
          }
        }
      },
      "place_id": "ChIJMSSU7a8rC18RwNwq7rQwu9k",
      "types": [
        "postal_code"
      ]
    },
    {
      "address_components": [
        {
          "long_name": "南郷通",
          "short_name": "南郷通",
          "types": [
            "political",
            "sublocality",
            "sublocality_level_2"
          ]
        },
        {
          "long_name": "白石区",
          "short_name": "白石区",
          "types": [
            "political",
            "sublocality",
            "sublocality_level_1"
          ]
        },
        {
          "long_name": "札幌市",
          "short_name": "札幌市",
          "types": [
            "locality",
            "political"
          ]
        },
        {
          "long_name": "北海道",
          "short_name": "北海道",
          "types": [
            "administrative_area_level_1",
            "political"
          ]
        },
        {
          "long_name": "日本",
          "short_name": "JP",
          "types": [
            "country",
            "political"
          ]
        }
      ],
      "formatted_address": "日本、北海道札幌市白石区南郷通",
      "geometry": {
        "bounds": {
          "northeast": {
            "lat": 43.04847700000001,
            "lng": 141.445146
          },
          "southwest": {
            "lat": 43.025668,
            "lng": 141.394408
          }
        },
        "location": {
          "lat": 43.0361477,
          "lng": 141.4177714
        },
        "location_type": "APPROXIMATE",
        "viewport": {
          "northeast": {
            "lat": 43.04847700000001,
            "lng": 141.445146
          },
          "southwest": {
            "lat": 43.025668,
            "lng": 141.394408
          }
        }
      },
      "place_id": "ChIJa8eOtqcrC18RtU2mFXYTSQs",
      "types": [
        "political",
        "sublocality",
        "sublocality_level_2"
      ]
    },
    {
      "address_components": [
        {
          "long_name": "白石区",
          "short_name": "白石区",
          "types": [
            "political",
            "sublocality",
            "sublocality_level_1"
          ]
        },
        {
          "long_name": "札幌市",
          "short_name": "札幌市",
          "types": [
            "locality",
            "political"
          ]
        },
        {
          "long_name": "北海道",
          "short_name": "北海道",
          "types": [
            "administrative_area_level_1",
            "political"
          ]
        },
        {
          "long_name": "日本",
          "short_name": "JP",
          "types": [
            "country",
            "political"
          ]
        }
      ],
      "formatted_address": "日本、北海道札幌市白石区",
      "geometry": {
        "bounds": {
          "northeast": {
            "lat": 43.1001181,
            "lng": 141.4734834
          },
          "southwest": {
            "lat": 43.0221685,
            "lng": 141.3665909
          }
        },
        "location": {
          "lat": 43.0623511,
          "lng": 141.4132777
        },
        "location_type": "APPROXIMATE",
        "viewport": {
          "northeast": {
            "lat": 43.1001181,
            "lng": 141.4734834
          },
          "southwest": {
            "lat": 43.0221685,
            "lng": 141.3665909
          }
        }
      },
      "place_id": "ChIJywkCoPErC18Rq88yITxl5z0",
      "types": [
        "political",
        "sublocality",
        "sublocality_level_1"
      ]
    },
    {
      "address_components": [
        {
          "long_name": "札幌市",
          "short_name": "札幌市",
          "types": [
            "locality",
            "political"
          ]
        },
        {
          "long_name": "北海道",
          "short_name": "北海道",
          "types": [
            "administrative_area_level_1",
            "political"
          ]
        },
        {
          "long_name": "日本",
          "short_name": "JP",
          "types": [
            "country",
            "political"
          ]
        }
      ],
      "formatted_address": "日本、北海道札幌市",
      "geometry": {
        "bounds": {
          "northeast": {
            "lat": 43.190037,
            "lng": 141.5054669
          },
          "southwest": {
            "lat": 42.780728,
            "lng": 140.990491
          }
        },
        "location": {
          "lat": 43.0617713,
          "lng": 141.3544507
        },
        "location_type": "APPROXIMATE",
        "viewport": {
          "northeast": {
            "lat": 43.190037,
            "lng": 141.5054669
          },
          "southwest": {
            "lat": 42.780728,
            "lng": 140.990491
          }
        }
      },
      "place_id": "ChIJMzaXWnXUCl8R1bqHRp1-kzM",
      "types": [
        "locality",
        "political"
      ]
    },
    {
      "address_components": [
        {
          "long_name": "北海道",
          "short_name": "北海道",
          "types": [
            "administrative_area_level_1",
            "political"
          ]
        },
        {
          "long_name": "日本",
          "short_name": "JP",
          "types": [
            "country",
            "political"
          ]
        }
      ],
      "formatted_address": "日本、北海道",
      "geometry": {
        "bounds": {
          "northeast": {
            "lat": 45.5265181,
            "lng": 145.817624
          },
          "southwest": {
            "lat": 41.3516002,
            "lng": 139.3340799
          }
        },
        "location": {
          "lat": 43.2203266,
          "lng": 142.8634737
        },
        "location_type": "APPROXIMATE",
        "viewport": {
          "northeast": {
            "lat": 45.5265181,
            "lng": 145.817624
          },
          "southwest": {
            "lat": 41.3516002,
            "lng": 139.3340799
          }
        }
      },
      "place_id": "ChIJi4hsnyBZn18RjwPOT1bDPBw",
      "types": [
        "administrative_area_level_1",
        "political"
      ]
    },
    {
      "address_components": [
        {
          "long_name": "日本",
          "short_name": "JP",
          "types": [
            "country",
            "political"
          ]
        }
      ],
      "formatted_address": "日本",
      "geometry": {
        "bounds": {
          "northeast": {
            "lat": 45.6412626,
            "lng": 154.0031455
          },
          "southwest": {
            "lat": 20.3585295,
            "lng": 122.8554688
          }
        },
        "location": {
          "lat": 36.204824,
          "lng": 138.252924
        },
        "location_type": "APPROXIMATE",
        "viewport": {
          "northeast": {
            "lat": 45.6412626,
            "lng": 154.0031455
          },
          "southwest": {
            "lat": 20.3585295,
            "lng": 122.8554688
          }
        }
      },
      "place_id": "ChIJLxl_1w9OZzQRRFJmfNR1QvU",
      "types": [
        "country",
        "political"
      ]
    }
  ]
}