{
  "station": "北竜",
  "lat": 43.78475,
  "lng": 141.905972,
  "plus_code": {
    "compound_code": "QWM4+W9 日本、北海道沼田町",
    "global_code": "8RM3QWM4+W9"
  },
  "results": [
    {
      "access_points": [

      ],
      "address_components": [
        {
          "long_name": "国道275号",
          "short_name": "国道275号",
          "types": [
            "route"
          ]
        },
        {
          "long_name": "字北竜",
          "short_name": "字北竜",
          "types": [
            "political",
            "sublocality",
            "sublocality_level_2"
          ]
        },
        {
          "long_name": "沼田町",
          "short_name": "沼田町",
          "types": [
            "locality",
            "political"
          ]
        },
        {
          "long_name": "雨竜郡",
          "short_name": "雨竜郡",
          "types": [
            "administrative_area_level_2",
            "political"
          ]
        },
        {
          "long_name": "北海道",
          "short_name": "北海道",
          "types": [
            "administrative_area_level_1",
            "political"
          ]
        },
        {
          "long_name": "日本",
          "short_name": "JP",
          "types": [
            "country",
            "political"
          ]
        },
        {
          "long_name": "078-2223",
          "short_name": "078-2223",
          "types": [
            "postal_code"
          ]
        }
      ],
      "formatted_address": "日本、〒078-2223 北海道雨竜郡沼田町字北竜 国道275号",
      "geometry": {
        "bounds": {
          "northeast": {
            "lat": 43.7851773,
            "lng": 141.9095492
          },
          "southwest": {
            "lat": 43.7846528,
            "lng": 141.9094482
          }
        },
        "location": {
          "lat": 43.7849151,
          "lng": 141.9094987
        },
        "location_type": "GEOMETRIC_CENTER",
        "viewport": {
          "northeast": {
            "lat": 43.7862640302915,
            "lng": 141.9108476802915
          },
          "southwest": {
            "lat": 43.7835660697085,
            "lng": 141.9081497197085
          }
        }
      },
      "place_id": "ChIJwf4Y8ZyLDF8R-GWXdS1572E",
      "types": [
        "route"
      ]
    },
    {
      "access_points": [

      ],
      "address_components": [
        {
          "long_name": "078-2223",
          "short_name": "078-2223",
          "types": [
            "postal_code"
          ]
        },
        {
          "long_name": "字北竜",
          "short_name": "字北竜",
          "types": [
            "political",
            "sublocality",
            "sublocality_level_2"
          ]
        },
        {
          "long_name": "沼田町",
          "short_name": "沼田町",
          "types": [
            "locality",
            "political"
          ]
        },
        {
          "long_name": "雨竜郡",
          "short_name": "雨竜郡",
          "types": [
            "administrative_area_level_2",
            "political"
          ]
        },
        {
          "long_name": "北海道",
          "short_name": "北海道",
          "types": [
            "administrative_area_level_1",
            "political"
          ]
        },
        {
          "long_name": "日本",
          "short_name": "JP",
          "types": [
            "country",
            "political"
          ]
        }
      ],
      "formatted_address": "日本 〒078-2223",
      "geometry": {
        "bounds": {
          "northeast": {
            "lat": 43.8382781,
            "lng": 141.9147769
          },
          "southwest": {
            "lat": 43.7678962,
            "lng": 141.8654763
          }
        },
        "location": {
          "lat": 43.803813,
          "lng": 141.8960017
        },
        "location_type": "APPROXIMATE",
        "viewport": {
          "northeast": {
            "lat": 43.8382781,
            "lng": 141.9147769
          },
          "southwest": {
            "lat": 43.7678962,
            "lng": 141.8654763
          }
        }
      },
      "place_id": "ChIJq_Hh2J2LDF8RWnHvgKer9dY",
      "types": [
        "postal_code"
      ]
    },
    {
      "access_points": [

      ],
      "address_components": [
        {
          "long_name": "字北竜",
          "short_name": "字北竜",
          "types": [
            "political",
            "sublocality",
            "sublocality_level_2"
          ]
        },
        {
          "long_name": "沼田町",
          "short_name": "沼田町",
          "types": [
            "locality",
            "political"
          ]
        },
        {
          "long_name": "雨竜郡",
          "short_name": "雨竜郡",
          "types": [
            "administrative_area_level_2",
            "political"
          ]
        },
        {
          "long_name": "北海道",
          "short_name": "北海道",
          "types": [
            "administrative_area_level_1",
            "political"
          ]
        },
        {
          "long_name": "日本",
          "short_name": "JP",
          "types": [
            "country",
            "political"
          ]
        },
        {
          "long_name": "078-2223",
          "short_name": "078-2223",
          "types": [
            "postal_code"
          ]
        }
      ],
      "formatted_address": "日本、〒078-2223 北海道雨竜郡沼田町字北竜",
      "geometry": {
        "bounds": {
          "northeast": {
            "lat": 43.838951,
            "lng": 141.9147769
          },
          "southwest": {
            "lat": 43.767896,
            "lng": 141.8654761
          }
        },
        "location": {
          "lat": 43.803813,
          "lng": 141.8960017
        },
        "location_type": "APPROXIMATE",
        "viewport": {
          "northeast": {
            "lat": 43.838951,
            "lng": 141.9147769
          },
          "southwest": {
            "lat": 43.767896,
            "lng": 141.8654761
          }
        }
      },
      "place_id": "ChIJc1MPZqaLDF8R4zQoxJt5tjc",
      "types": [
        "political",
        "sublocality",
        "sublocality_level_2"
      ]
    },
    {
      "access_points": [

      ],
      "address_components": [
        {
          "long_name": "沼田町",
          "short_name": "沼田町",
          "types": [
            "locality",
            "political"
          ]
        },
        {
          "long_name": "雨竜郡",
          "short_name": "雨竜郡",
          "types": [
            "administrative_area_level_2",
            "political"
          ]
        },
        {
          "long_name": "北海道",
          "short_name": "北海道",
          "types": [
            "administrative_area_level_1",
            "political"
          ]
        },
        {
          "long_name": "日本",
          "short_name": "JP",
          "types": [
            "country",
            "political"
          ]
        }
      ],
      "formatted_address": "日本、北海道雨竜郡沼田町",
      "geometry": {
        "bounds": {
          "northeast": {
            "lat": 44.006327,
            "lng": 142.0856941
          },
          "southwest": {
            "lat": 43.7675099,
            "lng": 141.8584381
          }
        },
        "location": {
          "lat": 43.8068287,
          "lng": 141.9334172
        },
        "location_type": "APPROXIMATE",
        "viewport": {
          "northeast": {
            "lat": 44.006327,
            "lng": 142.0856941
          },
          "southwest": {
            "lat": 43.7675099,
            "lng": 141.8584381
          }
        }
      },
      "place_id": "ChIJt2Amt1BfDF8RuEu1v3_Lvos",
      "types": [
        "locality",
        "political"
      ]
    },
    {
      "access_points": [

      ],
      "address_components": [
        {
          "long_name": "雨竜郡",
          "short_name": "雨竜郡",
          "types": [
            "administrative_area_level_2",
            "political"
          ]
        },
        {
          "long_name": "北海道",
          "short_name": "北海道",
          "types": [
            "administrative_area_level_1",
            "political"
          ]
        },
        {
          "long_name": "日本",
          "short_name": "JP",
          "types": [
            "country",
            "political"
          ]
        }
      ],
      "formatted_address": "日本、北海道雨竜郡",
      "geometry": {
        "bounds": {
          "northeast": {
            "lat": 44.4787571,
            "lng": 142.3239735
          },
          "southwest": {
            "lat": 43.6069629,
            "lng": 141.5229191
          }
        },
        "location": {
          "lat": 43.7147286,
          "lng": 141.8706657
        },
        "location_type": "APPROXIMATE",
        "viewport": {
          "northeast": {
            "lat": 44.4787571,
            "lng": 142.3239735
          },
          "southwest": {
            "lat": 43.6069629,
            "lng": 141.5229191
          }
        }
      },
      "place_id": "ChIJ98u29O9PDF8RNohcbWoWOrM",
      "types": [
        "administrative_area_level_2",
        "political"
      ]
    },
    {
      "access_points": [

      ],
      "address_components": [
        {
          "long_name": "北海道",
          "short_name": "北海道",
          "types": [
            "administrative_area_level_1",
            "political"
          ]
        },
        {
          "long_name": "日本",
          "short_name": "JP",
          "types": [
            "country",
            "political"
          ]
        }
      ],
      "formatted_address": "日本、北海道",
      "geometry": {
        "bounds": {
          "northeast": {
            "lat": 45.5265181,
            "lng": 145.817624
          },
          "southwest": {
            "lat": 41.3516002,
            "lng": 139.3340799
          }
        },
        "location": {
          "lat": 43.2203266,
          "lng": 142.8634737
        },
        "location_type": "APPROXIMATE",
        "viewport": {
          "northeast": {
            "lat": 45.5265181,
            "lng": 145.817624
          },
          "southwest": {
            "lat": 41.3516002,
            "lng": 139.3340799
          }
        }
      },
      "place_id": "ChIJi4hsnyBZn18RjwPOT1bDPBw",
      "types": [
        "administrative_area_level_1",
        "political"
      ]
    },
    {
      "access_points": [

      ],
      "address_components": [
        {
          "long_name": "日本",
          "short_name": "JP",
          "types": [
            "country",
            "political"
          ]
        }
      ],
      "formatted_address": "日本",
      "geometry": {
        "bounds": {
          "northeast": {
            "lat": 45.6412626,
            "lng": 154.0031455
          },
          "southwest": {
            "lat": 20.3585295,
            "lng": 122.8554688
          }
        },
        "location": {
          "lat": 36.204824,
          "lng": 138.252924
        },
        "location_type": "APPROXIMATE",
        "viewport": {
          "northeast": {
            "lat": 45.6412626,
            "lng": 154.0031455
          },
          "southwest": {
            "lat": 20.3585295,
            "lng": 122.8554688
          }
        }
      },
      "place_id": "ChIJLxl_1w9OZzQRRFJmfNR1QvU",
      "types": [
        "country",
        "political"
      ]
    }
  ]
}