{
  "station": "北興",
  "lat": 44.449444,
  "lng": 143.082778,
  "plus_code": {
    "compound_code": "C3XM+Q4 日本、北海道興部町",
    "global_code": "8RP5C3XM+Q4"
  },
  "results": [
    {
      "access_points": [

      ],
      "address_components": [
        {
          "long_name": "国道239号",
          "short_name": "国道239号",
          "types": [
            "route"
          ]
        },
        {
          "long_name": "字北興",
          "short_name": "字北興",
          "types": [
            "political",
            "sublocality",
            "sublocality_level_2"
          ]
        },
        {
          "long_name": "興部町",
          "short_name": "興部町",
          "types": [
            "locality",
            "political"
          ]
        },
        {
          "long_name": "紋別郡",
          "short_name": "紋別郡",
          "types": [
            "administrative_area_level_2",
            "political"
          ]
        },
        {
          "long_name": "北海道",
          "short_name": "北海道",
          "types": [
            "administrative_area_level_1",
            "political"
          ]
        },
        {
          "long_name": "日本",
          "short_name": "JP",
          "types": [
            "country",
            "political"
          ]
        },
        {
          "long_name": "098-1622",
          "short_name": "098-1622",
          "types": [
            "postal_code"
          ]
        }
      ],
      "formatted_address": "日本、〒098-1622 北海道紋別郡興部町字北興 国道239号",
      "geometry": {
        "bounds": {
          "northeast": {
            "lat": 44.4490454,
            "lng": 143.0832334
          },
          "southwest": {
            "lat": 44.4487829,
            "lng": 143.082814
          }
        },
        "location": {
          "lat": 44.4489142,
          "lng": 143.0830237
        },
        "location_type": "GEOMETRIC_CENTER",
        "viewport": {
          "northeast": {
            "lat": 44.4502631302915,
            "lng": 143.0843726802915
          },
          "southwest": {
            "lat": 44.4475651697085,
            "lng": 143.0816747197085
          }
        }
      },
      "place_id": "ChIJgWvB4_F6El8RgkUOywpsKgI",
      "types": [
        "route"
      ]
    },
    {
      "access_points": [

      ],
      "address_components": [
        {
          "long_name": "098-1622",
          "short_name": "098-1622",
          "types": [
            "postal_code"
          ]
        },
        {
          "long_name": "字北興",
          "short_name": "字北興",
          "types": [
            "political",
            "sublocality",
            "sublocality_level_2"
          ]
        },
        {
          "long_name": "興部町",
          "short_name": "興部町",
          "types": [
            "locality",
            "political"
          ]
        },
        {
          "long_name": "紋別郡",
          "short_name": "紋別郡",
          "types": [
            "administrative_area_level_2",
            "political"
          ]
        },
        {
          "long_name": "北海道",
          "short_name": "北海道",
          "types": [
            "administrative_area_level_1",
            "political"
          ]
        },
        {
          "long_name": "日本",
          "short_name": "JP",
          "types": [
            "country",
            "political"
          ]
        }
      ],
      "formatted_address": "日本 〒098-1622",
      "geometry": {
        "bounds": {
          "northeast": {
            "lat": 44.4664834,
            "lng": 143.1236967
          },
          "southwest": {
            "lat": 44.4162143,
            "lng": 143.0431753
          }
        },
        "location": {
          "lat": 44.44621679999999,
          "lng": 143.0875028
        },
        "location_type": "APPROXIMATE",
        "viewport": {
          "northeast": {
            "lat": 44.4664834,
            "lng": 143.1236967
          },
          "southwest": {
            "lat": 44.4162143,
            "lng": 143.0431753
          }
        }
      },
      "place_id": "ChIJyQxfGcF6El8Rql6I2nGTvaQ",
      "types": [
        "postal_code"
      ]
    },
    {
      "access_points": [

      ],
      "address_components": [
        {
          "long_name": "字北興",
          "short_name": "字北興",
          "types": [
            "political",
            "sublocality",
            "sublocality_level_2"
          ]
        },
        {
          "long_name": "興部町",
          "short_name": "興部町",
          "types": [
            "locality",
            "political"
          ]
        },
        {
          "long_name": "紋別郡",
          "short_name": "紋別郡",
          "types": [
            "administrative_area_level_2",
            "political"
          ]
        },
        {
          "long_name": "北海道",
          "short_name": "北海道",
          "types": [
            "administrative_area_level_1",
            "political"
          ]
        },
        {
          "long_name": "日本",
          "short_name": "JP",
          "types": [
            "country",
            "political"
          ]
        }
      ],
      "formatted_address": "日本、北海道紋別郡興部町字北興",
      "geometry": {
        "bounds": {
          "northeast": {
            "lat": 44.4664829,
            "lng": 143.1236971
          },
          "southwest": {
            "lat": 44.416214,
            "lng": 143.042598
          }
        },
        "location": {
          "lat": 44.44621679999999,
          "lng": 143.0875028
        },
        "location_type": "APPROXIMATE",
        "viewport": {
          "northeast": {
            "lat": 44.4664829,
            "lng": 143.1236971
          },
          "southwest": {
            "lat": 44.416214,
            "lng": 143.042598
          }
        }
      },
      "place_id": "ChIJozcb61Z6El8RRqXMMc7Ku5g",
      "types": [
        "political",
        "sublocality",
        "sublocality_level_2"
      ]
    },
    {
      "access_points": [

      ],
      "address_components": [
        {
          "long_name": "興部町",
          "short_name": "興部町",
          "types": [
            "locality",
            "political"
          ]
        },
        {
          "long_name": "紋別郡",
          "short_name": "紋別郡",
          "types": [
            "administrative_area_level_2",
            "political"
          ]
        },
        {
          "long_name": "北海道",
          "short_name": "北海道",
          "types": [
            "administrative_area_level_1",
            "political"
          ]
        },
        {
          "long_name": "日本",
          "short_name": "JP",
          "types": [
            "country",
            "political"
          ]
        }
      ],
      "formatted_address": "日本、北海道紋別郡興部町",
      "geometry": {
        "bounds": {
          "northeast": {
            "lat": 44.497955,
            "lng": 143.2761009
          },
          "southwest": {
            "lat": 44.286492,
            "lng": 142.856164
          }
        },
        "location": {
          "lat": 44.4698144,
          "lng": 143.1240523
        },
        "location_type": "APPROXIMATE",
        "viewport": {
          "northeast": {
            "lat": 44.497955,
            "lng": 143.2761009
          },
          "southwest": {
            "lat": 44.286492,
            "lng": 142.856164
          }
        }
      },
      "place_id": "ChIJD1NA8lZ5El8RhzBpBjSyuL4",
      "types": [
        "locality",
        "political"
      ]
    },
    {
      "access_points": [

      ],
      "address_components": [
        {
          "long_name": "紋別郡",
          "short_name": "紋別郡",
          "types": [
            "administrative_area_level_2",
            "political"
          ]
        },
        {
          "long_name": "北海道",
          "short_name": "北海道",
          "types": [
            "administrative_area_level_1",
            "political"
          ]
        },
        {
          "long_name": "日本",
          "short_name": "JP",
          "types": [
            "country",
            "political"
          ]
        }
      ],
      "formatted_address": "日本、北海道紋別郡",
      "geometry": {
        "bounds": {
          "northeast": {
            "lat": 44.6884258,
            "lng": 143.7762951
          },
          "southwest": {
            "lat": 43.69675790000001,
            "lng": 142.5835875
          }
        },
        "location": {
          "lat": 44.3891946,
          "lng": 143.0769131
        },
        "location_type": "APPROXIMATE",
        "viewport": {
          "northeast": {
            "lat": 44.6884258,
            "lng": 143.7762951
          },
          "southwest": {
            "lat": 43.69675790000001,
            "lng": 142.5835875
          }
        }
      },
      "place_id": "ChIJ6XnFej99DV8RhiZFqDLARXY",
      "types": [
        "administrative_area_level_2",
        "political"
      ]
    },
    {
      "access_points": [

      ],
      "address_components": [
        {
          "long_name": "北海道",
          "short_name": "北海道",
          "types": [
            "administrative_area_level_1",
            "political"
          ]
        },
        {
          "long_name": "日本",
          "short_name": "JP",
          "types": [
            "country",
            "political"
          ]
        }
      ],
      "formatted_address": "日本、北海道",
      "geometry": {
        "bounds": {
          "northeast": {
            "lat": 45.5265181,
            "lng": 145.817624
          },
          "southwest": {
            "lat": 41.3516002,
            "lng": 139.3340799
          }
        },
        "location": {
          "lat": 43.2203266,
          "lng": 142.8634737
        },
        "location_type": "APPROXIMATE",
        "viewport": {
          "northeast": {
            "lat": 45.5265181,
            "lng": 145.817624
          },
          "southwest": {
            "lat": 41.3516002,
            "lng": 139.3340799
          }
        }
      },
      "place_id": "ChIJi4hsnyBZn18RjwPOT1bDPBw",
      "types": [
        "administrative_area_level_1",
        "political"
      ]
    },
    {
      "access_points": [

      ],
      "address_components": [
        {
          "long_name": "日本",
          "short_name": "JP",
          "types": [
            "country",
            "political"
          ]
        }
      ],
      "formatted_address": "日本",
      "geometry": {
        "bounds": {
          "northeast": {
            "lat": 45.6412626,
            "lng": 154.0031455
          },
          "southwest": {
            "lat": 20.3585295,
            "lng": 122.8554688
          }
        },
        "location": {
          "lat": 36.204824,
          "lng": 138.252924
        },
        "location_type": "APPROXIMATE",
        "viewport": {
          "northeast": {
            "lat": 45.6412626,
            "lng": 154.0031455
          },
          "southwest": {
            "lat": 20.3585295,
            "lng": 122.8554688
          }
        }
      },
      "place_id": "ChIJLxl_1w9OZzQRRFJmfNR1QvU",
      "types": [
        "country",
        "political"
      ]
    }
  ]
}