{
  "station": "上武佐",
  "lat": 43.617222,
  "lng": 144.998333,
  "plus_code": {
    "compound_code": "JX8X+V8 日本、北海道中標津町",
    "global_code": "8RM6JX8X+V8"
  },
  "results": [
    {
      "access_points": [
        {
          "access_point_type": "TYPE_SEGMENT",
          "location": {
            "latitude": 43.6171805,
            "longitude": 144.9983058
          },
          "location_on_segment": {
            "latitude": 43.6171237,
            "longitude": 144.9982683
          },
          "place_id": "ChIJuYYiSPCobV8RAtJlKtcR8Hc",
          "segment_position": 0.983614444732666,
          "unsuitable_travel_modes": [

          ]
        }
      ],
      "address_components": [
        {
          "long_name": "９５７−６",
          "short_name": "９５７−６",
          "types": [
            "premise"
          ]
        },
        {
          "long_name": "字武佐",
          "short_name": "字武佐",
          "types": [
            "political",
            "sublocality",
            "sublocality_level_2"
          ]
        },
        {
          "long_name": "中標津町",
          "short_name": "中標津町",
          "types": [
            "locality",
            "political"
          ]
        },
        {
          "long_name": "標津郡",
          "short_name": "標津郡",
          "types": [
            "administrative_area_level_2",
            "political"
          ]
        },
        {
          "long_name": "北海道",
          "short_name": "北海道",
          "types": [
            "administrative_area_level_1",
            "political"
          ]
        },
        {
          "long_name": "日本",
          "short_name": "JP",
          "types": [
            "country",
            "political"
          ]
        },
        {
          "long_name": "086-1271",
          "short_name": "086-1271",
          "types": [
            "postal_code"
          ]
        }
      ],
      "formatted_address": "日本、〒086-1271 北海道標津郡中標津町字武佐９５７−６",
      "geometry": {
        "location": {
          "lat": 43.6172222,
          "lng": 144.9983333
        },
        "location_type": "ROOFTOP",
        "viewport": {
          "northeast": {
            "lat": 43.6185711802915,
            "lng": 144.9996822802915
          },
          "southwest": {
            "lat": 43.6158732197085,
            "lng": 144.9969843197085
          }
        }
      },
      "place_id": "ChIJo0xSOPCobV8R4m-nvN2crkw",
      "plus_code": {
        "compound_code": "JX8X+V8 日本、北海道中標津町",
        "global_code": "8RM6JX8X+V8"
      },
      "types": [
        "establishment",
        "point_of_interest"
      ]
    },
    {
      "access_points": [

      ],
      "address_components": [
        {
          "long_name": "９５７−６",
          "short_name": "９５７−６",
          "types": [
            "premise"
          ]
        },
        {
          "long_name": "字武佐",
          "short_name": "字武佐",
          "types": [
            "political",
            "sublocality",
            "sublocality_level_2"
          ]
        },
        {
          "long_name": "中標津町",
          "short_name": "中標津町",
          "types": [
            "locality",
            "political"
          ]
        },
        {
          "long_name": "標津郡",
          "short_name": "標津郡",
          "types": [
            "administrative_area_level_2",
            "political"
          ]
        },
        {
          "long_name": "北海道",
          "short_name": "北海道",
          "types": [
            "administrative_area_level_1",
            "political"
          ]
        },
        {
          "long_name": "日本",
          "short_name": "JP",
          "types": [
            "country",
            "political"
          ]
        },
        {
          "long_name": "086-1271",
          "short_name": "086-1271",
          "types": [
            "postal_code"
          ]
        }
      ],
      "formatted_address": "日本、〒086-1271 北海道標津郡中標津町字武佐９５７−６",
      "geometry": {
        "location": {
          "lat": 43.6172222,
          "lng": 144.9983333
        },
        "location_type": "ROOFTOP",
        "viewport": {
          "northeast": {
            "lat": 43.6185711802915,
            "lng": 144.9996822802915
          },
          "southwest": {
            "lat": 43.6158732197085,
            "lng": 144.9969843197085
          }
        }
      },
      "place_id": "ChIJo0xSOPCobV8RvHt9ueDxHXk",
      "plus_code": {
        "compound_code": "JX8X+V8 日本、北海道中標津町",
        "global_code": "8RM6JX8X+V8"
      },
      "types": [
        "street_address"
      ]
    },
    {
      "access_points": [

      ],
      "address_components": [
        {
          "long_name": "上武佐",
          "short_name": "上武佐",
          "types": [
            "bus_station",
            "establishment",
            "point_of_interest",
            "transit_station"
          ]
        },
        {
          "long_name": "字武佐",
          "short_name": "字武佐",
          "types": [
            "political",
            "sublocality",
            "sublocality_level_2"
          ]
        },
        {
          "long_name": "中標津町",
          "short_name": "中標津町",
          "types": [
            "locality",
            "political"
          ]
        },
        {
          "long_name": "標津郡",
          "short_name": "標津郡",
          "types": [
            "administrative_area_level_2",
            "political"
          ]
        },
        {
          "long_name": "北海道",
          "short_name": "北海道",
          "types": [
            "administrative_area_level_1",
            "political"
          ]
        },
        {
          "long_name": "日本",
          "short_name": "JP",
          "types": [
            "country",
            "political"
          ]
        },
        {
          "long_name": "086-1271",
          "short_name": "086-1271",
          "types": [
            "postal_code"
          ]
        }
      ],
      "formatted_address": "日本、〒086-1271 北海道標津郡中標津町字武佐 上武佐",
      "geometry": {
        "location": {
          "lat": 43.617529,
          "lng": 144.997723
        },
        "location_type": "GEOMETRIC_CENTER",
        "viewport": {
          "northeast": {
            "lat": 43.61887798029149,
            "lng": 144.9990719802915
          },
          "southwest": {
            "lat": 43.61618001970849,
            "lng": 144.9963740197085
          }
        }
      },
      "place_id": "ChIJ8w7xRfCobV8RsZXH9McqVvE",
      "plus_code": {
        "compound_code": "JX9X+23 日本、北海道中標津町",
        "global_code": "8RM6JX9X+23"
      },
      "types": [
        "bus_station",
        "establishment",
        "point_of_interest",
        "transit_station"
      ]
    },
    {
      "access_points": [

      ],
      "address_components": [
        {
          "long_name": "川北中標津線",
          "short_name": "道道774号",
          "types": [
            "route"
          ]
        },
        {
          "long_name": "字武佐",
          "short_name": "字武佐",
          "types": [
            "political",
            "sublocality",
            "sublocality_level_2"
          ]
        },
        {
          "long_name": "中標津町",
          "short_name": "中標津町",
          "types": [
            "locality",
            "political"
          ]
        },
        {
          "long_name": "標津郡",
          "short_name": "標津郡",
          "types": [
            "administrative_area_level_2",
            "political"
          ]
        },
        {
          "long_name": "北海道",
          "short_name": "北海道",
          "types": [
            "administrative_area_level_1",
            "political"
          ]
        },
        {
          "long_name": "日本",
          "short_name": "JP",
          "types": [
            "country",
            "political"
          ]
        },
        {
          "long_name": "086-1271",
          "short_name": "086-1271",
          "types": [
            "postal_code"
          ]
        }
      ],
      "formatted_address": "日本、〒086-1271 北海道標津郡中標津町字武佐 道道774号",
      "geometry": {
        "bounds": {
          "northeast": {
            "lat": 43.617423,
            "lng": 144.9975859
          },
          "southwest": {
            "lat": 43.6173727,
            "lng": 144.9975499
          }
        },
        "location": {
          "lat": 43.6173979,
          "lng": 144.9975679
        },
        "location_type": "GEOMETRIC_CENTER",
        "viewport": {
          "northeast": {
            "lat": 43.6187468302915,
            "lng": 144.9989168802915
          },
          "southwest": {
            "lat": 43.6160488697085,
            "lng": 144.9962189197085
          }
        }
      },
      "place_id": "ChIJWYjVSPCobV8RNGlo9HS69LY",
      "types": [
        "route"
      ]
    },
    {
      "access_points": [

      ],
      "address_components": [
        {
          "long_name": "字武佐",
          "short_name": "字武佐",
          "types": [
            "political",
            "sublocality",
            "sublocality_level_2"
          ]
        },
        {
          "long_name": "中標津町",
          "short_name": "中標津町",
          "types": [
            "locality",
            "political"
          ]
        },
        {
          "long_name": "標津郡",
          "short_name": "標津郡",
          "types": [
            "administrative_area_level_2",
            "political"
          ]
        },
        {
          "long_name": "北海道",
          "short_name": "北海道",
          "types": [
            "administrative_area_level_1",
            "political"
          ]
        },
        {
          "long_name": "日本",
          "short_name": "JP",
          "types": [
            "country",
            "political"
          ]
        },
        {
          "long_name": "086-1271",
          "short_name": "086-1271",
          "types": [
            "postal_code"
          ]
        }
      ],
      "formatted_address": "日本、〒086-1271 北海道標津郡中標津町字武佐",
      "geometry": {
        "bounds": {
          "northeast": {
            "lat": 43.695568,
            "lng": 145.020118
          },
          "southwest": {
            "lat": 43.58743,
            "lng": 144.8490859
          }
        },
        "location": {
          "lat": 43.6361697,
          "lng": 144.9385442
        },
        "location_type": "APPROXIMATE",
        "viewport": {
          "northeast": {
            "lat": 43.695568,
            "lng": 145.020118
          },
          "southwest": {
            "lat": 43.58743,
            "lng": 144.8490859
          }
        }
      },
      "place_id": "ChIJISK3bB2obV8R5wvhrnyceLQ",
      "types": [
        "political",
        "sublocality",
        "sublocality_level_2"
      ]
    },
    {
      "access_points": [

      ],
      "address_components": [
        {
          "long_name": "086-1271",
          "short_name": "086-1271",
          "types": [
            "postal_code"
          ]
        },
        {
          "long_name": "字武佐",
          "short_name": "字武佐",
          "types": [
            "political",
            "sublocality",
            "sublocality_level_2"
          ]
        },
        {
          "long_name": "中標津町",
          "short_name": "中標津町",
          "types": [
            "locality",
            "political"
          ]
        },
        {
          "long_name": "標津郡",
          "short_name": "標津郡",
          "types": [
            "administrative_area_level_2",
            "political"
          ]
        },
        {
          "long_name": "北海道",
          "short_name": "北海道",
          "types": [
            "administrative_area_level_1",
            "political"
          ]
        },
        {
          "long_name": "日本",
          "short_name": "JP",
          "types": [
            "country",
            "political"
          ]
        }
      ],
      "formatted_address": "日本 〒086-1271",
      "geometry": {
        "bounds": {
          "northeast": {
            "lat": 43.69556739999999,
            "lng": 145.0200345
          },
          "southwest": {
            "lat": 43.58743020000001,
            "lng": 144.849086
          }
        },
        "location": {
          "lat": 43.6361697,
          "lng": 144.9385442
        },
        "location_type": "APPROXIMATE",
        "viewport": {
          "northeast": {
            "lat": 43.69556739999999,
            "lng": 145.0200345
          },
          "southwest": {
            "lat": 43.58743020000001,
            "lng": 144.849086
          }
        }
      },
      "place_id": "ChIJx54_SG6obV8Rqpi6ZhkDVYg",
      "types": [
        "postal_code"
      ]
    },
    {
      "access_points": [

      ],
      "address_components": [
        {
          "long_name": "中標津町",
          "short_name": "中標津町",
          "types": [
            "locality",
            "political"
          ]
        },
        {
          "long_name": "標津郡",
          "short_name": "標津郡",
          "types": [
            "administrative_area_level_2",
            "political"
          ]
        },
        {
          "long_name": "北海道",
          "short_name": "北海道",
          "types": [
            "administrative_area_level_1",
            "political"
          ]
        },
        {
          "long_name": "日本",
          "short_name": "JP",
          "types": [
            "country",
            "political"
          ]
        }
      ],
      "formatted_address": "日本、北海道標津郡中標津町",
      "geometry": {
        "bounds": {
          "northeast": {
            "lat": 43.702136,
            "lng": 145.1137838
          },
          "southwest": {
            "lat": 43.461325,
            "lng": 144.5706639
          }
        },
        "location": {
          "lat": 43.5552107,
          "lng": 144.9715637
        },
        "location_type": "APPROXIMATE",
        "viewport": {
          "northeast": {
            "lat": 43.702136,
            "lng": 145.1137838
          },
          "southwest": {
            "lat": 43.461325,
            "lng": 144.5706639
          }
        }
      },
      "place_id": "ChIJG9b9_9GgbV8Rylo1XDE97WE",
      "types": [
        "locality",
        "political"
      ]
    },
    {
      "access_points": [

      ],
      "address_components": [
        {
          "long_name": "標津郡",
          "short_name": "標津郡",
          "types": [
            "administrative_area_level_2",
            "political"
          ]
        },
        {
          "long_name": "北海道",
          "short_name": "北海道",
          "types": [
            "administrative_area_level_1",
            "political"
          ]
        },
        {
          "long_name": "日本",
          "short_name": "JP",
          "types": [
            "country",
            "political"
          ]
        }
      ],
      "formatted_address": "日本、北海道標津郡",
      "geometry": {
        "bounds": {
          "northeast": {
            "lat": 43.9024215,
            "lng": 145.2441738
          },
          "southwest": {
            "lat": 43.4613246,
            "lng": 144.5706635
          }
        },
        "location": {
          "lat": 43.6833857,
          "lng": 144.9268253
        },
        "location_type": "APPROXIMATE",
        "viewport": {
          "northeast": {
            "lat": 43.9024215,
            "lng": 145.2441738
          },
          "southwest": {
            "lat": 43.4613246,
            "lng": 144.5706635
          }
        }
      },
      "place_id": "ChIJJd5d300GbV8RWsCgMQJYuU8",
      "types": [
        "administrative_area_level_2",
        "political"
      ]
    },
    {
      "access_points": [

      ],
      "address_components": [
        {
          "long_name": "北海道",
          "short_name": "北海道",
          "types": [
            "administrative_area_level_1",
            "political"
          ]
        },
        {
          "long_name": "日本",
          "short_name": "JP",
          "types": [
            "country",
            "political"
          ]
        }
      ],
      "formatted_address": "日本、北海道",
      "geometry": {
        "bounds": {
          "northeast": {
            "lat": 45.5265181,
            "lng": 145.817624
          },
          "southwest": {
            "lat": 41.3516002,
            "lng": 139.3340799
          }
        },
        "location": {
          "lat": 43.2203266,
          "lng": 142.8634737
        },
        "location_type": "APPROXIMATE",
        "viewport": {
          "northeast": {
            "lat": 45.5265181,
            "lng": 145.817624
          },
          "southwest": {
            "lat": 41.3516002,
            "lng": 139.3340799
          }
        }
      },
      "place_id": "ChIJi4hsnyBZn18RjwPOT1bDPBw",
      "types": [
        "administrative_area_level_1",
        "political"
      ]
    },
    {
      "access_points": [

      ],
      "address_components": [
        {
          "long_name": "日本",
          "short_name": "JP",
          "types": [
            "country",
            "political"
          ]
        }
      ],
      "formatted_address": "日本",
      "geometry": {
        "bounds": {
          "northeast": {
            "lat": 45.6412626,
            "lng": 154.0031455
          },
          "southwest": {
            "lat": 20.3585295,
            "lng": 122.8554688
          }
        },
        "location": {
          "lat": 36.204824,
          "lng": 138.252924
        },
        "location_type": "APPROXIMATE",
        "viewport": {
          "northeast": {
            "lat": 45.6412626,
            "lng": 154.0031455
          },
          "southwest": {
            "lat": 20.3585295,
            "lng": 122.8554688
          }
        }
      },
      "place_id": "ChIJLxl_1w9OZzQRRFJmfNR1QvU",
      "types": [
        "country",
        "political"
      ]
    }
  ]
}