{
  "station": "文珠",
  "lat": 43.491611,
  "lng": 141.985917,
  "plus_code": {
    "compound_code": "FXRP+J9 日本、北海道歌志内市",
    "global_code": "8RM3FXRP+J9"
  },
  "results": [
    {
      "access_points": [

      ],
      "address_components": [
        {
          "long_name": "１９９−５２",
          "short_name": "１９９−５２",
          "types": [
            "premise"
          ]
        },
        {
          "long_name": "字文珠",
          "short_name": "字文珠",
          "types": [
            "political",
            "sublocality",
            "sublocality_level_2"
          ]
        },
        {
          "long_name": "歌志内市",
          "short_name": "歌志内市",
          "types": [
            "locality",
            "political"
          ]
        },
        {
          "long_name": "北海道",
          "short_name": "北海道",
          "types": [
            "administrative_area_level_1",
            "political"
          ]
        },
        {
          "long_name": "日本",
          "short_name": "JP",
          "types": [
            "country",
            "political"
          ]
        },
        {
          "long_name": "073-0407",
          "short_name": "073-0407",
          "types": [
            "postal_code"
          ]
        }
      ],
      "formatted_address": "日本、〒073-0407 北海道歌志内市字文珠１９９−５２",
      "geometry": {
        "bounds": {
          "northeast": {
            "lat": 43.4916258,
            "lng": 141.9858303
          },
          "southwest": {
            "lat": 43.491503,
            "lng": 141.9856591
          }
        },
        "location": {
          "lat": 43.4915481,
          "lng": 141.9857326
        },
        "location_type": "ROOFTOP",
        "viewport": {
          "northeast": {
            "lat": 43.4929133802915,
            "lng": 141.9870936802915
          },
          "southwest": {
            "lat": 43.4902154197085,
            "lng": 141.9843957197085
          }
        }
      },
      "place_id": "ChIJq3gAi2GhDF8RFpO-vJj3a9c",
      "types": [
        "premise"
      ]
    },
    {
      "access_points": [

      ],
      "address_components": [
        {
          "long_name": "１９９−５３",
          "short_name": "１９９−５３",
          "types": [
            "premise"
          ]
        },
        {
          "long_name": "字文珠",
          "short_name": "字文珠",
          "types": [
            "political",
            "sublocality",
            "sublocality_level_2"
          ]
        },
        {
          "long_name": "歌志内市",
          "short_name": "歌志内市",
          "types": [
            "locality",
            "political"
          ]
        },
        {
          "long_name": "北海道",
          "short_name": "北海道",
          "types": [
            "administrative_area_level_1",
            "political"
          ]
        },
        {
          "long_name": "日本",
          "short_name": "JP",
          "types": [
            "country",
            "political"
          ]
        },
        {
          "long_name": "073-0407",
          "short_name": "073-0407",
          "types": [
            "postal_code"
          ]
        }
      ],
      "formatted_address": "日本、〒073-0407 北海道歌志内市字文珠１９９−５３",
      "geometry": {
        "location": {
          "lat": 43.4916339,
          "lng": 141.9857046
        },
        "location_type": "ROOFTOP",
        "viewport": {
          "northeast": {
            "lat": 43.4929828802915,
            "lng": 141.9870535802915
          },
          "southwest": {
            "lat": 43.4902849197085,
            "lng": 141.9843556197085
          }
        }
      },
      "place_id": "ChIJaZbyimGhDF8R4taVXrOXdAc",
      "plus_code": {
        "compound_code": "FXRP+M7 日本、北海道 歌志内市",
        "global_code": "8RM3FXRP+M7"
      },
      "types": [
        "street_address"
      ]
    },
    {
      "access_points": [

      ],
      "address_components": [
        {
          "long_name": "文珠",
          "short_name": "文珠",
          "types": [
            "establishment",
            "point_of_interest",
            "transit_station"
          ]
        },
        {
          "long_name": "字文珠",
          "short_name": "字文珠",
          "types": [
            "political",
            "sublocality",
            "sublocality_level_2"
          ]
        },
        {
          "long_name": "歌志内市",
          "short_name": "歌志内市",
          "types": [
            "locality",
            "political"
          ]
        },
        {
          "long_name": "北海道",
          "short_name": "北海道",
          "types": [
            "administrative_area_level_1",
            "political"
          ]
        },
        {
          "long_name": "日本",
          "short_name": "JP",
          "types": [
            "country",
            "political"
          ]
        },
        {
          "long_name": "073-0407",
          "short_name": "073-0407",
          "types": [
            "postal_code"
          ]
        }
      ],
      "formatted_address": "日本、〒073-0407 北海道歌志内市字文珠 文珠",
      "geometry": {
        "location": {
          "lat": 43.4917705,
          "lng": 141.9854827
        },
        "location_type": "GEOMETRIC_CENTER",
        "viewport": {
          "northeast": {
            "lat": 43.4931194802915,
            "lng": 141.9868316802915
          },
          "southwest": {
            "lat": 43.49042151970851,
            "lng": 141.9841337197085
          }
        }
      },
      "place_id": "ChIJQ6VRIGKhDF8RgX9gxkHEU78",
      "plus_code": {
        "compound_code": "FXRP+P5 日本、北海道 歌志内市",
        "global_code": "8RM3FXRP+P5"
      },
      "types": [
        "establishment",
        "point_of_interest",
        "transit_station"
      ]
    },
    {
      "access_points": [

      ],
      "address_components": [
        {
          "long_name": "赤平奈井江線",
          "short_name": "道道114号",
          "types": [
            "route"
          ]
        },
        {
          "long_name": "字文珠",
          "short_name": "字文珠",
          "types": [
            "political",
            "sublocality",
            "sublocality_level_2"
          ]
        },
        {
          "long_name": "歌志内市",
          "short_name": "歌志内市",
          "types": [
            "locality",
            "political"
          ]
        },
        {
          "long_name": "北海道",
          "short_name": "北海道",
          "types": [
            "administrative_area_level_1",
            "political"
          ]
        },
        {
          "long_name": "日本",
          "short_name": "JP",
          "types": [
            "country",
            "political"
          ]
        },
        {
          "long_name": "073-0407",
          "short_name": "073-0407",
          "types": [
            "postal_code"
          ]
        }
      ],
      "formatted_address": "日本、〒073-0407 北海道歌志内市字文珠 道道114号",
      "geometry": {
        "bounds": {
          "northeast": {
            "lat": 43.491947,
            "lng": 141.9862484
          },
          "southwest": {
            "lat": 43.4915246,
            "lng": 141.984084
          }
        },
        "location": {
          "lat": 43.4916569,
          "lng": 141.9851952
        },
        "location_type": "GEOMETRIC_CENTER",
        "viewport": {
          "northeast": {
            "lat": 43.4930847802915,
            "lng": 141.9865151802915
          },
          "southwest": {
            "lat": 43.4903868197085,
            "lng": 141.9838172197085
          }
        }
      },
      "place_id": "ChIJm7rMJmKhDF8RmiND96Ziy_g",
      "types": [
        "route"
      ]
    },
    {
      "access_points": [

      ],
      "address_components": [
        {
          "long_name": "073-0407",
          "short_name": "073-0407",
          "types": [
            "postal_code"
          ]
        },
        {
          "long_name": "字文珠",
          "short_name": "字文珠",
          "types": [
            "political",
            "sublocality",
            "sublocality_level_2"
          ]
        },
        {
          "long_name": "歌志内市",
          "short_name": "歌志内市",
          "types": [
            "locality",
            "political"
          ]
        },
        {
          "long_name": "北海道",
          "short_name": "北海道",
          "types": [
            "administrative_area_level_1",
            "political"
          ]
        },
        {
          "long_name": "日本",
          "short_name": "JP",
          "types": [
            "country",
            "political"
          ]
        }
      ],
      "formatted_address": "日本 〒073-0407",
      "geometry": {
        "bounds": {
          "northeast": {
            "lat": 43.5157667,
            "lng": 142.0153312
          },
          "southwest": {
            "lat": 43.4783998,
            "lng": 141.9689951
          }
        },
        "location": {
          "lat": 43.4946634,
          "lng": 141.9932435
        },
        "location_type": "APPROXIMATE",
        "viewport": {
          "northeast": {
            "lat": 43.5157667,
            "lng": 142.0153312
          },
          "southwest": {
            "lat": 43.4783998,
            "lng": 141.9689951
          }
        }
      },
      "place_id": "ChIJefvaMt-jDF8RFakSz7efvn8",
      "types": [
        "postal_code"
      ]
    },
    {
      "access_points": [

      ],
      "address_components": [
        {
          "long_name": "字文珠",
          "short_name": "字文珠",
          "types": [
            "political",
            "sublocality",
            "sublocality_level_2"
          ]
        },
        {
          "long_name": "歌志内市",
          "short_name": "歌志内市",
          "types": [
            "locality",
            "political"
          ]
        },
        {
          "long_name": "北海道",
          "short_name": "北海道",
          "types": [
            "administrative_area_level_1",
            "political"
          ]
        },
        {
          "long_name": "日本",
          "short_name": "JP",
          "types": [
            "country",
            "political"
          ]
        }
      ],
      "formatted_address": "日本、北海道歌志内市字文珠",
      "geometry": {
        "bounds": {
          "northeast": {
            "lat": 43.5157671,
            "lng": 142.015319
          },
          "southwest": {
            "lat": 43.4784,
            "lng": 141.968995
          }
        },
        "location": {
          "lat": 43.4946634,
          "lng": 141.9932435
        },
        "location_type": "APPROXIMATE",
        "viewport": {
          "northeast": {
            "lat": 43.5157671,
            "lng": 142.015319
          },
          "southwest": {
            "lat": 43.4784,
            "lng": 141.968995
          }
        }
      },
      "place_id": "ChIJC002NtqjDF8RPvV9ovCiu6w",
      "types": [
        "political",
        "sublocality",
        "sublocality_level_2"
      ]
    },
    {
      "access_points": [

      ],
      "address_components": [
        {
          "long_name": "歌志内市",
          "short_name": "歌志内市",
          "types": [
            "locality",
            "political"
          ]
        },
        {
          "long_name": "北海道",
          "short_name": "北海道",
          "types": [
            "administrative_area_level_1",
            "political"
          ]
        },
        {
          "long_name": "日本",
          "short_name": "JP",
          "types": [
            "country",
            "political"
          ]
        }
      ],
      "formatted_address": "日本、北海道歌志内市",
      "geometry": {
        "bounds": {
          "northeast": {
            "lat": 43.535343,
            "lng": 142.0935559
          },
          "southwest": {
            "lat": 43.436128,
            "lng": 141.968956
          }
        },
        "location": {
          "lat": 43.5214686,
          "lng": 142.0345304
        },
        "location_type": "APPROXIMATE",
        "viewport": {
          "northeast": {
            "lat": 43.535343,
            "lng": 142.0935559
          },
          "southwest": {
            "lat": 43.436128,
            "lng": 141.968956
          }
        }
      },
      "place_id": "ChIJLQ5tqvWjDF8RUOFrpESniKQ",
      "types": [
        "locality",
        "political"
      ]
    },
    {
      "access_points": [

      ],
      "address_components": [
        {
          "long_name": "北海道",
          "short_name": "北海道",
          "types": [
            "administrative_area_level_1",
            "political"
          ]
        },
        {
          "long_name": "日本",
          "short_name": "JP",
          "types": [
            "country",
            "political"
          ]
        }
      ],
      "formatted_address": "日本、北海道",
      "geometry": {
        "bounds": {
          "northeast": {
            "lat": 45.5265181,
            "lng": 145.817624
          },
          "southwest": {
            "lat": 41.3516002,
            "lng": 139.3340799
          }
        },
        "location": {
          "lat": 43.2203266,
          "lng": 142.8634737
        },
        "location_type": "APPROXIMATE",
        "viewport": {
          "northeast": {
            "lat": 45.5265181,
            "lng": 145.817624
          },
          "southwest": {
            "lat": 41.3516002,
            "lng": 139.3340799
          }
        }
      },
      "place_id": "ChIJi4hsnyBZn18RjwPOT1bDPBw",
      "types": [
        "administrative_area_level_1",
        "political"
      ]
    },
    {
      "access_points": [

      ],
      "address_components": [
        {
          "long_name": "日本",
          "short_name": "JP",
          "types": [
            "country",
            "political"
          ]
        }
      ],
      "formatted_address": "日本",
      "geometry": {
        "bounds": {
          "northeast": {
            "lat": 45.6412626,
            "lng": 154.0031455
          },
          "southwest": {
            "lat": 20.3585295,
            "lng": 122.8554688
          }
        },
        "location": {
          "lat": 36.204824,
          "lng": 138.252924
        },
        "location_type": "APPROXIMATE",
        "viewport": {
          "northeast": {
            "lat": 45.6412626,
            "lng": 154.0031455
          },
          "southwest": {
            "lat": 20.3585295,
            "lng": 122.8554688
          }
        }
      },
      "place_id": "ChIJLxl_1w9OZzQRRFJmfNR1QvU",
      "types": [
        "country",
        "political"
      ]
    }
  ]
}