{
  "station": "神威",
  "lat": 43.507639,
  "lng": 142.021306,
  "plus_code": {
    "compound_code": "G25C+3G 日本、北海道歌志内市",
    "global_code": "8RM4G25C+3G"
  },
  "results": [
    {
      "access_points": [

      ],
      "address_components": [
        {
          "long_name": "１８３",
          "short_name": "１８３",
          "types": [
            "premise"
          ]
        },
        {
          "long_name": "字神威",
          "short_name": "字神威",
          "types": [
            "political",
            "sublocality",
            "sublocality_level_2"
          ]
        },
        {
          "long_name": "歌志内市",
          "short_name": "歌志内市",
          "types": [
            "locality",
            "political"
          ]
        },
        {
          "long_name": "北海道",
          "short_name": "北海道",
          "types": [
            "administrative_area_level_1",
            "political"
          ]
        },
        {
          "long_name": "日本",
          "short_name": "JP",
          "types": [
            "country",
            "political"
          ]
        },
        {
          "long_name": "073-0405",
          "short_name": "073-0405",
          "types": [
            "postal_code"
          ]
        }
      ],
      "formatted_address": "日本、〒073-0405 北海道歌志内市字神威１８３",
      "geometry": {
        "location": {
          "lat": 43.5075179,
          "lng": 142.0213067
        },
        "location_type": "ROOFTOP",
        "viewport": {
          "northeast": {
            "lat": 43.50886688029149,
            "lng": 142.0226556802915
          },
          "southwest": {
            "lat": 43.50616891970849,
            "lng": 142.0199577197085
          }
        }
      },
      "place_id": "ChIJ6xGzMrujDF8RS3L3qDZkn0U",
      "plus_code": {
        "compound_code": "G25C+2G 日本、北海道 歌志内市",
        "global_code": "8RM4G25C+2G"
      },
      "types": [
        "street_address"
      ]
    },
    {
      "access_points": [

      ],
      "address_components": [
        {
          "long_name": "１００３−４",
          "short_name": "１００３−４",
          "types": [
            "premise"
          ]
        },
        {
          "long_name": "字神威",
          "short_name": "字神威",
          "types": [
            "political",
            "sublocality",
            "sublocality_level_2"
          ]
        },
        {
          "long_name": "歌志内市",
          "short_name": "歌志内市",
          "types": [
            "locality",
            "political"
          ]
        },
        {
          "long_name": "北海道",
          "short_name": "北海道",
          "types": [
            "administrative_area_level_1",
            "political"
          ]
        },
        {
          "long_name": "日本",
          "short_name": "JP",
          "types": [
            "country",
            "political"
          ]
        },
        {
          "long_name": "073-0405",
          "short_name": "073-0405",
          "types": [
            "postal_code"
          ]
        }
      ],
      "formatted_address": "日本、〒073-0405 北海道歌志内市字神威１００３−４",
      "geometry": {
        "bounds": {
          "northeast": {
            "lat": 43.5079145,
            "lng": 142.0219269
          },
          "southwest": {
            "lat": 43.5077351,
            "lng": 142.0217159
          }
        },
        "location": {
          "lat": 43.5078213,
          "lng": 142.0217871
        },
        "location_type": "ROOFTOP",
        "viewport": {
          "northeast": {
            "lat": 43.5091737802915,
            "lng": 142.0231703802915
          },
          "southwest": {
            "lat": 43.5064758197085,
            "lng": 142.0204724197085
          }
        }
      },
      "place_id": "ChIJK4470KSjDF8RTF7QeLGPFHI",
      "types": [
        "premise"
      ]
    },
    {
      "access_points": [

      ],
      "address_components": [
        {
          "long_name": "砂川歌志内線",
          "short_name": "道道1027号",
          "types": [
            "route"
          ]
        },
        {
          "long_name": "字神威",
          "short_name": "字神威",
          "types": [
            "political",
            "sublocality",
            "sublocality_level_2"
          ]
        },
        {
          "long_name": "歌志内市",
          "short_name": "歌志内市",
          "types": [
            "locality",
            "political"
          ]
        },
        {
          "long_name": "北海道",
          "short_name": "北海道",
          "types": [
            "administrative_area_level_1",
            "political"
          ]
        },
        {
          "long_name": "日本",
          "short_name": "JP",
          "types": [
            "country",
            "political"
          ]
        },
        {
          "long_name": "073-0405",
          "short_name": "073-0405",
          "types": [
            "postal_code"
          ]
        }
      ],
      "formatted_address": "日本、〒073-0405 北海道歌志内市字神威 道道1027号",
      "geometry": {
        "bounds": {
          "northeast": {
            "lat": 43.5076808,
            "lng": 142.0214741
          },
          "southwest": {
            "lat": 43.5076026,
            "lng": 142.02143
          }
        },
        "location": {
          "lat": 43.5076415,
          "lng": 142.0214515
        },
        "location_type": "GEOMETRIC_CENTER",
        "viewport": {
          "northeast": {
            "lat": 43.5089906802915,
            "lng": 142.0228010302915
          },
          "southwest": {
            "lat": 43.5062927197085,
            "lng": 142.0201030697085
          }
        }
      },
      "place_id": "ChIJFeV-0qSjDF8RnmMHpDeyQF8",
      "types": [
        "route"
      ]
    },
    {
      "access_points": [

      ],
      "address_components": [
        {
          "long_name": "字神威",
          "short_name": "字神威",
          "types": [
            "political",
            "sublocality",
            "sublocality_level_2"
          ]
        },
        {
          "long_name": "歌志内市",
          "short_name": "歌志内市",
          "types": [
            "locality",
            "political"
          ]
        },
        {
          "long_name": "北海道",
          "short_name": "北海道",
          "types": [
            "administrative_area_level_1",
            "political"
          ]
        },
        {
          "long_name": "日本",
          "short_name": "JP",
          "types": [
            "country",
            "political"
          ]
        },
        {
          "long_name": "073-0405",
          "short_name": "073-0405",
          "types": [
            "postal_code"
          ]
        }
      ],
      "formatted_address": "日本、〒073-0405 北海道歌志内市字神威",
      "geometry": {
        "bounds": {
          "northeast": {
            "lat": 43.518974,
            "lng": 142.0477051
          },
          "southwest": {
            "lat": 43.4872029,
            "lng": 142.0065999
          }
        },
        "location": {
          "lat": 43.5058738,
          "lng": 142.028708
        },
        "location_type": "APPROXIMATE",
        "viewport": {
          "northeast": {
            "lat": 43.518974,
            "lng": 142.0477051
          },
          "southwest": {
            "lat": 43.4872029,
            "lng": 142.0065999
          }
        }
      },
      "place_id": "ChIJx21WTr2jDF8RzLDxApMG1fY",
      "types": [
        "political",
        "sublocality",
        "sublocality_level_2"
      ]
    },
    {
      "access_points": [

      ],
      "address_components": [
        {
          "long_name": "073-0405",
          "short_name": "073-0405",
          "types": [
            "postal_code"
          ]
        },
        {
          "long_name": "字神威",
          "short_name": "字神威",
          "types": [
            "political",
            "sublocality",
            "sublocality_level_2"
          ]
        },
        {
          "long_name": "歌志内市",
          "short_name": "歌志内市",
          "types": [
            "locality",
            "political"
          ]
        },
        {
          "long_name": "北海道",
          "short_name": "北海道",
          "types": [
            "administrative_area_level_1",
            "political"
          ]
        },
        {
          "long_name": "日本",
          "short_name": "JP",
          "types": [
            "country",
            "political"
          ]
        }
      ],
      "formatted_address": "日本 〒073-0405",
      "geometry": {
        "bounds": {
          "northeast": {
            "lat": 43.5189737,
            "lng": 142.0477053
          },
          "southwest": {
            "lat": 43.4871945,
            "lng": 142.0066002
          }
        },
        "location": {
          "lat": 43.5058738,
          "lng": 142.028708
        },
        "location_type": "APPROXIMATE",
        "viewport": {
          "northeast": {
            "lat": 43.5189737,
            "lng": 142.0477053
          },
          "southwest": {
            "lat": 43.4871945,
            "lng": 142.0066002
          }
        }
      },
      "place_id": "ChIJdR-hkbijDF8RGbHpE3XzdPk",
      "types": [
        "postal_code"
      ]
    },
    {
      "access_points": [

      ],
      "address_components": [
        {
          "long_name": "歌志内市",
          "short_name": "歌志内市",
          "types": [
            "locality",
            "political"
          ]
        },
        {
          "long_name": "北海道",
          "short_name": "北海道",
          "types": [
            "administrative_area_level_1",
            "political"
          ]
        },
        {
          "long_name": "日本",
          "short_name": "JP",
          "types": [
            "country",
            "political"
          ]
        }
      ],
      "formatted_address": "日本、北海道歌志内市",
      "geometry": {
        "bounds": {
          "northeast": {
            "lat": 43.535343,
            "lng": 142.0935559
          },
          "southwest": {
            "lat": 43.436128,
            "lng": 141.968956
          }
        },
        "location": {
          "lat": 43.5214686,
          "lng": 142.0345304
        },
        "location_type": "APPROXIMATE",
        "viewport": {
          "northeast": {
            "lat": 43.535343,
            "lng": 142.0935559
          },
          "southwest": {
            "lat": 43.436128,
            "lng": 141.968956
          }
        }
      },
      "place_id": "ChIJLQ5tqvWjDF8RUOFrpESniKQ",
      "types": [
        "locality",
        "political"
      ]
    },
    {
      "access_points": [

      ],
      "address_components": [
        {
          "long_name": "北海道",
          "short_name": "北海道",
          "types": [
            "administrative_area_level_1",
            "political"
          ]
        },
        {
          "long_name": "日本",
          "short_name": "JP",
          "types": [
            "country",
            "political"
          ]
        }
      ],
      "formatted_address": "日本、北海道",
      "geometry": {
        "bounds": {
          "northeast": {
            "lat": 45.5265181,
            "lng": 145.817624
          },
          "southwest": {
            "lat": 41.3516002,
            "lng": 139.3340799
          }
        },
        "location": {
          "lat": 43.2203266,
          "lng": 142.8634737
        },
        "location_type": "APPROXIMATE",
        "viewport": {
          "northeast": {
            "lat": 45.5265181,
            "lng": 145.817624
          },
          "southwest": {
            "lat": 41.3516002,
            "lng": 139.3340799
          }
        }
      },
      "place_id": "ChIJi4hsnyBZn18RjwPOT1bDPBw",
      "types": [
        "administrative_area_level_1",
        "political"
      ]
    },
    {
      "access_points": [

      ],
      "address_components": [
        {
          "long_name": "日本",
          "short_name": "JP",
          "types": [
            "country",
            "political"
          ]
        }
      ],
      "formatted_address": "日本",
      "geometry": {
        "bounds": {
          "northeast": {
            "lat": 45.6412626,
            "lng": 154.0031455
          },
          "southwest": {
            "lat": 20.3585295,
            "lng": 122.8554688
          }
        },
        "location": {
          "lat": 36.204824,
          "lng": 138.252924
        },
        "location_type": "APPROXIMATE",
        "viewport": {
          "northeast": {
            "lat": 45.6412626,
            "lng": 154.0031455
          },
          "southwest": {
            "lat": 20.3585295,
            "lng": 122.8554688
          }
        }
      },
      "place_id": "ChIJLxl_1w9OZzQRRFJmfNR1QvU",
      "types": [
        "country",
        "political"
      ]
    }
  ]
}