{
  "station": "蕗ノ台",
  "lat": 44.369722,
  "lng": 142.149444,
  "plus_code": {
    "compound_code": "949X+VQ 日本、北海道幌加内町",
    "global_code": "8RP4949X+VQ"
  },
  "results": [
    {
      "access_points": [

      ],
      "address_components": [
        {
          "long_name": "蕗の台朱鞠内停車場線",
          "short_name": "道道528号",
          "types": [
            "route"
          ]
        },
        {
          "long_name": "字蕗の台",
          "short_name": "字蕗の台",
          "types": [
            "political",
            "sublocality",
            "sublocality_level_2"
          ]
        },
        {
          "long_name": "幌加内町",
          "short_name": "幌加内町",
          "types": [
            "locality",
            "political"
          ]
        },
        {
          "long_name": "雨竜郡",
          "short_name": "雨竜郡",
          "types": [
            "administrative_area_level_2",
            "political"
          ]
        },
        {
          "long_name": "北海道",
          "short_name": "北海道",
          "types": [
            "administrative_area_level_1",
            "political"
          ]
        },
        {
          "long_name": "日本",
          "short_name": "JP",
          "types": [
            "country",
            "political"
          ]
        },
        {
          "long_name": "074-0400",
          "short_name": "074-0400",
          "types": [
            "postal_code"
          ]
        }
      ],
      "formatted_address": "日本、〒074-0400 北海道雨竜郡幌加内町字蕗の台 道道528号",
      "geometry": {
        "bounds": {
          "northeast": {
            "lat": 44.3727312,
            "lng": 142.1481423
          },
          "southwest": {
            "lat": 44.3698095,
            "lng": 142.146731
          }
        },
        "location": {
          "lat": 44.3710219,
          "lng": 142.1467771
        },
        "location_type": "GEOMETRIC_CENTER",
        "viewport": {
          "northeast": {
            "lat": 44.3727312,
            "lng": 142.1487856302915
          },
          "southwest": {
            "lat": 44.3698095,
            "lng": 142.1460876697085
          }
        }
      },
      "place_id": "ChIJfZLR96bGDV8RhHN9_zq5EYg",
      "types": [
        "route"
      ]
    },
    {
      "access_points": [

      ],
      "address_components": [
        {
          "long_name": "074-0400",
          "short_name": "074-0400",
          "types": [
            "postal_code"
          ]
        },
        {
          "long_name": "字蕗の台",
          "short_name": "字蕗の台",
          "types": [
            "political",
            "sublocality",
            "sublocality_level_2"
          ]
        },
        {
          "long_name": "幌加内町",
          "short_name": "幌加内町",
          "types": [
            "locality",
            "political"
          ]
        },
        {
          "long_name": "雨竜郡",
          "short_name": "雨竜郡",
          "types": [
            "administrative_area_level_2",
            "political"
          ]
        },
        {
          "long_name": "北海道",
          "short_name": "北海道",
          "types": [
            "administrative_area_level_1",
            "political"
          ]
        },
        {
          "long_name": "日本",
          "short_name": "JP",
          "types": [
            "country",
            "political"
          ]
        }
      ],
      "formatted_address": "日本 〒074-0400",
      "geometry": {
        "bounds": {
          "northeast": {
            "lat": 44.4787238,
            "lng": 142.239855
          },
          "southwest": {
            "lat": 44.3194195,
            "lng": 142.0210994
          }
        },
        "location": {
          "lat": 44.383151,
          "lng": 142.1142404
        },
        "location_type": "APPROXIMATE",
        "viewport": {
          "northeast": {
            "lat": 44.4787238,
            "lng": 142.239855
          },
          "southwest": {
            "lat": 44.3194195,
            "lng": 142.0210994
          }
        }
      },
      "place_id": "ChIJ05oMExvEDV8Rmt2rww3jefo",
      "types": [
        "postal_code"
      ]
    },
    {
      "access_points": [

      ],
      "address_components": [
        {
          "long_name": "字蕗の台",
          "short_name": "字蕗の台",
          "types": [
            "political",
            "sublocality",
            "sublocality_level_2"
          ]
        },
        {
          "long_name": "幌加内町",
          "short_name": "幌加内町",
          "types": [
            "locality",
            "political"
          ]
        },
        {
          "long_name": "雨竜郡",
          "short_name": "雨竜郡",
          "types": [
            "administrative_area_level_2",
            "political"
          ]
        },
        {
          "long_name": "北海道",
          "short_name": "北海道",
          "types": [
            "administrative_area_level_1",
            "political"
          ]
        },
        {
          "long_name": "日本",
          "short_name": "JP",
          "types": [
            "country",
            "political"
          ]
        },
        {
          "long_name": "074-0400",
          "short_name": "074-0400",
          "types": [
            "postal_code"
          ]
        }
      ],
      "formatted_address": "日本、〒074-0400 北海道雨竜郡幌加内町字蕗の台",
      "geometry": {
        "bounds": {
          "northeast": {
            "lat": 44.478724,
            "lng": 142.2398549
          },
          "southwest": {
            "lat": 44.31942,
            "lng": 142.021099
          }
        },
        "location": {
          "lat": 44.4045602,
          "lng": 142.1172587
        },
        "location_type": "APPROXIMATE",
        "viewport": {
          "northeast": {
            "lat": 44.478724,
            "lng": 142.2398549
          },
          "southwest": {
            "lat": 44.31942,
            "lng": 142.021099
          }
        }
      },
      "place_id": "ChIJHZCALRvEDV8RTdEBzx46B5o",
      "types": [
        "political",
        "sublocality",
        "sublocality_level_2"
      ]
    },
    {
      "access_points": [

      ],
      "address_components": [
        {
          "long_name": "幌加内町",
          "short_name": "幌加内町",
          "types": [
            "locality",
            "political"
          ]
        },
        {
          "long_name": "雨竜郡",
          "short_name": "雨竜郡",
          "types": [
            "administrative_area_level_2",
            "political"
          ]
        },
        {
          "long_name": "北海道",
          "short_name": "北海道",
          "types": [
            "administrative_area_level_1",
            "political"
          ]
        },
        {
          "long_name": "日本",
          "short_name": "JP",
          "types": [
            "country",
            "political"
          ]
        }
      ],
      "formatted_address": "日本、北海道雨竜郡幌加内町",
      "geometry": {
        "bounds": {
          "northeast": {
            "lat": 44.47875699999999,
            "lng": 142.323974
          },
          "southwest": {
            "lat": 43.90539709999999,
            "lng": 142.0210539
          }
        },
        "location": {
          "lat": 44.0099445,
          "lng": 142.1538429
        },
        "location_type": "APPROXIMATE",
        "viewport": {
          "northeast": {
            "lat": 44.47875699999999,
            "lng": 142.323974
          },
          "southwest": {
            "lat": 43.90539709999999,
            "lng": 142.0210539
          }
        }
      },
      "place_id": "ChIJM3f0hGqxDV8R-eLl30RXmv8",
      "types": [
        "locality",
        "political"
      ]
    },
    {
      "access_points": [

      ],
      "address_components": [
        {
          "long_name": "雨竜郡",
          "short_name": "雨竜郡",
          "types": [
            "administrative_area_level_2",
            "political"
          ]
        },
        {
          "long_name": "北海道",
          "short_name": "北海道",
          "types": [
            "administrative_area_level_1",
            "political"
          ]
        },
        {
          "long_name": "日本",
          "short_name": "JP",
          "types": [
            "country",
            "political"
          ]
        }
      ],
      "formatted_address": "日本、北海道雨竜郡",
      "geometry": {
        "bounds": {
          "northeast": {
            "lat": 44.4787571,
            "lng": 142.3239735
          },
          "southwest": {
            "lat": 43.6069629,
            "lng": 141.5229191
          }
        },
        "location": {
          "lat": 43.7147286,
          "lng": 141.8706657
        },
        "location_type": "APPROXIMATE",
        "viewport": {
          "northeast": {
            "lat": 44.4787571,
            "lng": 142.3239735
          },
          "southwest": {
            "lat": 43.6069629,
            "lng": 141.5229191
          }
        }
      },
      "place_id": "ChIJ98u29O9PDF8RNohcbWoWOrM",
      "types": [
        "administrative_area_level_2",
        "political"
      ]
    },
    {
      "access_points": [

      ],
      "address_components": [
        {
          "long_name": "北海道",
          "short_name": "北海道",
          "types": [
            "administrative_area_level_1",
            "political"
          ]
        },
        {
          "long_name": "日本",
          "short_name": "JP",
          "types": [
            "country",
            "political"
          ]
        }
      ],
      "formatted_address": "日本、北海道",
      "geometry": {
        "bounds": {
          "northeast": {
            "lat": 45.5265181,
            "lng": 145.817624
          },
          "southwest": {
            "lat": 41.3516002,
            "lng": 139.3340799
          }
        },
        "location": {
          "lat": 43.2203266,
          "lng": 142.8634737
        },
        "location_type": "APPROXIMATE",
        "viewport": {
          "northeast": {
            "lat": 45.5265181,
            "lng": 145.817624
          },
          "southwest": {
            "lat": 41.3516002,
            "lng": 139.3340799
          }
        }
      },
      "place_id": "ChIJi4hsnyBZn18RjwPOT1bDPBw",
      "types": [
        "administrative_area_level_1",
        "political"
      ]
    },
    {
      "access_points": [

      ],
      "address_components": [
        {
          "long_name": "日本",
          "short_name": "JP",
          "types": [
            "country",
            "political"
          ]
        }
      ],
      "formatted_address": "日本",
      "geometry": {
        "bounds": {
          "northeast": {
            "lat": 45.6412626,
            "lng": 154.0031455
          },
          "southwest": {
            "lat": 20.3585295,
            "lng": 122.8554688
          }
        },
        "location": {
          "lat": 36.204824,
          "lng": 138.252924
        },
        "location_type": "APPROXIMATE",
        "viewport": {
          "northeast": {
            "lat": 45.6412626,
            "lng": 154.0031455
          },
          "southwest": {
            "lat": 20.3585295,
            "lng": 122.8554688
          }
        }
      },
      "place_id": "ChIJLxl_1w9OZzQRRFJmfNR1QvU",
      "types": [
        "country",
        "political"
      ]
    }
  ]
}