{
  "station": "多度志",
  "lat": 43.814306,
  "lng": 142.0325,
  "plus_code": {
    "compound_code": "R27M+P2 日本、北海道深川市",
    "global_code": "8RM4R27M+P2"
  },
  "results": [
    {
      "access_points": [
        {
          "access_point_type": "TYPE_SEGMENT",
          "location": {
            "latitude": 43.8143707,
            "longitude": 142.032259
          },
          "location_on_segment": {
            "latitude": 43.8143842,
            "longitude": 142.0321737
          },
          "place_id": "ChIJA1ZPW4HzDF8ReAfmXbFTS0k",
          "segment_position": 0.9873451590538025,
          "unsuitable_travel_modes": [

          ]
        }
      ],
      "address_components": [
        {
          "long_name": "多度志（バス）",
          "short_name": "多度志（バス）",
          "types": [
            "establishment",
            "point_of_interest",
            "transit_station"
          ]
        },
        {
          "long_name": "多度志",
          "short_name": "多度志",
          "types": [
            "political",
            "sublocality",
            "sublocality_level_2"
          ]
        },
        {
          "long_name": "深川市",
          "short_name": "深川市",
          "types": [
            "locality",
            "political"
          ]
        },
        {
          "long_name": "北海道",
          "short_name": "北海道",
          "types": [
            "administrative_area_level_1",
            "political"
          ]
        },
        {
          "long_name": "日本",
          "short_name": "JP",
          "types": [
            "country",
            "political"
          ]
        },
        {
          "long_name": "074-0141",
          "short_name": "074-0141",
          "types": [
            "postal_code"
          ]
        }
      ],
      "formatted_address": "日本、〒074-0141 北海道深川市多度志 多度志（バス）",
      "geometry": {
        "location": {
          "lat": 43.8143979,
          "lng": 142.0321612
        },
        "location_type": "GEOMETRIC_CENTER",
        "viewport": {
          "northeast": {
            "lat": 43.8157468802915,
            "lng": 142.0335101802915
          },
          "southwest": {
            "lat": 43.8130489197085,
            "lng": 142.0308122197085
          }
        }
      },
      "place_id": "ChIJ5Um03YPzDF8R4mkBavCMDvI",
      "plus_code": {
        "compound_code": "R27J+QV 日本、北海道深川市",
        "global_code": "8RM4R27J+QV"
      },
      "types": [
        "establishment",
        "point_of_interest",
        "transit_station"
      ]
    },
    {
      "access_points": [

      ],
      "address_components": [
        {
          "long_name": "９２２",
          "short_name": "９２２",
          "types": [
            "premise"
          ]
        },
        {
          "long_name": "多度志",
          "short_name": "多度志",
          "types": [
            "political",
            "sublocality",
            "sublocality_level_2"
          ]
        },
        {
          "long_name": "深川市",
          "short_name": "深川市",
          "types": [
            "locality",
            "political"
          ]
        },
        {
          "long_name": "北海道",
          "short_name": "北海道",
          "types": [
            "administrative_area_level_1",
            "political"
          ]
        },
        {
          "long_name": "日本",
          "short_name": "JP",
          "types": [
            "country",
            "political"
          ]
        },
        {
          "long_name": "074-0141",
          "short_name": "074-0141",
          "types": [
            "postal_code"
          ]
        }
      ],
      "formatted_address": "日本、〒074-0141 北海道深川市多度志９２２",
      "geometry": {
        "location": {
          "lat": 43.8142817,
          "lng": 142.0319646
        },
        "location_type": "ROOFTOP",
        "viewport": {
          "northeast": {
            "lat": 43.81563068029149,
            "lng": 142.0333135802915
          },
          "southwest": {
            "lat": 43.8129327197085,
            "lng": 142.0306156197085
          }
        }
      },
      "place_id": "ChIJ-1qL24PzDF8RzdcUR0QohKs",
      "plus_code": {
        "compound_code": "R27J+PQ 日本、北海道深川市",
        "global_code": "8RM4R27J+PQ"
      },
      "types": [
        "street_address"
      ]
    },
    {
      "access_points": [

      ],
      "address_components": [
        {
          "long_name": "多度志停車場線",
          "short_name": "道道429号",
          "types": [
            "route"
          ]
        },
        {
          "long_name": "多度志",
          "short_name": "多度志",
          "types": [
            "political",
            "sublocality",
            "sublocality_level_2"
          ]
        },
        {
          "long_name": "深川市",
          "short_name": "深川市",
          "types": [
            "locality",
            "political"
          ]
        },
        {
          "long_name": "北海道",
          "short_name": "北海道",
          "types": [
            "administrative_area_level_1",
            "political"
          ]
        },
        {
          "long_name": "日本",
          "short_name": "JP",
          "types": [
            "country",
            "political"
          ]
        },
        {
          "long_name": "074-0141",
          "short_name": "074-0141",
          "types": [
            "postal_code"
          ]
        }
      ],
      "formatted_address": "日本、〒074-0141 北海道深川市多度志 道道429号",
      "geometry": {
        "bounds": {
          "northeast": {
            "lat": 43.8143606,
            "lng": 142.0321665
          },
          "southwest": {
            "lat": 43.8127141,
            "lng": 142.031501
          }
        },
        "location": {
          "lat": 43.81353740000001,
          "lng": 142.0318337
        },
        "location_type": "GEOMETRIC_CENTER",
        "viewport": {
          "northeast": {
            "lat": 43.8148863302915,
            "lng": 142.0331827302915
          },
          "southwest": {
            "lat": 43.8121883697085,
            "lng": 142.0304847697085
          }
        }
      },
      "place_id": "ChIJyTPKzoPzDF8R_us9PoCas0U",
      "types": [
        "route"
      ]
    },
    {
      "access_points": [

      ],
      "address_components": [
        {
          "long_name": "多度志",
          "short_name": "多度志",
          "types": [
            "political",
            "sublocality",
            "sublocality_level_2"
          ]
        },
        {
          "long_name": "深川市",
          "short_name": "深川市",
          "types": [
            "locality",
            "political"
          ]
        },
        {
          "long_name": "北海道",
          "short_name": "北海道",
          "types": [
            "administrative_area_level_1",
            "political"
          ]
        },
        {
          "long_name": "日本",
          "short_name": "JP",
          "types": [
            "country",
            "political"
          ]
        },
        {
          "long_name": "074-0141",
          "short_name": "074-0141",
          "types": [
            "postal_code"
          ]
        }
      ],
      "formatted_address": "日本、〒074-0141 北海道深川市多度志",
      "geometry": {
        "bounds": {
          "northeast": {
            "lat": 43.8265731,
            "lng": 142.0830451
          },
          "southwest": {
            "lat": 43.7978949,
            "lng": 142.0122769
          }
        },
        "location": {
          "lat": 43.8134373,
          "lng": 142.0557729
        },
        "location_type": "APPROXIMATE",
        "viewport": {
          "northeast": {
            "lat": 43.8265731,
            "lng": 142.0830451
          },
          "southwest": {
            "lat": 43.7978949,
            "lng": 142.0122769
          }
        }
      },
      "place_id": "ChIJ6c4GmZDzDF8RGjvzXGlBDgc",
      "types": [
        "political",
        "sublocality",
        "sublocality_level_2"
      ]
    },
    {
      "access_points": [

      ],
      "address_components": [
        {
          "long_name": "074-0141",
          "short_name": "074-0141",
          "types": [
            "postal_code"
          ]
        },
        {
          "long_name": "多度志",
          "short_name": "多度志",
          "types": [
            "political",
            "sublocality",
            "sublocality_level_2"
          ]
        },
        {
          "long_name": "深川市",
          "short_name": "深川市",
          "types": [
            "locality",
            "political"
          ]
        },
        {
          "long_name": "北海道",
          "short_name": "北海道",
          "types": [
            "administrative_area_level_1",
            "political"
          ]
        },
        {
          "long_name": "日本",
          "short_name": "JP",
          "types": [
            "country",
            "political"
          ]
        }
      ],
      "formatted_address": "日本 〒074-0141",
      "geometry": {
        "bounds": {
          "northeast": {
            "lat": 43.8269126,
            "lng": 142.0830447
          },
          "southwest": {
            "lat": 43.7978953,
            "lng": 142.0122775
          }
        },
        "location": {
          "lat": 43.8134373,
          "lng": 142.0557729
        },
        "location_type": "APPROXIMATE",
        "viewport": {
          "northeast": {
            "lat": 43.8269126,
            "lng": 142.0830447
          },
          "southwest": {
            "lat": 43.7978953,
            "lng": 142.0122775
          }
        }
      },
      "place_id": "ChIJPwrZ1nvzDF8R8m4vSz9naug",
      "types": [
        "postal_code"
      ]
    },
    {
      "access_points": [

      ],
      "address_components": [
        {
          "long_name": "深川市",
          "short_name": "深川市",
          "types": [
            "locality",
            "political"
          ]
        },
        {
          "long_name": "北海道",
          "short_name": "北海道",
          "types": [
            "administrative_area_level_1",
            "political"
          ]
        },
        {
          "long_name": "日本",
          "short_name": "JP",
          "types": [
            "country",
            "political"
          ]
        }
      ],
      "formatted_address": "日本、北海道深川市",
      "geometry": {
        "bounds": {
          "northeast": {
            "lat": 44.049502,
            "lng": 142.2400599
          },
          "southwest": {
            "lat": 43.6308859,
            "lng": 141.9619008
          }
        },
        "location": {
          "lat": 43.7232882,
          "lng": 142.0533179
        },
        "location_type": "APPROXIMATE",
        "viewport": {
          "northeast": {
            "lat": 44.049502,
            "lng": 142.2400599
          },
          "southwest": {
            "lat": 43.6308859,
            "lng": 141.9619008
          }
        }
      },
      "place_id": "ChIJ6e7j5knxDF8RMOaYZD41JlY",
      "types": [
        "locality",
        "political"
      ]
    },
    {
      "access_points": [

      ],
      "address_components": [
        {
          "long_name": "北海道",
          "short_name": "北海道",
          "types": [
            "administrative_area_level_1",
            "political"
          ]
        },
        {
          "long_name": "日本",
          "short_name": "JP",
          "types": [
            "country",
            "political"
          ]
        }
      ],
      "formatted_address": "日本、北海道",
      "geometry": {
        "bounds": {
          "northeast": {
            "lat": 45.5265181,
            "lng": 145.817624
          },
          "southwest": {
            "lat": 41.3516002,
            "lng": 139.3340799
          }
        },
        "location": {
          "lat": 43.2203266,
          "lng": 142.8634737
        },
        "location_type": "APPROXIMATE",
        "viewport": {
          "northeast": {
            "lat": 45.5265181,
            "lng": 145.817624
          },
          "southwest": {
            "lat": 41.3516002,
            "lng": 139.3340799
          }
        }
      },
      "place_id": "ChIJi4hsnyBZn18RjwPOT1bDPBw",
      "types": [
        "administrative_area_level_1",
        "political"
      ]
    },
    {
      "access_points": [

      ],
      "address_components": [
        {
          "long_name": "日本",
          "short_name": "JP",
          "types": [
            "country",
            "political"
          ]
        }
      ],
      "formatted_address": "日本",
      "geometry": {
        "bounds": {
          "northeast": {
            "lat": 45.6412626,
            "lng": 154.0031455
          },
          "southwest": {
            "lat": 20.3585295,
            "lng": 122.8554688
          }
        },
        "location": {
          "lat": 36.204824,
          "lng": 138.252924
        },
        "location_type": "APPROXIMATE",
        "viewport": {
          "northeast": {
            "lat": 45.6412626,
            "lng": 154.0031455
          },
          "southwest": {
            "lat": 20.3585295,
            "lng": 122.8554688
          }
        }
      },
      "place_id": "ChIJLxl_1w9OZzQRRFJmfNR1QvU",
      "types": [
        "country",
        "political"
      ]
    }
  ]
}