{
  "station": "班渓",
  "lat": 44.398194,
  "lng": 143.015667,
  "plus_code": {
    "compound_code": "92X8+77 日本、北海道興部町",
    "global_code": "8RP592X8+77"
  },
  "results": [
    {
      "access_points": [

      ],
      "address_components": [
        {
          "long_name": "国道239号",
          "short_name": "国道239号",
          "types": [
            "route"
          ]
        },
        {
          "long_name": "字朝日",
          "short_name": "字朝日",
          "types": [
            "political",
            "sublocality",
            "sublocality_level_2"
          ]
        },
        {
          "long_name": "興部町",
          "short_name": "興部町",
          "types": [
            "locality",
            "political"
          ]
        },
        {
          "long_name": "紋別郡",
          "short_name": "紋別郡",
          "types": [
            "administrative_area_level_2",
            "political"
          ]
        },
        {
          "long_name": "北海道",
          "short_name": "北海道",
          "types": [
            "administrative_area_level_1",
            "political"
          ]
        },
        {
          "long_name": "日本",
          "short_name": "JP",
          "types": [
            "country",
            "political"
          ]
        },
        {
          "long_name": "098-1600",
          "short_name": "098-1600",
          "types": [
            "postal_code"
          ]
        }
      ],
      "formatted_address": "日本、〒098-1600 北海道紋別郡興部町字朝日 国道239号",
      "geometry": {
        "bounds": {
          "northeast": {
            "lat": 44.3975186,
            "lng": 143.0161526
          },
          "southwest": {
            "lat": 44.3965028,
            "lng": 143.0138207
          }
        },
        "location": {
          "lat": 44.39707809999999,
          "lng": 143.0149239
        },
        "location_type": "GEOMETRIC_CENTER",
        "viewport": {
          "northeast": {
            "lat": 44.3983596802915,
            "lng": 143.0163356302915
          },
          "southwest": {
            "lat": 44.3956617197085,
            "lng": 143.0136376697085
          }
        }
      },
      "place_id": "ChIJXf6Q6BF5El8RPsC9idsJaUw",
      "types": [
        "route"
      ]
    },
    {
      "access_points": [

      ],
      "address_components": [
        {
          "long_name": "字宇津",
          "short_name": "字宇津",
          "types": [
            "political",
            "sublocality",
            "sublocality_level_2"
          ]
        },
        {
          "long_name": "興部町",
          "short_name": "興部町",
          "types": [
            "locality",
            "political"
          ]
        },
        {
          "long_name": "紋別郡",
          "short_name": "紋別郡",
          "types": [
            "administrative_area_level_2",
            "political"
          ]
        },
        {
          "long_name": "北海道",
          "short_name": "北海道",
          "types": [
            "administrative_area_level_1",
            "political"
          ]
        },
        {
          "long_name": "日本",
          "short_name": "JP",
          "types": [
            "country",
            "political"
          ]
        },
        {
          "long_name": "098-1624",
          "short_name": "098-1624",
          "types": [
            "postal_code"
          ]
        }
      ],
      "formatted_address": "日本、〒098-1624 北海道紋別郡興部町字宇津",
      "geometry": {
        "bounds": {
          "northeast": {
            "lat": 44.468269,
            "lng": 143.0609171
          },
          "southwest": {
            "lat": 44.38507200000001,
            "lng": 142.8562209
          }
        },
        "location": {
          "lat": 44.4205779,
          "lng": 142.9911209
        },
        "location_type": "APPROXIMATE",
        "viewport": {
          "northeast": {
            "lat": 44.468269,
            "lng": 143.0609171
          },
          "southwest": {
            "lat": 44.38507200000001,
            "lng": 142.8562209
          }
        }
      },
      "place_id": "ChIJPc5M_dV5El8R27w2SJtO9f0",
      "types": [
        "political",
        "sublocality",
        "sublocality_level_2"
      ]
    },
    {
      "access_points": [

      ],
      "address_components": [
        {
          "long_name": "098-1624",
          "short_name": "098-1624",
          "types": [
            "postal_code"
          ]
        },
        {
          "long_name": "字宇津",
          "short_name": "字宇津",
          "types": [
            "political",
            "sublocality",
            "sublocality_level_2"
          ]
        },
        {
          "long_name": "興部町",
          "short_name": "興部町",
          "types": [
            "locality",
            "political"
          ]
        },
        {
          "long_name": "紋別郡",
          "short_name": "紋別郡",
          "types": [
            "administrative_area_level_2",
            "political"
          ]
        },
        {
          "long_name": "北海道",
          "short_name": "北海道",
          "types": [
            "administrative_area_level_1",
            "political"
          ]
        },
        {
          "long_name": "日本",
          "short_name": "JP",
          "types": [
            "country",
            "political"
          ]
        }
      ],
      "formatted_address": "日本 〒098-1624",
      "geometry": {
        "bounds": {
          "northeast": {
            "lat": 44.4682685,
            "lng": 143.0609173
          },
          "southwest": {
            "lat": 44.3850718,
            "lng": 142.8562205
          }
        },
        "location": {
          "lat": 44.4205779,
          "lng": 142.9911209
        },
        "location_type": "APPROXIMATE",
        "viewport": {
          "northeast": {
            "lat": 44.4682685,
            "lng": 143.0609173
          },
          "southwest": {
            "lat": 44.3850718,
            "lng": 142.8562205
          }
        }
      },
      "place_id": "ChIJOwJ1Eih6El8RSsJjysFGI6w",
      "types": [
        "postal_code"
      ]
    },
    {
      "access_points": [

      ],
      "address_components": [
        {
          "long_name": "興部町",
          "short_name": "興部町",
          "types": [
            "locality",
            "political"
          ]
        },
        {
          "long_name": "紋別郡",
          "short_name": "紋別郡",
          "types": [
            "administrative_area_level_2",
            "political"
          ]
        },
        {
          "long_name": "北海道",
          "short_name": "北海道",
          "types": [
            "administrative_area_level_1",
            "political"
          ]
        },
        {
          "long_name": "日本",
          "short_name": "JP",
          "types": [
            "country",
            "political"
          ]
        }
      ],
      "formatted_address": "日本、北海道紋別郡興部町",
      "geometry": {
        "bounds": {
          "northeast": {
            "lat": 44.497955,
            "lng": 143.2761009
          },
          "southwest": {
            "lat": 44.286492,
            "lng": 142.856164
          }
        },
        "location": {
          "lat": 44.4698144,
          "lng": 143.1240523
        },
        "location_type": "APPROXIMATE",
        "viewport": {
          "northeast": {
            "lat": 44.497955,
            "lng": 143.2761009
          },
          "southwest": {
            "lat": 44.286492,
            "lng": 142.856164
          }
        }
      },
      "place_id": "ChIJD1NA8lZ5El8RhzBpBjSyuL4",
      "types": [
        "locality",
        "political"
      ]
    },
    {
      "access_points": [

      ],
      "address_components": [
        {
          "long_name": "紋別郡",
          "short_name": "紋別郡",
          "types": [
            "administrative_area_level_2",
            "political"
          ]
        },
        {
          "long_name": "北海道",
          "short_name": "北海道",
          "types": [
            "administrative_area_level_1",
            "political"
          ]
        },
        {
          "long_name": "日本",
          "short_name": "JP",
          "types": [
            "country",
            "political"
          ]
        }
      ],
      "formatted_address": "日本、北海道紋別郡",
      "geometry": {
        "bounds": {
          "northeast": {
            "lat": 44.6884258,
            "lng": 143.7762951
          },
          "southwest": {
            "lat": 43.69675790000001,
            "lng": 142.5835875
          }
        },
        "location": {
          "lat": 44.3891946,
          "lng": 143.0769131
        },
        "location_type": "APPROXIMATE",
        "viewport": {
          "northeast": {
            "lat": 44.6884258,
            "lng": 143.7762951
          },
          "southwest": {
            "lat": 43.69675790000001,
            "lng": 142.5835875
          }
        }
      },
      "place_id": "ChIJ6XnFej99DV8RhiZFqDLARXY",
      "types": [
        "administrative_area_level_2",
        "political"
      ]
    },
    {
      "access_points": [

      ],
      "address_components": [
        {
          "long_name": "北海道",
          "short_name": "北海道",
          "types": [
            "administrative_area_level_1",
            "political"
          ]
        },
        {
          "long_name": "日本",
          "short_name": "JP",
          "types": [
            "country",
            "political"
          ]
        }
      ],
      "formatted_address": "日本、北海道",
      "geometry": {
        "bounds": {
          "northeast": {
            "lat": 45.5265181,
            "lng": 145.817624
          },
          "southwest": {
            "lat": 41.3516002,
            "lng": 139.3340799
          }
        },
        "location": {
          "lat": 43.2203266,
          "lng": 142.8634737
        },
        "location_type": "APPROXIMATE",
        "viewport": {
          "northeast": {
            "lat": 45.5265181,
            "lng": 145.817624
          },
          "southwest": {
            "lat": 41.3516002,
            "lng": 139.3340799
          }
        }
      },
      "place_id": "ChIJi4hsnyBZn18RjwPOT1bDPBw",
      "types": [
        "administrative_area_level_1",
        "political"
      ]
    },
    {
      "access_points": [

      ],
      "address_components": [
        {
          "long_name": "日本",
          "short_name": "JP",
          "types": [
            "country",
            "political"
          ]
        }
      ],
      "formatted_address": "日本",
      "geometry": {
        "bounds": {
          "northeast": {
            "lat": 45.6412626,
            "lng": 154.0031455
          },
          "southwest": {
            "lat": 20.3585295,
            "lng": 122.8554688
          }
        },
        "location": {
          "lat": 36.204824,
          "lng": 138.252924
        },
        "location_type": "APPROXIMATE",
        "viewport": {
          "northeast": {
            "lat": 45.6412626,
            "lng": 154.0031455
          },
          "southwest": {
            "lat": 20.3585295,
            "lng": 122.8554688
          }
        }
      },
      "place_id": "ChIJLxl_1w9OZzQRRFJmfNR1QvU",
      "types": [
        "country",
        "political"
      ]
    }
  ]
}