{
  "station": "共進",
  "lat": 44.12025,
  "lng": 143.564833,
  "plus_code": {
    "compound_code": "4HC7+3W 日本、北海道湧別町",
    "global_code": "8RP54HC7+3W"
  },
  "results": [
    {
      "access_points": [

      ],
      "address_components": [
        {
          "long_name": "３４３",
          "short_name": "３４３",
          "types": [
            "premise"
          ]
        },
        {
          "long_name": "１区",
          "short_name": "１区",
          "types": [
            "political",
            "sublocality",
            "sublocality_level_3"
          ]
        },
        {
          "long_name": "南兵村",
          "short_name": "南兵村",
          "types": [
            "political",
            "sublocality",
            "sublocality_level_2"
          ]
        },
        {
          "long_name": "湧別町",
          "short_name": "湧別町",
          "types": [
            "locality",
            "political"
          ]
        },
        {
          "long_name": "紋別郡",
          "short_name": "紋別郡",
          "types": [
            "administrative_area_level_2",
            "political"
          ]
        },
        {
          "long_name": "北海道",
          "short_name": "北海道",
          "types": [
            "administrative_area_level_1",
            "political"
          ]
        },
        {
          "long_name": "日本",
          "short_name": "JP",
          "types": [
            "country",
            "political"
          ]
        },
        {
          "long_name": "099-6509",
          "short_name": "099-6509",
          "types": [
            "postal_code"
          ]
        }
      ],
      "formatted_address": "日本、〒099-6509 北海道紋別郡湧別町南兵村１区３４３",
      "geometry": {
        "location": {
          "lat": 44.1202808,
          "lng": 143.5648544
        },
        "location_type": "ROOFTOP",
        "viewport": {
          "northeast": {
            "lat": 44.1216297802915,
            "lng": 143.5662033802915
          },
          "southwest": {
            "lat": 44.1189318197085,
            "lng": 143.5635054197085
          }
        }
      },
      "place_id": "ChIJt-XgJfGiEl8R7Hi-AttBD0Y",
      "plus_code": {
        "compound_code": "4HC7+4W 日本、北海道湧別町",
        "global_code": "8RP54HC7+4W"
      },
      "types": [
        "establishment",
        "point_of_interest"
      ]
    },
    {
      "access_points": [

      ],
      "address_components": [
        {
          "long_name": "３４３−１",
          "short_name": "３４３−１",
          "types": [
            "premise"
          ]
        },
        {
          "long_name": "１区",
          "short_name": "１区",
          "types": [
            "political",
            "sublocality",
            "sublocality_level_3"
          ]
        },
        {
          "long_name": "南兵村",
          "short_name": "南兵村",
          "types": [
            "political",
            "sublocality",
            "sublocality_level_2"
          ]
        },
        {
          "long_name": "湧別町",
          "short_name": "湧別町",
          "types": [
            "locality",
            "political"
          ]
        },
        {
          "long_name": "紋別郡",
          "short_name": "紋別郡",
          "types": [
            "administrative_area_level_2",
            "political"
          ]
        },
        {
          "long_name": "北海道",
          "short_name": "北海道",
          "types": [
            "administrative_area_level_1",
            "political"
          ]
        },
        {
          "long_name": "日本",
          "short_name": "JP",
          "types": [
            "country",
            "political"
          ]
        },
        {
          "long_name": "099-6509",
          "short_name": "099-6509",
          "types": [
            "postal_code"
          ]
        }
      ],
      "formatted_address": "日本、〒099-6509 北海道紋別郡湧別町南兵村１区３４３−１",
      "geometry": {
        "location": {
          "lat": 44.1205929,
          "lng": 143.5640126
        },
        "location_type": "ROOFTOP",
        "viewport": {
          "northeast": {
            "lat": 44.12194188029149,
            "lng": 143.5653615802915
          },
          "southwest": {
            "lat": 44.1192439197085,
            "lng": 143.5626636197085
          }
        }
      },
      "place_id": "ChIJLcO2MPGiEl8RBeKPMc37nA4",
      "plus_code": {
        "compound_code": "4HC7+6J 日本、北海道湧別町",
        "global_code": "8RP54HC7+6J"
      },
      "types": [
        "street_address"
      ]
    },
    {
      "access_points": [

      ],
      "address_components": [
        {
          "long_name": "Unnamed Road",
          "short_name": "Unnamed Road",
          "types": [
            "route"
          ]
        },
        {
          "long_name": "１区",
          "short_name": "１区",
          "types": [
            "political",
            "sublocality",
            "sublocality_level_3"
          ]
        },
        {
          "long_name": "南兵村",
          "short_name": "南兵村",
          "types": [
            "political",
            "sublocality",
            "sublocality_level_2"
          ]
        },
        {
          "long_name": "湧別町",
          "short_name": "湧別町",
          "types": [
            "locality",
            "political"
          ]
        },
        {
          "long_name": "紋別郡",
          "short_name": "紋別郡",
          "types": [
            "administrative_area_level_2",
            "political"
          ]
        },
        {
          "long_name": "北海道",
          "short_name": "北海道",
          "types": [
            "administrative_area_level_1",
            "political"
          ]
        },
        {
          "long_name": "日本",
          "short_name": "JP",
          "types": [
            "country",
            "political"
          ]
        },
        {
          "long_name": "099-6509",
          "short_name": "099-6509",
          "types": [
            "postal_code"
          ]
        }
      ],
      "formatted_address": "Unnamed Road, １区 南兵村 湧別町 紋別郡 北海道 099-6509 日本",
      "geometry": {
        "bounds": {
          "northeast": {
            "lat": 44.1205726,
            "lng": 143.5651268
          },
          "southwest": {
            "lat": 44.12040560000001,
            "lng": 143.5646217
          }
        },
        "location": {
          "lat": 44.1204891,
          "lng": 143.5648743
        },
        "location_type": "GEOMETRIC_CENTER",
        "viewport": {
          "northeast": {
            "lat": 44.1218380802915,
            "lng": 143.5662232302915
          },
          "southwest": {
            "lat": 44.1191401197085,
            "lng": 143.5635252697085
          }
        }
      },
      "place_id": "ChIJp_-OJPGiEl8RQrBQFACNbj0",
      "types": [
        "route"
      ]
    },
    {
      "access_points": [

      ],
      "address_components": [
        {
          "long_name": "099-6509",
          "short_name": "099-6509",
          "types": [
            "postal_code"
          ]
        },
        {
          "long_name": "１区",
          "short_name": "１区",
          "types": [
            "political",
            "sublocality",
            "sublocality_level_3"
          ]
        },
        {
          "long_name": "南兵村",
          "short_name": "南兵村",
          "types": [
            "political",
            "sublocality",
            "sublocality_level_2"
          ]
        },
        {
          "long_name": "湧別町",
          "short_name": "湧別町",
          "types": [
            "locality",
            "political"
          ]
        },
        {
          "long_name": "紋別郡",
          "short_name": "紋別郡",
          "types": [
            "administrative_area_level_2",
            "political"
          ]
        },
        {
          "long_name": "北海道",
          "short_name": "北海道",
          "types": [
            "administrative_area_level_1",
            "political"
          ]
        },
        {
          "long_name": "日本",
          "short_name": "JP",
          "types": [
            "country",
            "political"
          ]
        }
      ],
      "formatted_address": "日本 〒099-6509",
      "geometry": {
        "bounds": {
          "northeast": {
            "lat": 44.1326745,
            "lng": 143.5970787
          },
          "southwest": {
            "lat": 44.08735189999999,
            "lng": 143.5388956
          }
        },
        "location": {
          "lat": 44.1101312,
          "lng": 143.559599
        },
        "location_type": "APPROXIMATE",
        "viewport": {
          "northeast": {
            "lat": 44.1326745,
            "lng": 143.5970787
          },
          "southwest": {
            "lat": 44.08735189999999,
            "lng": 143.5388956
          }
        }
      },
      "place_id": "ChIJzYtotl6iEl8RqlzXQ4m58oo",
      "types": [
        "postal_code"
      ]
    },
    {
      "access_points": [

      ],
      "address_components": [
        {
          "long_name": "１区",
          "short_name": "１区",
          "types": [
            "political",
            "sublocality",
            "sublocality_level_3"
          ]
        },
        {
          "long_name": "南兵村",
          "short_name": "南兵村",
          "types": [
            "political",
            "sublocality",
            "sublocality_level_2"
          ]
        },
        {
          "long_name": "湧別町",
          "short_name": "湧別町",
          "types": [
            "locality",
            "political"
          ]
        },
        {
          "long_name": "紋別郡",
          "short_name": "紋別郡",
          "types": [
            "administrative_area_level_2",
            "political"
          ]
        },
        {
          "long_name": "北海道",
          "short_name": "北海道",
          "types": [
            "administrative_area_level_1",
            "political"
          ]
        },
        {
          "long_name": "日本",
          "short_name": "JP",
          "types": [
            "country",
            "political"
          ]
        }
      ],
      "formatted_address": "日本、北海道紋別郡湧別町南兵村１区",
      "geometry": {
        "bounds": {
          "northeast": {
            "lat": 44.135155,
            "lng": 143.5968398
          },
          "southwest": {
            "lat": 44.087352,
            "lng": 143.5380159
          }
        },
        "location": {
          "lat": 44.1101312,
          "lng": 143.559599
        },
        "location_type": "APPROXIMATE",
        "viewport": {
          "northeast": {
            "lat": 44.135155,
            "lng": 143.5968398
          },
          "southwest": {
            "lat": 44.087352,
            "lng": 143.5380159
          }
        }
      },
      "place_id": "ChIJOewNcFWiEl8RhKAJTSHdeh8",
      "types": [
        "political",
        "sublocality",
        "sublocality_level_3"
      ]
    },
    {
      "access_points": [

      ],
      "address_components": [
        {
          "long_name": "南兵村",
          "short_name": "南兵村",
          "types": [
            "political",
            "sublocality",
            "sublocality_level_2"
          ]
        },
        {
          "long_name": "湧別町",
          "short_name": "湧別町",
          "types": [
            "locality",
            "political"
          ]
        },
        {
          "long_name": "紋別郡",
          "short_name": "紋別郡",
          "types": [
            "administrative_area_level_2",
            "political"
          ]
        },
        {
          "long_name": "北海道",
          "short_name": "北海道",
          "types": [
            "administrative_area_level_1",
            "political"
          ]
        },
        {
          "long_name": "日本",
          "short_name": "JP",
          "types": [
            "country",
            "political"
          ]
        }
      ],
      "formatted_address": "日本、北海道紋別郡湧別町南兵村",
      "geometry": {
        "bounds": {
          "northeast": {
            "lat": 44.166858,
            "lng": 143.5968398
          },
          "southwest": {
            "lat": 44.087352,
            "lng": 143.5380159
          }
        },
        "location": {
          "lat": 44.12144319999999,
          "lng": 143.5618208
        },
        "location_type": "APPROXIMATE",
        "viewport": {
          "northeast": {
            "lat": 44.166858,
            "lng": 143.5968398
          },
          "southwest": {
            "lat": 44.087352,
            "lng": 143.5380159
          }
        }
      },
      "place_id": "ChIJK_7HbcCiEl8RTuGibbl2pRk",
      "types": [
        "political",
        "sublocality",
        "sublocality_level_2"
      ]
    },
    {
      "access_points": [

      ],
      "address_components": [
        {
          "long_name": "湧別町",
          "short_name": "湧別町",
          "types": [
            "locality",
            "political"
          ]
        },
        {
          "long_name": "紋別郡",
          "short_name": "紋別郡",
          "types": [
            "administrative_area_level_2",
            "political"
          ]
        },
        {
          "long_name": "北海道",
          "short_name": "北海道",
          "types": [
            "administrative_area_level_1",
            "political"
          ]
        },
        {
          "long_name": "日本",
          "short_name": "JP",
          "types": [
            "country",
            "political"
          ]
        }
      ],
      "formatted_address": "日本、北海道紋別郡湧別町",
      "geometry": {
        "bounds": {
          "northeast": {
            "lat": 44.252513,
            "lng": 143.7762951
          },
          "southwest": {
            "lat": 43.98705100000001,
            "lng": 143.4104
          }
        },
        "location": {
          "lat": 44.15154829999999,
          "lng": 143.5729109
        },
        "location_type": "APPROXIMATE",
        "viewport": {
          "northeast": {
            "lat": 44.252513,
            "lng": 143.7762951
          },
          "southwest": {
            "lat": 43.98705100000001,
            "lng": 143.4104
          }
        }
      },
      "place_id": "ChIJ89zW6t-iEl8R5-Srxq-4-XY",
      "types": [
        "locality",
        "political"
      ]
    },
    {
      "access_points": [

      ],
      "address_components": [
        {
          "long_name": "紋別郡",
          "short_name": "紋別郡",
          "types": [
            "administrative_area_level_2",
            "political"
          ]
        },
        {
          "long_name": "北海道",
          "short_name": "北海道",
          "types": [
            "administrative_area_level_1",
            "political"
          ]
        },
        {
          "long_name": "日本",
          "short_name": "JP",
          "types": [
            "country",
            "political"
          ]
        }
      ],
      "formatted_address": "日本、北海道紋別郡",
      "geometry": {
        "bounds": {
          "northeast": {
            "lat": 44.6884258,
            "lng": 143.7762951
          },
          "southwest": {
            "lat": 43.69675790000001,
            "lng": 142.5835875
          }
        },
        "location": {
          "lat": 44.3891946,
          "lng": 143.0769131
        },
        "location_type": "APPROXIMATE",
        "viewport": {
          "northeast": {
            "lat": 44.6884258,
            "lng": 143.7762951
          },
          "southwest": {
            "lat": 43.69675790000001,
            "lng": 142.5835875
          }
        }
      },
      "place_id": "ChIJ6XnFej99DV8RhiZFqDLARXY",
      "types": [
        "administrative_area_level_2",
        "political"
      ]
    },
    {
      "access_points": [

      ],
      "address_components": [
        {
          "long_name": "北海道",
          "short_name": "北海道",
          "types": [
            "administrative_area_level_1",
            "political"
          ]
        },
        {
          "long_name": "日本",
          "short_name": "JP",
          "types": [
            "country",
            "political"
          ]
        }
      ],
      "formatted_address": "日本、北海道",
      "geometry": {
        "bounds": {
          "northeast": {
            "lat": 45.5265181,
            "lng": 145.817624
          },
          "southwest": {
            "lat": 41.3516002,
            "lng": 139.3340799
          }
        },
        "location": {
          "lat": 43.2203266,
          "lng": 142.8634737
        },
        "location_type": "APPROXIMATE",
        "viewport": {
          "northeast": {
            "lat": 45.5265181,
            "lng": 145.817624
          },
          "southwest": {
            "lat": 41.3516002,
            "lng": 139.3340799
          }
        }
      },
      "place_id": "ChIJi4hsnyBZn18RjwPOT1bDPBw",
      "types": [
        "administrative_area_level_1",
        "political"
      ]
    },
    {
      "access_points": [

      ],
      "address_components": [
        {
          "long_name": "日本",
          "short_name": "JP",
          "types": [
            "country",
            "political"
          ]
        }
      ],
      "formatted_address": "日本",
      "geometry": {
        "bounds": {
          "northeast": {
            "lat": 45.6412626,
            "lng": 154.0031455
          },
          "southwest": {
            "lat": 20.3585295,
            "lng": 122.8554688
          }
        },
        "location": {
          "lat": 36.204824,
          "lng": 138.252924
        },
        "location_type": "APPROXIMATE",
        "viewport": {
          "northeast": {
            "lat": 45.6412626,
            "lng": 154.0031455
          },
          "southwest": {
            "lat": 20.3585295,
            "lng": 122.8554688
          }
        }
      },
      "place_id": "ChIJLxl_1w9OZzQRRFJmfNR1QvU",
      "types": [
        "country",
        "political"
      ]
    }
  ]
}