{
  "station": "西下",
  "lat": 39.001384,
  "lng": 141.688578,
  "plus_code": {
    "compound_code": "2M2Q+HC 日本、岩手県陸前高田市",
    "global_code": "8RF32M2Q+HC"
  },
  "results": [
    {
      "address_components": [
        {
          "long_name": "三日市",
          "short_name": "三日市",
          "types": [
            "establishment",
            "point_of_interest",
            "transit_station"
          ]
        },
        {
          "long_name": "唐笠松",
          "short_name": "唐笠松",
          "types": [
            "political",
            "sublocality",
            "sublocality_level_3"
          ]
        },
        {
          "long_name": "小友町",
          "short_name": "小友町",
          "types": [
            "political",
            "sublocality",
            "sublocality_level_2"
          ]
        },
        {
          "long_name": "陸前高田市",
          "short_name": "陸前高田市",
          "types": [
            "locality",
            "political"
          ]
        },
        {
          "long_name": "岩手県",
          "short_name": "岩手県",
          "types": [
            "administrative_area_level_1",
            "political"
          ]
        },
        {
          "long_name": "日本",
          "short_name": "JP",
          "types": [
            "country",
            "political"
          ]
        },
        {
          "long_name": "029-2207",
          "short_name": "029-2207",
          "types": [
            "postal_code"
          ]
        }
      ],
      "formatted_address": "日本、〒029-2207 岩手県陸前高田市小友町唐笠松 三日市",
      "geometry": {
        "location": {
          "lat": 39.0014256,
          "lng": 141.6886128
        },
        "location_type": "GEOMETRIC_CENTER",
        "viewport": {
          "northeast": {
            "lat": 39.00277458029149,
            "lng": 141.6899617802915
          },
          "southwest": {
            "lat": 39.00007661970849,
            "lng": 141.6872638197085
          }
        }
      },
      "place_id": "ChIJPSZFmIKiiF8RN1_CbIepnrw",
      "plus_code": {
        "compound_code": "2M2Q+HC 日本、岩手県 陸前高田市",
        "global_code": "8RF32M2Q+HC"
      },
      "types": [
        "establishment",
        "point_of_interest",
        "transit_station"
      ]
    },
    {
      "address_components": [
        {
          "long_name": "２５",
          "short_name": "２５",
          "types": [
            "premise"
          ]
        },
        {
          "long_name": "唐笠松",
          "short_name": "唐笠松",
          "types": [
            "political",
            "sublocality",
            "sublocality_level_3"
          ]
        },
        {
          "long_name": "小友町",
          "short_name": "小友町",
          "types": [
            "political",
            "sublocality",
            "sublocality_level_2"
          ]
        },
        {
          "long_name": "陸前高田市",
          "short_name": "陸前高田市",
          "types": [
            "locality",
            "political"
          ]
        },
        {
          "long_name": "岩手県",
          "short_name": "岩手県",
          "types": [
            "administrative_area_level_1",
            "political"
          ]
        },
        {
          "long_name": "日本",
          "short_name": "JP",
          "types": [
            "country",
            "political"
          ]
        },
        {
          "long_name": "029-2207",
          "short_name": "029-2207",
          "types": [
            "postal_code"
          ]
        }
      ],
      "formatted_address": "日本、〒029-2207 岩手県陸前高田市小友町唐笠松２５",
      "geometry": {
        "location": {
          "lat": 39.0015883,
          "lng": 141.6881146
        },
        "location_type": "ROOFTOP",
        "viewport": {
          "northeast": {
            "lat": 39.0029372802915,
            "lng": 141.6894635802915
          },
          "southwest": {
            "lat": 39.00023931970851,
            "lng": 141.6867656197085
          }
        }
      },
      "place_id": "ChIJ_dEUvoKiiF8R0f8x0CnD7z4",
      "plus_code": {
        "compound_code": "2M2Q+J6 日本、岩手県 陸前高田市",
        "global_code": "8RF32M2Q+J6"
      },
      "types": [
        "street_address"
      ]
    },
    {
      "address_components": [
        {
          "long_name": "アップルロード",
          "short_name": "県道38号",
          "types": [
            "route"
          ]
        },
        {
          "long_name": "唐笠松",
          "short_name": "唐笠松",
          "types": [
            "political",
            "sublocality",
            "sublocality_level_3"
          ]
        },
        {
          "long_name": "小友町",
          "short_name": "小友町",
          "types": [
            "political",
            "sublocality",
            "sublocality_level_2"
          ]
        },
        {
          "long_name": "陸前高田市",
          "short_name": "陸前高田市",
          "types": [
            "locality",
            "political"
          ]
        },
        {
          "long_name": "岩手県",
          "short_name": "岩手県",
          "types": [
            "administrative_area_level_1",
            "political"
          ]
        },
        {
          "long_name": "日本",
          "short_name": "JP",
          "types": [
            "country",
            "political"
          ]
        },
        {
          "long_name": "029-2207",
          "short_name": "029-2207",
          "types": [
            "postal_code"
          ]
        }
      ],
      "formatted_address": "日本、〒029-2207 岩手県陸前高田市小友町唐笠松 県道38号",
      "geometry": {
        "bounds": {
          "northeast": {
            "lat": 39.00145819999999,
            "lng": 141.6887392
          },
          "southwest": {
            "lat": 39.0014073,
            "lng": 141.6886946
          }
        },
        "location": {
          "lat": 39.0014328,
          "lng": 141.6887169
        },
        "location_type": "GEOMETRIC_CENTER",
        "viewport": {
          "northeast": {
            "lat": 39.0027817302915,
            "lng": 141.6900658802915
          },
          "southwest": {
            "lat": 39.0000837697085,
            "lng": 141.6873679197085
          }
        }
      },
      "place_id": "ChIJASSqmYKiiF8Rmv5-Me2b_qE",
      "types": [
        "route"
      ]
    },
    {
      "address_components": [
        {
          "long_name": "唐笠松",
          "short_name": "唐笠松",
          "types": [
            "political",
            "sublocality",
            "sublocality_level_3"
          ]
        },
        {
          "long_name": "小友町",
          "short_name": "小友町",
          "types": [
            "political",
            "sublocality",
            "sublocality_level_2"
          ]
        },
        {
          "long_name": "陸前高田市",
          "short_name": "陸前高田市",
          "types": [
            "locality",
            "political"
          ]
        },
        {
          "long_name": "岩手県",
          "short_name": "岩手県",
          "types": [
            "administrative_area_level_1",
            "political"
          ]
        },
        {
          "long_name": "日本",
          "short_name": "JP",
          "types": [
            "country",
            "political"
          ]
        },
        {
          "long_name": "029-2207",
          "short_name": "029-2207",
          "types": [
            "postal_code"
          ]
        }
      ],
      "formatted_address": "日本、〒029-2207 岩手県陸前高田市小友町唐笠松",
      "geometry": {
        "bounds": {
          "northeast": {
            "lat": 39.002801,
            "lng": 141.6912239
          },
          "southwest": {
            "lat": 38.997754,
            "lng": 141.685073
          }
        },
        "location": {
          "lat": 38.9999507,
          "lng": 141.6875297
        },
        "location_type": "APPROXIMATE",
        "viewport": {
          "northeast": {
            "lat": 39.002801,
            "lng": 141.6912239
          },
          "southwest": {
            "lat": 38.997754,
            "lng": 141.685073
          }
        }
      },
      "place_id": "ChIJzZCusoKiiF8Rmfo3C9ESxBE",
      "types": [
        "political",
        "sublocality",
        "sublocality_level_3"
      ]
    },
    {
      "address_components": [
        {
          "long_name": "029-2207",
          "short_name": "029-2207",
          "types": [
            "postal_code"
          ]
        },
        {
          "long_name": "小友町",
          "short_name": "小友町",
          "types": [
            "political",
            "sublocality",
            "sublocality_level_2"
          ]
        },
        {
          "long_name": "陸前高田市",
          "short_name": "陸前高田市",
          "types": [
            "locality",
            "political"
          ]
        },
        {
          "long_name": "岩手県",
          "short_name": "岩手県",
          "types": [
            "administrative_area_level_1",
            "political"
          ]
        },
        {
          "long_name": "日本",
          "short_name": "JP",
          "types": [
            "country",
            "political"
          ]
        }
      ],
      "formatted_address": "日本 〒029-2207",
      "geometry": {
        "bounds": {
          "northeast": {
            "lat": 39.0166873,
            "lng": 141.7188541
          },
          "southwest": {
            "lat": 38.9778863,
            "lng": 141.6654484
          }
        },
        "location": {
          "lat": 38.989899,
          "lng": 141.6961229
        },
        "location_type": "APPROXIMATE",
        "viewport": {
          "northeast": {
            "lat": 39.0166873,
            "lng": 141.7188541
          },
          "southwest": {
            "lat": 38.9778863,
            "lng": 141.6654484
          }
        }
      },
      "place_id": "ChIJo8oKn2mYiF8RDUQYE_x9f_I",
      "types": [
        "postal_code"
      ]
    },
    {
      "address_components": [
        {
          "long_name": "小友町",
          "short_name": "小友町",
          "types": [
            "political",
            "sublocality",
            "sublocality_level_2"
          ]
        },
        {
          "long_name": "陸前高田市",
          "short_name": "陸前高田市",
          "types": [
            "locality",
            "political"
          ]
        },
        {
          "long_name": "岩手県",
          "short_name": "岩手県",
          "types": [
            "administrative_area_level_1",
            "political"
          ]
        },
        {
          "long_name": "日本",
          "short_name": "JP",
          "types": [
            "country",
            "political"
          ]
        }
      ],
      "formatted_address": "日本、岩手県陸前高田市小友町",
      "geometry": {
        "bounds": {
          "northeast": {
            "lat": 39.016687,
            "lng": 141.718854
          },
          "southwest": {
            "lat": 38.977886,
            "lng": 141.665448
          }
        },
        "location": {
          "lat": 38.989899,
          "lng": 141.6961229
        },
        "location_type": "APPROXIMATE",
        "viewport": {
          "northeast": {
            "lat": 39.016687,
            "lng": 141.718854
          },
          "southwest": {
            "lat": 38.977886,
            "lng": 141.665448
          }
        }
      },
      "place_id": "ChIJiYSi43mYiF8RCypHKDajSkM",
      "types": [
        "political",
        "sublocality",
        "sublocality_level_2"
      ]
    },
    {
      "address_components": [
        {
          "long_name": "陸前高田市",
          "short_name": "陸前高田市",
          "types": [
            "locality",
            "political"
          ]
        },
        {
          "long_name": "岩手県",
          "short_name": "岩手県",
          "types": [
            "administrative_area_level_1",
            "political"
          ]
        },
        {
          "long_name": "日本",
          "short_name": "JP",
          "types": [
            "country",
            "political"
          ]
        }
      ],
      "formatted_address": "日本、岩手県陸前高田市",
      "geometry": {
        "bounds": {
          "northeast": {
            "lat": 39.126362,
            "lng": 141.728453
          },
          "southwest": {
            "lat": 38.933262,
            "lng": 141.4599769
          }
        },
        "location": {
          "lat": 39.0277532,
          "lng": 141.6255002
        },
        "location_type": "APPROXIMATE",
        "viewport": {
          "northeast": {
            "lat": 39.126362,
            "lng": 141.728453
          },
          "southwest": {
            "lat": 38.933262,
            "lng": 141.4599769
          }
        }
      },
      "place_id": "ChIJyzBoGFKjiF8RhQhP9xWnH-8",
      "types": [
        "locality",
        "political"
      ]
    },
    {
      "address_components": [
        {
          "long_name": "岩手県",
          "short_name": "岩手県",
          "types": [
            "administrative_area_level_1",
            "political"
          ]
        },
        {
          "long_name": "日本",
          "short_name": "JP",
          "types": [
            "country",
            "political"
          ]
        }
      ],
      "formatted_address": "日本、岩手県",
      "geometry": {
        "bounds": {
          "northeast": {
            "lat": 40.4502692,
            "lng": 142.0723994
          },
          "southwest": {
            "lat": 38.7475831,
            "lng": 140.6530857
          }
        },
        "location": {
          "lat": 39.5832989,
          "lng": 141.2534574
        },
        "location_type": "APPROXIMATE",
        "viewport": {
          "northeast": {
            "lat": 40.4502692,
            "lng": 142.0723994
          },
          "southwest": {
            "lat": 38.7475831,
            "lng": 140.6530857
          }
        }
      },
      "place_id": "ChIJIzoJ7dCQhV8RbEB_6H6BLGY",
      "types": [
        "administrative_area_level_1",
        "political"
      ]
    },
    {
      "address_components": [
        {
          "long_name": "日本",
          "short_name": "JP",
          "types": [
            "country",
            "political"
          ]
        }
      ],
      "formatted_address": "日本",
      "geometry": {
        "bounds": {
          "northeast": {
            "lat": 45.6412626,
            "lng": 154.0031455
          },
          "southwest": {
            "lat": 20.3585295,
            "lng": 122.8554688
          }
        },
        "location": {
          "lat": 36.204824,
          "lng": 138.252924
        },
        "location_type": "APPROXIMATE",
        "viewport": {
          "northeast": {
            "lat": 45.6412626,
            "lng": 154.0031455
          },
          "southwest": {
            "lat": 20.3585295,
            "lng": 122.8554688
          }
        }
      },
      "place_id": "ChIJLxl_1w9OZzQRRFJmfNR1QvU",
      "types": [
        "country",
        "political"
      ]
    }
  ]
}