{
  "station": "陸前今泉",
  "lat": 39.004122,
  "lng": 141.613479,
  "plus_code": {
    "compound_code": "2J37+J9 日本、岩手県陸前高田市",
    "global_code": "8RF32J37+J9"
  },
  "results": [
    {
      "address_components": [
        {
          "long_name": "陸前今泉駅",
          "short_name": "陸前今泉駅",
          "types": [
            "establishment",
            "point_of_interest",
            "train_station",
            "transit_station"
          ]
        },
        {
          "long_name": "愛宕下",
          "short_name": "愛宕下",
          "types": [
            "political",
            "sublocality",
            "sublocality_level_3"
          ]
        },
        {
          "long_name": "気仙町",
          "short_name": "気仙町",
          "types": [
            "political",
            "sublocality",
            "sublocality_level_2"
          ]
        },
        {
          "long_name": "陸前高田市",
          "short_name": "陸前高田市",
          "types": [
            "locality",
            "political"
          ]
        },
        {
          "long_name": "岩手県",
          "short_name": "岩手県",
          "types": [
            "administrative_area_level_1",
            "political"
          ]
        },
        {
          "long_name": "日本",
          "short_name": "JP",
          "types": [
            "country",
            "political"
          ]
        },
        {
          "long_name": "029-2204",
          "short_name": "029-2204",
          "types": [
            "postal_code"
          ]
        }
      ],
      "formatted_address": "日本、〒029-2204 岩手県陸前高田市気仙町愛宕下 陸前今泉駅",
      "geometry": {
        "location": {
          "lat": 39.0044404,
          "lng": 141.6131529
        },
        "location_type": "GEOMETRIC_CENTER",
        "viewport": {
          "northeast": {
            "lat": 39.0057893802915,
            "lng": 141.6145018802915
          },
          "southwest": {
            "lat": 39.0030914197085,
            "lng": 141.6118039197085
          }
        }
      },
      "place_id": "ChIJ4ZKNtCi9iF8RLUs2LWuAA84",
      "plus_code": {
        "compound_code": "2J37+Q7 日本、岩手県 陸前高田市",
        "global_code": "8RF32J37+Q7"
      },
      "types": [
        "establishment",
        "point_of_interest",
        "train_station",
        "transit_station"
      ]
    },
    {
      "address_components": [
        {
          "long_name": "５４",
          "short_name": "５４",
          "types": [
            "premise"
          ]
        },
        {
          "long_name": "愛宕下",
          "short_name": "愛宕下",
          "types": [
            "political",
            "sublocality",
            "sublocality_level_3"
          ]
        },
        {
          "long_name": "気仙町",
          "short_name": "気仙町",
          "types": [
            "political",
            "sublocality",
            "sublocality_level_2"
          ]
        },
        {
          "long_name": "陸前高田市",
          "short_name": "陸前高田市",
          "types": [
            "locality",
            "political"
          ]
        },
        {
          "long_name": "岩手県",
          "short_name": "岩手県",
          "types": [
            "administrative_area_level_1",
            "political"
          ]
        },
        {
          "long_name": "日本",
          "short_name": "JP",
          "types": [
            "country",
            "political"
          ]
        },
        {
          "long_name": "029-2204",
          "short_name": "029-2204",
          "types": [
            "postal_code"
          ]
        }
      ],
      "formatted_address": "日本、〒029-2204 岩手県陸前高田市気仙町愛宕下５４",
      "geometry": {
        "location": {
          "lat": 39.0054022,
          "lng": 141.6141558
        },
        "location_type": "ROOFTOP",
        "viewport": {
          "northeast": {
            "lat": 39.0067511802915,
            "lng": 141.6155047802915
          },
          "southwest": {
            "lat": 39.0040532197085,
            "lng": 141.6128068197085
          }
        }
      },
      "place_id": "ChIJlTtw2Ci9iF8RD6_UKx-S51A",
      "plus_code": {
        "compound_code": "2J47+5M 日本、岩手県 陸前高田市",
        "global_code": "8RF32J47+5M"
      },
      "types": [
        "street_address"
      ]
    },
    {
      "address_components": [
        {
          "long_name": "唐桑高田道路",
          "short_name": "唐桑高田道路",
          "types": [
            "route"
          ]
        },
        {
          "long_name": "気仙町",
          "short_name": "気仙町",
          "types": [
            "political",
            "sublocality",
            "sublocality_level_2"
          ]
        },
        {
          "long_name": "陸前高田市",
          "short_name": "陸前高田市",
          "types": [
            "locality",
            "political"
          ]
        },
        {
          "long_name": "岩手県",
          "short_name": "岩手県",
          "types": [
            "administrative_area_level_1",
            "political"
          ]
        },
        {
          "long_name": "日本",
          "short_name": "JP",
          "types": [
            "country",
            "political"
          ]
        },
        {
          "long_name": "029-2204",
          "short_name": "029-2204",
          "types": [
            "postal_code"
          ]
        }
      ],
      "formatted_address": "日本、〒029-2204 岩手県陸前高田市気仙町 唐桑高田道路",
      "geometry": {
        "bounds": {
          "northeast": {
            "lat": 39.0177706,
            "lng": 141.6149758
          },
          "southwest": {
            "lat": 38.9982404,
            "lng": 141.6081784
          }
        },
        "location": {
          "lat": 39.0078835,
          "lng": 141.6110947
        },
        "location_type": "GEOMETRIC_CENTER",
        "viewport": {
          "northeast": {
            "lat": 39.0177706,
            "lng": 141.6149758
          },
          "southwest": {
            "lat": 38.9982404,
            "lng": 141.6081784
          }
        }
      },
      "place_id": "ChIJb1SN2ym9iF8RmjVaBkfNNWg",
      "types": [
        "route"
      ]
    },
    {
      "address_components": [
        {
          "long_name": "愛宕下",
          "short_name": "愛宕下",
          "types": [
            "political",
            "sublocality",
            "sublocality_level_3"
          ]
        },
        {
          "long_name": "気仙町",
          "short_name": "気仙町",
          "types": [
            "political",
            "sublocality",
            "sublocality_level_2"
          ]
        },
        {
          "long_name": "陸前高田市",
          "short_name": "陸前高田市",
          "types": [
            "locality",
            "political"
          ]
        },
        {
          "long_name": "岩手県",
          "short_name": "岩手県",
          "types": [
            "administrative_area_level_1",
            "political"
          ]
        },
        {
          "long_name": "日本",
          "short_name": "JP",
          "types": [
            "country",
            "political"
          ]
        },
        {
          "long_name": "029-2204",
          "short_name": "029-2204",
          "types": [
            "postal_code"
          ]
        }
      ],
      "formatted_address": "日本、〒029-2204 岩手県陸前高田市気仙町愛宕下",
      "geometry": {
        "bounds": {
          "northeast": {
            "lat": 39.00724599999999,
            "lng": 141.6206471
          },
          "southwest": {
            "lat": 38.996915,
            "lng": 141.6074889
          }
        },
        "location": {
          "lat": 39.0027185,
          "lng": 141.6120013
        },
        "location_type": "APPROXIMATE",
        "viewport": {
          "northeast": {
            "lat": 39.00724599999999,
            "lng": 141.6206471
          },
          "southwest": {
            "lat": 38.996915,
            "lng": 141.6074889
          }
        }
      },
      "place_id": "ChIJuUszVi-9iF8RXtroA6UXZlg",
      "types": [
        "political",
        "sublocality",
        "sublocality_level_3"
      ]
    },
    {
      "address_components": [
        {
          "long_name": "029-2204",
          "short_name": "029-2204",
          "types": [
            "postal_code"
          ]
        },
        {
          "long_name": "気仙町",
          "short_name": "気仙町",
          "types": [
            "political",
            "sublocality",
            "sublocality_level_2"
          ]
        },
        {
          "long_name": "陸前高田市",
          "short_name": "陸前高田市",
          "types": [
            "locality",
            "political"
          ]
        },
        {
          "long_name": "岩手県",
          "short_name": "岩手県",
          "types": [
            "administrative_area_level_1",
            "political"
          ]
        },
        {
          "long_name": "日本",
          "short_name": "JP",
          "types": [
            "country",
            "political"
          ]
        }
      ],
      "formatted_address": "日本 〒029-2204",
      "geometry": {
        "bounds": {
          "northeast": {
            "lat": 39.0271421,
            "lng": 141.6343973
          },
          "southwest": {
            "lat": 38.9701404,
            "lng": 141.56714
          }
        },
        "location": {
          "lat": 39.0018707,
          "lng": 141.6068103
        },
        "location_type": "APPROXIMATE",
        "viewport": {
          "northeast": {
            "lat": 39.0271421,
            "lng": 141.6343973
          },
          "southwest": {
            "lat": 38.9701404,
            "lng": 141.56714
          }
        }
      },
      "place_id": "ChIJaXHQgyq9iF8RErNnjt0ryCY",
      "types": [
        "postal_code"
      ]
    },
    {
      "address_components": [
        {
          "long_name": "気仙町",
          "short_name": "気仙町",
          "types": [
            "political",
            "sublocality",
            "sublocality_level_2"
          ]
        },
        {
          "long_name": "陸前高田市",
          "short_name": "陸前高田市",
          "types": [
            "locality",
            "political"
          ]
        },
        {
          "long_name": "岩手県",
          "short_name": "岩手県",
          "types": [
            "administrative_area_level_1",
            "political"
          ]
        },
        {
          "long_name": "日本",
          "short_name": "JP",
          "types": [
            "country",
            "political"
          ]
        },
        {
          "long_name": "029-2204",
          "short_name": "029-2204",
          "types": [
            "postal_code"
          ]
        }
      ],
      "formatted_address": "日本、〒029-2204 岩手県陸前高田市気仙町",
      "geometry": {
        "bounds": {
          "northeast": {
            "lat": 39.026738,
            "lng": 141.634397
          },
          "southwest": {
            "lat": 38.97014,
            "lng": 141.5672161
          }
        },
        "location": {
          "lat": 39.0018707,
          "lng": 141.6068103
        },
        "location_type": "APPROXIMATE",
        "viewport": {
          "northeast": {
            "lat": 39.026738,
            "lng": 141.634397
          },
          "southwest": {
            "lat": 38.97014,
            "lng": 141.5672161
          }
        }
      },
      "place_id": "ChIJLZoywRi9iF8R0aI2qTlG4NU",
      "types": [
        "political",
        "sublocality",
        "sublocality_level_2"
      ]
    },
    {
      "address_components": [
        {
          "long_name": "陸前高田市",
          "short_name": "陸前高田市",
          "types": [
            "locality",
            "political"
          ]
        },
        {
          "long_name": "岩手県",
          "short_name": "岩手県",
          "types": [
            "administrative_area_level_1",
            "political"
          ]
        },
        {
          "long_name": "日本",
          "short_name": "JP",
          "types": [
            "country",
            "political"
          ]
        }
      ],
      "formatted_address": "日本、岩手県陸前高田市",
      "geometry": {
        "bounds": {
          "northeast": {
            "lat": 39.126362,
            "lng": 141.728453
          },
          "southwest": {
            "lat": 38.933262,
            "lng": 141.4599769
          }
        },
        "location": {
          "lat": 39.0277532,
          "lng": 141.6255002
        },
        "location_type": "APPROXIMATE",
        "viewport": {
          "northeast": {
            "lat": 39.126362,
            "lng": 141.728453
          },
          "southwest": {
            "lat": 38.933262,
            "lng": 141.4599769
          }
        }
      },
      "place_id": "ChIJyzBoGFKjiF8RhQhP9xWnH-8",
      "types": [
        "locality",
        "political"
      ]
    },
    {
      "address_components": [
        {
          "long_name": "岩手県",
          "short_name": "岩手県",
          "types": [
            "administrative_area_level_1",
            "political"
          ]
        },
        {
          "long_name": "日本",
          "short_name": "JP",
          "types": [
            "country",
            "political"
          ]
        }
      ],
      "formatted_address": "日本、岩手県",
      "geometry": {
        "bounds": {
          "northeast": {
            "lat": 40.4502692,
            "lng": 142.0723994
          },
          "southwest": {
            "lat": 38.7475831,
            "lng": 140.6530857
          }
        },
        "location": {
          "lat": 39.5832989,
          "lng": 141.2534574
        },
        "location_type": "APPROXIMATE",
        "viewport": {
          "northeast": {
            "lat": 40.4502692,
            "lng": 142.0723994
          },
          "southwest": {
            "lat": 38.7475831,
            "lng": 140.6530857
          }
        }
      },
      "place_id": "ChIJIzoJ7dCQhV8RbEB_6H6BLGY",
      "types": [
        "administrative_area_level_1",
        "political"
      ]
    },
    {
      "address_components": [
        {
          "long_name": "日本",
          "short_name": "JP",
          "types": [
            "country",
            "political"
          ]
        }
      ],
      "formatted_address": "日本",
      "geometry": {
        "bounds": {
          "northeast": {
            "lat": 45.6412626,
            "lng": 154.0031455
          },
          "southwest": {
            "lat": 20.3585295,
            "lng": 122.8554688
          }
        },
        "location": {
          "lat": 36.204824,
          "lng": 138.252924
        },
        "location_type": "APPROXIMATE",
        "viewport": {
          "northeast": {
            "lat": 45.6412626,
            "lng": 154.0031455
          },
          "southwest": {
            "lat": 20.3585295,
            "lng": 122.8554688
          }
        }
      },
      "place_id": "ChIJLxl_1w9OZzQRRFJmfNR1QvU",
      "types": [
        "country",
        "political"
      ]
    }
  ]
}