{
  "station": "御手洗",
  "lat": 33.606696,
  "lng": 130.451582,
  "plus_code": {
    "compound_code": "JF42+MJ 日本、福岡県志免町",
    "global_code": "8Q5GJF42+MJ"
  },
  "results": [
    {
      "address_components": [
        {
          "long_name": "志免鉄道公園 (旧御手洗駅)",
          "short_name": "志免鉄道公園 (旧御手洗駅)",
          "types": [
            "establishment",
            "park",
            "point_of_interest"
          ]
        },
        {
          "long_name": "１１",
          "short_name": "１１",
          "types": [
            "premise"
          ]
        },
        {
          "long_name": "９",
          "short_name": "９",
          "types": [
            "political",
            "sublocality",
            "sublocality_level_4"
          ]
        },
        {
          "long_name": "２丁目",
          "short_name": "２丁目",
          "types": [
            "political",
            "sublocality",
            "sublocality_level_3"
          ]
        },
        {
          "long_name": "別府北",
          "short_name": "別府北",
          "types": [
            "political",
            "sublocality",
            "sublocality_level_2"
          ]
        },
        {
          "long_name": "志免町",
          "short_name": "志免町",
          "types": [
            "locality",
            "political"
          ]
        },
        {
          "long_name": "糟屋郡",
          "short_name": "糟屋郡",
          "types": [
            "administrative_area_level_2",
            "political"
          ]
        },
        {
          "long_name": "福岡県",
          "short_name": "福岡県",
          "types": [
            "administrative_area_level_1",
            "political"
          ]
        },
        {
          "long_name": "日本",
          "short_name": "JP",
          "types": [
            "country",
            "political"
          ]
        },
        {
          "long_name": "811-2233",
          "short_name": "811-2233",
          "types": [
            "postal_code"
          ]
        }
      ],
      "formatted_address": "日本、〒811-2233 福岡県糟屋郡志免町別府北２丁目９−１１ 志免鉄道公園 (旧御手洗駅)",
      "geometry": {
        "location": {
          "lat": 33.6066784,
          "lng": 130.4515899
        },
        "location_type": "ROOFTOP",
        "viewport": {
          "northeast": {
            "lat": 33.6080273802915,
            "lng": 130.4529388802915
          },
          "southwest": {
            "lat": 33.6053294197085,
            "lng": 130.4502409197085
          }
        }
      },
      "place_id": "ChIJL1ubncKPQTURa7tiPwS5DC4",
      "plus_code": {
        "compound_code": "JF42+MJ 日本、福岡県 志免町",
        "global_code": "8Q5GJF42+MJ"
      },
      "types": [
        "establishment",
        "park",
        "point_of_interest"
      ]
    },
    {
      "address_components": [
        {
          "long_name": "１１",
          "short_name": "１１",
          "types": [
            "premise"
          ]
        },
        {
          "long_name": "９",
          "short_name": "９",
          "types": [
            "political",
            "sublocality",
            "sublocality_level_4"
          ]
        },
        {
          "long_name": "２丁目",
          "short_name": "２丁目",
          "types": [
            "political",
            "sublocality",
            "sublocality_level_3"
          ]
        },
        {
          "long_name": "別府北",
          "short_name": "別府北",
          "types": [
            "political",
            "sublocality",
            "sublocality_level_2"
          ]
        },
        {
          "long_name": "志免町",
          "short_name": "志免町",
          "types": [
            "locality",
            "political"
          ]
        },
        {
          "long_name": "糟屋郡",
          "short_name": "糟屋郡",
          "types": [
            "administrative_area_level_2",
            "political"
          ]
        },
        {
          "long_name": "福岡県",
          "short_name": "福岡県",
          "types": [
            "administrative_area_level_1",
            "political"
          ]
        },
        {
          "long_name": "日本",
          "short_name": "JP",
          "types": [
            "country",
            "political"
          ]
        },
        {
          "long_name": "811-2233",
          "short_name": "811-2233",
          "types": [
            "postal_code"
          ]
        }
      ],
      "formatted_address": "日本、〒811-2233 福岡県糟屋郡志免町別府北２丁目９−１１",
      "geometry": {
        "bounds": {
          "northeast": {
            "lat": 33.6063237,
            "lng": 130.4520555
          },
          "southwest": {
            "lat": 33.6061588,
            "lng": 130.4518825
          }
        },
        "location": {
          "lat": 33.6062381,
          "lng": 130.4519711
        },
        "location_type": "ROOFTOP",
        "viewport": {
          "northeast": {
            "lat": 33.6075902302915,
            "lng": 130.4533179802915
          },
          "southwest": {
            "lat": 33.6048922697085,
            "lng": 130.4506200197085
          }
        }
      },
      "place_id": "ChIJBV0lIuiPQTUR3QPB5LejRzU",
      "types": [
        "premise"
      ]
    },
    {
      "address_components": [
        {
          "long_name": "１５",
          "short_name": "１５",
          "types": [
            "premise"
          ]
        },
        {
          "long_name": "１",
          "short_name": "１",
          "types": [
            "political",
            "sublocality",
            "sublocality_level_4"
          ]
        },
        {
          "long_name": "１丁目",
          "short_name": "１丁目",
          "types": [
            "political",
            "sublocality",
            "sublocality_level_3"
          ]
        },
        {
          "long_name": "御手洗",
          "short_name": "御手洗",
          "types": [
            "political",
            "sublocality",
            "sublocality_level_2"
          ]
        },
        {
          "long_name": "志免町",
          "short_name": "志免町",
          "types": [
            "locality",
            "political"
          ]
        },
        {
          "long_name": "糟屋郡",
          "short_name": "糟屋郡",
          "types": [
            "administrative_area_level_2",
            "political"
          ]
        },
        {
          "long_name": "福岡県",
          "short_name": "福岡県",
          "types": [
            "administrative_area_level_1",
            "political"
          ]
        },
        {
          "long_name": "日本",
          "short_name": "JP",
          "types": [
            "country",
            "political"
          ]
        },
        {
          "long_name": "811-2206",
          "short_name": "811-2206",
          "types": [
            "postal_code"
          ]
        }
      ],
      "formatted_address": "日本、〒811-2206 福岡県糟屋郡志免町御手洗１丁目１−１５",
      "geometry": {
        "location": {
          "lat": 33.6067142,
          "lng": 130.4506512
        },
        "location_type": "ROOFTOP",
        "viewport": {
          "northeast": {
            "lat": 33.6080631802915,
            "lng": 130.4520001802915
          },
          "southwest": {
            "lat": 33.6053652197085,
            "lng": 130.4493022197085
          }
        }
      },
      "place_id": "ChIJvSMAlsKPQTUR6EQDsFvnyig",
      "plus_code": {
        "compound_code": "JF42+M7 日本、福岡県 志免町",
        "global_code": "8Q5GJF42+M7"
      },
      "types": [
        "street_address"
      ]
    },
    {
      "address_components": [
        {
          "long_name": "Unnamed Road",
          "short_name": "Unnamed Road",
          "types": [
            "route"
          ]
        },
        {
          "long_name": "９",
          "short_name": "９",
          "types": [
            "political",
            "sublocality",
            "sublocality_level_4"
          ]
        },
        {
          "long_name": "２丁目",
          "short_name": "２丁目",
          "types": [
            "political",
            "sublocality",
            "sublocality_level_3"
          ]
        },
        {
          "long_name": "別府北",
          "short_name": "別府北",
          "types": [
            "political",
            "sublocality",
            "sublocality_level_2"
          ]
        },
        {
          "long_name": "志免町",
          "short_name": "志免町",
          "types": [
            "locality",
            "political"
          ]
        },
        {
          "long_name": "糟屋郡",
          "short_name": "糟屋郡",
          "types": [
            "administrative_area_level_2",
            "political"
          ]
        },
        {
          "long_name": "福岡県",
          "short_name": "福岡県",
          "types": [
            "administrative_area_level_1",
            "political"
          ]
        },
        {
          "long_name": "日本",
          "short_name": "JP",
          "types": [
            "country",
            "political"
          ]
        },
        {
          "long_name": "811-2233",
          "short_name": "811-2233",
          "types": [
            "postal_code"
          ]
        }
      ],
      "formatted_address": "Unnamed Road, ２丁目-９ 別府北 志免町 糟屋郡 福岡県 811-2233 日本",
      "geometry": {
        "bounds": {
          "northeast": {
            "lat": 33.6076073,
            "lng": 130.4521938
          },
          "southwest": {
            "lat": 33.60608819999999,
            "lng": 130.4507234
          }
        },
        "location": {
          "lat": 33.6068968,
          "lng": 130.4514754
        },
        "location_type": "GEOMETRIC_CENTER",
        "viewport": {
          "northeast": {
            "lat": 33.60819673029149,
            "lng": 130.4528075802915
          },
          "southwest": {
            "lat": 33.6054987697085,
            "lng": 130.4501096197085
          }
        }
      },
      "place_id": "ChIJA_7bnMKPQTURpuyLexnpzLc",
      "types": [
        "route"
      ]
    },
    {
      "address_components": [
        {
          "long_name": "９",
          "short_name": "９",
          "types": [
            "political",
            "sublocality",
            "sublocality_level_4"
          ]
        },
        {
          "long_name": "２丁目",
          "short_name": "２丁目",
          "types": [
            "political",
            "sublocality",
            "sublocality_level_3"
          ]
        },
        {
          "long_name": "別府北",
          "short_name": "別府北",
          "types": [
            "political",
            "sublocality",
            "sublocality_level_2"
          ]
        },
        {
          "long_name": "志免町",
          "short_name": "志免町",
          "types": [
            "locality",
            "political"
          ]
        },
        {
          "long_name": "糟屋郡",
          "short_name": "糟屋郡",
          "types": [
            "administrative_area_level_2",
            "political"
          ]
        },
        {
          "long_name": "福岡県",
          "short_name": "福岡県",
          "types": [
            "administrative_area_level_1",
            "political"
          ]
        },
        {
          "long_name": "日本",
          "short_name": "JP",
          "types": [
            "country",
            "political"
          ]
        },
        {
          "long_name": "811-2233",
          "short_name": "811-2233",
          "types": [
            "postal_code"
          ]
        }
      ],
      "formatted_address": "日本、〒811-2233 福岡県糟屋郡志免町別府北２丁目９",
      "geometry": {
        "bounds": {
          "northeast": {
            "lat": 33.607712,
            "lng": 130.4528161
          },
          "southwest": {
            "lat": 33.60531,
            "lng": 130.4505519
          }
        },
        "location": {
          "lat": 33.6066401,
          "lng": 130.4515534
        },
        "location_type": "GEOMETRIC_CENTER",
        "viewport": {
          "northeast": {
            "lat": 33.60785998029149,
            "lng": 130.4530329802915
          },
          "southwest": {
            "lat": 33.6051620197085,
            "lng": 130.4503350197085
          }
        }
      },
      "place_id": "ChIJZ8miIOiPQTURMFBzwEZaUM4",
      "types": [
        "political",
        "sublocality",
        "sublocality_level_4"
      ]
    },
    {
      "address_components": [
        {
          "long_name": "２丁目",
          "short_name": "２丁目",
          "types": [
            "political",
            "sublocality",
            "sublocality_level_3"
          ]
        },
        {
          "long_name": "別府北",
          "short_name": "別府北",
          "types": [
            "political",
            "sublocality",
            "sublocality_level_2"
          ]
        },
        {
          "long_name": "志免町",
          "short_name": "志免町",
          "types": [
            "locality",
            "political"
          ]
        },
        {
          "long_name": "糟屋郡",
          "short_name": "糟屋郡",
          "types": [
            "administrative_area_level_2",
            "political"
          ]
        },
        {
          "long_name": "福岡県",
          "short_name": "福岡県",
          "types": [
            "administrative_area_level_1",
            "political"
          ]
        },
        {
          "long_name": "日本",
          "short_name": "JP",
          "types": [
            "country",
            "political"
          ]
        },
        {
          "long_name": "811-2233",
          "short_name": "811-2233",
          "types": [
            "postal_code"
          ]
        }
      ],
      "formatted_address": "日本、〒811-2233 福岡県糟屋郡志免町別府北２丁目",
      "geometry": {
        "bounds": {
          "northeast": {
            "lat": 33.609391,
            "lng": 130.457028
          },
          "southwest": {
            "lat": 33.603643,
            "lng": 130.4505519
          }
        },
        "location": {
          "lat": 33.6060777,
          "lng": 130.4535427
        },
        "location_type": "APPROXIMATE",
        "viewport": {
          "northeast": {
            "lat": 33.609391,
            "lng": 130.457028
          },
          "southwest": {
            "lat": 33.603643,
            "lng": 130.4505519
          }
        }
      },
      "place_id": "ChIJXVdmU-iPQTURBu-rqLoso80",
      "types": [
        "political",
        "sublocality",
        "sublocality_level_3"
      ]
    },
    {
      "address_components": [
        {
          "long_name": "別府北",
          "short_name": "別府北",
          "types": [
            "political",
            "sublocality",
            "sublocality_level_2"
          ]
        },
        {
          "long_name": "志免町",
          "short_name": "志免町",
          "types": [
            "locality",
            "political"
          ]
        },
        {
          "long_name": "糟屋郡",
          "short_name": "糟屋郡",
          "types": [
            "administrative_area_level_2",
            "political"
          ]
        },
        {
          "long_name": "福岡県",
          "short_name": "福岡県",
          "types": [
            "administrative_area_level_1",
            "political"
          ]
        },
        {
          "long_name": "日本",
          "short_name": "JP",
          "types": [
            "country",
            "political"
          ]
        },
        {
          "long_name": "811-2233",
          "short_name": "811-2233",
          "types": [
            "postal_code"
          ]
        }
      ],
      "formatted_address": "日本、〒811-2233 福岡県糟屋郡志免町別府北",
      "geometry": {
        "bounds": {
          "northeast": {
            "lat": 33.610136,
            "lng": 130.4601019
          },
          "southwest": {
            "lat": 33.601402,
            "lng": 130.4482959
          }
        },
        "location": {
          "lat": 33.6057426,
          "lng": 130.4529061
        },
        "location_type": "APPROXIMATE",
        "viewport": {
          "northeast": {
            "lat": 33.610136,
            "lng": 130.4601019
          },
          "southwest": {
            "lat": 33.601402,
            "lng": 130.4482959
          }
        }
      },
      "place_id": "ChIJ_YvH9-iPQTURr0bfIgnHB70",
      "types": [
        "political",
        "sublocality",
        "sublocality_level_2"
      ]
    },
    {
      "address_components": [
        {
          "long_name": "811-2233",
          "short_name": "811-2233",
          "types": [
            "postal_code"
          ]
        },
        {
          "long_name": "別府北",
          "short_name": "別府北",
          "types": [
            "political",
            "sublocality",
            "sublocality_level_2"
          ]
        },
        {
          "long_name": "志免町",
          "short_name": "志免町",
          "types": [
            "locality",
            "political"
          ]
        },
        {
          "long_name": "糟屋郡",
          "short_name": "糟屋郡",
          "types": [
            "administrative_area_level_2",
            "political"
          ]
        },
        {
          "long_name": "福岡県",
          "short_name": "福岡県",
          "types": [
            "administrative_area_level_1",
            "political"
          ]
        },
        {
          "long_name": "日本",
          "short_name": "JP",
          "types": [
            "country",
            "political"
          ]
        }
      ],
      "formatted_address": "日本 〒811-2233",
      "geometry": {
        "bounds": {
          "northeast": {
            "lat": 33.6101354,
            "lng": 130.4601019
          },
          "southwest": {
            "lat": 33.6014023,
            "lng": 130.4482956
          }
        },
        "location": {
          "lat": 33.6057426,
          "lng": 130.4529061
        },
        "location_type": "APPROXIMATE",
        "viewport": {
          "northeast": {
            "lat": 33.6101354,
            "lng": 130.4601019
          },
          "southwest": {
            "lat": 33.6014023,
            "lng": 130.4482956
          }
        }
      },
      "place_id": "ChIJuQLd_euPQTURthlApiaKf5w",
      "types": [
        "postal_code"
      ]
    },
    {
      "address_components": [
        {
          "long_name": "志免町",
          "short_name": "志免町",
          "types": [
            "locality",
            "political"
          ]
        },
        {
          "long_name": "糟屋郡",
          "short_name": "糟屋郡",
          "types": [
            "administrative_area_level_2",
            "political"
          ]
        },
        {
          "long_name": "福岡県",
          "short_name": "福岡県",
          "types": [
            "administrative_area_level_1",
            "political"
          ]
        },
        {
          "long_name": "日本",
          "short_name": "JP",
          "types": [
            "country",
            "political"
          ]
        }
      ],
      "formatted_address": "日本、福岡県糟屋郡志免町",
      "geometry": {
        "bounds": {
          "northeast": {
            "lat": 33.6101279,
            "lng": 130.500921
          },
          "southwest": {
            "lat": 33.5602749,
            "lng": 130.442185
          }
        },
        "location": {
          "lat": 33.5913508,
          "lng": 130.4790271
        },
        "location_type": "APPROXIMATE",
        "viewport": {
          "northeast": {
            "lat": 33.6101279,
            "lng": 130.500921
          },
          "southwest": {
            "lat": 33.5602749,
            "lng": 130.442185
          }
        }
      },
      "place_id": "ChIJ8xglhACQQTUR-TiQdFp6_Ns",
      "types": [
        "locality",
        "political"
      ]
    },
    {
      "address_components": [
        {
          "long_name": "糟屋郡",
          "short_name": "糟屋郡",
          "types": [
            "administrative_area_level_2",
            "political"
          ]
        },
        {
          "long_name": "福岡県",
          "short_name": "福岡県",
          "types": [
            "administrative_area_level_1",
            "political"
          ]
        },
        {
          "long_name": "日本",
          "short_name": "JP",
          "types": [
            "country",
            "political"
          ]
        }
      ],
      "formatted_address": "日本、福岡県糟屋郡",
      "geometry": {
        "bounds": {
          "northeast": {
            "lat": 33.7671269,
            "lng": 130.5987661
          },
          "southwest": {
            "lat": 33.5296638,
            "lng": 130.359016
          }
        },
        "location": {
          "lat": 33.6198255,
          "lng": 130.5330604
        },
        "location_type": "APPROXIMATE",
        "viewport": {
          "northeast": {
            "lat": 33.7671269,
            "lng": 130.5987661
          },
          "southwest": {
            "lat": 33.5296638,
            "lng": 130.359016
          }
        }
      },
      "place_id": "ChIJtfgvWPCFQTURHr088fHJLv0",
      "types": [
        "administrative_area_level_2",
        "political"
      ]
    },
    {
      "address_components": [
        {
          "long_name": "福岡県",
          "short_name": "福岡県",
          "types": [
            "administrative_area_level_1",
            "political"
          ]
        },
        {
          "long_name": "日本",
          "short_name": "JP",
          "types": [
            "country",
            "political"
          ]
        }
      ],
      "formatted_address": "日本、福岡県",
      "geometry": {
        "bounds": {
          "northeast": {
            "lat": 34.2498953,
            "lng": 131.1904222
          },
          "southwest": {
            "lat": 32.9999501,
            "lng": 129.9813557
          }
        },
        "location": {
          "lat": 33.56625590000001,
          "lng": 130.715857
        },
        "location_type": "APPROXIMATE",
        "viewport": {
          "northeast": {
            "lat": 34.2498953,
            "lng": 131.1904222
          },
          "southwest": {
            "lat": 32.9999501,
            "lng": 129.9813557
          }
        }
      },
      "place_id": "ChIJJbF-93qBQTURTThRSvsPopc",
      "types": [
        "administrative_area_level_1",
        "political"
      ]
    },
    {
      "address_components": [
        {
          "long_name": "日本",
          "short_name": "JP",
          "types": [
            "country",
            "political"
          ]
        }
      ],
      "formatted_address": "日本",
      "geometry": {
        "bounds": {
          "northeast": {
            "lat": 45.6412626,
            "lng": 154.0031455
          },
          "southwest": {
            "lat": 20.3585295,
            "lng": 122.8554688
          }
        },
        "location": {
          "lat": 36.204824,
          "lng": 138.252924
        },
        "location_type": "APPROXIMATE",
        "viewport": {
          "northeast": {
            "lat": 45.6412626,
            "lng": 154.0031455
          },
          "southwest": {
            "lat": 20.3585295,
            "lng": 122.8554688
          }
        }
      },
      "place_id": "ChIJLxl_1w9OZzQRRFJmfNR1QvU",
      "types": [
        "country",
        "political"
      ]
    }
  ]
}