{
  "station": "薩摩永野",
  "lat": 31.924754,
  "lng": 130.588251,
  "plus_code": {
    "compound_code": "WHFQ+W8 日本、鹿児島県さつま町",
    "global_code": "8Q3GWHFQ+W8"
  },
  "results": [
    {
      "address_components": [
        {
          "long_name": "８８４",
          "short_name": "８８４",
          "types": [
            "premise"
          ]
        },
        {
          "long_name": "永野",
          "short_name": "永野",
          "types": [
            "political",
            "sublocality",
            "sublocality_level_2"
          ]
        },
        {
          "long_name": "さつま町",
          "short_name": "さつま町",
          "types": [
            "locality",
            "political"
          ]
        },
        {
          "long_name": "薩摩郡",
          "short_name": "薩摩郡",
          "types": [
            "administrative_area_level_2",
            "political"
          ]
        },
        {
          "long_name": "鹿児島県",
          "short_name": "鹿児島県",
          "types": [
            "administrative_area_level_1",
            "political"
          ]
        },
        {
          "long_name": "日本",
          "short_name": "JP",
          "types": [
            "country",
            "political"
          ]
        },
        {
          "long_name": "895-2203",
          "short_name": "895-2203",
          "types": [
            "postal_code"
          ]
        }
      ],
      "formatted_address": "日本、〒895-2203 鹿児島県薩摩郡さつま町永野８８４",
      "geometry": {
        "location": {
          "lat": 31.9246822,
          "lng": 130.5883584
        },
        "location_type": "ROOFTOP",
        "viewport": {
          "northeast": {
            "lat": 31.9260311802915,
            "lng": 130.5897073802915
          },
          "southwest": {
            "lat": 31.9233332197085,
            "lng": 130.5870094197085
          }
        }
      },
      "place_id": "ChIJs0gfUKmrPzURMHPrDs-X5Sg",
      "plus_code": {
        "compound_code": "WHFQ+V8 日本、鹿児島県 さつま町",
        "global_code": "8Q3GWHFQ+V8"
      },
      "types": [
        "street_address"
      ]
    },
    {
      "address_components": [
        {
          "long_name": "８８４",
          "short_name": "８８４",
          "types": [
            "premise"
          ]
        },
        {
          "long_name": "永野",
          "short_name": "永野",
          "types": [
            "political",
            "sublocality",
            "sublocality_level_2"
          ]
        },
        {
          "long_name": "さつま町",
          "short_name": "さつま町",
          "types": [
            "locality",
            "political"
          ]
        },
        {
          "long_name": "薩摩郡",
          "short_name": "薩摩郡",
          "types": [
            "administrative_area_level_2",
            "political"
          ]
        },
        {
          "long_name": "鹿児島県",
          "short_name": "鹿児島県",
          "types": [
            "administrative_area_level_1",
            "political"
          ]
        },
        {
          "long_name": "日本",
          "short_name": "JP",
          "types": [
            "country",
            "political"
          ]
        },
        {
          "long_name": "895-2203",
          "short_name": "895-2203",
          "types": [
            "postal_code"
          ]
        }
      ],
      "formatted_address": "日本、〒895-2203 鹿児島県薩摩郡さつま町永野８８４",
      "geometry": {
        "location": {
          "lat": 31.9246822,
          "lng": 130.5883584
        },
        "location_type": "ROOFTOP",
        "viewport": {
          "northeast": {
            "lat": 31.9260311802915,
            "lng": 130.5897073802915
          },
          "southwest": {
            "lat": 31.9233332197085,
            "lng": 130.5870094197085
          }
        }
      },
      "place_id": "ChIJs0gfUKmrPzURQVxyZDrBrFg",
      "plus_code": {
        "compound_code": "WHFQ+V8 日本、鹿児島県 さつま町",
        "global_code": "8Q3GWHFQ+V8"
      },
      "types": [
        "establishment",
        "point_of_interest",
        "tourist_attraction"
      ]
    },
    {
      "address_components": [
        {
          "long_name": "牧園薩摩線",
          "short_name": "県道50号",
          "types": [
            "route"
          ]
        },
        {
          "long_name": "永野",
          "short_name": "永野",
          "types": [
            "political",
            "sublocality",
            "sublocality_level_2"
          ]
        },
        {
          "long_name": "さつま町",
          "short_name": "さつま町",
          "types": [
            "locality",
            "political"
          ]
        },
        {
          "long_name": "薩摩郡",
          "short_name": "薩摩郡",
          "types": [
            "administrative_area_level_2",
            "political"
          ]
        },
        {
          "long_name": "鹿児島県",
          "short_name": "鹿児島県",
          "types": [
            "administrative_area_level_1",
            "political"
          ]
        },
        {
          "long_name": "日本",
          "short_name": "JP",
          "types": [
            "country",
            "political"
          ]
        },
        {
          "long_name": "895-2203",
          "short_name": "895-2203",
          "types": [
            "postal_code"
          ]
        }
      ],
      "formatted_address": "日本、〒895-2203 鹿児島県薩摩郡さつま町永野 県道50号",
      "geometry": {
        "bounds": {
          "northeast": {
            "lat": 31.9251621,
            "lng": 130.5885552
          },
          "southwest": {
            "lat": 31.9251568,
            "lng": 130.5881504
          }
        },
        "location": {
          "lat": 31.9251595,
          "lng": 130.5883528
        },
        "location_type": "GEOMETRIC_CENTER",
        "viewport": {
          "northeast": {
            "lat": 31.9265084302915,
            "lng": 130.5897017802915
          },
          "southwest": {
            "lat": 31.9238104697085,
            "lng": 130.5870038197085
          }
        }
      },
      "place_id": "ChIJQYZbTKmrPzURLlpSa_ydUhk",
      "types": [
        "route"
      ]
    },
    {
      "address_components": [
        {
          "long_name": "永野",
          "short_name": "永野",
          "types": [
            "political",
            "sublocality",
            "sublocality_level_2"
          ]
        },
        {
          "long_name": "さつま町",
          "short_name": "さつま町",
          "types": [
            "locality",
            "political"
          ]
        },
        {
          "long_name": "薩摩郡",
          "short_name": "薩摩郡",
          "types": [
            "administrative_area_level_2",
            "political"
          ]
        },
        {
          "long_name": "鹿児島県",
          "short_name": "鹿児島県",
          "types": [
            "administrative_area_level_1",
            "political"
          ]
        },
        {
          "long_name": "日本",
          "short_name": "JP",
          "types": [
            "country",
            "political"
          ]
        },
        {
          "long_name": "895-2203",
          "short_name": "895-2203",
          "types": [
            "postal_code"
          ]
        }
      ],
      "formatted_address": "日本、〒895-2203 鹿児島県薩摩郡さつま町永野",
      "geometry": {
        "bounds": {
          "northeast": {
            "lat": 31.953641,
            "lng": 130.627793
          },
          "southwest": {
            "lat": 31.879431,
            "lng": 130.5489399
          }
        },
        "location": {
          "lat": 31.9210596,
          "lng": 130.5991367
        },
        "location_type": "APPROXIMATE",
        "viewport": {
          "northeast": {
            "lat": 31.953641,
            "lng": 130.627793
          },
          "southwest": {
            "lat": 31.879431,
            "lng": 130.5489399
          }
        }
      },
      "place_id": "ChIJLYTcNgCrPzURNJr5Kcp0ZCs",
      "types": [
        "political",
        "sublocality",
        "sublocality_level_2"
      ]
    },
    {
      "address_components": [
        {
          "long_name": "895-2203",
          "short_name": "895-2203",
          "types": [
            "postal_code"
          ]
        },
        {
          "long_name": "永野",
          "short_name": "永野",
          "types": [
            "political",
            "sublocality",
            "sublocality_level_2"
          ]
        },
        {
          "long_name": "さつま町",
          "short_name": "さつま町",
          "types": [
            "locality",
            "political"
          ]
        },
        {
          "long_name": "薩摩郡",
          "short_name": "薩摩郡",
          "types": [
            "administrative_area_level_2",
            "political"
          ]
        },
        {
          "long_name": "鹿児島県",
          "short_name": "鹿児島県",
          "types": [
            "administrative_area_level_1",
            "political"
          ]
        },
        {
          "long_name": "日本",
          "short_name": "JP",
          "types": [
            "country",
            "political"
          ]
        }
      ],
      "formatted_address": "日本 〒895-2203",
      "geometry": {
        "bounds": {
          "northeast": {
            "lat": 31.9536411,
            "lng": 130.6277931
          },
          "southwest": {
            "lat": 31.8794304,
            "lng": 130.5489046
          }
        },
        "location": {
          "lat": 31.9210596,
          "lng": 130.5991367
        },
        "location_type": "APPROXIMATE",
        "viewport": {
          "northeast": {
            "lat": 31.9536411,
            "lng": 130.6277931
          },
          "southwest": {
            "lat": 31.8794304,
            "lng": 130.5489046
          }
        }
      },
      "place_id": "ChIJcVPVq66rPzURseqcCU7bx64",
      "types": [
        "postal_code"
      ]
    },
    {
      "address_components": [
        {
          "long_name": "さつま町",
          "short_name": "さつま町",
          "types": [
            "locality",
            "political"
          ]
        },
        {
          "long_name": "薩摩郡",
          "short_name": "薩摩郡",
          "types": [
            "administrative_area_level_2",
            "political"
          ]
        },
        {
          "long_name": "鹿児島県",
          "short_name": "鹿児島県",
          "types": [
            "administrative_area_level_1",
            "political"
          ]
        },
        {
          "long_name": "日本",
          "short_name": "JP",
          "types": [
            "country",
            "political"
          ]
        }
      ],
      "formatted_address": "日本、鹿児島県薩摩郡さつま町",
      "geometry": {
        "bounds": {
          "northeast": {
            "lat": 32.0318579,
            "lng": 130.6278089
          },
          "southwest": {
            "lat": 31.819095,
            "lng": 130.3376061
          }
        },
        "location": {
          "lat": 31.9057599,
          "lng": 130.4557274
        },
        "location_type": "APPROXIMATE",
        "viewport": {
          "northeast": {
            "lat": 32.0318579,
            "lng": 130.6278089
          },
          "southwest": {
            "lat": 31.819095,
            "lng": 130.3376061
          }
        }
      },
      "place_id": "ChIJDRpWgk2tPzURaYVvy79D2zw",
      "types": [
        "locality",
        "political"
      ]
    },
    {
      "address_components": [
        {
          "long_name": "薩摩郡",
          "short_name": "薩摩郡",
          "types": [
            "administrative_area_level_2",
            "political"
          ]
        },
        {
          "long_name": "さつま町",
          "short_name": "さつま町",
          "types": [
            "locality",
            "political"
          ]
        },
        {
          "long_name": "鹿児島県",
          "short_name": "鹿児島県",
          "types": [
            "administrative_area_level_1",
            "political"
          ]
        },
        {
          "long_name": "日本",
          "short_name": "JP",
          "types": [
            "country",
            "political"
          ]
        }
      ],
      "formatted_address": "日本、鹿児島県薩摩郡さつま町",
      "geometry": {
        "bounds": {
          "northeast": {
            "lat": 32.0318575,
            "lng": 130.6278092
          },
          "southwest": {
            "lat": 31.8190945,
            "lng": 130.3376065
          }
        },
        "location": {
          "lat": 31.9495126,
          "lng": 130.5127142
        },
        "location_type": "APPROXIMATE",
        "viewport": {
          "northeast": {
            "lat": 32.0318575,
            "lng": 130.6278092
          },
          "southwest": {
            "lat": 31.8190945,
            "lng": 130.3376065
          }
        }
      },
      "place_id": "ChIJDRpWgk2tPzURZLi_aH5zvWQ",
      "types": [
        "administrative_area_level_2",
        "political"
      ]
    },
    {
      "address_components": [
        {
          "long_name": "鹿児島県",
          "short_name": "鹿児島県",
          "types": [
            "administrative_area_level_1",
            "political"
          ]
        },
        {
          "long_name": "日本",
          "short_name": "JP",
          "types": [
            "country",
            "political"
          ]
        }
      ],
      "formatted_address": "日本、鹿児島県",
      "geometry": {
        "bounds": {
          "northeast": {
            "lat": 32.3106641,
            "lng": 131.2053659
          },
          "southwest": {
            "lat": 27.0186809,
            "lng": 128.3953454
          }
        },
        "location": {
          "lat": 31.3911958,
          "lng": 130.8778586
        },
        "location_type": "APPROXIMATE",
        "viewport": {
          "northeast": {
            "lat": 32.3106641,
            "lng": 131.2053659
          },
          "southwest": {
            "lat": 27.0186809,
            "lng": 128.3953454
          }
        }
      },
      "place_id": "ChIJA4AW0cJbGDURcNZa6PLRr40",
      "types": [
        "administrative_area_level_1",
        "political"
      ]
    },
    {
      "address_components": [
        {
          "long_name": "日本",
          "short_name": "JP",
          "types": [
            "country",
            "political"
          ]
        }
      ],
      "formatted_address": "日本",
      "geometry": {
        "bounds": {
          "northeast": {
            "lat": 45.6412626,
            "lng": 154.0031455
          },
          "southwest": {
            "lat": 20.3585295,
            "lng": 122.8554688
          }
        },
        "location": {
          "lat": 36.204824,
          "lng": 138.252924
        },
        "location_type": "APPROXIMATE",
        "viewport": {
          "northeast": {
            "lat": 45.6412626,
            "lng": 154.0031455
          },
          "southwest": {
            "lat": 20.3585295,
            "lng": 122.8554688
          }
        }
      },
      "place_id": "ChIJLxl_1w9OZzQRRFJmfNR1QvU",
      "types": [
        "country",
        "political"
      ]
    }
  ]
}