{
  "station": "筑前勝田",
  "lat": 33.555198,
  "lng": 130.528475,
  "plus_code": {
    "compound_code": "HG4H+39 日本、福岡県宇美町",
    "global_code": "8Q5GHG4H+39"
  },
  "results": [
    {
      "address_components": [
        {
          "long_name": "勝田（バス）",
          "short_name": "勝田（バス）",
          "types": [
            "establishment",
            "point_of_interest",
            "transit_station"
          ]
        },
        {
          "long_name": "１９",
          "short_name": "１９",
          "types": [
            "political",
            "sublocality",
            "sublocality_level_4"
          ]
        },
        {
          "long_name": "４丁目",
          "short_name": "４丁目",
          "types": [
            "political",
            "sublocality",
            "sublocality_level_3"
          ]
        },
        {
          "long_name": "原田",
          "short_name": "原田",
          "types": [
            "political",
            "sublocality",
            "sublocality_level_2"
          ]
        },
        {
          "long_name": "宇美町",
          "short_name": "宇美町",
          "types": [
            "locality",
            "political"
          ]
        },
        {
          "long_name": "糟屋郡",
          "short_name": "糟屋郡",
          "types": [
            "administrative_area_level_2",
            "political"
          ]
        },
        {
          "long_name": "福岡県",
          "short_name": "福岡県",
          "types": [
            "administrative_area_level_1",
            "political"
          ]
        },
        {
          "long_name": "日本",
          "short_name": "JP",
          "types": [
            "country",
            "political"
          ]
        },
        {
          "long_name": "811-2132",
          "short_name": "811-2132",
          "types": [
            "postal_code"
          ]
        }
      ],
      "formatted_address": "日本、〒811-2132 福岡県糟屋郡宇美町原田４丁目１９ 勝田（バス）",
      "geometry": {
        "location": {
          "lat": 33.5551153,
          "lng": 130.5284899
        },
        "location_type": "GEOMETRIC_CENTER",
        "viewport": {
          "northeast": {
            "lat": 33.55646428029149,
            "lng": 130.5298388802915
          },
          "southwest": {
            "lat": 33.55376631970849,
            "lng": 130.5271409197085
          }
        }
      },
      "place_id": "ChIJdwxQ8jmbQTURSwXkFQT4wXY",
      "plus_code": {
        "compound_code": "HG4H+29 日本、福岡県 宇美町",
        "global_code": "8Q5GHG4H+29"
      },
      "types": [
        "establishment",
        "point_of_interest",
        "transit_station"
      ]
    },
    {
      "address_components": [
        {
          "long_name": "１９",
          "short_name": "１９",
          "types": [
            "political",
            "sublocality",
            "sublocality_level_4"
          ]
        },
        {
          "long_name": "４丁目",
          "short_name": "４丁目",
          "types": [
            "political",
            "sublocality",
            "sublocality_level_3"
          ]
        },
        {
          "long_name": "原田",
          "short_name": "原田",
          "types": [
            "political",
            "sublocality",
            "sublocality_level_2"
          ]
        },
        {
          "long_name": "宇美町",
          "short_name": "宇美町",
          "types": [
            "locality",
            "political"
          ]
        },
        {
          "long_name": "糟屋郡",
          "short_name": "糟屋郡",
          "types": [
            "administrative_area_level_2",
            "political"
          ]
        },
        {
          "long_name": "福岡県",
          "short_name": "福岡県",
          "types": [
            "administrative_area_level_1",
            "political"
          ]
        },
        {
          "long_name": "日本",
          "short_name": "JP",
          "types": [
            "country",
            "political"
          ]
        },
        {
          "long_name": "811-2132",
          "short_name": "811-2132",
          "types": [
            "postal_code"
          ]
        }
      ],
      "formatted_address": "日本、〒811-2132 福岡県糟屋郡宇美町原田４丁目１９",
      "geometry": {
        "location": {
          "lat": 33.5552631,
          "lng": 130.5286168
        },
        "location_type": "ROOFTOP",
        "viewport": {
          "northeast": {
            "lat": 33.5566120802915,
            "lng": 130.5299657802915
          },
          "southwest": {
            "lat": 33.5539141197085,
            "lng": 130.5272678197085
          }
        }
      },
      "place_id": "ChIJwfEg7jmbQTURea33VOS3WiQ",
      "plus_code": {
        "compound_code": "HG4H+4C 日本、福岡県 宇美町",
        "global_code": "8Q5GHG4H+4C"
      },
      "types": [
        "establishment",
        "point_of_interest"
      ]
    },
    {
      "address_components": [
        {
          "long_name": "１３",
          "short_name": "１３",
          "types": [
            "premise"
          ]
        },
        {
          "long_name": "３０",
          "short_name": "３０",
          "types": [
            "political",
            "sublocality",
            "sublocality_level_4"
          ]
        },
        {
          "long_name": "３丁目",
          "short_name": "３丁目",
          "types": [
            "political",
            "sublocality",
            "sublocality_level_3"
          ]
        },
        {
          "long_name": "原田",
          "short_name": "原田",
          "types": [
            "political",
            "sublocality",
            "sublocality_level_2"
          ]
        },
        {
          "long_name": "宇美町",
          "short_name": "宇美町",
          "types": [
            "locality",
            "political"
          ]
        },
        {
          "long_name": "糟屋郡",
          "short_name": "糟屋郡",
          "types": [
            "administrative_area_level_2",
            "political"
          ]
        },
        {
          "long_name": "福岡県",
          "short_name": "福岡県",
          "types": [
            "administrative_area_level_1",
            "political"
          ]
        },
        {
          "long_name": "日本",
          "short_name": "JP",
          "types": [
            "country",
            "political"
          ]
        },
        {
          "long_name": "811-2132",
          "short_name": "811-2132",
          "types": [
            "postal_code"
          ]
        }
      ],
      "formatted_address": "日本、〒811-2132 福岡県糟屋郡宇美町原田３丁目３０−１３",
      "geometry": {
        "bounds": {
          "northeast": {
            "lat": 33.555018,
            "lng": 130.5286145
          },
          "southwest": {
            "lat": 33.5549414,
            "lng": 130.5284188
          }
        },
        "location": {
          "lat": 33.5549775,
          "lng": 130.528501
        },
        "location_type": "ROOFTOP",
        "viewport": {
          "northeast": {
            "lat": 33.5563286802915,
            "lng": 130.5298656302915
          },
          "southwest": {
            "lat": 33.5536307197085,
            "lng": 130.5271676697085
          }
        }
      },
      "place_id": "ChIJ1Xzc8jmbQTURemLRJrxnHnY",
      "types": [
        "premise"
      ]
    },
    {
      "address_components": [
        {
          "long_name": "７",
          "short_name": "７",
          "types": [
            "premise"
          ]
        },
        {
          "long_name": "３１",
          "short_name": "３１",
          "types": [
            "political",
            "sublocality",
            "sublocality_level_4"
          ]
        },
        {
          "long_name": "３丁目",
          "short_name": "３丁目",
          "types": [
            "political",
            "sublocality",
            "sublocality_level_3"
          ]
        },
        {
          "long_name": "原田",
          "short_name": "原田",
          "types": [
            "political",
            "sublocality",
            "sublocality_level_2"
          ]
        },
        {
          "long_name": "宇美町",
          "short_name": "宇美町",
          "types": [
            "locality",
            "political"
          ]
        },
        {
          "long_name": "糟屋郡",
          "short_name": "糟屋郡",
          "types": [
            "administrative_area_level_2",
            "political"
          ]
        },
        {
          "long_name": "福岡県",
          "short_name": "福岡県",
          "types": [
            "administrative_area_level_1",
            "political"
          ]
        },
        {
          "long_name": "日本",
          "short_name": "JP",
          "types": [
            "country",
            "political"
          ]
        },
        {
          "long_name": "811-2132",
          "short_name": "811-2132",
          "types": [
            "postal_code"
          ]
        }
      ],
      "formatted_address": "日本、〒811-2132 福岡県糟屋郡宇美町原田３丁目３１−７",
      "geometry": {
        "location": {
          "lat": 33.5548314,
          "lng": 130.5288568
        },
        "location_type": "ROOFTOP",
        "viewport": {
          "northeast": {
            "lat": 33.55618038029149,
            "lng": 130.5302057802915
          },
          "southwest": {
            "lat": 33.55348241970849,
            "lng": 130.5275078197085
          }
        }
      },
      "place_id": "ChIJ4XC67DmbQTUROXurIfBh-P0",
      "plus_code": {
        "compound_code": "HG3H+WG 日本、福岡県 宇美町",
        "global_code": "8Q5GHG3H+WG"
      },
      "types": [
        "street_address"
      ]
    },
    {
      "address_components": [
        {
          "long_name": "福岡太宰府線",
          "short_name": "県道68号",
          "types": [
            "route"
          ]
        },
        {
          "long_name": "１９",
          "short_name": "１９",
          "types": [
            "political",
            "sublocality",
            "sublocality_level_4"
          ]
        },
        {
          "long_name": "原田",
          "short_name": "原田",
          "types": [
            "political",
            "sublocality",
            "sublocality_level_2"
          ]
        },
        {
          "long_name": "宇美町",
          "short_name": "宇美町",
          "types": [
            "locality",
            "political"
          ]
        },
        {
          "long_name": "糟屋郡",
          "short_name": "糟屋郡",
          "types": [
            "administrative_area_level_2",
            "political"
          ]
        },
        {
          "long_name": "福岡県",
          "short_name": "福岡県",
          "types": [
            "administrative_area_level_1",
            "political"
          ]
        },
        {
          "long_name": "日本",
          "short_name": "JP",
          "types": [
            "country",
            "political"
          ]
        },
        {
          "long_name": "811-2132",
          "short_name": "811-2132",
          "types": [
            "postal_code"
          ]
        }
      ],
      "formatted_address": "日本、〒811-2132 福岡県糟屋郡宇美町原田１９ 県道68号",
      "geometry": {
        "bounds": {
          "northeast": {
            "lat": 33.5550996,
            "lng": 130.5287999
          },
          "southwest": {
            "lat": 33.5550727,
            "lng": 130.5282377
          }
        },
        "location": {
          "lat": 33.5550862,
          "lng": 130.5285188
        },
        "location_type": "GEOMETRIC_CENTER",
        "viewport": {
          "northeast": {
            "lat": 33.55643513029149,
            "lng": 130.5298677802915
          },
          "southwest": {
            "lat": 33.55373716970849,
            "lng": 130.5271698197085
          }
        }
      },
      "place_id": "ChIJAahf8jmbQTURjiLzyfX3KYE",
      "types": [
        "route"
      ]
    },
    {
      "address_components": [
        {
          "long_name": "１９",
          "short_name": "１９",
          "types": [
            "political",
            "sublocality",
            "sublocality_level_4"
          ]
        },
        {
          "long_name": "４丁目",
          "short_name": "４丁目",
          "types": [
            "political",
            "sublocality",
            "sublocality_level_3"
          ]
        },
        {
          "long_name": "原田",
          "short_name": "原田",
          "types": [
            "political",
            "sublocality",
            "sublocality_level_2"
          ]
        },
        {
          "long_name": "宇美町",
          "short_name": "宇美町",
          "types": [
            "locality",
            "political"
          ]
        },
        {
          "long_name": "糟屋郡",
          "short_name": "糟屋郡",
          "types": [
            "administrative_area_level_2",
            "political"
          ]
        },
        {
          "long_name": "福岡県",
          "short_name": "福岡県",
          "types": [
            "administrative_area_level_1",
            "political"
          ]
        },
        {
          "long_name": "日本",
          "short_name": "JP",
          "types": [
            "country",
            "political"
          ]
        },
        {
          "long_name": "811-2132",
          "short_name": "811-2132",
          "types": [
            "postal_code"
          ]
        }
      ],
      "formatted_address": "日本、〒811-2132 福岡県糟屋郡宇美町原田４丁目１９",
      "geometry": {
        "bounds": {
          "northeast": {
            "lat": 33.55555690000001,
            "lng": 130.529261
          },
          "southwest": {
            "lat": 33.555064,
            "lng": 130.5275501
          }
        },
        "location": {
          "lat": 33.5552858,
          "lng": 130.5285308
        },
        "location_type": "GEOMETRIC_CENTER",
        "viewport": {
          "northeast": {
            "lat": 33.5566594302915,
            "lng": 130.5297545302915
          },
          "southwest": {
            "lat": 33.5539614697085,
            "lng": 130.5270565697085
          }
        }
      },
      "place_id": "ChIJr7OY8TmbQTUR2x7cGLAZY9A",
      "types": [
        "political",
        "sublocality",
        "sublocality_level_4"
      ]
    },
    {
      "address_components": [
        {
          "long_name": "４丁目",
          "short_name": "４丁目",
          "types": [
            "political",
            "sublocality",
            "sublocality_level_3"
          ]
        },
        {
          "long_name": "原田",
          "short_name": "原田",
          "types": [
            "political",
            "sublocality",
            "sublocality_level_2"
          ]
        },
        {
          "long_name": "宇美町",
          "short_name": "宇美町",
          "types": [
            "locality",
            "political"
          ]
        },
        {
          "long_name": "糟屋郡",
          "short_name": "糟屋郡",
          "types": [
            "administrative_area_level_2",
            "political"
          ]
        },
        {
          "long_name": "福岡県",
          "short_name": "福岡県",
          "types": [
            "administrative_area_level_1",
            "political"
          ]
        },
        {
          "long_name": "日本",
          "short_name": "JP",
          "types": [
            "country",
            "political"
          ]
        },
        {
          "long_name": "811-2132",
          "short_name": "811-2132",
          "types": [
            "postal_code"
          ]
        }
      ],
      "formatted_address": "日本、〒811-2132 福岡県糟屋郡宇美町原田４丁目",
      "geometry": {
        "bounds": {
          "northeast": {
            "lat": 33.561293,
            "lng": 130.532081
          },
          "southwest": {
            "lat": 33.5543481,
            "lng": 130.52388
          }
        },
        "location": {
          "lat": 33.5580636,
          "lng": 130.5257493
        },
        "location_type": "APPROXIMATE",
        "viewport": {
          "northeast": {
            "lat": 33.561293,
            "lng": 130.532081
          },
          "southwest": {
            "lat": 33.5543481,
            "lng": 130.52388
          }
        }
      },
      "place_id": "ChIJSVdJzTCbQTURl__tSHAw-bs",
      "types": [
        "political",
        "sublocality",
        "sublocality_level_3"
      ]
    },
    {
      "address_components": [
        {
          "long_name": "811-2132",
          "short_name": "811-2132",
          "types": [
            "postal_code"
          ]
        },
        {
          "long_name": "原田",
          "short_name": "原田",
          "types": [
            "political",
            "sublocality",
            "sublocality_level_2"
          ]
        },
        {
          "long_name": "宇美町",
          "short_name": "宇美町",
          "types": [
            "locality",
            "political"
          ]
        },
        {
          "long_name": "糟屋郡",
          "short_name": "糟屋郡",
          "types": [
            "administrative_area_level_2",
            "political"
          ]
        },
        {
          "long_name": "福岡県",
          "short_name": "福岡県",
          "types": [
            "administrative_area_level_1",
            "political"
          ]
        },
        {
          "long_name": "日本",
          "short_name": "JP",
          "types": [
            "country",
            "political"
          ]
        }
      ],
      "formatted_address": "日本 〒811-2132",
      "geometry": {
        "bounds": {
          "northeast": {
            "lat": 33.561293,
            "lng": 130.5357203
          },
          "southwest": {
            "lat": 33.5495536,
            "lng": 130.5140212
          }
        },
        "location": {
          "lat": 33.5558057,
          "lng": 130.5247956
        },
        "location_type": "APPROXIMATE",
        "viewport": {
          "northeast": {
            "lat": 33.561293,
            "lng": 130.5357203
          },
          "southwest": {
            "lat": 33.5495536,
            "lng": 130.5140212
          }
        }
      },
      "place_id": "ChIJ88P3oSabQTURA7WF2xZKlSk",
      "types": [
        "postal_code"
      ]
    },
    {
      "address_components": [
        {
          "long_name": "原田",
          "short_name": "原田",
          "types": [
            "political",
            "sublocality",
            "sublocality_level_2"
          ]
        },
        {
          "long_name": "宇美町",
          "short_name": "宇美町",
          "types": [
            "locality",
            "political"
          ]
        },
        {
          "long_name": "糟屋郡",
          "short_name": "糟屋郡",
          "types": [
            "administrative_area_level_2",
            "political"
          ]
        },
        {
          "long_name": "福岡県",
          "short_name": "福岡県",
          "types": [
            "administrative_area_level_1",
            "political"
          ]
        },
        {
          "long_name": "日本",
          "short_name": "JP",
          "types": [
            "country",
            "political"
          ]
        },
        {
          "long_name": "811-2132",
          "short_name": "811-2132",
          "types": [
            "postal_code"
          ]
        }
      ],
      "formatted_address": "日本、〒811-2132 福岡県糟屋郡宇美町原田",
      "geometry": {
        "bounds": {
          "northeast": {
            "lat": 33.561293,
            "lng": 130.53572
          },
          "southwest": {
            "lat": 33.549554,
            "lng": 130.514021
          }
        },
        "location": {
          "lat": 33.5558057,
          "lng": 130.5247956
        },
        "location_type": "APPROXIMATE",
        "viewport": {
          "northeast": {
            "lat": 33.561293,
            "lng": 130.53572
          },
          "southwest": {
            "lat": 33.549554,
            "lng": 130.514021
          }
        }
      },
      "place_id": "ChIJR7Zu6zqbQTUR5FdUonss-jU",
      "types": [
        "political",
        "sublocality",
        "sublocality_level_2"
      ]
    },
    {
      "address_components": [
        {
          "long_name": "宇美町",
          "short_name": "宇美町",
          "types": [
            "locality",
            "political"
          ]
        },
        {
          "long_name": "糟屋郡",
          "short_name": "糟屋郡",
          "types": [
            "administrative_area_level_2",
            "political"
          ]
        },
        {
          "long_name": "福岡県",
          "short_name": "福岡県",
          "types": [
            "administrative_area_level_1",
            "political"
          ]
        },
        {
          "long_name": "日本",
          "short_name": "JP",
          "types": [
            "country",
            "political"
          ]
        }
      ],
      "formatted_address": "日本、福岡県糟屋郡宇美町",
      "geometry": {
        "bounds": {
          "northeast": {
            "lat": 33.5935011,
            "lng": 130.5841041
          },
          "southwest": {
            "lat": 33.529664,
            "lng": 130.485591
          }
        },
        "location": {
          "lat": 33.5677378,
          "lng": 130.5111996
        },
        "location_type": "APPROXIMATE",
        "viewport": {
          "northeast": {
            "lat": 33.5935011,
            "lng": 130.5841041
          },
          "southwest": {
            "lat": 33.529664,
            "lng": 130.485591
          }
        }
      },
      "place_id": "ChIJ_xMM6EqbQTURUVBQEZthQDg",
      "types": [
        "locality",
        "political"
      ]
    },
    {
      "address_components": [
        {
          "long_name": "糟屋郡",
          "short_name": "糟屋郡",
          "types": [
            "administrative_area_level_2",
            "political"
          ]
        },
        {
          "long_name": "福岡県",
          "short_name": "福岡県",
          "types": [
            "administrative_area_level_1",
            "political"
          ]
        },
        {
          "long_name": "日本",
          "short_name": "JP",
          "types": [
            "country",
            "political"
          ]
        }
      ],
      "formatted_address": "日本、福岡県糟屋郡",
      "geometry": {
        "bounds": {
          "northeast": {
            "lat": 33.7671269,
            "lng": 130.5987661
          },
          "southwest": {
            "lat": 33.5296638,
            "lng": 130.359016
          }
        },
        "location": {
          "lat": 33.6198255,
          "lng": 130.5330604
        },
        "location_type": "APPROXIMATE",
        "viewport": {
          "northeast": {
            "lat": 33.7671269,
            "lng": 130.5987661
          },
          "southwest": {
            "lat": 33.5296638,
            "lng": 130.359016
          }
        }
      },
      "place_id": "ChIJtfgvWPCFQTURHr088fHJLv0",
      "types": [
        "administrative_area_level_2",
        "political"
      ]
    },
    {
      "address_components": [
        {
          "long_name": "福岡県",
          "short_name": "福岡県",
          "types": [
            "administrative_area_level_1",
            "political"
          ]
        },
        {
          "long_name": "日本",
          "short_name": "JP",
          "types": [
            "country",
            "political"
          ]
        }
      ],
      "formatted_address": "日本、福岡県",
      "geometry": {
        "bounds": {
          "northeast": {
            "lat": 34.2498953,
            "lng": 131.1904222
          },
          "southwest": {
            "lat": 32.9999501,
            "lng": 129.9813557
          }
        },
        "location": {
          "lat": 33.56625590000001,
          "lng": 130.715857
        },
        "location_type": "APPROXIMATE",
        "viewport": {
          "northeast": {
            "lat": 34.2498953,
            "lng": 131.1904222
          },
          "southwest": {
            "lat": 32.9999501,
            "lng": 129.9813557
          }
        }
      },
      "place_id": "ChIJJbF-93qBQTURTThRSvsPopc",
      "types": [
        "administrative_area_level_1",
        "political"
      ]
    },
    {
      "address_components": [
        {
          "long_name": "日本",
          "short_name": "JP",
          "types": [
            "country",
            "political"
          ]
        }
      ],
      "formatted_address": "日本",
      "geometry": {
        "bounds": {
          "northeast": {
            "lat": 45.6412626,
            "lng": 154.0031455
          },
          "southwest": {
            "lat": 20.3585295,
            "lng": 122.8554688
          }
        },
        "location": {
          "lat": 36.204824,
          "lng": 138.252924
        },
        "location_type": "APPROXIMATE",
        "viewport": {
          "northeast": {
            "lat": 45.6412626,
            "lng": 154.0031455
          },
          "southwest": {
            "lat": 20.3585295,
            "lng": 122.8554688
          }
        }
      },
      "place_id": "ChIJLxl_1w9OZzQRRFJmfNR1QvU",
      "types": [
        "country",
        "political"
      ]
    }
  ]
}