{
  "station": "訓子府",
  "lat": 43.728683,
  "lng": 143.738125,
  "plus_code": {
    "compound_code": "PPHQ+F6 日本、北海道訓子府町",
    "global_code": "8RM5PPHQ+F6"
  },
  "results": [
    {
      "address_components": [
        {
          "long_name": "元町",
          "short_name": "元町",
          "types": [
            "political",
            "sublocality",
            "sublocality_level_2"
          ]
        },
        {
          "long_name": "訓子府町",
          "short_name": "訓子府町",
          "types": [
            "locality",
            "political"
          ]
        },
        {
          "long_name": "常呂郡",
          "short_name": "常呂郡",
          "types": [
            "administrative_area_level_2",
            "political"
          ]
        },
        {
          "long_name": "北海道",
          "short_name": "北海道",
          "types": [
            "administrative_area_level_1",
            "political"
          ]
        },
        {
          "long_name": "日本",
          "short_name": "JP",
          "types": [
            "country",
            "political"
          ]
        },
        {
          "long_name": "099-1436",
          "short_name": "099-1436",
          "types": [
            "postal_code"
          ]
        }
      ],
      "formatted_address": "日本、〒099-1436 北海道常呂郡訓子府町元町 大町170 旧訓子府駅舎内",
      "geometry": {
        "location": {
          "lat": 43.728812,
          "lng": 143.7381549
        },
        "location_type": "GEOMETRIC_CENTER",
        "viewport": {
          "northeast": {
            "lat": 43.7301609802915,
            "lng": 143.7395038802915
          },
          "southwest": {
            "lat": 43.7274630197085,
            "lng": 143.7368059197085
          }
        }
      },
      "place_id": "ChIJq4xhp0ivcl8R01YD6-uDA90",
      "plus_code": {
        "compound_code": "PPHQ+G7 日本、北海道訓子府町",
        "global_code": "8RM5PPHQ+G7"
      },
      "types": [
        "cafe",
        "establishment",
        "food",
        "point_of_interest",
        "store"
      ]
    },
    {
      "address_components": [
        {
          "long_name": "１７０",
          "short_name": "１７０",
          "types": [
            "premise"
          ]
        },
        {
          "long_name": "大町",
          "short_name": "大町",
          "types": [
            "political",
            "sublocality",
            "sublocality_level_2"
          ]
        },
        {
          "long_name": "訓子府町",
          "short_name": "訓子府町",
          "types": [
            "locality",
            "political"
          ]
        },
        {
          "long_name": "常呂郡",
          "short_name": "常呂郡",
          "types": [
            "administrative_area_level_2",
            "political"
          ]
        },
        {
          "long_name": "北海道",
          "short_name": "北海道",
          "types": [
            "administrative_area_level_1",
            "political"
          ]
        },
        {
          "long_name": "日本",
          "short_name": "JP",
          "types": [
            "country",
            "political"
          ]
        },
        {
          "long_name": "099-1436",
          "short_name": "099-1436",
          "types": [
            "postal_code"
          ]
        }
      ],
      "formatted_address": "日本、〒099-1436 北海道常呂郡訓子府町大町１７０",
      "geometry": {
        "location": {
          "lat": 43.7288244,
          "lng": 143.7382865
        },
        "location_type": "ROOFTOP",
        "viewport": {
          "northeast": {
            "lat": 43.7301733802915,
            "lng": 143.7396354802915
          },
          "southwest": {
            "lat": 43.7274754197085,
            "lng": 143.7369375197085
          }
        }
      },
      "place_id": "ChIJbwlc7Eivcl8RuRcWwI8JfmE",
      "plus_code": {
        "compound_code": "PPHQ+G8 日本、北海道訓子府町",
        "global_code": "8RM5PPHQ+G8"
      },
      "types": [
        "street_address"
      ]
    },
    {
      "address_components": [
        {
          "long_name": "訓子府駅",
          "short_name": "訓子府駅",
          "types": [
            "bus_station",
            "establishment",
            "point_of_interest",
            "transit_station"
          ]
        },
        {
          "long_name": "大町",
          "short_name": "大町",
          "types": [
            "political",
            "sublocality",
            "sublocality_level_2"
          ]
        },
        {
          "long_name": "訓子府町",
          "short_name": "訓子府町",
          "types": [
            "locality",
            "political"
          ]
        },
        {
          "long_name": "常呂郡",
          "short_name": "常呂郡",
          "types": [
            "administrative_area_level_2",
            "political"
          ]
        },
        {
          "long_name": "北海道",
          "short_name": "北海道",
          "types": [
            "administrative_area_level_1",
            "political"
          ]
        },
        {
          "long_name": "日本",
          "short_name": "JP",
          "types": [
            "country",
            "political"
          ]
        },
        {
          "long_name": "099-1436",
          "short_name": "099-1436",
          "types": [
            "postal_code"
          ]
        }
      ],
      "formatted_address": "日本、〒099-1436 北海道常呂郡訓子府町大町 訓子府駅",
      "geometry": {
        "location": {
          "lat": 43.7288967,
          "lng": 143.7382475
        },
        "location_type": "GEOMETRIC_CENTER",
        "viewport": {
          "northeast": {
            "lat": 43.7302456802915,
            "lng": 143.7395964802915
          },
          "southwest": {
            "lat": 43.7275477197085,
            "lng": 143.7368985197085
          }
        }
      },
      "place_id": "ChIJF7W27Uivcl8Rug4uc1ikl8Y",
      "plus_code": {
        "compound_code": "PPHQ+H7 日本、北海道訓子府町",
        "global_code": "8RM5PPHQ+H7"
      },
      "types": [
        "bus_station",
        "establishment",
        "point_of_interest",
        "transit_station"
      ]
    },
    {
      "address_components": [
        {
          "long_name": "訓子府停車場線",
          "short_name": "道道335号",
          "types": [
            "route"
          ]
        },
        {
          "long_name": "元町",
          "short_name": "元町",
          "types": [
            "political",
            "sublocality",
            "sublocality_level_2"
          ]
        },
        {
          "long_name": "訓子府町",
          "short_name": "訓子府町",
          "types": [
            "locality",
            "political"
          ]
        },
        {
          "long_name": "常呂郡",
          "short_name": "常呂郡",
          "types": [
            "administrative_area_level_2",
            "political"
          ]
        },
        {
          "long_name": "北海道",
          "short_name": "北海道",
          "types": [
            "administrative_area_level_1",
            "political"
          ]
        },
        {
          "long_name": "日本",
          "short_name": "JP",
          "types": [
            "country",
            "political"
          ]
        },
        {
          "long_name": "099-1437",
          "short_name": "099-1437",
          "types": [
            "postal_code"
          ]
        }
      ],
      "formatted_address": "日本、〒099-1437 北海道常呂郡訓子府町元町 道道335号",
      "geometry": {
        "bounds": {
          "northeast": {
            "lat": 43.72843899999999,
            "lng": 143.7382597
          },
          "southwest": {
            "lat": 43.7278173,
            "lng": 143.7381878
          }
        },
        "location": {
          "lat": 43.7281282,
          "lng": 143.7382238
        },
        "location_type": "GEOMETRIC_CENTER",
        "viewport": {
          "northeast": {
            "lat": 43.72947713029149,
            "lng": 143.7395727302915
          },
          "southwest": {
            "lat": 43.72677916970849,
            "lng": 143.7368747697085
          }
        }
      },
      "place_id": "ChIJ5XMPvEivcl8R_N08ZnfXcxo",
      "types": [
        "route"
      ]
    },
    {
      "address_components": [
        {
          "long_name": "099-1436",
          "short_name": "099-1436",
          "types": [
            "postal_code"
          ]
        },
        {
          "long_name": "大町",
          "short_name": "大町",
          "types": [
            "political",
            "sublocality",
            "sublocality_level_2"
          ]
        },
        {
          "long_name": "訓子府町",
          "short_name": "訓子府町",
          "types": [
            "locality",
            "political"
          ]
        },
        {
          "long_name": "常呂郡",
          "short_name": "常呂郡",
          "types": [
            "administrative_area_level_2",
            "political"
          ]
        },
        {
          "long_name": "北海道",
          "short_name": "北海道",
          "types": [
            "administrative_area_level_1",
            "political"
          ]
        },
        {
          "long_name": "日本",
          "short_name": "JP",
          "types": [
            "country",
            "political"
          ]
        }
      ],
      "formatted_address": "日本 〒099-1436",
      "geometry": {
        "bounds": {
          "northeast": {
            "lat": 43.7290579,
            "lng": 143.7388936
          },
          "southwest": {
            "lat": 43.725178,
            "lng": 143.7336873
          }
        },
        "location": {
          "lat": 43.7280551,
          "lng": 143.7355761
        },
        "location_type": "APPROXIMATE",
        "viewport": {
          "northeast": {
            "lat": 43.7290579,
            "lng": 143.7388936
          },
          "southwest": {
            "lat": 43.725178,
            "lng": 143.7336873
          }
        }
      },
      "place_id": "ChIJq4xhp0ivcl8RhMhI13-DMFk",
      "types": [
        "postal_code"
      ]
    },
    {
      "address_components": [
        {
          "long_name": "大町",
          "short_name": "大町",
          "types": [
            "political",
            "sublocality",
            "sublocality_level_2"
          ]
        },
        {
          "long_name": "訓子府町",
          "short_name": "訓子府町",
          "types": [
            "locality",
            "political"
          ]
        },
        {
          "long_name": "常呂郡",
          "short_name": "常呂郡",
          "types": [
            "administrative_area_level_2",
            "political"
          ]
        },
        {
          "long_name": "北海道",
          "short_name": "北海道",
          "types": [
            "administrative_area_level_1",
            "political"
          ]
        },
        {
          "long_name": "日本",
          "short_name": "JP",
          "types": [
            "country",
            "political"
          ]
        },
        {
          "long_name": "099-1436",
          "short_name": "099-1436",
          "types": [
            "postal_code"
          ]
        }
      ],
      "formatted_address": "日本、〒099-1436 北海道常呂郡訓子府町大町",
      "geometry": {
        "bounds": {
          "northeast": {
            "lat": 43.72905799999999,
            "lng": 143.7389978
          },
          "southwest": {
            "lat": 43.725178,
            "lng": 143.733687
          }
        },
        "location": {
          "lat": 43.7280551,
          "lng": 143.7355761
        },
        "location_type": "APPROXIMATE",
        "viewport": {
          "northeast": {
            "lat": 43.72905799999999,
            "lng": 143.7389978
          },
          "southwest": {
            "lat": 43.725178,
            "lng": 143.733687
          }
        }
      },
      "place_id": "ChIJk2q1JEavcl8R5IpnPJaOIs8",
      "types": [
        "political",
        "sublocality",
        "sublocality_level_2"
      ]
    },
    {
      "address_components": [
        {
          "long_name": "訓子府町",
          "short_name": "訓子府町",
          "types": [
            "locality",
            "political"
          ]
        },
        {
          "long_name": "常呂郡",
          "short_name": "常呂郡",
          "types": [
            "administrative_area_level_2",
            "political"
          ]
        },
        {
          "long_name": "北海道",
          "short_name": "北海道",
          "types": [
            "administrative_area_level_1",
            "political"
          ]
        },
        {
          "long_name": "日本",
          "short_name": "JP",
          "types": [
            "country",
            "political"
          ]
        }
      ],
      "formatted_address": "日本、北海道常呂郡訓子府町",
      "geometry": {
        "bounds": {
          "northeast": {
            "lat": 43.783836,
            "lng": 143.8343209
          },
          "southwest": {
            "lat": 43.616375,
            "lng": 143.616826
          }
        },
        "location": {
          "lat": 43.7254025,
          "lng": 143.7416559
        },
        "location_type": "APPROXIMATE",
        "viewport": {
          "northeast": {
            "lat": 43.783836,
            "lng": 143.8343209
          },
          "southwest": {
            "lat": 43.616375,
            "lng": 143.616826
          }
        }
      },
      "place_id": "ChIJa8PfSIKlcl8R8wbfuaMOqtw",
      "types": [
        "locality",
        "political"
      ]
    },
    {
      "address_components": [
        {
          "long_name": "常呂郡",
          "short_name": "常呂郡",
          "types": [
            "administrative_area_level_2",
            "political"
          ]
        },
        {
          "long_name": "北海道",
          "short_name": "北海道",
          "types": [
            "administrative_area_level_1",
            "political"
          ]
        },
        {
          "long_name": "日本",
          "short_name": "JP",
          "types": [
            "country",
            "political"
          ]
        }
      ],
      "formatted_address": "日本、北海道常呂郡",
      "geometry": {
        "bounds": {
          "northeast": {
            "lat": 44.1443832,
            "lng": 143.9667034
          },
          "southwest": {
            "lat": 43.50814219999999,
            "lng": 143.1729641
          }
        },
        "location": {
          "lat": 44.0361705,
          "lng": 143.8286723
        },
        "location_type": "APPROXIMATE",
        "viewport": {
          "northeast": {
            "lat": 44.1443832,
            "lng": 143.9667034
          },
          "southwest": {
            "lat": 43.50814219999999,
            "lng": 143.1729641
          }
        }
      },
      "place_id": "ChIJaQZwiDdTDV8Rbh8LMiglDqE",
      "types": [
        "administrative_area_level_2",
        "political"
      ]
    },
    {
      "address_components": [
        {
          "long_name": "北海道",
          "short_name": "北海道",
          "types": [
            "administrative_area_level_1",
            "political"
          ]
        },
        {
          "long_name": "日本",
          "short_name": "JP",
          "types": [
            "country",
            "political"
          ]
        }
      ],
      "formatted_address": "日本、北海道",
      "geometry": {
        "bounds": {
          "northeast": {
            "lat": 45.5265181,
            "lng": 145.817624
          },
          "southwest": {
            "lat": 41.3516002,
            "lng": 139.3340799
          }
        },
        "location": {
          "lat": 43.2203266,
          "lng": 142.8634737
        },
        "location_type": "APPROXIMATE",
        "viewport": {
          "northeast": {
            "lat": 45.5265181,
            "lng": 145.817624
          },
          "southwest": {
            "lat": 41.3516002,
            "lng": 139.3340799
          }
        }
      },
      "place_id": "ChIJi4hsnyBZn18RjwPOT1bDPBw",
      "types": [
        "administrative_area_level_1",
        "political"
      ]
    },
    {
      "address_components": [
        {
          "long_name": "日本",
          "short_name": "JP",
          "types": [
            "country",
            "political"
          ]
        }
      ],
      "formatted_address": "日本",
      "geometry": {
        "bounds": {
          "northeast": {
            "lat": 45.6412626,
            "lng": 154.0031455
          },
          "southwest": {
            "lat": 20.3585295,
            "lng": 122.8554688
          }
        },
        "location": {
          "lat": 36.204824,
          "lng": 138.252924
        },
        "location_type": "APPROXIMATE",
        "viewport": {
          "northeast": {
            "lat": 45.6412626,
            "lng": 154.0031455
          },
          "southwest": {
            "lat": 20.3585295,
            "lng": 122.8554688
          }
        }
      },
      "place_id": "ChIJLxl_1w9OZzQRRFJmfNR1QvU",
      "types": [
        "country",
        "political"
      ]
    }
  ]
}