{
  "station": "一の沢",
  "lat": 42.970611,
  "lng": 141.208667,
  "plus_code": {
    "compound_code": "X6C5+6F 日本、北海道札幌市",
    "global_code": "8RJ3X6C5+6F"
  },
  "results": [
    {
      "address_components": [
        {
          "long_name": "６４９",
          "short_name": "６４９",
          "types": [
            "premise"
          ]
        },
        {
          "long_name": "小金湯",
          "short_name": "小金湯",
          "types": [
            "political",
            "sublocality",
            "sublocality_level_2"
          ]
        },
        {
          "long_name": "南区",
          "short_name": "南区",
          "types": [
            "political",
            "sublocality",
            "sublocality_level_1"
          ]
        },
        {
          "long_name": "札幌市",
          "short_name": "札幌市",
          "types": [
            "locality",
            "political"
          ]
        },
        {
          "long_name": "北海道",
          "short_name": "北海道",
          "types": [
            "administrative_area_level_1",
            "political"
          ]
        },
        {
          "long_name": "日本",
          "short_name": "JP",
          "types": [
            "country",
            "political"
          ]
        },
        {
          "long_name": "061-2274",
          "short_name": "061-2274",
          "types": [
            "postal_code"
          ]
        }
      ],
      "formatted_address": "日本、〒061-2274 北海道札幌市南区小金湯６４９",
      "geometry": {
        "bounds": {
          "northeast": {
            "lat": 42.9698986,
            "lng": 141.2103034
          },
          "southwest": {
            "lat": 42.96980180000001,
            "lng": 141.2101224
          }
        },
        "location": {
          "lat": 42.969848,
          "lng": 141.2101721
        },
        "location_type": "ROOFTOP",
        "viewport": {
          "northeast": {
            "lat": 42.97119918029151,
            "lng": 141.2115618802915
          },
          "southwest": {
            "lat": 42.96850121970851,
            "lng": 141.2088639197085
          }
        }
      },
      "place_id": "ChIJWzY9tLfTCl8R5LqUfaWOhic",
      "types": [
        "premise"
      ]
    },
    {
      "address_components": [
        {
          "long_name": "６９４",
          "short_name": "６９４",
          "types": [
            "premise"
          ]
        },
        {
          "long_name": "小金湯",
          "short_name": "小金湯",
          "types": [
            "political",
            "sublocality",
            "sublocality_level_2"
          ]
        },
        {
          "long_name": "南区",
          "short_name": "南区",
          "types": [
            "political",
            "sublocality",
            "sublocality_level_1"
          ]
        },
        {
          "long_name": "札幌市",
          "short_name": "札幌市",
          "types": [
            "locality",
            "political"
          ]
        },
        {
          "long_name": "北海道",
          "short_name": "北海道",
          "types": [
            "administrative_area_level_1",
            "political"
          ]
        },
        {
          "long_name": "日本",
          "short_name": "JP",
          "types": [
            "country",
            "political"
          ]
        },
        {
          "long_name": "061-2274",
          "short_name": "061-2274",
          "types": [
            "postal_code"
          ]
        }
      ],
      "formatted_address": "日本、〒061-2274 北海道札幌市南区小金湯６９４",
      "geometry": {
        "location": {
          "lat": 42.9717464,
          "lng": 141.2110241
        },
        "location_type": "ROOFTOP",
        "viewport": {
          "northeast": {
            "lat": 42.9730953802915,
            "lng": 141.2123730802915
          },
          "southwest": {
            "lat": 42.9703974197085,
            "lng": 141.2096751197085
          }
        }
      },
      "place_id": "ChIJ2QPF_MfTCl8RmAH0oQwmH0U",
      "plus_code": {
        "compound_code": "X6C6+MC 日本、北海道札幌市",
        "global_code": "8RJ3X6C6+MC"
      },
      "types": [
        "street_address"
      ]
    },
    {
      "address_components": [
        {
          "long_name": "国道230号",
          "short_name": "国道230号",
          "types": [
            "route"
          ]
        },
        {
          "long_name": "小金湯",
          "short_name": "小金湯",
          "types": [
            "political",
            "sublocality",
            "sublocality_level_2"
          ]
        },
        {
          "long_name": "南区",
          "short_name": "南区",
          "types": [
            "political",
            "sublocality",
            "sublocality_level_1"
          ]
        },
        {
          "long_name": "札幌市",
          "short_name": "札幌市",
          "types": [
            "locality",
            "political"
          ]
        },
        {
          "long_name": "北海道",
          "short_name": "北海道",
          "types": [
            "administrative_area_level_1",
            "political"
          ]
        },
        {
          "long_name": "日本",
          "short_name": "JP",
          "types": [
            "country",
            "political"
          ]
        },
        {
          "long_name": "061-2274",
          "short_name": "061-2274",
          "types": [
            "postal_code"
          ]
        }
      ],
      "formatted_address": "日本、〒061-2274 北海道札幌市南区小金湯 国道230号",
      "geometry": {
        "bounds": {
          "northeast": {
            "lat": 42.9696499,
            "lng": 141.2094723
          },
          "southwest": {
            "lat": 42.9695407,
            "lng": 141.207809
          }
        },
        "location": {
          "lat": 42.9696352,
          "lng": 141.208636
        },
        "location_type": "GEOMETRIC_CENTER",
        "viewport": {
          "northeast": {
            "lat": 42.9709442802915,
            "lng": 141.2099896302915
          },
          "southwest": {
            "lat": 42.9682463197085,
            "lng": 141.2072916697085
          }
        }
      },
      "place_id": "ChIJqTIPLrbTCl8RLAJC-2Vgzg4",
      "types": [
        "route"
      ]
    },
    {
      "address_components": [
        {
          "long_name": "小金湯",
          "short_name": "小金湯",
          "types": [
            "political",
            "sublocality",
            "sublocality_level_2"
          ]
        },
        {
          "long_name": "南区",
          "short_name": "南区",
          "types": [
            "political",
            "sublocality",
            "sublocality_level_1"
          ]
        },
        {
          "long_name": "札幌市",
          "short_name": "札幌市",
          "types": [
            "locality",
            "political"
          ]
        },
        {
          "long_name": "北海道",
          "short_name": "北海道",
          "types": [
            "administrative_area_level_1",
            "political"
          ]
        },
        {
          "long_name": "日本",
          "short_name": "JP",
          "types": [
            "country",
            "political"
          ]
        },
        {
          "long_name": "061-2274",
          "short_name": "061-2274",
          "types": [
            "postal_code"
          ]
        }
      ],
      "formatted_address": "日本、〒061-2274 北海道札幌市南区小金湯",
      "geometry": {
        "bounds": {
          "northeast": {
            "lat": 43.016725,
            "lng": 141.254054
          },
          "southwest": {
            "lat": 42.91685,
            "lng": 141.1722529
          }
        },
        "location": {
          "lat": 42.9768068,
          "lng": 141.212156
        },
        "location_type": "APPROXIMATE",
        "viewport": {
          "northeast": {
            "lat": 43.016725,
            "lng": 141.254054
          },
          "southwest": {
            "lat": 42.91685,
            "lng": 141.1722529
          }
        }
      },
      "place_id": "ChIJz9UFKrjTCl8RB5GqQzmK24Q",
      "types": [
        "political",
        "sublocality",
        "sublocality_level_2"
      ]
    },
    {
      "address_components": [
        {
          "long_name": "061-2274",
          "short_name": "061-2274",
          "types": [
            "postal_code"
          ]
        },
        {
          "long_name": "小金湯",
          "short_name": "小金湯",
          "types": [
            "political",
            "sublocality",
            "sublocality_level_2"
          ]
        },
        {
          "long_name": "南区",
          "short_name": "南区",
          "types": [
            "political",
            "sublocality",
            "sublocality_level_1"
          ]
        },
        {
          "long_name": "札幌市",
          "short_name": "札幌市",
          "types": [
            "locality",
            "political"
          ]
        },
        {
          "long_name": "北海道",
          "short_name": "北海道",
          "types": [
            "administrative_area_level_1",
            "political"
          ]
        },
        {
          "long_name": "日本",
          "short_name": "JP",
          "types": [
            "country",
            "political"
          ]
        }
      ],
      "formatted_address": "日本 〒061-2274",
      "geometry": {
        "bounds": {
          "northeast": {
            "lat": 43.0167251,
            "lng": 141.2540542
          },
          "southwest": {
            "lat": 42.91685,
            "lng": 141.1722534
          }
        },
        "location": {
          "lat": 42.9768068,
          "lng": 141.212156
        },
        "location_type": "APPROXIMATE",
        "viewport": {
          "northeast": {
            "lat": 43.0167251,
            "lng": 141.2540542
          },
          "southwest": {
            "lat": 42.91685,
            "lng": 141.1722534
          }
        }
      },
      "place_id": "ChIJa-ejrLfTCl8R5l8BwTMCRzI",
      "types": [
        "postal_code"
      ]
    },
    {
      "address_components": [
        {
          "long_name": "南区",
          "short_name": "南区",
          "types": [
            "political",
            "sublocality",
            "sublocality_level_1"
          ]
        },
        {
          "long_name": "札幌市",
          "short_name": "札幌市",
          "types": [
            "locality",
            "political"
          ]
        },
        {
          "long_name": "北海道",
          "short_name": "北海道",
          "types": [
            "administrative_area_level_1",
            "political"
          ]
        },
        {
          "long_name": "日本",
          "short_name": "JP",
          "types": [
            "country",
            "political"
          ]
        }
      ],
      "formatted_address": "日本、北海道札幌市南区",
      "geometry": {
        "bounds": {
          "northeast": {
            "lat": 43.12049349999999,
            "lng": 141.3973703
          },
          "southwest": {
            "lat": 42.7807277,
            "lng": 140.9904913
          }
        },
        "location": {
          "lat": 42.9539188,
          "lng": 141.2199991
        },
        "location_type": "APPROXIMATE",
        "viewport": {
          "northeast": {
            "lat": 43.12049349999999,
            "lng": 141.3973703
          },
          "southwest": {
            "lat": 42.7807277,
            "lng": 140.9904913
          }
        }
      },
      "place_id": "ChIJD4c7aFzSCl8RQNVDt0cp3_U",
      "types": [
        "political",
        "sublocality",
        "sublocality_level_1"
      ]
    },
    {
      "address_components": [
        {
          "long_name": "札幌市",
          "short_name": "札幌市",
          "types": [
            "locality",
            "political"
          ]
        },
        {
          "long_name": "北海道",
          "short_name": "北海道",
          "types": [
            "administrative_area_level_1",
            "political"
          ]
        },
        {
          "long_name": "日本",
          "short_name": "JP",
          "types": [
            "country",
            "political"
          ]
        }
      ],
      "formatted_address": "日本、北海道札幌市",
      "geometry": {
        "bounds": {
          "northeast": {
            "lat": 43.190037,
            "lng": 141.5054669
          },
          "southwest": {
            "lat": 42.780728,
            "lng": 140.990491
          }
        },
        "location": {
          "lat": 43.0617713,
          "lng": 141.3544507
        },
        "location_type": "APPROXIMATE",
        "viewport": {
          "northeast": {
            "lat": 43.190037,
            "lng": 141.5054669
          },
          "southwest": {
            "lat": 42.780728,
            "lng": 140.990491
          }
        }
      },
      "place_id": "ChIJMzaXWnXUCl8R1bqHRp1-kzM",
      "types": [
        "locality",
        "political"
      ]
    },
    {
      "address_components": [
        {
          "long_name": "北海道",
          "short_name": "北海道",
          "types": [
            "administrative_area_level_1",
            "political"
          ]
        },
        {
          "long_name": "日本",
          "short_name": "JP",
          "types": [
            "country",
            "political"
          ]
        }
      ],
      "formatted_address": "日本、北海道",
      "geometry": {
        "bounds": {
          "northeast": {
            "lat": 45.5265181,
            "lng": 145.817624
          },
          "southwest": {
            "lat": 41.3516002,
            "lng": 139.3340799
          }
        },
        "location": {
          "lat": 43.2203266,
          "lng": 142.8634737
        },
        "location_type": "APPROXIMATE",
        "viewport": {
          "northeast": {
            "lat": 45.5265181,
            "lng": 145.817624
          },
          "southwest": {
            "lat": 41.3516002,
            "lng": 139.3340799
          }
        }
      },
      "place_id": "ChIJi4hsnyBZn18RjwPOT1bDPBw",
      "types": [
        "administrative_area_level_1",
        "political"
      ]
    },
    {
      "address_components": [
        {
          "long_name": "日本",
          "short_name": "JP",
          "types": [
            "country",
            "political"
          ]
        }
      ],
      "formatted_address": "日本",
      "geometry": {
        "bounds": {
          "northeast": {
            "lat": 45.6412626,
            "lng": 154.0031455
          },
          "southwest": {
            "lat": 20.3585295,
            "lng": 122.8554688
          }
        },
        "location": {
          "lat": 36.204824,
          "lng": 138.252924
        },
        "location_type": "APPROXIMATE",
        "viewport": {
          "northeast": {
            "lat": 45.6412626,
            "lng": 154.0031455
          },
          "southwest": {
            "lat": 20.3585295,
            "lng": 122.8554688
          }
        }
      },
      "place_id": "ChIJLxl_1w9OZzQRRFJmfNR1QvU",
      "types": [
        "country",
        "political"
      ]
    }
  ]
}