{
  "station": "下藤野",
  "lat": 42.962722,
  "lng": 141.285833,
  "plus_code": {
    "compound_code": "X77P+38 日本、北海道札幌市",
    "global_code": "8RJ3X77P+38"
  },
  "results": [
    {
      "address_components": [
        {
          "long_name": "８",
          "short_name": "８",
          "types": [
            "premise"
          ]
        },
        {
          "long_name": "４",
          "short_name": "４",
          "types": [
            "political",
            "sublocality",
            "sublocality_level_4"
          ]
        },
        {
          "long_name": "９丁目",
          "short_name": "９丁目",
          "types": [
            "political",
            "sublocality",
            "sublocality_level_3"
          ]
        },
        {
          "long_name": "藤野２条",
          "short_name": "藤野２条",
          "types": [
            "political",
            "sublocality",
            "sublocality_level_2"
          ]
        },
        {
          "long_name": "南区",
          "short_name": "南区",
          "types": [
            "political",
            "sublocality",
            "sublocality_level_1"
          ]
        },
        {
          "long_name": "札幌市",
          "short_name": "札幌市",
          "types": [
            "locality",
            "political"
          ]
        },
        {
          "long_name": "北海道",
          "short_name": "北海道",
          "types": [
            "administrative_area_level_1",
            "political"
          ]
        },
        {
          "long_name": "日本",
          "short_name": "JP",
          "types": [
            "country",
            "political"
          ]
        },
        {
          "long_name": "061-2282",
          "short_name": "061-2282",
          "types": [
            "postal_code"
          ]
        }
      ],
      "formatted_address": "日本、〒061-2282 北海道札幌市南区藤野２条９丁目４−８",
      "geometry": {
        "bounds": {
          "northeast": {
            "lat": 42.9627722,
            "lng": 141.2860422
          },
          "southwest": {
            "lat": 42.962654,
            "lng": 141.2859146
          }
        },
        "location": {
          "lat": 42.9627009,
          "lng": 141.285974
        },
        "location_type": "ROOFTOP",
        "viewport": {
          "northeast": {
            "lat": 42.9640620802915,
            "lng": 141.2873273802915
          },
          "southwest": {
            "lat": 42.9613641197085,
            "lng": 141.2846294197085
          }
        }
      },
      "place_id": "ChIJO-yPSJ7UCl8RBECtj0AR-Ig",
      "types": [
        "premise"
      ]
    },
    {
      "address_components": [
        {
          "long_name": "２０",
          "short_name": "２０",
          "types": [
            "premise"
          ]
        },
        {
          "long_name": "５",
          "short_name": "５",
          "types": [
            "political",
            "sublocality",
            "sublocality_level_4"
          ]
        },
        {
          "long_name": "９丁目",
          "short_name": "９丁目",
          "types": [
            "political",
            "sublocality",
            "sublocality_level_3"
          ]
        },
        {
          "long_name": "藤野２条",
          "short_name": "藤野２条",
          "types": [
            "political",
            "sublocality",
            "sublocality_level_2"
          ]
        },
        {
          "long_name": "南区",
          "short_name": "南区",
          "types": [
            "political",
            "sublocality",
            "sublocality_level_1"
          ]
        },
        {
          "long_name": "札幌市",
          "short_name": "札幌市",
          "types": [
            "locality",
            "political"
          ]
        },
        {
          "long_name": "北海道",
          "short_name": "北海道",
          "types": [
            "administrative_area_level_1",
            "political"
          ]
        },
        {
          "long_name": "日本",
          "short_name": "JP",
          "types": [
            "country",
            "political"
          ]
        },
        {
          "long_name": "061-2282",
          "short_name": "061-2282",
          "types": [
            "postal_code"
          ]
        }
      ],
      "formatted_address": "日本、〒061-2282 北海道札幌市南区藤野２条９丁目５−２０",
      "geometry": {
        "location": {
          "lat": 42.9627652,
          "lng": 141.2861551
        },
        "location_type": "ROOFTOP",
        "viewport": {
          "northeast": {
            "lat": 42.9641141802915,
            "lng": 141.2875040802915
          },
          "southwest": {
            "lat": 42.9614162197085,
            "lng": 141.2848061197085
          }
        }
      },
      "place_id": "ChIJT-OpISjVCl8RabnRiAaw4PU",
      "plus_code": {
        "compound_code": "X77P+4F 日本、北海道札幌市",
        "global_code": "8RJ3X77P+4F"
      },
      "types": [
        "establishment",
        "point_of_interest"
      ]
    },
    {
      "address_components": [
        {
          "long_name": "Unnamed Road",
          "short_name": "Unnamed Road",
          "types": [
            "route"
          ]
        },
        {
          "long_name": "９丁目",
          "short_name": "９丁目",
          "types": [
            "political",
            "sublocality",
            "sublocality_level_3"
          ]
        },
        {
          "long_name": "藤野２条",
          "short_name": "藤野２条",
          "types": [
            "political",
            "sublocality",
            "sublocality_level_2"
          ]
        },
        {
          "long_name": "南区",
          "short_name": "南区",
          "types": [
            "political",
            "sublocality",
            "sublocality_level_1"
          ]
        },
        {
          "long_name": "札幌市",
          "short_name": "札幌市",
          "types": [
            "locality",
            "political"
          ]
        },
        {
          "long_name": "北海道",
          "short_name": "北海道",
          "types": [
            "administrative_area_level_1",
            "political"
          ]
        },
        {
          "long_name": "日本",
          "short_name": "JP",
          "types": [
            "country",
            "political"
          ]
        },
        {
          "long_name": "061-2282",
          "short_name": "061-2282",
          "types": [
            "postal_code"
          ]
        }
      ],
      "formatted_address": "Unnamed Road, ９丁目 藤野２条 南区 札幌市 北海道 061-2282 日本",
      "geometry": {
        "bounds": {
          "northeast": {
            "lat": 42.9627576,
            "lng": 141.2858426
          },
          "southwest": {
            "lat": 42.9626817,
            "lng": 141.2857706
          }
        },
        "location": {
          "lat": 42.9627354,
          "lng": 141.2858355
        },
        "location_type": "GEOMETRIC_CENTER",
        "viewport": {
          "northeast": {
            "lat": 42.9640686302915,
            "lng": 141.2871555802915
          },
          "southwest": {
            "lat": 42.9613706697085,
            "lng": 141.2844576197085
          }
        }
      },
      "place_id": "ChIJhQXbR57UCl8RmAQfmPaGxsM",
      "types": [
        "route"
      ]
    },
    {
      "address_components": [
        {
          "long_name": "３",
          "short_name": "３",
          "types": [
            "political",
            "sublocality",
            "sublocality_level_4"
          ]
        },
        {
          "long_name": "９丁目",
          "short_name": "９丁目",
          "types": [
            "political",
            "sublocality",
            "sublocality_level_3"
          ]
        },
        {
          "long_name": "藤野２条",
          "short_name": "藤野２条",
          "types": [
            "political",
            "sublocality",
            "sublocality_level_2"
          ]
        },
        {
          "long_name": "南区",
          "short_name": "南区",
          "types": [
            "political",
            "sublocality",
            "sublocality_level_1"
          ]
        },
        {
          "long_name": "札幌市",
          "short_name": "札幌市",
          "types": [
            "locality",
            "political"
          ]
        },
        {
          "long_name": "北海道",
          "short_name": "北海道",
          "types": [
            "administrative_area_level_1",
            "political"
          ]
        },
        {
          "long_name": "日本",
          "short_name": "JP",
          "types": [
            "country",
            "political"
          ]
        },
        {
          "long_name": "061-2282",
          "short_name": "061-2282",
          "types": [
            "postal_code"
          ]
        }
      ],
      "formatted_address": "日本、〒061-2282 北海道札幌市南区藤野２条９丁目３",
      "geometry": {
        "bounds": {
          "northeast": {
            "lat": 42.9627939,
            "lng": 141.285856
          },
          "southwest": {
            "lat": 42.962444,
            "lng": 141.2853239
          }
        },
        "location": {
          "lat": 42.9625755,
          "lng": 141.2856095
        },
        "location_type": "GEOMETRIC_CENTER",
        "viewport": {
          "northeast": {
            "lat": 42.9639679302915,
            "lng": 141.2869389302915
          },
          "southwest": {
            "lat": 42.9612699697085,
            "lng": 141.2842409697085
          }
        }
      },
      "place_id": "ChIJgYAZOJ7UCl8R6xrxOvi_qNs",
      "types": [
        "political",
        "sublocality",
        "sublocality_level_4"
      ]
    },
    {
      "address_components": [
        {
          "long_name": "９丁目",
          "short_name": "９丁目",
          "types": [
            "political",
            "sublocality",
            "sublocality_level_3"
          ]
        },
        {
          "long_name": "藤野２条",
          "short_name": "藤野２条",
          "types": [
            "political",
            "sublocality",
            "sublocality_level_2"
          ]
        },
        {
          "long_name": "南区",
          "short_name": "南区",
          "types": [
            "political",
            "sublocality",
            "sublocality_level_1"
          ]
        },
        {
          "long_name": "札幌市",
          "short_name": "札幌市",
          "types": [
            "locality",
            "political"
          ]
        },
        {
          "long_name": "北海道",
          "short_name": "北海道",
          "types": [
            "administrative_area_level_1",
            "political"
          ]
        },
        {
          "long_name": "日本",
          "short_name": "JP",
          "types": [
            "country",
            "political"
          ]
        },
        {
          "long_name": "061-2282",
          "short_name": "061-2282",
          "types": [
            "postal_code"
          ]
        }
      ],
      "formatted_address": "日本、〒061-2282 北海道札幌市南区藤野２条９丁目",
      "geometry": {
        "bounds": {
          "northeast": {
            "lat": 42.965429,
            "lng": 141.288418
          },
          "southwest": {
            "lat": 42.961549,
            "lng": 141.2837181
          }
        },
        "location": {
          "lat": 42.9629493,
          "lng": 141.286443
        },
        "location_type": "APPROXIMATE",
        "viewport": {
          "northeast": {
            "lat": 42.965429,
            "lng": 141.288418
          },
          "southwest": {
            "lat": 42.961549,
            "lng": 141.2837181
          }
        }
      },
      "place_id": "ChIJFT5tIGDTCl8R8czpCQwxeXc",
      "types": [
        "political",
        "sublocality",
        "sublocality_level_3"
      ]
    },
    {
      "address_components": [
        {
          "long_name": "061-2282",
          "short_name": "061-2282",
          "types": [
            "postal_code"
          ]
        },
        {
          "long_name": "藤野２条",
          "short_name": "藤野２条",
          "types": [
            "political",
            "sublocality",
            "sublocality_level_2"
          ]
        },
        {
          "long_name": "南区",
          "short_name": "南区",
          "types": [
            "political",
            "sublocality",
            "sublocality_level_1"
          ]
        },
        {
          "long_name": "札幌市",
          "short_name": "札幌市",
          "types": [
            "locality",
            "political"
          ]
        },
        {
          "long_name": "北海道",
          "short_name": "北海道",
          "types": [
            "administrative_area_level_1",
            "political"
          ]
        },
        {
          "long_name": "日本",
          "short_name": "JP",
          "types": [
            "country",
            "political"
          ]
        }
      ],
      "formatted_address": "日本 〒061-2282",
      "geometry": {
        "bounds": {
          "northeast": {
            "lat": 42.9654288,
            "lng": 141.3148808
          },
          "southwest": {
            "lat": 42.9608974,
            "lng": 141.2725902
          }
        },
        "location": {
          "lat": 42.9633332,
          "lng": 141.2906573
        },
        "location_type": "APPROXIMATE",
        "viewport": {
          "northeast": {
            "lat": 42.9654288,
            "lng": 141.3148808
          },
          "southwest": {
            "lat": 42.9608974,
            "lng": 141.2725902
          }
        }
      },
      "place_id": "ChIJpcejvZ7UCl8RUD1YSSBzy94",
      "types": [
        "postal_code"
      ]
    },
    {
      "address_components": [
        {
          "long_name": "藤野２条",
          "short_name": "藤野２条",
          "types": [
            "political",
            "sublocality",
            "sublocality_level_2"
          ]
        },
        {
          "long_name": "南区",
          "short_name": "南区",
          "types": [
            "political",
            "sublocality",
            "sublocality_level_1"
          ]
        },
        {
          "long_name": "札幌市",
          "short_name": "札幌市",
          "types": [
            "locality",
            "political"
          ]
        },
        {
          "long_name": "北海道",
          "short_name": "北海道",
          "types": [
            "administrative_area_level_1",
            "political"
          ]
        },
        {
          "long_name": "日本",
          "short_name": "JP",
          "types": [
            "country",
            "political"
          ]
        },
        {
          "long_name": "061-2282",
          "short_name": "061-2282",
          "types": [
            "postal_code"
          ]
        }
      ],
      "formatted_address": "日本、〒061-2282 北海道札幌市南区藤野２条",
      "geometry": {
        "bounds": {
          "northeast": {
            "lat": 42.965429,
            "lng": 141.3148811
          },
          "southwest": {
            "lat": 42.960897,
            "lng": 141.2725899
          }
        },
        "location": {
          "lat": 42.9633332,
          "lng": 141.2906573
        },
        "location_type": "APPROXIMATE",
        "viewport": {
          "northeast": {
            "lat": 42.965429,
            "lng": 141.3148811
          },
          "southwest": {
            "lat": 42.960897,
            "lng": 141.2725899
          }
        }
      },
      "place_id": "ChIJEwrwpJjUCl8RS3Qm3KLx278",
      "types": [
        "political",
        "sublocality",
        "sublocality_level_2"
      ]
    },
    {
      "address_components": [
        {
          "long_name": "南区",
          "short_name": "南区",
          "types": [
            "political",
            "sublocality",
            "sublocality_level_1"
          ]
        },
        {
          "long_name": "札幌市",
          "short_name": "札幌市",
          "types": [
            "locality",
            "political"
          ]
        },
        {
          "long_name": "北海道",
          "short_name": "北海道",
          "types": [
            "administrative_area_level_1",
            "political"
          ]
        },
        {
          "long_name": "日本",
          "short_name": "JP",
          "types": [
            "country",
            "political"
          ]
        }
      ],
      "formatted_address": "日本、北海道札幌市南区",
      "geometry": {
        "bounds": {
          "northeast": {
            "lat": 43.12049349999999,
            "lng": 141.3973703
          },
          "southwest": {
            "lat": 42.7807277,
            "lng": 140.9904913
          }
        },
        "location": {
          "lat": 42.9539188,
          "lng": 141.2199991
        },
        "location_type": "APPROXIMATE",
        "viewport": {
          "northeast": {
            "lat": 43.12049349999999,
            "lng": 141.3973703
          },
          "southwest": {
            "lat": 42.7807277,
            "lng": 140.9904913
          }
        }
      },
      "place_id": "ChIJD4c7aFzSCl8RQNVDt0cp3_U",
      "types": [
        "political",
        "sublocality",
        "sublocality_level_1"
      ]
    },
    {
      "address_components": [
        {
          "long_name": "札幌市",
          "short_name": "札幌市",
          "types": [
            "locality",
            "political"
          ]
        },
        {
          "long_name": "北海道",
          "short_name": "北海道",
          "types": [
            "administrative_area_level_1",
            "political"
          ]
        },
        {
          "long_name": "日本",
          "short_name": "JP",
          "types": [
            "country",
            "political"
          ]
        }
      ],
      "formatted_address": "日本、北海道札幌市",
      "geometry": {
        "bounds": {
          "northeast": {
            "lat": 43.190037,
            "lng": 141.5054669
          },
          "southwest": {
            "lat": 42.780728,
            "lng": 140.990491
          }
        },
        "location": {
          "lat": 43.0617713,
          "lng": 141.3544507
        },
        "location_type": "APPROXIMATE",
        "viewport": {
          "northeast": {
            "lat": 43.190037,
            "lng": 141.5054669
          },
          "southwest": {
            "lat": 42.780728,
            "lng": 140.990491
          }
        }
      },
      "place_id": "ChIJMzaXWnXUCl8R1bqHRp1-kzM",
      "types": [
        "locality",
        "political"
      ]
    },
    {
      "address_components": [
        {
          "long_name": "北海道",
          "short_name": "北海道",
          "types": [
            "administrative_area_level_1",
            "political"
          ]
        },
        {
          "long_name": "日本",
          "short_name": "JP",
          "types": [
            "country",
            "political"
          ]
        }
      ],
      "formatted_address": "日本、北海道",
      "geometry": {
        "bounds": {
          "northeast": {
            "lat": 45.5265181,
            "lng": 145.817624
          },
          "southwest": {
            "lat": 41.3516002,
            "lng": 139.3340799
          }
        },
        "location": {
          "lat": 43.2203266,
          "lng": 142.8634737
        },
        "location_type": "APPROXIMATE",
        "viewport": {
          "northeast": {
            "lat": 45.5265181,
            "lng": 145.817624
          },
          "southwest": {
            "lat": 41.3516002,
            "lng": 139.3340799
          }
        }
      },
      "place_id": "ChIJi4hsnyBZn18RjwPOT1bDPBw",
      "types": [
        "administrative_area_level_1",
        "political"
      ]
    },
    {
      "address_components": [
        {
          "long_name": "日本",
          "short_name": "JP",
          "types": [
            "country",
            "political"
          ]
        }
      ],
      "formatted_address": "日本",
      "geometry": {
        "bounds": {
          "northeast": {
            "lat": 45.6412626,
            "lng": 154.0031455
          },
          "southwest": {
            "lat": 20.3585295,
            "lng": 122.8554688
          }
        },
        "location": {
          "lat": 36.204824,
          "lng": 138.252924
        },
        "location_type": "APPROXIMATE",
        "viewport": {
          "northeast": {
            "lat": 45.6412626,
            "lng": 154.0031455
          },
          "southwest": {
            "lat": 20.3585295,
            "lng": 122.8554688
          }
        }
      },
      "place_id": "ChIJLxl_1w9OZzQRRFJmfNR1QvU",
      "types": [
        "country",
        "political"
      ]
    }
  ]
}