{
  "station": "北海鋼機前",
  "lat": 43.096611,
  "lng": 141.536694,
  "plus_code": {
    "compound_code": "3GWP+JM 日本、北海道江別市",
    "global_code": "8RM33GWP+JM"
  },
  "results": [
    {
      "address_components": [
        {
          "long_name": "１−４",
          "short_name": "１−４",
          "types": [
            "premise"
          ]
        },
        {
          "long_name": "１",
          "short_name": "１",
          "types": [
            "political",
            "sublocality",
            "sublocality_level_4"
          ]
        },
        {
          "long_name": "東野幌町",
          "short_name": "東野幌町",
          "types": [
            "political",
            "sublocality",
            "sublocality_level_2"
          ]
        },
        {
          "long_name": "江別市",
          "short_name": "江別市",
          "types": [
            "locality",
            "political"
          ]
        },
        {
          "long_name": "北海道",
          "short_name": "北海道",
          "types": [
            "administrative_area_level_1",
            "political"
          ]
        },
        {
          "long_name": "日本",
          "short_name": "JP",
          "types": [
            "country",
            "political"
          ]
        },
        {
          "long_name": "069-0821",
          "short_name": "069-0821",
          "types": [
            "postal_code"
          ]
        }
      ],
      "formatted_address": "日本、〒069-0821 北海道江別市東野幌町１−１−４",
      "geometry": {
        "location": {
          "lat": 43.096526,
          "lng": 141.536819
        },
        "location_type": "ROOFTOP",
        "viewport": {
          "northeast": {
            "lat": 43.09787498029151,
            "lng": 141.5381679802915
          },
          "southwest": {
            "lat": 43.09517701970851,
            "lng": 141.5354700197085
          }
        }
      },
      "place_id": "ChIJ38jmzXUyC18RTR3XQgAWgkc",
      "plus_code": {
        "compound_code": "3GWP+JP 日本、北海道江別市",
        "global_code": "8RM33GWP+JP"
      },
      "types": [
        "establishment",
        "point_of_interest"
      ]
    },
    {
      "address_components": [
        {
          "long_name": "７",
          "short_name": "７",
          "types": [
            "premise"
          ]
        },
        {
          "long_name": "１",
          "short_name": "１",
          "types": [
            "political",
            "sublocality",
            "sublocality_level_4"
          ]
        },
        {
          "long_name": "東野幌町",
          "short_name": "東野幌町",
          "types": [
            "political",
            "sublocality",
            "sublocality_level_2"
          ]
        },
        {
          "long_name": "江別市",
          "short_name": "江別市",
          "types": [
            "locality",
            "political"
          ]
        },
        {
          "long_name": "北海道",
          "short_name": "北海道",
          "types": [
            "administrative_area_level_1",
            "political"
          ]
        },
        {
          "long_name": "日本",
          "short_name": "JP",
          "types": [
            "country",
            "political"
          ]
        },
        {
          "long_name": "069-0821",
          "short_name": "069-0821",
          "types": [
            "postal_code"
          ]
        }
      ],
      "formatted_address": "日本、〒069-0821 北海道江別市東野幌町１−７",
      "geometry": {
        "location": {
          "lat": 43.0964928,
          "lng": 141.5367671
        },
        "location_type": "ROOFTOP",
        "viewport": {
          "northeast": {
            "lat": 43.0978417802915,
            "lng": 141.5381160802915
          },
          "southwest": {
            "lat": 43.0951438197085,
            "lng": 141.5354181197085
          }
        }
      },
      "place_id": "ChIJ_93mzXUyC18RSlmX-P1euR0",
      "plus_code": {
        "compound_code": "3GWP+HP 日本、北海道江別市",
        "global_code": "8RM33GWP+HP"
      },
      "types": [
        "street_address"
      ]
    },
    {
      "address_components": [
        {
          "long_name": "４",
          "short_name": "４",
          "types": [
            "premise"
          ]
        },
        {
          "long_name": "１",
          "short_name": "１",
          "types": [
            "political",
            "sublocality",
            "sublocality_level_4"
          ]
        },
        {
          "long_name": "東野幌町",
          "short_name": "東野幌町",
          "types": [
            "political",
            "sublocality",
            "sublocality_level_2"
          ]
        },
        {
          "long_name": "江別市",
          "short_name": "江別市",
          "types": [
            "locality",
            "political"
          ]
        },
        {
          "long_name": "北海道",
          "short_name": "北海道",
          "types": [
            "administrative_area_level_1",
            "political"
          ]
        },
        {
          "long_name": "日本",
          "short_name": "JP",
          "types": [
            "country",
            "political"
          ]
        },
        {
          "long_name": "069-0821",
          "short_name": "069-0821",
          "types": [
            "postal_code"
          ]
        }
      ],
      "formatted_address": "日本、〒069-0821 北海道江別市東野幌町１−４",
      "geometry": {
        "bounds": {
          "northeast": {
            "lat": 43.096725,
            "lng": 141.5370372
          },
          "southwest": {
            "lat": 43.0962218,
            "lng": 141.5364092
          }
        },
        "location": {
          "lat": 43.0965251,
          "lng": 141.5368194
        },
        "location_type": "ROOFTOP",
        "viewport": {
          "northeast": {
            "lat": 43.09782238029149,
            "lng": 141.5380721802915
          },
          "southwest": {
            "lat": 43.09512441970849,
            "lng": 141.5353742197085
          }
        }
      },
      "place_id": "ChIJdTznzXUyC18RIOBdhBoe9CY",
      "types": [
        "premise"
      ]
    },
    {
      "address_components": [
        {
          "long_name": "きらら街道",
          "short_name": "きらら街道",
          "types": [
            "route"
          ]
        },
        {
          "long_name": "東野幌町",
          "short_name": "東野幌町",
          "types": [
            "political",
            "sublocality",
            "sublocality_level_2"
          ]
        },
        {
          "long_name": "江別市",
          "short_name": "江別市",
          "types": [
            "locality",
            "political"
          ]
        },
        {
          "long_name": "北海道",
          "short_name": "北海道",
          "types": [
            "administrative_area_level_1",
            "political"
          ]
        },
        {
          "long_name": "日本",
          "short_name": "JP",
          "types": [
            "country",
            "political"
          ]
        },
        {
          "long_name": "069-0821",
          "short_name": "069-0821",
          "types": [
            "postal_code"
          ]
        }
      ],
      "formatted_address": "日本、〒069-0821 北海道江別市東野幌町 きらら街道",
      "geometry": {
        "bounds": {
          "northeast": {
            "lat": 43.0966517,
            "lng": 141.5372013
          },
          "southwest": {
            "lat": 43.0964902,
            "lng": 141.5371574
          }
        },
        "location": {
          "lat": 43.096571,
          "lng": 141.5371789
        },
        "location_type": "GEOMETRIC_CENTER",
        "viewport": {
          "northeast": {
            "lat": 43.0979199302915,
            "lng": 141.5385283302915
          },
          "southwest": {
            "lat": 43.0952219697085,
            "lng": 141.5358303697085
          }
        }
      },
      "place_id": "ChIJ_Z-r0nUyC18RLlvGAAstTbk",
      "types": [
        "route"
      ]
    },
    {
      "address_components": [
        {
          "long_name": "東野幌町",
          "short_name": "東野幌町",
          "types": [
            "political",
            "sublocality",
            "sublocality_level_2"
          ]
        },
        {
          "long_name": "江別市",
          "short_name": "江別市",
          "types": [
            "locality",
            "political"
          ]
        },
        {
          "long_name": "北海道",
          "short_name": "北海道",
          "types": [
            "administrative_area_level_1",
            "political"
          ]
        },
        {
          "long_name": "日本",
          "short_name": "JP",
          "types": [
            "country",
            "political"
          ]
        },
        {
          "long_name": "069-0821",
          "short_name": "069-0821",
          "types": [
            "postal_code"
          ]
        }
      ],
      "formatted_address": "日本、〒069-0821 北海道江別市東野幌町",
      "geometry": {
        "bounds": {
          "northeast": {
            "lat": 43.098062,
            "lng": 141.5454278
          },
          "southwest": {
            "lat": 43.089842,
            "lng": 141.5339478
          }
        },
        "location": {
          "lat": 43.0932053,
          "lng": 141.5401467
        },
        "location_type": "APPROXIMATE",
        "viewport": {
          "northeast": {
            "lat": 43.098062,
            "lng": 141.5454278
          },
          "southwest": {
            "lat": 43.089842,
            "lng": 141.5339478
          }
        }
      },
      "place_id": "ChIJjS4BtXcyC18R685o6hzDYFM",
      "types": [
        "political",
        "sublocality",
        "sublocality_level_2"
      ]
    },
    {
      "address_components": [
        {
          "long_name": "069-0821",
          "short_name": "069-0821",
          "types": [
            "postal_code"
          ]
        },
        {
          "long_name": "東野幌町",
          "short_name": "東野幌町",
          "types": [
            "political",
            "sublocality",
            "sublocality_level_2"
          ]
        },
        {
          "long_name": "江別市",
          "short_name": "江別市",
          "types": [
            "locality",
            "political"
          ]
        },
        {
          "long_name": "北海道",
          "short_name": "北海道",
          "types": [
            "administrative_area_level_1",
            "political"
          ]
        },
        {
          "long_name": "日本",
          "short_name": "JP",
          "types": [
            "country",
            "political"
          ]
        }
      ],
      "formatted_address": "日本 〒069-0821",
      "geometry": {
        "bounds": {
          "northeast": {
            "lat": 43.098062,
            "lng": 141.5454276
          },
          "southwest": {
            "lat": 43.0898416,
            "lng": 141.5339475
          }
        },
        "location": {
          "lat": 43.0932053,
          "lng": 141.5401467
        },
        "location_type": "APPROXIMATE",
        "viewport": {
          "northeast": {
            "lat": 43.098062,
            "lng": 141.5454276
          },
          "southwest": {
            "lat": 43.0898416,
            "lng": 141.5339475
          }
        }
      },
      "place_id": "ChIJiSpv0HcyC18R-55wJ9iU_1Q",
      "types": [
        "postal_code"
      ]
    },
    {
      "address_components": [
        {
          "long_name": "江別市",
          "short_name": "江別市",
          "types": [
            "locality",
            "political"
          ]
        },
        {
          "long_name": "北海道",
          "short_name": "北海道",
          "types": [
            "administrative_area_level_1",
            "political"
          ]
        },
        {
          "long_name": "日本",
          "short_name": "JP",
          "types": [
            "country",
            "political"
          ]
        }
      ],
      "formatted_address": "日本、北海道江別市",
      "geometry": {
        "bounds": {
          "northeast": {
            "lat": 43.172709,
            "lng": 141.668735
          },
          "southwest": {
            "lat": 43.016116,
            "lng": 141.4445519
          }
        },
        "location": {
          "lat": 43.1037667,
          "lng": 141.5362413
        },
        "location_type": "APPROXIMATE",
        "viewport": {
          "northeast": {
            "lat": 43.172709,
            "lng": 141.668735
          },
          "southwest": {
            "lat": 43.016116,
            "lng": 141.4445519
          }
        }
      },
      "place_id": "ChIJXSZ2uGQyC18RNGjO8UVOtTI",
      "types": [
        "locality",
        "political"
      ]
    },
    {
      "address_components": [
        {
          "long_name": "北海道",
          "short_name": "北海道",
          "types": [
            "administrative_area_level_1",
            "political"
          ]
        },
        {
          "long_name": "日本",
          "short_name": "JP",
          "types": [
            "country",
            "political"
          ]
        }
      ],
      "formatted_address": "日本、北海道",
      "geometry": {
        "bounds": {
          "northeast": {
            "lat": 45.5265181,
            "lng": 145.817624
          },
          "southwest": {
            "lat": 41.3516002,
            "lng": 139.3340799
          }
        },
        "location": {
          "lat": 43.2203266,
          "lng": 142.8634737
        },
        "location_type": "APPROXIMATE",
        "viewport": {
          "northeast": {
            "lat": 45.5265181,
            "lng": 145.817624
          },
          "southwest": {
            "lat": 41.3516002,
            "lng": 139.3340799
          }
        }
      },
      "place_id": "ChIJi4hsnyBZn18RjwPOT1bDPBw",
      "types": [
        "administrative_area_level_1",
        "political"
      ]
    },
    {
      "address_components": [
        {
          "long_name": "日本",
          "short_name": "JP",
          "types": [
            "country",
            "political"
          ]
        }
      ],
      "formatted_address": "日本",
      "geometry": {
        "bounds": {
          "northeast": {
            "lat": 45.6412626,
            "lng": 154.0031455
          },
          "southwest": {
            "lat": 20.3585295,
            "lng": 122.8554688
          }
        },
        "location": {
          "lat": 36.204824,
          "lng": 138.252924
        },
        "location_type": "APPROXIMATE",
        "viewport": {
          "northeast": {
            "lat": 45.6412626,
            "lng": 154.0031455
          },
          "southwest": {
            "lat": 20.3585295,
            "lng": 122.8554688
          }
        }
      },
      "place_id": "ChIJLxl_1w9OZzQRRFJmfNR1QvU",
      "types": [
        "country",
        "political"
      ]
    }
  ]
}