{
  "station": "若菜",
  "lat": 43.025056,
  "lng": 141.973333,
  "plus_code": {
    "compound_code": "2XGF+28 日本、北海道夕張市",
    "global_code": "8RM32XGF+28"
  },
  "results": [
    {
      "address_components": [
        {
          "long_name": "１０−１",
          "short_name": "１０−１",
          "types": [
            "premise"
          ]
        },
        {
          "long_name": "若菜",
          "short_name": "若菜",
          "types": [
            "political",
            "sublocality",
            "sublocality_level_2"
          ]
        },
        {
          "long_name": "夕張市",
          "short_name": "夕張市",
          "types": [
            "locality",
            "political"
          ]
        },
        {
          "long_name": "北海道",
          "short_name": "北海道",
          "types": [
            "administrative_area_level_1",
            "political"
          ]
        },
        {
          "long_name": "日本",
          "short_name": "JP",
          "types": [
            "country",
            "political"
          ]
        },
        {
          "long_name": "068-0425",
          "short_name": "068-0425",
          "types": [
            "postal_code"
          ]
        }
      ],
      "formatted_address": "日本、〒068-0425 北海道夕張市若菜１０−１",
      "geometry": {
        "location": {
          "lat": 43.0248154,
          "lng": 141.9728996
        },
        "location_type": "ROOFTOP",
        "viewport": {
          "northeast": {
            "lat": 43.0261643802915,
            "lng": 141.9742485802915
          },
          "southwest": {
            "lat": 43.0234664197085,
            "lng": 141.9715506197085
          }
        }
      },
      "place_id": "ChIJjdFJmBK4dF8RyYOoSg-VTAk",
      "plus_code": {
        "compound_code": "2XFF+W5 日本、北海道夕張市",
        "global_code": "8RM32XFF+W5"
      },
      "types": [
        "street_address"
      ]
    },
    {
      "address_components": [
        {
          "long_name": "夕張岩見沢線",
          "short_name": "道道38号",
          "types": [
            "route"
          ]
        },
        {
          "long_name": "若菜",
          "short_name": "若菜",
          "types": [
            "political",
            "sublocality",
            "sublocality_level_2"
          ]
        },
        {
          "long_name": "夕張市",
          "short_name": "夕張市",
          "types": [
            "locality",
            "political"
          ]
        },
        {
          "long_name": "北海道",
          "short_name": "北海道",
          "types": [
            "administrative_area_level_1",
            "political"
          ]
        },
        {
          "long_name": "日本",
          "short_name": "JP",
          "types": [
            "country",
            "political"
          ]
        },
        {
          "long_name": "068-0425",
          "short_name": "068-0425",
          "types": [
            "postal_code"
          ]
        }
      ],
      "formatted_address": "日本、〒068-0425 北海道夕張市若菜 道道38号",
      "geometry": {
        "bounds": {
          "northeast": {
            "lat": 43.0248958,
            "lng": 141.9726491
          },
          "southwest": {
            "lat": 43.0248142,
            "lng": 141.9725495
          }
        },
        "location": {
          "lat": 43.0248549,
          "lng": 141.9725992
        },
        "location_type": "GEOMETRIC_CENTER",
        "viewport": {
          "northeast": {
            "lat": 43.02620398029149,
            "lng": 141.9739482802915
          },
          "southwest": {
            "lat": 43.0235060197085,
            "lng": 141.9712503197085
          }
        }
      },
      "place_id": "ChIJ274qmxK4dF8RlKh-yRcgOrs",
      "types": [
        "route"
      ]
    },
    {
      "address_components": [
        {
          "long_name": "068-0422",
          "short_name": "068-0422",
          "types": [
            "postal_code"
          ]
        },
        {
          "long_name": "日吉",
          "short_name": "日吉",
          "types": [
            "political",
            "sublocality",
            "sublocality_level_2"
          ]
        },
        {
          "long_name": "夕張市",
          "short_name": "夕張市",
          "types": [
            "locality",
            "political"
          ]
        },
        {
          "long_name": "北海道",
          "short_name": "北海道",
          "types": [
            "administrative_area_level_1",
            "political"
          ]
        },
        {
          "long_name": "日本",
          "short_name": "JP",
          "types": [
            "country",
            "political"
          ]
        }
      ],
      "formatted_address": "日本 〒068-0422",
      "geometry": {
        "bounds": {
          "northeast": {
            "lat": 43.0459643,
            "lng": 142.0247616
          },
          "southwest": {
            "lat": 43.0169341,
            "lng": 141.9717562
          }
        },
        "location": {
          "lat": 43.0336676,
          "lng": 141.9865485
        },
        "location_type": "APPROXIMATE",
        "viewport": {
          "northeast": {
            "lat": 43.0459643,
            "lng": 142.0247616
          },
          "southwest": {
            "lat": 43.0169341,
            "lng": 141.9717562
          }
        }
      },
      "place_id": "ChIJbYbvEGa4dF8RGO6vUuSZmXM",
      "types": [
        "postal_code"
      ]
    },
    {
      "address_components": [
        {
          "long_name": "日吉",
          "short_name": "日吉",
          "types": [
            "political",
            "sublocality",
            "sublocality_level_2"
          ]
        },
        {
          "long_name": "夕張市",
          "short_name": "夕張市",
          "types": [
            "locality",
            "political"
          ]
        },
        {
          "long_name": "北海道",
          "short_name": "北海道",
          "types": [
            "administrative_area_level_1",
            "political"
          ]
        },
        {
          "long_name": "日本",
          "short_name": "JP",
          "types": [
            "country",
            "political"
          ]
        }
      ],
      "formatted_address": "日本、北海道夕張市日吉",
      "geometry": {
        "bounds": {
          "northeast": {
            "lat": 43.04534899999999,
            "lng": 142.0247619
          },
          "southwest": {
            "lat": 43.016934,
            "lng": 141.9717558
          }
        },
        "location": {
          "lat": 43.0336676,
          "lng": 141.9865485
        },
        "location_type": "APPROXIMATE",
        "viewport": {
          "northeast": {
            "lat": 43.04534899999999,
            "lng": 142.0247619
          },
          "southwest": {
            "lat": 43.016934,
            "lng": 141.9717558
          }
        }
      },
      "place_id": "ChIJhSyil0e4dF8Rz0KyRIhoRrg",
      "types": [
        "political",
        "sublocality",
        "sublocality_level_2"
      ]
    },
    {
      "address_components": [
        {
          "long_name": "夕張市",
          "short_name": "夕張市",
          "types": [
            "locality",
            "political"
          ]
        },
        {
          "long_name": "北海道",
          "short_name": "北海道",
          "types": [
            "administrative_area_level_1",
            "political"
          ]
        },
        {
          "long_name": "日本",
          "short_name": "JP",
          "types": [
            "country",
            "political"
          ]
        }
      ],
      "formatted_address": "日本、北海道夕張市",
      "geometry": {
        "bounds": {
          "northeast": {
            "lat": 43.225438,
            "lng": 142.3301761
          },
          "southwest": {
            "lat": 42.859774,
            "lng": 141.9024839
          }
        },
        "location": {
          "lat": 43.0567681,
          "lng": 141.9739433
        },
        "location_type": "APPROXIMATE",
        "viewport": {
          "northeast": {
            "lat": 43.225438,
            "lng": 142.3301761
          },
          "southwest": {
            "lat": 42.859774,
            "lng": 141.9024839
          }
        }
      },
      "place_id": "ChIJ-5cXU7-7dF8RjeaX1D-RqaQ",
      "types": [
        "locality",
        "political"
      ]
    },
    {
      "address_components": [
        {
          "long_name": "北海道",
          "short_name": "北海道",
          "types": [
            "administrative_area_level_1",
            "political"
          ]
        },
        {
          "long_name": "日本",
          "short_name": "JP",
          "types": [
            "country",
            "political"
          ]
        }
      ],
      "formatted_address": "日本、北海道",
      "geometry": {
        "bounds": {
          "northeast": {
            "lat": 45.5265181,
            "lng": 145.817624
          },
          "southwest": {
            "lat": 41.3516002,
            "lng": 139.3340799
          }
        },
        "location": {
          "lat": 43.2203266,
          "lng": 142.8634737
        },
        "location_type": "APPROXIMATE",
        "viewport": {
          "northeast": {
            "lat": 45.5265181,
            "lng": 145.817624
          },
          "southwest": {
            "lat": 41.3516002,
            "lng": 139.3340799
          }
        }
      },
      "place_id": "ChIJi4hsnyBZn18RjwPOT1bDPBw",
      "types": [
        "administrative_area_level_1",
        "political"
      ]
    },
    {
      "address_components": [
        {
          "long_name": "日本",
          "short_name": "JP",
          "types": [
            "country",
            "political"
          ]
        }
      ],
      "formatted_address": "日本",
      "geometry": {
        "bounds": {
          "northeast": {
            "lat": 45.6412626,
            "lng": 154.0031455
          },
          "southwest": {
            "lat": 20.3585295,
            "lng": 122.8554688
          }
        },
        "location": {
          "lat": 36.204824,
          "lng": 138.252924
        },
        "location_type": "APPROXIMATE",
        "viewport": {
          "northeast": {
            "lat": 45.6412626,
            "lng": 154.0031455
          },
          "southwest": {
            "lat": 20.3585295,
            "lng": 122.8554688
          }
        }
      },
      "place_id": "ChIJLxl_1w9OZzQRRFJmfNR1QvU",
      "types": [
        "country",
        "political"
      ]
    }
  ]
}