{
  "station": "石切山",
  "lat": 42.968889,
  "lng": 141.335389,
  "plus_code": {
    "compound_code": "X89P+H5 日本、北海道札幌市",
    "global_code": "8RJ3X89P+H5"
  },
  "results": [
    {
      "address_components": [
        {
          "long_name": "３０",
          "short_name": "３０",
          "types": [
            "premise"
          ]
        },
        {
          "long_name": "１",
          "short_name": "１",
          "types": [
            "political",
            "sublocality",
            "sublocality_level_4"
          ]
        },
        {
          "long_name": "３丁目",
          "short_name": "３丁目",
          "types": [
            "political",
            "sublocality",
            "sublocality_level_3"
          ]
        },
        {
          "long_name": "石山１条",
          "short_name": "石山１条",
          "types": [
            "political",
            "sublocality",
            "sublocality_level_2"
          ]
        },
        {
          "long_name": "南区",
          "short_name": "南区",
          "types": [
            "political",
            "sublocality",
            "sublocality_level_1"
          ]
        },
        {
          "long_name": "札幌市",
          "short_name": "札幌市",
          "types": [
            "locality",
            "political"
          ]
        },
        {
          "long_name": "北海道",
          "short_name": "北海道",
          "types": [
            "administrative_area_level_1",
            "political"
          ]
        },
        {
          "long_name": "日本",
          "short_name": "JP",
          "types": [
            "country",
            "political"
          ]
        },
        {
          "long_name": "005-0841",
          "short_name": "005-0841",
          "types": [
            "postal_code"
          ]
        }
      ],
      "formatted_address": "日本、〒005-0841 北海道札幌市南区石山１条３丁目１−３０",
      "geometry": {
        "location": {
          "lat": 42.9688927,
          "lng": 141.3353899
        },
        "location_type": "ROOFTOP",
        "viewport": {
          "northeast": {
            "lat": 42.97024168029149,
            "lng": 141.3367388802915
          },
          "southwest": {
            "lat": 42.9675437197085,
            "lng": 141.3340409197085
          }
        }
      },
      "place_id": "ChIJWxAagtrUCl8RJOnnJUDysH0",
      "plus_code": {
        "compound_code": "X89P+H5 日本、北海道札幌市",
        "global_code": "8RJ3X89P+H5"
      },
      "types": [
        "street_address"
      ]
    },
    {
      "address_components": [
        {
          "long_name": "３０",
          "short_name": "３０",
          "types": [
            "premise"
          ]
        },
        {
          "long_name": "１",
          "short_name": "１",
          "types": [
            "political",
            "sublocality",
            "sublocality_level_4"
          ]
        },
        {
          "long_name": "３丁目",
          "short_name": "３丁目",
          "types": [
            "political",
            "sublocality",
            "sublocality_level_3"
          ]
        },
        {
          "long_name": "石山１条",
          "short_name": "石山１条",
          "types": [
            "political",
            "sublocality",
            "sublocality_level_2"
          ]
        },
        {
          "long_name": "南区",
          "short_name": "南区",
          "types": [
            "political",
            "sublocality",
            "sublocality_level_1"
          ]
        },
        {
          "long_name": "札幌市",
          "short_name": "札幌市",
          "types": [
            "locality",
            "political"
          ]
        },
        {
          "long_name": "北海道",
          "short_name": "北海道",
          "types": [
            "administrative_area_level_1",
            "political"
          ]
        },
        {
          "long_name": "日本",
          "short_name": "JP",
          "types": [
            "country",
            "political"
          ]
        },
        {
          "long_name": "005-0841",
          "short_name": "005-0841",
          "types": [
            "postal_code"
          ]
        }
      ],
      "formatted_address": "日本、〒005-0841 北海道札幌市南区石山１条３丁目１−３０",
      "geometry": {
        "location": {
          "lat": 42.9689054,
          "lng": 141.3353688
        },
        "location_type": "ROOFTOP",
        "viewport": {
          "northeast": {
            "lat": 42.9702543802915,
            "lng": 141.3367177802915
          },
          "southwest": {
            "lat": 42.9675564197085,
            "lng": 141.3340198197085
          }
        }
      },
      "place_id": "ChIJ4woQgtrUCl8Rhot4M6dG0tg",
      "plus_code": {
        "compound_code": "X89P+H4 日本、北海道札幌市",
        "global_code": "8RJ3X89P+H4"
      },
      "types": [
        "establishment",
        "point_of_interest"
      ]
    },
    {
      "address_components": [
        {
          "long_name": "石山振興会館",
          "short_name": "石山振興会館",
          "types": [
            "premise"
          ]
        },
        {
          "long_name": "３０",
          "short_name": "３０",
          "types": [
            "premise"
          ]
        },
        {
          "long_name": "１",
          "short_name": "１",
          "types": [
            "political",
            "sublocality",
            "sublocality_level_4"
          ]
        },
        {
          "long_name": "３丁目",
          "short_name": "３丁目",
          "types": [
            "political",
            "sublocality",
            "sublocality_level_3"
          ]
        },
        {
          "long_name": "石山１条",
          "short_name": "石山１条",
          "types": [
            "political",
            "sublocality",
            "sublocality_level_2"
          ]
        },
        {
          "long_name": "南区",
          "short_name": "南区",
          "types": [
            "political",
            "sublocality",
            "sublocality_level_1"
          ]
        },
        {
          "long_name": "札幌市",
          "short_name": "札幌市",
          "types": [
            "locality",
            "political"
          ]
        },
        {
          "long_name": "北海道",
          "short_name": "北海道",
          "types": [
            "administrative_area_level_1",
            "political"
          ]
        },
        {
          "long_name": "日本",
          "short_name": "JP",
          "types": [
            "country",
            "political"
          ]
        },
        {
          "long_name": "005-0841",
          "short_name": "005-0841",
          "types": [
            "postal_code"
          ]
        }
      ],
      "formatted_address": "日本、〒005-0841 北海道札幌市南区石山１条３丁目１−３０ 石山振興会館",
      "geometry": {
        "bounds": {
          "northeast": {
            "lat": 42.9689604,
            "lng": 141.33552
          },
          "southwest": {
            "lat": 42.968817,
            "lng": 141.3352367
          }
        },
        "location": {
          "lat": 42.9688884,
          "lng": 141.3353477
        },
        "location_type": "ROOFTOP",
        "viewport": {
          "northeast": {
            "lat": 42.9702376802915,
            "lng": 141.3367273302915
          },
          "southwest": {
            "lat": 42.9675397197085,
            "lng": 141.3340293697085
          }
        }
      },
      "place_id": "ChIJo70agtrUCl8RKJs6HwZ4YbM",
      "types": [
        "premise"
      ]
    },
    {
      "address_components": [
        {
          "long_name": "平岸通",
          "short_name": "平岸通",
          "types": [
            "route"
          ]
        },
        {
          "long_name": "１",
          "short_name": "１",
          "types": [
            "political",
            "sublocality",
            "sublocality_level_4"
          ]
        },
        {
          "long_name": "３丁目",
          "short_name": "３丁目",
          "types": [
            "political",
            "sublocality",
            "sublocality_level_3"
          ]
        },
        {
          "long_name": "石山１条",
          "short_name": "石山１条",
          "types": [
            "political",
            "sublocality",
            "sublocality_level_2"
          ]
        },
        {
          "long_name": "南区",
          "short_name": "南区",
          "types": [
            "political",
            "sublocality",
            "sublocality_level_1"
          ]
        },
        {
          "long_name": "札幌市",
          "short_name": "札幌市",
          "types": [
            "locality",
            "political"
          ]
        },
        {
          "long_name": "北海道",
          "short_name": "北海道",
          "types": [
            "administrative_area_level_1",
            "political"
          ]
        },
        {
          "long_name": "日本",
          "short_name": "JP",
          "types": [
            "country",
            "political"
          ]
        },
        {
          "long_name": "005-0841",
          "short_name": "005-0841",
          "types": [
            "postal_code"
          ]
        }
      ],
      "formatted_address": "日本、〒005-0841 北海道札幌市南区石山１条３丁目１ 平岸通",
      "geometry": {
        "bounds": {
          "northeast": {
            "lat": 42.9689155,
            "lng": 141.3358479
          },
          "southwest": {
            "lat": 42.9687235,
            "lng": 141.3355161
          }
        },
        "location": {
          "lat": 42.9688195,
          "lng": 141.335682
        },
        "location_type": "GEOMETRIC_CENTER",
        "viewport": {
          "northeast": {
            "lat": 42.9701684802915,
            "lng": 141.3370309802915
          },
          "southwest": {
            "lat": 42.9674705197085,
            "lng": 141.3343330197085
          }
        }
      },
      "place_id": "ChIJ3wMkf9DUCl8R8hbvW4SgpGk",
      "types": [
        "route"
      ]
    },
    {
      "address_components": [
        {
          "long_name": "１",
          "short_name": "１",
          "types": [
            "political",
            "sublocality",
            "sublocality_level_4"
          ]
        },
        {
          "long_name": "３丁目",
          "short_name": "３丁目",
          "types": [
            "political",
            "sublocality",
            "sublocality_level_3"
          ]
        },
        {
          "long_name": "石山１条",
          "short_name": "石山１条",
          "types": [
            "political",
            "sublocality",
            "sublocality_level_2"
          ]
        },
        {
          "long_name": "南区",
          "short_name": "南区",
          "types": [
            "political",
            "sublocality",
            "sublocality_level_1"
          ]
        },
        {
          "long_name": "札幌市",
          "short_name": "札幌市",
          "types": [
            "locality",
            "political"
          ]
        },
        {
          "long_name": "北海道",
          "short_name": "北海道",
          "types": [
            "administrative_area_level_1",
            "political"
          ]
        },
        {
          "long_name": "日本",
          "short_name": "JP",
          "types": [
            "country",
            "political"
          ]
        },
        {
          "long_name": "005-0841",
          "short_name": "005-0841",
          "types": [
            "postal_code"
          ]
        }
      ],
      "formatted_address": "日本、〒005-0841 北海道札幌市南区石山１条３丁目１",
      "geometry": {
        "bounds": {
          "northeast": {
            "lat": 42.970696,
            "lng": 141.3384419
          },
          "southwest": {
            "lat": 42.968134,
            "lng": 141.3341199
          }
        },
        "location": {
          "lat": 42.9691852,
          "lng": 141.3360406
        },
        "location_type": "GEOMETRIC_CENTER",
        "viewport": {
          "northeast": {
            "lat": 42.9707639802915,
            "lng": 141.3384419
          },
          "southwest": {
            "lat": 42.9680660197085,
            "lng": 141.3341199
          }
        }
      },
      "place_id": "ChIJ5Y60edrUCl8RenY4ZGYANNw",
      "types": [
        "political",
        "sublocality",
        "sublocality_level_4"
      ]
    },
    {
      "address_components": [
        {
          "long_name": "３丁目",
          "short_name": "３丁目",
          "types": [
            "political",
            "sublocality",
            "sublocality_level_3"
          ]
        },
        {
          "long_name": "石山１条",
          "short_name": "石山１条",
          "types": [
            "political",
            "sublocality",
            "sublocality_level_2"
          ]
        },
        {
          "long_name": "南区",
          "short_name": "南区",
          "types": [
            "political",
            "sublocality",
            "sublocality_level_1"
          ]
        },
        {
          "long_name": "札幌市",
          "short_name": "札幌市",
          "types": [
            "locality",
            "political"
          ]
        },
        {
          "long_name": "北海道",
          "short_name": "北海道",
          "types": [
            "administrative_area_level_1",
            "political"
          ]
        },
        {
          "long_name": "日本",
          "short_name": "JP",
          "types": [
            "country",
            "political"
          ]
        },
        {
          "long_name": "005-0841",
          "short_name": "005-0841",
          "types": [
            "postal_code"
          ]
        }
      ],
      "formatted_address": "日本、〒005-0841 北海道札幌市南区石山１条３丁目",
      "geometry": {
        "bounds": {
          "northeast": {
            "lat": 42.9727319,
            "lng": 141.3390579
          },
          "southwest": {
            "lat": 42.96679899999999,
            "lng": 141.3308379
          }
        },
        "location": {
          "lat": 42.96912830000001,
          "lng": 141.3344726
        },
        "location_type": "APPROXIMATE",
        "viewport": {
          "northeast": {
            "lat": 42.9727319,
            "lng": 141.3390579
          },
          "southwest": {
            "lat": 42.96679899999999,
            "lng": 141.3308379
          }
        }
      },
      "place_id": "ChIJVQ4DYdrUCl8R_wJAQMybbLI",
      "types": [
        "political",
        "sublocality",
        "sublocality_level_3"
      ]
    },
    {
      "address_components": [
        {
          "long_name": "石山１条",
          "short_name": "石山１条",
          "types": [
            "political",
            "sublocality",
            "sublocality_level_2"
          ]
        },
        {
          "long_name": "南区",
          "short_name": "南区",
          "types": [
            "political",
            "sublocality",
            "sublocality_level_1"
          ]
        },
        {
          "long_name": "札幌市",
          "short_name": "札幌市",
          "types": [
            "locality",
            "political"
          ]
        },
        {
          "long_name": "北海道",
          "short_name": "北海道",
          "types": [
            "administrative_area_level_1",
            "political"
          ]
        },
        {
          "long_name": "日本",
          "short_name": "JP",
          "types": [
            "country",
            "political"
          ]
        },
        {
          "long_name": "005-0841",
          "short_name": "005-0841",
          "types": [
            "postal_code"
          ]
        }
      ],
      "formatted_address": "日本、〒005-0841 北海道札幌市南区石山１条",
      "geometry": {
        "bounds": {
          "northeast": {
            "lat": 42.9828581,
            "lng": 141.345031
          },
          "southwest": {
            "lat": 42.960972,
            "lng": 141.3123891
          }
        },
        "location": {
          "lat": 42.9645325,
          "lng": 141.3213303
        },
        "location_type": "APPROXIMATE",
        "viewport": {
          "northeast": {
            "lat": 42.9828581,
            "lng": 141.345031
          },
          "southwest": {
            "lat": 42.960972,
            "lng": 141.3123891
          }
        }
      },
      "place_id": "ChIJo8OUotzUCl8Ry7146V3YOeU",
      "types": [
        "political",
        "sublocality",
        "sublocality_level_2"
      ]
    },
    {
      "address_components": [
        {
          "long_name": "005-0841",
          "short_name": "005-0841",
          "types": [
            "postal_code"
          ]
        },
        {
          "long_name": "石山１条",
          "short_name": "石山１条",
          "types": [
            "political",
            "sublocality",
            "sublocality_level_2"
          ]
        },
        {
          "long_name": "南区",
          "short_name": "南区",
          "types": [
            "political",
            "sublocality",
            "sublocality_level_1"
          ]
        },
        {
          "long_name": "札幌市",
          "short_name": "札幌市",
          "types": [
            "locality",
            "political"
          ]
        },
        {
          "long_name": "北海道",
          "short_name": "北海道",
          "types": [
            "administrative_area_level_1",
            "political"
          ]
        },
        {
          "long_name": "日本",
          "short_name": "JP",
          "types": [
            "country",
            "political"
          ]
        }
      ],
      "formatted_address": "日本 〒005-0841",
      "geometry": {
        "bounds": {
          "northeast": {
            "lat": 42.9828577,
            "lng": 141.3450312
          },
          "southwest": {
            "lat": 42.960972,
            "lng": 141.3123887
          }
        },
        "location": {
          "lat": 42.9645325,
          "lng": 141.3213303
        },
        "location_type": "APPROXIMATE",
        "viewport": {
          "northeast": {
            "lat": 42.9828577,
            "lng": 141.3450312
          },
          "southwest": {
            "lat": 42.960972,
            "lng": 141.3123887
          }
        }
      },
      "place_id": "ChIJdzmgQyfVCl8RnAZJMS-6O-0",
      "types": [
        "postal_code"
      ]
    },
    {
      "address_components": [
        {
          "long_name": "南区",
          "short_name": "南区",
          "types": [
            "political",
            "sublocality",
            "sublocality_level_1"
          ]
        },
        {
          "long_name": "札幌市",
          "short_name": "札幌市",
          "types": [
            "locality",
            "political"
          ]
        },
        {
          "long_name": "北海道",
          "short_name": "北海道",
          "types": [
            "administrative_area_level_1",
            "political"
          ]
        },
        {
          "long_name": "日本",
          "short_name": "JP",
          "types": [
            "country",
            "political"
          ]
        }
      ],
      "formatted_address": "日本、北海道札幌市南区",
      "geometry": {
        "bounds": {
          "northeast": {
            "lat": 43.12049349999999,
            "lng": 141.3973703
          },
          "southwest": {
            "lat": 42.7807277,
            "lng": 140.9904913
          }
        },
        "location": {
          "lat": 42.9539188,
          "lng": 141.2199991
        },
        "location_type": "APPROXIMATE",
        "viewport": {
          "northeast": {
            "lat": 43.12049349999999,
            "lng": 141.3973703
          },
          "southwest": {
            "lat": 42.7807277,
            "lng": 140.9904913
          }
        }
      },
      "place_id": "ChIJD4c7aFzSCl8RQNVDt0cp3_U",
      "types": [
        "political",
        "sublocality",
        "sublocality_level_1"
      ]
    },
    {
      "address_components": [
        {
          "long_name": "札幌市",
          "short_name": "札幌市",
          "types": [
            "locality",
            "political"
          ]
        },
        {
          "long_name": "北海道",
          "short_name": "北海道",
          "types": [
            "administrative_area_level_1",
            "political"
          ]
        },
        {
          "long_name": "日本",
          "short_name": "JP",
          "types": [
            "country",
            "political"
          ]
        }
      ],
      "formatted_address": "日本、北海道札幌市",
      "geometry": {
        "bounds": {
          "northeast": {
            "lat": 43.190037,
            "lng": 141.5054669
          },
          "southwest": {
            "lat": 42.780728,
            "lng": 140.990491
          }
        },
        "location": {
          "lat": 43.0617713,
          "lng": 141.3544507
        },
        "location_type": "APPROXIMATE",
        "viewport": {
          "northeast": {
            "lat": 43.190037,
            "lng": 141.5054669
          },
          "southwest": {
            "lat": 42.780728,
            "lng": 140.990491
          }
        }
      },
      "place_id": "ChIJMzaXWnXUCl8R1bqHRp1-kzM",
      "types": [
        "locality",
        "political"
      ]
    },
    {
      "address_components": [
        {
          "long_name": "北海道",
          "short_name": "北海道",
          "types": [
            "administrative_area_level_1",
            "political"
          ]
        },
        {
          "long_name": "日本",
          "short_name": "JP",
          "types": [
            "country",
            "political"
          ]
        }
      ],
      "formatted_address": "日本、北海道",
      "geometry": {
        "bounds": {
          "northeast": {
            "lat": 45.5265181,
            "lng": 145.817624
          },
          "southwest": {
            "lat": 41.3516002,
            "lng": 139.3340799
          }
        },
        "location": {
          "lat": 43.2203266,
          "lng": 142.8634737
        },
        "location_type": "APPROXIMATE",
        "viewport": {
          "northeast": {
            "lat": 45.5265181,
            "lng": 145.817624
          },
          "southwest": {
            "lat": 41.3516002,
            "lng": 139.3340799
          }
        }
      },
      "place_id": "ChIJi4hsnyBZn18RjwPOT1bDPBw",
      "types": [
        "administrative_area_level_1",
        "political"
      ]
    },
    {
      "address_components": [
        {
          "long_name": "日本",
          "short_name": "JP",
          "types": [
            "country",
            "political"
          ]
        }
      ],
      "formatted_address": "日本",
      "geometry": {
        "bounds": {
          "northeast": {
            "lat": 45.6412626,
            "lng": 154.0031455
          },
          "southwest": {
            "lat": 20.3585295,
            "lng": 122.8554688
          }
        },
        "location": {
          "lat": 36.204824,
          "lng": 138.252924
        },
        "location_type": "APPROXIMATE",
        "viewport": {
          "northeast": {
            "lat": 45.6412626,
            "lng": 154.0031455
          },
          "southwest": {
            "lat": 20.3585295,
            "lng": 122.8554688
          }
        }
      },
      "place_id": "ChIJLxl_1w9OZzQRRFJmfNR1QvU",
      "types": [
        "country",
        "political"
      ]
    }
  ]
}