{
  "station": "中鹿追",
  "lat": 43.098692,
  "lng": 142.988547,
  "plus_code": {
    "compound_code": "3XXQ+FC 日本、北海道鹿追町",
    "global_code": "8RM43XXQ+FC"
  },
  "results": [
    {
      "address_components": [
        {
          "long_name": "１５−１",
          "short_name": "１５−１",
          "types": [
            "premise"
          ]
        },
        {
          "long_name": "１丁目",
          "short_name": "１丁目",
          "types": [
            "political",
            "sublocality",
            "sublocality_level_3"
          ]
        },
        {
          "long_name": "東町",
          "short_name": "東町",
          "types": [
            "political",
            "sublocality",
            "sublocality_level_2"
          ]
        },
        {
          "long_name": "鹿追町",
          "short_name": "鹿追町",
          "types": [
            "locality",
            "political"
          ]
        },
        {
          "long_name": "河東郡",
          "short_name": "河東郡",
          "types": [
            "administrative_area_level_2",
            "political"
          ]
        },
        {
          "long_name": "北海道",
          "short_name": "北海道",
          "types": [
            "administrative_area_level_1",
            "political"
          ]
        },
        {
          "long_name": "日本",
          "short_name": "JP",
          "types": [
            "country",
            "political"
          ]
        },
        {
          "long_name": "081-0222",
          "short_name": "081-0222",
          "types": [
            "postal_code"
          ]
        }
      ],
      "formatted_address": "日本、〒081-0222 北海道河東郡鹿追町東町１丁目１５−１",
      "geometry": {
        "location": {
          "lat": 43.0989186,
          "lng": 142.9889642
        },
        "location_type": "ROOFTOP",
        "viewport": {
          "northeast": {
            "lat": 43.1002675802915,
            "lng": 142.9903131802915
          },
          "southwest": {
            "lat": 43.0975696197085,
            "lng": 142.9876152197085
          }
        }
      },
      "place_id": "ChIJr0A2OYNyc18RrZjoG2mfRgg",
      "plus_code": {
        "compound_code": "3XXQ+HH 日本、北海道鹿追町",
        "global_code": "8RM43XXQ+HH"
      },
      "types": [
        "street_address"
      ]
    },
    {
      "address_components": [
        {
          "long_name": "中市街",
          "short_name": "中市街",
          "types": [
            "establishment",
            "point_of_interest",
            "transit_station"
          ]
        },
        {
          "long_name": "１丁目",
          "short_name": "１丁目",
          "types": [
            "political",
            "sublocality",
            "sublocality_level_3"
          ]
        },
        {
          "long_name": "東町",
          "short_name": "東町",
          "types": [
            "political",
            "sublocality",
            "sublocality_level_2"
          ]
        },
        {
          "long_name": "鹿追町",
          "short_name": "鹿追町",
          "types": [
            "locality",
            "political"
          ]
        },
        {
          "long_name": "河東郡",
          "short_name": "河東郡",
          "types": [
            "administrative_area_level_2",
            "political"
          ]
        },
        {
          "long_name": "北海道",
          "short_name": "北海道",
          "types": [
            "administrative_area_level_1",
            "political"
          ]
        },
        {
          "long_name": "日本",
          "short_name": "JP",
          "types": [
            "country",
            "political"
          ]
        },
        {
          "long_name": "081-0222",
          "short_name": "081-0222",
          "types": [
            "postal_code"
          ]
        }
      ],
      "formatted_address": "日本、〒081-0222 北海道河東郡鹿追町東町１丁目 中市街",
      "geometry": {
        "location": {
          "lat": 43.098468,
          "lng": 142.9877076
        },
        "location_type": "GEOMETRIC_CENTER",
        "viewport": {
          "northeast": {
            "lat": 43.09981698029149,
            "lng": 142.9890565802915
          },
          "southwest": {
            "lat": 43.09711901970849,
            "lng": 142.9863586197085
          }
        }
      },
      "place_id": "ChIJlWSXDINyc18RvxbHw4Wcz4g",
      "plus_code": {
        "compound_code": "3XXQ+93 日本、北海道鹿追町",
        "global_code": "8RM43XXQ+93"
      },
      "types": [
        "establishment",
        "point_of_interest",
        "transit_station"
      ]
    },
    {
      "address_components": [
        {
          "long_name": "音更新得線",
          "short_name": "国道274号",
          "types": [
            "route"
          ]
        },
        {
          "long_name": "東町",
          "short_name": "東町",
          "types": [
            "political",
            "sublocality",
            "sublocality_level_2"
          ]
        },
        {
          "long_name": "鹿追町",
          "short_name": "鹿追町",
          "types": [
            "locality",
            "political"
          ]
        },
        {
          "long_name": "河東郡",
          "short_name": "河東郡",
          "types": [
            "administrative_area_level_2",
            "political"
          ]
        },
        {
          "long_name": "北海道",
          "short_name": "北海道",
          "types": [
            "administrative_area_level_1",
            "political"
          ]
        },
        {
          "long_name": "日本",
          "short_name": "JP",
          "types": [
            "country",
            "political"
          ]
        },
        {
          "long_name": "081-0222",
          "short_name": "081-0222",
          "types": [
            "postal_code"
          ]
        }
      ],
      "formatted_address": "日本、〒081-0222 北海道河東郡鹿追町東町 国道274号",
      "geometry": {
        "bounds": {
          "northeast": {
            "lat": 43.0984723,
            "lng": 142.9878012
          },
          "southwest": {
            "lat": 43.0980765,
            "lng": 142.9875447
          }
        },
        "location": {
          "lat": 43.0982743,
          "lng": 142.9876727
        },
        "location_type": "GEOMETRIC_CENTER",
        "viewport": {
          "northeast": {
            "lat": 43.0996233802915,
            "lng": 142.9890219302915
          },
          "southwest": {
            "lat": 43.0969254197085,
            "lng": 142.9863239697085
          }
        }
      },
      "place_id": "ChIJH0bkdINyc18RGrjxSK07KH8",
      "types": [
        "route"
      ]
    },
    {
      "address_components": [
        {
          "long_name": "１丁目",
          "short_name": "１丁目",
          "types": [
            "political",
            "sublocality",
            "sublocality_level_3"
          ]
        },
        {
          "long_name": "東町",
          "short_name": "東町",
          "types": [
            "political",
            "sublocality",
            "sublocality_level_2"
          ]
        },
        {
          "long_name": "鹿追町",
          "short_name": "鹿追町",
          "types": [
            "locality",
            "political"
          ]
        },
        {
          "long_name": "河東郡",
          "short_name": "河東郡",
          "types": [
            "administrative_area_level_2",
            "political"
          ]
        },
        {
          "long_name": "北海道",
          "short_name": "北海道",
          "types": [
            "administrative_area_level_1",
            "political"
          ]
        },
        {
          "long_name": "日本",
          "short_name": "JP",
          "types": [
            "country",
            "political"
          ]
        },
        {
          "long_name": "081-0222",
          "short_name": "081-0222",
          "types": [
            "postal_code"
          ]
        }
      ],
      "formatted_address": "日本、〒081-0222 北海道河東郡鹿追町東町１丁目",
      "geometry": {
        "bounds": {
          "northeast": {
            "lat": 43.100461,
            "lng": 142.991007
          },
          "southwest": {
            "lat": 43.098098,
            "lng": 142.9869908
          }
        },
        "location": {
          "lat": 43.09915609999999,
          "lng": 142.9889303
        },
        "location_type": "APPROXIMATE",
        "viewport": {
          "northeast": {
            "lat": 43.1006284802915,
            "lng": 142.991007
          },
          "southwest": {
            "lat": 43.0979305197085,
            "lng": 142.9869908
          }
        }
      },
      "place_id": "ChIJu6e2O4Nyc18ROLDFIGk-rCM",
      "types": [
        "political",
        "sublocality",
        "sublocality_level_3"
      ]
    },
    {
      "address_components": [
        {
          "long_name": "081-0222",
          "short_name": "081-0222",
          "types": [
            "postal_code"
          ]
        },
        {
          "long_name": "東町",
          "short_name": "東町",
          "types": [
            "political",
            "sublocality",
            "sublocality_level_2"
          ]
        },
        {
          "long_name": "鹿追町",
          "short_name": "鹿追町",
          "types": [
            "locality",
            "political"
          ]
        },
        {
          "long_name": "河東郡",
          "short_name": "河東郡",
          "types": [
            "administrative_area_level_2",
            "political"
          ]
        },
        {
          "long_name": "北海道",
          "short_name": "北海道",
          "types": [
            "administrative_area_level_1",
            "political"
          ]
        },
        {
          "long_name": "日本",
          "short_name": "JP",
          "types": [
            "country",
            "political"
          ]
        }
      ],
      "formatted_address": "日本 〒081-0222",
      "geometry": {
        "bounds": {
          "northeast": {
            "lat": 43.10046089999999,
            "lng": 142.9948644
          },
          "southwest": {
            "lat": 43.0915702,
            "lng": 142.9869908
          }
        },
        "location": {
          "lat": 43.09648079999999,
          "lng": 142.9912191
        },
        "location_type": "APPROXIMATE",
        "viewport": {
          "northeast": {
            "lat": 43.10046089999999,
            "lng": 142.9948644
          },
          "southwest": {
            "lat": 43.0915702,
            "lng": 142.9869908
          }
        }
      },
      "place_id": "ChIJ89z3NoNyc18RIpOs97DC5lw",
      "types": [
        "postal_code"
      ]
    },
    {
      "address_components": [
        {
          "long_name": "東町",
          "short_name": "東町",
          "types": [
            "political",
            "sublocality",
            "sublocality_level_2"
          ]
        },
        {
          "long_name": "鹿追町",
          "short_name": "鹿追町",
          "types": [
            "locality",
            "political"
          ]
        },
        {
          "long_name": "河東郡",
          "short_name": "河東郡",
          "types": [
            "administrative_area_level_2",
            "political"
          ]
        },
        {
          "long_name": "北海道",
          "short_name": "北海道",
          "types": [
            "administrative_area_level_1",
            "political"
          ]
        },
        {
          "long_name": "日本",
          "short_name": "JP",
          "types": [
            "country",
            "political"
          ]
        }
      ],
      "formatted_address": "日本、北海道河東郡鹿追町東町",
      "geometry": {
        "bounds": {
          "northeast": {
            "lat": 43.100461,
            "lng": 142.9948651
          },
          "southwest": {
            "lat": 43.09157,
            "lng": 142.9869908
          }
        },
        "location": {
          "lat": 43.09648079999999,
          "lng": 142.9912191
        },
        "location_type": "APPROXIMATE",
        "viewport": {
          "northeast": {
            "lat": 43.100461,
            "lng": 142.9948651
          },
          "southwest": {
            "lat": 43.09157,
            "lng": 142.9869908
          }
        }
      },
      "place_id": "ChIJr0A2OYNyc18Rr4qFMUEUvJI",
      "types": [
        "political",
        "sublocality",
        "sublocality_level_2"
      ]
    },
    {
      "address_components": [
        {
          "long_name": "鹿追町",
          "short_name": "鹿追町",
          "types": [
            "locality",
            "political"
          ]
        },
        {
          "long_name": "河東郡",
          "short_name": "河東郡",
          "types": [
            "administrative_area_level_2",
            "political"
          ]
        },
        {
          "long_name": "北海道",
          "short_name": "北海道",
          "types": [
            "administrative_area_level_1",
            "political"
          ]
        },
        {
          "long_name": "日本",
          "short_name": "JP",
          "types": [
            "country",
            "political"
          ]
        }
      ],
      "formatted_address": "日本、北海道河東郡鹿追町",
      "geometry": {
        "bounds": {
          "northeast": {
            "lat": 43.396382,
            "lng": 143.150373
          },
          "southwest": {
            "lat": 43.011,
            "lng": 142.9226949
          }
        },
        "location": {
          "lat": 43.0988745,
          "lng": 142.9889931
        },
        "location_type": "APPROXIMATE",
        "viewport": {
          "northeast": {
            "lat": 43.396382,
            "lng": 143.150373
          },
          "southwest": {
            "lat": 43.011,
            "lng": 142.9226949
          }
        }
      },
      "place_id": "ChIJUdBdEwAUc18RoC-M8fKHR6A",
      "types": [
        "locality",
        "political"
      ]
    },
    {
      "address_components": [
        {
          "long_name": "河東郡",
          "short_name": "河東郡",
          "types": [
            "administrative_area_level_2",
            "political"
          ]
        },
        {
          "long_name": "北海道",
          "short_name": "北海道",
          "types": [
            "administrative_area_level_1",
            "political"
          ]
        },
        {
          "long_name": "日本",
          "short_name": "JP",
          "types": [
            "country",
            "political"
          ]
        }
      ],
      "formatted_address": "日本、北海道河東郡",
      "geometry": {
        "bounds": {
          "northeast": {
            "lat": 43.59535,
            "lng": 143.4157545
          },
          "southwest": {
            "lat": 42.9246975,
            "lng": 142.9226945
          }
        },
        "location": {
          "lat": 43.2311539,
          "lng": 143.2219582
        },
        "location_type": "APPROXIMATE",
        "viewport": {
          "northeast": {
            "lat": 43.59535,
            "lng": 143.4157545
          },
          "southwest": {
            "lat": 42.9246975,
            "lng": 142.9226945
          }
        }
      },
      "place_id": "ChIJB-abf4MZc18RvOOJQx7kJOY",
      "types": [
        "administrative_area_level_2",
        "political"
      ]
    },
    {
      "address_components": [
        {
          "long_name": "北海道",
          "short_name": "北海道",
          "types": [
            "administrative_area_level_1",
            "political"
          ]
        },
        {
          "long_name": "日本",
          "short_name": "JP",
          "types": [
            "country",
            "political"
          ]
        }
      ],
      "formatted_address": "日本、北海道",
      "geometry": {
        "bounds": {
          "northeast": {
            "lat": 45.5265181,
            "lng": 145.817624
          },
          "southwest": {
            "lat": 41.3516002,
            "lng": 139.3340799
          }
        },
        "location": {
          "lat": 43.2203266,
          "lng": 142.8634737
        },
        "location_type": "APPROXIMATE",
        "viewport": {
          "northeast": {
            "lat": 45.5265181,
            "lng": 145.817624
          },
          "southwest": {
            "lat": 41.3516002,
            "lng": 139.3340799
          }
        }
      },
      "place_id": "ChIJi4hsnyBZn18RjwPOT1bDPBw",
      "types": [
        "administrative_area_level_1",
        "political"
      ]
    },
    {
      "address_components": [
        {
          "long_name": "日本",
          "short_name": "JP",
          "types": [
            "country",
            "political"
          ]
        }
      ],
      "formatted_address": "日本",
      "geometry": {
        "bounds": {
          "northeast": {
            "lat": 45.6412626,
            "lng": 154.0031455
          },
          "southwest": {
            "lat": 20.3585295,
            "lng": 122.8554688
          }
        },
        "location": {
          "lat": 36.204824,
          "lng": 138.252924
        },
        "location_type": "APPROXIMATE",
        "viewport": {
          "northeast": {
            "lat": 45.6412626,
            "lng": 154.0031455
          },
          "southwest": {
            "lat": 20.3585295,
            "lng": 122.8554688
          }
        }
      },
      "place_id": "ChIJLxl_1w9OZzQRRFJmfNR1QvU",
      "types": [
        "country",
        "political"
      ]
    }
  ]
}