{
  "station": "天塩本郷",
  "lat": 43.997028,
  "lng": 141.713639,
  "plus_code": {
    "compound_code": "XPW7+RF 日本、北海道小平町",
    "global_code": "8RM3XPW7+RF"
  },
  "results": [
    {
      "address_components": [
        {
          "long_name": "１２６−１２",
          "short_name": "１２６−１２",
          "types": [
            "premise"
          ]
        },
        {
          "long_name": "字本郷",
          "short_name": "字本郷",
          "types": [
            "political",
            "sublocality",
            "sublocality_level_2"
          ]
        },
        {
          "long_name": "小平町",
          "short_name": "小平町",
          "types": [
            "locality",
            "political"
          ]
        },
        {
          "long_name": "留萌郡",
          "short_name": "留萌郡",
          "types": [
            "administrative_area_level_2",
            "political"
          ]
        },
        {
          "long_name": "北海道",
          "short_name": "北海道",
          "types": [
            "administrative_area_level_1",
            "political"
          ]
        },
        {
          "long_name": "日本",
          "short_name": "JP",
          "types": [
            "country",
            "political"
          ]
        },
        {
          "long_name": "078-3304",
          "short_name": "078-3304",
          "types": [
            "postal_code"
          ]
        }
      ],
      "formatted_address": "日本、〒078-3304 北海道留萌郡小平町字本郷１２６−１２",
      "geometry": {
        "location": {
          "lat": 43.9970593,
          "lng": 141.7134674
        },
        "location_type": "ROOFTOP",
        "viewport": {
          "northeast": {
            "lat": 43.9984082802915,
            "lng": 141.7148163802915
          },
          "southwest": {
            "lat": 43.9957103197085,
            "lng": 141.7121184197085
          }
        }
      },
      "place_id": "ChIJTyOf1VtCDF8RSbsByN3Wpo4",
      "plus_code": {
        "compound_code": "XPW7+R9 日本、北海道小平町",
        "global_code": "8RM3XPW7+R9"
      },
      "types": [
        "street_address"
      ]
    },
    {
      "address_components": [
        {
          "long_name": "幌糠小平(停)線",
          "short_name": "道道550号",
          "types": [
            "route"
          ]
        },
        {
          "long_name": "字本郷",
          "short_name": "字本郷",
          "types": [
            "political",
            "sublocality",
            "sublocality_level_2"
          ]
        },
        {
          "long_name": "小平町",
          "short_name": "小平町",
          "types": [
            "locality",
            "political"
          ]
        },
        {
          "long_name": "留萌郡",
          "short_name": "留萌郡",
          "types": [
            "administrative_area_level_2",
            "political"
          ]
        },
        {
          "long_name": "北海道",
          "short_name": "北海道",
          "types": [
            "administrative_area_level_1",
            "political"
          ]
        },
        {
          "long_name": "日本",
          "short_name": "JP",
          "types": [
            "country",
            "political"
          ]
        },
        {
          "long_name": "078-3304",
          "short_name": "078-3304",
          "types": [
            "postal_code"
          ]
        }
      ],
      "formatted_address": "日本、〒078-3304 北海道留萌郡小平町字本郷 道道550号",
      "geometry": {
        "bounds": {
          "northeast": {
            "lat": 43.9978133,
            "lng": 141.7146604
          },
          "southwest": {
            "lat": 43.9976489,
            "lng": 141.714051
          }
        },
        "location": {
          "lat": 43.99773210000001,
          "lng": 141.7143562
        },
        "location_type": "GEOMETRIC_CENTER",
        "viewport": {
          "northeast": {
            "lat": 43.9990800802915,
            "lng": 141.7157046802915
          },
          "southwest": {
            "lat": 43.9963821197085,
            "lng": 141.7130067197085
          }
        }
      },
      "place_id": "ChIJE0cwJFpCDF8RWLV8NSBj8R4",
      "types": [
        "route"
      ]
    },
    {
      "address_components": [
        {
          "long_name": "字本郷",
          "short_name": "字本郷",
          "types": [
            "political",
            "sublocality",
            "sublocality_level_2"
          ]
        },
        {
          "long_name": "小平町",
          "short_name": "小平町",
          "types": [
            "locality",
            "political"
          ]
        },
        {
          "long_name": "留萌郡",
          "short_name": "留萌郡",
          "types": [
            "administrative_area_level_2",
            "political"
          ]
        },
        {
          "long_name": "北海道",
          "short_name": "北海道",
          "types": [
            "administrative_area_level_1",
            "political"
          ]
        },
        {
          "long_name": "日本",
          "short_name": "JP",
          "types": [
            "country",
            "political"
          ]
        },
        {
          "long_name": "078-3304",
          "short_name": "078-3304",
          "types": [
            "postal_code"
          ]
        }
      ],
      "formatted_address": "日本、〒078-3304 北海道留萌郡小平町字本郷",
      "geometry": {
        "bounds": {
          "northeast": {
            "lat": 44.0114381,
            "lng": 141.7309011
          },
          "southwest": {
            "lat": 43.980273,
            "lng": 141.6795651
          }
        },
        "location": {
          "lat": 43.9911341,
          "lng": 141.6986401
        },
        "location_type": "APPROXIMATE",
        "viewport": {
          "northeast": {
            "lat": 44.0114381,
            "lng": 141.7309011
          },
          "southwest": {
            "lat": 43.980273,
            "lng": 141.6795651
          }
        }
      },
      "place_id": "ChIJERKysF1CDF8RIOP8-jsNyAQ",
      "types": [
        "political",
        "sublocality",
        "sublocality_level_2"
      ]
    },
    {
      "address_components": [
        {
          "long_name": "078-3304",
          "short_name": "078-3304",
          "types": [
            "postal_code"
          ]
        },
        {
          "long_name": "字本郷",
          "short_name": "字本郷",
          "types": [
            "political",
            "sublocality",
            "sublocality_level_2"
          ]
        },
        {
          "long_name": "小平町",
          "short_name": "小平町",
          "types": [
            "locality",
            "political"
          ]
        },
        {
          "long_name": "留萌郡",
          "short_name": "留萌郡",
          "types": [
            "administrative_area_level_2",
            "political"
          ]
        },
        {
          "long_name": "北海道",
          "short_name": "北海道",
          "types": [
            "administrative_area_level_1",
            "political"
          ]
        },
        {
          "long_name": "日本",
          "short_name": "JP",
          "types": [
            "country",
            "political"
          ]
        }
      ],
      "formatted_address": "日本 〒078-3304",
      "geometry": {
        "bounds": {
          "northeast": {
            "lat": 44.0116879,
            "lng": 141.730905
          },
          "southwest": {
            "lat": 43.9802739,
            "lng": 141.6796597
          }
        },
        "location": {
          "lat": 43.9911341,
          "lng": 141.6986401
        },
        "location_type": "APPROXIMATE",
        "viewport": {
          "northeast": {
            "lat": 44.0116879,
            "lng": 141.730905
          },
          "southwest": {
            "lat": 43.9802739,
            "lng": 141.6796597
          }
        }
      },
      "place_id": "ChIJrSsajFlCDF8R79N-A1lKUZE",
      "types": [
        "postal_code"
      ]
    },
    {
      "address_components": [
        {
          "long_name": "小平町",
          "short_name": "小平町",
          "types": [
            "locality",
            "political"
          ]
        },
        {
          "long_name": "留萌郡",
          "short_name": "留萌郡",
          "types": [
            "administrative_area_level_2",
            "political"
          ]
        },
        {
          "long_name": "北海道",
          "short_name": "北海道",
          "types": [
            "administrative_area_level_1",
            "political"
          ]
        },
        {
          "long_name": "日本",
          "short_name": "JP",
          "types": [
            "country",
            "political"
          ]
        }
      ],
      "formatted_address": "日本、北海道留萌郡小平町",
      "geometry": {
        "bounds": {
          "northeast": {
            "lat": 44.215245,
            "lng": 142.0781879
          },
          "southwest": {
            "lat": 43.925124,
            "lng": 141.649304
          }
        },
        "location": {
          "lat": 44.0151849,
          "lng": 141.6627351
        },
        "location_type": "APPROXIMATE",
        "viewport": {
          "northeast": {
            "lat": 44.215245,
            "lng": 142.0781879
          },
          "southwest": {
            "lat": 43.925124,
            "lng": 141.649304
          }
        }
      },
      "place_id": "ChIJt4fU9mBPDF8R4Uc4EOAU7gs",
      "types": [
        "locality",
        "political"
      ]
    },
    {
      "address_components": [
        {
          "long_name": "留萌郡",
          "short_name": "留萌郡",
          "types": [
            "administrative_area_level_2",
            "political"
          ]
        },
        {
          "long_name": "小平町",
          "short_name": "小平町",
          "types": [
            "locality",
            "political"
          ]
        },
        {
          "long_name": "北海道",
          "short_name": "北海道",
          "types": [
            "administrative_area_level_1",
            "political"
          ]
        },
        {
          "long_name": "日本",
          "short_name": "JP",
          "types": [
            "country",
            "political"
          ]
        }
      ],
      "formatted_address": "日本、北海道留萌郡小平町",
      "geometry": {
        "bounds": {
          "northeast": {
            "lat": 44.2152452,
            "lng": 142.0781878
          },
          "southwest": {
            "lat": 43.9251238,
            "lng": 141.6493036
          }
        },
        "location": {
          "lat": 44.0378655,
          "lng": 141.8308288
        },
        "location_type": "APPROXIMATE",
        "viewport": {
          "northeast": {
            "lat": 44.2152452,
            "lng": 142.0781878
          },
          "southwest": {
            "lat": 43.9251238,
            "lng": 141.6493036
          }
        }
      },
      "place_id": "ChIJt4fU9mBPDF8R4OHqNeIQ1Xc",
      "types": [
        "administrative_area_level_2",
        "political"
      ]
    },
    {
      "address_components": [
        {
          "long_name": "北海道",
          "short_name": "北海道",
          "types": [
            "administrative_area_level_1",
            "political"
          ]
        },
        {
          "long_name": "日本",
          "short_name": "JP",
          "types": [
            "country",
            "political"
          ]
        }
      ],
      "formatted_address": "日本、北海道",
      "geometry": {
        "bounds": {
          "northeast": {
            "lat": 45.5265181,
            "lng": 145.817624
          },
          "southwest": {
            "lat": 41.3516002,
            "lng": 139.3340799
          }
        },
        "location": {
          "lat": 43.2203266,
          "lng": 142.8634737
        },
        "location_type": "APPROXIMATE",
        "viewport": {
          "northeast": {
            "lat": 45.5265181,
            "lng": 145.817624
          },
          "southwest": {
            "lat": 41.3516002,
            "lng": 139.3340799
          }
        }
      },
      "place_id": "ChIJi4hsnyBZn18RjwPOT1bDPBw",
      "types": [
        "administrative_area_level_1",
        "political"
      ]
    },
    {
      "address_components": [
        {
          "long_name": "日本",
          "short_name": "JP",
          "types": [
            "country",
            "political"
          ]
        }
      ],
      "formatted_address": "日本",
      "geometry": {
        "bounds": {
          "northeast": {
            "lat": 45.6412626,
            "lng": 154.0031455
          },
          "southwest": {
            "lat": 20.3585295,
            "lng": 122.8554688
          }
        },
        "location": {
          "lat": 36.204824,
          "lng": 138.252924
        },
        "location_type": "APPROXIMATE",
        "viewport": {
          "northeast": {
            "lat": 45.6412626,
            "lng": 154.0031455
          },
          "southwest": {
            "lat": 20.3585295,
            "lng": 122.8554688
          }
        }
      },
      "place_id": "ChIJLxl_1w9OZzQRRFJmfNR1QvU",
      "types": [
        "country",
        "political"
      ]
    }
  ]
}