{
  "station": "美唄炭山",
  "lat": 43.321944,
  "lng": 141.953083,
  "plus_code": {
    "compound_code": "8XC3+Q6 日本、北海道美唄市",
    "global_code": "8RM38XC3+Q6"
  },
  "results": [
    {
      "address_components": [
        {
          "long_name": "２０５４",
          "short_name": "２０５４",
          "types": [
            "premise"
          ]
        },
        {
          "long_name": "番町",
          "short_name": "番町",
          "types": [
            "political",
            "sublocality",
            "sublocality_level_3"
          ]
        },
        {
          "long_name": "東美唄町",
          "short_name": "東美唄町",
          "types": [
            "political",
            "sublocality",
            "sublocality_level_2"
          ]
        },
        {
          "long_name": "美唄市",
          "short_name": "美唄市",
          "types": [
            "locality",
            "political"
          ]
        },
        {
          "long_name": "北海道",
          "short_name": "北海道",
          "types": [
            "administrative_area_level_1",
            "political"
          ]
        },
        {
          "long_name": "日本",
          "short_name": "JP",
          "types": [
            "country",
            "political"
          ]
        },
        {
          "long_name": "072-0000",
          "short_name": "072-0000",
          "types": [
            "postal_code"
          ]
        }
      ],
      "formatted_address": "日本、〒072-0000 北海道美唄市東美唄町番町２０５４",
      "geometry": {
        "location": {
          "lat": 43.3216997,
          "lng": 141.9511558
        },
        "location_type": "ROOFTOP",
        "viewport": {
          "northeast": {
            "lat": 43.32304868029149,
            "lng": 141.9525047802915
          },
          "southwest": {
            "lat": 43.32035071970849,
            "lng": 141.9498068197085
          }
        }
      },
      "place_id": "ChIJe6LVgNRWC18RfMfxN-iukDU",
      "plus_code": {
        "compound_code": "8XC2+MF 日本、北海道美唄市",
        "global_code": "8RM38XC2+MF"
      },
      "types": [
        "street_address"
      ]
    },
    {
      "address_components": [
        {
          "long_name": "美唄富良野線",
          "short_name": "道道135号",
          "types": [
            "route"
          ]
        },
        {
          "long_name": "鴻の台",
          "short_name": "鴻の台",
          "types": [
            "political",
            "sublocality",
            "sublocality_level_3"
          ]
        },
        {
          "long_name": "東美唄町",
          "short_name": "東美唄町",
          "types": [
            "political",
            "sublocality",
            "sublocality_level_2"
          ]
        },
        {
          "long_name": "美唄市",
          "short_name": "美唄市",
          "types": [
            "locality",
            "political"
          ]
        },
        {
          "long_name": "北海道",
          "short_name": "北海道",
          "types": [
            "administrative_area_level_1",
            "political"
          ]
        },
        {
          "long_name": "日本",
          "short_name": "JP",
          "types": [
            "country",
            "political"
          ]
        },
        {
          "long_name": "072-0000",
          "short_name": "072-0000",
          "types": [
            "postal_code"
          ]
        }
      ],
      "formatted_address": "日本、〒072-0000 北海道美唄市東美唄町鴻の台 道道135号",
      "geometry": {
        "bounds": {
          "northeast": {
            "lat": 43.3223445,
            "lng": 141.9538913
          },
          "southwest": {
            "lat": 43.3221816,
            "lng": 141.9516531
          }
        },
        "location": {
          "lat": 43.3223436,
          "lng": 141.9527853
        },
        "location_type": "GEOMETRIC_CENTER",
        "viewport": {
          "northeast": {
            "lat": 43.3236120302915,
            "lng": 141.9541211802915
          },
          "southwest": {
            "lat": 43.3209140697085,
            "lng": 141.9514232197085
          }
        }
      },
      "place_id": "ChIJE06TdNRWC18RDPpokAbbgak",
      "types": [
        "route"
      ]
    },
    {
      "address_components": [
        {
          "long_name": "鴻の台",
          "short_name": "鴻の台",
          "types": [
            "political",
            "sublocality",
            "sublocality_level_3"
          ]
        },
        {
          "long_name": "東美唄町",
          "short_name": "東美唄町",
          "types": [
            "political",
            "sublocality",
            "sublocality_level_2"
          ]
        },
        {
          "long_name": "美唄市",
          "short_name": "美唄市",
          "types": [
            "locality",
            "political"
          ]
        },
        {
          "long_name": "北海道",
          "short_name": "北海道",
          "types": [
            "administrative_area_level_1",
            "political"
          ]
        },
        {
          "long_name": "日本",
          "short_name": "JP",
          "types": [
            "country",
            "political"
          ]
        },
        {
          "long_name": "072-0000",
          "short_name": "072-0000",
          "types": [
            "postal_code"
          ]
        }
      ],
      "formatted_address": "日本、〒072-0000 北海道美唄市東美唄町鴻の台",
      "geometry": {
        "bounds": {
          "northeast": {
            "lat": 43.322672,
            "lng": 141.9657991
          },
          "southwest": {
            "lat": 43.310872,
            "lng": 141.9502379
          }
        },
        "location": {
          "lat": 43.3169486,
          "lng": 141.9564938
        },
        "location_type": "APPROXIMATE",
        "viewport": {
          "northeast": {
            "lat": 43.322672,
            "lng": 141.9657991
          },
          "southwest": {
            "lat": 43.310872,
            "lng": 141.9502379
          }
        }
      },
      "place_id": "ChIJ18LfC81WC18RCIUt48Q8SJE",
      "types": [
        "political",
        "sublocality",
        "sublocality_level_3"
      ]
    },
    {
      "address_components": [
        {
          "long_name": "東美唄町",
          "short_name": "東美唄町",
          "types": [
            "political",
            "sublocality",
            "sublocality_level_2"
          ]
        },
        {
          "long_name": "美唄市",
          "short_name": "美唄市",
          "types": [
            "locality",
            "political"
          ]
        },
        {
          "long_name": "北海道",
          "short_name": "北海道",
          "types": [
            "administrative_area_level_1",
            "political"
          ]
        },
        {
          "long_name": "日本",
          "short_name": "JP",
          "types": [
            "country",
            "political"
          ]
        },
        {
          "long_name": "072-0000",
          "short_name": "072-0000",
          "types": [
            "postal_code"
          ]
        }
      ],
      "formatted_address": "日本、〒072-0000 北海道美唄市東美唄町",
      "geometry": {
        "bounds": {
          "northeast": {
            "lat": 43.419842,
            "lng": 142.062248
          },
          "southwest": {
            "lat": 43.2876561,
            "lng": 141.921836
          }
        },
        "location": {
          "lat": 43.3533982,
          "lng": 141.9930516
        },
        "location_type": "APPROXIMATE",
        "viewport": {
          "northeast": {
            "lat": 43.419842,
            "lng": 142.062248
          },
          "southwest": {
            "lat": 43.2876561,
            "lng": 141.921836
          }
        }
      },
      "place_id": "ChIJ-ZPpkNpWC18RG3v2feT0WRg",
      "types": [
        "political",
        "sublocality",
        "sublocality_level_2"
      ]
    },
    {
      "address_components": [
        {
          "long_name": "072-0000",
          "short_name": "072-0000",
          "types": [
            "postal_code"
          ]
        },
        {
          "long_name": "美唄市",
          "short_name": "美唄市",
          "types": [
            "locality",
            "political"
          ]
        },
        {
          "long_name": "北海道",
          "short_name": "北海道",
          "types": [
            "administrative_area_level_1",
            "political"
          ]
        },
        {
          "long_name": "日本",
          "short_name": "JP",
          "types": [
            "country",
            "political"
          ]
        }
      ],
      "formatted_address": "日本 〒072-0000",
      "geometry": {
        "bounds": {
          "northeast": {
            "lat": 43.4198416,
            "lng": 142.0622481
          },
          "southwest": {
            "lat": 43.2874503,
            "lng": 141.8023306
          }
        },
        "location": {
          "lat": 43.3533982,
          "lng": 141.9930516
        },
        "location_type": "APPROXIMATE",
        "viewport": {
          "northeast": {
            "lat": 43.4198416,
            "lng": 142.0622481
          },
          "southwest": {
            "lat": 43.2874503,
            "lng": 141.8023306
          }
        }
      },
      "place_id": "ChIJoWdMkJJaC18RaiOj4D2nF68",
      "types": [
        "postal_code"
      ]
    },
    {
      "address_components": [
        {
          "long_name": "美唄市",
          "short_name": "美唄市",
          "types": [
            "locality",
            "political"
          ]
        },
        {
          "long_name": "北海道",
          "short_name": "北海道",
          "types": [
            "administrative_area_level_1",
            "political"
          ]
        },
        {
          "long_name": "日本",
          "short_name": "JP",
          "types": [
            "country",
            "political"
          ]
        }
      ],
      "formatted_address": "日本、北海道美唄市",
      "geometry": {
        "bounds": {
          "northeast": {
            "lat": 43.419703,
            "lng": 142.062177
          },
          "southwest": {
            "lat": 43.248262,
            "lng": 141.694332
          }
        },
        "location": {
          "lat": 43.3328322,
          "lng": 141.8538617
        },
        "location_type": "APPROXIMATE",
        "viewport": {
          "northeast": {
            "lat": 43.419703,
            "lng": 142.062177
          },
          "southwest": {
            "lat": 43.248262,
            "lng": 141.694332
          }
        }
      },
      "place_id": "ChIJfeUk-5tQC18RWw4U_YFfr50",
      "types": [
        "locality",
        "political"
      ]
    },
    {
      "address_components": [
        {
          "long_name": "北海道",
          "short_name": "北海道",
          "types": [
            "administrative_area_level_1",
            "political"
          ]
        },
        {
          "long_name": "日本",
          "short_name": "JP",
          "types": [
            "country",
            "political"
          ]
        }
      ],
      "formatted_address": "日本、北海道",
      "geometry": {
        "bounds": {
          "northeast": {
            "lat": 45.5265181,
            "lng": 145.817624
          },
          "southwest": {
            "lat": 41.3516002,
            "lng": 139.3340799
          }
        },
        "location": {
          "lat": 43.2203266,
          "lng": 142.8634737
        },
        "location_type": "APPROXIMATE",
        "viewport": {
          "northeast": {
            "lat": 45.5265181,
            "lng": 145.817624
          },
          "southwest": {
            "lat": 41.3516002,
            "lng": 139.3340799
          }
        }
      },
      "place_id": "ChIJi4hsnyBZn18RjwPOT1bDPBw",
      "types": [
        "administrative_area_level_1",
        "political"
      ]
    },
    {
      "address_components": [
        {
          "long_name": "日本",
          "short_name": "JP",
          "types": [
            "country",
            "political"
          ]
        }
      ],
      "formatted_address": "日本",
      "geometry": {
        "bounds": {
          "northeast": {
            "lat": 45.6412626,
            "lng": 154.0031455
          },
          "southwest": {
            "lat": 20.3585295,
            "lng": 122.8554688
          }
        },
        "location": {
          "lat": 36.204824,
          "lng": 138.252924
        },
        "location_type": "APPROXIMATE",
        "viewport": {
          "northeast": {
            "lat": 45.6412626,
            "lng": 154.0031455
          },
          "southwest": {
            "lat": 20.3585295,
            "lng": 122.8554688
          }
        }
      },
      "place_id": "ChIJLxl_1w9OZzQRRFJmfNR1QvU",
      "types": [
        "country",
        "political"
      ]
    }
  ]
}