{
  "station": "高校通り",
  "lat": 43.512028,
  "lng": 142.189444,
  "plus_code": {
    "compound_code": "G56Q+RQ 日本、北海道芦別市",
    "global_code": "8RM4G56Q+RQ"
  },
  "results": [
    {
      "address_components": [
        {
          "long_name": "２７７",
          "short_name": "２７７",
          "types": [
            "premise"
          ]
        },
        {
          "long_name": "本町",
          "short_name": "本町",
          "types": [
            "political",
            "sublocality",
            "sublocality_level_2"
          ]
        },
        {
          "long_name": "芦別市",
          "short_name": "芦別市",
          "types": [
            "locality",
            "political"
          ]
        },
        {
          "long_name": "北海道",
          "short_name": "北海道",
          "types": [
            "administrative_area_level_1",
            "political"
          ]
        },
        {
          "long_name": "日本",
          "short_name": "JP",
          "types": [
            "country",
            "political"
          ]
        },
        {
          "long_name": "075-0041",
          "short_name": "075-0041",
          "types": [
            "postal_code"
          ]
        }
      ],
      "formatted_address": "日本、〒075-0041 北海道芦別市本町２７７",
      "geometry": {
        "location": {
          "lat": 43.5120973,
          "lng": 142.1895461
        },
        "location_type": "ROOFTOP",
        "viewport": {
          "northeast": {
            "lat": 43.5134462802915,
            "lng": 142.1908950802915
          },
          "southwest": {
            "lat": 43.5107483197085,
            "lng": 142.1881971197085
          }
        }
      },
      "place_id": "ChIJ21PfP6i7DF8RSM-C-5Lbhf8",
      "plus_code": {
        "compound_code": "G56Q+RR 日本、北海道芦別市",
        "global_code": "8RM4G56Q+RR"
      },
      "types": [
        "street_address"
      ]
    },
    {
      "address_components": [
        {
          "long_name": "１９７−３０",
          "short_name": "１９７−３０",
          "types": [
            "premise"
          ]
        },
        {
          "long_name": "本町",
          "short_name": "本町",
          "types": [
            "political",
            "sublocality",
            "sublocality_level_2"
          ]
        },
        {
          "long_name": "芦別市",
          "short_name": "芦別市",
          "types": [
            "locality",
            "political"
          ]
        },
        {
          "long_name": "北海道",
          "short_name": "北海道",
          "types": [
            "administrative_area_level_1",
            "political"
          ]
        },
        {
          "long_name": "日本",
          "short_name": "JP",
          "types": [
            "country",
            "political"
          ]
        },
        {
          "long_name": "075-0041",
          "short_name": "075-0041",
          "types": [
            "postal_code"
          ]
        }
      ],
      "formatted_address": "日本、〒075-0041 北海道芦別市本町１９７−３０",
      "geometry": {
        "bounds": {
          "northeast": {
            "lat": 43.5116891,
            "lng": 142.1894717
          },
          "southwest": {
            "lat": 43.5115966,
            "lng": 142.1893673
          }
        },
        "location": {
          "lat": 43.5116323,
          "lng": 142.1894226
        },
        "location_type": "ROOFTOP",
        "viewport": {
          "northeast": {
            "lat": 43.5129918302915,
            "lng": 142.1907684802915
          },
          "southwest": {
            "lat": 43.51029386970851,
            "lng": 142.1880705197085
          }
        }
      },
      "place_id": "ChIJpbs8O6i7DF8RAzZxmUR5iX8",
      "types": [
        "premise"
      ]
    },
    {
      "address_components": [
        {
          "long_name": "Unnamed Road",
          "short_name": "Unnamed Road",
          "types": [
            "route"
          ]
        },
        {
          "long_name": "本町",
          "short_name": "本町",
          "types": [
            "political",
            "sublocality",
            "sublocality_level_2"
          ]
        },
        {
          "long_name": "芦別市",
          "short_name": "芦別市",
          "types": [
            "locality",
            "political"
          ]
        },
        {
          "long_name": "北海道",
          "short_name": "北海道",
          "types": [
            "administrative_area_level_1",
            "political"
          ]
        },
        {
          "long_name": "日本",
          "short_name": "JP",
          "types": [
            "country",
            "political"
          ]
        },
        {
          "long_name": "075-0041",
          "short_name": "075-0041",
          "types": [
            "postal_code"
          ]
        }
      ],
      "formatted_address": "Unnamed Road, 本町 芦別市 北海道 075-0041 日本",
      "geometry": {
        "bounds": {
          "northeast": {
            "lat": 43.5118652,
            "lng": 142.1897745
          },
          "southwest": {
            "lat": 43.5118381,
            "lng": 142.1894574
          }
        },
        "location": {
          "lat": 43.51185170000001,
          "lng": 142.1896159
        },
        "location_type": "GEOMETRIC_CENTER",
        "viewport": {
          "northeast": {
            "lat": 43.51320063029149,
            "lng": 142.1909649302915
          },
          "southwest": {
            "lat": 43.51050266970849,
            "lng": 142.1882669697085
          }
        }
      },
      "place_id": "ChIJjwW6Pqi7DF8RVEfvrRhf330",
      "types": [
        "route"
      ]
    },
    {
      "address_components": [
        {
          "long_name": "本町",
          "short_name": "本町",
          "types": [
            "political",
            "sublocality",
            "sublocality_level_2"
          ]
        },
        {
          "long_name": "芦別市",
          "short_name": "芦別市",
          "types": [
            "locality",
            "political"
          ]
        },
        {
          "long_name": "北海道",
          "short_name": "北海道",
          "types": [
            "administrative_area_level_1",
            "political"
          ]
        },
        {
          "long_name": "日本",
          "short_name": "JP",
          "types": [
            "country",
            "political"
          ]
        }
      ],
      "formatted_address": "日本、北海道芦別市本町",
      "geometry": {
        "bounds": {
          "northeast": {
            "lat": 43.534682,
            "lng": 142.204176
          },
          "southwest": {
            "lat": 43.49948200000001,
            "lng": 142.1481909
          }
        },
        "location": {
          "lat": 43.5133209,
          "lng": 142.1758243
        },
        "location_type": "APPROXIMATE",
        "viewport": {
          "northeast": {
            "lat": 43.534682,
            "lng": 142.204176
          },
          "southwest": {
            "lat": 43.49948200000001,
            "lng": 142.1481909
          }
        }
      },
      "place_id": "ChIJvWiN9wq7DF8R3Lh5jvCgnxo",
      "types": [
        "political",
        "sublocality",
        "sublocality_level_2"
      ]
    },
    {
      "address_components": [
        {
          "long_name": "075-0041",
          "short_name": "075-0041",
          "types": [
            "postal_code"
          ]
        },
        {
          "long_name": "本町",
          "short_name": "本町",
          "types": [
            "political",
            "sublocality",
            "sublocality_level_2"
          ]
        },
        {
          "long_name": "芦別市",
          "short_name": "芦別市",
          "types": [
            "locality",
            "political"
          ]
        },
        {
          "long_name": "北海道",
          "short_name": "北海道",
          "types": [
            "administrative_area_level_1",
            "political"
          ]
        },
        {
          "long_name": "日本",
          "short_name": "JP",
          "types": [
            "country",
            "political"
          ]
        }
      ],
      "formatted_address": "日本 〒075-0041",
      "geometry": {
        "bounds": {
          "northeast": {
            "lat": 43.5344317,
            "lng": 142.2041766
          },
          "southwest": {
            "lat": 43.4980913,
            "lng": 142.1502346
          }
        },
        "location": {
          "lat": 43.5133209,
          "lng": 142.1758243
        },
        "location_type": "APPROXIMATE",
        "viewport": {
          "northeast": {
            "lat": 43.5344317,
            "lng": 142.2041766
          },
          "southwest": {
            "lat": 43.4980913,
            "lng": 142.1502346
          }
        }
      },
      "place_id": "ChIJGytEgaC7DF8Rh5bZFVIPKWQ",
      "types": [
        "postal_code"
      ]
    },
    {
      "address_components": [
        {
          "long_name": "芦別市",
          "short_name": "芦別市",
          "types": [
            "locality",
            "political"
          ]
        },
        {
          "long_name": "北海道",
          "short_name": "北海道",
          "types": [
            "administrative_area_level_1",
            "political"
          ]
        },
        {
          "long_name": "日本",
          "short_name": "JP",
          "types": [
            "country",
            "political"
          ]
        }
      ],
      "formatted_address": "日本、北海道芦別市",
      "geometry": {
        "bounds": {
          "northeast": {
            "lat": 43.660903,
            "lng": 142.368188
          },
          "southwest": {
            "lat": 43.2066099,
            "lng": 142.0459239
          }
        },
        "location": {
          "lat": 43.5183186,
          "lng": 142.1894916
        },
        "location_type": "APPROXIMATE",
        "viewport": {
          "northeast": {
            "lat": 43.660903,
            "lng": 142.368188
          },
          "southwest": {
            "lat": 43.2066099,
            "lng": 142.0459239
          }
        }
      },
      "place_id": "ChIJMzsy486vDF8R2HieKkYIc5A",
      "types": [
        "locality",
        "political"
      ]
    },
    {
      "address_components": [
        {
          "long_name": "北海道",
          "short_name": "北海道",
          "types": [
            "administrative_area_level_1",
            "political"
          ]
        },
        {
          "long_name": "日本",
          "short_name": "JP",
          "types": [
            "country",
            "political"
          ]
        }
      ],
      "formatted_address": "日本、北海道",
      "geometry": {
        "bounds": {
          "northeast": {
            "lat": 45.5265181,
            "lng": 145.817624
          },
          "southwest": {
            "lat": 41.3516002,
            "lng": 139.3340799
          }
        },
        "location": {
          "lat": 43.2203266,
          "lng": 142.8634737
        },
        "location_type": "APPROXIMATE",
        "viewport": {
          "northeast": {
            "lat": 45.5265181,
            "lng": 145.817624
          },
          "southwest": {
            "lat": 41.3516002,
            "lng": 139.3340799
          }
        }
      },
      "place_id": "ChIJi4hsnyBZn18RjwPOT1bDPBw",
      "types": [
        "administrative_area_level_1",
        "political"
      ]
    },
    {
      "address_components": [
        {
          "long_name": "日本",
          "short_name": "JP",
          "types": [
            "country",
            "political"
          ]
        }
      ],
      "formatted_address": "日本",
      "geometry": {
        "bounds": {
          "northeast": {
            "lat": 45.6412626,
            "lng": 154.0031455
          },
          "southwest": {
            "lat": 20.3585295,
            "lng": 122.8554688
          }
        },
        "location": {
          "lat": 36.204824,
          "lng": 138.252924
        },
        "location_type": "APPROXIMATE",
        "viewport": {
          "northeast": {
            "lat": 45.6412626,
            "lng": 154.0031455
          },
          "southwest": {
            "lat": 20.3585295,
            "lng": 122.8554688
          }
        }
      },
      "place_id": "ChIJLxl_1w9OZzQRRFJmfNR1QvU",
      "types": [
        "country",
        "political"
      ]
    }
  ]
}